[{"poiid":"B2094757D06EABF54592","title":"行知路地铁站","lon":"121.421869","lat":"31.284585","category":"36","category_name":"地铁站","address":"上海轨道交通 七号线 轨交行知路站 7"},{"poiid":"B2094654D465A7FF439D","title":"九百购物中心","lon":"121.42142","lat":"31.28039","category":"119","category_name":"商场","address":"宝山区华灵路1051-1067号(新沪路口)"},{"poiid":"B2094757DA6EA4F5429E","title":"808Kpub（华灵店）","lon":"121.421585000002","lat":"31.2801280000001","category":"248","category_name":"生活娱乐","address":"华灵路1090号3楼"},{"poiid":"B2094757D06FA7FD429D","title":"上海大饭堂","lon":"121.42330169","lat":"31.276973724","category":"76","category_name":"上海菜","address":"宝山区华灵路685号(近大华三路)"},{"poiid":"B2094757D06FA4FE479F","title":"大华路行知路","lon":"121.41680145","lat":"31.28322792","category":"500","category_name":"未知分类","address":"上海大华路"},{"poiid":"B2094757D068A2FC4092","title":"长寿面馆乡吧岛香辣小龙虾(大华店)","lon":"121.41661","lat":"31.28475","category":"68","category_name":"快餐厅","address":"宝山区大华路1364号(近行知路)"},{"poiid":"B2094757D06FA7F44492","title":"买卖提红玫瑰烤涮龙虾馆(大华店)","lon":"121.42348","lat":"31.27862","category":"68","category_name":"快餐厅","address":"宝山区华灵路845号(新沪路口)"},{"poiid":"B2094757D66BA4FF4199","title":"肯德基 大华店 KFC","lon":"121.42147377743","lat":"31.279639567314","category":"68","category_name":"快餐厅","address":"宝山区华灵路1051号(近九百购物中心)"},{"poiid":"B2094757D06FA3FD4198","title":"大润发(华灵店)","lon":"121.42163","lat":"31.27986","category":"118","category_name":"超级市场","address":"宝山区华灵路1051-1067号(新沪路口)"},{"poiid":"B2094757D06FAAFA419B","title":"阿拉宁波菜 (沪太店)","lon":"121.422485352","lat":"31.2841529846","category":"75","category_name":"浙江菜","address":"宝山区沪太路1555号(近行知路)"},{"poiid":"B2094654D465A7FE439B","title":"大华铂金华府","lon":"121.421","lat":"31.2803","category":"47","category_name":"住宅区","address":"宝山区大华二路201号(大华路口)"},{"poiid":"B2094750D26FA0F9469E","title":"大华婚礼中心","lon":"121.421559","lat":"31.279701","category":"247","category_name":"餐饮美食","address":"华灵路1088号4楼"},{"poiid":"B2094655D26AAAFB489A","title":"桐春金农庄","lon":"121.42136","lat":"31.28013","category":"87","category_name":"特色／地方风味餐厅","address":"宝山区华灵路908号(九百购物中心对面)"},{"poiid":"B2094757D569A2FC439F","title":"大华文华苑","lon":"121.420585","lat":"31.27765611","category":"47","category_name":"住宅区","address":"上海市宝山区新沪路1099弄"},{"poiid":"B2094655D36CA7FE4192","title":"沪太路余庆桥","lon":"121.42348","lat":"31.28192","category":"38","category_name":"公交车站","address":""},{"poiid":"B2094655D26FA1FA4593","title":"文华苑北门(华灵路)","lon":"121.4183","lat":"31.27927","category":"47","category_name":"住宅区","address":"华灵路1180弄1-65号"},{"poiid":"B2094654D465A7FF409F","title":"绍兴饭店 大华店","lon":"121.42000800399","lat":"31.279306218168","category":"75","category_name":"浙江菜","address":"宝山区华灵路1088号(近新沪路)"},{"poiid":"B2094654D465A7F94392","title":"复星花园","lon":"121.41967","lat":"31.285856","category":"47","category_name":"住宅区","address":"上海市宝山区行知路50弄"},{"poiid":"B2094757D06BA6FE4793","title":"老绍兴三黄鸡酒家(行知路店)","lon":"121.42112","lat":"31.28424","category":"76","category_name":"上海菜","address":"宝山区行知路42号(近沪太路)"},{"poiid":"B2094757D464A5F9439F","title":"大唐人家面馆 华灵路店","lon":"121.422361054","lat":"31.279434793","category":"247","category_name":"餐饮美食","address":"宝山区华灵路845号(近联华超市)"},{"poiid":"B2094757D069A6F4439C","title":"苏宁电器(大华店)","lon":"121.420915","lat":"31.279468","category":"138","category_name":"家电电子卖场","address":"上海宝山区华灵路1090号"},{"poiid":"B2094757D069A1F44199","title":"泰煌鸡(华灵店)","lon":"121.42322","lat":"31.27839","category":"68","category_name":"快餐厅","address":"宝山区华灵路841号(近新沪路)"},{"poiid":"B2094655D26AA7FC469A","title":"如家快捷酒店沪太路店","lon":"121.42498","lat":"31.27913","category":"247","category_name":"餐饮美食","address":"上海市闸北区沪太路1250号(近晋城路)"},{"poiid":"B2094757D069A6F4429E","title":"全家便利(新沪路店)","lon":"121.42191","lat":"31.2807","category":"117","category_name":"便民商店/便利店","address":"上海宝山区新沪路1130号(近九百购物中心)  "},{"poiid":"B2094654DB6AABF4439C","title":"国美电器(新沪路店)","lon":"121.42217","lat":"31.28293","category":"138","category_name":"家电电子卖场","address":"宝山区沪太路1618号九百家居1楼(近新沪路)"},{"poiid":"B2094654D465A7FF449E","title":"大场镇华欣苑(边门)","lon":"121.4221","lat":"31.28149","category":"47","category_name":"住宅区","address":"华灵路1225弄"},{"poiid":"B2094655D26AA0F9459C","title":"地铁行知路站","lon":"121.42183","lat":"31.28467","category":"36","category_name":"地铁站","address":""},{"poiid":"B2094655D26AA6FC4399","title":"永乐生活电器沪太路店","lon":"121.42293","lat":"31.28206","category":"247","category_name":"餐饮美食","address":"宝山区沪太路15981608号(近新沪路)"},{"poiid":"B2094654D465A7FF4499","title":"大场镇华欣苑","lon":"121.41926","lat":"31.28127","category":"47","category_name":"住宅区","address":"华灵西路1225弄"},{"poiid":"B2094654D465A7F9459B","title":"行知实验中学","lon":"121.41858","lat":"31.28473","category":"55","category_name":"中学","address":"宝山区行知路180号"},{"poiid":"B2094757D76CA7F44793","title":"曦子园茶餐厅","lon":"121.42229","lat":"31.2846","category":"72","category_name":"广东菜","address":"宝山区沪太路1555号(沪太路行知路)"},{"poiid":"B2094655D26FA0FE409A","title":"永乐生活电器连锁卖场沪太路店","lon":"121.42281","lat":"31.28201","category":"138","category_name":"家电电子卖场","address":"沪太路1598识别"},{"poiid":"B2094750D16BA1F54793","title":"龙盛佳苑","lon":"121.424423","lat":"31.282787","category":"47","category_name":"住宅区","address":"宝山区沪太路1329号"},{"poiid":"B2094654D465A7FC4298","title":"永乐生活电器(新沪路)","lon":"121.42262","lat":"31.28194","category":"138","category_name":"家电电子卖场","address":""},{"poiid":"B2094654D465A7FC4598","title":"华龙特色牛肉面馆","lon":"121.42292","lat":"31.27742","category":"257","category_name":"中餐厅","address":""},{"poiid":"B2094654DB6AABF44292","title":"苏宁电器(华灵路店)","lon":"121.42092","lat":"31.27947","category":"138","category_name":"家电电子卖场","address":"上海市宝山区华灵路1090号"},{"poiid":"B2094757D06AA4FF459A","title":"185路沪太路余庆桥站","lon":"121.42337105","lat":"31.2824921986","category":"38","category_name":"公交车站","address":"上海宝山区沪太路近沪太支路"},{"poiid":"B2094654D465A7FF4498","title":"新华书店(新沪路)","lon":"121.4219","lat":"31.28096","category":"125","category_name":"书店","address":"宝山区新沪路1139-1289号"},{"poiid":"B2094757D064AAFC449E","title":"名沪奇食大酒店","lon":"121.42326155","lat":"31.2825530998","category":"76","category_name":"上海菜","address":"宝山区沪太路"},{"poiid":"B2094654D465A7FC479A","title":"永琪美容美发(华灵路)","lon":"121.42208","lat":"31.27927","category":"148","category_name":"美容美发店","address":"宝山区华灵路908号(新沪路口)"},{"poiid":"B2094757D469A6FA499B","title":"大华饭店","lon":"121.42401","lat":"31.28006","category":"260","category_name":"其他","address":"宝山区沪太路1528号(近晋城路)"},{"poiid":"B2094757D065ABF84099","title":"永乐生活电器(沪太店)","lon":"121.42313695","lat":"31.282755303","category":"138","category_name":"家电电子卖场","address":"普陀区沪太路1598-1608号(近新沪路)"},{"poiid":"B2094757DA65A3F94098","title":"龙盛佳苑","lon":"121.42444","lat":"31.282433","category":"47","category_name":"住宅区","address":"沪太路1329弄"},{"poiid":"B2094654D464A7FD4699","title":"天祥百货商城(4号门)","lon":"121.42363","lat":"31.28242","category":"119","category_name":"商场","address":""},{"poiid":"B209475DD065A6F5449A","title":"韩国街","lon":"121.422225","lat":"31.279064","category":"500","category_name":"未知分类","address":"上海市 上海市闵行区虹泉路"},{"poiid":"B2094757D065AAF4409A","title":"圆缘园(大华店)","lon":"121.42242","lat":"31.28133","category":"500","category_name":"未知分类","address":"上海宝山区新沪路1289号2楼(近沪太路)  "},{"poiid":"B2094654D465A7FF4392","title":"交通银行上海分行大华支行","lon":"121.4218","lat":"31.28069","category":"150","category_name":"银行","address":"宝山区新沪路1139号(近华灵路)"},{"poiid":"B2094654D464A7FD469C","title":"天祥百货商城(3号门)","lon":"121.42356","lat":"31.28258","category":"119","category_name":"商场","address":"沪太路1299"},{"poiid":"B2094654D464A7FD4693","title":"天祥百货商城(2号门)","lon":"121.4235","lat":"31.28278","category":"119","category_name":"商场","address":""},{"poiid":"B2094654D464A7FD479B","title":"天祥百货商城(1号门)","lon":"121.42343","lat":"31.283","category":"119","category_name":"商场","address":""},{"poiid":"B2094757D06EABF54592","title":"行知路地铁站","lon":"121.421869","lat":"31.284585","category":"36","category_name":"地铁站","address":"上海轨道交通 七号线 轨交行知路站 7"},{"poiid":"B2094654D465A7FF439D","title":"九百购物中心","lon":"121.42142","lat":"31.28039","category":"119","category_name":"商场","address":"宝山区华灵路1051-1067号(新沪路口)"},{"poiid":"B2094757DA6EA4F5429E","title":"808Kpub（华灵店）","lon":"121.421585000002","lat":"31.2801280000001","category":"248","category_name":"生活娱乐","address":"华灵路1090号3楼"},{"poiid":"B2094757D06FA7FD429D","title":"上海大饭堂","lon":"121.42330169","lat":"31.276973724","category":"76","category_name":"上海菜","address":"宝山区华灵路685号(近大华三路)"},{"poiid":"B2094757D06FA4FE479F","title":"大华路行知路","lon":"121.41680145","lat":"31.28322792","category":"500","category_name":"未知分类","address":"上海大华路"},{"poiid":"B2094757D068A2FC4092","title":"长寿面馆乡吧岛香辣小龙虾(大华店)","lon":"121.41661","lat":"31.28475","category":"68","category_name":"快餐厅","address":"宝山区大华路1364号(近行知路)"},{"poiid":"B2094757D06FA7F44492","title":"买卖提红玫瑰烤涮龙虾馆(大华店)","lon":"121.42348","lat":"31.27862","category":"68","category_name":"快餐厅","address":"宝山区华灵路845号(新沪路口)"},{"poiid":"B2094757D66BA4FF4199","title":"肯德基 大华店 KFC","lon":"121.42147377743","lat":"31.279639567314","category":"68","category_name":"快餐厅","address":"宝山区华灵路1051号(近九百购物中心)"},{"poiid":"B2094757D06FA3FD4198","title":"大润发(华灵店)","lon":"121.42163","lat":"31.27986","category":"118","category_name":"超级市场","address":"宝山区华灵路1051-1067号(新沪路口)"},{"poiid":"B2094757D06FAAFA419B","title":"阿拉宁波菜 (沪太店)","lon":"121.422485352","lat":"31.2841529846","category":"75","category_name":"浙江菜","address":"宝山区沪太路1555号(近行知路)"},{"poiid":"B2094654D465A7FE439B","title":"大华铂金华府","lon":"121.421","lat":"31.2803","category":"47","category_name":"住宅区","address":"宝山区大华二路201号(大华路口)"},{"poiid":"B2094750D26FA0F9469E","title":"大华婚礼中心","lon":"121.421559","lat":"31.279701","category":"247","category_name":"餐饮美食","address":"华灵路1088号4楼"},{"poiid":"B2094655D26AAAFB489A","title":"桐春金农庄","lon":"121.42136","lat":"31.28013","category":"87","category_name":"特色／地方风味餐厅","address":"宝山区华灵路908号(九百购物中心对面)"},{"poiid":"B2094757D569A2FC439F","title":"大华文华苑","lon":"121.420585","lat":"31.27765611","category":"47","category_name":"住宅区","address":"上海市宝山区新沪路1099弄"},{"poiid":"B2094655D36CA7FE4192","title":"沪太路余庆桥","lon":"121.42348","lat":"31.28192","category":"38","category_name":"公交车站","address":""},{"poiid":"B2094655D26FA1FA4593","title":"文华苑北门(华灵路)","lon":"121.4183","lat":"31.27927","category":"47","category_name":"住宅区","address":"华灵路1180弄1-65号"},{"poiid":"B2094654D465A7FF409F","title":"绍兴饭店 大华店","lon":"121.42000800399","lat":"31.279306218168","category":"75","category_name":"浙江菜","address":"宝山区华灵路1088号(近新沪路)"},{"poiid":"B2094654D465A7F94392","title":"复星花园","lon":"121.41967","lat":"31.285856","category":"47","category_name":"住宅区","address":"上海市宝山区行知路50弄"},{"poiid":"B2094757D06BA6FE4793","title":"老绍兴三黄鸡酒家(行知路店)","lon":"121.42112","lat":"31.28424","category":"76","category_name":"上海菜","address":"宝山区行知路42号(近沪太路)"},{"poiid":"B2094757D464A5F9439F","title":"大唐人家面馆 华灵路店","lon":"121.422361054","lat":"31.279434793","category":"247","category_name":"餐饮美食","address":"宝山区华灵路845号(近联华超市)"},{"poiid":"B2094757D069A6F4439C","title":"苏宁电器(大华店)","lon":"121.420915","lat":"31.279468","category":"138","category_name":"家电电子卖场","address":"上海宝山区华灵路1090号"},{"poiid":"B2094757D069A1F44199","title":"泰煌鸡(华灵店)","lon":"121.42322","lat":"31.27839","category":"68","category_name":"快餐厅","address":"宝山区华灵路841号(近新沪路)"},{"poiid":"B2094655D26AA7FC469A","title":"如家快捷酒店沪太路店","lon":"121.42498","lat":"31.27913","category":"247","category_name":"餐饮美食","address":"上海市闸北区沪太路1250号(近晋城路)"},{"poiid":"B2094757D069A6F4429E","title":"全家便利(新沪路店)","lon":"121.42191","lat":"31.2807","category":"117","category_name":"便民商店/便利店","address":"上海宝山区新沪路1130号(近九百购物中心)  "},{"poiid":"B2094654DB6AABF4439C","title":"国美电器(新沪路店)","lon":"121.42217","lat":"31.28293","category":"138","category_name":"家电电子卖场","address":"宝山区沪太路1618号九百家居1楼(近新沪路)"},{"poiid":"B2094654D465A7FF449E","title":"大场镇华欣苑(边门)","lon":"121.4221","lat":"31.28149","category":"47","category_name":"住宅区","address":"华灵路1225弄"},{"poiid":"B2094655D26AA0F9459C","title":"地铁行知路站","lon":"121.42183","lat":"31.28467","category":"36","category_name":"地铁站","address":""},{"poiid":"B2094655D26AA6FC4399","title":"永乐生活电器沪太路店","lon":"121.42293","lat":"31.28206","category":"247","category_name":"餐饮美食","address":"宝山区沪太路15981608号(近新沪路)"},{"poiid":"B2094654D465A7FF4499","title":"大场镇华欣苑","lon":"121.41926","lat":"31.28127","category":"47","category_name":"住宅区","address":"华灵西路1225弄"},{"poiid":"B2094654D465A7F9459B","title":"行知实验中学","lon":"121.41858","lat":"31.28473","category":"55","category_name":"中学","address":"宝山区行知路180号"},{"poiid":"B2094757D76CA7F44793","title":"曦子园茶餐厅","lon":"121.42229","lat":"31.2846","category":"72","category_name":"广东菜","address":"宝山区沪太路1555号(沪太路行知路)"},{"poiid":"B2094655D26FA0FE409A","title":"永乐生活电器连锁卖场沪太路店","lon":"121.42281","lat":"31.28201","category":"138","category_name":"家电电子卖场","address":"沪太路1598识别"},{"poiid":"B2094750D16BA1F54793","title":"龙盛佳苑","lon":"121.424423","lat":"31.282787","category":"47","category_name":"住宅区","address":"宝山区沪太路1329号"},{"poiid":"B2094654D465A7FC4298","title":"永乐生活电器(新沪路)","lon":"121.42262","lat":"31.28194","category":"138","category_name":"家电电子卖场","address":""},{"poiid":"B2094654D465A7FC4598","title":"华龙特色牛肉面馆","lon":"121.42292","lat":"31.27742","category":"257","category_name":"中餐厅","address":""},{"poiid":"B2094654DB6AABF44292","title":"苏宁电器(华灵路店)","lon":"121.42092","lat":"31.27947","category":"138","category_name":"家电电子卖场","address":"上海市宝山区华灵路1090号"},{"poiid":"B2094757D06AA4FF459A","title":"185路沪太路余庆桥站","lon":"121.42337105","lat":"31.2824921986","category":"38","category_name":"公交车站","address":"上海宝山区沪太路近沪太支路"},{"poiid":"B2094654D465A7FF4498","title":"新华书店(新沪路)","lon":"121.4219","lat":"31.28096","category":"125","category_name":"书店","address":"宝山区新沪路1139-1289号"},{"poiid":"B2094757D064AAFC449E","title":"名沪奇食大酒店","lon":"121.42326155","lat":"31.2825530998","category":"76","category_name":"上海菜","address":"宝山区沪太路"},{"poiid":"B2094654D465A7FC479A","title":"永琪美容美发(华灵路)","lon":"121.42208","lat":"31.27927","category":"148","category_name":"美容美发店","address":"宝山区华灵路908号(新沪路口)"},{"poiid":"B2094757D469A6FA499B","title":"大华饭店","lon":"121.42401","lat":"31.28006","category":"260","category_name":"其他","address":"宝山区沪太路1528号(近晋城路)"},{"poiid":"B2094757D065ABF84099","title":"永乐生活电器(沪太店)","lon":"121.42313695","lat":"31.282755303","category":"138","category_name":"家电电子卖场","address":"普陀区沪太路1598-1608号(近新沪路)"},{"poiid":"B2094757DA65A3F94098","title":"龙盛佳苑","lon":"121.42444","lat":"31.282433","category":"47","category_name":"住宅区","address":"沪太路1329弄"},{"poiid":"B2094654D464A7FD4699","title":"天祥百货商城(4号门)","lon":"121.42363","lat":"31.28242","category":"119","category_name":"商场","address":""},{"poiid":"B209475DD065A6F5449A","title":"韩国街","lon":"121.422225","lat":"31.279064","category":"500","category_name":"未知分类","address":"上海市 上海市闵行区虹泉路"},{"poiid":"B2094757D065AAF4409A","title":"圆缘园(大华店)","lon":"121.42242","lat":"31.28133","category":"500","category_name":"未知分类","address":"上海宝山区新沪路1289号2楼(近沪太路)  "},{"poiid":"B2094654D465A7FF4392","title":"交通银行上海分行大华支行","lon":"121.4218","lat":"31.28069","category":"150","category_name":"银行","address":"宝山区新沪路1139号(近华灵路)"},{"poiid":"B2094654D464A7FD469C","title":"天祥百货商城(3号门)","lon":"121.42356","lat":"31.28258","category":"119","category_name":"商场","address":"沪太路1299"},{"poiid":"B2094654D464A7FD4693","title":"天祥百货商城(2号门)","lon":"121.4235","lat":"31.28278","category":"119","category_name":"商场","address":""},{"poiid":"B2094654D464A7FD479B","title":"天祥百货商城(1号门)","lon":"121.42343","lat":"31.283","category":"119","category_name":"商场","address":""},{"poiid":"B2094757D06EABF54592","title":"行知路地铁站","lon":"121.421869","lat":"31.284585","category":"36","category_name":"地铁站","address":"上海轨道交通 七号线 轨交行知路站 7"},{"poiid":"B2094654D465A7FF439D","title":"九百购物中心","lon":"121.42142","lat":"31.28039","category":"119","category_name":"商场","address":"宝山区华灵路1051-1067号(新沪路口)"},{"poiid":"B2094757DA6EA4F5429E","title":"808Kpub（华灵店）","lon":"121.421585000002","lat":"31.2801280000001","category":"248","category_name":"生活娱乐","address":"华灵路1090号3楼"},{"poiid":"B2094757D06FA7FD429D","title":"上海大饭堂","lon":"121.42330169","lat":"31.276973724","category":"76","category_name":"上海菜","address":"宝山区华灵路685号(近大华三路)"},{"poiid":"B2094757D06FA4FE479F","title":"大华路行知路","lon":"121.41680145","lat":"31.28322792","category":"500","category_name":"未知分类","address":"上海大华路"},{"poiid":"B2094757D068A2FC4092","title":"长寿面馆乡吧岛香辣小龙虾(大华店)","lon":"121.41661","lat":"31.28475","category":"68","category_name":"快餐厅","address":"宝山区大华路1364号(近行知路)"},{"poiid":"B2094757D06FA7F44492","title":"买卖提红玫瑰烤涮龙虾馆(大华店)","lon":"121.42348","lat":"31.27862","category":"68","category_name":"快餐厅","address":"宝山区华灵路845号(新沪路口)"},{"poiid":"B2094757D66BA4FF4199","title":"肯德基 大华店 KFC","lon":"121.42147377743","lat":"31.279639567314","category":"68","category_name":"快餐厅","address":"宝山区华灵路1051号(近九百购物中心)"},{"poiid":"B2094757D06FA3FD4198","title":"大润发(华灵店)","lon":"121.42163","lat":"31.27986","category":"118","category_name":"超级市场","address":"宝山区华灵路1051-1067号(新沪路口)"},{"poiid":"B2094757D06FAAFA419B","title":"阿拉宁波菜 (沪太店)","lon":"121.422485352","lat":"31.2841529846","category":"75","category_name":"浙江菜","address":"宝山区沪太路1555号(近行知路)"},{"poiid":"B2094654D465A7FE439B","title":"大华铂金华府","lon":"121.421","lat":"31.2803","category":"47","category_name":"住宅区","address":"宝山区大华二路201号(大华路口)"},{"poiid":"B2094750D26FA0F9469E","title":"大华婚礼中心","lon":"121.421559","lat":"31.279701","category":"247","category_name":"餐饮美食","address":"华灵路1088号4楼"},{"poiid":"B2094655D26AAAFB489A","title":"桐春金农庄","lon":"121.42136","lat":"31.28013","category":"87","category_name":"特色／地方风味餐厅","address":"宝山区华灵路908号(九百购物中心对面)"},{"poiid":"B2094757D569A2FC439F","title":"大华文华苑","lon":"121.420585","lat":"31.27765611","category":"47","category_name":"住宅区","address":"上海市宝山区新沪路1099弄"},{"poiid":"B2094655D36CA7FE4192","title":"沪太路余庆桥","lon":"121.42348","lat":"31.28192","category":"38","category_name":"公交车站","address":""},{"poiid":"B2094655D26FA1FA4593","title":"文华苑北门(华灵路)","lon":"121.4183","lat":"31.27927","category":"47","category_name":"住宅区","address":"华灵路1180弄1-65号"},{"poiid":"B2094654D465A7FF409F","title":"绍兴饭店 大华店","lon":"121.42000800399","lat":"31.279306218168","category":"75","category_name":"浙江菜","address":"宝山区华灵路1088号(近新沪路)"},{"poiid":"B2094654D465A7F94392","title":"复星花园","lon":"121.41967","lat":"31.285856","category":"47","category_name":"住宅区","address":"上海市宝山区行知路50弄"},{"poiid":"B2094757D06BA6FE4793","title":"老绍兴三黄鸡酒家(行知路店)","lon":"121.42112","lat":"31.28424","category":"76","category_name":"上海菜","address":"宝山区行知路42号(近沪太路)"},{"poiid":"B2094757D464A5F9439F","title":"大唐人家面馆 华灵路店","lon":"121.422361054","lat":"31.279434793","category":"247","category_name":"餐饮美食","address":"宝山区华灵路845号(近联华超市)"},{"poiid":"B2094757D069A6F4439C","title":"苏宁电器(大华店)","lon":"121.420915","lat":"31.279468","category":"138","category_name":"家电电子卖场","address":"上海宝山区华灵路1090号"},{"poiid":"B2094757D069A1F44199","title":"泰煌鸡(华灵店)","lon":"121.42322","lat":"31.27839","category":"68","category_name":"快餐厅","address":"宝山区华灵路841号(近新沪路)"},{"poiid":"B2094655D26AA7FC469A","title":"如家快捷酒店沪太路店","lon":"121.42498","lat":"31.27913","category":"247","category_name":"餐饮美食","address":"上海市闸北区沪太路1250号(近晋城路)"},{"poiid":"B2094757D069A6F4429E","title":"全家便利(新沪路店)","lon":"121.42191","lat":"31.2807","category":"117","category_name":"便民商店/便利店","address":"上海宝山区新沪路1130号(近九百购物中心)  "},{"poiid":"B2094654DB6AABF4439C","title":"国美电器(新沪路店)","lon":"121.42217","lat":"31.28293","category":"138","category_name":"家电电子卖场","address":"宝山区沪太路1618号九百家居1楼(近新沪路)"},{"poiid":"B2094654D465A7FF449E","title":"大场镇华欣苑(边门)","lon":"121.4221","lat":"31.28149","category":"47","category_name":"住宅区","address":"华灵路1225弄"},{"poiid":"B2094655D26AA0F9459C","title":"地铁行知路站","lon":"121.42183","lat":"31.28467","category":"36","category_name":"地铁站","address":""},{"poiid":"B2094655D26AA6FC4399","title":"永乐生活电器沪太路店","lon":"121.42293","lat":"31.28206","category":"247","category_name":"餐饮美食","address":"宝山区沪太路15981608号(近新沪路)"},{"poiid":"B2094654D465A7FF4499","title":"大场镇华欣苑","lon":"121.41926","lat":"31.28127","category":"47","category_name":"住宅区","address":"华灵西路1225弄"},{"poiid":"B2094654D465A7F9459B","title":"行知实验中学","lon":"121.41858","lat":"31.28473","category":"55","category_name":"中学","address":"宝山区行知路180号"},{"poiid":"B2094757D76CA7F44793","title":"曦子园茶餐厅","lon":"121.42229","lat":"31.2846","category":"72","category_name":"广东菜","address":"宝山区沪太路1555号(沪太路行知路)"},{"poiid":"B2094655D26FA0FE409A","title":"永乐生活电器连锁卖场沪太路店","lon":"121.42281","lat":"31.28201","category":"138","category_name":"家电电子卖场","address":"沪太路1598识别"},{"poiid":"B2094750D16BA1F54793","title":"龙盛佳苑","lon":"121.424423","lat":"31.282787","category":"47","category_name":"住宅区","address":"宝山区沪太路1329号"},{"poiid":"B2094654D465A7FC4298","title":"永乐生活电器(新沪路)","lon":"121.42262","lat":"31.28194","category":"138","category_name":"家电电子卖场","address":""},{"poiid":"B2094654D465A7FC4598","title":"华龙特色牛肉面馆","lon":"121.42292","lat":"31.27742","category":"257","category_name":"中餐厅","address":""},{"poiid":"B2094654DB6AABF44292","title":"苏宁电器(华灵路店)","lon":"121.42092","lat":"31.27947","category":"138","category_name":"家电电子卖场","address":"上海市宝山区华灵路1090号"},{"poiid":"B2094757D06AA4FF459A","title":"185路沪太路余庆桥站","lon":"121.42337105","lat":"31.2824921986","category":"38","category_name":"公交车站","address":"上海宝山区沪太路近沪太支路"},{"poiid":"B2094654D465A7FF4498","title":"新华书店(新沪路)","lon":"121.4219","lat":"31.28096","category":"125","category_name":"书店","address":"宝山区新沪路1139-1289号"},{"poiid":"B2094757D064AAFC449E","title":"名沪奇食大酒店","lon":"121.42326155","lat":"31.2825530998","category":"76","category_name":"上海菜","address":"宝山区沪太路"},{"poiid":"B2094654D465A7FC479A","title":"永琪美容美发(华灵路)","lon":"121.42208","lat":"31.27927","category":"148","category_name":"美容美发店","address":"宝山区华灵路908号(新沪路口)"},{"poiid":"B2094757D469A6FA499B","title":"大华饭店","lon":"121.42401","lat":"31.28006","category":"260","category_name":"其他","address":"宝山区沪太路1528号(近晋城路)"},{"poiid":"B2094757D065ABF84099","title":"永乐生活电器(沪太店)","lon":"121.42313695","lat":"31.282755303","category":"138","category_name":"家电电子卖场","address":"普陀区沪太路1598-1608号(近新沪路)"},{"poiid":"B2094757DA65A3F94098","title":"龙盛佳苑","lon":"121.42444","lat":"31.282433","category":"47","category_name":"住宅区","address":"沪太路1329弄"},{"poiid":"B2094654D464A7FD4699","title":"天祥百货商城(4号门)","lon":"121.42363","lat":"31.28242","category":"119","category_name":"商场","address":""},{"poiid":"B209475DD065A6F5449A","title":"韩国街","lon":"121.422225","lat":"31.279064","category":"500","category_name":"未知分类","address":"上海市 上海市闵行区虹泉路"},{"poiid":"B2094757D065AAF4409A","title":"圆缘园(大华店)","lon":"121.42242","lat":"31.28133","category":"500","category_name":"未知分类","address":"上海宝山区新沪路1289号2楼(近沪太路)  "},{"poiid":"B2094654D465A7FF4392","title":"交通银行上海分行大华支行","lon":"121.4218","lat":"31.28069","category":"150","category_name":"银行","address":"宝山区新沪路1139号(近华灵路)"},{"poiid":"B2094654D464A7FD469C","title":"天祥百货商城(3号门)","lon":"121.42356","lat":"31.28258","category":"119","category_name":"商场","address":"沪太路1299"},{"poiid":"B2094654D464A7FD4693","title":"天祥百货商城(2号门)","lon":"121.4235","lat":"31.28278","category":"119","category_name":"商场","address":""},{"poiid":"B2094654D464A7FD479B","title":"天祥百货商城(1号门)","lon":"121.42343","lat":"31.283","category":"119","category_name":"商场","address":""},{"poiid":"B2094757D06EABF54592","title":"行知路地铁站","lon":"121.421869","lat":"31.284585","category":"36","category_name":"地铁站","address":"上海轨道交通 七号线 轨交行知路站 7"},{"poiid":"B2094654D465A7FF439D","title":"九百购物中心","lon":"121.42142","lat":"31.28039","category":"119","category_name":"商场","address":"宝山区华灵路1051-1067号(新沪路口)"},{"poiid":"B2094757DA6EA4F5429E","title":"808Kpub（华灵店）","lon":"121.421585000002","lat":"31.2801280000001","category":"248","category_name":"生活娱乐","address":"华灵路1090号3楼"},{"poiid":"B2094757D06FA7FD429D","title":"上海大饭堂","lon":"121.42330169","lat":"31.276973724","category":"76","category_name":"上海菜","address":"宝山区华灵路685号(近大华三路)"},{"poiid":"B2094757D06FA4FE479F","title":"大华路行知路","lon":"121.41680145","lat":"31.28322792","category":"500","category_name":"未知分类","address":"上海大华路"},{"poiid":"B2094757D068A2FC4092","title":"长寿面馆乡吧岛香辣小龙虾(大华店)","lon":"121.41661","lat":"31.28475","category":"68","category_name":"快餐厅","address":"宝山区大华路1364号(近行知路)"},{"poiid":"B2094757D06FA7F44492","title":"买卖提红玫瑰烤涮龙虾馆(大华店)","lon":"121.42348","lat":"31.27862","category":"68","category_name":"快餐厅","address":"宝山区华灵路845号(新沪路口)"},{"poiid":"B2094757D66BA4FF4199","title":"肯德基 大华店 KFC","lon":"121.42147377743","lat":"31.279639567314","category":"68","category_name":"快餐厅","address":"宝山区华灵路1051号(近九百购物中心)"},{"poiid":"B2094757D06FA3FD4198","title":"大润发(华灵店)","lon":"121.42163","lat":"31.27986","category":"118","category_name":"超级市场","address":"宝山区华灵路1051-1067号(新沪路口)"},{"poiid":"B2094757D06FAAFA419B","title":"阿拉宁波菜 (沪太店)","lon":"121.422485352","lat":"31.2841529846","category":"75","category_name":"浙江菜","address":"宝山区沪太路1555号(近行知路)"},{"poiid":"B2094654D465A7FE439B","title":"大华铂金华府","lon":"121.421","lat":"31.2803","category":"47","category_name":"住宅区","address":"宝山区大华二路201号(大华路口)"},{"poiid":"B2094750D26FA0F9469E","title":"大华婚礼中心","lon":"121.421559","lat":"31.279701","category":"247","category_name":"餐饮美食","address":"华灵路1088号4楼"},{"poiid":"B2094655D26AAAFB489A","title":"桐春金农庄","lon":"121.42136","lat":"31.28013","category":"87","category_name":"特色／地方风味餐厅","address":"宝山区华灵路908号(九百购物中心对面)"},{"poiid":"B2094757D569A2FC439F","title":"大华文华苑","lon":"121.420585","lat":"31.27765611","category":"47","category_name":"住宅区","address":"上海市宝山区新沪路1099弄"},{"poiid":"B2094655D36CA7FE4192","title":"沪太路余庆桥","lon":"121.42348","lat":"31.28192","category":"38","category_name":"公交车站","address":""},{"poiid":"B2094655D26FA1FA4593","title":"文华苑北门(华灵路)","lon":"121.4183","lat":"31.27927","category":"47","category_name":"住宅区","address":"华灵路1180弄1-65号"},{"poiid":"B2094654D465A7FF409F","title":"绍兴饭店 大华店","lon":"121.42000800399","lat":"31.279306218168","category":"75","category_name":"浙江菜","address":"宝山区华灵路1088号(近新沪路)"},{"poiid":"B2094654D465A7F94392","title":"复星花园","lon":"121.41967","lat":"31.285856","category":"47","category_name":"住宅区","address":"上海市宝山区行知路50弄"},{"poiid":"B2094757D06BA6FE4793","title":"老绍兴三黄鸡酒家(行知路店)","lon":"121.42112","lat":"31.28424","category":"76","category_name":"上海菜","address":"宝山区行知路42号(近沪太路)"},{"poiid":"B2094757D464A5F9439F","title":"大唐人家面馆 华灵路店","lon":"121.422361054","lat":"31.279434793","category":"247","category_name":"餐饮美食","address":"宝山区华灵路845号(近联华超市)"},{"poiid":"B2094757D069A6F4439C","title":"苏宁电器(大华店)","lon":"121.420915","lat":"31.279468","category":"138","category_name":"家电电子卖场","address":"上海宝山区华灵路1090号"},{"poiid":"B2094757D069A1F44199","title":"泰煌鸡(华灵店)","lon":"121.42322","lat":"31.27839","category":"68","category_name":"快餐厅","address":"宝山区华灵路841号(近新沪路)"},{"poiid":"B2094655D26AA7FC469A","title":"如家快捷酒店沪太路店","lon":"121.42498","lat":"31.27913","category":"247","category_name":"餐饮美食","address":"上海市闸北区沪太路1250号(近晋城路)"},{"poiid":"B2094757D069A6F4429E","title":"全家便利(新沪路店)","lon":"121.42191","lat":"31.2807","category":"117","category_name":"便民商店/便利店","address":"上海宝山区新沪路1130号(近九百购物中心)  "},{"poiid":"B2094654DB6AABF4439C","title":"国美电器(新沪路店)","lon":"121.42217","lat":"31.28293","category":"138","category_name":"家电电子卖场","address":"宝山区沪太路1618号九百家居1楼(近新沪路)"},{"poiid":"B2094654D465A7FF449E","title":"大场镇华欣苑(边门)","lon":"121.4221","lat":"31.28149","category":"47","category_name":"住宅区","address":"华灵路1225弄"},{"poiid":"B2094655D26AA0F9459C","title":"地铁行知路站","lon":"121.42183","lat":"31.28467","category":"36","category_name":"地铁站","address":""},{"poiid":"B2094655D26AA6FC4399","title":"永乐生活电器沪太路店","lon":"121.42293","lat":"31.28206","category":"247","category_name":"餐饮美食","address":"宝山区沪太路15981608号(近新沪路)"},{"poiid":"B2094654D465A7FF4499","title":"大场镇华欣苑","lon":"121.41926","lat":"31.28127","category":"47","category_name":"住宅区","address":"华灵西路1225弄"},{"poiid":"B2094654D465A7F9459B","title":"行知实验中学","lon":"121.41858","lat":"31.28473","category":"55","category_name":"中学","address":"宝山区行知路180号"},{"poiid":"B2094757D76CA7F44793","title":"曦子园茶餐厅","lon":"121.42229","lat":"31.2846","category":"72","category_name":"广东菜","address":"宝山区沪太路1555号(沪太路行知路)"},{"poiid":"B2094655D26FA0FE409A","title":"永乐生活电器连锁卖场沪太路店","lon":"121.42281","lat":"31.28201","category":"138","category_name":"家电电子卖场","address":"沪太路1598识别"},{"poiid":"B2094750D16BA1F54793","title":"龙盛佳苑","lon":"121.424423","lat":"31.282787","category":"47","category_name":"住宅区","address":"宝山区沪太路1329号"},{"poiid":"B2094654D465A7FC4298","title":"永乐生活电器(新沪路)","lon":"121.42262","lat":"31.28194","category":"138","category_name":"家电电子卖场","address":""},{"poiid":"B2094654D465A7FC4598","title":"华龙特色牛肉面馆","lon":"121.42292","lat":"31.27742","category":"257","category_name":"中餐厅","address":""},{"poiid":"B2094654DB6AABF44292","title":"苏宁电器(华灵路店)","lon":"121.42092","lat":"31.27947","category":"138","category_name":"家电电子卖场","address":"上海市宝山区华灵路1090号"},{"poiid":"B2094757D06AA4FF459A","title":"185路沪太路余庆桥站","lon":"121.42337105","lat":"31.2824921986","category":"38","category_name":"公交车站","address":"上海宝山区沪太路近沪太支路"},{"poiid":"B2094654D465A7FF4498","title":"新华书店(新沪路)","lon":"121.4219","lat":"31.28096","category":"125","category_name":"书店","address":"宝山区新沪路1139-1289号"},{"poiid":"B2094757D064AAFC449E","title":"名沪奇食大酒店","lon":"121.42326155","lat":"31.2825530998","category":"76","category_name":"上海菜","address":"宝山区沪太路"},{"poiid":"B2094654D465A7FC479A","title":"永琪美容美发(华灵路)","lon":"121.42208","lat":"31.27927","category":"148","category_name":"美容美发店","address":"宝山区华灵路908号(新沪路口)"},{"poiid":"B2094757D469A6FA499B","title":"大华饭店","lon":"121.42401","lat":"31.28006","category":"260","category_name":"其他","address":"宝山区沪太路1528号(近晋城路)"},{"poiid":"B2094757D065ABF84099","title":"永乐生活电器(沪太店)","lon":"121.42313695","lat":"31.282755303","category":"138","category_name":"家电电子卖场","address":"普陀区沪太路1598-1608号(近新沪路)"},{"poiid":"B2094757DA65A3F94098","title":"龙盛佳苑","lon":"121.42444","lat":"31.282433","category":"47","category_name":"住宅区","address":"沪太路1329弄"},{"poiid":"B2094654D464A7FD4699","title":"天祥百货商城(4号门)","lon":"121.42363","lat":"31.28242","category":"119","category_name":"商场","address":""},{"poiid":"B209475DD065A6F5449A","title":"韩国街","lon":"121.422225","lat":"31.279064","category":"500","category_name":"未知分类","address":"上海市 上海市闵行区虹泉路"},{"poiid":"B2094757D065AAF4409A","title":"圆缘园(大华店)","lon":"121.42242","lat":"31.28133","category":"500","category_name":"未知分类","address":"上海宝山区新沪路1289号2楼(近沪太路)  "},{"poiid":"B2094654D465A7FF4392","title":"交通银行上海分行大华支行","lon":"121.4218","lat":"31.28069","category":"150","category_name":"银行","address":"宝山区新沪路1139号(近华灵路)"},{"poiid":"B2094654D464A7FD469C","title":"天祥百货商城(3号门)","lon":"121.42356","lat":"31.28258","category":"119","category_name":"商场","address":"沪太路1299"},{"poiid":"B2094654D464A7FD4693","title":"天祥百货商城(2号门)","lon":"121.4235","lat":"31.28278","category":"119","category_name":"商场","address":""},{"poiid":"B2094654D464A7FD479B","title":"天祥百货商城(1号门)","lon":"121.42343","lat":"31.283","category":"119","category_name":"商场","address":""}]