[{"poiid":"B2094654DA6FA6FD4399","title":"广莲香","lon":"121.48293","lat":"31.24713","category":"72","category_name":"广东菜","address":"虹口区塘沽路649号(近江西北路)"},{"poiid":"B2094757D064A5FE4499","title":"百嘉乐量贩ktv","lon":"121.485280738","lat":"31.2470456585","category":"500","category_name":"未知分类","address":"虹口区四川北路520号(近武昌路)"},{"poiid":"B2094757D06FA0FF4798","title":"妯娌老鸭粉丝汤(七浦路店)","lon":"121.48442","lat":"31.24678","category":"257","category_name":"中餐厅","address":"虹口区武昌路579号(近江西北路)"},{"poiid":"B209475CD564A7F84292","title":"上海滩新天地店","lon":"121.47463","lat":"31.22164","category":"119","category_name":"商场","address":"\"太仓路181弄新天地北里15号\r\n\""},{"poiid":"B209475CD564A7F84392","title":"上海滩浦东香格里拉店","lon":"121.50058","lat":"31.23634","category":"119","category_name":"商场","address":"浦东富成路33号香格里拉酒店内大堂层"},{"poiid":"B2094655D36CA7FB4193","title":"海宁路四川北路","lon":"121.48367","lat":"31.24898","category":"38","category_name":"公交车站","address":""},{"poiid":"B2094753DB69A1F4469F","title":"Zoo Coffee","lon":"121.48352","lat":"31.248886","category":"500","category_name":"未知分类","address":"上海市 虹口区中信广场"},{"poiid":"B2094757D06FA0F44093","title":"七浦兴旺服饰市场(老兴旺)","lon":"121.482180096","lat":"31.245859573","category":"249","category_name":"购物服务","address":"上海七浦路168号"},{"poiid":"B2094757D66FA6FA459C","title":"七浦路市场","lon":"121.48208","lat":"31.24561","category":"249","category_name":"购物服务","address":"虹口区七浦路(近河南北路)"},{"poiid":"B2094757D068A1FD479F","title":"一米香潮汕砂锅粥（海宁店）","lon":"121.48431","lat":"31.24975","category":"72","category_name":"广东菜","address":"虹口区海宁路468号(近四川北路)"},{"poiid":"B2094757D069A3FD4998","title":"aini's bistro","lon":"121.48364861","lat":"31.249226209","category":"94","category_name":"西餐厅","address":"虹口区海宁路472-2(近四川北路)"},{"poiid":"B2094757D06FA7FE409D","title":"新七浦服装批发商场","lon":"121.48184542","lat":"31.245351726","category":"141","category_name":"服装鞋帽皮具店","address":"虹口区七浦路179号(近河南北路)"},{"poiid":"B209475CDA64A4F44492","title":"zoo coffee","lon":"121.484466","lat":"31.24809","category":"500","category_name":"未知分类","address":"上海市 四川北路853号中信广场中庭"},{"poiid":"B2094655D26CAAFE4799","title":"胖阿姨正宗朝鲜冷面","lon":"121.48268","lat":"31.24711","category":"96","category_name":"韩国料理","address":"虹口区塘沽路667号(近七浦路)"},{"poiid":"B2094753DB6BABF54792","title":"中信广场1F zoo coffee","lon":"121.485023","lat":"31.24842","category":"500","category_name":"未知分类","address":"上海市 四川北路853号中信广场1F（近海宁路）"},{"poiid":"B2094757D06FA4FD479C","title":"河南北路海宁路","lon":"121.48192792","lat":"31.247266453","category":"500","category_name":"未知分类","address":"上海河南北路海宁路"},{"poiid":"B2094654DA6FA6FC4992","title":"心乐汤面馆","lon":"121.483543054","lat":"31.246675793","category":"68","category_name":"快餐厅","address":"虹口区武昌路581号(近江西北路)"},{"poiid":"B2094750DA6FA1FE449F","title":"百嘉乐(四川北路店)","lon":"121.48531","lat":"31.24735","category":"248","category_name":"生活娱乐","address":"上海市虹口区四川北路(武昌路)520-686号5层"},{"poiid":"B2094655D26EABFA4693","title":"上海城市管理职业技术学院(河南北路)","lon":"121.48128","lat":"31.2474","category":"52","category_name":"高等院校","address":"河南北路301"},{"poiid":"B2094757D06FA0F8419B","title":"芋贵人(七浦路店)","lon":"121.482102","lat":"31.245791","category":"67","category_name":"甜品店","address":"虹口区七浦路133号兴旺美食城5楼29号(近天潼路)"},{"poiid":"B2094757D16EA4FD409B","title":"麦麦屋寿司店","lon":"121.483406738","lat":"31.2470976596","category":"95","category_name":"日本料理","address":"虹口区武昌路589号-A(近七浦路)"},{"poiid":"B2094654DB65A5FC469C","title":"上海春天百货商城","lon":"121.48513","lat":"31.24678","category":"119","category_name":"商场","address":"上海虹口区四川北路521号(近武昌路)"},{"poiid":"B2094757D068A7FB4092","title":"中国电信上海公司川北大楼","lon":"121.48471143","lat":"31.2456520332","category":"46","category_name":"楼宇","address":"上海四川北路61号"},{"poiid":"B2094757D468A6F8429F","title":"樱子美食屋","lon":"121.483928054","lat":"31.246633793","category":"68","category_name":"快餐厅","address":"虹口区武昌路560号(近四川北路)"},{"poiid":"B2094750D66BAAF8419C","title":"梅记大块头爆鱼店(江西北路店)","lon":"121.483","lat":"31.2475","category":"68","category_name":"快餐厅","address":"虹口区江西北路245号(近七浦路)"},{"poiid":"B2094654DB6BABFC499C","title":"味千拉面七浦店","lon":"121.48136","lat":"31.24656","category":"68","category_name":"快餐厅","address":"塘沽路730号圣和圣时尚汇5层"},{"poiid":"B2094750D76FABFE4299","title":"OASE釜山料理","lon":"121.481","lat":"31.2466","category":"96","category_name":"韩国料理","address":"虹口区河南北路233号圣和圣时尚汇5楼(新七浦对面)"},{"poiid":"B2094751D26AA7FA439E","title":"星蝶茶餐厅","lon":"121.484016","lat":"31.248245","category":"72","category_name":"广东菜","address":"虹口区四川北路850号(近武昌路)"},{"poiid":"B209475DD26DABFD439B","title":"zoo coffee","lon":"121.484107","lat":"31.248577","category":"500","category_name":"未知分类","address":"上海市 四川北路853号中信广场中庭"},{"poiid":"B2094757D06AA6FF4093","title":"肯德基 KFC (东华店)","lon":"121.485086","lat":"31.248464","category":"500","category_name":"未知分类","address":"虹口区四川北路838号(近武昌路)"},{"poiid":"B2094757D16FA3F5489A","title":"人大人研究生学院","lon":"121.48286199","lat":"31.248136155","category":"253","category_name":"校园生活","address":"上海六合路58号17楼(南京东路第一百货新楼东方商厦)"},{"poiid":"B2094752D069A7FD4093","title":"Shanghai Rose Bar","lon":"121.483453","lat":"31.245994","category":"247","category_name":"餐饮美食","address":"南苏州路76号（近外白渡桥）"},{"poiid":"B2094757D06AAAFA499C","title":"全家便利(四川北路店)","lon":"121.485242654","lat":"31.2461920216","category":"117","category_name":"便民商店/便利店","address":"上海虹口区四川北路479号(近武昌路)"},{"poiid":"B209475DDB68A3F84092","title":"zoo coffee","lon":"121.484474","lat":"31.248401","category":"247","category_name":"餐饮美食","address":"上海市 四川北路"},{"poiid":"B209475CD665A4FF4492","title":"月星·环球港","lon":"121.482574","lat":"31.248834","category":"500","category_name":"未知分类","address":"上海市 普陀区中山北路3222号"},{"poiid":"B2094654DA6FA6FD439B","title":"扬州大龙汤包馆","lon":"121.483557","lat":"31.24711","category":"68","category_name":"快餐厅","address":"虹口区武昌路592号(近江西北路)"},{"poiid":"B2094654DA6FA6FD449F","title":"金彪生煎王","lon":"121.48314642886","lat":"31.247493744658","category":"68","category_name":"快餐厅","address":"虹口区江西北路203号(近七浦路)"},{"poiid":"B2094757D06AAAFB479E","title":"记子老鸭粉丝汤馆","lon":"121.48499","lat":"31.24681","category":"68","category_name":"快餐厅","address":"虹口区武昌路556号(近四川北路)"},{"poiid":"B209475DD76DA2FC429E","title":"元世祖","lon":"121.484146","lat":"31.248718","category":"247","category_name":"餐饮美食","address":"上海市 虹口区四川北路865号中信广场2层3栋"},{"poiid":"B2094757D06AA6FA459A","title":"COCO都可茶饮(江西北路店)","lon":"121.483103","lat":"31.246761","category":"113","category_name":"冷饮店","address":"虹口区江西北路201号(近塘沽路)"},{"poiid":"B2094757D469A0FF429D","title":"心琪粥店 武昌路店","lon":"121.483366","lat":"31.24713","category":"68","category_name":"快餐厅","address":"虹口区武昌路591号(近江西北路)"},{"poiid":"B2094757D66DA1FA439F","title":"胖子麻辣烫","lon":"121.482571538","lat":"31.2471935617","category":"68","category_name":"快餐厅","address":"虹口区江西北路209号(近七浦路)"},{"poiid":"B2094757D464A6F4489A","title":"田仓米粉 塘沽路店","lon":"121.483158054","lat":"31.247116793","category":"68","category_name":"快餐厅","address":"虹口区江西北路213号(近七浦路)"},{"poiid":"B2094757D46EA5F54399","title":"老牌子游子老鸭粉丝汤","lon":"121.4831831","lat":"31.2470739","category":"68","category_name":"快餐厅","address":"虹口区江西北路220号(近武昌路)"},{"poiid":"B2094757D468A6F54899","title":"云云面馆","lon":"121.48310412015","lat":"31.24648132307","category":"68","category_name":"快餐厅","address":"虹口区武昌路580号(近江西北路)"},{"poiid":"B2094655D26CABFC4599","title":"永鼎鸡汤粉丝馆","lon":"121.48367","lat":"31.24715","category":"68","category_name":"快餐厅","address":"虹口区武昌路576号(近江西北路)"},{"poiid":"B2094750D568A1FC4292","title":"永和大王(四川北路店)","lon":"121.484","lat":"31.2458","category":"68","category_name":"快餐厅","address":"虹口区四川北路71号德邻购物中心1楼10-12门面"},{"poiid":"B209475DDA6CAAFB479C","title":"中信广场一楼 zoo coffee","lon":"121.484588","lat":"31.248331","category":"247","category_name":"餐饮美食","address":"上海市 上海市虹口区四川北路853号中信广场"},{"poiid":"B2094757D065ABFC439F","title":"七浦路重庆酸辣粉","lon":"121.48245","lat":"31.24566","category":"68","category_name":"快餐厅","address":"虹口区七浦路168号兴旺服装市场(近河南北路)"},{"poiid":"B2094654DA6FA6FD4098","title":"七浦老牌牛肉汤","lon":"121.484869054","lat":"31.246858793","category":"68","category_name":"快餐厅","address":"虹口区武昌路529号(近四川北路)"},{"poiid":"B2094654DA6FA6FD4399","title":"广莲香","lon":"121.48293","lat":"31.24713","category":"72","category_name":"广东菜","address":"虹口区塘沽路649号(近江西北路)"},{"poiid":"B2094757D064A5FE4499","title":"百嘉乐量贩ktv","lon":"121.485280738","lat":"31.2470456585","category":"500","category_name":"未知分类","address":"虹口区四川北路520号(近武昌路)"},{"poiid":"B2094757D06FA0FF4798","title":"妯娌老鸭粉丝汤(七浦路店)","lon":"121.48442","lat":"31.24678","category":"257","category_name":"中餐厅","address":"虹口区武昌路579号(近江西北路)"},{"poiid":"B209475CD564A7F84292","title":"上海滩新天地店","lon":"121.47463","lat":"31.22164","category":"119","category_name":"商场","address":"\"太仓路181弄新天地北里15号\r\n\""},{"poiid":"B209475CD564A7F84392","title":"上海滩浦东香格里拉店","lon":"121.50058","lat":"31.23634","category":"119","category_name":"商场","address":"浦东富成路33号香格里拉酒店内大堂层"},{"poiid":"B2094655D36CA7FB4193","title":"海宁路四川北路","lon":"121.48367","lat":"31.24898","category":"38","category_name":"公交车站","address":""},{"poiid":"B2094753DB69A1F4469F","title":"Zoo Coffee","lon":"121.48352","lat":"31.248886","category":"500","category_name":"未知分类","address":"上海市 虹口区中信广场"},{"poiid":"B2094757D06FA0F44093","title":"七浦兴旺服饰市场(老兴旺)","lon":"121.482180096","lat":"31.245859573","category":"249","category_name":"购物服务","address":"上海七浦路168号"},{"poiid":"B2094757D66FA6FA459C","title":"七浦路市场","lon":"121.48208","lat":"31.24561","category":"249","category_name":"购物服务","address":"虹口区七浦路(近河南北路)"},{"poiid":"B2094757D068A1FD479F","title":"一米香潮汕砂锅粥（海宁店）","lon":"121.48431","lat":"31.24975","category":"72","category_name":"广东菜","address":"虹口区海宁路468号(近四川北路)"},{"poiid":"B2094757D069A3FD4998","title":"aini's bistro","lon":"121.48364861","lat":"31.249226209","category":"94","category_name":"西餐厅","address":"虹口区海宁路472-2(近四川北路)"},{"poiid":"B2094757D06FA7FE409D","title":"新七浦服装批发商场","lon":"121.48184542","lat":"31.245351726","category":"141","category_name":"服装鞋帽皮具店","address":"虹口区七浦路179号(近河南北路)"},{"poiid":"B209475CDA64A4F44492","title":"zoo coffee","lon":"121.484466","lat":"31.24809","category":"500","category_name":"未知分类","address":"上海市 四川北路853号中信广场中庭"},{"poiid":"B2094655D26CAAFE4799","title":"胖阿姨正宗朝鲜冷面","lon":"121.48268","lat":"31.24711","category":"96","category_name":"韩国料理","address":"虹口区塘沽路667号(近七浦路)"},{"poiid":"B2094753DB6BABF54792","title":"中信广场1F zoo coffee","lon":"121.485023","lat":"31.24842","category":"500","category_name":"未知分类","address":"上海市 四川北路853号中信广场1F（近海宁路）"},{"poiid":"B2094757D06FA4FD479C","title":"河南北路海宁路","lon":"121.48192792","lat":"31.247266453","category":"500","category_name":"未知分类","address":"上海河南北路海宁路"},{"poiid":"B2094654DA6FA6FC4992","title":"心乐汤面馆","lon":"121.483543054","lat":"31.246675793","category":"68","category_name":"快餐厅","address":"虹口区武昌路581号(近江西北路)"},{"poiid":"B2094750DA6FA1FE449F","title":"百嘉乐(四川北路店)","lon":"121.48531","lat":"31.24735","category":"248","category_name":"生活娱乐","address":"上海市虹口区四川北路(武昌路)520-686号5层"},{"poiid":"B2094655D26EABFA4693","title":"上海城市管理职业技术学院(河南北路)","lon":"121.48128","lat":"31.2474","category":"52","category_name":"高等院校","address":"河南北路301"},{"poiid":"B2094757D06FA0F8419B","title":"芋贵人(七浦路店)","lon":"121.482102","lat":"31.245791","category":"67","category_name":"甜品店","address":"虹口区七浦路133号兴旺美食城5楼29号(近天潼路)"},{"poiid":"B2094757D16EA4FD409B","title":"麦麦屋寿司店","lon":"121.483406738","lat":"31.2470976596","category":"95","category_name":"日本料理","address":"虹口区武昌路589号-A(近七浦路)"},{"poiid":"B2094654DB65A5FC469C","title":"上海春天百货商城","lon":"121.48513","lat":"31.24678","category":"119","category_name":"商场","address":"上海虹口区四川北路521号(近武昌路)"},{"poiid":"B2094757D068A7FB4092","title":"中国电信上海公司川北大楼","lon":"121.48471143","lat":"31.2456520332","category":"46","category_name":"楼宇","address":"上海四川北路61号"},{"poiid":"B2094757D468A6F8429F","title":"樱子美食屋","lon":"121.483928054","lat":"31.246633793","category":"68","category_name":"快餐厅","address":"虹口区武昌路560号(近四川北路)"},{"poiid":"B2094750D66BAAF8419C","title":"梅记大块头爆鱼店(江西北路店)","lon":"121.483","lat":"31.2475","category":"68","category_name":"快餐厅","address":"虹口区江西北路245号(近七浦路)"},{"poiid":"B2094654DB6BABFC499C","title":"味千拉面七浦店","lon":"121.48136","lat":"31.24656","category":"68","category_name":"快餐厅","address":"塘沽路730号圣和圣时尚汇5层"},{"poiid":"B2094750D76FABFE4299","title":"OASE釜山料理","lon":"121.481","lat":"31.2466","category":"96","category_name":"韩国料理","address":"虹口区河南北路233号圣和圣时尚汇5楼(新七浦对面)"},{"poiid":"B2094751D26AA7FA439E","title":"星蝶茶餐厅","lon":"121.484016","lat":"31.248245","category":"72","category_name":"广东菜","address":"虹口区四川北路850号(近武昌路)"},{"poiid":"B209475DD26DABFD439B","title":"zoo coffee","lon":"121.484107","lat":"31.248577","category":"500","category_name":"未知分类","address":"上海市 四川北路853号中信广场中庭"},{"poiid":"B2094757D06AA6FF4093","title":"肯德基 KFC (东华店)","lon":"121.485086","lat":"31.248464","category":"500","category_name":"未知分类","address":"虹口区四川北路838号(近武昌路)"},{"poiid":"B2094757D16FA3F5489A","title":"人大人研究生学院","lon":"121.48286199","lat":"31.248136155","category":"253","category_name":"校园生活","address":"上海六合路58号17楼(南京东路第一百货新楼东方商厦)"},{"poiid":"B2094752D069A7FD4093","title":"Shanghai Rose Bar","lon":"121.483453","lat":"31.245994","category":"247","category_name":"餐饮美食","address":"南苏州路76号（近外白渡桥）"},{"poiid":"B2094757D06AAAFA499C","title":"全家便利(四川北路店)","lon":"121.485242654","lat":"31.2461920216","category":"117","category_name":"便民商店/便利店","address":"上海虹口区四川北路479号(近武昌路)"},{"poiid":"B209475DDB68A3F84092","title":"zoo coffee","lon":"121.484474","lat":"31.248401","category":"247","category_name":"餐饮美食","address":"上海市 四川北路"},{"poiid":"B209475CD665A4FF4492","title":"月星·环球港","lon":"121.482574","lat":"31.248834","category":"500","category_name":"未知分类","address":"上海市 普陀区中山北路3222号"},{"poiid":"B2094654DA6FA6FD439B","title":"扬州大龙汤包馆","lon":"121.483557","lat":"31.24711","category":"68","category_name":"快餐厅","address":"虹口区武昌路592号(近江西北路)"},{"poiid":"B2094654DA6FA6FD449F","title":"金彪生煎王","lon":"121.48314642886","lat":"31.247493744658","category":"68","category_name":"快餐厅","address":"虹口区江西北路203号(近七浦路)"},{"poiid":"B2094757D06AAAFB479E","title":"记子老鸭粉丝汤馆","lon":"121.48499","lat":"31.24681","category":"68","category_name":"快餐厅","address":"虹口区武昌路556号(近四川北路)"},{"poiid":"B209475DD76DA2FC429E","title":"元世祖","lon":"121.484146","lat":"31.248718","category":"247","category_name":"餐饮美食","address":"上海市 虹口区四川北路865号中信广场2层3栋"},{"poiid":"B2094757D06AA6FA459A","title":"COCO都可茶饮(江西北路店)","lon":"121.483103","lat":"31.246761","category":"113","category_name":"冷饮店","address":"虹口区江西北路201号(近塘沽路)"},{"poiid":"B2094757D469A0FF429D","title":"心琪粥店 武昌路店","lon":"121.483366","lat":"31.24713","category":"68","category_name":"快餐厅","address":"虹口区武昌路591号(近江西北路)"},{"poiid":"B2094757D66DA1FA439F","title":"胖子麻辣烫","lon":"121.482571538","lat":"31.2471935617","category":"68","category_name":"快餐厅","address":"虹口区江西北路209号(近七浦路)"},{"poiid":"B2094757D464A6F4489A","title":"田仓米粉 塘沽路店","lon":"121.483158054","lat":"31.247116793","category":"68","category_name":"快餐厅","address":"虹口区江西北路213号(近七浦路)"},{"poiid":"B2094757D46EA5F54399","title":"老牌子游子老鸭粉丝汤","lon":"121.4831831","lat":"31.2470739","category":"68","category_name":"快餐厅","address":"虹口区江西北路220号(近武昌路)"},{"poiid":"B2094757D468A6F54899","title":"云云面馆","lon":"121.48310412015","lat":"31.24648132307","category":"68","category_name":"快餐厅","address":"虹口区武昌路580号(近江西北路)"},{"poiid":"B2094655D26CABFC4599","title":"永鼎鸡汤粉丝馆","lon":"121.48367","lat":"31.24715","category":"68","category_name":"快餐厅","address":"虹口区武昌路576号(近江西北路)"},{"poiid":"B2094750D568A1FC4292","title":"永和大王(四川北路店)","lon":"121.484","lat":"31.2458","category":"68","category_name":"快餐厅","address":"虹口区四川北路71号德邻购物中心1楼10-12门面"},{"poiid":"B209475DDA6CAAFB479C","title":"中信广场一楼 zoo coffee","lon":"121.484588","lat":"31.248331","category":"247","category_name":"餐饮美食","address":"上海市 上海市虹口区四川北路853号中信广场"},{"poiid":"B2094757D065ABFC439F","title":"七浦路重庆酸辣粉","lon":"121.48245","lat":"31.24566","category":"68","category_name":"快餐厅","address":"虹口区七浦路168号兴旺服装市场(近河南北路)"},{"poiid":"B2094654DA6FA6FD4098","title":"七浦老牌牛肉汤","lon":"121.484869054","lat":"31.246858793","category":"68","category_name":"快餐厅","address":"虹口区武昌路529号(近四川北路)"},{"poiid":"B2094654DA6FA6FD4399","title":"广莲香","lon":"121.48293","lat":"31.24713","category":"72","category_name":"广东菜","address":"虹口区塘沽路649号(近江西北路)"},{"poiid":"B2094757D064A5FE4499","title":"百嘉乐量贩ktv","lon":"121.485280738","lat":"31.2470456585","category":"500","category_name":"未知分类","address":"虹口区四川北路520号(近武昌路)"},{"poiid":"B2094757D06FA0FF4798","title":"妯娌老鸭粉丝汤(七浦路店)","lon":"121.48442","lat":"31.24678","category":"257","category_name":"中餐厅","address":"虹口区武昌路579号(近江西北路)"},{"poiid":"B209475CD564A7F84292","title":"上海滩新天地店","lon":"121.47463","lat":"31.22164","category":"119","category_name":"商场","address":"\"太仓路181弄新天地北里15号\r\n\""},{"poiid":"B209475CD564A7F84392","title":"上海滩浦东香格里拉店","lon":"121.50058","lat":"31.23634","category":"119","category_name":"商场","address":"浦东富成路33号香格里拉酒店内大堂层"},{"poiid":"B2094655D36CA7FB4193","title":"海宁路四川北路","lon":"121.48367","lat":"31.24898","category":"38","category_name":"公交车站","address":""},{"poiid":"B2094753DB69A1F4469F","title":"Zoo Coffee","lon":"121.48352","lat":"31.248886","category":"500","category_name":"未知分类","address":"上海市 虹口区中信广场"},{"poiid":"B2094757D06FA0F44093","title":"七浦兴旺服饰市场(老兴旺)","lon":"121.482180096","lat":"31.245859573","category":"249","category_name":"购物服务","address":"上海七浦路168号"},{"poiid":"B2094757D66FA6FA459C","title":"七浦路市场","lon":"121.48208","lat":"31.24561","category":"249","category_name":"购物服务","address":"虹口区七浦路(近河南北路)"},{"poiid":"B2094757D068A1FD479F","title":"一米香潮汕砂锅粥（海宁店）","lon":"121.48431","lat":"31.24975","category":"72","category_name":"广东菜","address":"虹口区海宁路468号(近四川北路)"},{"poiid":"B2094757D069A3FD4998","title":"aini's bistro","lon":"121.48364861","lat":"31.249226209","category":"94","category_name":"西餐厅","address":"虹口区海宁路472-2(近四川北路)"},{"poiid":"B2094757D06FA7FE409D","title":"新七浦服装批发商场","lon":"121.48184542","lat":"31.245351726","category":"141","category_name":"服装鞋帽皮具店","address":"虹口区七浦路179号(近河南北路)"},{"poiid":"B209475CDA64A4F44492","title":"zoo coffee","lon":"121.484466","lat":"31.24809","category":"500","category_name":"未知分类","address":"上海市 四川北路853号中信广场中庭"},{"poiid":"B2094655D26CAAFE4799","title":"胖阿姨正宗朝鲜冷面","lon":"121.48268","lat":"31.24711","category":"96","category_name":"韩国料理","address":"虹口区塘沽路667号(近七浦路)"},{"poiid":"B2094753DB6BABF54792","title":"中信广场1F zoo coffee","lon":"121.485023","lat":"31.24842","category":"500","category_name":"未知分类","address":"上海市 四川北路853号中信广场1F（近海宁路）"},{"poiid":"B2094757D06FA4FD479C","title":"河南北路海宁路","lon":"121.48192792","lat":"31.247266453","category":"500","category_name":"未知分类","address":"上海河南北路海宁路"},{"poiid":"B2094654DA6FA6FC4992","title":"心乐汤面馆","lon":"121.483543054","lat":"31.246675793","category":"68","category_name":"快餐厅","address":"虹口区武昌路581号(近江西北路)"},{"poiid":"B2094750DA6FA1FE449F","title":"百嘉乐(四川北路店)","lon":"121.48531","lat":"31.24735","category":"248","category_name":"生活娱乐","address":"上海市虹口区四川北路(武昌路)520-686号5层"},{"poiid":"B2094655D26EABFA4693","title":"上海城市管理职业技术学院(河南北路)","lon":"121.48128","lat":"31.2474","category":"52","category_name":"高等院校","address":"河南北路301"},{"poiid":"B2094757D06FA0F8419B","title":"芋贵人(七浦路店)","lon":"121.482102","lat":"31.245791","category":"67","category_name":"甜品店","address":"虹口区七浦路133号兴旺美食城5楼29号(近天潼路)"},{"poiid":"B2094757D16EA4FD409B","title":"麦麦屋寿司店","lon":"121.483406738","lat":"31.2470976596","category":"95","category_name":"日本料理","address":"虹口区武昌路589号-A(近七浦路)"},{"poiid":"B2094654DB65A5FC469C","title":"上海春天百货商城","lon":"121.48513","lat":"31.24678","category":"119","category_name":"商场","address":"上海虹口区四川北路521号(近武昌路)"},{"poiid":"B2094757D068A7FB4092","title":"中国电信上海公司川北大楼","lon":"121.48471143","lat":"31.2456520332","category":"46","category_name":"楼宇","address":"上海四川北路61号"},{"poiid":"B2094757D468A6F8429F","title":"樱子美食屋","lon":"121.483928054","lat":"31.246633793","category":"68","category_name":"快餐厅","address":"虹口区武昌路560号(近四川北路)"},{"poiid":"B2094750D66BAAF8419C","title":"梅记大块头爆鱼店(江西北路店)","lon":"121.483","lat":"31.2475","category":"68","category_name":"快餐厅","address":"虹口区江西北路245号(近七浦路)"},{"poiid":"B2094654DB6BABFC499C","title":"味千拉面七浦店","lon":"121.48136","lat":"31.24656","category":"68","category_name":"快餐厅","address":"塘沽路730号圣和圣时尚汇5层"},{"poiid":"B2094750D76FABFE4299","title":"OASE釜山料理","lon":"121.481","lat":"31.2466","category":"96","category_name":"韩国料理","address":"虹口区河南北路233号圣和圣时尚汇5楼(新七浦对面)"},{"poiid":"B2094751D26AA7FA439E","title":"星蝶茶餐厅","lon":"121.484016","lat":"31.248245","category":"72","category_name":"广东菜","address":"虹口区四川北路850号(近武昌路)"},{"poiid":"B209475DD26DABFD439B","title":"zoo coffee","lon":"121.484107","lat":"31.248577","category":"500","category_name":"未知分类","address":"上海市 四川北路853号中信广场中庭"},{"poiid":"B2094757D06AA6FF4093","title":"肯德基 KFC (东华店)","lon":"121.485086","lat":"31.248464","category":"500","category_name":"未知分类","address":"虹口区四川北路838号(近武昌路)"},{"poiid":"B2094757D16FA3F5489A","title":"人大人研究生学院","lon":"121.48286199","lat":"31.248136155","category":"253","category_name":"校园生活","address":"上海六合路58号17楼(南京东路第一百货新楼东方商厦)"},{"poiid":"B2094752D069A7FD4093","title":"Shanghai Rose Bar","lon":"121.483453","lat":"31.245994","category":"247","category_name":"餐饮美食","address":"南苏州路76号（近外白渡桥）"},{"poiid":"B2094757D06AAAFA499C","title":"全家便利(四川北路店)","lon":"121.485242654","lat":"31.2461920216","category":"117","category_name":"便民商店/便利店","address":"上海虹口区四川北路479号(近武昌路)"},{"poiid":"B209475DDB68A3F84092","title":"zoo coffee","lon":"121.484474","lat":"31.248401","category":"247","category_name":"餐饮美食","address":"上海市 四川北路"},{"poiid":"B209475CD665A4FF4492","title":"月星·环球港","lon":"121.482574","lat":"31.248834","category":"500","category_name":"未知分类","address":"上海市 普陀区中山北路3222号"},{"poiid":"B2094654DA6FA6FD439B","title":"扬州大龙汤包馆","lon":"121.483557","lat":"31.24711","category":"68","category_name":"快餐厅","address":"虹口区武昌路592号(近江西北路)"},{"poiid":"B2094654DA6FA6FD449F","title":"金彪生煎王","lon":"121.48314642886","lat":"31.247493744658","category":"68","category_name":"快餐厅","address":"虹口区江西北路203号(近七浦路)"},{"poiid":"B2094757D06AAAFB479E","title":"记子老鸭粉丝汤馆","lon":"121.48499","lat":"31.24681","category":"68","category_name":"快餐厅","address":"虹口区武昌路556号(近四川北路)"},{"poiid":"B209475DD76DA2FC429E","title":"元世祖","lon":"121.484146","lat":"31.248718","category":"247","category_name":"餐饮美食","address":"上海市 虹口区四川北路865号中信广场2层3栋"},{"poiid":"B2094757D06AA6FA459A","title":"COCO都可茶饮(江西北路店)","lon":"121.483103","lat":"31.246761","category":"113","category_name":"冷饮店","address":"虹口区江西北路201号(近塘沽路)"},{"poiid":"B2094757D469A0FF429D","title":"心琪粥店 武昌路店","lon":"121.483366","lat":"31.24713","category":"68","category_name":"快餐厅","address":"虹口区武昌路591号(近江西北路)"},{"poiid":"B2094757D66DA1FA439F","title":"胖子麻辣烫","lon":"121.482571538","lat":"31.2471935617","category":"68","category_name":"快餐厅","address":"虹口区江西北路209号(近七浦路)"},{"poiid":"B2094757D464A6F4489A","title":"田仓米粉 塘沽路店","lon":"121.483158054","lat":"31.247116793","category":"68","category_name":"快餐厅","address":"虹口区江西北路213号(近七浦路)"},{"poiid":"B2094757D46EA5F54399","title":"老牌子游子老鸭粉丝汤","lon":"121.4831831","lat":"31.2470739","category":"68","category_name":"快餐厅","address":"虹口区江西北路220号(近武昌路)"},{"poiid":"B2094757D468A6F54899","title":"云云面馆","lon":"121.48310412015","lat":"31.24648132307","category":"68","category_name":"快餐厅","address":"虹口区武昌路580号(近江西北路)"},{"poiid":"B2094655D26CABFC4599","title":"永鼎鸡汤粉丝馆","lon":"121.48367","lat":"31.24715","category":"68","category_name":"快餐厅","address":"虹口区武昌路576号(近江西北路)"},{"poiid":"B2094750D568A1FC4292","title":"永和大王(四川北路店)","lon":"121.484","lat":"31.2458","category":"68","category_name":"快餐厅","address":"虹口区四川北路71号德邻购物中心1楼10-12门面"},{"poiid":"B209475DDA6CAAFB479C","title":"中信广场一楼 zoo coffee","lon":"121.484588","lat":"31.248331","category":"247","category_name":"餐饮美食","address":"上海市 上海市虹口区四川北路853号中信广场"},{"poiid":"B2094757D065ABFC439F","title":"七浦路重庆酸辣粉","lon":"121.48245","lat":"31.24566","category":"68","category_name":"快餐厅","address":"虹口区七浦路168号兴旺服装市场(近河南北路)"},{"poiid":"B2094654DA6FA6FD4098","title":"七浦老牌牛肉汤","lon":"121.484869054","lat":"31.246858793","category":"68","category_name":"快餐厅","address":"虹口区武昌路529号(近四川北路)"},{"poiid":"B2094654DA6FA6FD4399","title":"广莲香","lon":"121.48293","lat":"31.24713","category":"72","category_name":"广东菜","address":"虹口区塘沽路649号(近江西北路)"},{"poiid":"B2094757D064A5FE4499","title":"百嘉乐量贩ktv","lon":"121.485280738","lat":"31.2470456585","category":"500","category_name":"未知分类","address":"虹口区四川北路520号(近武昌路)"},{"poiid":"B2094757D06FA0FF4798","title":"妯娌老鸭粉丝汤(七浦路店)","lon":"121.48442","lat":"31.24678","category":"257","category_name":"中餐厅","address":"虹口区武昌路579号(近江西北路)"},{"poiid":"B209475CD564A7F84292","title":"上海滩新天地店","lon":"121.47463","lat":"31.22164","category":"119","category_name":"商场","address":"\"太仓路181弄新天地北里15号\r\n\""},{"poiid":"B209475CD564A7F84392","title":"上海滩浦东香格里拉店","lon":"121.50058","lat":"31.23634","category":"119","category_name":"商场","address":"浦东富成路33号香格里拉酒店内大堂层"},{"poiid":"B2094655D36CA7FB4193","title":"海宁路四川北路","lon":"121.48367","lat":"31.24898","category":"38","category_name":"公交车站","address":""},{"poiid":"B2094753DB69A1F4469F","title":"Zoo Coffee","lon":"121.48352","lat":"31.248886","category":"500","category_name":"未知分类","address":"上海市 虹口区中信广场"},{"poiid":"B2094757D06FA0F44093","title":"七浦兴旺服饰市场(老兴旺)","lon":"121.482180096","lat":"31.245859573","category":"249","category_name":"购物服务","address":"上海七浦路168号"},{"poiid":"B2094757D66FA6FA459C","title":"七浦路市场","lon":"121.48208","lat":"31.24561","category":"249","category_name":"购物服务","address":"虹口区七浦路(近河南北路)"},{"poiid":"B2094757D068A1FD479F","title":"一米香潮汕砂锅粥（海宁店）","lon":"121.48431","lat":"31.24975","category":"72","category_name":"广东菜","address":"虹口区海宁路468号(近四川北路)"},{"poiid":"B2094757D069A3FD4998","title":"aini's bistro","lon":"121.48364861","lat":"31.249226209","category":"94","category_name":"西餐厅","address":"虹口区海宁路472-2(近四川北路)"},{"poiid":"B2094757D06FA7FE409D","title":"新七浦服装批发商场","lon":"121.48184542","lat":"31.245351726","category":"141","category_name":"服装鞋帽皮具店","address":"虹口区七浦路179号(近河南北路)"},{"poiid":"B209475CDA64A4F44492","title":"zoo coffee","lon":"121.484466","lat":"31.24809","category":"500","category_name":"未知分类","address":"上海市 四川北路853号中信广场中庭"},{"poiid":"B2094655D26CAAFE4799","title":"胖阿姨正宗朝鲜冷面","lon":"121.48268","lat":"31.24711","category":"96","category_name":"韩国料理","address":"虹口区塘沽路667号(近七浦路)"},{"poiid":"B2094753DB6BABF54792","title":"中信广场1F zoo coffee","lon":"121.485023","lat":"31.24842","category":"500","category_name":"未知分类","address":"上海市 四川北路853号中信广场1F（近海宁路）"},{"poiid":"B2094757D06FA4FD479C","title":"河南北路海宁路","lon":"121.48192792","lat":"31.247266453","category":"500","category_name":"未知分类","address":"上海河南北路海宁路"},{"poiid":"B2094654DA6FA6FC4992","title":"心乐汤面馆","lon":"121.483543054","lat":"31.246675793","category":"68","category_name":"快餐厅","address":"虹口区武昌路581号(近江西北路)"},{"poiid":"B2094750DA6FA1FE449F","title":"百嘉乐(四川北路店)","lon":"121.48531","lat":"31.24735","category":"248","category_name":"生活娱乐","address":"上海市虹口区四川北路(武昌路)520-686号5层"},{"poiid":"B2094655D26EABFA4693","title":"上海城市管理职业技术学院(河南北路)","lon":"121.48128","lat":"31.2474","category":"52","category_name":"高等院校","address":"河南北路301"},{"poiid":"B2094757D06FA0F8419B","title":"芋贵人(七浦路店)","lon":"121.482102","lat":"31.245791","category":"67","category_name":"甜品店","address":"虹口区七浦路133号兴旺美食城5楼29号(近天潼路)"},{"poiid":"B2094757D16EA4FD409B","title":"麦麦屋寿司店","lon":"121.483406738","lat":"31.2470976596","category":"95","category_name":"日本料理","address":"虹口区武昌路589号-A(近七浦路)"},{"poiid":"B2094654DB65A5FC469C","title":"上海春天百货商城","lon":"121.48513","lat":"31.24678","category":"119","category_name":"商场","address":"上海虹口区四川北路521号(近武昌路)"},{"poiid":"B2094757D068A7FB4092","title":"中国电信上海公司川北大楼","lon":"121.48471143","lat":"31.2456520332","category":"46","category_name":"楼宇","address":"上海四川北路61号"},{"poiid":"B2094757D468A6F8429F","title":"樱子美食屋","lon":"121.483928054","lat":"31.246633793","category":"68","category_name":"快餐厅","address":"虹口区武昌路560号(近四川北路)"},{"poiid":"B2094750D66BAAF8419C","title":"梅记大块头爆鱼店(江西北路店)","lon":"121.483","lat":"31.2475","category":"68","category_name":"快餐厅","address":"虹口区江西北路245号(近七浦路)"},{"poiid":"B2094654DB6BABFC499C","title":"味千拉面七浦店","lon":"121.48136","lat":"31.24656","category":"68","category_name":"快餐厅","address":"塘沽路730号圣和圣时尚汇5层"},{"poiid":"B2094750D76FABFE4299","title":"OASE釜山料理","lon":"121.481","lat":"31.2466","category":"96","category_name":"韩国料理","address":"虹口区河南北路233号圣和圣时尚汇5楼(新七浦对面)"},{"poiid":"B2094751D26AA7FA439E","title":"星蝶茶餐厅","lon":"121.484016","lat":"31.248245","category":"72","category_name":"广东菜","address":"虹口区四川北路850号(近武昌路)"},{"poiid":"B209475DD26DABFD439B","title":"zoo coffee","lon":"121.484107","lat":"31.248577","category":"500","category_name":"未知分类","address":"上海市 四川北路853号中信广场中庭"},{"poiid":"B2094757D06AA6FF4093","title":"肯德基 KFC (东华店)","lon":"121.485086","lat":"31.248464","category":"500","category_name":"未知分类","address":"虹口区四川北路838号(近武昌路)"},{"poiid":"B2094757D16FA3F5489A","title":"人大人研究生学院","lon":"121.48286199","lat":"31.248136155","category":"253","category_name":"校园生活","address":"上海六合路58号17楼(南京东路第一百货新楼东方商厦)"},{"poiid":"B2094752D069A7FD4093","title":"Shanghai Rose Bar","lon":"121.483453","lat":"31.245994","category":"247","category_name":"餐饮美食","address":"南苏州路76号（近外白渡桥）"},{"poiid":"B2094757D06AAAFA499C","title":"全家便利(四川北路店)","lon":"121.485242654","lat":"31.2461920216","category":"117","category_name":"便民商店/便利店","address":"上海虹口区四川北路479号(近武昌路)"},{"poiid":"B209475DDB68A3F84092","title":"zoo coffee","lon":"121.484474","lat":"31.248401","category":"247","category_name":"餐饮美食","address":"上海市 四川北路"},{"poiid":"B209475CD665A4FF4492","title":"月星·环球港","lon":"121.482574","lat":"31.248834","category":"500","category_name":"未知分类","address":"上海市 普陀区中山北路3222号"},{"poiid":"B2094654DA6FA6FD439B","title":"扬州大龙汤包馆","lon":"121.483557","lat":"31.24711","category":"68","category_name":"快餐厅","address":"虹口区武昌路592号(近江西北路)"},{"poiid":"B2094654DA6FA6FD449F","title":"金彪生煎王","lon":"121.48314642886","lat":"31.247493744658","category":"68","category_name":"快餐厅","address":"虹口区江西北路203号(近七浦路)"},{"poiid":"B2094757D06AAAFB479E","title":"记子老鸭粉丝汤馆","lon":"121.48499","lat":"31.24681","category":"68","category_name":"快餐厅","address":"虹口区武昌路556号(近四川北路)"},{"poiid":"B209475DD76DA2FC429E","title":"元世祖","lon":"121.484146","lat":"31.248718","category":"247","category_name":"餐饮美食","address":"上海市 虹口区四川北路865号中信广场2层3栋"},{"poiid":"B2094757D06AA6FA459A","title":"COCO都可茶饮(江西北路店)","lon":"121.483103","lat":"31.246761","category":"113","category_name":"冷饮店","address":"虹口区江西北路201号(近塘沽路)"},{"poiid":"B2094757D469A0FF429D","title":"心琪粥店 武昌路店","lon":"121.483366","lat":"31.24713","category":"68","category_name":"快餐厅","address":"虹口区武昌路591号(近江西北路)"},{"poiid":"B2094757D66DA1FA439F","title":"胖子麻辣烫","lon":"121.482571538","lat":"31.2471935617","category":"68","category_name":"快餐厅","address":"虹口区江西北路209号(近七浦路)"},{"poiid":"B2094757D464A6F4489A","title":"田仓米粉 塘沽路店","lon":"121.483158054","lat":"31.247116793","category":"68","category_name":"快餐厅","address":"虹口区江西北路213号(近七浦路)"},{"poiid":"B2094757D46EA5F54399","title":"老牌子游子老鸭粉丝汤","lon":"121.4831831","lat":"31.2470739","category":"68","category_name":"快餐厅","address":"虹口区江西北路220号(近武昌路)"},{"poiid":"B2094757D468A6F54899","title":"云云面馆","lon":"121.48310412015","lat":"31.24648132307","category":"68","category_name":"快餐厅","address":"虹口区武昌路580号(近江西北路)"},{"poiid":"B2094655D26CABFC4599","title":"永鼎鸡汤粉丝馆","lon":"121.48367","lat":"31.24715","category":"68","category_name":"快餐厅","address":"虹口区武昌路576号(近江西北路)"},{"poiid":"B2094750D568A1FC4292","title":"永和大王(四川北路店)","lon":"121.484","lat":"31.2458","category":"68","category_name":"快餐厅","address":"虹口区四川北路71号德邻购物中心1楼10-12门面"},{"poiid":"B209475DDA6CAAFB479C","title":"中信广场一楼 zoo coffee","lon":"121.484588","lat":"31.248331","category":"247","category_name":"餐饮美食","address":"上海市 上海市虹口区四川北路853号中信广场"},{"poiid":"B2094757D065ABFC439F","title":"七浦路重庆酸辣粉","lon":"121.48245","lat":"31.24566","category":"68","category_name":"快餐厅","address":"虹口区七浦路168号兴旺服装市场(近河南北路)"},{"poiid":"B2094654DA6FA6FD4098","title":"七浦老牌牛肉汤","lon":"121.484869054","lat":"31.246858793","category":"68","category_name":"快餐厅","address":"虹口区武昌路529号(近四川北路)"}]