[{"poiid":"B2094757D168A7FB429B","title":"红枫林农家菜","lon":"121.080533671","lat":"31.1268068989","category":"247","category_name":"餐饮美食","address":"上海市青浦区横江路"},{"poiid":"B2094757D06AA3F9409F","title":"朱家角淀山湖","lon":"121.06027984","lat":"31.109130859","category":"500","category_name":"未知分类","address":"上海朱家角淀山湖"},{"poiid":"B2094757D16DABF4419E","title":"珠街阁大酒店","lon":"121.0654","lat":"31.10919","category":"72","category_name":"广东菜","address":"青浦区朱家角镇祥凝浜路118号(近东大门)"},{"poiid":"B2094654DA6BA1F5419B","title":"朱家角汽车站","lon":"121.06065","lat":"31.10881","category":"35","category_name":"长途汽车站","address":"青浦区朱家角镇祥凝路339号"},{"poiid":"B2094757D46AA6FD499D","title":"东方绿舟烧烤园","lon":"121.072398054","lat":"31.118154793","category":"269","category_name":"烧烤","address":"沪青平公路6888号东方绿舟"},{"poiid":"B2094757D16EA0FF4798","title":"上海不夜城通讯市场","lon":"121.077104271","lat":"31.1205358332","category":"500","category_name":"未知分类","address":"上海天目西路188号二楼九十三号B"},{"poiid":"B2094655D36CA6F44899","title":"淀山湖大道港周路","lon":"121.06267","lat":"31.12968","category":"38","category_name":"公交车站","address":""},{"poiid":"B2094757D66AA7FC4293","title":"古桥餐阁","lon":"121.067326054","lat":"31.119621793","category":"67","category_name":"甜品店","address":"青浦区朱家角北大街278号(泰安桥旁)"},{"poiid":"B2094654DB64A4FC4692","title":"东方庭院","lon":"121.067893","lat":"31.11369","category":"47","category_name":"住宅区","address":"青浦区朱家角复兴路88弄"},{"poiid":"B2094757D06FA6F8449D","title":"朱家角草堂客栈","lon":"121.05655344","lat":"31.112618165","category":"216","category_name":"经济型连锁酒店","address":"青浦区朱家角东井街31号"},{"poiid":"B2094757D16EA3F4479C","title":"淀山湖河鲜馆","lon":"121.08391","lat":"31.12493","category":"247","category_name":"餐饮美食","address":"朱家角镇沪青平公路6666号1-3楼近复兴路近318国道"},{"poiid":"B2094655D265A0F4439F","title":"淀湖山庄","lon":"121.06503","lat":"31.108095","category":"47","category_name":"住宅区","address":"上海市青浦区朱家角镇祥凝浜路103弄"},{"poiid":"B2094757D16BAAFA419B","title":"东方绿舟会所","lon":"121.086310221","lat":"31.118475732","category":"65","category_name":"咖啡厅","address":"青浦区沪青平公路7000号东方绿舟内"},{"poiid":"B2094654DA6BA0FA449B","title":"众利商场","lon":"121.06333","lat":"31.11874","category":"119","category_name":"商场","address":""},{"poiid":"B2094757D168A3FC439D","title":"乌镇西栅","lon":"121.06675113","lat":"31.125894954","category":"500","category_name":"未知分类","address":"北京浙江桐乡市乌镇"},{"poiid":"B2094655D36CA6F4489E","title":"淀山湖大道横港村","lon":"121.07457","lat":"31.13307","category":"38","category_name":"公交车站","address":""},{"poiid":"B2094757DA65A5F4489C","title":"上海新江南大酒店","lon":"121.067597866","lat":"31.110692941","category":"216","category_name":"经济型连锁酒店","address":"上海青浦区朱家角祥凝浜路16弄28号"},{"poiid":"B2094654DA6BA0FD4399","title":"花中花KTV","lon":"121.06691","lat":"31.10823","category":"170","category_name":"KTV","address":""},{"poiid":"B2094757D16AA6F94099","title":"绿洲江南园","lon":"121.06059","lat":"31.116209","category":"500","category_name":"未知分类","address":"上海市青浦区朱家角镇绿洲江南园"},{"poiid":"B2094757D16DA3F8489A","title":"淀山湖归园公墓","lon":"121.065205336","lat":"31.1345381758","category":"620","category_name":"丧葬","address":"上海青浦区朱家角港周路8号"},{"poiid":"B2094757D465A1FD4998","title":"金阁林酒店","lon":"121.09044","lat":"31.12925","category":"76","category_name":"上海菜","address":"青浦区沪青平公路5669弄金域商业广场金地格林郡26号"},{"poiid":"B2094757D569A1FE4392","title":"便利店","lon":"121.08751058","lat":"31.12777317","category":"117","category_name":"便民商店/便利店","address":"青浦镇"},{"poiid":"B2094757D66AA7FC479C","title":"醉红楼酒家","lon":"121.061973","lat":"31.109535","category":"76","category_name":"上海菜","address":"青浦区朱家角镇祥平公寓298号"},{"poiid":"B2094753D56AA0F44793","title":"星巴克","lon":"121.061088","lat":"31.109773","category":"500","category_name":"未知分类","address":"上海市 朱家镇新风路268弄2号"},{"poiid":"B2094757D66EA7FE4793","title":"上海市委宣传党校","lon":"121.07032067","lat":"31.109349549","category":"500","category_name":"未知分类","address":"上海市沪青平公路6888号"},{"poiid":"B2094654DA6BA0FA469A","title":"上海珠溪园","lon":"121.06097","lat":"31.10942","category":"250","category_name":"公园户外","address":"青浦区朱家角镇"},{"poiid":"B2094757D065A0F8469A","title":"沪渝高速","lon":"121.07402801","lat":"31.107778549","category":"260","category_name":"其他","address":"上海沪渝高速"},{"poiid":"B2094757D169AAFE459C","title":"G2京沪高速苏州收费站","lon":"121.069451671","lat":"31.1085965341","category":"267","category_name":"收费站","address":"上海G2京沪高速"},{"poiid":"B2094757D165A2FB479B","title":"west well in 朱家角","lon":"121.059684","lat":"31.108543","category":"76","category_name":"上海菜","address":"青浦区朱家角北大街357号(近城隍庙桥)"},{"poiid":"B2094757D169A5F5439B","title":"朱家角社区卫生服务中心","lon":"121.066223671","lat":"31.108543533","category":"500","category_name":"未知分类","address":"上海朱家角祥凝浜路66号"},{"poiid":"B2094757D16FAAFB459A","title":"青浦朱卫农家菜","lon":"121.09125167","lat":"31.128919941","category":"247","category_name":"餐饮美食","address":"上海朱家角"},{"poiid":"B2094757D069A4FB449B","title":"大千生态庄园","lon":"121.06317935","lat":"31.134406319","category":"260","category_name":"其他","address":"青浦区朱家角西洋淀1号(近朱家角停车场)"},{"poiid":"B2094654DA6BA0FD4492","title":"上海农村商业银行朱家角支行","lon":"121.06547","lat":"31.10875","category":"150","category_name":"银行","address":"朱家角镇"},{"poiid":"B2094757D065A3F4489F","title":"上海天马山赛车场","lon":"121.091251671","lat":"31.1289199412","category":"500","category_name":"未知分类","address":"上海市青浦区沪青平公路"},{"poiid":"B209475CD26CA2FB4198","title":"星巴克","lon":"121.060913","lat":"31.109661","category":"500","category_name":"未知分类","address":"上海市 朱家角放生桥"},{"poiid":"B2094654DA6BA0F5409E","title":"淀湖新村","lon":"121.06013","lat":"31.108725","category":"47","category_name":"住宅区","address":"淀湖新村"},{"poiid":"B2094654DA6BA0FA4593","title":"顶剪专业美发时尚沙龙","lon":"121.06101","lat":"31.10944","category":"148","category_name":"美容美发店","address":""},{"poiid":"B2094757D068AAF54992","title":"青浦影城","lon":"121.059422","lat":"31.109469","category":"178","category_name":"电影院","address":"上海青浦沪青平公路5669弄(金域广场)63栋22号2楼"},{"poiid":"B2094757D66DABF4439D","title":"弘德楼饭店","lon":"121.05921003","lat":"31.110223951","category":"247","category_name":"餐饮美食","address":"上海朱家角古镇西井街35号"},{"poiid":"B2094654DA6BA0FC4292","title":"朱家角影剧院","lon":"121.059424","lat":"31.109462","category":"178","category_name":"电影院","address":"青浦区朱家角镇祥凝浜路东侧院内(祥凝浜路新风路)"},{"poiid":"B2094757D568A7FB4092","title":"古桥餐厅","lon":"121.06141","lat":"31.107565","category":"257","category_name":"中餐厅","address":"青浦区朱家角景区内"},{"poiid":"B2094757D66BA2FB439E","title":"许永顺","lon":"121.0597","lat":"31.10854","category":"76","category_name":"上海菜","address":"青浦区朱家角东井街76号"},{"poiid":"B209475DD26EA1FB449D","title":"中信泰富朱家角锦江酒店","lon":"121.055541","lat":"31.119806","category":"500","category_name":"未知分类","address":"上海市 珠湖路666号"},{"poiid":"B2094757D66BA3FA4492","title":"王琴饭店","lon":"121.059776054","lat":"31.108589793","category":"76","category_name":"上海菜","address":"青浦区朱家角沪青平公路6210号(朱家角路口)"},{"poiid":"B2094654DA6BA1F54298","title":"联华超市(祥凝浜路)","lon":"121.06","lat":"31.10903","category":"118","category_name":"超级市场","address":""},{"poiid":"B2094757D064A0FB4598","title":"小宝宝巢穴","lon":"121.064512671","lat":"31.1074105103","category":"249","category_name":"购物服务","address":"上海朱家角"},{"poiid":"B2094757D164A6F5449A","title":"朱家角镇沈巷社区卫生服务中心","lon":"121.06347067","lat":"31.107372509","category":"500","category_name":"未知分类","address":"上海市青浦区朱家角曲池路39号"},{"poiid":"B2094654DA6BA0FA4692","title":"香霓儿","lon":"121.05969","lat":"31.10997","category":"248","category_name":"生活娱乐","address":"朱家角镇"},{"poiid":"B2094654DA6BA0FA4798","title":"上海农村商业银行珠溪分理处","lon":"121.05867","lat":"31.10933","category":"150","category_name":"银行","address":"新溪路48"},{"poiid":"B2094654DA6BA1F54093","title":"中国银行上海市朱家角支行","lon":"121.06007","lat":"31.1087","category":"150","category_name":"银行","address":"朱家角镇"},{"poiid":"B2094757D168A7FB429B","title":"红枫林农家菜","lon":"121.080533671","lat":"31.1268068989","category":"247","category_name":"餐饮美食","address":"上海市青浦区横江路"},{"poiid":"B2094757D06AA3F9409F","title":"朱家角淀山湖","lon":"121.06027984","lat":"31.109130859","category":"500","category_name":"未知分类","address":"上海朱家角淀山湖"},{"poiid":"B2094757D16DABF4419E","title":"珠街阁大酒店","lon":"121.0654","lat":"31.10919","category":"72","category_name":"广东菜","address":"青浦区朱家角镇祥凝浜路118号(近东大门)"},{"poiid":"B2094654DA6BA1F5419B","title":"朱家角汽车站","lon":"121.06065","lat":"31.10881","category":"35","category_name":"长途汽车站","address":"青浦区朱家角镇祥凝路339号"},{"poiid":"B2094757D46AA6FD499D","title":"东方绿舟烧烤园","lon":"121.072398054","lat":"31.118154793","category":"269","category_name":"烧烤","address":"沪青平公路6888号东方绿舟"},{"poiid":"B2094757D16EA0FF4798","title":"上海不夜城通讯市场","lon":"121.077104271","lat":"31.1205358332","category":"500","category_name":"未知分类","address":"上海天目西路188号二楼九十三号B"},{"poiid":"B2094655D36CA6F44899","title":"淀山湖大道港周路","lon":"121.06267","lat":"31.12968","category":"38","category_name":"公交车站","address":""},{"poiid":"B2094757D66AA7FC4293","title":"古桥餐阁","lon":"121.067326054","lat":"31.119621793","category":"67","category_name":"甜品店","address":"青浦区朱家角北大街278号(泰安桥旁)"},{"poiid":"B2094654DB64A4FC4692","title":"东方庭院","lon":"121.067893","lat":"31.11369","category":"47","category_name":"住宅区","address":"青浦区朱家角复兴路88弄"},{"poiid":"B2094757D06FA6F8449D","title":"朱家角草堂客栈","lon":"121.05655344","lat":"31.112618165","category":"216","category_name":"经济型连锁酒店","address":"青浦区朱家角东井街31号"},{"poiid":"B2094757D16EA3F4479C","title":"淀山湖河鲜馆","lon":"121.08391","lat":"31.12493","category":"247","category_name":"餐饮美食","address":"朱家角镇沪青平公路6666号1-3楼近复兴路近318国道"},{"poiid":"B2094655D265A0F4439F","title":"淀湖山庄","lon":"121.06503","lat":"31.108095","category":"47","category_name":"住宅区","address":"上海市青浦区朱家角镇祥凝浜路103弄"},{"poiid":"B2094757D16BAAFA419B","title":"东方绿舟会所","lon":"121.086310221","lat":"31.118475732","category":"65","category_name":"咖啡厅","address":"青浦区沪青平公路7000号东方绿舟内"},{"poiid":"B2094654DA6BA0FA449B","title":"众利商场","lon":"121.06333","lat":"31.11874","category":"119","category_name":"商场","address":""},{"poiid":"B2094757D168A3FC439D","title":"乌镇西栅","lon":"121.06675113","lat":"31.125894954","category":"500","category_name":"未知分类","address":"北京浙江桐乡市乌镇"},{"poiid":"B2094655D36CA6F4489E","title":"淀山湖大道横港村","lon":"121.07457","lat":"31.13307","category":"38","category_name":"公交车站","address":""},{"poiid":"B2094757DA65A5F4489C","title":"上海新江南大酒店","lon":"121.067597866","lat":"31.110692941","category":"216","category_name":"经济型连锁酒店","address":"上海青浦区朱家角祥凝浜路16弄28号"},{"poiid":"B2094654DA6BA0FD4399","title":"花中花KTV","lon":"121.06691","lat":"31.10823","category":"170","category_name":"KTV","address":""},{"poiid":"B2094757D16AA6F94099","title":"绿洲江南园","lon":"121.06059","lat":"31.116209","category":"500","category_name":"未知分类","address":"上海市青浦区朱家角镇绿洲江南园"},{"poiid":"B2094757D16DA3F8489A","title":"淀山湖归园公墓","lon":"121.065205336","lat":"31.1345381758","category":"620","category_name":"丧葬","address":"上海青浦区朱家角港周路8号"},{"poiid":"B2094757D465A1FD4998","title":"金阁林酒店","lon":"121.09044","lat":"31.12925","category":"76","category_name":"上海菜","address":"青浦区沪青平公路5669弄金域商业广场金地格林郡26号"},{"poiid":"B2094757D569A1FE4392","title":"便利店","lon":"121.08751058","lat":"31.12777317","category":"117","category_name":"便民商店/便利店","address":"青浦镇"},{"poiid":"B2094757D66AA7FC479C","title":"醉红楼酒家","lon":"121.061973","lat":"31.109535","category":"76","category_name":"上海菜","address":"青浦区朱家角镇祥平公寓298号"},{"poiid":"B2094753D56AA0F44793","title":"星巴克","lon":"121.061088","lat":"31.109773","category":"500","category_name":"未知分类","address":"上海市 朱家镇新风路268弄2号"},{"poiid":"B2094757D66EA7FE4793","title":"上海市委宣传党校","lon":"121.07032067","lat":"31.109349549","category":"500","category_name":"未知分类","address":"上海市沪青平公路6888号"},{"poiid":"B2094654DA6BA0FA469A","title":"上海珠溪园","lon":"121.06097","lat":"31.10942","category":"250","category_name":"公园户外","address":"青浦区朱家角镇"},{"poiid":"B2094757D065A0F8469A","title":"沪渝高速","lon":"121.07402801","lat":"31.107778549","category":"260","category_name":"其他","address":"上海沪渝高速"},{"poiid":"B2094757D169AAFE459C","title":"G2京沪高速苏州收费站","lon":"121.069451671","lat":"31.1085965341","category":"267","category_name":"收费站","address":"上海G2京沪高速"},{"poiid":"B2094757D165A2FB479B","title":"west well in 朱家角","lon":"121.059684","lat":"31.108543","category":"76","category_name":"上海菜","address":"青浦区朱家角北大街357号(近城隍庙桥)"},{"poiid":"B2094757D169A5F5439B","title":"朱家角社区卫生服务中心","lon":"121.066223671","lat":"31.108543533","category":"500","category_name":"未知分类","address":"上海朱家角祥凝浜路66号"},{"poiid":"B2094757D16FAAFB459A","title":"青浦朱卫农家菜","lon":"121.09125167","lat":"31.128919941","category":"247","category_name":"餐饮美食","address":"上海朱家角"},{"poiid":"B2094757D069A4FB449B","title":"大千生态庄园","lon":"121.06317935","lat":"31.134406319","category":"260","category_name":"其他","address":"青浦区朱家角西洋淀1号(近朱家角停车场)"},{"poiid":"B2094654DA6BA0FD4492","title":"上海农村商业银行朱家角支行","lon":"121.06547","lat":"31.10875","category":"150","category_name":"银行","address":"朱家角镇"},{"poiid":"B2094757D065A3F4489F","title":"上海天马山赛车场","lon":"121.091251671","lat":"31.1289199412","category":"500","category_name":"未知分类","address":"上海市青浦区沪青平公路"},{"poiid":"B209475CD26CA2FB4198","title":"星巴克","lon":"121.060913","lat":"31.109661","category":"500","category_name":"未知分类","address":"上海市 朱家角放生桥"},{"poiid":"B2094654DA6BA0F5409E","title":"淀湖新村","lon":"121.06013","lat":"31.108725","category":"47","category_name":"住宅区","address":"淀湖新村"},{"poiid":"B2094654DA6BA0FA4593","title":"顶剪专业美发时尚沙龙","lon":"121.06101","lat":"31.10944","category":"148","category_name":"美容美发店","address":""},{"poiid":"B2094757D068AAF54992","title":"青浦影城","lon":"121.059422","lat":"31.109469","category":"178","category_name":"电影院","address":"上海青浦沪青平公路5669弄(金域广场)63栋22号2楼"},{"poiid":"B2094757D66DABF4439D","title":"弘德楼饭店","lon":"121.05921003","lat":"31.110223951","category":"247","category_name":"餐饮美食","address":"上海朱家角古镇西井街35号"},{"poiid":"B2094654DA6BA0FC4292","title":"朱家角影剧院","lon":"121.059424","lat":"31.109462","category":"178","category_name":"电影院","address":"青浦区朱家角镇祥凝浜路东侧院内(祥凝浜路新风路)"},{"poiid":"B2094757D568A7FB4092","title":"古桥餐厅","lon":"121.06141","lat":"31.107565","category":"257","category_name":"中餐厅","address":"青浦区朱家角景区内"},{"poiid":"B2094757D66BA2FB439E","title":"许永顺","lon":"121.0597","lat":"31.10854","category":"76","category_name":"上海菜","address":"青浦区朱家角东井街76号"},{"poiid":"B209475DD26EA1FB449D","title":"中信泰富朱家角锦江酒店","lon":"121.055541","lat":"31.119806","category":"500","category_name":"未知分类","address":"上海市 珠湖路666号"},{"poiid":"B2094757D66BA3FA4492","title":"王琴饭店","lon":"121.059776054","lat":"31.108589793","category":"76","category_name":"上海菜","address":"青浦区朱家角沪青平公路6210号(朱家角路口)"},{"poiid":"B2094654DA6BA1F54298","title":"联华超市(祥凝浜路)","lon":"121.06","lat":"31.10903","category":"118","category_name":"超级市场","address":""},{"poiid":"B2094757D064A0FB4598","title":"小宝宝巢穴","lon":"121.064512671","lat":"31.1074105103","category":"249","category_name":"购物服务","address":"上海朱家角"},{"poiid":"B2094757D164A6F5449A","title":"朱家角镇沈巷社区卫生服务中心","lon":"121.06347067","lat":"31.107372509","category":"500","category_name":"未知分类","address":"上海市青浦区朱家角曲池路39号"},{"poiid":"B2094654DA6BA0FA4692","title":"香霓儿","lon":"121.05969","lat":"31.10997","category":"248","category_name":"生活娱乐","address":"朱家角镇"},{"poiid":"B2094654DA6BA0FA4798","title":"上海农村商业银行珠溪分理处","lon":"121.05867","lat":"31.10933","category":"150","category_name":"银行","address":"新溪路48"},{"poiid":"B2094654DA6BA1F54093","title":"中国银行上海市朱家角支行","lon":"121.06007","lat":"31.1087","category":"150","category_name":"银行","address":"朱家角镇"}]