[{"poiid":"B2094654DA6BA6FC429B","title":"上海市青浦区体育场","lon":"121.11895","lat":"31.15216","category":"224","category_name":"综合体育馆","address":"体育场路1号"},{"poiid":"B2094757D068A3F9439E","title":"自由港量贩式KTV(青浦店)","lon":"121.12195","lat":"31.14887","category":"170","category_name":"KTV","address":"青浦区公园路258号(浦仓路口)"},{"poiid":"B2094757D06FA0F4469B","title":"麦当劳(青浦店)","lon":"121.11793","lat":"31.15247","category":"68","category_name":"快餐厅","address":"青浦区青安路55-59号(青安路青赵公路)"},{"poiid":"B2094757D664A3F54799","title":"七欣天迷宗蟹 青浦店","lon":"121.119998","lat":"31.153206","category":"86","category_name":"火锅店","address":"青浦区沙埭浜路35-39号(近体育场路)"},{"poiid":"B2094757D06BABFF4693","title":"青浦区政府","lon":"121.12415141","lat":"31.15036197","category":"500","category_name":"未知分类","address":"上海公园路100号"},{"poiid":"B2094757D06BA7FA419A","title":"雪岳山韩国烧烤(青浦店)","lon":"121.11878","lat":"31.15339","category":"96","category_name":"韩国料理","address":"青浦区沙埭浜路124号(近青安路)"},{"poiid":"B2094757D06BA4FA499D","title":"青浦区行政服务中心","lon":"121.12342184","lat":"31.152591323","category":"500","category_name":"未知分类","address":"上海近郊青浦区外青松公路6189号"},{"poiid":"B2094654DA6BA6FE439C","title":"青浦体育馆","lon":"121.11769","lat":"31.15164","category":"224","category_name":"综合体育馆","address":"体育场路"},{"poiid":"B2094757D165A7F54198","title":"青浦教师进修学院","lon":"121.12072706","lat":"31.148430402","category":"253","category_name":"校园生活","address":"上海青浦"},{"poiid":"B2094655D26EA1F54399","title":"小肥羊 青浦店","lon":"121.11718575893","lat":"31.151186560965","category":"86","category_name":"火锅店","address":"青浦区青浦青安路218号(青安路青赵公路)"},{"poiid":"B2094757D068A3F8439C","title":"85度C 青浦店","lon":"121.12089","lat":"31.14898","category":"112","category_name":"糕饼店","address":"青浦区公园路300号农工商超市旁(浦仓路公园路)"},{"poiid":"B2094757D064A1FA439C","title":"豪享来(青浦店)","lon":"121.11789","lat":"31.15232","category":"94","category_name":"西餐厅","address":"青浦区青安路246号(青安路青赵公路)"},{"poiid":"B2094757D66EA5F94999","title":"咔浓咖啡","lon":"121.119855035","lat":"31.1505348737","category":"65","category_name":"咖啡厅","address":"青浦区欧洲街74弄3号"},{"poiid":"B2094757D16CA0FB499B","title":"世田造型","lon":"121.120825","lat":"31.150514","category":"148","category_name":"美容美发店","address":"上海浦仓路"},{"poiid":"B2094654DA6BA6FC469C","title":"农工商超市NO.50","lon":"121.12065","lat":"31.14896","category":"118","category_name":"超级市场","address":"青浦镇"},{"poiid":"B2094750DA65A6F4409B","title":"朱家角镇","lon":"121.121879","lat":"31.151987","category":"500","category_name":"未知分类","address":null},{"poiid":"B2094757D169A3FB4693","title":"宋记香辣蟹 浦仓路店","lon":"121.12133","lat":"31.1518","category":"71","category_name":"四川菜","address":"青浦区浦仓路528号(近青浦体育场)"},{"poiid":"B2094757D66AA6FF489B","title":"印度餐厅","lon":"121.118039","lat":"31.152858","category":"102","category_name":"印度风味","address":"青浦区沙隶浜路"},{"poiid":"B2094654DA6BA7FB4798","title":"蔡师傅面馆","lon":"121.12157","lat":"31.15144","category":"87","category_name":"特色／地方风味餐厅","address":"青浦区体育场路(近浦仓路)"},{"poiid":"B2094757D16EA5FA479D","title":"界泾港三期","lon":"121.121164035","lat":"31.1540609425","category":"47","category_name":"住宅区","address":"上海青浦区浦仓路"},{"poiid":"B2094757D56DA7FF4192","title":"粥聚阁","lon":"121.11840963364","lat":"31.153810074222","category":"72","category_name":"广东菜","address":"青浦区沙埭浜路128号(近青安路)"},{"poiid":"B2094654DA6BA7F84493","title":"四兴大楼","lon":"121.12","lat":"31.1525","category":"46","category_name":"楼宇","address":"城中东路626号"},{"poiid":"B2094654DA6BA6FC4193","title":"青浦游泳馆","lon":"121.12051","lat":"31.15202","category":"231","category_name":"游泳馆","address":"青浦区浦仓路535号(欧洲街体育场路)"},{"poiid":"B2094757D064A4FD4999","title":"大碗鱼(青浦店)","lon":"121.11312","lat":"31.14808","category":"71","category_name":"四川菜","address":"青浦区公园路666弄桥梓湾商场内(近东方商厦)"},{"poiid":"B2094655D268A4FC4898","title":"界泾港新村(南门)","lon":"121.12215","lat":"31.1519","category":"47","category_name":"住宅区","address":""},{"poiid":"B2094757D06AA2F5499A","title":"蔡先生苏州汤包馆 青安路店","lon":"121.117188","lat":"31.150285","category":"87","category_name":"特色／地方风味餐厅","address":"青浦区青安路110-112号(近中医院)"},{"poiid":"B2094757D165A1FD479A","title":"七欣吃蟹","lon":"121.119951035","lat":"31.1525599132","category":"500","category_name":"未知分类","address":"上海青浦区沙埭浜路"},{"poiid":"B2094757D169AAF8489C","title":"青浦区社保中心","lon":"121.122893","lat":"31.149602","category":"500","category_name":"未知分类","address":"上海公园路200号"},{"poiid":"B2094655D26FABFA4193","title":"青浦界泾新邨(西门)","lon":"121.1214","lat":"31.15403","category":"47","category_name":"住宅区","address":"浦仓路648弄"},{"poiid":"B2094757D66EAAFB4599","title":"清泉会所","lon":"121.12198703","lat":"31.152011902","category":"148","category_name":"美容美发店","address":"上海青浦区体育场路"},{"poiid":"B2094655D268A5F54693","title":"公园路营业厅","lon":"121.11843","lat":"31.14888","category":"151","category_name":"电讯营业厅","address":"青浦区公园路406号"},{"poiid":"B2094654DA6BA7FA449D","title":"华伦商厦","lon":"121.11959688312","lat":"31.152119924492","category":"46","category_name":"楼宇","address":"城中东路635号2层"},{"poiid":"B2094654DA6BA7FB469D","title":"小食坊龙虾馆","lon":"121.12136","lat":"31.15141","category":"88","category_name":"海鲜酒楼","address":""},{"poiid":"B2094757D06BA1FB4092","title":"鑫洋桌球俱乐部","lon":"121.118713035","lat":"31.150653876","category":"171","category_name":"台球厅","address":"上海青浦区体育场路"},{"poiid":"B2094655D268A2FB449F","title":"篮球场","lon":"121.11979","lat":"31.15255","category":"229","category_name":"篮球场馆","address":""},{"poiid":"B2094757D16CA0FC479C","title":"龙满楼","lon":"121.125225","lat":"31.1558858","category":"76","category_name":"上海菜","address":"青浦区外青松公路6048弄16号(近界泾港路)"},{"poiid":"B2094757D06AAAF8419A","title":"体育场路","lon":"121.122568","lat":"31.151982","category":"260","category_name":"其他","address":"上海青浦区体育场路"},{"poiid":"B2094654DA6BA5FE449C","title":"友谊酒家","lon":"121.12075433399","lat":"31.149022380998","category":"76","category_name":"上海菜","address":"青浦区公园路197号(近外青松公路)"},{"poiid":"B2094757D66CA7FF459E","title":"越岭阁(青浦店)","lon":"121.12066","lat":"31.14847","category":"96","category_name":"韩国料理","address":"青浦区公园路209号(近浦仓路)"},{"poiid":"B2094655D26FAAFF459A","title":"沙埭浜路74弄小区(南门)","lon":"121.11959","lat":"31.15354","category":"47","category_name":"住宅区","address":"沙埭浜路74弄1-4、5-7号"},{"poiid":"B2094654DA6BA6F8469F","title":"上海申生宠物诊疗有限公司","lon":"121.12347","lat":"31.15211","category":"162","category_name":"医院","address":"青浦区体育场路122-124号"},{"poiid":"B2094655D26FAAFF4598","title":"沙埭浜路74弄小区","lon":"121.11965","lat":"31.1538","category":"47","category_name":"住宅区","address":"沙埭浜路74弄1-4、5-7号"},{"poiid":"B2094757D165A0FD4698","title":"练塘","lon":"121.120169","lat":"31.152868","category":"500","category_name":"未知分类","address":"上海青浦"},{"poiid":"B2094654DA6BA6FF4193","title":"祥龙小区","lon":"121.11959","lat":"31.154856","category":"47","category_name":"住宅区","address":"青安路30弄"},{"poiid":"B2094654DA6BA5FF489A","title":"青浦大厦","lon":"121.124","lat":"31.1538","category":"46","category_name":"楼宇","address":"公园东路1818号"},{"poiid":"B2094655D268A1FD479D","title":"川福火锅(浦仓路)","lon":"121.12075","lat":"31.14982","category":"86","category_name":"火锅店","address":""},{"poiid":"B2094654DA6BA6FE499B","title":"荷景苑","lon":"121.11913","lat":"31.154181","category":"47","category_name":"住宅区","address":"青浦区沙埭浜路108弄"},{"poiid":"B2094757D66DABF94092","title":"公园路浦仓路","lon":"121.121648035","lat":"31.1553819683","category":"196","category_name":"公园","address":"上海公园路浦仓路十字路口"},{"poiid":"B2094654DA6BA7F54492","title":"春汝拉面店","lon":"121.121","lat":"31.15591","category":"257","category_name":"中餐厅","address":"青浦区浦仓路777号"},{"poiid":"B2094654DA6BA6FE419A","title":"莱欧美容美发艺术沙龙","lon":"121.11914","lat":"31.14942","category":"148","category_name":"美容美发店","address":""},{"poiid":"B2094654DA6BA6FC429B","title":"上海市青浦区体育场","lon":"121.11895","lat":"31.15216","category":"224","category_name":"综合体育馆","address":"体育场路1号"},{"poiid":"B2094757D068A3F9439E","title":"自由港量贩式KTV(青浦店)","lon":"121.12195","lat":"31.14887","category":"170","category_name":"KTV","address":"青浦区公园路258号(浦仓路口)"},{"poiid":"B2094757D06FA0F4469B","title":"麦当劳(青浦店)","lon":"121.11793","lat":"31.15247","category":"68","category_name":"快餐厅","address":"青浦区青安路55-59号(青安路青赵公路)"},{"poiid":"B2094757D664A3F54799","title":"七欣天迷宗蟹 青浦店","lon":"121.119998","lat":"31.153206","category":"86","category_name":"火锅店","address":"青浦区沙埭浜路35-39号(近体育场路)"},{"poiid":"B2094757D06BABFF4693","title":"青浦区政府","lon":"121.12415141","lat":"31.15036197","category":"500","category_name":"未知分类","address":"上海公园路100号"},{"poiid":"B2094757D06BA7FA419A","title":"雪岳山韩国烧烤(青浦店)","lon":"121.11878","lat":"31.15339","category":"96","category_name":"韩国料理","address":"青浦区沙埭浜路124号(近青安路)"},{"poiid":"B2094757D06BA4FA499D","title":"青浦区行政服务中心","lon":"121.12342184","lat":"31.152591323","category":"500","category_name":"未知分类","address":"上海近郊青浦区外青松公路6189号"},{"poiid":"B2094654DA6BA6FE439C","title":"青浦体育馆","lon":"121.11769","lat":"31.15164","category":"224","category_name":"综合体育馆","address":"体育场路"},{"poiid":"B2094757D165A7F54198","title":"青浦教师进修学院","lon":"121.12072706","lat":"31.148430402","category":"253","category_name":"校园生活","address":"上海青浦"},{"poiid":"B2094655D26EA1F54399","title":"小肥羊 青浦店","lon":"121.11718575893","lat":"31.151186560965","category":"86","category_name":"火锅店","address":"青浦区青浦青安路218号(青安路青赵公路)"},{"poiid":"B2094757D068A3F8439C","title":"85度C 青浦店","lon":"121.12089","lat":"31.14898","category":"112","category_name":"糕饼店","address":"青浦区公园路300号农工商超市旁(浦仓路公园路)"},{"poiid":"B2094757D064A1FA439C","title":"豪享来(青浦店)","lon":"121.11789","lat":"31.15232","category":"94","category_name":"西餐厅","address":"青浦区青安路246号(青安路青赵公路)"},{"poiid":"B2094757D66EA5F94999","title":"咔浓咖啡","lon":"121.119855035","lat":"31.1505348737","category":"65","category_name":"咖啡厅","address":"青浦区欧洲街74弄3号"},{"poiid":"B2094757D16CA0FB499B","title":"世田造型","lon":"121.120825","lat":"31.150514","category":"148","category_name":"美容美发店","address":"上海浦仓路"},{"poiid":"B2094654DA6BA6FC469C","title":"农工商超市NO.50","lon":"121.12065","lat":"31.14896","category":"118","category_name":"超级市场","address":"青浦镇"},{"poiid":"B2094750DA65A6F4409B","title":"朱家角镇","lon":"121.121879","lat":"31.151987","category":"500","category_name":"未知分类","address":null},{"poiid":"B2094757D169A3FB4693","title":"宋记香辣蟹 浦仓路店","lon":"121.12133","lat":"31.1518","category":"71","category_name":"四川菜","address":"青浦区浦仓路528号(近青浦体育场)"},{"poiid":"B2094757D66AA6FF489B","title":"印度餐厅","lon":"121.118039","lat":"31.152858","category":"102","category_name":"印度风味","address":"青浦区沙隶浜路"},{"poiid":"B2094654DA6BA7FB4798","title":"蔡师傅面馆","lon":"121.12157","lat":"31.15144","category":"87","category_name":"特色／地方风味餐厅","address":"青浦区体育场路(近浦仓路)"},{"poiid":"B2094757D16EA5FA479D","title":"界泾港三期","lon":"121.121164035","lat":"31.1540609425","category":"47","category_name":"住宅区","address":"上海青浦区浦仓路"},{"poiid":"B2094757D56DA7FF4192","title":"粥聚阁","lon":"121.11840963364","lat":"31.153810074222","category":"72","category_name":"广东菜","address":"青浦区沙埭浜路128号(近青安路)"},{"poiid":"B2094654DA6BA7F84493","title":"四兴大楼","lon":"121.12","lat":"31.1525","category":"46","category_name":"楼宇","address":"城中东路626号"},{"poiid":"B2094654DA6BA6FC4193","title":"青浦游泳馆","lon":"121.12051","lat":"31.15202","category":"231","category_name":"游泳馆","address":"青浦区浦仓路535号(欧洲街体育场路)"},{"poiid":"B2094757D064A4FD4999","title":"大碗鱼(青浦店)","lon":"121.11312","lat":"31.14808","category":"71","category_name":"四川菜","address":"青浦区公园路666弄桥梓湾商场内(近东方商厦)"},{"poiid":"B2094655D268A4FC4898","title":"界泾港新村(南门)","lon":"121.12215","lat":"31.1519","category":"47","category_name":"住宅区","address":""},{"poiid":"B2094757D06AA2F5499A","title":"蔡先生苏州汤包馆 青安路店","lon":"121.117188","lat":"31.150285","category":"87","category_name":"特色／地方风味餐厅","address":"青浦区青安路110-112号(近中医院)"},{"poiid":"B2094757D165A1FD479A","title":"七欣吃蟹","lon":"121.119951035","lat":"31.1525599132","category":"500","category_name":"未知分类","address":"上海青浦区沙埭浜路"},{"poiid":"B2094757D169AAF8489C","title":"青浦区社保中心","lon":"121.122893","lat":"31.149602","category":"500","category_name":"未知分类","address":"上海公园路200号"},{"poiid":"B2094655D26FABFA4193","title":"青浦界泾新邨(西门)","lon":"121.1214","lat":"31.15403","category":"47","category_name":"住宅区","address":"浦仓路648弄"},{"poiid":"B2094757D66EAAFB4599","title":"清泉会所","lon":"121.12198703","lat":"31.152011902","category":"148","category_name":"美容美发店","address":"上海青浦区体育场路"},{"poiid":"B2094655D268A5F54693","title":"公园路营业厅","lon":"121.11843","lat":"31.14888","category":"151","category_name":"电讯营业厅","address":"青浦区公园路406号"},{"poiid":"B2094654DA6BA7FA449D","title":"华伦商厦","lon":"121.11959688312","lat":"31.152119924492","category":"46","category_name":"楼宇","address":"城中东路635号2层"},{"poiid":"B2094654DA6BA7FB469D","title":"小食坊龙虾馆","lon":"121.12136","lat":"31.15141","category":"88","category_name":"海鲜酒楼","address":""},{"poiid":"B2094757D06BA1FB4092","title":"鑫洋桌球俱乐部","lon":"121.118713035","lat":"31.150653876","category":"171","category_name":"台球厅","address":"上海青浦区体育场路"},{"poiid":"B2094655D268A2FB449F","title":"篮球场","lon":"121.11979","lat":"31.15255","category":"229","category_name":"篮球场馆","address":""},{"poiid":"B2094757D16CA0FC479C","title":"龙满楼","lon":"121.125225","lat":"31.1558858","category":"76","category_name":"上海菜","address":"青浦区外青松公路6048弄16号(近界泾港路)"},{"poiid":"B2094757D06AAAF8419A","title":"体育场路","lon":"121.122568","lat":"31.151982","category":"260","category_name":"其他","address":"上海青浦区体育场路"},{"poiid":"B2094654DA6BA5FE449C","title":"友谊酒家","lon":"121.12075433399","lat":"31.149022380998","category":"76","category_name":"上海菜","address":"青浦区公园路197号(近外青松公路)"},{"poiid":"B2094757D66CA7FF459E","title":"越岭阁(青浦店)","lon":"121.12066","lat":"31.14847","category":"96","category_name":"韩国料理","address":"青浦区公园路209号(近浦仓路)"},{"poiid":"B2094655D26FAAFF459A","title":"沙埭浜路74弄小区(南门)","lon":"121.11959","lat":"31.15354","category":"47","category_name":"住宅区","address":"沙埭浜路74弄1-4、5-7号"},{"poiid":"B2094654DA6BA6F8469F","title":"上海申生宠物诊疗有限公司","lon":"121.12347","lat":"31.15211","category":"162","category_name":"医院","address":"青浦区体育场路122-124号"},{"poiid":"B2094655D26FAAFF4598","title":"沙埭浜路74弄小区","lon":"121.11965","lat":"31.1538","category":"47","category_name":"住宅区","address":"沙埭浜路74弄1-4、5-7号"},{"poiid":"B2094757D165A0FD4698","title":"练塘","lon":"121.120169","lat":"31.152868","category":"500","category_name":"未知分类","address":"上海青浦"},{"poiid":"B2094654DA6BA6FF4193","title":"祥龙小区","lon":"121.11959","lat":"31.154856","category":"47","category_name":"住宅区","address":"青安路30弄"},{"poiid":"B2094654DA6BA5FF489A","title":"青浦大厦","lon":"121.124","lat":"31.1538","category":"46","category_name":"楼宇","address":"公园东路1818号"},{"poiid":"B2094655D268A1FD479D","title":"川福火锅(浦仓路)","lon":"121.12075","lat":"31.14982","category":"86","category_name":"火锅店","address":""},{"poiid":"B2094654DA6BA6FE499B","title":"荷景苑","lon":"121.11913","lat":"31.154181","category":"47","category_name":"住宅区","address":"青浦区沙埭浜路108弄"},{"poiid":"B2094757D66DABF94092","title":"公园路浦仓路","lon":"121.121648035","lat":"31.1553819683","category":"196","category_name":"公园","address":"上海公园路浦仓路十字路口"},{"poiid":"B2094654DA6BA7F54492","title":"春汝拉面店","lon":"121.121","lat":"31.15591","category":"257","category_name":"中餐厅","address":"青浦区浦仓路777号"},{"poiid":"B2094654DA6BA6FE419A","title":"莱欧美容美发艺术沙龙","lon":"121.11914","lat":"31.14942","category":"148","category_name":"美容美发店","address":""},{"poiid":"B2094654DA6BA6FC429B","title":"上海市青浦区体育场","lon":"121.11895","lat":"31.15216","category":"224","category_name":"综合体育馆","address":"体育场路1号"},{"poiid":"B2094757D068A3F9439E","title":"自由港量贩式KTV(青浦店)","lon":"121.12195","lat":"31.14887","category":"170","category_name":"KTV","address":"青浦区公园路258号(浦仓路口)"},{"poiid":"B2094757D06FA0F4469B","title":"麦当劳(青浦店)","lon":"121.11793","lat":"31.15247","category":"68","category_name":"快餐厅","address":"青浦区青安路55-59号(青安路青赵公路)"},{"poiid":"B2094757D664A3F54799","title":"七欣天迷宗蟹 青浦店","lon":"121.119998","lat":"31.153206","category":"86","category_name":"火锅店","address":"青浦区沙埭浜路35-39号(近体育场路)"},{"poiid":"B2094757D06BABFF4693","title":"青浦区政府","lon":"121.12415141","lat":"31.15036197","category":"500","category_name":"未知分类","address":"上海公园路100号"},{"poiid":"B2094757D06BA7FA419A","title":"雪岳山韩国烧烤(青浦店)","lon":"121.11878","lat":"31.15339","category":"96","category_name":"韩国料理","address":"青浦区沙埭浜路124号(近青安路)"},{"poiid":"B2094757D06BA4FA499D","title":"青浦区行政服务中心","lon":"121.12342184","lat":"31.152591323","category":"500","category_name":"未知分类","address":"上海近郊青浦区外青松公路6189号"},{"poiid":"B2094654DA6BA6FE439C","title":"青浦体育馆","lon":"121.11769","lat":"31.15164","category":"224","category_name":"综合体育馆","address":"体育场路"},{"poiid":"B2094757D165A7F54198","title":"青浦教师进修学院","lon":"121.12072706","lat":"31.148430402","category":"253","category_name":"校园生活","address":"上海青浦"},{"poiid":"B2094655D26EA1F54399","title":"小肥羊 青浦店","lon":"121.11718575893","lat":"31.151186560965","category":"86","category_name":"火锅店","address":"青浦区青浦青安路218号(青安路青赵公路)"},{"poiid":"B2094757D068A3F8439C","title":"85度C 青浦店","lon":"121.12089","lat":"31.14898","category":"112","category_name":"糕饼店","address":"青浦区公园路300号农工商超市旁(浦仓路公园路)"},{"poiid":"B2094757D064A1FA439C","title":"豪享来(青浦店)","lon":"121.11789","lat":"31.15232","category":"94","category_name":"西餐厅","address":"青浦区青安路246号(青安路青赵公路)"},{"poiid":"B2094757D66EA5F94999","title":"咔浓咖啡","lon":"121.119855035","lat":"31.1505348737","category":"65","category_name":"咖啡厅","address":"青浦区欧洲街74弄3号"},{"poiid":"B2094757D16CA0FB499B","title":"世田造型","lon":"121.120825","lat":"31.150514","category":"148","category_name":"美容美发店","address":"上海浦仓路"},{"poiid":"B2094654DA6BA6FC469C","title":"农工商超市NO.50","lon":"121.12065","lat":"31.14896","category":"118","category_name":"超级市场","address":"青浦镇"},{"poiid":"B2094750DA65A6F4409B","title":"朱家角镇","lon":"121.121879","lat":"31.151987","category":"500","category_name":"未知分类","address":null},{"poiid":"B2094757D169A3FB4693","title":"宋记香辣蟹 浦仓路店","lon":"121.12133","lat":"31.1518","category":"71","category_name":"四川菜","address":"青浦区浦仓路528号(近青浦体育场)"},{"poiid":"B2094757D66AA6FF489B","title":"印度餐厅","lon":"121.118039","lat":"31.152858","category":"102","category_name":"印度风味","address":"青浦区沙隶浜路"},{"poiid":"B2094654DA6BA7FB4798","title":"蔡师傅面馆","lon":"121.12157","lat":"31.15144","category":"87","category_name":"特色／地方风味餐厅","address":"青浦区体育场路(近浦仓路)"},{"poiid":"B2094757D16EA5FA479D","title":"界泾港三期","lon":"121.121164035","lat":"31.1540609425","category":"47","category_name":"住宅区","address":"上海青浦区浦仓路"},{"poiid":"B2094757D56DA7FF4192","title":"粥聚阁","lon":"121.11840963364","lat":"31.153810074222","category":"72","category_name":"广东菜","address":"青浦区沙埭浜路128号(近青安路)"},{"poiid":"B2094654DA6BA7F84493","title":"四兴大楼","lon":"121.12","lat":"31.1525","category":"46","category_name":"楼宇","address":"城中东路626号"},{"poiid":"B2094654DA6BA6FC4193","title":"青浦游泳馆","lon":"121.12051","lat":"31.15202","category":"231","category_name":"游泳馆","address":"青浦区浦仓路535号(欧洲街体育场路)"},{"poiid":"B2094757D064A4FD4999","title":"大碗鱼(青浦店)","lon":"121.11312","lat":"31.14808","category":"71","category_name":"四川菜","address":"青浦区公园路666弄桥梓湾商场内(近东方商厦)"},{"poiid":"B2094655D268A4FC4898","title":"界泾港新村(南门)","lon":"121.12215","lat":"31.1519","category":"47","category_name":"住宅区","address":""},{"poiid":"B2094757D06AA2F5499A","title":"蔡先生苏州汤包馆 青安路店","lon":"121.117188","lat":"31.150285","category":"87","category_name":"特色／地方风味餐厅","address":"青浦区青安路110-112号(近中医院)"},{"poiid":"B2094757D165A1FD479A","title":"七欣吃蟹","lon":"121.119951035","lat":"31.1525599132","category":"500","category_name":"未知分类","address":"上海青浦区沙埭浜路"},{"poiid":"B2094757D169AAF8489C","title":"青浦区社保中心","lon":"121.122893","lat":"31.149602","category":"500","category_name":"未知分类","address":"上海公园路200号"},{"poiid":"B2094655D26FABFA4193","title":"青浦界泾新邨(西门)","lon":"121.1214","lat":"31.15403","category":"47","category_name":"住宅区","address":"浦仓路648弄"},{"poiid":"B2094757D66EAAFB4599","title":"清泉会所","lon":"121.12198703","lat":"31.152011902","category":"148","category_name":"美容美发店","address":"上海青浦区体育场路"},{"poiid":"B2094655D268A5F54693","title":"公园路营业厅","lon":"121.11843","lat":"31.14888","category":"151","category_name":"电讯营业厅","address":"青浦区公园路406号"},{"poiid":"B2094654DA6BA7FA449D","title":"华伦商厦","lon":"121.11959688312","lat":"31.152119924492","category":"46","category_name":"楼宇","address":"城中东路635号2层"},{"poiid":"B2094654DA6BA7FB469D","title":"小食坊龙虾馆","lon":"121.12136","lat":"31.15141","category":"88","category_name":"海鲜酒楼","address":""},{"poiid":"B2094757D06BA1FB4092","title":"鑫洋桌球俱乐部","lon":"121.118713035","lat":"31.150653876","category":"171","category_name":"台球厅","address":"上海青浦区体育场路"},{"poiid":"B2094655D268A2FB449F","title":"篮球场","lon":"121.11979","lat":"31.15255","category":"229","category_name":"篮球场馆","address":""},{"poiid":"B2094757D16CA0FC479C","title":"龙满楼","lon":"121.125225","lat":"31.1558858","category":"76","category_name":"上海菜","address":"青浦区外青松公路6048弄16号(近界泾港路)"},{"poiid":"B2094757D06AAAF8419A","title":"体育场路","lon":"121.122568","lat":"31.151982","category":"260","category_name":"其他","address":"上海青浦区体育场路"},{"poiid":"B2094654DA6BA5FE449C","title":"友谊酒家","lon":"121.12075433399","lat":"31.149022380998","category":"76","category_name":"上海菜","address":"青浦区公园路197号(近外青松公路)"},{"poiid":"B2094757D66CA7FF459E","title":"越岭阁(青浦店)","lon":"121.12066","lat":"31.14847","category":"96","category_name":"韩国料理","address":"青浦区公园路209号(近浦仓路)"},{"poiid":"B2094655D26FAAFF459A","title":"沙埭浜路74弄小区(南门)","lon":"121.11959","lat":"31.15354","category":"47","category_name":"住宅区","address":"沙埭浜路74弄1-4、5-7号"},{"poiid":"B2094654DA6BA6F8469F","title":"上海申生宠物诊疗有限公司","lon":"121.12347","lat":"31.15211","category":"162","category_name":"医院","address":"青浦区体育场路122-124号"},{"poiid":"B2094655D26FAAFF4598","title":"沙埭浜路74弄小区","lon":"121.11965","lat":"31.1538","category":"47","category_name":"住宅区","address":"沙埭浜路74弄1-4、5-7号"},{"poiid":"B2094757D165A0FD4698","title":"练塘","lon":"121.120169","lat":"31.152868","category":"500","category_name":"未知分类","address":"上海青浦"},{"poiid":"B2094654DA6BA6FF4193","title":"祥龙小区","lon":"121.11959","lat":"31.154856","category":"47","category_name":"住宅区","address":"青安路30弄"},{"poiid":"B2094654DA6BA5FF489A","title":"青浦大厦","lon":"121.124","lat":"31.1538","category":"46","category_name":"楼宇","address":"公园东路1818号"},{"poiid":"B2094655D268A1FD479D","title":"川福火锅(浦仓路)","lon":"121.12075","lat":"31.14982","category":"86","category_name":"火锅店","address":""},{"poiid":"B2094654DA6BA6FE499B","title":"荷景苑","lon":"121.11913","lat":"31.154181","category":"47","category_name":"住宅区","address":"青浦区沙埭浜路108弄"},{"poiid":"B2094757D66DABF94092","title":"公园路浦仓路","lon":"121.121648035","lat":"31.1553819683","category":"196","category_name":"公园","address":"上海公园路浦仓路十字路口"},{"poiid":"B2094654DA6BA7F54492","title":"春汝拉面店","lon":"121.121","lat":"31.15591","category":"257","category_name":"中餐厅","address":"青浦区浦仓路777号"},{"poiid":"B2094654DA6BA6FE419A","title":"莱欧美容美发艺术沙龙","lon":"121.11914","lat":"31.14942","category":"148","category_name":"美容美发店","address":""},{"poiid":"B2094654DA6BA6FC429B","title":"上海市青浦区体育场","lon":"121.11895","lat":"31.15216","category":"224","category_name":"综合体育馆","address":"体育场路1号"},{"poiid":"B2094757D068A3F9439E","title":"自由港量贩式KTV(青浦店)","lon":"121.12195","lat":"31.14887","category":"170","category_name":"KTV","address":"青浦区公园路258号(浦仓路口)"},{"poiid":"B2094757D06FA0F4469B","title":"麦当劳(青浦店)","lon":"121.11793","lat":"31.15247","category":"68","category_name":"快餐厅","address":"青浦区青安路55-59号(青安路青赵公路)"},{"poiid":"B2094757D664A3F54799","title":"七欣天迷宗蟹 青浦店","lon":"121.119998","lat":"31.153206","category":"86","category_name":"火锅店","address":"青浦区沙埭浜路35-39号(近体育场路)"},{"poiid":"B2094757D06BABFF4693","title":"青浦区政府","lon":"121.12415141","lat":"31.15036197","category":"500","category_name":"未知分类","address":"上海公园路100号"},{"poiid":"B2094757D06BA7FA419A","title":"雪岳山韩国烧烤(青浦店)","lon":"121.11878","lat":"31.15339","category":"96","category_name":"韩国料理","address":"青浦区沙埭浜路124号(近青安路)"},{"poiid":"B2094757D06BA4FA499D","title":"青浦区行政服务中心","lon":"121.12342184","lat":"31.152591323","category":"500","category_name":"未知分类","address":"上海近郊青浦区外青松公路6189号"},{"poiid":"B2094654DA6BA6FE439C","title":"青浦体育馆","lon":"121.11769","lat":"31.15164","category":"224","category_name":"综合体育馆","address":"体育场路"},{"poiid":"B2094757D165A7F54198","title":"青浦教师进修学院","lon":"121.12072706","lat":"31.148430402","category":"253","category_name":"校园生活","address":"上海青浦"},{"poiid":"B2094655D26EA1F54399","title":"小肥羊 青浦店","lon":"121.11718575893","lat":"31.151186560965","category":"86","category_name":"火锅店","address":"青浦区青浦青安路218号(青安路青赵公路)"},{"poiid":"B2094757D068A3F8439C","title":"85度C 青浦店","lon":"121.12089","lat":"31.14898","category":"112","category_name":"糕饼店","address":"青浦区公园路300号农工商超市旁(浦仓路公园路)"},{"poiid":"B2094757D064A1FA439C","title":"豪享来(青浦店)","lon":"121.11789","lat":"31.15232","category":"94","category_name":"西餐厅","address":"青浦区青安路246号(青安路青赵公路)"},{"poiid":"B2094757D66EA5F94999","title":"咔浓咖啡","lon":"121.119855035","lat":"31.1505348737","category":"65","category_name":"咖啡厅","address":"青浦区欧洲街74弄3号"},{"poiid":"B2094757D16CA0FB499B","title":"世田造型","lon":"121.120825","lat":"31.150514","category":"148","category_name":"美容美发店","address":"上海浦仓路"},{"poiid":"B2094654DA6BA6FC469C","title":"农工商超市NO.50","lon":"121.12065","lat":"31.14896","category":"118","category_name":"超级市场","address":"青浦镇"},{"poiid":"B2094750DA65A6F4409B","title":"朱家角镇","lon":"121.121879","lat":"31.151987","category":"500","category_name":"未知分类","address":null},{"poiid":"B2094757D169A3FB4693","title":"宋记香辣蟹 浦仓路店","lon":"121.12133","lat":"31.1518","category":"71","category_name":"四川菜","address":"青浦区浦仓路528号(近青浦体育场)"},{"poiid":"B2094757D66AA6FF489B","title":"印度餐厅","lon":"121.118039","lat":"31.152858","category":"102","category_name":"印度风味","address":"青浦区沙隶浜路"},{"poiid":"B2094654DA6BA7FB4798","title":"蔡师傅面馆","lon":"121.12157","lat":"31.15144","category":"87","category_name":"特色／地方风味餐厅","address":"青浦区体育场路(近浦仓路)"},{"poiid":"B2094757D16EA5FA479D","title":"界泾港三期","lon":"121.121164035","lat":"31.1540609425","category":"47","category_name":"住宅区","address":"上海青浦区浦仓路"},{"poiid":"B2094757D56DA7FF4192","title":"粥聚阁","lon":"121.11840963364","lat":"31.153810074222","category":"72","category_name":"广东菜","address":"青浦区沙埭浜路128号(近青安路)"},{"poiid":"B2094654DA6BA7F84493","title":"四兴大楼","lon":"121.12","lat":"31.1525","category":"46","category_name":"楼宇","address":"城中东路626号"},{"poiid":"B2094654DA6BA6FC4193","title":"青浦游泳馆","lon":"121.12051","lat":"31.15202","category":"231","category_name":"游泳馆","address":"青浦区浦仓路535号(欧洲街体育场路)"},{"poiid":"B2094757D064A4FD4999","title":"大碗鱼(青浦店)","lon":"121.11312","lat":"31.14808","category":"71","category_name":"四川菜","address":"青浦区公园路666弄桥梓湾商场内(近东方商厦)"},{"poiid":"B2094655D268A4FC4898","title":"界泾港新村(南门)","lon":"121.12215","lat":"31.1519","category":"47","category_name":"住宅区","address":""},{"poiid":"B2094757D06AA2F5499A","title":"蔡先生苏州汤包馆 青安路店","lon":"121.117188","lat":"31.150285","category":"87","category_name":"特色／地方风味餐厅","address":"青浦区青安路110-112号(近中医院)"},{"poiid":"B2094757D165A1FD479A","title":"七欣吃蟹","lon":"121.119951035","lat":"31.1525599132","category":"500","category_name":"未知分类","address":"上海青浦区沙埭浜路"},{"poiid":"B2094757D169AAF8489C","title":"青浦区社保中心","lon":"121.122893","lat":"31.149602","category":"500","category_name":"未知分类","address":"上海公园路200号"},{"poiid":"B2094655D26FABFA4193","title":"青浦界泾新邨(西门)","lon":"121.1214","lat":"31.15403","category":"47","category_name":"住宅区","address":"浦仓路648弄"},{"poiid":"B2094757D66EAAFB4599","title":"清泉会所","lon":"121.12198703","lat":"31.152011902","category":"148","category_name":"美容美发店","address":"上海青浦区体育场路"},{"poiid":"B2094655D268A5F54693","title":"公园路营业厅","lon":"121.11843","lat":"31.14888","category":"151","category_name":"电讯营业厅","address":"青浦区公园路406号"},{"poiid":"B2094654DA6BA7FA449D","title":"华伦商厦","lon":"121.11959688312","lat":"31.152119924492","category":"46","category_name":"楼宇","address":"城中东路635号2层"},{"poiid":"B2094654DA6BA7FB469D","title":"小食坊龙虾馆","lon":"121.12136","lat":"31.15141","category":"88","category_name":"海鲜酒楼","address":""},{"poiid":"B2094757D06BA1FB4092","title":"鑫洋桌球俱乐部","lon":"121.118713035","lat":"31.150653876","category":"171","category_name":"台球厅","address":"上海青浦区体育场路"},{"poiid":"B2094655D268A2FB449F","title":"篮球场","lon":"121.11979","lat":"31.15255","category":"229","category_name":"篮球场馆","address":""},{"poiid":"B2094757D16CA0FC479C","title":"龙满楼","lon":"121.125225","lat":"31.1558858","category":"76","category_name":"上海菜","address":"青浦区外青松公路6048弄16号(近界泾港路)"},{"poiid":"B2094757D06AAAF8419A","title":"体育场路","lon":"121.122568","lat":"31.151982","category":"260","category_name":"其他","address":"上海青浦区体育场路"},{"poiid":"B2094654DA6BA5FE449C","title":"友谊酒家","lon":"121.12075433399","lat":"31.149022380998","category":"76","category_name":"上海菜","address":"青浦区公园路197号(近外青松公路)"},{"poiid":"B2094757D66CA7FF459E","title":"越岭阁(青浦店)","lon":"121.12066","lat":"31.14847","category":"96","category_name":"韩国料理","address":"青浦区公园路209号(近浦仓路)"},{"poiid":"B2094655D26FAAFF459A","title":"沙埭浜路74弄小区(南门)","lon":"121.11959","lat":"31.15354","category":"47","category_name":"住宅区","address":"沙埭浜路74弄1-4、5-7号"},{"poiid":"B2094654DA6BA6F8469F","title":"上海申生宠物诊疗有限公司","lon":"121.12347","lat":"31.15211","category":"162","category_name":"医院","address":"青浦区体育场路122-124号"},{"poiid":"B2094655D26FAAFF4598","title":"沙埭浜路74弄小区","lon":"121.11965","lat":"31.1538","category":"47","category_name":"住宅区","address":"沙埭浜路74弄1-4、5-7号"},{"poiid":"B2094757D165A0FD4698","title":"练塘","lon":"121.120169","lat":"31.152868","category":"500","category_name":"未知分类","address":"上海青浦"},{"poiid":"B2094654DA6BA6FF4193","title":"祥龙小区","lon":"121.11959","lat":"31.154856","category":"47","category_name":"住宅区","address":"青安路30弄"},{"poiid":"B2094654DA6BA5FF489A","title":"青浦大厦","lon":"121.124","lat":"31.1538","category":"46","category_name":"楼宇","address":"公园东路1818号"},{"poiid":"B2094655D268A1FD479D","title":"川福火锅(浦仓路)","lon":"121.12075","lat":"31.14982","category":"86","category_name":"火锅店","address":""},{"poiid":"B2094654DA6BA6FE499B","title":"荷景苑","lon":"121.11913","lat":"31.154181","category":"47","category_name":"住宅区","address":"青浦区沙埭浜路108弄"},{"poiid":"B2094757D66DABF94092","title":"公园路浦仓路","lon":"121.121648035","lat":"31.1553819683","category":"196","category_name":"公园","address":"上海公园路浦仓路十字路口"},{"poiid":"B2094654DA6BA7F54492","title":"春汝拉面店","lon":"121.121","lat":"31.15591","category":"257","category_name":"中餐厅","address":"青浦区浦仓路777号"},{"poiid":"B2094654DA6BA6FE419A","title":"莱欧美容美发艺术沙龙","lon":"121.11914","lat":"31.14942","category":"148","category_name":"美容美发店","address":""}]