[{"poiid":"B2094655D26BA3F94593","title":"丰收日(豫园店)","lon":"121.4891","lat":"31.22207","category":"75","category_name":"浙江菜","address":"黄浦区复兴东路789号1-2楼(河南南路口)"},{"poiid":"B2094757D06FA2FF409B","title":"老西门","lon":"121.483696","lat":"31.219066","category":"250","category_name":"公园户外","address":"上海老西门"},{"poiid":"B2094655D269AAFA479B","title":"大马头茶餐厅","lon":"121.48304","lat":"31.21943","category":"72","category_name":"广东菜","address":"黄浦区西藏南路567号(近复兴东路)"},{"poiid":"B2094753D76FAAFA449C","title":"上海滩国泰旗舰店","lon":"121.466011","lat":"31.216125","category":"249","category_name":"购物服务","address":"淮海中路868号"},{"poiid":"B209475CD564A7F84292","title":"上海滩新天地店","lon":"121.47463","lat":"31.22164","category":"119","category_name":"商场","address":"\"太仓路181弄新天地北里15号\r\n\""},{"poiid":"B209475CD564A7F8439E","title":"上海滩中信泰富店","lon":"121.45602","lat":"31.22851","category":"119","category_name":"商场","address":"\"南京西路1168号中信泰富广场，店铺号221.\r\n\""},{"poiid":"B209475CD564A7F84392","title":"上海滩浦东香格里拉店","lon":"121.50058","lat":"31.23634","category":"119","category_name":"商场","address":"浦东富成路33号香格里拉酒店内大堂层"},{"poiid":"B2094757D06EAAFB489E","title":"老西门地铁站","lon":"121.483699","lat":"31.219058","category":"36","category_name":"地铁站","address":"上海轨道交通 八号线 十号线 轨交老西门站 8 10"},{"poiid":"B2094655D36CA1F4439B","title":"老西门","lon":"121.4842","lat":"31.22057","category":"38","category_name":"公交车站","address":"西藏南路方浜西路"},{"poiid":"B2094654DA6EA5FF4493","title":"云悦酒店","lon":"121.4891","lat":"31.22208","category":"213","category_name":"五星级宾馆","address":"黄浦区复兴东路789号(近豫园)"},{"poiid":"B2094757D06FA3FE499D","title":"松屋 西藏南路店","lon":"121.481204","lat":"31.224029","category":"95","category_name":"日本料理","address":"黄浦区西藏南路279号弘基西门町(近淮海中路)"},{"poiid":"B2094655D26FA1FE479A","title":"太阳都市花园","lon":"121.4887","lat":"31.22276","category":"47","category_name":"住宅区","address":"河南南路398弄1-4号"},{"poiid":"B2094757D06FA6F84999","title":"黄浦中心","lon":"121.48331828","lat":"31.220969198","category":"46","category_name":"楼宇","address":"上海市黄浦区中华路1600号"},{"poiid":"B2094757D068A2FB4299","title":"老西门(人民路方浜中路)站","lon":"121.484038664","lat":"31.2210625482","category":"38","category_name":"公交车站","address":"上海黄浦区人民路(11,220,135,736,920,911路)"},{"poiid":"B2094757D064A7F54093","title":"usher OMG world tour","lon":"121.48348473","lat":"31.219800077","category":"500","category_name":"未知分类","address":"上海梅赛德斯•奔驰文化演艺中心"},{"poiid":"B2094753D76DA0FA4292","title":"K歌之王","lon":"121.487571","lat":"31.223407","category":"247","category_name":"餐饮美食","address":"上海市 金陵东路569号5楼"},{"poiid":"B2094757D064A2FC499A","title":"红灯笼馄饨店","lon":"121.48712","lat":"31.22022","category":"68","category_name":"快餐厅","address":"黄浦区复兴东路959弄1-5号(近公交24路老西门站)"},{"poiid":"B2094757D069A2F94192","title":"黄浦区卫生学校","lon":"121.48621995","lat":"31.217713083","category":"54","category_name":"职业技术学校","address":"上海梦花街234号"},{"poiid":"B2094757D06FA5FA469D","title":"85度C(中华店)","lon":"121.485302479","lat":"31.2188424225","category":"112","category_name":"糕饼店","address":"黄浦区中华路1463号(近老西门)"},{"poiid":"B2094750DA64A5FF449F","title":"上海东方艺术中心","lon":"121.487915","lat":"31.222635","category":"500","category_name":"未知分类","address":null},{"poiid":"B2094757D06AAAFD409F","title":"方浜路夜排档","lon":"121.48544973","lat":"31.223300152","category":"247","category_name":"餐饮美食","address":"上海市人民路方浜路"},{"poiid":"B2094654DA6EA5FF4199","title":"纯香园","lon":"121.48476","lat":"31.22209","category":"76","category_name":"上海菜","address":"黄浦区方浜中路772号(近人民路)"},{"poiid":"B2094757D165A7F4499A","title":"大方美食","lon":"121.48523173","lat":"31.221756119","category":"76","category_name":"上海菜","address":"黄浦区大方弄"},{"poiid":"B2094757D069A2F84099","title":"黄浦众鑫城","lon":"121.48293","lat":"31.219999","category":"47","category_name":"住宅区","address":"上海黄浦区西藏南路555弄"},{"poiid":"B2094753D268A4FC419B","title":"东方明珠","lon":"121.48706","lat":"31.220684","category":"500","category_name":"未知分类","address":"上海市 浦东区"},{"poiid":"B2094757D16FA3FC489C","title":"建国大厦","lon":"121.488","lat":"31.2197","category":"46","category_name":"楼宇","address":"朝阳区天辰东路7号"},{"poiid":"B2094757D069A3FB459A","title":"中华路复兴东路","lon":"121.4847201","lat":"31.219632484","category":"500","category_name":"未知分类","address":"上海中华路复兴东路"},{"poiid":"B2094655D265ABFC469B","title":"方中排档","lon":"121.48421","lat":"31.22172","category":"257","category_name":"中餐厅","address":"方浜中路776-780"},{"poiid":"B2094757D16DAAFC4598","title":"黄浦区妇幼保健所","lon":"121.4852","lat":"31.21922","category":"162","category_name":"医院","address":"上海黄浦区中华路1525号4楼(复兴东路口)  "},{"poiid":"B2094757D169A7FA409E","title":"和平饭店华懋阁","lon":"121.48424073","lat":"31.219877079","category":"247","category_name":"餐饮美食","address":"上海黄浦区南京东路20号和平饭店9F"},{"poiid":"B2094757DB6FA6F8439D","title":"陆家浜路9地铁站","lon":"121.488546","lat":"31.222738","category":"36","category_name":"地铁站","address":"陆家浜路"},{"poiid":"B2094757D169A6FD4199","title":"复兴东路老西门公交站","lon":"121.487589","lat":"31.22068","category":"38","category_name":"公交车站","address":"上海黄浦区复兴东路(近庄家街)"},{"poiid":"B209475DD26EA4F9479A","title":"外滩悦榕庄","lon":"121.486495","lat":"31.220569","category":"500","category_name":"未知分类","address":"上海市 公平路19号"},{"poiid":"B2094757D169A2F9429D","title":"泰和养生会所","lon":"121.485390138","lat":"31.2210536046","category":"148","category_name":"美容美发店","address":"黄浦区人民路998号金天地国际大厦1楼(近老西门)"},{"poiid":"B2094655D265A0F8459E","title":"老西门茶商场","lon":"121.48403","lat":"31.21944","category":"119","category_name":"商场","address":"复兴东路1121"},{"poiid":"B2094655D36CA6FF429E","title":"复兴东路老西门","lon":"121.48667","lat":"31.22004","category":"38","category_name":"公交车站","address":""},{"poiid":"B2094757D06AA2F5459D","title":"豫园派出所","lon":"121.48399825","lat":"31.222190165","category":"609","category_name":"警察局","address":"上海方浜中路718号"},{"poiid":"B2094757D66EA2F8429D","title":"黄浦区豫园卫生服务中心","lon":"121.48427073","lat":"31.219771077","category":"500","category_name":"未知分类","address":"上海中华路1525号"},{"poiid":"B2094654DB65A4FF4793","title":"豫园地段医院","lon":"121.48516","lat":"31.22229","category":"162","category_name":"医院","address":"黄浦区方浜中路722号"},{"poiid":"B2094655D26FAAF5479B","title":"黄浦区红十字老年护理医院","lon":"121.48498","lat":"31.21949","category":"162","category_name":"医院","address":"中华路1495"},{"poiid":"B2094655D26FAAF54693","title":"肇方弄15弄小区","lon":"121.48447","lat":"31.22154","category":"47","category_name":"住宅区","address":"肇方弄15弄1-12号"},{"poiid":"B2094750D16BA6FF4699","title":"黄浦区 老西门","lon":"121.486755","lat":"31.221546","category":"500","category_name":"未知分类","address":null},{"poiid":"B2094654DA6EA5FC449F","title":"豫园街道社区卫生服务中心","lon":"121.48484","lat":"31.21977","category":"162","category_name":"医院","address":"黄浦区中华路1525号(近复兴中路)"},{"poiid":"B2094757D569A2F5489F","title":"良友金伴便利店(黄浦区卫生系统后勤服务管理中心西南)","lon":"121.4869241","lat":"31.22060683","category":"117","category_name":"便民商店/便利店","address":"复兴东路959弄1-5号"},{"poiid":"B2094655D26FAAF54799","title":"复兴路1055弄小区","lon":"121.48514","lat":"31.21995","category":"47","category_name":"住宅区","address":"复兴路1055弄"},{"poiid":"B2094655D26FAAF5479F","title":"复兴东路927弄小区","lon":"121.48725","lat":"31.22121","category":"47","category_name":"住宅区","address":"复兴东路927弄2-17号"},{"poiid":"B2094757D168A5F4499F","title":"上海文汇工程咨询有限公司","lon":"121.484296038","lat":"31.2222114292","category":"46","category_name":"楼宇","address":"上海市黄浦区人民路998号金天地国际大厦3A"},{"poiid":"B2094757D168A0FA439D","title":"YOBA Frozen yogurt Bar","lon":"121.48523771","lat":"31.222019863","category":"500","category_name":"未知分类","address":"上海西藏南路279号109铺(近寿宁路)"},{"poiid":"B2094655D26FAAF5479A","title":"肇方弄15弄小区(西门)","lon":"121.48426","lat":"31.22151","category":"47","category_name":"住宅区","address":"肇方弄15弄1-12号"},{"poiid":"B2094753D36FA2FB489C","title":"辣肉丝面馆","lon":"121.484818","lat":"31.222581","category":"247","category_name":"餐饮美食","address":"上海市 老西门肇周路"},{"poiid":"B2094655D26BA3F94593","title":"丰收日(豫园店)","lon":"121.4891","lat":"31.22207","category":"75","category_name":"浙江菜","address":"黄浦区复兴东路789号1-2楼(河南南路口)"},{"poiid":"B2094757D06FA2FF409B","title":"老西门","lon":"121.483696","lat":"31.219066","category":"250","category_name":"公园户外","address":"上海老西门"},{"poiid":"B2094655D269AAFA479B","title":"大马头茶餐厅","lon":"121.48304","lat":"31.21943","category":"72","category_name":"广东菜","address":"黄浦区西藏南路567号(近复兴东路)"},{"poiid":"B2094753D76FAAFA449C","title":"上海滩国泰旗舰店","lon":"121.466011","lat":"31.216125","category":"249","category_name":"购物服务","address":"淮海中路868号"},{"poiid":"B209475CD564A7F84292","title":"上海滩新天地店","lon":"121.47463","lat":"31.22164","category":"119","category_name":"商场","address":"\"太仓路181弄新天地北里15号\r\n\""},{"poiid":"B209475CD564A7F8439E","title":"上海滩中信泰富店","lon":"121.45602","lat":"31.22851","category":"119","category_name":"商场","address":"\"南京西路1168号中信泰富广场，店铺号221.\r\n\""},{"poiid":"B209475CD564A7F84392","title":"上海滩浦东香格里拉店","lon":"121.50058","lat":"31.23634","category":"119","category_name":"商场","address":"浦东富成路33号香格里拉酒店内大堂层"},{"poiid":"B2094757D06EAAFB489E","title":"老西门地铁站","lon":"121.483699","lat":"31.219058","category":"36","category_name":"地铁站","address":"上海轨道交通 八号线 十号线 轨交老西门站 8 10"},{"poiid":"B2094655D36CA1F4439B","title":"老西门","lon":"121.4842","lat":"31.22057","category":"38","category_name":"公交车站","address":"西藏南路方浜西路"},{"poiid":"B2094654DA6EA5FF4493","title":"云悦酒店","lon":"121.4891","lat":"31.22208","category":"213","category_name":"五星级宾馆","address":"黄浦区复兴东路789号(近豫园)"},{"poiid":"B2094757D06FA3FE499D","title":"松屋 西藏南路店","lon":"121.481204","lat":"31.224029","category":"95","category_name":"日本料理","address":"黄浦区西藏南路279号弘基西门町(近淮海中路)"},{"poiid":"B2094655D26FA1FE479A","title":"太阳都市花园","lon":"121.4887","lat":"31.22276","category":"47","category_name":"住宅区","address":"河南南路398弄1-4号"},{"poiid":"B2094757D06FA6F84999","title":"黄浦中心","lon":"121.48331828","lat":"31.220969198","category":"46","category_name":"楼宇","address":"上海市黄浦区中华路1600号"},{"poiid":"B2094757D068A2FB4299","title":"老西门(人民路方浜中路)站","lon":"121.484038664","lat":"31.2210625482","category":"38","category_name":"公交车站","address":"上海黄浦区人民路(11,220,135,736,920,911路)"},{"poiid":"B2094757D064A7F54093","title":"usher OMG world tour","lon":"121.48348473","lat":"31.219800077","category":"500","category_name":"未知分类","address":"上海梅赛德斯•奔驰文化演艺中心"},{"poiid":"B2094753D76DA0FA4292","title":"K歌之王","lon":"121.487571","lat":"31.223407","category":"247","category_name":"餐饮美食","address":"上海市 金陵东路569号5楼"},{"poiid":"B2094757D064A2FC499A","title":"红灯笼馄饨店","lon":"121.48712","lat":"31.22022","category":"68","category_name":"快餐厅","address":"黄浦区复兴东路959弄1-5号(近公交24路老西门站)"},{"poiid":"B2094757D069A2F94192","title":"黄浦区卫生学校","lon":"121.48621995","lat":"31.217713083","category":"54","category_name":"职业技术学校","address":"上海梦花街234号"},{"poiid":"B2094757D06FA5FA469D","title":"85度C(中华店)","lon":"121.485302479","lat":"31.2188424225","category":"112","category_name":"糕饼店","address":"黄浦区中华路1463号(近老西门)"},{"poiid":"B2094750DA64A5FF449F","title":"上海东方艺术中心","lon":"121.487915","lat":"31.222635","category":"500","category_name":"未知分类","address":null},{"poiid":"B2094757D06AAAFD409F","title":"方浜路夜排档","lon":"121.48544973","lat":"31.223300152","category":"247","category_name":"餐饮美食","address":"上海市人民路方浜路"},{"poiid":"B2094654DA6EA5FF4199","title":"纯香园","lon":"121.48476","lat":"31.22209","category":"76","category_name":"上海菜","address":"黄浦区方浜中路772号(近人民路)"},{"poiid":"B2094757D165A7F4499A","title":"大方美食","lon":"121.48523173","lat":"31.221756119","category":"76","category_name":"上海菜","address":"黄浦区大方弄"},{"poiid":"B2094757D069A2F84099","title":"黄浦众鑫城","lon":"121.48293","lat":"31.219999","category":"47","category_name":"住宅区","address":"上海黄浦区西藏南路555弄"},{"poiid":"B2094753D268A4FC419B","title":"东方明珠","lon":"121.48706","lat":"31.220684","category":"500","category_name":"未知分类","address":"上海市 浦东区"},{"poiid":"B2094757D16FA3FC489C","title":"建国大厦","lon":"121.488","lat":"31.2197","category":"46","category_name":"楼宇","address":"朝阳区天辰东路7号"},{"poiid":"B2094757D069A3FB459A","title":"中华路复兴东路","lon":"121.4847201","lat":"31.219632484","category":"500","category_name":"未知分类","address":"上海中华路复兴东路"},{"poiid":"B2094655D265ABFC469B","title":"方中排档","lon":"121.48421","lat":"31.22172","category":"257","category_name":"中餐厅","address":"方浜中路776-780"},{"poiid":"B2094757D16DAAFC4598","title":"黄浦区妇幼保健所","lon":"121.4852","lat":"31.21922","category":"162","category_name":"医院","address":"上海黄浦区中华路1525号4楼(复兴东路口)  "},{"poiid":"B2094757D169A7FA409E","title":"和平饭店华懋阁","lon":"121.48424073","lat":"31.219877079","category":"247","category_name":"餐饮美食","address":"上海黄浦区南京东路20号和平饭店9F"},{"poiid":"B2094757DB6FA6F8439D","title":"陆家浜路9地铁站","lon":"121.488546","lat":"31.222738","category":"36","category_name":"地铁站","address":"陆家浜路"},{"poiid":"B2094757D169A6FD4199","title":"复兴东路老西门公交站","lon":"121.487589","lat":"31.22068","category":"38","category_name":"公交车站","address":"上海黄浦区复兴东路(近庄家街)"},{"poiid":"B209475DD26EA4F9479A","title":"外滩悦榕庄","lon":"121.486495","lat":"31.220569","category":"500","category_name":"未知分类","address":"上海市 公平路19号"},{"poiid":"B2094757D169A2F9429D","title":"泰和养生会所","lon":"121.485390138","lat":"31.2210536046","category":"148","category_name":"美容美发店","address":"黄浦区人民路998号金天地国际大厦1楼(近老西门)"},{"poiid":"B2094655D265A0F8459E","title":"老西门茶商场","lon":"121.48403","lat":"31.21944","category":"119","category_name":"商场","address":"复兴东路1121"},{"poiid":"B2094655D36CA6FF429E","title":"复兴东路老西门","lon":"121.48667","lat":"31.22004","category":"38","category_name":"公交车站","address":""},{"poiid":"B2094757D06AA2F5459D","title":"豫园派出所","lon":"121.48399825","lat":"31.222190165","category":"609","category_name":"警察局","address":"上海方浜中路718号"},{"poiid":"B2094757D66EA2F8429D","title":"黄浦区豫园卫生服务中心","lon":"121.48427073","lat":"31.219771077","category":"500","category_name":"未知分类","address":"上海中华路1525号"},{"poiid":"B2094654DB65A4FF4793","title":"豫园地段医院","lon":"121.48516","lat":"31.22229","category":"162","category_name":"医院","address":"黄浦区方浜中路722号"},{"poiid":"B2094655D26FAAF5479B","title":"黄浦区红十字老年护理医院","lon":"121.48498","lat":"31.21949","category":"162","category_name":"医院","address":"中华路1495"},{"poiid":"B2094655D26FAAF54693","title":"肇方弄15弄小区","lon":"121.48447","lat":"31.22154","category":"47","category_name":"住宅区","address":"肇方弄15弄1-12号"},{"poiid":"B2094750D16BA6FF4699","title":"黄浦区 老西门","lon":"121.486755","lat":"31.221546","category":"500","category_name":"未知分类","address":null},{"poiid":"B2094654DA6EA5FC449F","title":"豫园街道社区卫生服务中心","lon":"121.48484","lat":"31.21977","category":"162","category_name":"医院","address":"黄浦区中华路1525号(近复兴中路)"},{"poiid":"B2094757D569A2F5489F","title":"良友金伴便利店(黄浦区卫生系统后勤服务管理中心西南)","lon":"121.4869241","lat":"31.22060683","category":"117","category_name":"便民商店/便利店","address":"复兴东路959弄1-5号"},{"poiid":"B2094655D26FAAF54799","title":"复兴路1055弄小区","lon":"121.48514","lat":"31.21995","category":"47","category_name":"住宅区","address":"复兴路1055弄"},{"poiid":"B2094655D26FAAF5479F","title":"复兴东路927弄小区","lon":"121.48725","lat":"31.22121","category":"47","category_name":"住宅区","address":"复兴东路927弄2-17号"},{"poiid":"B2094757D168A5F4499F","title":"上海文汇工程咨询有限公司","lon":"121.484296038","lat":"31.2222114292","category":"46","category_name":"楼宇","address":"上海市黄浦区人民路998号金天地国际大厦3A"},{"poiid":"B2094757D168A0FA439D","title":"YOBA Frozen yogurt Bar","lon":"121.48523771","lat":"31.222019863","category":"500","category_name":"未知分类","address":"上海西藏南路279号109铺(近寿宁路)"},{"poiid":"B2094655D26FAAF5479A","title":"肇方弄15弄小区(西门)","lon":"121.48426","lat":"31.22151","category":"47","category_name":"住宅区","address":"肇方弄15弄1-12号"},{"poiid":"B2094753D36FA2FB489C","title":"辣肉丝面馆","lon":"121.484818","lat":"31.222581","category":"247","category_name":"餐饮美食","address":"上海市 老西门肇周路"},{"poiid":"B2094655D26BA3F94593","title":"丰收日(豫园店)","lon":"121.4891","lat":"31.22207","category":"75","category_name":"浙江菜","address":"黄浦区复兴东路789号1-2楼(河南南路口)"},{"poiid":"B2094757D06FA2FF409B","title":"老西门","lon":"121.483696","lat":"31.219066","category":"250","category_name":"公园户外","address":"上海老西门"},{"poiid":"B2094655D269AAFA479B","title":"大马头茶餐厅","lon":"121.48304","lat":"31.21943","category":"72","category_name":"广东菜","address":"黄浦区西藏南路567号(近复兴东路)"},{"poiid":"B2094753D76FAAFA449C","title":"上海滩国泰旗舰店","lon":"121.466011","lat":"31.216125","category":"249","category_name":"购物服务","address":"淮海中路868号"},{"poiid":"B209475CD564A7F84292","title":"上海滩新天地店","lon":"121.47463","lat":"31.22164","category":"119","category_name":"商场","address":"\"太仓路181弄新天地北里15号\r\n\""},{"poiid":"B209475CD564A7F8439E","title":"上海滩中信泰富店","lon":"121.45602","lat":"31.22851","category":"119","category_name":"商场","address":"\"南京西路1168号中信泰富广场，店铺号221.\r\n\""},{"poiid":"B209475CD564A7F84392","title":"上海滩浦东香格里拉店","lon":"121.50058","lat":"31.23634","category":"119","category_name":"商场","address":"浦东富成路33号香格里拉酒店内大堂层"},{"poiid":"B2094757D06EAAFB489E","title":"老西门地铁站","lon":"121.483699","lat":"31.219058","category":"36","category_name":"地铁站","address":"上海轨道交通 八号线 十号线 轨交老西门站 8 10"},{"poiid":"B2094655D36CA1F4439B","title":"老西门","lon":"121.4842","lat":"31.22057","category":"38","category_name":"公交车站","address":"西藏南路方浜西路"},{"poiid":"B2094654DA6EA5FF4493","title":"云悦酒店","lon":"121.4891","lat":"31.22208","category":"213","category_name":"五星级宾馆","address":"黄浦区复兴东路789号(近豫园)"},{"poiid":"B2094757D06FA3FE499D","title":"松屋 西藏南路店","lon":"121.481204","lat":"31.224029","category":"95","category_name":"日本料理","address":"黄浦区西藏南路279号弘基西门町(近淮海中路)"},{"poiid":"B2094655D26FA1FE479A","title":"太阳都市花园","lon":"121.4887","lat":"31.22276","category":"47","category_name":"住宅区","address":"河南南路398弄1-4号"},{"poiid":"B2094757D06FA6F84999","title":"黄浦中心","lon":"121.48331828","lat":"31.220969198","category":"46","category_name":"楼宇","address":"上海市黄浦区中华路1600号"},{"poiid":"B2094757D068A2FB4299","title":"老西门(人民路方浜中路)站","lon":"121.484038664","lat":"31.2210625482","category":"38","category_name":"公交车站","address":"上海黄浦区人民路(11,220,135,736,920,911路)"},{"poiid":"B2094757D064A7F54093","title":"usher OMG world tour","lon":"121.48348473","lat":"31.219800077","category":"500","category_name":"未知分类","address":"上海梅赛德斯•奔驰文化演艺中心"},{"poiid":"B2094753D76DA0FA4292","title":"K歌之王","lon":"121.487571","lat":"31.223407","category":"247","category_name":"餐饮美食","address":"上海市 金陵东路569号5楼"},{"poiid":"B2094757D064A2FC499A","title":"红灯笼馄饨店","lon":"121.48712","lat":"31.22022","category":"68","category_name":"快餐厅","address":"黄浦区复兴东路959弄1-5号(近公交24路老西门站)"},{"poiid":"B2094757D069A2F94192","title":"黄浦区卫生学校","lon":"121.48621995","lat":"31.217713083","category":"54","category_name":"职业技术学校","address":"上海梦花街234号"},{"poiid":"B2094757D06FA5FA469D","title":"85度C(中华店)","lon":"121.485302479","lat":"31.2188424225","category":"112","category_name":"糕饼店","address":"黄浦区中华路1463号(近老西门)"},{"poiid":"B2094750DA64A5FF449F","title":"上海东方艺术中心","lon":"121.487915","lat":"31.222635","category":"500","category_name":"未知分类","address":null},{"poiid":"B2094757D06AAAFD409F","title":"方浜路夜排档","lon":"121.48544973","lat":"31.223300152","category":"247","category_name":"餐饮美食","address":"上海市人民路方浜路"},{"poiid":"B2094654DA6EA5FF4199","title":"纯香园","lon":"121.48476","lat":"31.22209","category":"76","category_name":"上海菜","address":"黄浦区方浜中路772号(近人民路)"},{"poiid":"B2094757D165A7F4499A","title":"大方美食","lon":"121.48523173","lat":"31.221756119","category":"76","category_name":"上海菜","address":"黄浦区大方弄"},{"poiid":"B2094757D069A2F84099","title":"黄浦众鑫城","lon":"121.48293","lat":"31.219999","category":"47","category_name":"住宅区","address":"上海黄浦区西藏南路555弄"},{"poiid":"B2094753D268A4FC419B","title":"东方明珠","lon":"121.48706","lat":"31.220684","category":"500","category_name":"未知分类","address":"上海市 浦东区"},{"poiid":"B2094757D16FA3FC489C","title":"建国大厦","lon":"121.488","lat":"31.2197","category":"46","category_name":"楼宇","address":"朝阳区天辰东路7号"},{"poiid":"B2094757D069A3FB459A","title":"中华路复兴东路","lon":"121.4847201","lat":"31.219632484","category":"500","category_name":"未知分类","address":"上海中华路复兴东路"},{"poiid":"B2094655D265ABFC469B","title":"方中排档","lon":"121.48421","lat":"31.22172","category":"257","category_name":"中餐厅","address":"方浜中路776-780"},{"poiid":"B2094757D16DAAFC4598","title":"黄浦区妇幼保健所","lon":"121.4852","lat":"31.21922","category":"162","category_name":"医院","address":"上海黄浦区中华路1525号4楼(复兴东路口)  "},{"poiid":"B2094757D169A7FA409E","title":"和平饭店华懋阁","lon":"121.48424073","lat":"31.219877079","category":"247","category_name":"餐饮美食","address":"上海黄浦区南京东路20号和平饭店9F"},{"poiid":"B2094757DB6FA6F8439D","title":"陆家浜路9地铁站","lon":"121.488546","lat":"31.222738","category":"36","category_name":"地铁站","address":"陆家浜路"},{"poiid":"B2094757D169A6FD4199","title":"复兴东路老西门公交站","lon":"121.487589","lat":"31.22068","category":"38","category_name":"公交车站","address":"上海黄浦区复兴东路(近庄家街)"},{"poiid":"B209475DD26EA4F9479A","title":"外滩悦榕庄","lon":"121.486495","lat":"31.220569","category":"500","category_name":"未知分类","address":"上海市 公平路19号"},{"poiid":"B2094757D169A2F9429D","title":"泰和养生会所","lon":"121.485390138","lat":"31.2210536046","category":"148","category_name":"美容美发店","address":"黄浦区人民路998号金天地国际大厦1楼(近老西门)"},{"poiid":"B2094655D265A0F8459E","title":"老西门茶商场","lon":"121.48403","lat":"31.21944","category":"119","category_name":"商场","address":"复兴东路1121"},{"poiid":"B2094655D36CA6FF429E","title":"复兴东路老西门","lon":"121.48667","lat":"31.22004","category":"38","category_name":"公交车站","address":""},{"poiid":"B2094757D06AA2F5459D","title":"豫园派出所","lon":"121.48399825","lat":"31.222190165","category":"609","category_name":"警察局","address":"上海方浜中路718号"},{"poiid":"B2094757D66EA2F8429D","title":"黄浦区豫园卫生服务中心","lon":"121.48427073","lat":"31.219771077","category":"500","category_name":"未知分类","address":"上海中华路1525号"},{"poiid":"B2094654DB65A4FF4793","title":"豫园地段医院","lon":"121.48516","lat":"31.22229","category":"162","category_name":"医院","address":"黄浦区方浜中路722号"},{"poiid":"B2094655D26FAAF5479B","title":"黄浦区红十字老年护理医院","lon":"121.48498","lat":"31.21949","category":"162","category_name":"医院","address":"中华路1495"},{"poiid":"B2094655D26FAAF54693","title":"肇方弄15弄小区","lon":"121.48447","lat":"31.22154","category":"47","category_name":"住宅区","address":"肇方弄15弄1-12号"},{"poiid":"B2094750D16BA6FF4699","title":"黄浦区 老西门","lon":"121.486755","lat":"31.221546","category":"500","category_name":"未知分类","address":null},{"poiid":"B2094654DA6EA5FC449F","title":"豫园街道社区卫生服务中心","lon":"121.48484","lat":"31.21977","category":"162","category_name":"医院","address":"黄浦区中华路1525号(近复兴中路)"},{"poiid":"B2094757D569A2F5489F","title":"良友金伴便利店(黄浦区卫生系统后勤服务管理中心西南)","lon":"121.4869241","lat":"31.22060683","category":"117","category_name":"便民商店/便利店","address":"复兴东路959弄1-5号"},{"poiid":"B2094655D26FAAF54799","title":"复兴路1055弄小区","lon":"121.48514","lat":"31.21995","category":"47","category_name":"住宅区","address":"复兴路1055弄"},{"poiid":"B2094655D26FAAF5479F","title":"复兴东路927弄小区","lon":"121.48725","lat":"31.22121","category":"47","category_name":"住宅区","address":"复兴东路927弄2-17号"},{"poiid":"B2094757D168A5F4499F","title":"上海文汇工程咨询有限公司","lon":"121.484296038","lat":"31.2222114292","category":"46","category_name":"楼宇","address":"上海市黄浦区人民路998号金天地国际大厦3A"},{"poiid":"B2094757D168A0FA439D","title":"YOBA Frozen yogurt Bar","lon":"121.48523771","lat":"31.222019863","category":"500","category_name":"未知分类","address":"上海西藏南路279号109铺(近寿宁路)"},{"poiid":"B2094655D26FAAF5479A","title":"肇方弄15弄小区(西门)","lon":"121.48426","lat":"31.22151","category":"47","category_name":"住宅区","address":"肇方弄15弄1-12号"},{"poiid":"B2094753D36FA2FB489C","title":"辣肉丝面馆","lon":"121.484818","lat":"31.222581","category":"247","category_name":"餐饮美食","address":"上海市 老西门肇周路"},{"poiid":"B2094655D26BA3F94593","title":"丰收日(豫园店)","lon":"121.4891","lat":"31.22207","category":"75","category_name":"浙江菜","address":"黄浦区复兴东路789号1-2楼(河南南路口)"},{"poiid":"B2094757D06FA2FF409B","title":"老西门","lon":"121.483696","lat":"31.219066","category":"250","category_name":"公园户外","address":"上海老西门"},{"poiid":"B2094655D269AAFA479B","title":"大马头茶餐厅","lon":"121.48304","lat":"31.21943","category":"72","category_name":"广东菜","address":"黄浦区西藏南路567号(近复兴东路)"},{"poiid":"B2094753D76FAAFA449C","title":"上海滩国泰旗舰店","lon":"121.466011","lat":"31.216125","category":"249","category_name":"购物服务","address":"淮海中路868号"},{"poiid":"B209475CD564A7F84292","title":"上海滩新天地店","lon":"121.47463","lat":"31.22164","category":"119","category_name":"商场","address":"\"太仓路181弄新天地北里15号\r\n\""},{"poiid":"B209475CD564A7F8439E","title":"上海滩中信泰富店","lon":"121.45602","lat":"31.22851","category":"119","category_name":"商场","address":"\"南京西路1168号中信泰富广场，店铺号221.\r\n\""},{"poiid":"B209475CD564A7F84392","title":"上海滩浦东香格里拉店","lon":"121.50058","lat":"31.23634","category":"119","category_name":"商场","address":"浦东富成路33号香格里拉酒店内大堂层"},{"poiid":"B2094757D06EAAFB489E","title":"老西门地铁站","lon":"121.483699","lat":"31.219058","category":"36","category_name":"地铁站","address":"上海轨道交通 八号线 十号线 轨交老西门站 8 10"},{"poiid":"B2094655D36CA1F4439B","title":"老西门","lon":"121.4842","lat":"31.22057","category":"38","category_name":"公交车站","address":"西藏南路方浜西路"},{"poiid":"B2094654DA6EA5FF4493","title":"云悦酒店","lon":"121.4891","lat":"31.22208","category":"213","category_name":"五星级宾馆","address":"黄浦区复兴东路789号(近豫园)"},{"poiid":"B2094757D06FA3FE499D","title":"松屋 西藏南路店","lon":"121.481204","lat":"31.224029","category":"95","category_name":"日本料理","address":"黄浦区西藏南路279号弘基西门町(近淮海中路)"},{"poiid":"B2094655D26FA1FE479A","title":"太阳都市花园","lon":"121.4887","lat":"31.22276","category":"47","category_name":"住宅区","address":"河南南路398弄1-4号"},{"poiid":"B2094757D06FA6F84999","title":"黄浦中心","lon":"121.48331828","lat":"31.220969198","category":"46","category_name":"楼宇","address":"上海市黄浦区中华路1600号"},{"poiid":"B2094757D068A2FB4299","title":"老西门(人民路方浜中路)站","lon":"121.484038664","lat":"31.2210625482","category":"38","category_name":"公交车站","address":"上海黄浦区人民路(11,220,135,736,920,911路)"},{"poiid":"B2094757D064A7F54093","title":"usher OMG world tour","lon":"121.48348473","lat":"31.219800077","category":"500","category_name":"未知分类","address":"上海梅赛德斯•奔驰文化演艺中心"},{"poiid":"B2094753D76DA0FA4292","title":"K歌之王","lon":"121.487571","lat":"31.223407","category":"247","category_name":"餐饮美食","address":"上海市 金陵东路569号5楼"},{"poiid":"B2094757D064A2FC499A","title":"红灯笼馄饨店","lon":"121.48712","lat":"31.22022","category":"68","category_name":"快餐厅","address":"黄浦区复兴东路959弄1-5号(近公交24路老西门站)"},{"poiid":"B2094757D069A2F94192","title":"黄浦区卫生学校","lon":"121.48621995","lat":"31.217713083","category":"54","category_name":"职业技术学校","address":"上海梦花街234号"},{"poiid":"B2094757D06FA5FA469D","title":"85度C(中华店)","lon":"121.485302479","lat":"31.2188424225","category":"112","category_name":"糕饼店","address":"黄浦区中华路1463号(近老西门)"},{"poiid":"B2094750DA64A5FF449F","title":"上海东方艺术中心","lon":"121.487915","lat":"31.222635","category":"500","category_name":"未知分类","address":null},{"poiid":"B2094757D06AAAFD409F","title":"方浜路夜排档","lon":"121.48544973","lat":"31.223300152","category":"247","category_name":"餐饮美食","address":"上海市人民路方浜路"},{"poiid":"B2094654DA6EA5FF4199","title":"纯香园","lon":"121.48476","lat":"31.22209","category":"76","category_name":"上海菜","address":"黄浦区方浜中路772号(近人民路)"},{"poiid":"B2094757D165A7F4499A","title":"大方美食","lon":"121.48523173","lat":"31.221756119","category":"76","category_name":"上海菜","address":"黄浦区大方弄"},{"poiid":"B2094757D069A2F84099","title":"黄浦众鑫城","lon":"121.48293","lat":"31.219999","category":"47","category_name":"住宅区","address":"上海黄浦区西藏南路555弄"},{"poiid":"B2094753D268A4FC419B","title":"东方明珠","lon":"121.48706","lat":"31.220684","category":"500","category_name":"未知分类","address":"上海市 浦东区"},{"poiid":"B2094757D16FA3FC489C","title":"建国大厦","lon":"121.488","lat":"31.2197","category":"46","category_name":"楼宇","address":"朝阳区天辰东路7号"},{"poiid":"B2094757D069A3FB459A","title":"中华路复兴东路","lon":"121.4847201","lat":"31.219632484","category":"500","category_name":"未知分类","address":"上海中华路复兴东路"},{"poiid":"B2094655D265ABFC469B","title":"方中排档","lon":"121.48421","lat":"31.22172","category":"257","category_name":"中餐厅","address":"方浜中路776-780"},{"poiid":"B2094757D16DAAFC4598","title":"黄浦区妇幼保健所","lon":"121.4852","lat":"31.21922","category":"162","category_name":"医院","address":"上海黄浦区中华路1525号4楼(复兴东路口)  "},{"poiid":"B2094757D169A7FA409E","title":"和平饭店华懋阁","lon":"121.48424073","lat":"31.219877079","category":"247","category_name":"餐饮美食","address":"上海黄浦区南京东路20号和平饭店9F"},{"poiid":"B2094757DB6FA6F8439D","title":"陆家浜路9地铁站","lon":"121.488546","lat":"31.222738","category":"36","category_name":"地铁站","address":"陆家浜路"},{"poiid":"B2094757D169A6FD4199","title":"复兴东路老西门公交站","lon":"121.487589","lat":"31.22068","category":"38","category_name":"公交车站","address":"上海黄浦区复兴东路(近庄家街)"},{"poiid":"B209475DD26EA4F9479A","title":"外滩悦榕庄","lon":"121.486495","lat":"31.220569","category":"500","category_name":"未知分类","address":"上海市 公平路19号"},{"poiid":"B2094757D169A2F9429D","title":"泰和养生会所","lon":"121.485390138","lat":"31.2210536046","category":"148","category_name":"美容美发店","address":"黄浦区人民路998号金天地国际大厦1楼(近老西门)"},{"poiid":"B2094655D265A0F8459E","title":"老西门茶商场","lon":"121.48403","lat":"31.21944","category":"119","category_name":"商场","address":"复兴东路1121"},{"poiid":"B2094655D36CA6FF429E","title":"复兴东路老西门","lon":"121.48667","lat":"31.22004","category":"38","category_name":"公交车站","address":""},{"poiid":"B2094757D06AA2F5459D","title":"豫园派出所","lon":"121.48399825","lat":"31.222190165","category":"609","category_name":"警察局","address":"上海方浜中路718号"},{"poiid":"B2094757D66EA2F8429D","title":"黄浦区豫园卫生服务中心","lon":"121.48427073","lat":"31.219771077","category":"500","category_name":"未知分类","address":"上海中华路1525号"},{"poiid":"B2094654DB65A4FF4793","title":"豫园地段医院","lon":"121.48516","lat":"31.22229","category":"162","category_name":"医院","address":"黄浦区方浜中路722号"},{"poiid":"B2094655D26FAAF5479B","title":"黄浦区红十字老年护理医院","lon":"121.48498","lat":"31.21949","category":"162","category_name":"医院","address":"中华路1495"},{"poiid":"B2094655D26FAAF54693","title":"肇方弄15弄小区","lon":"121.48447","lat":"31.22154","category":"47","category_name":"住宅区","address":"肇方弄15弄1-12号"},{"poiid":"B2094750D16BA6FF4699","title":"黄浦区 老西门","lon":"121.486755","lat":"31.221546","category":"500","category_name":"未知分类","address":null},{"poiid":"B2094654DA6EA5FC449F","title":"豫园街道社区卫生服务中心","lon":"121.48484","lat":"31.21977","category":"162","category_name":"医院","address":"黄浦区中华路1525号(近复兴中路)"},{"poiid":"B2094757D569A2F5489F","title":"良友金伴便利店(黄浦区卫生系统后勤服务管理中心西南)","lon":"121.4869241","lat":"31.22060683","category":"117","category_name":"便民商店/便利店","address":"复兴东路959弄1-5号"},{"poiid":"B2094655D26FAAF54799","title":"复兴路1055弄小区","lon":"121.48514","lat":"31.21995","category":"47","category_name":"住宅区","address":"复兴路1055弄"},{"poiid":"B2094655D26FAAF5479F","title":"复兴东路927弄小区","lon":"121.48725","lat":"31.22121","category":"47","category_name":"住宅区","address":"复兴东路927弄2-17号"},{"poiid":"B2094757D168A5F4499F","title":"上海文汇工程咨询有限公司","lon":"121.484296038","lat":"31.2222114292","category":"46","category_name":"楼宇","address":"上海市黄浦区人民路998号金天地国际大厦3A"},{"poiid":"B2094757D168A0FA439D","title":"YOBA Frozen yogurt Bar","lon":"121.48523771","lat":"31.222019863","category":"500","category_name":"未知分类","address":"上海西藏南路279号109铺(近寿宁路)"},{"poiid":"B2094655D26FAAF5479A","title":"肇方弄15弄小区(西门)","lon":"121.48426","lat":"31.22151","category":"47","category_name":"住宅区","address":"肇方弄15弄1-12号"},{"poiid":"B2094753D36FA2FB489C","title":"辣肉丝面馆","lon":"121.484818","lat":"31.222581","category":"247","category_name":"餐饮美食","address":"上海市 老西门肇周路"}]