[{"poiid":"B2094757DA6FA2FC419B","title":"上海市皮肤病医院","lon":"121.426462000001","lat":"31.2133200000002","category":"162","category_name":"医院","address":"长宁区武夷路200号"},{"poiid":"B2094757DB68A5F5449D","title":"弄堂筵 武夷路店","lon":"121.427919","lat":"31.213757","category":"76","category_name":"上海菜","address":"长宁区武夷路155号9号楼(近延安西路)"},{"poiid":"B2094655D26BA2FC419C","title":"武夷路延安西路","lon":"121.42993","lat":"31.21363","category":"38","category_name":"公交车站","address":""},{"poiid":"B2094757D16FA5FB439B","title":"Tiramisu Italian Restaurant","lon":"121.42796058","lat":"31.217515182","category":"94","category_name":"西餐厅","address":"长宁区宣化路100号(近江苏路)"},{"poiid":"B2094757D06AA0F8449A","title":"比利时领事馆","lon":"121.428513","lat":"31.214012","category":"252","category_name":"楼宇机构","address":"上海长宁区武夷路127号"},{"poiid":"B2094757D06FA5FB4498","title":"龙峰大厦","lon":"121.427169","lat":"31.214745","category":"46","category_name":"楼宇","address":"普陀区长寿路137号(近陕西北路)"},{"poiid":"B2094757D06AA6FE4398","title":"上海质量管理科学研究院","lon":"121.425811458","lat":"31.2132286803","category":"46","category_name":"楼宇","address":"长宁区武夷路258号(近定西路)"},{"poiid":"B2094757D065A0FE4592","title":"武夷路定西路","lon":"121.42580828","lat":"31.213553304","category":"500","category_name":"未知分类","address":"上海武夷路413号"},{"poiid":"B2094655D26DA2FE419B","title":"弘基创邑国际园","lon":"121.42823","lat":"31.21826","category":"45","category_name":"产业园区","address":"长宁区愚园路1107号(近江苏路)"},{"poiid":"B2094757D569A6FF459E","title":"迎龙大厦写字楼","lon":"121.4251619","lat":"31.21624111","category":"46","category_name":"楼宇","address":"延安西路1358号"},{"poiid":"B2094654D564A7FA4392","title":"禾森商务中心","lon":"121.427","lat":"31.2145","category":"46","category_name":"楼宇","address":"闸北区江场西路38号(近共和新路)"},{"poiid":"B2094757D16CA7FB409B","title":"yue1525粤","lon":"121.42632032","lat":"31.216147429","category":"500","category_name":"未知分类","address":"上海定西路1525"},{"poiid":"B2094757D06BA4F4489E","title":"爱吃咖喱","lon":"121.426623153","lat":"31.2135507048","category":"95","category_name":"日本料理","address":"长宁区武夷路269号(安西路口)"},{"poiid":"B2094757D068ABF9429B","title":"东北四季饺子王(武夷路店)","lon":"121.427919","lat":"31.213757","category":"82","category_name":"东北菜","address":"长宁区武夷路155号(近延安西路)"},{"poiid":"B2094757D168A1FD4298","title":"银统大厦","lon":"121.43","lat":"31.2166","category":"46","category_name":"楼宇","address":"上海市长宁区遵义南路88号"},{"poiid":"B2094752D165A0FD4398","title":"boom cafe","lon":"121.424805","lat":"31.216415","category":"247","category_name":"餐饮美食","address":"宣化路1310弄6号"},{"poiid":"B2094757D069AAFD419A","title":"润湘之(宣化路店)","lon":"121.42981","lat":"31.21727","category":"77","category_name":"湖南菜","address":"上海长宁区宣化路59号(近江苏路)"},{"poiid":"B2094757D66EA6FB409A","title":"大一夢薄皮鲷鱼烧(龙之梦店)","lon":"121.427555586","lat":"31.2154281415","category":"257","category_name":"中餐厅","address":"长宁区长宁路1018号龙之梦购物中心B2楼(近凯旋路)"},{"poiid":"B2094654D564A7FB459B","title":"凯阳大厦","lon":"121.43","lat":"31.2151","category":"46","category_name":"楼宇","address":"丰台学城海鹰路1号"},{"poiid":"B209475CDB64AAFE4192","title":"合点寿司承知之助","lon":"121.42675","lat":"31.215496","category":"247","category_name":"餐饮美食","address":"上海市 宣化路300号华宁弘基生活中心4楼"},{"poiid":"B2094654DB64A6FA429B","title":"汉庭快捷(中山公园店)","lon":"121.42794","lat":"31.2141","category":"216","category_name":"经济型连锁酒店","address":"长宁区武夷路155号(近延安西路口)"},{"poiid":"B2094757D169A0F5419D","title":"法国教育服务中心-上海中心","lon":"121.42846284","lat":"31.214718661","category":"500","category_name":"未知分类","address":"上海市长宁区武夷路155号世星大厦4楼"},{"poiid":"B2094654D565A6FD479D","title":"富都花园","lon":"121.42453","lat":"31.216513","category":"47","category_name":"住宅区","address":"富都花园位于长宁宣化路299弄1-4号"},{"poiid":"B2094654DB6BA6F8449B","title":"上海市长宁区初级职业技术学校(北门)","lon":"121.42745","lat":"31.21468","category":"678","category_name":"学校大门","address":"利西路247号"},{"poiid":"B2094655D26FA6F5479D","title":"恩巴斯桌球馆","lon":"121.42769","lat":"31.21459","category":"171","category_name":"台球厅","address":"长宁区利西路43号3楼(近江苏路)"},{"poiid":"B2094655D26DA7FF489C","title":"福世花园(南门)","lon":"121.42773","lat":"31.21538","category":"47","category_name":"住宅区","address":"安化路200弄"},{"poiid":"B2094750DA69ABFA409F","title":"舟山渔村","lon":"121.429924","lat":"31.214105","category":"75","category_name":"浙江菜","address":"长宁区延安西路1033号(近昭化路)"},{"poiid":"B2094655D26DA0FF4998","title":"利安小区(北门)","lon":"121.42712","lat":"31.215","category":"47","category_name":"住宅区","address":""},{"poiid":"B2094654D565A7FB489D","title":"利安小区","lon":"121.42716","lat":"31.214766","category":"47","category_name":"住宅区","address":"安化路231号"},{"poiid":"B2094757D16BA4FB449B","title":"友樂達台北精緻麵館","lon":"121.42709517","lat":"31.214315275","category":"247","category_name":"餐饮美食","address":"上海定西路1310弄2號"},{"poiid":"B2094757D064A5F5469C","title":"安化路","lon":"121.426094586","lat":"31.2149811328","category":"500","category_name":"未知分类","address":"上海市长宁区定西路"},{"poiid":"B2094757D068A3F8479C","title":"上海法语培训中心(武夷路校区)","lon":"121.42805","lat":"31.21352","category":"260","category_name":"其他","address":"长宁区武夷路155号2-4楼(近比利时领事馆)"},{"poiid":"B2094757D168A3FF459B","title":"福世花园","lon":"121.42772","lat":"31.215908","category":"47","category_name":"住宅区","address":"上海安化路200弄"},{"poiid":"B2094757D16EABF54998","title":"安化二中","lon":"121.42845958","lat":"31.215030133","category":"55","category_name":"中学","address":"上海安化路222号"},{"poiid":"B2094750D26AA3F9429E","title":"陈记甜品窝 宣化路店","lon":"121.42570495606","lat":"31.216875435059","category":"67","category_name":"甜品店","address":"长宁区宣化路233号(安西路口)"},{"poiid":"B2094654D565A7FA4392","title":"杏花楼(武夷路)","lon":"121.42773","lat":"31.21379","category":"112","category_name":"糕饼店","address":"长宁区武夷路155号(近延安西路)"},{"poiid":"B2094757D068A6FF469C","title":"Bill飚记面铺","lon":"121.42967","lat":"31.21737","category":"68","category_name":"快餐厅","address":"长宁区宣化路75号(近江苏路)"},{"poiid":"B2094655D265A7FF4892","title":"马普专业楼","lon":"121.42864","lat":"31.21555","category":"46","category_name":"楼宇","address":"安化路84"},{"poiid":"B2094757D16BA3FC459E","title":"园林一品","lon":"121.427649736","lat":"31.2149632662","category":"500","category_name":"未知分类","address":"上海兆丰嘉园二期"},{"poiid":"B2094654D565A7FA459E","title":"原食街饭店","lon":"121.42984","lat":"31.21379","category":"257","category_name":"中餐厅","address":"长宁区武夷路79号"},{"poiid":"B2094757D66EA3F4409D","title":"中共上海建工(集团)总公司委员会党校","lon":"121.42692458","lat":"31.214144116","category":"500","category_name":"未知分类","address":"上海市长宁区武夷路150号"},{"poiid":"B2094654D565A7FA449F","title":"世星大楼","lon":"121.42784","lat":"31.2138","category":"46","category_name":"楼宇","address":"武夷路155-1"},{"poiid":"B2094753D66BABFA4692","title":"网鱼网咖","lon":"121.426773","lat":"31.215389","category":"248","category_name":"生活娱乐","address":"上海市 长宁区 定西路"},{"poiid":"B2094757D16CAAF5439E","title":"蒋荣兴","lon":"121.425220586","lat":"31.214992133","category":"500","category_name":"未知分类","address":"长宁区安西路651号1楼(安化路口)"},{"poiid":"B209475CDA6FABF4429C","title":"重庆储香门鲜火锅","lon":"121.427307","lat":"31.213668","category":"247","category_name":"餐饮美食","address":"上海市 定西路1306号"},{"poiid":"B2094654D565A7F9419E","title":"上海建峰学院继续教育分院(武夷路)","lon":"121.4278","lat":"31.21308","category":"53","category_name":"成人教育","address":"武夷路150"},{"poiid":"B2094654D565A6FE439C","title":"南辉小区","lon":"121.42964","lat":"31.217155","category":"47","category_name":"住宅区","address":"宣化路113弄1-6,8,10,12,89,97,105,121,129,137号"},{"poiid":"B2094757DB6EAAF44798","title":"宜家","lon":"121.425454","lat":"31.214746","category":"249","category_name":"购物服务","address":"宜家"},{"poiid":"B2094654D565A7FB479E","title":"利西小区","lon":"121.42893","lat":"31.215069","category":"47","category_name":"住宅区","address":"安化路175-177"},{"poiid":"B2094757D16AA4F54293","title":"西诸安浜路","lon":"121.428630586","lat":"31.2160741542","category":"500","category_name":"未知分类","address":"上海长宁区宣化路"},{"poiid":"B2094757DA6FA2FC419B","title":"上海市皮肤病医院","lon":"121.426462000001","lat":"31.2133200000002","category":"162","category_name":"医院","address":"长宁区武夷路200号"},{"poiid":"B2094757DB68A5F5449D","title":"弄堂筵 武夷路店","lon":"121.427919","lat":"31.213757","category":"76","category_name":"上海菜","address":"长宁区武夷路155号9号楼(近延安西路)"},{"poiid":"B2094655D26BA2FC419C","title":"武夷路延安西路","lon":"121.42993","lat":"31.21363","category":"38","category_name":"公交车站","address":""},{"poiid":"B2094757D16FA5FB439B","title":"Tiramisu Italian Restaurant","lon":"121.42796058","lat":"31.217515182","category":"94","category_name":"西餐厅","address":"长宁区宣化路100号(近江苏路)"},{"poiid":"B2094757D06AA0F8449A","title":"比利时领事馆","lon":"121.428513","lat":"31.214012","category":"252","category_name":"楼宇机构","address":"上海长宁区武夷路127号"},{"poiid":"B2094757D06FA5FB4498","title":"龙峰大厦","lon":"121.427169","lat":"31.214745","category":"46","category_name":"楼宇","address":"普陀区长寿路137号(近陕西北路)"},{"poiid":"B2094757D06AA6FE4398","title":"上海质量管理科学研究院","lon":"121.425811458","lat":"31.2132286803","category":"46","category_name":"楼宇","address":"长宁区武夷路258号(近定西路)"},{"poiid":"B2094757D065A0FE4592","title":"武夷路定西路","lon":"121.42580828","lat":"31.213553304","category":"500","category_name":"未知分类","address":"上海武夷路413号"},{"poiid":"B2094655D26DA2FE419B","title":"弘基创邑国际园","lon":"121.42823","lat":"31.21826","category":"45","category_name":"产业园区","address":"长宁区愚园路1107号(近江苏路)"},{"poiid":"B2094757D569A6FF459E","title":"迎龙大厦写字楼","lon":"121.4251619","lat":"31.21624111","category":"46","category_name":"楼宇","address":"延安西路1358号"},{"poiid":"B2094654D564A7FA4392","title":"禾森商务中心","lon":"121.427","lat":"31.2145","category":"46","category_name":"楼宇","address":"闸北区江场西路38号(近共和新路)"},{"poiid":"B2094757D16CA7FB409B","title":"yue1525粤","lon":"121.42632032","lat":"31.216147429","category":"500","category_name":"未知分类","address":"上海定西路1525"},{"poiid":"B2094757D06BA4F4489E","title":"爱吃咖喱","lon":"121.426623153","lat":"31.2135507048","category":"95","category_name":"日本料理","address":"长宁区武夷路269号(安西路口)"},{"poiid":"B2094757D068ABF9429B","title":"东北四季饺子王(武夷路店)","lon":"121.427919","lat":"31.213757","category":"82","category_name":"东北菜","address":"长宁区武夷路155号(近延安西路)"},{"poiid":"B2094757D168A1FD4298","title":"银统大厦","lon":"121.43","lat":"31.2166","category":"46","category_name":"楼宇","address":"上海市长宁区遵义南路88号"},{"poiid":"B2094752D165A0FD4398","title":"boom cafe","lon":"121.424805","lat":"31.216415","category":"247","category_name":"餐饮美食","address":"宣化路1310弄6号"},{"poiid":"B2094757D069AAFD419A","title":"润湘之(宣化路店)","lon":"121.42981","lat":"31.21727","category":"77","category_name":"湖南菜","address":"上海长宁区宣化路59号(近江苏路)"},{"poiid":"B2094757D66EA6FB409A","title":"大一夢薄皮鲷鱼烧(龙之梦店)","lon":"121.427555586","lat":"31.2154281415","category":"257","category_name":"中餐厅","address":"长宁区长宁路1018号龙之梦购物中心B2楼(近凯旋路)"},{"poiid":"B2094654D564A7FB459B","title":"凯阳大厦","lon":"121.43","lat":"31.2151","category":"46","category_name":"楼宇","address":"丰台学城海鹰路1号"},{"poiid":"B209475CDB64AAFE4192","title":"合点寿司承知之助","lon":"121.42675","lat":"31.215496","category":"247","category_name":"餐饮美食","address":"上海市 宣化路300号华宁弘基生活中心4楼"},{"poiid":"B2094654DB64A6FA429B","title":"汉庭快捷(中山公园店)","lon":"121.42794","lat":"31.2141","category":"216","category_name":"经济型连锁酒店","address":"长宁区武夷路155号(近延安西路口)"},{"poiid":"B2094757D169A0F5419D","title":"法国教育服务中心-上海中心","lon":"121.42846284","lat":"31.214718661","category":"500","category_name":"未知分类","address":"上海市长宁区武夷路155号世星大厦4楼"},{"poiid":"B2094654D565A6FD479D","title":"富都花园","lon":"121.42453","lat":"31.216513","category":"47","category_name":"住宅区","address":"富都花园位于长宁宣化路299弄1-4号"},{"poiid":"B2094654DB6BA6F8449B","title":"上海市长宁区初级职业技术学校(北门)","lon":"121.42745","lat":"31.21468","category":"678","category_name":"学校大门","address":"利西路247号"},{"poiid":"B2094655D26FA6F5479D","title":"恩巴斯桌球馆","lon":"121.42769","lat":"31.21459","category":"171","category_name":"台球厅","address":"长宁区利西路43号3楼(近江苏路)"},{"poiid":"B2094655D26DA7FF489C","title":"福世花园(南门)","lon":"121.42773","lat":"31.21538","category":"47","category_name":"住宅区","address":"安化路200弄"},{"poiid":"B2094750DA69ABFA409F","title":"舟山渔村","lon":"121.429924","lat":"31.214105","category":"75","category_name":"浙江菜","address":"长宁区延安西路1033号(近昭化路)"},{"poiid":"B2094655D26DA0FF4998","title":"利安小区(北门)","lon":"121.42712","lat":"31.215","category":"47","category_name":"住宅区","address":""},{"poiid":"B2094654D565A7FB489D","title":"利安小区","lon":"121.42716","lat":"31.214766","category":"47","category_name":"住宅区","address":"安化路231号"},{"poiid":"B2094757D16BA4FB449B","title":"友樂達台北精緻麵館","lon":"121.42709517","lat":"31.214315275","category":"247","category_name":"餐饮美食","address":"上海定西路1310弄2號"},{"poiid":"B2094757D064A5F5469C","title":"安化路","lon":"121.426094586","lat":"31.2149811328","category":"500","category_name":"未知分类","address":"上海市长宁区定西路"},{"poiid":"B2094757D068A3F8479C","title":"上海法语培训中心(武夷路校区)","lon":"121.42805","lat":"31.21352","category":"260","category_name":"其他","address":"长宁区武夷路155号2-4楼(近比利时领事馆)"},{"poiid":"B2094757D168A3FF459B","title":"福世花园","lon":"121.42772","lat":"31.215908","category":"47","category_name":"住宅区","address":"上海安化路200弄"},{"poiid":"B2094757D16EABF54998","title":"安化二中","lon":"121.42845958","lat":"31.215030133","category":"55","category_name":"中学","address":"上海安化路222号"},{"poiid":"B2094750D26AA3F9429E","title":"陈记甜品窝 宣化路店","lon":"121.42570495606","lat":"31.216875435059","category":"67","category_name":"甜品店","address":"长宁区宣化路233号(安西路口)"},{"poiid":"B2094654D565A7FA4392","title":"杏花楼(武夷路)","lon":"121.42773","lat":"31.21379","category":"112","category_name":"糕饼店","address":"长宁区武夷路155号(近延安西路)"},{"poiid":"B2094757D068A6FF469C","title":"Bill飚记面铺","lon":"121.42967","lat":"31.21737","category":"68","category_name":"快餐厅","address":"长宁区宣化路75号(近江苏路)"},{"poiid":"B2094655D265A7FF4892","title":"马普专业楼","lon":"121.42864","lat":"31.21555","category":"46","category_name":"楼宇","address":"安化路84"},{"poiid":"B2094757D16BA3FC459E","title":"园林一品","lon":"121.427649736","lat":"31.2149632662","category":"500","category_name":"未知分类","address":"上海兆丰嘉园二期"},{"poiid":"B2094654D565A7FA459E","title":"原食街饭店","lon":"121.42984","lat":"31.21379","category":"257","category_name":"中餐厅","address":"长宁区武夷路79号"},{"poiid":"B2094757D66EA3F4409D","title":"中共上海建工(集团)总公司委员会党校","lon":"121.42692458","lat":"31.214144116","category":"500","category_name":"未知分类","address":"上海市长宁区武夷路150号"},{"poiid":"B2094654D565A7FA449F","title":"世星大楼","lon":"121.42784","lat":"31.2138","category":"46","category_name":"楼宇","address":"武夷路155-1"},{"poiid":"B2094753D66BABFA4692","title":"网鱼网咖","lon":"121.426773","lat":"31.215389","category":"248","category_name":"生活娱乐","address":"上海市 长宁区 定西路"},{"poiid":"B2094757D16CAAF5439E","title":"蒋荣兴","lon":"121.425220586","lat":"31.214992133","category":"500","category_name":"未知分类","address":"长宁区安西路651号1楼(安化路口)"},{"poiid":"B209475CDA6FABF4429C","title":"重庆储香门鲜火锅","lon":"121.427307","lat":"31.213668","category":"247","category_name":"餐饮美食","address":"上海市 定西路1306号"},{"poiid":"B2094654D565A7F9419E","title":"上海建峰学院继续教育分院(武夷路)","lon":"121.4278","lat":"31.21308","category":"53","category_name":"成人教育","address":"武夷路150"},{"poiid":"B2094654D565A6FE439C","title":"南辉小区","lon":"121.42964","lat":"31.217155","category":"47","category_name":"住宅区","address":"宣化路113弄1-6,8,10,12,89,97,105,121,129,137号"},{"poiid":"B2094757DB6EAAF44798","title":"宜家","lon":"121.425454","lat":"31.214746","category":"249","category_name":"购物服务","address":"宜家"},{"poiid":"B2094654D565A7FB479E","title":"利西小区","lon":"121.42893","lat":"31.215069","category":"47","category_name":"住宅区","address":"安化路175-177"},{"poiid":"B2094757D16AA4F54293","title":"西诸安浜路","lon":"121.428630586","lat":"31.2160741542","category":"500","category_name":"未知分类","address":"上海长宁区宣化路"},{"poiid":"B2094757DA6FA2FC419B","title":"上海市皮肤病医院","lon":"121.426462000001","lat":"31.2133200000002","category":"162","category_name":"医院","address":"长宁区武夷路200号"},{"poiid":"B2094757DB68A5F5449D","title":"弄堂筵 武夷路店","lon":"121.427919","lat":"31.213757","category":"76","category_name":"上海菜","address":"长宁区武夷路155号9号楼(近延安西路)"},{"poiid":"B2094655D26BA2FC419C","title":"武夷路延安西路","lon":"121.42993","lat":"31.21363","category":"38","category_name":"公交车站","address":""},{"poiid":"B2094757D16FA5FB439B","title":"Tiramisu Italian Restaurant","lon":"121.42796058","lat":"31.217515182","category":"94","category_name":"西餐厅","address":"长宁区宣化路100号(近江苏路)"},{"poiid":"B2094757D06AA0F8449A","title":"比利时领事馆","lon":"121.428513","lat":"31.214012","category":"252","category_name":"楼宇机构","address":"上海长宁区武夷路127号"},{"poiid":"B2094757D06FA5FB4498","title":"龙峰大厦","lon":"121.427169","lat":"31.214745","category":"46","category_name":"楼宇","address":"普陀区长寿路137号(近陕西北路)"},{"poiid":"B2094757D06AA6FE4398","title":"上海质量管理科学研究院","lon":"121.425811458","lat":"31.2132286803","category":"46","category_name":"楼宇","address":"长宁区武夷路258号(近定西路)"},{"poiid":"B2094757D065A0FE4592","title":"武夷路定西路","lon":"121.42580828","lat":"31.213553304","category":"500","category_name":"未知分类","address":"上海武夷路413号"},{"poiid":"B2094655D26DA2FE419B","title":"弘基创邑国际园","lon":"121.42823","lat":"31.21826","category":"45","category_name":"产业园区","address":"长宁区愚园路1107号(近江苏路)"},{"poiid":"B2094757D569A6FF459E","title":"迎龙大厦写字楼","lon":"121.4251619","lat":"31.21624111","category":"46","category_name":"楼宇","address":"延安西路1358号"},{"poiid":"B2094654D564A7FA4392","title":"禾森商务中心","lon":"121.427","lat":"31.2145","category":"46","category_name":"楼宇","address":"闸北区江场西路38号(近共和新路)"},{"poiid":"B2094757D16CA7FB409B","title":"yue1525粤","lon":"121.42632032","lat":"31.216147429","category":"500","category_name":"未知分类","address":"上海定西路1525"},{"poiid":"B2094757D06BA4F4489E","title":"爱吃咖喱","lon":"121.426623153","lat":"31.2135507048","category":"95","category_name":"日本料理","address":"长宁区武夷路269号(安西路口)"},{"poiid":"B2094757D068ABF9429B","title":"东北四季饺子王(武夷路店)","lon":"121.427919","lat":"31.213757","category":"82","category_name":"东北菜","address":"长宁区武夷路155号(近延安西路)"},{"poiid":"B2094757D168A1FD4298","title":"银统大厦","lon":"121.43","lat":"31.2166","category":"46","category_name":"楼宇","address":"上海市长宁区遵义南路88号"},{"poiid":"B2094752D165A0FD4398","title":"boom cafe","lon":"121.424805","lat":"31.216415","category":"247","category_name":"餐饮美食","address":"宣化路1310弄6号"},{"poiid":"B2094757D069AAFD419A","title":"润湘之(宣化路店)","lon":"121.42981","lat":"31.21727","category":"77","category_name":"湖南菜","address":"上海长宁区宣化路59号(近江苏路)"},{"poiid":"B2094757D66EA6FB409A","title":"大一夢薄皮鲷鱼烧(龙之梦店)","lon":"121.427555586","lat":"31.2154281415","category":"257","category_name":"中餐厅","address":"长宁区长宁路1018号龙之梦购物中心B2楼(近凯旋路)"},{"poiid":"B2094654D564A7FB459B","title":"凯阳大厦","lon":"121.43","lat":"31.2151","category":"46","category_name":"楼宇","address":"丰台学城海鹰路1号"},{"poiid":"B209475CDB64AAFE4192","title":"合点寿司承知之助","lon":"121.42675","lat":"31.215496","category":"247","category_name":"餐饮美食","address":"上海市 宣化路300号华宁弘基生活中心4楼"},{"poiid":"B2094654DB64A6FA429B","title":"汉庭快捷(中山公园店)","lon":"121.42794","lat":"31.2141","category":"216","category_name":"经济型连锁酒店","address":"长宁区武夷路155号(近延安西路口)"},{"poiid":"B2094757D169A0F5419D","title":"法国教育服务中心-上海中心","lon":"121.42846284","lat":"31.214718661","category":"500","category_name":"未知分类","address":"上海市长宁区武夷路155号世星大厦4楼"},{"poiid":"B2094654D565A6FD479D","title":"富都花园","lon":"121.42453","lat":"31.216513","category":"47","category_name":"住宅区","address":"富都花园位于长宁宣化路299弄1-4号"},{"poiid":"B2094654DB6BA6F8449B","title":"上海市长宁区初级职业技术学校(北门)","lon":"121.42745","lat":"31.21468","category":"678","category_name":"学校大门","address":"利西路247号"},{"poiid":"B2094655D26FA6F5479D","title":"恩巴斯桌球馆","lon":"121.42769","lat":"31.21459","category":"171","category_name":"台球厅","address":"长宁区利西路43号3楼(近江苏路)"},{"poiid":"B2094655D26DA7FF489C","title":"福世花园(南门)","lon":"121.42773","lat":"31.21538","category":"47","category_name":"住宅区","address":"安化路200弄"},{"poiid":"B2094750DA69ABFA409F","title":"舟山渔村","lon":"121.429924","lat":"31.214105","category":"75","category_name":"浙江菜","address":"长宁区延安西路1033号(近昭化路)"},{"poiid":"B2094655D26DA0FF4998","title":"利安小区(北门)","lon":"121.42712","lat":"31.215","category":"47","category_name":"住宅区","address":""},{"poiid":"B2094654D565A7FB489D","title":"利安小区","lon":"121.42716","lat":"31.214766","category":"47","category_name":"住宅区","address":"安化路231号"},{"poiid":"B2094757D16BA4FB449B","title":"友樂達台北精緻麵館","lon":"121.42709517","lat":"31.214315275","category":"247","category_name":"餐饮美食","address":"上海定西路1310弄2號"},{"poiid":"B2094757D064A5F5469C","title":"安化路","lon":"121.426094586","lat":"31.2149811328","category":"500","category_name":"未知分类","address":"上海市长宁区定西路"},{"poiid":"B2094757D068A3F8479C","title":"上海法语培训中心(武夷路校区)","lon":"121.42805","lat":"31.21352","category":"260","category_name":"其他","address":"长宁区武夷路155号2-4楼(近比利时领事馆)"},{"poiid":"B2094757D168A3FF459B","title":"福世花园","lon":"121.42772","lat":"31.215908","category":"47","category_name":"住宅区","address":"上海安化路200弄"},{"poiid":"B2094757D16EABF54998","title":"安化二中","lon":"121.42845958","lat":"31.215030133","category":"55","category_name":"中学","address":"上海安化路222号"},{"poiid":"B2094750D26AA3F9429E","title":"陈记甜品窝 宣化路店","lon":"121.42570495606","lat":"31.216875435059","category":"67","category_name":"甜品店","address":"长宁区宣化路233号(安西路口)"},{"poiid":"B2094654D565A7FA4392","title":"杏花楼(武夷路)","lon":"121.42773","lat":"31.21379","category":"112","category_name":"糕饼店","address":"长宁区武夷路155号(近延安西路)"},{"poiid":"B2094757D068A6FF469C","title":"Bill飚记面铺","lon":"121.42967","lat":"31.21737","category":"68","category_name":"快餐厅","address":"长宁区宣化路75号(近江苏路)"},{"poiid":"B2094655D265A7FF4892","title":"马普专业楼","lon":"121.42864","lat":"31.21555","category":"46","category_name":"楼宇","address":"安化路84"},{"poiid":"B2094757D16BA3FC459E","title":"园林一品","lon":"121.427649736","lat":"31.2149632662","category":"500","category_name":"未知分类","address":"上海兆丰嘉园二期"},{"poiid":"B2094654D565A7FA459E","title":"原食街饭店","lon":"121.42984","lat":"31.21379","category":"257","category_name":"中餐厅","address":"长宁区武夷路79号"},{"poiid":"B2094757D66EA3F4409D","title":"中共上海建工(集团)总公司委员会党校","lon":"121.42692458","lat":"31.214144116","category":"500","category_name":"未知分类","address":"上海市长宁区武夷路150号"},{"poiid":"B2094654D565A7FA449F","title":"世星大楼","lon":"121.42784","lat":"31.2138","category":"46","category_name":"楼宇","address":"武夷路155-1"},{"poiid":"B2094753D66BABFA4692","title":"网鱼网咖","lon":"121.426773","lat":"31.215389","category":"248","category_name":"生活娱乐","address":"上海市 长宁区 定西路"},{"poiid":"B2094757D16CAAF5439E","title":"蒋荣兴","lon":"121.425220586","lat":"31.214992133","category":"500","category_name":"未知分类","address":"长宁区安西路651号1楼(安化路口)"},{"poiid":"B209475CDA6FABF4429C","title":"重庆储香门鲜火锅","lon":"121.427307","lat":"31.213668","category":"247","category_name":"餐饮美食","address":"上海市 定西路1306号"},{"poiid":"B2094654D565A7F9419E","title":"上海建峰学院继续教育分院(武夷路)","lon":"121.4278","lat":"31.21308","category":"53","category_name":"成人教育","address":"武夷路150"},{"poiid":"B2094654D565A6FE439C","title":"南辉小区","lon":"121.42964","lat":"31.217155","category":"47","category_name":"住宅区","address":"宣化路113弄1-6,8,10,12,89,97,105,121,129,137号"},{"poiid":"B2094757DB6EAAF44798","title":"宜家","lon":"121.425454","lat":"31.214746","category":"249","category_name":"购物服务","address":"宜家"},{"poiid":"B2094654D565A7FB479E","title":"利西小区","lon":"121.42893","lat":"31.215069","category":"47","category_name":"住宅区","address":"安化路175-177"},{"poiid":"B2094757D16AA4F54293","title":"西诸安浜路","lon":"121.428630586","lat":"31.2160741542","category":"500","category_name":"未知分类","address":"上海长宁区宣化路"},{"poiid":"B2094757DA6FA2FC419B","title":"上海市皮肤病医院","lon":"121.426462000001","lat":"31.2133200000002","category":"162","category_name":"医院","address":"长宁区武夷路200号"},{"poiid":"B2094757DB68A5F5449D","title":"弄堂筵 武夷路店","lon":"121.427919","lat":"31.213757","category":"76","category_name":"上海菜","address":"长宁区武夷路155号9号楼(近延安西路)"},{"poiid":"B2094655D26BA2FC419C","title":"武夷路延安西路","lon":"121.42993","lat":"31.21363","category":"38","category_name":"公交车站","address":""},{"poiid":"B2094757D16FA5FB439B","title":"Tiramisu Italian Restaurant","lon":"121.42796058","lat":"31.217515182","category":"94","category_name":"西餐厅","address":"长宁区宣化路100号(近江苏路)"},{"poiid":"B2094757D06AA0F8449A","title":"比利时领事馆","lon":"121.428513","lat":"31.214012","category":"252","category_name":"楼宇机构","address":"上海长宁区武夷路127号"},{"poiid":"B2094757D06FA5FB4498","title":"龙峰大厦","lon":"121.427169","lat":"31.214745","category":"46","category_name":"楼宇","address":"普陀区长寿路137号(近陕西北路)"},{"poiid":"B2094757D06AA6FE4398","title":"上海质量管理科学研究院","lon":"121.425811458","lat":"31.2132286803","category":"46","category_name":"楼宇","address":"长宁区武夷路258号(近定西路)"},{"poiid":"B2094757D065A0FE4592","title":"武夷路定西路","lon":"121.42580828","lat":"31.213553304","category":"500","category_name":"未知分类","address":"上海武夷路413号"},{"poiid":"B2094655D26DA2FE419B","title":"弘基创邑国际园","lon":"121.42823","lat":"31.21826","category":"45","category_name":"产业园区","address":"长宁区愚园路1107号(近江苏路)"},{"poiid":"B2094757D569A6FF459E","title":"迎龙大厦写字楼","lon":"121.4251619","lat":"31.21624111","category":"46","category_name":"楼宇","address":"延安西路1358号"},{"poiid":"B2094654D564A7FA4392","title":"禾森商务中心","lon":"121.427","lat":"31.2145","category":"46","category_name":"楼宇","address":"闸北区江场西路38号(近共和新路)"},{"poiid":"B2094757D16CA7FB409B","title":"yue1525粤","lon":"121.42632032","lat":"31.216147429","category":"500","category_name":"未知分类","address":"上海定西路1525"},{"poiid":"B2094757D06BA4F4489E","title":"爱吃咖喱","lon":"121.426623153","lat":"31.2135507048","category":"95","category_name":"日本料理","address":"长宁区武夷路269号(安西路口)"},{"poiid":"B2094757D068ABF9429B","title":"东北四季饺子王(武夷路店)","lon":"121.427919","lat":"31.213757","category":"82","category_name":"东北菜","address":"长宁区武夷路155号(近延安西路)"},{"poiid":"B2094757D168A1FD4298","title":"银统大厦","lon":"121.43","lat":"31.2166","category":"46","category_name":"楼宇","address":"上海市长宁区遵义南路88号"},{"poiid":"B2094752D165A0FD4398","title":"boom cafe","lon":"121.424805","lat":"31.216415","category":"247","category_name":"餐饮美食","address":"宣化路1310弄6号"},{"poiid":"B2094757D069AAFD419A","title":"润湘之(宣化路店)","lon":"121.42981","lat":"31.21727","category":"77","category_name":"湖南菜","address":"上海长宁区宣化路59号(近江苏路)"},{"poiid":"B2094757D66EA6FB409A","title":"大一夢薄皮鲷鱼烧(龙之梦店)","lon":"121.427555586","lat":"31.2154281415","category":"257","category_name":"中餐厅","address":"长宁区长宁路1018号龙之梦购物中心B2楼(近凯旋路)"},{"poiid":"B2094654D564A7FB459B","title":"凯阳大厦","lon":"121.43","lat":"31.2151","category":"46","category_name":"楼宇","address":"丰台学城海鹰路1号"},{"poiid":"B209475CDB64AAFE4192","title":"合点寿司承知之助","lon":"121.42675","lat":"31.215496","category":"247","category_name":"餐饮美食","address":"上海市 宣化路300号华宁弘基生活中心4楼"},{"poiid":"B2094654DB64A6FA429B","title":"汉庭快捷(中山公园店)","lon":"121.42794","lat":"31.2141","category":"216","category_name":"经济型连锁酒店","address":"长宁区武夷路155号(近延安西路口)"},{"poiid":"B2094757D169A0F5419D","title":"法国教育服务中心-上海中心","lon":"121.42846284","lat":"31.214718661","category":"500","category_name":"未知分类","address":"上海市长宁区武夷路155号世星大厦4楼"},{"poiid":"B2094654D565A6FD479D","title":"富都花园","lon":"121.42453","lat":"31.216513","category":"47","category_name":"住宅区","address":"富都花园位于长宁宣化路299弄1-4号"},{"poiid":"B2094654DB6BA6F8449B","title":"上海市长宁区初级职业技术学校(北门)","lon":"121.42745","lat":"31.21468","category":"678","category_name":"学校大门","address":"利西路247号"},{"poiid":"B2094655D26FA6F5479D","title":"恩巴斯桌球馆","lon":"121.42769","lat":"31.21459","category":"171","category_name":"台球厅","address":"长宁区利西路43号3楼(近江苏路)"},{"poiid":"B2094655D26DA7FF489C","title":"福世花园(南门)","lon":"121.42773","lat":"31.21538","category":"47","category_name":"住宅区","address":"安化路200弄"},{"poiid":"B2094750DA69ABFA409F","title":"舟山渔村","lon":"121.429924","lat":"31.214105","category":"75","category_name":"浙江菜","address":"长宁区延安西路1033号(近昭化路)"},{"poiid":"B2094655D26DA0FF4998","title":"利安小区(北门)","lon":"121.42712","lat":"31.215","category":"47","category_name":"住宅区","address":""},{"poiid":"B2094654D565A7FB489D","title":"利安小区","lon":"121.42716","lat":"31.214766","category":"47","category_name":"住宅区","address":"安化路231号"},{"poiid":"B2094757D16BA4FB449B","title":"友樂達台北精緻麵館","lon":"121.42709517","lat":"31.214315275","category":"247","category_name":"餐饮美食","address":"上海定西路1310弄2號"},{"poiid":"B2094757D064A5F5469C","title":"安化路","lon":"121.426094586","lat":"31.2149811328","category":"500","category_name":"未知分类","address":"上海市长宁区定西路"},{"poiid":"B2094757D068A3F8479C","title":"上海法语培训中心(武夷路校区)","lon":"121.42805","lat":"31.21352","category":"260","category_name":"其他","address":"长宁区武夷路155号2-4楼(近比利时领事馆)"},{"poiid":"B2094757D168A3FF459B","title":"福世花园","lon":"121.42772","lat":"31.215908","category":"47","category_name":"住宅区","address":"上海安化路200弄"},{"poiid":"B2094757D16EABF54998","title":"安化二中","lon":"121.42845958","lat":"31.215030133","category":"55","category_name":"中学","address":"上海安化路222号"},{"poiid":"B2094750D26AA3F9429E","title":"陈记甜品窝 宣化路店","lon":"121.42570495606","lat":"31.216875435059","category":"67","category_name":"甜品店","address":"长宁区宣化路233号(安西路口)"},{"poiid":"B2094654D565A7FA4392","title":"杏花楼(武夷路)","lon":"121.42773","lat":"31.21379","category":"112","category_name":"糕饼店","address":"长宁区武夷路155号(近延安西路)"},{"poiid":"B2094757D068A6FF469C","title":"Bill飚记面铺","lon":"121.42967","lat":"31.21737","category":"68","category_name":"快餐厅","address":"长宁区宣化路75号(近江苏路)"},{"poiid":"B2094655D265A7FF4892","title":"马普专业楼","lon":"121.42864","lat":"31.21555","category":"46","category_name":"楼宇","address":"安化路84"},{"poiid":"B2094757D16BA3FC459E","title":"园林一品","lon":"121.427649736","lat":"31.2149632662","category":"500","category_name":"未知分类","address":"上海兆丰嘉园二期"},{"poiid":"B2094654D565A7FA459E","title":"原食街饭店","lon":"121.42984","lat":"31.21379","category":"257","category_name":"中餐厅","address":"长宁区武夷路79号"},{"poiid":"B2094757D66EA3F4409D","title":"中共上海建工(集团)总公司委员会党校","lon":"121.42692458","lat":"31.214144116","category":"500","category_name":"未知分类","address":"上海市长宁区武夷路150号"},{"poiid":"B2094654D565A7FA449F","title":"世星大楼","lon":"121.42784","lat":"31.2138","category":"46","category_name":"楼宇","address":"武夷路155-1"},{"poiid":"B2094753D66BABFA4692","title":"网鱼网咖","lon":"121.426773","lat":"31.215389","category":"248","category_name":"生活娱乐","address":"上海市 长宁区 定西路"},{"poiid":"B2094757D16CAAF5439E","title":"蒋荣兴","lon":"121.425220586","lat":"31.214992133","category":"500","category_name":"未知分类","address":"长宁区安西路651号1楼(安化路口)"},{"poiid":"B209475CDA6FABF4429C","title":"重庆储香门鲜火锅","lon":"121.427307","lat":"31.213668","category":"247","category_name":"餐饮美食","address":"上海市 定西路1306号"},{"poiid":"B2094654D565A7F9419E","title":"上海建峰学院继续教育分院(武夷路)","lon":"121.4278","lat":"31.21308","category":"53","category_name":"成人教育","address":"武夷路150"},{"poiid":"B2094654D565A6FE439C","title":"南辉小区","lon":"121.42964","lat":"31.217155","category":"47","category_name":"住宅区","address":"宣化路113弄1-6,8,10,12,89,97,105,121,129,137号"},{"poiid":"B2094757DB6EAAF44798","title":"宜家","lon":"121.425454","lat":"31.214746","category":"249","category_name":"购物服务","address":"宜家"},{"poiid":"B2094654D565A7FB479E","title":"利西小区","lon":"121.42893","lat":"31.215069","category":"47","category_name":"住宅区","address":"安化路175-177"},{"poiid":"B2094757D16AA4F54293","title":"西诸安浜路","lon":"121.428630586","lat":"31.2160741542","category":"500","category_name":"未知分类","address":"上海长宁区宣化路"}]