[{"poiid":"B2094654D56BA2F8439F","title":"上海市普陀区中心医院","lon":"121.40412","lat":"31.24159","category":"162","category_name":"医院","address":"普陀区兰溪路164号(梅川路口)"},{"poiid":"B2094757D06FA7F8449F","title":"曹杨第二中学","lon":"121.40096","lat":"31.23909","category":"55","category_name":"中学","address":"普陀区梅川路160号(近杨柳青路)"},{"poiid":"B2094655D26BA6FB409D","title":"国盛中心","lon":"121.402","lat":"31.2352","category":"47","category_name":"住宅区","address":"普陀区大渡河路452号"},{"poiid":"B2094655D26BA1FC429C","title":"普陀医院","lon":"121.4024","lat":"31.24318","category":"162","category_name":"医院","address":""},{"poiid":"B2094757D068A5F8409C","title":"大渡河路梅川路","lon":"121.39655","lat":"31.239981","category":"260","category_name":"其他","address":"上海大渡河路梅川路"},{"poiid":"B2094757D06FA0FB459E","title":"上味馆南翔小笼(杏山路店)","lon":"121.40339","lat":"31.23852","category":"68","category_name":"快餐厅","address":"普陀区杏山路596-598号(桂巷路口)"},{"poiid":"B2094757D068A1FD439F","title":"一品全大酒店(兰溪店)","lon":"121.40368","lat":"31.24021","category":"76","category_name":"上海菜","address":"普陀区兰溪路167号(梅川路口)"},{"poiid":"B2094757D06FA4FF439A","title":"乐天玛特(武宁路店)","lon":"121.398511","lat":"31.243815","category":"118","category_name":"超级市场","address":"普陀区武宁路768号(近杨柳青路)"},{"poiid":"B2094757D068A3F54898","title":"振鼎鸡(曹杨店)","lon":"121.40436","lat":"31.23988","category":"68","category_name":"快餐厅","address":"普陀区兰溪路140号(近曹杨商场)"},{"poiid":"B2094655D26BA1FC429D","title":"普陀医院(兰溪路梅岭北路)","lon":"121.40247","lat":"31.24229","category":"162","category_name":"医院","address":""},{"poiid":"B2094757D06FA5FA4092","title":"桂巷新村","lon":"121.39995","lat":"31.238747","category":"47","category_name":"住宅区","address":"上海杨柳青路枣阳路"},{"poiid":"B2094757D169A7FA4998","title":"曹杨三村","lon":"121.404","lat":"31.238672","category":"500","category_name":"未知分类","address":"上海市普陀区兰溪路梅岭北路"},{"poiid":"B2094655D26CAAF44098","title":"桂杨园","lon":"121.40017","lat":"31.2375","category":"47","category_name":"住宅区","address":"上海市普陀区梅川路杨柳青路"},{"poiid":"B2094757D069AAFB4799","title":"怒江苑","lon":"121.39822","lat":"31.238371","category":"47","category_name":"住宅区","address":"上海市普陀区怒江路658弄"},{"poiid":"B2094757D464AAF94393","title":"重庆鸡公煲 杨柳青路店","lon":"121.400774054","lat":"31.238543793","category":"71","category_name":"四川菜","address":"普陀区杨柳青路400号(近梅川路)"},{"poiid":"B2094654D56BA3F5459C","title":"杏杨园","lon":"121.40245","lat":"31.236704","category":"47","category_name":"住宅区","address":"杨柳青路262号"},{"poiid":"B2094654D56BA3F5489E","title":"杏园","lon":"121.40174","lat":"31.238741","category":"47","category_name":"住宅区","address":"梅川路141弄1-69号"},{"poiid":"B2094757D16FA0F5439A","title":"曹杨商务大厦","lon":"121.398","lat":"31.2411","category":"46","category_name":"楼宇","address":"上海市普陀区中江路889号"},{"poiid":"B2094757D06FA6FD4599","title":"85度C(梅川店)","lon":"121.401786","lat":"31.239912","category":"67","category_name":"甜品店","address":"普陀区梅川路步行街(老凤祥银楼旁)"},{"poiid":"B2094655D26AA7FB4893","title":"AA57U户外运动俱乐部","lon":"121.39993","lat":"31.23929","category":"247","category_name":"餐饮美食","address":"普陀区杨柳青路407号(近梅川路)"},{"poiid":"B2094655D26DA7F84098","title":"上海市曹杨第二中学(西门)","lon":"121.39979","lat":"31.24042","category":"678","category_name":"学校大门","address":""},{"poiid":"B2094757D064A1F44099","title":"超级鸡车(武宁店)","lon":"121.39957","lat":"31.24496","category":"68","category_name":"快餐厅","address":"普陀区武宁路2124号(近北石路)"},{"poiid":"B2094655D26DABFC4492","title":"桂巷新村80号-82号","lon":"121.3995","lat":"31.23991","category":"47","category_name":"住宅区","address":""},{"poiid":"B2094757D169A2F9429E","title":"周记小菜","lon":"121.40025118","lat":"31.239335809","category":"247","category_name":"餐饮美食","address":"上海汾西路平顺路"},{"poiid":"B2094757D069A5F8499E","title":"兰岭园","lon":"121.40025358","lat":"31.242192665","category":"47","category_name":"住宅区","address":"上海市普陀区兰溪路"},{"poiid":"B2094757D068ABFD449C","title":"肯德基 KFC (长征店)","lon":"121.398891","lat":"31.243681","category":"68","category_name":"快餐厅","address":"上海普陀区杨柳青路768号乐天玛特普陀店一层"},{"poiid":"B2094654DB6BA7FE489B","title":"桂巷新村78-79(东门)","lon":"121.40019","lat":"31.23903","category":"47","category_name":"住宅区","address":""},{"poiid":"B2094655D26DA5FA4899","title":"桂巷新村80号-82号(东门)","lon":"121.39967","lat":"31.23992","category":"47","category_name":"住宅区","address":""},{"poiid":"B2094757D06FA0FB459D","title":"时代超级购物中心","lon":"121.39966","lat":"31.24413","category":"119","category_name":"商场","address":"上海普陀区武宁路768号2-3楼(杨柳青路口)"},{"poiid":"B2094655D26FA6F9499B","title":"申汉大厦","lon":"121.39842953102","lat":"31.23779547992","category":"46","category_name":"楼宇","address":"金沙江路1060号"},{"poiid":"B2094757D568A7FD4498","title":"全家","lon":"121.400856","lat":"31.238538","category":"117","category_name":"便民商店/便利店","address":"梅川路149-6"},{"poiid":"B2094757D064A7FE469D","title":"毛胡子烧烤","lon":"121.40109","lat":"31.23777","category":"247","category_name":"餐饮美食","address":"上海普陀区杨柳青路(近大渡河路)  "},{"poiid":"B2094654D56BA3F54898","title":"西部秀苑","lon":"121.4015","lat":"31.23852","category":"47","category_name":"住宅区","address":"上海市普陀区杨柳青路408号"},{"poiid":"B2094654DB65A7FD4293","title":"元祖(华侨店)","lon":"121.40333","lat":"31.24074","category":"67","category_name":"甜品店","address":"普陀区兰溪路165号(近梅川路)"},{"poiid":"B2094757D06BABF44393","title":"梅川路141弄","lon":"121.399734586","lat":"31.2391136049","category":"500","category_name":"未知分类","address":"上海市普陀区梅川路141弄"},{"poiid":"B2094757D069A4FC429E","title":"吴记火锅","lon":"121.40338558","lat":"31.24040063","category":"247","category_name":"餐饮美食","address":"上海市普陀区兰溪路152号"},{"poiid":"B2094757D66CA4F5469F","title":"杨柳青路梅川路","lon":"121.399793586","lat":"31.2382715884","category":"500","category_name":"未知分类","address":"上海市普陀区梅川路"},{"poiid":"B2094654D56BA4FF409C","title":"慧鸣杂货店","lon":"121.40037","lat":"31.23854","category":"117","category_name":"便民商店/便利店","address":"杨柳青路395"},{"poiid":"B2094654D56BA2FC4099","title":"金梅园","lon":"121.40324","lat":"31.23986","category":"47","category_name":"住宅区","address":"梅川路43弄1-48号"},{"poiid":"B2094751DA6DA6F94398","title":"梅赛德斯奔驰文化中心","lon":"121.400355","lat":"31.241235","category":"500","category_name":"未知分类","address":null},{"poiid":"B2094757D069A7FE409C","title":"蒙自源云南过桥米线(武宁路店)","lon":"121.39968","lat":"31.24413","category":"68","category_name":"快餐厅","address":"普陀区武宁路768号乐天玛特购物中心1楼(近杨柳青路)"},{"poiid":"B2094654D56BA4F94298","title":"瑶成湾花园","lon":"121.3973312","lat":"31.23900032","category":"47","category_name":"住宅区","address":"瑶成湾花园位于普陀梅川路293号"},{"poiid":"B2094757D065A3F44999","title":"吉祥馄饨(曹杨店)","lon":"121.40304","lat":"31.24041","category":"68","category_name":"快餐厅","address":"普陀区梅川路23号(近兰溪路)"},{"poiid":"B2094757D06AA5FE4599","title":"宏达烧鸡 桂巷路店","lon":"121.403921054","lat":"31.239618793","category":"68","category_name":"快餐厅","address":"普陀区桂巷路8-10号(近兰溪路)"},{"poiid":"B2094757D06AA3F4499D","title":"梅川馨苑","lon":"121.3978","lat":"31.239895","category":"47","category_name":"住宅区","address":"上海梅川路278弄"},{"poiid":"B2094654D56BA2F94798","title":"上海中医药大学附属普陀医院","lon":"121.40412","lat":"31.24158","category":"162","category_name":"医院","address":"梅岭北路409号"},{"poiid":"B2094654D56BA3F5489A","title":"EF英孚教育青少儿英语(中环百联中心)","lon":"121.40099","lat":"31.23867","category":"190","category_name":"培训机构","address":"上海市普陀区梅川路1297号-1301号2至3楼"},{"poiid":"B2094655D26DA7FF479E","title":"桂杨园东门(慧彬商务楼北)","lon":"121.40075","lat":"31.2379","category":"47","category_name":"住宅区","address":""},{"poiid":"B2094757D165A4F5499E","title":"洋食铺","lon":"121.40417058","lat":"31.239038603","category":"68","category_name":"快餐厅","address":"普陀区桂巷路47号(近兰溪路)"},{"poiid":"B2094655D26DA7FF459C","title":"梅川馨苑(南门)","lon":"121.39768","lat":"31.23932","category":"47","category_name":"住宅区","address":"梅川路278弄1-44号"},{"poiid":"B2094654D56BA2F8439F","title":"上海市普陀区中心医院","lon":"121.40412","lat":"31.24159","category":"162","category_name":"医院","address":"普陀区兰溪路164号(梅川路口)"},{"poiid":"B2094757D06FA7F8449F","title":"曹杨第二中学","lon":"121.40096","lat":"31.23909","category":"55","category_name":"中学","address":"普陀区梅川路160号(近杨柳青路)"},{"poiid":"B2094655D26BA6FB409D","title":"国盛中心","lon":"121.402","lat":"31.2352","category":"47","category_name":"住宅区","address":"普陀区大渡河路452号"},{"poiid":"B2094655D26BA1FC429C","title":"普陀医院","lon":"121.4024","lat":"31.24318","category":"162","category_name":"医院","address":""},{"poiid":"B2094757D068A5F8409C","title":"大渡河路梅川路","lon":"121.39655","lat":"31.239981","category":"260","category_name":"其他","address":"上海大渡河路梅川路"},{"poiid":"B2094757D06FA0FB459E","title":"上味馆南翔小笼(杏山路店)","lon":"121.40339","lat":"31.23852","category":"68","category_name":"快餐厅","address":"普陀区杏山路596-598号(桂巷路口)"},{"poiid":"B2094757D068A1FD439F","title":"一品全大酒店(兰溪店)","lon":"121.40368","lat":"31.24021","category":"76","category_name":"上海菜","address":"普陀区兰溪路167号(梅川路口)"},{"poiid":"B2094757D06FA4FF439A","title":"乐天玛特(武宁路店)","lon":"121.398511","lat":"31.243815","category":"118","category_name":"超级市场","address":"普陀区武宁路768号(近杨柳青路)"},{"poiid":"B2094757D068A3F54898","title":"振鼎鸡(曹杨店)","lon":"121.40436","lat":"31.23988","category":"68","category_name":"快餐厅","address":"普陀区兰溪路140号(近曹杨商场)"},{"poiid":"B2094655D26BA1FC429D","title":"普陀医院(兰溪路梅岭北路)","lon":"121.40247","lat":"31.24229","category":"162","category_name":"医院","address":""},{"poiid":"B2094757D06FA5FA4092","title":"桂巷新村","lon":"121.39995","lat":"31.238747","category":"47","category_name":"住宅区","address":"上海杨柳青路枣阳路"},{"poiid":"B2094757D169A7FA4998","title":"曹杨三村","lon":"121.404","lat":"31.238672","category":"500","category_name":"未知分类","address":"上海市普陀区兰溪路梅岭北路"},{"poiid":"B2094655D26CAAF44098","title":"桂杨园","lon":"121.40017","lat":"31.2375","category":"47","category_name":"住宅区","address":"上海市普陀区梅川路杨柳青路"},{"poiid":"B2094757D069AAFB4799","title":"怒江苑","lon":"121.39822","lat":"31.238371","category":"47","category_name":"住宅区","address":"上海市普陀区怒江路658弄"},{"poiid":"B2094757D464AAF94393","title":"重庆鸡公煲 杨柳青路店","lon":"121.400774054","lat":"31.238543793","category":"71","category_name":"四川菜","address":"普陀区杨柳青路400号(近梅川路)"},{"poiid":"B2094654D56BA3F5459C","title":"杏杨园","lon":"121.40245","lat":"31.236704","category":"47","category_name":"住宅区","address":"杨柳青路262号"},{"poiid":"B2094654D56BA3F5489E","title":"杏园","lon":"121.40174","lat":"31.238741","category":"47","category_name":"住宅区","address":"梅川路141弄1-69号"},{"poiid":"B2094757D16FA0F5439A","title":"曹杨商务大厦","lon":"121.398","lat":"31.2411","category":"46","category_name":"楼宇","address":"上海市普陀区中江路889号"},{"poiid":"B2094757D06FA6FD4599","title":"85度C(梅川店)","lon":"121.401786","lat":"31.239912","category":"67","category_name":"甜品店","address":"普陀区梅川路步行街(老凤祥银楼旁)"},{"poiid":"B2094655D26AA7FB4893","title":"AA57U户外运动俱乐部","lon":"121.39993","lat":"31.23929","category":"247","category_name":"餐饮美食","address":"普陀区杨柳青路407号(近梅川路)"},{"poiid":"B2094655D26DA7F84098","title":"上海市曹杨第二中学(西门)","lon":"121.39979","lat":"31.24042","category":"678","category_name":"学校大门","address":""},{"poiid":"B2094757D064A1F44099","title":"超级鸡车(武宁店)","lon":"121.39957","lat":"31.24496","category":"68","category_name":"快餐厅","address":"普陀区武宁路2124号(近北石路)"},{"poiid":"B2094655D26DABFC4492","title":"桂巷新村80号-82号","lon":"121.3995","lat":"31.23991","category":"47","category_name":"住宅区","address":""},{"poiid":"B2094757D169A2F9429E","title":"周记小菜","lon":"121.40025118","lat":"31.239335809","category":"247","category_name":"餐饮美食","address":"上海汾西路平顺路"},{"poiid":"B2094757D069A5F8499E","title":"兰岭园","lon":"121.40025358","lat":"31.242192665","category":"47","category_name":"住宅区","address":"上海市普陀区兰溪路"},{"poiid":"B2094757D068ABFD449C","title":"肯德基 KFC (长征店)","lon":"121.398891","lat":"31.243681","category":"68","category_name":"快餐厅","address":"上海普陀区杨柳青路768号乐天玛特普陀店一层"},{"poiid":"B2094654DB6BA7FE489B","title":"桂巷新村78-79(东门)","lon":"121.40019","lat":"31.23903","category":"47","category_name":"住宅区","address":""},{"poiid":"B2094655D26DA5FA4899","title":"桂巷新村80号-82号(东门)","lon":"121.39967","lat":"31.23992","category":"47","category_name":"住宅区","address":""},{"poiid":"B2094757D06FA0FB459D","title":"时代超级购物中心","lon":"121.39966","lat":"31.24413","category":"119","category_name":"商场","address":"上海普陀区武宁路768号2-3楼(杨柳青路口)"},{"poiid":"B2094655D26FA6F9499B","title":"申汉大厦","lon":"121.39842953102","lat":"31.23779547992","category":"46","category_name":"楼宇","address":"金沙江路1060号"},{"poiid":"B2094757D568A7FD4498","title":"全家","lon":"121.400856","lat":"31.238538","category":"117","category_name":"便民商店/便利店","address":"梅川路149-6"},{"poiid":"B2094757D064A7FE469D","title":"毛胡子烧烤","lon":"121.40109","lat":"31.23777","category":"247","category_name":"餐饮美食","address":"上海普陀区杨柳青路(近大渡河路)  "},{"poiid":"B2094654D56BA3F54898","title":"西部秀苑","lon":"121.4015","lat":"31.23852","category":"47","category_name":"住宅区","address":"上海市普陀区杨柳青路408号"},{"poiid":"B2094654DB65A7FD4293","title":"元祖(华侨店)","lon":"121.40333","lat":"31.24074","category":"67","category_name":"甜品店","address":"普陀区兰溪路165号(近梅川路)"},{"poiid":"B2094757D06BABF44393","title":"梅川路141弄","lon":"121.399734586","lat":"31.2391136049","category":"500","category_name":"未知分类","address":"上海市普陀区梅川路141弄"},{"poiid":"B2094757D069A4FC429E","title":"吴记火锅","lon":"121.40338558","lat":"31.24040063","category":"247","category_name":"餐饮美食","address":"上海市普陀区兰溪路152号"},{"poiid":"B2094757D66CA4F5469F","title":"杨柳青路梅川路","lon":"121.399793586","lat":"31.2382715884","category":"500","category_name":"未知分类","address":"上海市普陀区梅川路"},{"poiid":"B2094654D56BA4FF409C","title":"慧鸣杂货店","lon":"121.40037","lat":"31.23854","category":"117","category_name":"便民商店/便利店","address":"杨柳青路395"},{"poiid":"B2094654D56BA2FC4099","title":"金梅园","lon":"121.40324","lat":"31.23986","category":"47","category_name":"住宅区","address":"梅川路43弄1-48号"},{"poiid":"B2094751DA6DA6F94398","title":"梅赛德斯奔驰文化中心","lon":"121.400355","lat":"31.241235","category":"500","category_name":"未知分类","address":null},{"poiid":"B2094757D069A7FE409C","title":"蒙自源云南过桥米线(武宁路店)","lon":"121.39968","lat":"31.24413","category":"68","category_name":"快餐厅","address":"普陀区武宁路768号乐天玛特购物中心1楼(近杨柳青路)"},{"poiid":"B2094654D56BA4F94298","title":"瑶成湾花园","lon":"121.3973312","lat":"31.23900032","category":"47","category_name":"住宅区","address":"瑶成湾花园位于普陀梅川路293号"},{"poiid":"B2094757D065A3F44999","title":"吉祥馄饨(曹杨店)","lon":"121.40304","lat":"31.24041","category":"68","category_name":"快餐厅","address":"普陀区梅川路23号(近兰溪路)"},{"poiid":"B2094757D06AA5FE4599","title":"宏达烧鸡 桂巷路店","lon":"121.403921054","lat":"31.239618793","category":"68","category_name":"快餐厅","address":"普陀区桂巷路8-10号(近兰溪路)"},{"poiid":"B2094757D06AA3F4499D","title":"梅川馨苑","lon":"121.3978","lat":"31.239895","category":"47","category_name":"住宅区","address":"上海梅川路278弄"},{"poiid":"B2094654D56BA2F94798","title":"上海中医药大学附属普陀医院","lon":"121.40412","lat":"31.24158","category":"162","category_name":"医院","address":"梅岭北路409号"},{"poiid":"B2094654D56BA3F5489A","title":"EF英孚教育青少儿英语(中环百联中心)","lon":"121.40099","lat":"31.23867","category":"190","category_name":"培训机构","address":"上海市普陀区梅川路1297号-1301号2至3楼"},{"poiid":"B2094655D26DA7FF479E","title":"桂杨园东门(慧彬商务楼北)","lon":"121.40075","lat":"31.2379","category":"47","category_name":"住宅区","address":""},{"poiid":"B2094757D165A4F5499E","title":"洋食铺","lon":"121.40417058","lat":"31.239038603","category":"68","category_name":"快餐厅","address":"普陀区桂巷路47号(近兰溪路)"},{"poiid":"B2094655D26DA7FF459C","title":"梅川馨苑(南门)","lon":"121.39768","lat":"31.23932","category":"47","category_name":"住宅区","address":"梅川路278弄1-44号"},{"poiid":"B2094654D56BA2F8439F","title":"上海市普陀区中心医院","lon":"121.40412","lat":"31.24159","category":"162","category_name":"医院","address":"普陀区兰溪路164号(梅川路口)"},{"poiid":"B2094757D06FA7F8449F","title":"曹杨第二中学","lon":"121.40096","lat":"31.23909","category":"55","category_name":"中学","address":"普陀区梅川路160号(近杨柳青路)"},{"poiid":"B2094655D26BA6FB409D","title":"国盛中心","lon":"121.402","lat":"31.2352","category":"47","category_name":"住宅区","address":"普陀区大渡河路452号"},{"poiid":"B2094655D26BA1FC429C","title":"普陀医院","lon":"121.4024","lat":"31.24318","category":"162","category_name":"医院","address":""},{"poiid":"B2094757D068A5F8409C","title":"大渡河路梅川路","lon":"121.39655","lat":"31.239981","category":"260","category_name":"其他","address":"上海大渡河路梅川路"},{"poiid":"B2094757D06FA0FB459E","title":"上味馆南翔小笼(杏山路店)","lon":"121.40339","lat":"31.23852","category":"68","category_name":"快餐厅","address":"普陀区杏山路596-598号(桂巷路口)"},{"poiid":"B2094757D068A1FD439F","title":"一品全大酒店(兰溪店)","lon":"121.40368","lat":"31.24021","category":"76","category_name":"上海菜","address":"普陀区兰溪路167号(梅川路口)"},{"poiid":"B2094757D06FA4FF439A","title":"乐天玛特(武宁路店)","lon":"121.398511","lat":"31.243815","category":"118","category_name":"超级市场","address":"普陀区武宁路768号(近杨柳青路)"},{"poiid":"B2094757D068A3F54898","title":"振鼎鸡(曹杨店)","lon":"121.40436","lat":"31.23988","category":"68","category_name":"快餐厅","address":"普陀区兰溪路140号(近曹杨商场)"},{"poiid":"B2094655D26BA1FC429D","title":"普陀医院(兰溪路梅岭北路)","lon":"121.40247","lat":"31.24229","category":"162","category_name":"医院","address":""},{"poiid":"B2094757D06FA5FA4092","title":"桂巷新村","lon":"121.39995","lat":"31.238747","category":"47","category_name":"住宅区","address":"上海杨柳青路枣阳路"},{"poiid":"B2094757D169A7FA4998","title":"曹杨三村","lon":"121.404","lat":"31.238672","category":"500","category_name":"未知分类","address":"上海市普陀区兰溪路梅岭北路"},{"poiid":"B2094655D26CAAF44098","title":"桂杨园","lon":"121.40017","lat":"31.2375","category":"47","category_name":"住宅区","address":"上海市普陀区梅川路杨柳青路"},{"poiid":"B2094757D069AAFB4799","title":"怒江苑","lon":"121.39822","lat":"31.238371","category":"47","category_name":"住宅区","address":"上海市普陀区怒江路658弄"},{"poiid":"B2094757D464AAF94393","title":"重庆鸡公煲 杨柳青路店","lon":"121.400774054","lat":"31.238543793","category":"71","category_name":"四川菜","address":"普陀区杨柳青路400号(近梅川路)"},{"poiid":"B2094654D56BA3F5459C","title":"杏杨园","lon":"121.40245","lat":"31.236704","category":"47","category_name":"住宅区","address":"杨柳青路262号"},{"poiid":"B2094654D56BA3F5489E","title":"杏园","lon":"121.40174","lat":"31.238741","category":"47","category_name":"住宅区","address":"梅川路141弄1-69号"},{"poiid":"B2094757D16FA0F5439A","title":"曹杨商务大厦","lon":"121.398","lat":"31.2411","category":"46","category_name":"楼宇","address":"上海市普陀区中江路889号"},{"poiid":"B2094757D06FA6FD4599","title":"85度C(梅川店)","lon":"121.401786","lat":"31.239912","category":"67","category_name":"甜品店","address":"普陀区梅川路步行街(老凤祥银楼旁)"},{"poiid":"B2094655D26AA7FB4893","title":"AA57U户外运动俱乐部","lon":"121.39993","lat":"31.23929","category":"247","category_name":"餐饮美食","address":"普陀区杨柳青路407号(近梅川路)"},{"poiid":"B2094655D26DA7F84098","title":"上海市曹杨第二中学(西门)","lon":"121.39979","lat":"31.24042","category":"678","category_name":"学校大门","address":""},{"poiid":"B2094757D064A1F44099","title":"超级鸡车(武宁店)","lon":"121.39957","lat":"31.24496","category":"68","category_name":"快餐厅","address":"普陀区武宁路2124号(近北石路)"},{"poiid":"B2094655D26DABFC4492","title":"桂巷新村80号-82号","lon":"121.3995","lat":"31.23991","category":"47","category_name":"住宅区","address":""},{"poiid":"B2094757D169A2F9429E","title":"周记小菜","lon":"121.40025118","lat":"31.239335809","category":"247","category_name":"餐饮美食","address":"上海汾西路平顺路"},{"poiid":"B2094757D069A5F8499E","title":"兰岭园","lon":"121.40025358","lat":"31.242192665","category":"47","category_name":"住宅区","address":"上海市普陀区兰溪路"},{"poiid":"B2094757D068ABFD449C","title":"肯德基 KFC (长征店)","lon":"121.398891","lat":"31.243681","category":"68","category_name":"快餐厅","address":"上海普陀区杨柳青路768号乐天玛特普陀店一层"},{"poiid":"B2094654DB6BA7FE489B","title":"桂巷新村78-79(东门)","lon":"121.40019","lat":"31.23903","category":"47","category_name":"住宅区","address":""},{"poiid":"B2094655D26DA5FA4899","title":"桂巷新村80号-82号(东门)","lon":"121.39967","lat":"31.23992","category":"47","category_name":"住宅区","address":""},{"poiid":"B2094757D06FA0FB459D","title":"时代超级购物中心","lon":"121.39966","lat":"31.24413","category":"119","category_name":"商场","address":"上海普陀区武宁路768号2-3楼(杨柳青路口)"},{"poiid":"B2094655D26FA6F9499B","title":"申汉大厦","lon":"121.39842953102","lat":"31.23779547992","category":"46","category_name":"楼宇","address":"金沙江路1060号"},{"poiid":"B2094757D568A7FD4498","title":"全家","lon":"121.400856","lat":"31.238538","category":"117","category_name":"便民商店/便利店","address":"梅川路149-6"},{"poiid":"B2094757D064A7FE469D","title":"毛胡子烧烤","lon":"121.40109","lat":"31.23777","category":"247","category_name":"餐饮美食","address":"上海普陀区杨柳青路(近大渡河路)  "},{"poiid":"B2094654D56BA3F54898","title":"西部秀苑","lon":"121.4015","lat":"31.23852","category":"47","category_name":"住宅区","address":"上海市普陀区杨柳青路408号"},{"poiid":"B2094654DB65A7FD4293","title":"元祖(华侨店)","lon":"121.40333","lat":"31.24074","category":"67","category_name":"甜品店","address":"普陀区兰溪路165号(近梅川路)"},{"poiid":"B2094757D06BABF44393","title":"梅川路141弄","lon":"121.399734586","lat":"31.2391136049","category":"500","category_name":"未知分类","address":"上海市普陀区梅川路141弄"},{"poiid":"B2094757D069A4FC429E","title":"吴记火锅","lon":"121.40338558","lat":"31.24040063","category":"247","category_name":"餐饮美食","address":"上海市普陀区兰溪路152号"},{"poiid":"B2094757D66CA4F5469F","title":"杨柳青路梅川路","lon":"121.399793586","lat":"31.2382715884","category":"500","category_name":"未知分类","address":"上海市普陀区梅川路"},{"poiid":"B2094654D56BA4FF409C","title":"慧鸣杂货店","lon":"121.40037","lat":"31.23854","category":"117","category_name":"便民商店/便利店","address":"杨柳青路395"},{"poiid":"B2094654D56BA2FC4099","title":"金梅园","lon":"121.40324","lat":"31.23986","category":"47","category_name":"住宅区","address":"梅川路43弄1-48号"},{"poiid":"B2094751DA6DA6F94398","title":"梅赛德斯奔驰文化中心","lon":"121.400355","lat":"31.241235","category":"500","category_name":"未知分类","address":null},{"poiid":"B2094757D069A7FE409C","title":"蒙自源云南过桥米线(武宁路店)","lon":"121.39968","lat":"31.24413","category":"68","category_name":"快餐厅","address":"普陀区武宁路768号乐天玛特购物中心1楼(近杨柳青路)"},{"poiid":"B2094654D56BA4F94298","title":"瑶成湾花园","lon":"121.3973312","lat":"31.23900032","category":"47","category_name":"住宅区","address":"瑶成湾花园位于普陀梅川路293号"},{"poiid":"B2094757D065A3F44999","title":"吉祥馄饨(曹杨店)","lon":"121.40304","lat":"31.24041","category":"68","category_name":"快餐厅","address":"普陀区梅川路23号(近兰溪路)"},{"poiid":"B2094757D06AA5FE4599","title":"宏达烧鸡 桂巷路店","lon":"121.403921054","lat":"31.239618793","category":"68","category_name":"快餐厅","address":"普陀区桂巷路8-10号(近兰溪路)"},{"poiid":"B2094757D06AA3F4499D","title":"梅川馨苑","lon":"121.3978","lat":"31.239895","category":"47","category_name":"住宅区","address":"上海梅川路278弄"},{"poiid":"B2094654D56BA2F94798","title":"上海中医药大学附属普陀医院","lon":"121.40412","lat":"31.24158","category":"162","category_name":"医院","address":"梅岭北路409号"},{"poiid":"B2094654D56BA3F5489A","title":"EF英孚教育青少儿英语(中环百联中心)","lon":"121.40099","lat":"31.23867","category":"190","category_name":"培训机构","address":"上海市普陀区梅川路1297号-1301号2至3楼"},{"poiid":"B2094655D26DA7FF479E","title":"桂杨园东门(慧彬商务楼北)","lon":"121.40075","lat":"31.2379","category":"47","category_name":"住宅区","address":""},{"poiid":"B2094757D165A4F5499E","title":"洋食铺","lon":"121.40417058","lat":"31.239038603","category":"68","category_name":"快餐厅","address":"普陀区桂巷路47号(近兰溪路)"},{"poiid":"B2094655D26DA7FF459C","title":"梅川馨苑(南门)","lon":"121.39768","lat":"31.23932","category":"47","category_name":"住宅区","address":"梅川路278弄1-44号"},{"poiid":"B2094654D56BA2F8439F","title":"上海市普陀区中心医院","lon":"121.40412","lat":"31.24159","category":"162","category_name":"医院","address":"普陀区兰溪路164号(梅川路口)"},{"poiid":"B2094757D06FA7F8449F","title":"曹杨第二中学","lon":"121.40096","lat":"31.23909","category":"55","category_name":"中学","address":"普陀区梅川路160号(近杨柳青路)"},{"poiid":"B2094655D26BA6FB409D","title":"国盛中心","lon":"121.402","lat":"31.2352","category":"47","category_name":"住宅区","address":"普陀区大渡河路452号"},{"poiid":"B2094655D26BA1FC429C","title":"普陀医院","lon":"121.4024","lat":"31.24318","category":"162","category_name":"医院","address":""},{"poiid":"B2094757D068A5F8409C","title":"大渡河路梅川路","lon":"121.39655","lat":"31.239981","category":"260","category_name":"其他","address":"上海大渡河路梅川路"},{"poiid":"B2094757D06FA0FB459E","title":"上味馆南翔小笼(杏山路店)","lon":"121.40339","lat":"31.23852","category":"68","category_name":"快餐厅","address":"普陀区杏山路596-598号(桂巷路口)"},{"poiid":"B2094757D068A1FD439F","title":"一品全大酒店(兰溪店)","lon":"121.40368","lat":"31.24021","category":"76","category_name":"上海菜","address":"普陀区兰溪路167号(梅川路口)"},{"poiid":"B2094757D06FA4FF439A","title":"乐天玛特(武宁路店)","lon":"121.398511","lat":"31.243815","category":"118","category_name":"超级市场","address":"普陀区武宁路768号(近杨柳青路)"},{"poiid":"B2094757D068A3F54898","title":"振鼎鸡(曹杨店)","lon":"121.40436","lat":"31.23988","category":"68","category_name":"快餐厅","address":"普陀区兰溪路140号(近曹杨商场)"},{"poiid":"B2094655D26BA1FC429D","title":"普陀医院(兰溪路梅岭北路)","lon":"121.40247","lat":"31.24229","category":"162","category_name":"医院","address":""},{"poiid":"B2094757D06FA5FA4092","title":"桂巷新村","lon":"121.39995","lat":"31.238747","category":"47","category_name":"住宅区","address":"上海杨柳青路枣阳路"},{"poiid":"B2094757D169A7FA4998","title":"曹杨三村","lon":"121.404","lat":"31.238672","category":"500","category_name":"未知分类","address":"上海市普陀区兰溪路梅岭北路"},{"poiid":"B2094655D26CAAF44098","title":"桂杨园","lon":"121.40017","lat":"31.2375","category":"47","category_name":"住宅区","address":"上海市普陀区梅川路杨柳青路"},{"poiid":"B2094757D069AAFB4799","title":"怒江苑","lon":"121.39822","lat":"31.238371","category":"47","category_name":"住宅区","address":"上海市普陀区怒江路658弄"},{"poiid":"B2094757D464AAF94393","title":"重庆鸡公煲 杨柳青路店","lon":"121.400774054","lat":"31.238543793","category":"71","category_name":"四川菜","address":"普陀区杨柳青路400号(近梅川路)"},{"poiid":"B2094654D56BA3F5459C","title":"杏杨园","lon":"121.40245","lat":"31.236704","category":"47","category_name":"住宅区","address":"杨柳青路262号"},{"poiid":"B2094654D56BA3F5489E","title":"杏园","lon":"121.40174","lat":"31.238741","category":"47","category_name":"住宅区","address":"梅川路141弄1-69号"},{"poiid":"B2094757D16FA0F5439A","title":"曹杨商务大厦","lon":"121.398","lat":"31.2411","category":"46","category_name":"楼宇","address":"上海市普陀区中江路889号"},{"poiid":"B2094757D06FA6FD4599","title":"85度C(梅川店)","lon":"121.401786","lat":"31.239912","category":"67","category_name":"甜品店","address":"普陀区梅川路步行街(老凤祥银楼旁)"},{"poiid":"B2094655D26AA7FB4893","title":"AA57U户外运动俱乐部","lon":"121.39993","lat":"31.23929","category":"247","category_name":"餐饮美食","address":"普陀区杨柳青路407号(近梅川路)"},{"poiid":"B2094655D26DA7F84098","title":"上海市曹杨第二中学(西门)","lon":"121.39979","lat":"31.24042","category":"678","category_name":"学校大门","address":""},{"poiid":"B2094757D064A1F44099","title":"超级鸡车(武宁店)","lon":"121.39957","lat":"31.24496","category":"68","category_name":"快餐厅","address":"普陀区武宁路2124号(近北石路)"},{"poiid":"B2094655D26DABFC4492","title":"桂巷新村80号-82号","lon":"121.3995","lat":"31.23991","category":"47","category_name":"住宅区","address":""},{"poiid":"B2094757D169A2F9429E","title":"周记小菜","lon":"121.40025118","lat":"31.239335809","category":"247","category_name":"餐饮美食","address":"上海汾西路平顺路"},{"poiid":"B2094757D069A5F8499E","title":"兰岭园","lon":"121.40025358","lat":"31.242192665","category":"47","category_name":"住宅区","address":"上海市普陀区兰溪路"},{"poiid":"B2094757D068ABFD449C","title":"肯德基 KFC (长征店)","lon":"121.398891","lat":"31.243681","category":"68","category_name":"快餐厅","address":"上海普陀区杨柳青路768号乐天玛特普陀店一层"},{"poiid":"B2094654DB6BA7FE489B","title":"桂巷新村78-79(东门)","lon":"121.40019","lat":"31.23903","category":"47","category_name":"住宅区","address":""},{"poiid":"B2094655D26DA5FA4899","title":"桂巷新村80号-82号(东门)","lon":"121.39967","lat":"31.23992","category":"47","category_name":"住宅区","address":""},{"poiid":"B2094757D06FA0FB459D","title":"时代超级购物中心","lon":"121.39966","lat":"31.24413","category":"119","category_name":"商场","address":"上海普陀区武宁路768号2-3楼(杨柳青路口)"},{"poiid":"B2094655D26FA6F9499B","title":"申汉大厦","lon":"121.39842953102","lat":"31.23779547992","category":"46","category_name":"楼宇","address":"金沙江路1060号"},{"poiid":"B2094757D568A7FD4498","title":"全家","lon":"121.400856","lat":"31.238538","category":"117","category_name":"便民商店/便利店","address":"梅川路149-6"},{"poiid":"B2094757D064A7FE469D","title":"毛胡子烧烤","lon":"121.40109","lat":"31.23777","category":"247","category_name":"餐饮美食","address":"上海普陀区杨柳青路(近大渡河路)  "},{"poiid":"B2094654D56BA3F54898","title":"西部秀苑","lon":"121.4015","lat":"31.23852","category":"47","category_name":"住宅区","address":"上海市普陀区杨柳青路408号"},{"poiid":"B2094654DB65A7FD4293","title":"元祖(华侨店)","lon":"121.40333","lat":"31.24074","category":"67","category_name":"甜品店","address":"普陀区兰溪路165号(近梅川路)"},{"poiid":"B2094757D06BABF44393","title":"梅川路141弄","lon":"121.399734586","lat":"31.2391136049","category":"500","category_name":"未知分类","address":"上海市普陀区梅川路141弄"},{"poiid":"B2094757D069A4FC429E","title":"吴记火锅","lon":"121.40338558","lat":"31.24040063","category":"247","category_name":"餐饮美食","address":"上海市普陀区兰溪路152号"},{"poiid":"B2094757D66CA4F5469F","title":"杨柳青路梅川路","lon":"121.399793586","lat":"31.2382715884","category":"500","category_name":"未知分类","address":"上海市普陀区梅川路"},{"poiid":"B2094654D56BA4FF409C","title":"慧鸣杂货店","lon":"121.40037","lat":"31.23854","category":"117","category_name":"便民商店/便利店","address":"杨柳青路395"},{"poiid":"B2094654D56BA2FC4099","title":"金梅园","lon":"121.40324","lat":"31.23986","category":"47","category_name":"住宅区","address":"梅川路43弄1-48号"},{"poiid":"B2094751DA6DA6F94398","title":"梅赛德斯奔驰文化中心","lon":"121.400355","lat":"31.241235","category":"500","category_name":"未知分类","address":null},{"poiid":"B2094757D069A7FE409C","title":"蒙自源云南过桥米线(武宁路店)","lon":"121.39968","lat":"31.24413","category":"68","category_name":"快餐厅","address":"普陀区武宁路768号乐天玛特购物中心1楼(近杨柳青路)"},{"poiid":"B2094654D56BA4F94298","title":"瑶成湾花园","lon":"121.3973312","lat":"31.23900032","category":"47","category_name":"住宅区","address":"瑶成湾花园位于普陀梅川路293号"},{"poiid":"B2094757D065A3F44999","title":"吉祥馄饨(曹杨店)","lon":"121.40304","lat":"31.24041","category":"68","category_name":"快餐厅","address":"普陀区梅川路23号(近兰溪路)"},{"poiid":"B2094757D06AA5FE4599","title":"宏达烧鸡 桂巷路店","lon":"121.403921054","lat":"31.239618793","category":"68","category_name":"快餐厅","address":"普陀区桂巷路8-10号(近兰溪路)"},{"poiid":"B2094757D06AA3F4499D","title":"梅川馨苑","lon":"121.3978","lat":"31.239895","category":"47","category_name":"住宅区","address":"上海梅川路278弄"},{"poiid":"B2094654D56BA2F94798","title":"上海中医药大学附属普陀医院","lon":"121.40412","lat":"31.24158","category":"162","category_name":"医院","address":"梅岭北路409号"},{"poiid":"B2094654D56BA3F5489A","title":"EF英孚教育青少儿英语(中环百联中心)","lon":"121.40099","lat":"31.23867","category":"190","category_name":"培训机构","address":"上海市普陀区梅川路1297号-1301号2至3楼"},{"poiid":"B2094655D26DA7FF479E","title":"桂杨园东门(慧彬商务楼北)","lon":"121.40075","lat":"31.2379","category":"47","category_name":"住宅区","address":""},{"poiid":"B2094757D165A4F5499E","title":"洋食铺","lon":"121.40417058","lat":"31.239038603","category":"68","category_name":"快餐厅","address":"普陀区桂巷路47号(近兰溪路)"},{"poiid":"B2094655D26DA7FF459C","title":"梅川馨苑(南门)","lon":"121.39768","lat":"31.23932","category":"47","category_name":"住宅区","address":"梅川路278弄1-44号"}]