[{"poiid":"B2094757D068A3FC499F","title":"外滩6号","lon":"121.49022765","lat":"31.235021152","category":"119","category_name":"商场","address":"上海外滩六号"},{"poiid":"B2094654DA6FAAFC499F","title":"黄浦区中心医院","lon":"121.48899","lat":"31.23428","category":"162","category_name":"医院","address":"黄浦区四川中路109号(近广东路)"},{"poiid":"B2094750D364A0FF429A","title":"外滩18号Bund18","lon":"121.49013","lat":"31.23594","category":"119","category_name":"商场","address":"中山东一路18号"},{"poiid":"B209475CD564A7F84292","title":"上海滩新天地店","lon":"121.47463","lat":"31.22164","category":"119","category_name":"商场","address":"\"太仓路181弄新天地北里15号\r\n\""},{"poiid":"B209475CD564A7F84392","title":"上海滩浦东香格里拉店","lon":"121.50058","lat":"31.23634","category":"119","category_name":"商场","address":"浦东富成路33号香格里拉酒店内大堂层"},{"poiid":"B2094757D068A2FC4893","title":"外滩海关大钟","lon":"121.490005","lat":"31.236592","category":"500","category_name":"未知分类","address":"上海中山东一路13号"},{"poiid":"B2094654DA6FAAFD449E","title":"船长青年酒店","lon":"121.48965","lat":"31.23539","category":"250","category_name":"公园户外","address":"黄浦区福州路37号(近四川中路)"},{"poiid":"B2094655D26EA2F5479B","title":"海关大楼","lon":"121.49002","lat":"31.23668","category":"46","category_name":"楼宇","address":"鲁尔大厦位于铁西兴华南街5号"},{"poiid":"B2094757D068A2F4459A","title":"船长酒吧","lon":"121.49016","lat":"31.23529","category":"260","category_name":"其他","address":"黄浦区福州路37号船长酒店6搂(近中山东一路)"},{"poiid":"B2094757D06FAAFC419B","title":"猫的天空之城概念书店","lon":"121.489654","lat":"31.235389","category":"260","category_name":"其他","address":"黄浦区福州路37号船长青年酒店1楼(近中山东一路)"},{"poiid":"B2094757D06FABFF479B","title":"新城饭店","lon":"121.4878","lat":"31.23495","category":"216","category_name":"经济型连锁酒店","address":"黄浦区江西中路180号(近福州路)"},{"poiid":"B2094757D06AA1F4489F","title":"上海姥姥 原吉禾餐饮","lon":"121.48908099613","lat":"31.235419801894","category":"76","category_name":"上海菜","address":"黄浦区福州路70号(近四川中路永和豆浆对面)"},{"poiid":"B2094757D065AAFC459B","title":"赤板亭(名人大厦)","lon":"121.489254138","lat":"31.2339395791","category":"500","category_name":"未知分类","address":"上海南京路步行街"},{"poiid":"B2094757D068A1F8449B","title":"House of Blues & Jazz","lon":"121.4892425","lat":"31.235561077","category":"172","category_name":"酒吧","address":"上海市黄浦区福州路60号(近四川中路)"},{"poiid":"B2094757D068A0F5439E","title":"上海国际商品拍卖有限公司","lon":"121.488583332","lat":"31.2353396094","category":"46","category_name":"楼宇","address":"黄浦区福州路108号(近四川中路)"},{"poiid":"B2094757D16BABFD4593","title":"麦当劳","lon":"121.48739973","lat":"31.235250407","category":"500","category_name":"未知分类","address":"上海市黄浦区南京路步行街"},{"poiid":"B2094757D06FA6F9459A","title":"米氏西餐厅","lon":"121.48839983","lat":"31.235365447","category":"94","category_name":"西餐厅","address":"黄浦区广东路20号外滩5号7楼(近中山东一路)"},{"poiid":"B2094757D06FAAF84399","title":"申鑫大厦","lon":"121.488143","lat":"31.234771","category":"46","category_name":"楼宇","address":"上海市黄浦区宁海东路200号(北依南京路,南临淮海路)"},{"poiid":"B2094751D56BA3F9469E","title":"南麓浙里","lon":"121.488525","lat":"31.235992","category":"76","category_name":"上海菜","address":"黄浦区四川中路216号(近福州路)"},{"poiid":"B2094757D06FABFC469A","title":"上海浦东发展银行大楼(外滩12号)","lon":"121.489894","lat":"31.236","category":"150","category_name":"银行","address":"上海黄浦区中山东一路12号 汇丰银行大楼 (原市府大楼)"},{"poiid":"B2094757D069A4FF499F","title":"老船长青年旅舍(外滩店)","lon":"121.48979","lat":"31.23509","category":"216","category_name":"经济型连锁酒店","address":"上海黄浦区延安东路7号甲(近外滩)"},{"poiid":"B2094757D06AA5FA4993","title":"华东建筑设计研究院有限公司","lon":"121.487157492","lat":"31.2361457026","category":"46","category_name":"楼宇","address":"上海市黄浦区汉口路151号"},{"poiid":"B2094757D068A4FC409D","title":"外滩花园酒店","lon":"121.48874013","lat":"31.236291039","category":"74","category_name":"江苏菜","address":"黄浦区汉口路200号(近河南中路)"},{"poiid":"B2094654DB69A4F4479A","title":"九江路营业厅","lon":"121.48819","lat":"31.23781","category":"151","category_name":"电讯营业厅","address":"黄浦区四川中路324号"},{"poiid":"B2094654DA6FAAF8449F","title":"福申大厦","lon":"121.489","lat":"31.2377","category":"46","category_name":"楼宇","address":"行宫位于沈河北站一路41号"},{"poiid":"B2094757D068A3FB469A","title":"交通银行上海市分行","lon":"121.487329","lat":"31.235579","category":"46","category_name":"楼宇","address":"上海黄浦区江西中路200号"},{"poiid":"B2094757D069A5FA429F","title":"国拍大楼","lon":"121.488578","lat":"31.234969","category":"46","category_name":"楼宇","address":"上海福州路108号"},{"poiid":"B2094750D66DA2F8449D","title":"上海火车站","lon":"121.488983","lat":"31.237527","category":"500","category_name":"未知分类","address":null},{"poiid":"B2094757D068A4F54999","title":"外滩啤酒总汇","lon":"121.489100353","lat":"31.2365874384","category":"260","category_name":"其他","address":"黄浦区汉口路11号(近中山东一路)"},{"poiid":"B2094654DB69A6FA4099","title":"外滩情人墙","lon":"121.49021","lat":"31.2369","category":"250","category_name":"公园户外","address":"黄浦区中山东一路黄浦江边"},{"poiid":"B209475CD364A2FB4099","title":"Hakkasan","lon":"121.49009","lat":"31.23634","category":"94","category_name":"西餐厅","address":"中山东一路18号外滩十八号5楼"},{"poiid":"B2094757D069A6F4479B","title":"上海市民政局","lon":"121.48800659","lat":"31.236328125","category":"252","category_name":"楼宇机构","address":"上海江西中路215号汉口路口"},{"poiid":"B2094750DA6BA1FD469D","title":"forever21","lon":"121.489219","lat":"31.235349","category":"500","category_name":"未知分类","address":"南京東路"},{"poiid":"B2094757D069A0FE469D","title":"黄浦区中心医院中医门诊部","lon":"121.48898882","lat":"31.2342839927","category":"162","category_name":"医院","address":"上海黄浦区宁波路109号(近河南中路)"},{"poiid":"B2094655D26DAAFC4798","title":"宜兰贵斯酒店","lon":"121.48826","lat":"31.23394","category":"250","category_name":"公园户外","address":"黄浦区广东路138号(近河南中路)"},{"poiid":"B2094757D06AA1FD469A","title":"华东医院(市府大厦门诊部)","lon":"121.4873588","lat":"31.235038242","category":"162","category_name":"医院","address":"黄浦区江西中路187号(近新城饭店)"},{"poiid":"B2094655D26BA4F8489F","title":"外滩艺术馆(边门)","lon":"121.4864","lat":"31.23599","category":"183","category_name":"展览馆","address":"汉口路193"},{"poiid":"B2094655D268A6F8439C","title":"宾龙商务酒店","lon":"121.48831","lat":"31.23514","category":"250","category_name":"公园户外","address":"黄浦区福州路105-1号(近四川中路)"},{"poiid":"B2094757DA65A5FB419F","title":"海上小喔（上海外滩店）","lon":"121.4882863","lat":"31.23535294","category":"216","category_name":"经济型连锁酒店","address":"黄浦区福州路120号4-5楼(近江西中路)"},{"poiid":"B2094757D068ABFB409C","title":"五芳斋 四川中路店","lon":"121.48965177918","lat":"31.233533830051","category":"68","category_name":"快餐厅","address":"黄浦区四川中路136号(近广东路)"},{"poiid":"B2094751DA6DA1FC419E","title":"Choir Bar ans Kitchen","lon":"121.489907","lat":"31.235564","category":"247","category_name":"餐饮美食","address":"福州路19号"},{"poiid":"B2094757D069A7FF4992","title":"庄氏隆兴小龙虾面馆(外滩店)","lon":"121.48941","lat":"31.23446","category":"68","category_name":"快餐厅","address":"黄浦区四川中路156号(近福州路)"},{"poiid":"B2094654DA6FAAF8419F","title":"上海元芳商务中心","lon":"121.48966","lat":"31.2346","category":"46","category_name":"楼宇","address":"丰台学城海鹰路1号，3号"},{"poiid":"B2094757D16CA4F94092","title":"黄埔区中心医院住院部","lon":"121.488849738","lat":"31.234963401","category":"162","category_name":"医院","address":"上海市黄浦区山东中路"},{"poiid":"B2094655D26DA5F8449E","title":"外滩12号咖啡厅","lon":"121.490378054","lat":"31.235718793","category":"65","category_name":"咖啡厅","address":"中山东一路12号2楼226近汉口路"},{"poiid":"B2094757DB69A7F54398","title":"大众书局","lon":"121.4893333","lat":"31.2348979","category":"248","category_name":"生活娱乐","address":"正大广场七楼"},{"poiid":"B2094757D168A5F44893","title":"外经贸教育培训中心","lon":"121.488707","lat":"31.235114","category":"253","category_name":"校园生活","address":"上海福州路89号6楼"},{"poiid":"B209475CD66CA5F5459E","title":"上井•井寿司","lon":"121.489189","lat":"31.235569","category":"247","category_name":"餐饮美食","address":"上海市 南京东路300号名人购物中心4楼"},{"poiid":"B2094757D06AAAFB4393","title":"上海市文化广播影视管理局","lon":"121.48869379","lat":"31.236775364","category":"500","category_name":"未知分类","address":"上海四川中路276号"},{"poiid":"B2094757D66DA5FA4998","title":"the bund","lon":"121.49034173","lat":"31.236921442","category":"500","category_name":"未知分类","address":"上海ShanghaiHuangpuJiangxi Middle Rd"},{"poiid":"B2094757D068A3FC499F","title":"外滩6号","lon":"121.49022765","lat":"31.235021152","category":"119","category_name":"商场","address":"上海外滩六号"},{"poiid":"B2094654DA6FAAFC499F","title":"黄浦区中心医院","lon":"121.48899","lat":"31.23428","category":"162","category_name":"医院","address":"黄浦区四川中路109号(近广东路)"},{"poiid":"B2094750D364A0FF429A","title":"外滩18号Bund18","lon":"121.49013","lat":"31.23594","category":"119","category_name":"商场","address":"中山东一路18号"},{"poiid":"B209475CD564A7F84292","title":"上海滩新天地店","lon":"121.47463","lat":"31.22164","category":"119","category_name":"商场","address":"\"太仓路181弄新天地北里15号\r\n\""},{"poiid":"B209475CD564A7F84392","title":"上海滩浦东香格里拉店","lon":"121.50058","lat":"31.23634","category":"119","category_name":"商场","address":"浦东富成路33号香格里拉酒店内大堂层"},{"poiid":"B2094757D068A2FC4893","title":"外滩海关大钟","lon":"121.490005","lat":"31.236592","category":"500","category_name":"未知分类","address":"上海中山东一路13号"},{"poiid":"B2094654DA6FAAFD449E","title":"船长青年酒店","lon":"121.48965","lat":"31.23539","category":"250","category_name":"公园户外","address":"黄浦区福州路37号(近四川中路)"},{"poiid":"B2094655D26EA2F5479B","title":"海关大楼","lon":"121.49002","lat":"31.23668","category":"46","category_name":"楼宇","address":"鲁尔大厦位于铁西兴华南街5号"},{"poiid":"B2094757D068A2F4459A","title":"船长酒吧","lon":"121.49016","lat":"31.23529","category":"260","category_name":"其他","address":"黄浦区福州路37号船长酒店6搂(近中山东一路)"},{"poiid":"B2094757D06FAAFC419B","title":"猫的天空之城概念书店","lon":"121.489654","lat":"31.235389","category":"260","category_name":"其他","address":"黄浦区福州路37号船长青年酒店1楼(近中山东一路)"},{"poiid":"B2094757D06FABFF479B","title":"新城饭店","lon":"121.4878","lat":"31.23495","category":"216","category_name":"经济型连锁酒店","address":"黄浦区江西中路180号(近福州路)"},{"poiid":"B2094757D06AA1F4489F","title":"上海姥姥 原吉禾餐饮","lon":"121.48908099613","lat":"31.235419801894","category":"76","category_name":"上海菜","address":"黄浦区福州路70号(近四川中路永和豆浆对面)"},{"poiid":"B2094757D065AAFC459B","title":"赤板亭(名人大厦)","lon":"121.489254138","lat":"31.2339395791","category":"500","category_name":"未知分类","address":"上海南京路步行街"},{"poiid":"B2094757D068A1F8449B","title":"House of Blues & Jazz","lon":"121.4892425","lat":"31.235561077","category":"172","category_name":"酒吧","address":"上海市黄浦区福州路60号(近四川中路)"},{"poiid":"B2094757D068A0F5439E","title":"上海国际商品拍卖有限公司","lon":"121.488583332","lat":"31.2353396094","category":"46","category_name":"楼宇","address":"黄浦区福州路108号(近四川中路)"},{"poiid":"B2094757D16BABFD4593","title":"麦当劳","lon":"121.48739973","lat":"31.235250407","category":"500","category_name":"未知分类","address":"上海市黄浦区南京路步行街"},{"poiid":"B2094757D06FA6F9459A","title":"米氏西餐厅","lon":"121.48839983","lat":"31.235365447","category":"94","category_name":"西餐厅","address":"黄浦区广东路20号外滩5号7楼(近中山东一路)"},{"poiid":"B2094757D06FAAF84399","title":"申鑫大厦","lon":"121.488143","lat":"31.234771","category":"46","category_name":"楼宇","address":"上海市黄浦区宁海东路200号(北依南京路,南临淮海路)"},{"poiid":"B2094751D56BA3F9469E","title":"南麓浙里","lon":"121.488525","lat":"31.235992","category":"76","category_name":"上海菜","address":"黄浦区四川中路216号(近福州路)"},{"poiid":"B2094757D06FABFC469A","title":"上海浦东发展银行大楼(外滩12号)","lon":"121.489894","lat":"31.236","category":"150","category_name":"银行","address":"上海黄浦区中山东一路12号 汇丰银行大楼 (原市府大楼)"},{"poiid":"B2094757D069A4FF499F","title":"老船长青年旅舍(外滩店)","lon":"121.48979","lat":"31.23509","category":"216","category_name":"经济型连锁酒店","address":"上海黄浦区延安东路7号甲(近外滩)"},{"poiid":"B2094757D06AA5FA4993","title":"华东建筑设计研究院有限公司","lon":"121.487157492","lat":"31.2361457026","category":"46","category_name":"楼宇","address":"上海市黄浦区汉口路151号"},{"poiid":"B2094757D068A4FC409D","title":"外滩花园酒店","lon":"121.48874013","lat":"31.236291039","category":"74","category_name":"江苏菜","address":"黄浦区汉口路200号(近河南中路)"},{"poiid":"B2094654DB69A4F4479A","title":"九江路营业厅","lon":"121.48819","lat":"31.23781","category":"151","category_name":"电讯营业厅","address":"黄浦区四川中路324号"},{"poiid":"B2094654DA6FAAF8449F","title":"福申大厦","lon":"121.489","lat":"31.2377","category":"46","category_name":"楼宇","address":"行宫位于沈河北站一路41号"},{"poiid":"B2094757D068A3FB469A","title":"交通银行上海市分行","lon":"121.487329","lat":"31.235579","category":"46","category_name":"楼宇","address":"上海黄浦区江西中路200号"},{"poiid":"B2094757D069A5FA429F","title":"国拍大楼","lon":"121.488578","lat":"31.234969","category":"46","category_name":"楼宇","address":"上海福州路108号"},{"poiid":"B2094750D66DA2F8449D","title":"上海火车站","lon":"121.488983","lat":"31.237527","category":"500","category_name":"未知分类","address":null},{"poiid":"B2094757D068A4F54999","title":"外滩啤酒总汇","lon":"121.489100353","lat":"31.2365874384","category":"260","category_name":"其他","address":"黄浦区汉口路11号(近中山东一路)"},{"poiid":"B2094654DB69A6FA4099","title":"外滩情人墙","lon":"121.49021","lat":"31.2369","category":"250","category_name":"公园户外","address":"黄浦区中山东一路黄浦江边"},{"poiid":"B209475CD364A2FB4099","title":"Hakkasan","lon":"121.49009","lat":"31.23634","category":"94","category_name":"西餐厅","address":"中山东一路18号外滩十八号5楼"},{"poiid":"B2094757D069A6F4479B","title":"上海市民政局","lon":"121.48800659","lat":"31.236328125","category":"252","category_name":"楼宇机构","address":"上海江西中路215号汉口路口"},{"poiid":"B2094750DA6BA1FD469D","title":"forever21","lon":"121.489219","lat":"31.235349","category":"500","category_name":"未知分类","address":"南京東路"},{"poiid":"B2094757D069A0FE469D","title":"黄浦区中心医院中医门诊部","lon":"121.48898882","lat":"31.2342839927","category":"162","category_name":"医院","address":"上海黄浦区宁波路109号(近河南中路)"},{"poiid":"B2094655D26DAAFC4798","title":"宜兰贵斯酒店","lon":"121.48826","lat":"31.23394","category":"250","category_name":"公园户外","address":"黄浦区广东路138号(近河南中路)"},{"poiid":"B2094757D06AA1FD469A","title":"华东医院(市府大厦门诊部)","lon":"121.4873588","lat":"31.235038242","category":"162","category_name":"医院","address":"黄浦区江西中路187号(近新城饭店)"},{"poiid":"B2094655D26BA4F8489F","title":"外滩艺术馆(边门)","lon":"121.4864","lat":"31.23599","category":"183","category_name":"展览馆","address":"汉口路193"},{"poiid":"B2094655D268A6F8439C","title":"宾龙商务酒店","lon":"121.48831","lat":"31.23514","category":"250","category_name":"公园户外","address":"黄浦区福州路105-1号(近四川中路)"},{"poiid":"B2094757DA65A5FB419F","title":"海上小喔（上海外滩店）","lon":"121.4882863","lat":"31.23535294","category":"216","category_name":"经济型连锁酒店","address":"黄浦区福州路120号4-5楼(近江西中路)"},{"poiid":"B2094757D068ABFB409C","title":"五芳斋 四川中路店","lon":"121.48965177918","lat":"31.233533830051","category":"68","category_name":"快餐厅","address":"黄浦区四川中路136号(近广东路)"},{"poiid":"B2094751DA6DA1FC419E","title":"Choir Bar ans Kitchen","lon":"121.489907","lat":"31.235564","category":"247","category_name":"餐饮美食","address":"福州路19号"},{"poiid":"B2094757D069A7FF4992","title":"庄氏隆兴小龙虾面馆(外滩店)","lon":"121.48941","lat":"31.23446","category":"68","category_name":"快餐厅","address":"黄浦区四川中路156号(近福州路)"},{"poiid":"B2094654DA6FAAF8419F","title":"上海元芳商务中心","lon":"121.48966","lat":"31.2346","category":"46","category_name":"楼宇","address":"丰台学城海鹰路1号，3号"},{"poiid":"B2094757D16CA4F94092","title":"黄埔区中心医院住院部","lon":"121.488849738","lat":"31.234963401","category":"162","category_name":"医院","address":"上海市黄浦区山东中路"},{"poiid":"B2094655D26DA5F8449E","title":"外滩12号咖啡厅","lon":"121.490378054","lat":"31.235718793","category":"65","category_name":"咖啡厅","address":"中山东一路12号2楼226近汉口路"},{"poiid":"B2094757DB69A7F54398","title":"大众书局","lon":"121.4893333","lat":"31.2348979","category":"248","category_name":"生活娱乐","address":"正大广场七楼"},{"poiid":"B2094757D168A5F44893","title":"外经贸教育培训中心","lon":"121.488707","lat":"31.235114","category":"253","category_name":"校园生活","address":"上海福州路89号6楼"},{"poiid":"B209475CD66CA5F5459E","title":"上井•井寿司","lon":"121.489189","lat":"31.235569","category":"247","category_name":"餐饮美食","address":"上海市 南京东路300号名人购物中心4楼"},{"poiid":"B2094757D06AAAFB4393","title":"上海市文化广播影视管理局","lon":"121.48869379","lat":"31.236775364","category":"500","category_name":"未知分类","address":"上海四川中路276号"},{"poiid":"B2094757D66DA5FA4998","title":"the bund","lon":"121.49034173","lat":"31.236921442","category":"500","category_name":"未知分类","address":"上海ShanghaiHuangpuJiangxi Middle Rd"},{"poiid":"B2094757D068A3FC499F","title":"外滩6号","lon":"121.49022765","lat":"31.235021152","category":"119","category_name":"商场","address":"上海外滩六号"},{"poiid":"B2094654DA6FAAFC499F","title":"黄浦区中心医院","lon":"121.48899","lat":"31.23428","category":"162","category_name":"医院","address":"黄浦区四川中路109号(近广东路)"},{"poiid":"B2094750D364A0FF429A","title":"外滩18号Bund18","lon":"121.49013","lat":"31.23594","category":"119","category_name":"商场","address":"中山东一路18号"},{"poiid":"B209475CD564A7F84292","title":"上海滩新天地店","lon":"121.47463","lat":"31.22164","category":"119","category_name":"商场","address":"\"太仓路181弄新天地北里15号\r\n\""},{"poiid":"B209475CD564A7F84392","title":"上海滩浦东香格里拉店","lon":"121.50058","lat":"31.23634","category":"119","category_name":"商场","address":"浦东富成路33号香格里拉酒店内大堂层"},{"poiid":"B2094757D068A2FC4893","title":"外滩海关大钟","lon":"121.490005","lat":"31.236592","category":"500","category_name":"未知分类","address":"上海中山东一路13号"},{"poiid":"B2094654DA6FAAFD449E","title":"船长青年酒店","lon":"121.48965","lat":"31.23539","category":"250","category_name":"公园户外","address":"黄浦区福州路37号(近四川中路)"},{"poiid":"B2094655D26EA2F5479B","title":"海关大楼","lon":"121.49002","lat":"31.23668","category":"46","category_name":"楼宇","address":"鲁尔大厦位于铁西兴华南街5号"},{"poiid":"B2094757D068A2F4459A","title":"船长酒吧","lon":"121.49016","lat":"31.23529","category":"260","category_name":"其他","address":"黄浦区福州路37号船长酒店6搂(近中山东一路)"},{"poiid":"B2094757D06FAAFC419B","title":"猫的天空之城概念书店","lon":"121.489654","lat":"31.235389","category":"260","category_name":"其他","address":"黄浦区福州路37号船长青年酒店1楼(近中山东一路)"},{"poiid":"B2094757D06FABFF479B","title":"新城饭店","lon":"121.4878","lat":"31.23495","category":"216","category_name":"经济型连锁酒店","address":"黄浦区江西中路180号(近福州路)"},{"poiid":"B2094757D06AA1F4489F","title":"上海姥姥 原吉禾餐饮","lon":"121.48908099613","lat":"31.235419801894","category":"76","category_name":"上海菜","address":"黄浦区福州路70号(近四川中路永和豆浆对面)"},{"poiid":"B2094757D065AAFC459B","title":"赤板亭(名人大厦)","lon":"121.489254138","lat":"31.2339395791","category":"500","category_name":"未知分类","address":"上海南京路步行街"},{"poiid":"B2094757D068A1F8449B","title":"House of Blues & Jazz","lon":"121.4892425","lat":"31.235561077","category":"172","category_name":"酒吧","address":"上海市黄浦区福州路60号(近四川中路)"},{"poiid":"B2094757D068A0F5439E","title":"上海国际商品拍卖有限公司","lon":"121.488583332","lat":"31.2353396094","category":"46","category_name":"楼宇","address":"黄浦区福州路108号(近四川中路)"},{"poiid":"B2094757D16BABFD4593","title":"麦当劳","lon":"121.48739973","lat":"31.235250407","category":"500","category_name":"未知分类","address":"上海市黄浦区南京路步行街"},{"poiid":"B2094757D06FA6F9459A","title":"米氏西餐厅","lon":"121.48839983","lat":"31.235365447","category":"94","category_name":"西餐厅","address":"黄浦区广东路20号外滩5号7楼(近中山东一路)"},{"poiid":"B2094757D06FAAF84399","title":"申鑫大厦","lon":"121.488143","lat":"31.234771","category":"46","category_name":"楼宇","address":"上海市黄浦区宁海东路200号(北依南京路,南临淮海路)"},{"poiid":"B2094751D56BA3F9469E","title":"南麓浙里","lon":"121.488525","lat":"31.235992","category":"76","category_name":"上海菜","address":"黄浦区四川中路216号(近福州路)"},{"poiid":"B2094757D06FABFC469A","title":"上海浦东发展银行大楼(外滩12号)","lon":"121.489894","lat":"31.236","category":"150","category_name":"银行","address":"上海黄浦区中山东一路12号 汇丰银行大楼 (原市府大楼)"},{"poiid":"B2094757D069A4FF499F","title":"老船长青年旅舍(外滩店)","lon":"121.48979","lat":"31.23509","category":"216","category_name":"经济型连锁酒店","address":"上海黄浦区延安东路7号甲(近外滩)"},{"poiid":"B2094757D06AA5FA4993","title":"华东建筑设计研究院有限公司","lon":"121.487157492","lat":"31.2361457026","category":"46","category_name":"楼宇","address":"上海市黄浦区汉口路151号"},{"poiid":"B2094757D068A4FC409D","title":"外滩花园酒店","lon":"121.48874013","lat":"31.236291039","category":"74","category_name":"江苏菜","address":"黄浦区汉口路200号(近河南中路)"},{"poiid":"B2094654DB69A4F4479A","title":"九江路营业厅","lon":"121.48819","lat":"31.23781","category":"151","category_name":"电讯营业厅","address":"黄浦区四川中路324号"},{"poiid":"B2094654DA6FAAF8449F","title":"福申大厦","lon":"121.489","lat":"31.2377","category":"46","category_name":"楼宇","address":"行宫位于沈河北站一路41号"},{"poiid":"B2094757D068A3FB469A","title":"交通银行上海市分行","lon":"121.487329","lat":"31.235579","category":"46","category_name":"楼宇","address":"上海黄浦区江西中路200号"},{"poiid":"B2094757D069A5FA429F","title":"国拍大楼","lon":"121.488578","lat":"31.234969","category":"46","category_name":"楼宇","address":"上海福州路108号"},{"poiid":"B2094750D66DA2F8449D","title":"上海火车站","lon":"121.488983","lat":"31.237527","category":"500","category_name":"未知分类","address":null},{"poiid":"B2094757D068A4F54999","title":"外滩啤酒总汇","lon":"121.489100353","lat":"31.2365874384","category":"260","category_name":"其他","address":"黄浦区汉口路11号(近中山东一路)"},{"poiid":"B2094654DB69A6FA4099","title":"外滩情人墙","lon":"121.49021","lat":"31.2369","category":"250","category_name":"公园户外","address":"黄浦区中山东一路黄浦江边"},{"poiid":"B209475CD364A2FB4099","title":"Hakkasan","lon":"121.49009","lat":"31.23634","category":"94","category_name":"西餐厅","address":"中山东一路18号外滩十八号5楼"},{"poiid":"B2094757D069A6F4479B","title":"上海市民政局","lon":"121.48800659","lat":"31.236328125","category":"252","category_name":"楼宇机构","address":"上海江西中路215号汉口路口"},{"poiid":"B2094750DA6BA1FD469D","title":"forever21","lon":"121.489219","lat":"31.235349","category":"500","category_name":"未知分类","address":"南京東路"},{"poiid":"B2094757D069A0FE469D","title":"黄浦区中心医院中医门诊部","lon":"121.48898882","lat":"31.2342839927","category":"162","category_name":"医院","address":"上海黄浦区宁波路109号(近河南中路)"},{"poiid":"B2094655D26DAAFC4798","title":"宜兰贵斯酒店","lon":"121.48826","lat":"31.23394","category":"250","category_name":"公园户外","address":"黄浦区广东路138号(近河南中路)"},{"poiid":"B2094757D06AA1FD469A","title":"华东医院(市府大厦门诊部)","lon":"121.4873588","lat":"31.235038242","category":"162","category_name":"医院","address":"黄浦区江西中路187号(近新城饭店)"},{"poiid":"B2094655D26BA4F8489F","title":"外滩艺术馆(边门)","lon":"121.4864","lat":"31.23599","category":"183","category_name":"展览馆","address":"汉口路193"},{"poiid":"B2094655D268A6F8439C","title":"宾龙商务酒店","lon":"121.48831","lat":"31.23514","category":"250","category_name":"公园户外","address":"黄浦区福州路105-1号(近四川中路)"},{"poiid":"B2094757DA65A5FB419F","title":"海上小喔（上海外滩店）","lon":"121.4882863","lat":"31.23535294","category":"216","category_name":"经济型连锁酒店","address":"黄浦区福州路120号4-5楼(近江西中路)"},{"poiid":"B2094757D068ABFB409C","title":"五芳斋 四川中路店","lon":"121.48965177918","lat":"31.233533830051","category":"68","category_name":"快餐厅","address":"黄浦区四川中路136号(近广东路)"},{"poiid":"B2094751DA6DA1FC419E","title":"Choir Bar ans Kitchen","lon":"121.489907","lat":"31.235564","category":"247","category_name":"餐饮美食","address":"福州路19号"},{"poiid":"B2094757D069A7FF4992","title":"庄氏隆兴小龙虾面馆(外滩店)","lon":"121.48941","lat":"31.23446","category":"68","category_name":"快餐厅","address":"黄浦区四川中路156号(近福州路)"},{"poiid":"B2094654DA6FAAF8419F","title":"上海元芳商务中心","lon":"121.48966","lat":"31.2346","category":"46","category_name":"楼宇","address":"丰台学城海鹰路1号，3号"},{"poiid":"B2094757D16CA4F94092","title":"黄埔区中心医院住院部","lon":"121.488849738","lat":"31.234963401","category":"162","category_name":"医院","address":"上海市黄浦区山东中路"},{"poiid":"B2094655D26DA5F8449E","title":"外滩12号咖啡厅","lon":"121.490378054","lat":"31.235718793","category":"65","category_name":"咖啡厅","address":"中山东一路12号2楼226近汉口路"},{"poiid":"B2094757DB69A7F54398","title":"大众书局","lon":"121.4893333","lat":"31.2348979","category":"248","category_name":"生活娱乐","address":"正大广场七楼"},{"poiid":"B2094757D168A5F44893","title":"外经贸教育培训中心","lon":"121.488707","lat":"31.235114","category":"253","category_name":"校园生活","address":"上海福州路89号6楼"},{"poiid":"B209475CD66CA5F5459E","title":"上井•井寿司","lon":"121.489189","lat":"31.235569","category":"247","category_name":"餐饮美食","address":"上海市 南京东路300号名人购物中心4楼"},{"poiid":"B2094757D06AAAFB4393","title":"上海市文化广播影视管理局","lon":"121.48869379","lat":"31.236775364","category":"500","category_name":"未知分类","address":"上海四川中路276号"},{"poiid":"B2094757D66DA5FA4998","title":"the bund","lon":"121.49034173","lat":"31.236921442","category":"500","category_name":"未知分类","address":"上海ShanghaiHuangpuJiangxi Middle Rd"},{"poiid":"B2094757D068A3FC499F","title":"外滩6号","lon":"121.49022765","lat":"31.235021152","category":"119","category_name":"商场","address":"上海外滩六号"},{"poiid":"B2094654DA6FAAFC499F","title":"黄浦区中心医院","lon":"121.48899","lat":"31.23428","category":"162","category_name":"医院","address":"黄浦区四川中路109号(近广东路)"},{"poiid":"B2094750D364A0FF429A","title":"外滩18号Bund18","lon":"121.49013","lat":"31.23594","category":"119","category_name":"商场","address":"中山东一路18号"},{"poiid":"B209475CD564A7F84292","title":"上海滩新天地店","lon":"121.47463","lat":"31.22164","category":"119","category_name":"商场","address":"\"太仓路181弄新天地北里15号\r\n\""},{"poiid":"B209475CD564A7F84392","title":"上海滩浦东香格里拉店","lon":"121.50058","lat":"31.23634","category":"119","category_name":"商场","address":"浦东富成路33号香格里拉酒店内大堂层"},{"poiid":"B2094757D068A2FC4893","title":"外滩海关大钟","lon":"121.490005","lat":"31.236592","category":"500","category_name":"未知分类","address":"上海中山东一路13号"},{"poiid":"B2094654DA6FAAFD449E","title":"船长青年酒店","lon":"121.48965","lat":"31.23539","category":"250","category_name":"公园户外","address":"黄浦区福州路37号(近四川中路)"},{"poiid":"B2094655D26EA2F5479B","title":"海关大楼","lon":"121.49002","lat":"31.23668","category":"46","category_name":"楼宇","address":"鲁尔大厦位于铁西兴华南街5号"},{"poiid":"B2094757D068A2F4459A","title":"船长酒吧","lon":"121.49016","lat":"31.23529","category":"260","category_name":"其他","address":"黄浦区福州路37号船长酒店6搂(近中山东一路)"},{"poiid":"B2094757D06FAAFC419B","title":"猫的天空之城概念书店","lon":"121.489654","lat":"31.235389","category":"260","category_name":"其他","address":"黄浦区福州路37号船长青年酒店1楼(近中山东一路)"},{"poiid":"B2094757D06FABFF479B","title":"新城饭店","lon":"121.4878","lat":"31.23495","category":"216","category_name":"经济型连锁酒店","address":"黄浦区江西中路180号(近福州路)"},{"poiid":"B2094757D06AA1F4489F","title":"上海姥姥 原吉禾餐饮","lon":"121.48908099613","lat":"31.235419801894","category":"76","category_name":"上海菜","address":"黄浦区福州路70号(近四川中路永和豆浆对面)"},{"poiid":"B2094757D065AAFC459B","title":"赤板亭(名人大厦)","lon":"121.489254138","lat":"31.2339395791","category":"500","category_name":"未知分类","address":"上海南京路步行街"},{"poiid":"B2094757D068A1F8449B","title":"House of Blues & Jazz","lon":"121.4892425","lat":"31.235561077","category":"172","category_name":"酒吧","address":"上海市黄浦区福州路60号(近四川中路)"},{"poiid":"B2094757D068A0F5439E","title":"上海国际商品拍卖有限公司","lon":"121.488583332","lat":"31.2353396094","category":"46","category_name":"楼宇","address":"黄浦区福州路108号(近四川中路)"},{"poiid":"B2094757D16BABFD4593","title":"麦当劳","lon":"121.48739973","lat":"31.235250407","category":"500","category_name":"未知分类","address":"上海市黄浦区南京路步行街"},{"poiid":"B2094757D06FA6F9459A","title":"米氏西餐厅","lon":"121.48839983","lat":"31.235365447","category":"94","category_name":"西餐厅","address":"黄浦区广东路20号外滩5号7楼(近中山东一路)"},{"poiid":"B2094757D06FAAF84399","title":"申鑫大厦","lon":"121.488143","lat":"31.234771","category":"46","category_name":"楼宇","address":"上海市黄浦区宁海东路200号(北依南京路,南临淮海路)"},{"poiid":"B2094751D56BA3F9469E","title":"南麓浙里","lon":"121.488525","lat":"31.235992","category":"76","category_name":"上海菜","address":"黄浦区四川中路216号(近福州路)"},{"poiid":"B2094757D06FABFC469A","title":"上海浦东发展银行大楼(外滩12号)","lon":"121.489894","lat":"31.236","category":"150","category_name":"银行","address":"上海黄浦区中山东一路12号 汇丰银行大楼 (原市府大楼)"},{"poiid":"B2094757D069A4FF499F","title":"老船长青年旅舍(外滩店)","lon":"121.48979","lat":"31.23509","category":"216","category_name":"经济型连锁酒店","address":"上海黄浦区延安东路7号甲(近外滩)"},{"poiid":"B2094757D06AA5FA4993","title":"华东建筑设计研究院有限公司","lon":"121.487157492","lat":"31.2361457026","category":"46","category_name":"楼宇","address":"上海市黄浦区汉口路151号"},{"poiid":"B2094757D068A4FC409D","title":"外滩花园酒店","lon":"121.48874013","lat":"31.236291039","category":"74","category_name":"江苏菜","address":"黄浦区汉口路200号(近河南中路)"},{"poiid":"B2094654DB69A4F4479A","title":"九江路营业厅","lon":"121.48819","lat":"31.23781","category":"151","category_name":"电讯营业厅","address":"黄浦区四川中路324号"},{"poiid":"B2094654DA6FAAF8449F","title":"福申大厦","lon":"121.489","lat":"31.2377","category":"46","category_name":"楼宇","address":"行宫位于沈河北站一路41号"},{"poiid":"B2094757D068A3FB469A","title":"交通银行上海市分行","lon":"121.487329","lat":"31.235579","category":"46","category_name":"楼宇","address":"上海黄浦区江西中路200号"},{"poiid":"B2094757D069A5FA429F","title":"国拍大楼","lon":"121.488578","lat":"31.234969","category":"46","category_name":"楼宇","address":"上海福州路108号"},{"poiid":"B2094750D66DA2F8449D","title":"上海火车站","lon":"121.488983","lat":"31.237527","category":"500","category_name":"未知分类","address":null},{"poiid":"B2094757D068A4F54999","title":"外滩啤酒总汇","lon":"121.489100353","lat":"31.2365874384","category":"260","category_name":"其他","address":"黄浦区汉口路11号(近中山东一路)"},{"poiid":"B2094654DB69A6FA4099","title":"外滩情人墙","lon":"121.49021","lat":"31.2369","category":"250","category_name":"公园户外","address":"黄浦区中山东一路黄浦江边"},{"poiid":"B209475CD364A2FB4099","title":"Hakkasan","lon":"121.49009","lat":"31.23634","category":"94","category_name":"西餐厅","address":"中山东一路18号外滩十八号5楼"},{"poiid":"B2094757D069A6F4479B","title":"上海市民政局","lon":"121.48800659","lat":"31.236328125","category":"252","category_name":"楼宇机构","address":"上海江西中路215号汉口路口"},{"poiid":"B2094750DA6BA1FD469D","title":"forever21","lon":"121.489219","lat":"31.235349","category":"500","category_name":"未知分类","address":"南京東路"},{"poiid":"B2094757D069A0FE469D","title":"黄浦区中心医院中医门诊部","lon":"121.48898882","lat":"31.2342839927","category":"162","category_name":"医院","address":"上海黄浦区宁波路109号(近河南中路)"},{"poiid":"B2094655D26DAAFC4798","title":"宜兰贵斯酒店","lon":"121.48826","lat":"31.23394","category":"250","category_name":"公园户外","address":"黄浦区广东路138号(近河南中路)"},{"poiid":"B2094757D06AA1FD469A","title":"华东医院(市府大厦门诊部)","lon":"121.4873588","lat":"31.235038242","category":"162","category_name":"医院","address":"黄浦区江西中路187号(近新城饭店)"},{"poiid":"B2094655D26BA4F8489F","title":"外滩艺术馆(边门)","lon":"121.4864","lat":"31.23599","category":"183","category_name":"展览馆","address":"汉口路193"},{"poiid":"B2094655D268A6F8439C","title":"宾龙商务酒店","lon":"121.48831","lat":"31.23514","category":"250","category_name":"公园户外","address":"黄浦区福州路105-1号(近四川中路)"},{"poiid":"B2094757DA65A5FB419F","title":"海上小喔（上海外滩店）","lon":"121.4882863","lat":"31.23535294","category":"216","category_name":"经济型连锁酒店","address":"黄浦区福州路120号4-5楼(近江西中路)"},{"poiid":"B2094757D068ABFB409C","title":"五芳斋 四川中路店","lon":"121.48965177918","lat":"31.233533830051","category":"68","category_name":"快餐厅","address":"黄浦区四川中路136号(近广东路)"},{"poiid":"B2094751DA6DA1FC419E","title":"Choir Bar ans Kitchen","lon":"121.489907","lat":"31.235564","category":"247","category_name":"餐饮美食","address":"福州路19号"},{"poiid":"B2094757D069A7FF4992","title":"庄氏隆兴小龙虾面馆(外滩店)","lon":"121.48941","lat":"31.23446","category":"68","category_name":"快餐厅","address":"黄浦区四川中路156号(近福州路)"},{"poiid":"B2094654DA6FAAF8419F","title":"上海元芳商务中心","lon":"121.48966","lat":"31.2346","category":"46","category_name":"楼宇","address":"丰台学城海鹰路1号，3号"},{"poiid":"B2094757D16CA4F94092","title":"黄埔区中心医院住院部","lon":"121.488849738","lat":"31.234963401","category":"162","category_name":"医院","address":"上海市黄浦区山东中路"},{"poiid":"B2094655D26DA5F8449E","title":"外滩12号咖啡厅","lon":"121.490378054","lat":"31.235718793","category":"65","category_name":"咖啡厅","address":"中山东一路12号2楼226近汉口路"},{"poiid":"B2094757DB69A7F54398","title":"大众书局","lon":"121.4893333","lat":"31.2348979","category":"248","category_name":"生活娱乐","address":"正大广场七楼"},{"poiid":"B2094757D168A5F44893","title":"外经贸教育培训中心","lon":"121.488707","lat":"31.235114","category":"253","category_name":"校园生活","address":"上海福州路89号6楼"},{"poiid":"B209475CD66CA5F5459E","title":"上井•井寿司","lon":"121.489189","lat":"31.235569","category":"247","category_name":"餐饮美食","address":"上海市 南京东路300号名人购物中心4楼"},{"poiid":"B2094757D06AAAFB4393","title":"上海市文化广播影视管理局","lon":"121.48869379","lat":"31.236775364","category":"500","category_name":"未知分类","address":"上海四川中路276号"},{"poiid":"B2094757D66DA5FA4998","title":"the bund","lon":"121.49034173","lat":"31.236921442","category":"500","category_name":"未知分类","address":"上海ShanghaiHuangpuJiangxi Middle Rd"},{"poiid":"B2094757D068A3FC499F","title":"外滩6号","lon":"121.49022765","lat":"31.235021152","category":"119","category_name":"商场","address":"上海外滩六号"},{"poiid":"B2094654DA6FAAFC499F","title":"黄浦区中心医院","lon":"121.48899","lat":"31.23428","category":"162","category_name":"医院","address":"黄浦区四川中路109号(近广东路)"},{"poiid":"B2094750D364A0FF429A","title":"外滩18号Bund18","lon":"121.49013","lat":"31.23594","category":"119","category_name":"商场","address":"中山东一路18号"},{"poiid":"B209475CD564A7F84292","title":"上海滩新天地店","lon":"121.47463","lat":"31.22164","category":"119","category_name":"商场","address":"\"太仓路181弄新天地北里15号\r\n\""},{"poiid":"B209475CD564A7F84392","title":"上海滩浦东香格里拉店","lon":"121.50058","lat":"31.23634","category":"119","category_name":"商场","address":"浦东富成路33号香格里拉酒店内大堂层"},{"poiid":"B2094757D068A2FC4893","title":"外滩海关大钟","lon":"121.490005","lat":"31.236592","category":"500","category_name":"未知分类","address":"上海中山东一路13号"},{"poiid":"B2094654DA6FAAFD449E","title":"船长青年酒店","lon":"121.48965","lat":"31.23539","category":"250","category_name":"公园户外","address":"黄浦区福州路37号(近四川中路)"},{"poiid":"B2094655D26EA2F5479B","title":"海关大楼","lon":"121.49002","lat":"31.23668","category":"46","category_name":"楼宇","address":"鲁尔大厦位于铁西兴华南街5号"},{"poiid":"B2094757D068A2F4459A","title":"船长酒吧","lon":"121.49016","lat":"31.23529","category":"260","category_name":"其他","address":"黄浦区福州路37号船长酒店6搂(近中山东一路)"},{"poiid":"B2094757D06FAAFC419B","title":"猫的天空之城概念书店","lon":"121.489654","lat":"31.235389","category":"260","category_name":"其他","address":"黄浦区福州路37号船长青年酒店1楼(近中山东一路)"},{"poiid":"B2094757D06FABFF479B","title":"新城饭店","lon":"121.4878","lat":"31.23495","category":"216","category_name":"经济型连锁酒店","address":"黄浦区江西中路180号(近福州路)"},{"poiid":"B2094757D06AA1F4489F","title":"上海姥姥 原吉禾餐饮","lon":"121.48908099613","lat":"31.235419801894","category":"76","category_name":"上海菜","address":"黄浦区福州路70号(近四川中路永和豆浆对面)"},{"poiid":"B2094757D065AAFC459B","title":"赤板亭(名人大厦)","lon":"121.489254138","lat":"31.2339395791","category":"500","category_name":"未知分类","address":"上海南京路步行街"},{"poiid":"B2094757D068A1F8449B","title":"House of Blues & Jazz","lon":"121.4892425","lat":"31.235561077","category":"172","category_name":"酒吧","address":"上海市黄浦区福州路60号(近四川中路)"},{"poiid":"B2094757D068A0F5439E","title":"上海国际商品拍卖有限公司","lon":"121.488583332","lat":"31.2353396094","category":"46","category_name":"楼宇","address":"黄浦区福州路108号(近四川中路)"},{"poiid":"B2094757D16BABFD4593","title":"麦当劳","lon":"121.48739973","lat":"31.235250407","category":"500","category_name":"未知分类","address":"上海市黄浦区南京路步行街"},{"poiid":"B2094757D06FA6F9459A","title":"米氏西餐厅","lon":"121.48839983","lat":"31.235365447","category":"94","category_name":"西餐厅","address":"黄浦区广东路20号外滩5号7楼(近中山东一路)"},{"poiid":"B2094757D06FAAF84399","title":"申鑫大厦","lon":"121.488143","lat":"31.234771","category":"46","category_name":"楼宇","address":"上海市黄浦区宁海东路200号(北依南京路,南临淮海路)"},{"poiid":"B2094751D56BA3F9469E","title":"南麓浙里","lon":"121.488525","lat":"31.235992","category":"76","category_name":"上海菜","address":"黄浦区四川中路216号(近福州路)"},{"poiid":"B2094757D06FABFC469A","title":"上海浦东发展银行大楼(外滩12号)","lon":"121.489894","lat":"31.236","category":"150","category_name":"银行","address":"上海黄浦区中山东一路12号 汇丰银行大楼 (原市府大楼)"},{"poiid":"B2094757D069A4FF499F","title":"老船长青年旅舍(外滩店)","lon":"121.48979","lat":"31.23509","category":"216","category_name":"经济型连锁酒店","address":"上海黄浦区延安东路7号甲(近外滩)"},{"poiid":"B2094757D06AA5FA4993","title":"华东建筑设计研究院有限公司","lon":"121.487157492","lat":"31.2361457026","category":"46","category_name":"楼宇","address":"上海市黄浦区汉口路151号"},{"poiid":"B2094757D068A4FC409D","title":"外滩花园酒店","lon":"121.48874013","lat":"31.236291039","category":"74","category_name":"江苏菜","address":"黄浦区汉口路200号(近河南中路)"},{"poiid":"B2094654DB69A4F4479A","title":"九江路营业厅","lon":"121.48819","lat":"31.23781","category":"151","category_name":"电讯营业厅","address":"黄浦区四川中路324号"},{"poiid":"B2094654DA6FAAF8449F","title":"福申大厦","lon":"121.489","lat":"31.2377","category":"46","category_name":"楼宇","address":"行宫位于沈河北站一路41号"},{"poiid":"B2094757D068A3FB469A","title":"交通银行上海市分行","lon":"121.487329","lat":"31.235579","category":"46","category_name":"楼宇","address":"上海黄浦区江西中路200号"},{"poiid":"B2094757D069A5FA429F","title":"国拍大楼","lon":"121.488578","lat":"31.234969","category":"46","category_name":"楼宇","address":"上海福州路108号"},{"poiid":"B2094750D66DA2F8449D","title":"上海火车站","lon":"121.488983","lat":"31.237527","category":"500","category_name":"未知分类","address":null},{"poiid":"B2094757D068A4F54999","title":"外滩啤酒总汇","lon":"121.489100353","lat":"31.2365874384","category":"260","category_name":"其他","address":"黄浦区汉口路11号(近中山东一路)"},{"poiid":"B2094654DB69A6FA4099","title":"外滩情人墙","lon":"121.49021","lat":"31.2369","category":"250","category_name":"公园户外","address":"黄浦区中山东一路黄浦江边"},{"poiid":"B209475CD364A2FB4099","title":"Hakkasan","lon":"121.49009","lat":"31.23634","category":"94","category_name":"西餐厅","address":"中山东一路18号外滩十八号5楼"},{"poiid":"B2094757D069A6F4479B","title":"上海市民政局","lon":"121.48800659","lat":"31.236328125","category":"252","category_name":"楼宇机构","address":"上海江西中路215号汉口路口"},{"poiid":"B2094750DA6BA1FD469D","title":"forever21","lon":"121.489219","lat":"31.235349","category":"500","category_name":"未知分类","address":"南京東路"},{"poiid":"B2094757D069A0FE469D","title":"黄浦区中心医院中医门诊部","lon":"121.48898882","lat":"31.2342839927","category":"162","category_name":"医院","address":"上海黄浦区宁波路109号(近河南中路)"},{"poiid":"B2094655D26DAAFC4798","title":"宜兰贵斯酒店","lon":"121.48826","lat":"31.23394","category":"250","category_name":"公园户外","address":"黄浦区广东路138号(近河南中路)"},{"poiid":"B2094757D06AA1FD469A","title":"华东医院(市府大厦门诊部)","lon":"121.4873588","lat":"31.235038242","category":"162","category_name":"医院","address":"黄浦区江西中路187号(近新城饭店)"},{"poiid":"B2094655D26BA4F8489F","title":"外滩艺术馆(边门)","lon":"121.4864","lat":"31.23599","category":"183","category_name":"展览馆","address":"汉口路193"},{"poiid":"B2094655D268A6F8439C","title":"宾龙商务酒店","lon":"121.48831","lat":"31.23514","category":"250","category_name":"公园户外","address":"黄浦区福州路105-1号(近四川中路)"},{"poiid":"B2094757DA65A5FB419F","title":"海上小喔（上海外滩店）","lon":"121.4882863","lat":"31.23535294","category":"216","category_name":"经济型连锁酒店","address":"黄浦区福州路120号4-5楼(近江西中路)"},{"poiid":"B2094757D068ABFB409C","title":"五芳斋 四川中路店","lon":"121.48965177918","lat":"31.233533830051","category":"68","category_name":"快餐厅","address":"黄浦区四川中路136号(近广东路)"},{"poiid":"B2094751DA6DA1FC419E","title":"Choir Bar ans Kitchen","lon":"121.489907","lat":"31.235564","category":"247","category_name":"餐饮美食","address":"福州路19号"},{"poiid":"B2094757D069A7FF4992","title":"庄氏隆兴小龙虾面馆(外滩店)","lon":"121.48941","lat":"31.23446","category":"68","category_name":"快餐厅","address":"黄浦区四川中路156号(近福州路)"},{"poiid":"B2094654DA6FAAF8419F","title":"上海元芳商务中心","lon":"121.48966","lat":"31.2346","category":"46","category_name":"楼宇","address":"丰台学城海鹰路1号，3号"},{"poiid":"B2094757D16CA4F94092","title":"黄埔区中心医院住院部","lon":"121.488849738","lat":"31.234963401","category":"162","category_name":"医院","address":"上海市黄浦区山东中路"},{"poiid":"B2094655D26DA5F8449E","title":"外滩12号咖啡厅","lon":"121.490378054","lat":"31.235718793","category":"65","category_name":"咖啡厅","address":"中山东一路12号2楼226近汉口路"},{"poiid":"B2094757DB69A7F54398","title":"大众书局","lon":"121.4893333","lat":"31.2348979","category":"248","category_name":"生活娱乐","address":"正大广场七楼"},{"poiid":"B2094757D168A5F44893","title":"外经贸教育培训中心","lon":"121.488707","lat":"31.235114","category":"253","category_name":"校园生活","address":"上海福州路89号6楼"},{"poiid":"B209475CD66CA5F5459E","title":"上井•井寿司","lon":"121.489189","lat":"31.235569","category":"247","category_name":"餐饮美食","address":"上海市 南京东路300号名人购物中心4楼"},{"poiid":"B2094757D06AAAFB4393","title":"上海市文化广播影视管理局","lon":"121.48869379","lat":"31.236775364","category":"500","category_name":"未知分类","address":"上海四川中路276号"},{"poiid":"B2094757D66DA5FA4998","title":"the bund","lon":"121.49034173","lat":"31.236921442","category":"500","category_name":"未知分类","address":"上海ShanghaiHuangpuJiangxi Middle Rd"}]