[{"poiid":"B2094757D06FA2F84498","title":"上海兴荣温德姆酒店","lon":"121.53912567915063","lat":"31.26011215378175","category":"76","category_name":"上海菜","address":"杨浦区宁国路25号兴荣温德姆酒店(近杭州路)"},{"poiid":"B2094655D36DA0F94092","title":"杨浦大桥","lon":"121.54012","lat":"31.26137","category":"38","category_name":"公交车站","address":"浦东新区浦东大道2175弄88号(近北洋泾路)"},{"poiid":"B2094757D06FABFC419E","title":"沪东工人文化宫","lon":"121.539871","lat":"31.26578","category":"260","category_name":"其他","address":"杨浦区平凉路1500号"},{"poiid":"B2094654D56FABFE419B","title":"东宫影剧院","lon":"121.539942","lat":"31.265521","category":"178","category_name":"电影院","address":"上海市杨浦区平凉路1500号一号楼"},{"poiid":"B2094757D06FA0F9499B","title":"肯德基 KFC (沪东店)","lon":"121.539479","lat":"31.26497","category":"68","category_name":"快餐厅","address":"杨浦区平凉路1500号(近宁国路)"},{"poiid":"B2094655D269ABF84292","title":"沪东工人文化宫影剧院","lon":"121.53975","lat":"31.26507","category":"178","category_name":"电影院","address":"杨浦区平凉路1500号(近平凉公园)"},{"poiid":"B2094757D06FA2FF4599","title":"三星路小商品市场","lon":"121.53871","lat":"31.26417","category":"249","category_name":"购物服务","address":"杨浦区三星路一条街(近沪东工人文化宫)"},{"poiid":"B2094757D06FA4F9439B","title":"杨浦区图书馆","lon":"121.53936","lat":"31.26477","category":"181","category_name":"图书馆","address":"杨浦区平凉路1490弄1号(近宁国路)"},{"poiid":"B2094757D06FAAF84892","title":"杨浦区老年医院","lon":"121.53890578","lat":"31.260598383","category":"162","category_name":"医院","address":"杨浦区杭州路349号(近宁国路)"},{"poiid":"B2094757D06FA5F5439C","title":"上海财经大学附属中学","lon":"121.54641","lat":"31.26655","category":"55","category_name":"中学","address":"杨浦区宁武路151号(近平凉路)"},{"poiid":"B2094757D06FA0F8459B","title":"利都台球(平凉路店)","lon":"121.54","lat":"31.26495","category":"171","category_name":"台球厅","address":"杨浦区平凉路1500号东宫三号楼1楼(近宁国路)"},{"poiid":"B2094757D06FA4F44692","title":"杭州路","lon":"121.53958","lat":"31.261819","category":"500","category_name":"未知分类","address":"上海杭州路宁国路"},{"poiid":"B2094757D465A4F9489C","title":"上海兴荣温德姆酒店 尚荣轩","lon":"121.538991","lat":"31.26016","category":"76","category_name":"上海菜","address":"杨浦区宁国路25号兴荣温德姆酒店2、31、32楼(近杭州路)"},{"poiid":"B2094757D068A2FC409A","title":"萨贝莉","lon":"121.53963","lat":"31.26501","category":"94","category_name":"西餐厅","address":"杨浦区平凉路1500号沪东工人文化宫附近"},{"poiid":"B2094757D069ABFE439E","title":"广东人家","lon":"121.540422054","lat":"31.262050793","category":"68","category_name":"快餐厅","address":"杨浦区周家牌路109弄203号后门(三星路口)"},{"poiid":"B2094757D069A4FB429C","title":"三星路香酥鸡摊","lon":"121.53993","lat":"31.26423","category":"257","category_name":"中餐厅","address":"上海杨浦区平凉路1490弄1号杨浦图书馆斜对面(近宁国路)"},{"poiid":"B2094757D068A4F94893","title":"杨树浦路松潘路","lon":"121.540130143","lat":"31.2605108352","category":"260","category_name":"其他","address":"上海杨树浦路松潘路"},{"poiid":"B2094654D56EA7FF409A","title":"海救大楼","lon":"121.544","lat":"31.2615","category":"46","category_name":"楼宇","address":"杨树浦路1426号"},{"poiid":"B2094654D56FA6FE469A","title":"老北京热气涮羊肉","lon":"121.540374054","lat":"31.261556793","category":"86","category_name":"火锅店","address":"杨浦区松潘路148号(853车站终点站对面)"},{"poiid":"B2094753D66BA3FB499F","title":"上海时尚国际中心","lon":"121.546409","lat":"31.263299","category":"500","category_name":"未知分类","address":"上海市 杨树浦路2836号"},{"poiid":"B2094757D06AA6F94799","title":"DQ冰雪皇后(长阳欧尚)","lon":"121.5447781","lat":"31.267579362","category":"247","category_name":"餐饮美食","address":"上海长阳路1750号"},{"poiid":"B2094757DB6EAAFF4692","title":"陆家嘴","lon":"121.5446194763579","lat":"31.25915212902939","category":"247","category_name":"餐饮美食","address":"星巴克"},{"poiid":"B2094757D16CA2FB429F","title":"杨树浦路临青路","lon":"121.544576103","lat":"31.2627112611","category":"500","category_name":"未知分类","address":"上海杨树浦路1991弄"},{"poiid":"B2094655D26BA7F8409B","title":"依仁里","lon":"121.54404","lat":"31.26186","category":"47","category_name":"住宅区","address":"上海杨树浦路1963弄"},{"poiid":"B2094757D065A7FD439C","title":"雅俗原味香酥鸡店","lon":"121.539661103","lat":"31.2644432973","category":"68","category_name":"快餐厅","address":"杨浦区三星路77号"},{"poiid":"B2094757D469A1FE419F","title":"武氏龙虾","lon":"121.540522","lat":"31.26109","category":"68","category_name":"快餐厅","address":"杨浦区松潘路138号(近杭州路)"},{"poiid":"B2094654DB6BA2FA439B","title":"一兆韦德健身(平凉路店)","lon":"121.53914","lat":"31.26485","category":"221","category_name":"健身中心","address":"杨浦区平凉路1500号"},{"poiid":"B2094655D26DAAFA469F","title":"华忻坊(南门)","lon":"121.54436","lat":"31.26214","category":"47","category_name":"住宅区","address":"杨树浦路1991弄"},{"poiid":"B2094655D26CA5FA4692","title":"华忻坊","lon":"121.54409","lat":"31.26235","category":"47","category_name":"住宅区","address":"杨树浦路1991弄"},{"poiid":"B2094757D16EABFB459A","title":"阿年锅贴","lon":"121.541584803","lat":"31.2599038025","category":"68","category_name":"快餐厅","address":"杨浦区周家牌路94号-5小号(近松潘路)"},{"poiid":"B2094757D06AA5FB439B","title":"杭州路鸡粥","lon":"121.541143674","lat":"31.2639084426","category":"68","category_name":"快餐厅","address":"杨浦区杭州路(近三星路)"},{"poiid":"B2094654D56FA6FE419E","title":"上海电气电站设备有限公司电站辅机厂","lon":"121.54341","lat":"31.26058","category":"263","category_name":"公司","address":""},{"poiid":"B2094654D56FA6FE489E","title":"丰泰世纪公寓","lon":"121.542213","lat":"31.258724","category":"47","category_name":"住宅区","address":"上海市杨浦区杨树浦路1780号"},{"poiid":"B2094757D568AAFE449C","title":"上海轮渡宁国路渡口","lon":"121.542579","lat":"31.256299","category":"35","category_name":"长途汽车站","address":"宁国南路10号"},{"poiid":"B2094655D265A2FD439D","title":"长发里","lon":"121.54288","lat":"31.26071","category":"47","category_name":"住宅区","address":"杨树浦路1877弄1-14号"},{"poiid":"B2094654D56FA6FD499B","title":"上海环球超市公司成和店","lon":"121.54479","lat":"31.26237","category":"117","category_name":"便民商店/便利店","address":"杨浦区杨树浦路2013号(秦皇岛路杨树浦路)"},{"poiid":"B2094654D56FA6FE4099","title":"上海广德桑拿浴","lon":"121.54463","lat":"31.26134","category":"149","category_name":"洗浴推拿场所","address":""},{"poiid":"B2094757D065A3FA4898","title":"鸿德坊","lon":"121.543320643","lat":"31.2619062643","category":"500","category_name":"未知分类","address":"上海杨树浦路临青路"},{"poiid":"B2094655D265A1F5429D","title":"怡德里","lon":"121.54255","lat":"31.26038","category":"47","category_name":"住宅区","address":"杨树浦路1851弄"},{"poiid":"B2094655D26CA6FD479C","title":"重庆鸡公煲(杭州路)","lon":"121.54152","lat":"31.26378","category":"71","category_name":"四川菜","address":"杭州路573弄2-2"},{"poiid":"B2094655D265A2FD439C","title":"润玉里","lon":"121.54228","lat":"31.26008","category":"47","category_name":"住宅区","address":"杨树浦路1825弄"},{"poiid":"B2094757D66EA4FB499E","title":"松潘路杨树浦路站(公交8终,813终,853终)","lon":"121.541124798","lat":"31.2605390874","category":"38","category_name":"公交车站","address":"上海杨浦区松潘路周家牌路"},{"poiid":"B2094655D36CA3FD4192","title":"志仁里","lon":"121.54434","lat":"31.26295","category":"47","category_name":"住宅区","address":"临青路43弄、75弄"},{"poiid":"B2094655D265A2FD439B","title":"谭记私房菜","lon":"121.53984","lat":"31.26164","category":"76","category_name":"上海菜","address":"杨浦区松潘路149号(杭州路松潘路)"},{"poiid":"B2094654D56FA6FE409C","title":"华源大药房飞跃药店","lon":"121.54393","lat":"31.26154","category":"669","category_name":"药店","address":"杨树浦路1943、1947"},{"poiid":"B2094757D66EA1FC4392","title":"老头生煎","lon":"121.54163","lat":"31.26038","category":"247","category_name":"餐饮美食","address":"上海杨浦区周家牌路菜场内(近松潘路好德超市)  "},{"poiid":"B2094655D26EA3F9489B","title":"金秋广场","lon":"121.54301","lat":"31.26317","category":"201","category_name":"城市广场","address":"周家牌路217"},{"poiid":"B2094655D26CA5FA4693","title":"金秋广场(东门)","lon":"121.54323","lat":"31.26328","category":"201","category_name":"城市广场","address":"周家牌路217"},{"poiid":"B2094654D56FA6FE419D","title":"上海景宏橡塑制品有限公司","lon":"121.5429","lat":"31.26052","category":"123","category_name":"家具建材市场","address":"杨树浦路1859-1861号"},{"poiid":"B2094655D26CA5FD459D","title":"大德里(西门)","lon":"121.54497","lat":"31.26305","category":"47","category_name":"住宅区","address":"临青路26弄"},{"poiid":"B2094757D06FA2F84498","title":"上海兴荣温德姆酒店","lon":"121.53912567915063","lat":"31.26011215378175","category":"76","category_name":"上海菜","address":"杨浦区宁国路25号兴荣温德姆酒店(近杭州路)"},{"poiid":"B2094655D36DA0F94092","title":"杨浦大桥","lon":"121.54012","lat":"31.26137","category":"38","category_name":"公交车站","address":"浦东新区浦东大道2175弄88号(近北洋泾路)"},{"poiid":"B2094757D06FABFC419E","title":"沪东工人文化宫","lon":"121.539871","lat":"31.26578","category":"260","category_name":"其他","address":"杨浦区平凉路1500号"},{"poiid":"B2094654D56FABFE419B","title":"东宫影剧院","lon":"121.539942","lat":"31.265521","category":"178","category_name":"电影院","address":"上海市杨浦区平凉路1500号一号楼"},{"poiid":"B2094757D06FA0F9499B","title":"肯德基 KFC (沪东店)","lon":"121.539479","lat":"31.26497","category":"68","category_name":"快餐厅","address":"杨浦区平凉路1500号(近宁国路)"},{"poiid":"B2094655D269ABF84292","title":"沪东工人文化宫影剧院","lon":"121.53975","lat":"31.26507","category":"178","category_name":"电影院","address":"杨浦区平凉路1500号(近平凉公园)"},{"poiid":"B2094757D06FA2FF4599","title":"三星路小商品市场","lon":"121.53871","lat":"31.26417","category":"249","category_name":"购物服务","address":"杨浦区三星路一条街(近沪东工人文化宫)"},{"poiid":"B2094757D06FA4F9439B","title":"杨浦区图书馆","lon":"121.53936","lat":"31.26477","category":"181","category_name":"图书馆","address":"杨浦区平凉路1490弄1号(近宁国路)"},{"poiid":"B2094757D06FAAF84892","title":"杨浦区老年医院","lon":"121.53890578","lat":"31.260598383","category":"162","category_name":"医院","address":"杨浦区杭州路349号(近宁国路)"},{"poiid":"B2094757D06FA5F5439C","title":"上海财经大学附属中学","lon":"121.54641","lat":"31.26655","category":"55","category_name":"中学","address":"杨浦区宁武路151号(近平凉路)"},{"poiid":"B2094757D06FA0F8459B","title":"利都台球(平凉路店)","lon":"121.54","lat":"31.26495","category":"171","category_name":"台球厅","address":"杨浦区平凉路1500号东宫三号楼1楼(近宁国路)"},{"poiid":"B2094757D06FA4F44692","title":"杭州路","lon":"121.53958","lat":"31.261819","category":"500","category_name":"未知分类","address":"上海杭州路宁国路"},{"poiid":"B2094757D465A4F9489C","title":"上海兴荣温德姆酒店 尚荣轩","lon":"121.538991","lat":"31.26016","category":"76","category_name":"上海菜","address":"杨浦区宁国路25号兴荣温德姆酒店2、31、32楼(近杭州路)"},{"poiid":"B2094757D068A2FC409A","title":"萨贝莉","lon":"121.53963","lat":"31.26501","category":"94","category_name":"西餐厅","address":"杨浦区平凉路1500号沪东工人文化宫附近"},{"poiid":"B2094757D069ABFE439E","title":"广东人家","lon":"121.540422054","lat":"31.262050793","category":"68","category_name":"快餐厅","address":"杨浦区周家牌路109弄203号后门(三星路口)"},{"poiid":"B2094757D069A4FB429C","title":"三星路香酥鸡摊","lon":"121.53993","lat":"31.26423","category":"257","category_name":"中餐厅","address":"上海杨浦区平凉路1490弄1号杨浦图书馆斜对面(近宁国路)"},{"poiid":"B2094757D068A4F94893","title":"杨树浦路松潘路","lon":"121.540130143","lat":"31.2605108352","category":"260","category_name":"其他","address":"上海杨树浦路松潘路"},{"poiid":"B2094654D56EA7FF409A","title":"海救大楼","lon":"121.544","lat":"31.2615","category":"46","category_name":"楼宇","address":"杨树浦路1426号"},{"poiid":"B2094654D56FA6FE469A","title":"老北京热气涮羊肉","lon":"121.540374054","lat":"31.261556793","category":"86","category_name":"火锅店","address":"杨浦区松潘路148号(853车站终点站对面)"},{"poiid":"B2094753D66BA3FB499F","title":"上海时尚国际中心","lon":"121.546409","lat":"31.263299","category":"500","category_name":"未知分类","address":"上海市 杨树浦路2836号"},{"poiid":"B2094757D06AA6F94799","title":"DQ冰雪皇后(长阳欧尚)","lon":"121.5447781","lat":"31.267579362","category":"247","category_name":"餐饮美食","address":"上海长阳路1750号"},{"poiid":"B2094757DB6EAAFF4692","title":"陆家嘴","lon":"121.5446194763579","lat":"31.25915212902939","category":"247","category_name":"餐饮美食","address":"星巴克"},{"poiid":"B2094757D16CA2FB429F","title":"杨树浦路临青路","lon":"121.544576103","lat":"31.2627112611","category":"500","category_name":"未知分类","address":"上海杨树浦路1991弄"},{"poiid":"B2094655D26BA7F8409B","title":"依仁里","lon":"121.54404","lat":"31.26186","category":"47","category_name":"住宅区","address":"上海杨树浦路1963弄"},{"poiid":"B2094757D065A7FD439C","title":"雅俗原味香酥鸡店","lon":"121.539661103","lat":"31.2644432973","category":"68","category_name":"快餐厅","address":"杨浦区三星路77号"},{"poiid":"B2094757D469A1FE419F","title":"武氏龙虾","lon":"121.540522","lat":"31.26109","category":"68","category_name":"快餐厅","address":"杨浦区松潘路138号(近杭州路)"},{"poiid":"B2094654DB6BA2FA439B","title":"一兆韦德健身(平凉路店)","lon":"121.53914","lat":"31.26485","category":"221","category_name":"健身中心","address":"杨浦区平凉路1500号"},{"poiid":"B2094655D26DAAFA469F","title":"华忻坊(南门)","lon":"121.54436","lat":"31.26214","category":"47","category_name":"住宅区","address":"杨树浦路1991弄"},{"poiid":"B2094655D26CA5FA4692","title":"华忻坊","lon":"121.54409","lat":"31.26235","category":"47","category_name":"住宅区","address":"杨树浦路1991弄"},{"poiid":"B2094757D16EABFB459A","title":"阿年锅贴","lon":"121.541584803","lat":"31.2599038025","category":"68","category_name":"快餐厅","address":"杨浦区周家牌路94号-5小号(近松潘路)"},{"poiid":"B2094757D06AA5FB439B","title":"杭州路鸡粥","lon":"121.541143674","lat":"31.2639084426","category":"68","category_name":"快餐厅","address":"杨浦区杭州路(近三星路)"},{"poiid":"B2094654D56FA6FE419E","title":"上海电气电站设备有限公司电站辅机厂","lon":"121.54341","lat":"31.26058","category":"263","category_name":"公司","address":""},{"poiid":"B2094654D56FA6FE489E","title":"丰泰世纪公寓","lon":"121.542213","lat":"31.258724","category":"47","category_name":"住宅区","address":"上海市杨浦区杨树浦路1780号"},{"poiid":"B2094757D568AAFE449C","title":"上海轮渡宁国路渡口","lon":"121.542579","lat":"31.256299","category":"35","category_name":"长途汽车站","address":"宁国南路10号"},{"poiid":"B2094655D265A2FD439D","title":"长发里","lon":"121.54288","lat":"31.26071","category":"47","category_name":"住宅区","address":"杨树浦路1877弄1-14号"},{"poiid":"B2094654D56FA6FD499B","title":"上海环球超市公司成和店","lon":"121.54479","lat":"31.26237","category":"117","category_name":"便民商店/便利店","address":"杨浦区杨树浦路2013号(秦皇岛路杨树浦路)"},{"poiid":"B2094654D56FA6FE4099","title":"上海广德桑拿浴","lon":"121.54463","lat":"31.26134","category":"149","category_name":"洗浴推拿场所","address":""},{"poiid":"B2094757D065A3FA4898","title":"鸿德坊","lon":"121.543320643","lat":"31.2619062643","category":"500","category_name":"未知分类","address":"上海杨树浦路临青路"},{"poiid":"B2094655D265A1F5429D","title":"怡德里","lon":"121.54255","lat":"31.26038","category":"47","category_name":"住宅区","address":"杨树浦路1851弄"},{"poiid":"B2094655D26CA6FD479C","title":"重庆鸡公煲(杭州路)","lon":"121.54152","lat":"31.26378","category":"71","category_name":"四川菜","address":"杭州路573弄2-2"},{"poiid":"B2094655D265A2FD439C","title":"润玉里","lon":"121.54228","lat":"31.26008","category":"47","category_name":"住宅区","address":"杨树浦路1825弄"},{"poiid":"B2094757D66EA4FB499E","title":"松潘路杨树浦路站(公交8终,813终,853终)","lon":"121.541124798","lat":"31.2605390874","category":"38","category_name":"公交车站","address":"上海杨浦区松潘路周家牌路"},{"poiid":"B2094655D36CA3FD4192","title":"志仁里","lon":"121.54434","lat":"31.26295","category":"47","category_name":"住宅区","address":"临青路43弄、75弄"},{"poiid":"B2094655D265A2FD439B","title":"谭记私房菜","lon":"121.53984","lat":"31.26164","category":"76","category_name":"上海菜","address":"杨浦区松潘路149号(杭州路松潘路)"},{"poiid":"B2094654D56FA6FE409C","title":"华源大药房飞跃药店","lon":"121.54393","lat":"31.26154","category":"669","category_name":"药店","address":"杨树浦路1943、1947"},{"poiid":"B2094757D66EA1FC4392","title":"老头生煎","lon":"121.54163","lat":"31.26038","category":"247","category_name":"餐饮美食","address":"上海杨浦区周家牌路菜场内(近松潘路好德超市)  "},{"poiid":"B2094655D26EA3F9489B","title":"金秋广场","lon":"121.54301","lat":"31.26317","category":"201","category_name":"城市广场","address":"周家牌路217"},{"poiid":"B2094655D26CA5FA4693","title":"金秋广场(东门)","lon":"121.54323","lat":"31.26328","category":"201","category_name":"城市广场","address":"周家牌路217"},{"poiid":"B2094654D56FA6FE419D","title":"上海景宏橡塑制品有限公司","lon":"121.5429","lat":"31.26052","category":"123","category_name":"家具建材市场","address":"杨树浦路1859-1861号"},{"poiid":"B2094655D26CA5FD459D","title":"大德里(西门)","lon":"121.54497","lat":"31.26305","category":"47","category_name":"住宅区","address":"临青路26弄"},{"poiid":"B2094757D06FA2F84498","title":"上海兴荣温德姆酒店","lon":"121.53912567915063","lat":"31.26011215378175","category":"76","category_name":"上海菜","address":"杨浦区宁国路25号兴荣温德姆酒店(近杭州路)"},{"poiid":"B2094655D36DA0F94092","title":"杨浦大桥","lon":"121.54012","lat":"31.26137","category":"38","category_name":"公交车站","address":"浦东新区浦东大道2175弄88号(近北洋泾路)"},{"poiid":"B2094757D06FABFC419E","title":"沪东工人文化宫","lon":"121.539871","lat":"31.26578","category":"260","category_name":"其他","address":"杨浦区平凉路1500号"},{"poiid":"B2094654D56FABFE419B","title":"东宫影剧院","lon":"121.539942","lat":"31.265521","category":"178","category_name":"电影院","address":"上海市杨浦区平凉路1500号一号楼"},{"poiid":"B2094757D06FA0F9499B","title":"肯德基 KFC (沪东店)","lon":"121.539479","lat":"31.26497","category":"68","category_name":"快餐厅","address":"杨浦区平凉路1500号(近宁国路)"},{"poiid":"B2094655D269ABF84292","title":"沪东工人文化宫影剧院","lon":"121.53975","lat":"31.26507","category":"178","category_name":"电影院","address":"杨浦区平凉路1500号(近平凉公园)"},{"poiid":"B2094757D06FA2FF4599","title":"三星路小商品市场","lon":"121.53871","lat":"31.26417","category":"249","category_name":"购物服务","address":"杨浦区三星路一条街(近沪东工人文化宫)"},{"poiid":"B2094757D06FA4F9439B","title":"杨浦区图书馆","lon":"121.53936","lat":"31.26477","category":"181","category_name":"图书馆","address":"杨浦区平凉路1490弄1号(近宁国路)"},{"poiid":"B2094757D06FAAF84892","title":"杨浦区老年医院","lon":"121.53890578","lat":"31.260598383","category":"162","category_name":"医院","address":"杨浦区杭州路349号(近宁国路)"},{"poiid":"B2094757D06FA5F5439C","title":"上海财经大学附属中学","lon":"121.54641","lat":"31.26655","category":"55","category_name":"中学","address":"杨浦区宁武路151号(近平凉路)"},{"poiid":"B2094757D06FA0F8459B","title":"利都台球(平凉路店)","lon":"121.54","lat":"31.26495","category":"171","category_name":"台球厅","address":"杨浦区平凉路1500号东宫三号楼1楼(近宁国路)"},{"poiid":"B2094757D06FA4F44692","title":"杭州路","lon":"121.53958","lat":"31.261819","category":"500","category_name":"未知分类","address":"上海杭州路宁国路"},{"poiid":"B2094757D465A4F9489C","title":"上海兴荣温德姆酒店 尚荣轩","lon":"121.538991","lat":"31.26016","category":"76","category_name":"上海菜","address":"杨浦区宁国路25号兴荣温德姆酒店2、31、32楼(近杭州路)"},{"poiid":"B2094757D068A2FC409A","title":"萨贝莉","lon":"121.53963","lat":"31.26501","category":"94","category_name":"西餐厅","address":"杨浦区平凉路1500号沪东工人文化宫附近"},{"poiid":"B2094757D069ABFE439E","title":"广东人家","lon":"121.540422054","lat":"31.262050793","category":"68","category_name":"快餐厅","address":"杨浦区周家牌路109弄203号后门(三星路口)"},{"poiid":"B2094757D069A4FB429C","title":"三星路香酥鸡摊","lon":"121.53993","lat":"31.26423","category":"257","category_name":"中餐厅","address":"上海杨浦区平凉路1490弄1号杨浦图书馆斜对面(近宁国路)"},{"poiid":"B2094757D068A4F94893","title":"杨树浦路松潘路","lon":"121.540130143","lat":"31.2605108352","category":"260","category_name":"其他","address":"上海杨树浦路松潘路"},{"poiid":"B2094654D56EA7FF409A","title":"海救大楼","lon":"121.544","lat":"31.2615","category":"46","category_name":"楼宇","address":"杨树浦路1426号"},{"poiid":"B2094654D56FA6FE469A","title":"老北京热气涮羊肉","lon":"121.540374054","lat":"31.261556793","category":"86","category_name":"火锅店","address":"杨浦区松潘路148号(853车站终点站对面)"},{"poiid":"B2094753D66BA3FB499F","title":"上海时尚国际中心","lon":"121.546409","lat":"31.263299","category":"500","category_name":"未知分类","address":"上海市 杨树浦路2836号"},{"poiid":"B2094757D06AA6F94799","title":"DQ冰雪皇后(长阳欧尚)","lon":"121.5447781","lat":"31.267579362","category":"247","category_name":"餐饮美食","address":"上海长阳路1750号"},{"poiid":"B2094757DB6EAAFF4692","title":"陆家嘴","lon":"121.5446194763579","lat":"31.25915212902939","category":"247","category_name":"餐饮美食","address":"星巴克"},{"poiid":"B2094757D16CA2FB429F","title":"杨树浦路临青路","lon":"121.544576103","lat":"31.2627112611","category":"500","category_name":"未知分类","address":"上海杨树浦路1991弄"},{"poiid":"B2094655D26BA7F8409B","title":"依仁里","lon":"121.54404","lat":"31.26186","category":"47","category_name":"住宅区","address":"上海杨树浦路1963弄"},{"poiid":"B2094757D065A7FD439C","title":"雅俗原味香酥鸡店","lon":"121.539661103","lat":"31.2644432973","category":"68","category_name":"快餐厅","address":"杨浦区三星路77号"},{"poiid":"B2094757D469A1FE419F","title":"武氏龙虾","lon":"121.540522","lat":"31.26109","category":"68","category_name":"快餐厅","address":"杨浦区松潘路138号(近杭州路)"},{"poiid":"B2094654DB6BA2FA439B","title":"一兆韦德健身(平凉路店)","lon":"121.53914","lat":"31.26485","category":"221","category_name":"健身中心","address":"杨浦区平凉路1500号"},{"poiid":"B2094655D26DAAFA469F","title":"华忻坊(南门)","lon":"121.54436","lat":"31.26214","category":"47","category_name":"住宅区","address":"杨树浦路1991弄"},{"poiid":"B2094655D26CA5FA4692","title":"华忻坊","lon":"121.54409","lat":"31.26235","category":"47","category_name":"住宅区","address":"杨树浦路1991弄"},{"poiid":"B2094757D16EABFB459A","title":"阿年锅贴","lon":"121.541584803","lat":"31.2599038025","category":"68","category_name":"快餐厅","address":"杨浦区周家牌路94号-5小号(近松潘路)"},{"poiid":"B2094757D06AA5FB439B","title":"杭州路鸡粥","lon":"121.541143674","lat":"31.2639084426","category":"68","category_name":"快餐厅","address":"杨浦区杭州路(近三星路)"},{"poiid":"B2094654D56FA6FE419E","title":"上海电气电站设备有限公司电站辅机厂","lon":"121.54341","lat":"31.26058","category":"263","category_name":"公司","address":""},{"poiid":"B2094654D56FA6FE489E","title":"丰泰世纪公寓","lon":"121.542213","lat":"31.258724","category":"47","category_name":"住宅区","address":"上海市杨浦区杨树浦路1780号"},{"poiid":"B2094757D568AAFE449C","title":"上海轮渡宁国路渡口","lon":"121.542579","lat":"31.256299","category":"35","category_name":"长途汽车站","address":"宁国南路10号"},{"poiid":"B2094655D265A2FD439D","title":"长发里","lon":"121.54288","lat":"31.26071","category":"47","category_name":"住宅区","address":"杨树浦路1877弄1-14号"},{"poiid":"B2094654D56FA6FD499B","title":"上海环球超市公司成和店","lon":"121.54479","lat":"31.26237","category":"117","category_name":"便民商店/便利店","address":"杨浦区杨树浦路2013号(秦皇岛路杨树浦路)"},{"poiid":"B2094654D56FA6FE4099","title":"上海广德桑拿浴","lon":"121.54463","lat":"31.26134","category":"149","category_name":"洗浴推拿场所","address":""},{"poiid":"B2094757D065A3FA4898","title":"鸿德坊","lon":"121.543320643","lat":"31.2619062643","category":"500","category_name":"未知分类","address":"上海杨树浦路临青路"},{"poiid":"B2094655D265A1F5429D","title":"怡德里","lon":"121.54255","lat":"31.26038","category":"47","category_name":"住宅区","address":"杨树浦路1851弄"},{"poiid":"B2094655D26CA6FD479C","title":"重庆鸡公煲(杭州路)","lon":"121.54152","lat":"31.26378","category":"71","category_name":"四川菜","address":"杭州路573弄2-2"},{"poiid":"B2094655D265A2FD439C","title":"润玉里","lon":"121.54228","lat":"31.26008","category":"47","category_name":"住宅区","address":"杨树浦路1825弄"},{"poiid":"B2094757D66EA4FB499E","title":"松潘路杨树浦路站(公交8终,813终,853终)","lon":"121.541124798","lat":"31.2605390874","category":"38","category_name":"公交车站","address":"上海杨浦区松潘路周家牌路"},{"poiid":"B2094655D36CA3FD4192","title":"志仁里","lon":"121.54434","lat":"31.26295","category":"47","category_name":"住宅区","address":"临青路43弄、75弄"},{"poiid":"B2094655D265A2FD439B","title":"谭记私房菜","lon":"121.53984","lat":"31.26164","category":"76","category_name":"上海菜","address":"杨浦区松潘路149号(杭州路松潘路)"},{"poiid":"B2094654D56FA6FE409C","title":"华源大药房飞跃药店","lon":"121.54393","lat":"31.26154","category":"669","category_name":"药店","address":"杨树浦路1943、1947"},{"poiid":"B2094757D66EA1FC4392","title":"老头生煎","lon":"121.54163","lat":"31.26038","category":"247","category_name":"餐饮美食","address":"上海杨浦区周家牌路菜场内(近松潘路好德超市)  "},{"poiid":"B2094655D26EA3F9489B","title":"金秋广场","lon":"121.54301","lat":"31.26317","category":"201","category_name":"城市广场","address":"周家牌路217"},{"poiid":"B2094655D26CA5FA4693","title":"金秋广场(东门)","lon":"121.54323","lat":"31.26328","category":"201","category_name":"城市广场","address":"周家牌路217"},{"poiid":"B2094654D56FA6FE419D","title":"上海景宏橡塑制品有限公司","lon":"121.5429","lat":"31.26052","category":"123","category_name":"家具建材市场","address":"杨树浦路1859-1861号"},{"poiid":"B2094655D26CA5FD459D","title":"大德里(西门)","lon":"121.54497","lat":"31.26305","category":"47","category_name":"住宅区","address":"临青路26弄"},{"poiid":"B2094757D06FA2F84498","title":"上海兴荣温德姆酒店","lon":"121.53912567915063","lat":"31.26011215378175","category":"76","category_name":"上海菜","address":"杨浦区宁国路25号兴荣温德姆酒店(近杭州路)"},{"poiid":"B2094655D36DA0F94092","title":"杨浦大桥","lon":"121.54012","lat":"31.26137","category":"38","category_name":"公交车站","address":"浦东新区浦东大道2175弄88号(近北洋泾路)"},{"poiid":"B2094757D06FABFC419E","title":"沪东工人文化宫","lon":"121.539871","lat":"31.26578","category":"260","category_name":"其他","address":"杨浦区平凉路1500号"},{"poiid":"B2094654D56FABFE419B","title":"东宫影剧院","lon":"121.539942","lat":"31.265521","category":"178","category_name":"电影院","address":"上海市杨浦区平凉路1500号一号楼"},{"poiid":"B2094757D06FA0F9499B","title":"肯德基 KFC (沪东店)","lon":"121.539479","lat":"31.26497","category":"68","category_name":"快餐厅","address":"杨浦区平凉路1500号(近宁国路)"},{"poiid":"B2094655D269ABF84292","title":"沪东工人文化宫影剧院","lon":"121.53975","lat":"31.26507","category":"178","category_name":"电影院","address":"杨浦区平凉路1500号(近平凉公园)"},{"poiid":"B2094757D06FA2FF4599","title":"三星路小商品市场","lon":"121.53871","lat":"31.26417","category":"249","category_name":"购物服务","address":"杨浦区三星路一条街(近沪东工人文化宫)"},{"poiid":"B2094757D06FA4F9439B","title":"杨浦区图书馆","lon":"121.53936","lat":"31.26477","category":"181","category_name":"图书馆","address":"杨浦区平凉路1490弄1号(近宁国路)"},{"poiid":"B2094757D06FAAF84892","title":"杨浦区老年医院","lon":"121.53890578","lat":"31.260598383","category":"162","category_name":"医院","address":"杨浦区杭州路349号(近宁国路)"},{"poiid":"B2094757D06FA5F5439C","title":"上海财经大学附属中学","lon":"121.54641","lat":"31.26655","category":"55","category_name":"中学","address":"杨浦区宁武路151号(近平凉路)"},{"poiid":"B2094757D06FA0F8459B","title":"利都台球(平凉路店)","lon":"121.54","lat":"31.26495","category":"171","category_name":"台球厅","address":"杨浦区平凉路1500号东宫三号楼1楼(近宁国路)"},{"poiid":"B2094757D06FA4F44692","title":"杭州路","lon":"121.53958","lat":"31.261819","category":"500","category_name":"未知分类","address":"上海杭州路宁国路"},{"poiid":"B2094757D465A4F9489C","title":"上海兴荣温德姆酒店 尚荣轩","lon":"121.538991","lat":"31.26016","category":"76","category_name":"上海菜","address":"杨浦区宁国路25号兴荣温德姆酒店2、31、32楼(近杭州路)"},{"poiid":"B2094757D068A2FC409A","title":"萨贝莉","lon":"121.53963","lat":"31.26501","category":"94","category_name":"西餐厅","address":"杨浦区平凉路1500号沪东工人文化宫附近"},{"poiid":"B2094757D069ABFE439E","title":"广东人家","lon":"121.540422054","lat":"31.262050793","category":"68","category_name":"快餐厅","address":"杨浦区周家牌路109弄203号后门(三星路口)"},{"poiid":"B2094757D069A4FB429C","title":"三星路香酥鸡摊","lon":"121.53993","lat":"31.26423","category":"257","category_name":"中餐厅","address":"上海杨浦区平凉路1490弄1号杨浦图书馆斜对面(近宁国路)"},{"poiid":"B2094757D068A4F94893","title":"杨树浦路松潘路","lon":"121.540130143","lat":"31.2605108352","category":"260","category_name":"其他","address":"上海杨树浦路松潘路"},{"poiid":"B2094654D56EA7FF409A","title":"海救大楼","lon":"121.544","lat":"31.2615","category":"46","category_name":"楼宇","address":"杨树浦路1426号"},{"poiid":"B2094654D56FA6FE469A","title":"老北京热气涮羊肉","lon":"121.540374054","lat":"31.261556793","category":"86","category_name":"火锅店","address":"杨浦区松潘路148号(853车站终点站对面)"},{"poiid":"B2094753D66BA3FB499F","title":"上海时尚国际中心","lon":"121.546409","lat":"31.263299","category":"500","category_name":"未知分类","address":"上海市 杨树浦路2836号"},{"poiid":"B2094757D06AA6F94799","title":"DQ冰雪皇后(长阳欧尚)","lon":"121.5447781","lat":"31.267579362","category":"247","category_name":"餐饮美食","address":"上海长阳路1750号"},{"poiid":"B2094757DB6EAAFF4692","title":"陆家嘴","lon":"121.5446194763579","lat":"31.25915212902939","category":"247","category_name":"餐饮美食","address":"星巴克"},{"poiid":"B2094757D16CA2FB429F","title":"杨树浦路临青路","lon":"121.544576103","lat":"31.2627112611","category":"500","category_name":"未知分类","address":"上海杨树浦路1991弄"},{"poiid":"B2094655D26BA7F8409B","title":"依仁里","lon":"121.54404","lat":"31.26186","category":"47","category_name":"住宅区","address":"上海杨树浦路1963弄"},{"poiid":"B2094757D065A7FD439C","title":"雅俗原味香酥鸡店","lon":"121.539661103","lat":"31.2644432973","category":"68","category_name":"快餐厅","address":"杨浦区三星路77号"},{"poiid":"B2094757D469A1FE419F","title":"武氏龙虾","lon":"121.540522","lat":"31.26109","category":"68","category_name":"快餐厅","address":"杨浦区松潘路138号(近杭州路)"},{"poiid":"B2094654DB6BA2FA439B","title":"一兆韦德健身(平凉路店)","lon":"121.53914","lat":"31.26485","category":"221","category_name":"健身中心","address":"杨浦区平凉路1500号"},{"poiid":"B2094655D26DAAFA469F","title":"华忻坊(南门)","lon":"121.54436","lat":"31.26214","category":"47","category_name":"住宅区","address":"杨树浦路1991弄"},{"poiid":"B2094655D26CA5FA4692","title":"华忻坊","lon":"121.54409","lat":"31.26235","category":"47","category_name":"住宅区","address":"杨树浦路1991弄"},{"poiid":"B2094757D16EABFB459A","title":"阿年锅贴","lon":"121.541584803","lat":"31.2599038025","category":"68","category_name":"快餐厅","address":"杨浦区周家牌路94号-5小号(近松潘路)"},{"poiid":"B2094757D06AA5FB439B","title":"杭州路鸡粥","lon":"121.541143674","lat":"31.2639084426","category":"68","category_name":"快餐厅","address":"杨浦区杭州路(近三星路)"},{"poiid":"B2094654D56FA6FE419E","title":"上海电气电站设备有限公司电站辅机厂","lon":"121.54341","lat":"31.26058","category":"263","category_name":"公司","address":""},{"poiid":"B2094654D56FA6FE489E","title":"丰泰世纪公寓","lon":"121.542213","lat":"31.258724","category":"47","category_name":"住宅区","address":"上海市杨浦区杨树浦路1780号"},{"poiid":"B2094757D568AAFE449C","title":"上海轮渡宁国路渡口","lon":"121.542579","lat":"31.256299","category":"35","category_name":"长途汽车站","address":"宁国南路10号"},{"poiid":"B2094655D265A2FD439D","title":"长发里","lon":"121.54288","lat":"31.26071","category":"47","category_name":"住宅区","address":"杨树浦路1877弄1-14号"},{"poiid":"B2094654D56FA6FD499B","title":"上海环球超市公司成和店","lon":"121.54479","lat":"31.26237","category":"117","category_name":"便民商店/便利店","address":"杨浦区杨树浦路2013号(秦皇岛路杨树浦路)"},{"poiid":"B2094654D56FA6FE4099","title":"上海广德桑拿浴","lon":"121.54463","lat":"31.26134","category":"149","category_name":"洗浴推拿场所","address":""},{"poiid":"B2094757D065A3FA4898","title":"鸿德坊","lon":"121.543320643","lat":"31.2619062643","category":"500","category_name":"未知分类","address":"上海杨树浦路临青路"},{"poiid":"B2094655D265A1F5429D","title":"怡德里","lon":"121.54255","lat":"31.26038","category":"47","category_name":"住宅区","address":"杨树浦路1851弄"},{"poiid":"B2094655D26CA6FD479C","title":"重庆鸡公煲(杭州路)","lon":"121.54152","lat":"31.26378","category":"71","category_name":"四川菜","address":"杭州路573弄2-2"},{"poiid":"B2094655D265A2FD439C","title":"润玉里","lon":"121.54228","lat":"31.26008","category":"47","category_name":"住宅区","address":"杨树浦路1825弄"},{"poiid":"B2094757D66EA4FB499E","title":"松潘路杨树浦路站(公交8终,813终,853终)","lon":"121.541124798","lat":"31.2605390874","category":"38","category_name":"公交车站","address":"上海杨浦区松潘路周家牌路"},{"poiid":"B2094655D36CA3FD4192","title":"志仁里","lon":"121.54434","lat":"31.26295","category":"47","category_name":"住宅区","address":"临青路43弄、75弄"},{"poiid":"B2094655D265A2FD439B","title":"谭记私房菜","lon":"121.53984","lat":"31.26164","category":"76","category_name":"上海菜","address":"杨浦区松潘路149号(杭州路松潘路)"},{"poiid":"B2094654D56FA6FE409C","title":"华源大药房飞跃药店","lon":"121.54393","lat":"31.26154","category":"669","category_name":"药店","address":"杨树浦路1943、1947"},{"poiid":"B2094757D66EA1FC4392","title":"老头生煎","lon":"121.54163","lat":"31.26038","category":"247","category_name":"餐饮美食","address":"上海杨浦区周家牌路菜场内(近松潘路好德超市)  "},{"poiid":"B2094655D26EA3F9489B","title":"金秋广场","lon":"121.54301","lat":"31.26317","category":"201","category_name":"城市广场","address":"周家牌路217"},{"poiid":"B2094655D26CA5FA4693","title":"金秋广场(东门)","lon":"121.54323","lat":"31.26328","category":"201","category_name":"城市广场","address":"周家牌路217"},{"poiid":"B2094654D56FA6FE419D","title":"上海景宏橡塑制品有限公司","lon":"121.5429","lat":"31.26052","category":"123","category_name":"家具建材市场","address":"杨树浦路1859-1861号"},{"poiid":"B2094655D26CA5FD459D","title":"大德里(西门)","lon":"121.54497","lat":"31.26305","category":"47","category_name":"住宅区","address":"临青路26弄"}]