[{"poiid":"B2094757D06FA3FD449D","title":"同济大学(沪西校区)","lon":"121.39089202","lat":"31.269561767","category":"671","category_name":"高校中心点","address":"普陀区真南路500号(近真北路)"},{"poiid":"B2094654D465A3F54392","title":"安居古浪新苑","lon":"121.389373","lat":"31.289503","category":"47","category_name":"住宅区","address":"上海市普陀区古浪路518弄"},{"poiid":"B2094757D068A0F5459B","title":"真南路李子园","lon":"121.38638795","lat":"31.2723731053","category":"500","category_name":"未知分类","address":"上海普陀区真南路822弄"},{"poiid":"B2094757D06FAAFB429B","title":"沪嘉高速","lon":"121.379823","lat":"31.290642","category":"38","category_name":"公交车站","address":"上海沪嘉高速"},{"poiid":"B2094757D06EAAFD449E","title":"李子园地铁站","lon":"121.38968953","lat":"31.269055936","category":"36","category_name":"地铁站","address":"上海轨道交通 十一号线 轨交李子园站 11"},{"poiid":"B2094757D06FABFE469C","title":"祥和星宇花园","lon":"121.39809388","lat":"31.2802769342","category":"47","category_name":"住宅区","address":"上海市闸北区康宁路616弄"},{"poiid":"B2094757D064A6F5489F","title":"恒盛鼎城华公馆","lon":"121.39661883554","lat":"31.283067185","category":"500","category_name":"未知分类","address":"普陀区武威东路788弄(近桃浦西路)"},{"poiid":"B2094750D56AA0FE459F","title":"恒盛鼎城圣都汇","lon":"121.38742","lat":"31.27816","category":"47","category_name":"住宅区","address":"普陀区武威东路888号"},{"poiid":"B2094757D66EA7F9469A","title":"同福来大酒店","lon":"121.38811475","lat":"31.2829816079","category":"76","category_name":"上海菜","address":"普陀区古浪路415弄1号(近祁连山路)"},{"poiid":"B2094757D065A5FD489C","title":"古浪路","lon":"121.37608995","lat":"31.2849073447","category":"500","category_name":"未知分类","address":"上海市普陀区古浪路"},{"poiid":"B2094757D06FA5FD489F","title":"M50桃浦创意园(祁连山路店)","lon":"121.37942583","lat":"31.278534862","category":"260","category_name":"其他","address":"上海普陀区祁连山路(武威路口)11号线祁连山路直达"},{"poiid":"B2094757D065A0FF499A","title":"金光花苑","lon":"121.38979","lat":"31.281506","category":"252","category_name":"楼宇机构","address":"上海古浪路355弄"},{"poiid":"B2094757D064A2FD4792","title":"新古浪大酒店","lon":"121.38274","lat":"31.2835","category":"76","category_name":"上海菜","address":"普陀区古浪路489号(近祁连山路)"},{"poiid":"B2094757D069A2F5469D","title":"金祁新城","lon":"121.38579695","lat":"31.293607511","category":"47","category_name":"住宅区","address":"上海普陀区祁安路365弄"},{"poiid":"B2094757D16CA7F5449A","title":"冠松大众","lon":"121.39540495","lat":"31.2721101003","category":"158","category_name":"汽车销售","address":"上海市普陀区真北路3045号"},{"poiid":"B2094757D16CA0FD4899","title":"祁连新家园","lon":"121.38506095","lat":"31.284919345","category":"252","category_name":"楼宇机构","address":"上海古浪路祁安路"},{"poiid":"B2094654D465A3F54093","title":"李子园别墅","lon":"121.392","lat":"31.2831","category":"47","category_name":"住宅区","address":"真南路822弄390支弄"},{"poiid":"B2094757D16DA1F84899","title":"三子烧烤","lon":"121.38469","lat":"31.2831","category":"68","category_name":"快餐厅","address":"普陀区古浪路400号(近祁安路)"},{"poiid":"B2094655D36CA2FE499F","title":"祁安路古浪路","lon":"121.38559","lat":"31.28365","category":"38","category_name":"公交车站","address":""},{"poiid":"B2094757D16AA5F94693","title":"中环名品公馆","lon":"121.39634084","lat":"31.281997811","category":"500","category_name":"未知分类","address":"上海市古浪路真大路"},{"poiid":"B2094750D565A0F8479B","title":"上海市普陀中心医院","lon":"121.391281","lat":"31.280668","category":"162","category_name":"医院","address":null},{"poiid":"B2094654D46BA6F9429D","title":"国际包装印刷城","lon":"121.3853818159","lat":"31.275776057594","category":"255","category_name":"专卖店","address":"普陀区真南路1051弄"},{"poiid":"B2094757D165A5F9429E","title":"李子园","lon":"121.38956538453","lat":"31.276329634011","category":"500","category_name":"未知分类","address":"普陀区真南路822弄390支弄李子园别墅20号"},{"poiid":"B2094654DB6AABF9439B","title":"金光花苑(北门)","lon":"121.38829","lat":"31.2828","category":"656","category_name":"大门","address":"古浪路355弄"},{"poiid":"B2094654D465A3F5409B","title":"三千里花苑","lon":"121.38623","lat":"31.27504","category":"47","category_name":"住宅区","address":"上海真南路822弄188支弄"},{"poiid":"B2094654D465A3F5479A","title":"好德No.871","lon":"121.38474","lat":"31.27995","category":"117","category_name":"便民商店/便利店","address":"真南路822弄521支弄31"},{"poiid":"B2094655D36CA6FC449B","title":"古浪路真北路","lon":"121.39992","lat":"31.28123","category":"38","category_name":"公交车站","address":""},{"poiid":"B2094655D26FA0F4459F","title":"祁连新家园(东门)","lon":"121.38553","lat":"31.28423","category":"47","category_name":"住宅区","address":"古浪路518弄"},{"poiid":"B2094654D465A3F54599","title":"好又多连锁超市","lon":"121.38339","lat":"31.28312","category":"118","category_name":"超级市场","address":"古浪路479"},{"poiid":"B2094655D264A4F5409F","title":"艺尖美容美发","lon":"121.38436","lat":"31.28336","category":"148","category_name":"美容美发店","address":"古浪路445-447号"},{"poiid":"B2094757D065A4F9419B","title":"智富名品城","lon":"121.392266","lat":"31.282621","category":"500","category_name":"未知分类","address":"普陀区古浪路188号"},{"poiid":"B2094655D26FA0FB479E","title":"桃浦公园(西门)","lon":"121.39201","lat":"31.28153","category":"680","category_name":"楼宇机构","address":"桃浦西路1018号"},{"poiid":"B2094757D065A1F44493","title":"738祁安路古浪路车站","lon":"121.38592995","lat":"31.2855573572","category":"500","category_name":"未知分类","address":"上海市普陀区古浪路祁安路"},{"poiid":"B2094654D465A3F4409B","title":"生乐公寓B区","lon":"121.395","lat":"31.2795","category":"47","category_name":"住宅区","address":"同济大学校沪西校区"},{"poiid":"B2094655D264A4F44493","title":"良友(古浪路店)","lon":"121.3829","lat":"31.28373","category":"117","category_name":"便民商店/便利店","address":"古浪路462号"},{"poiid":"B2094757DA6BAAFA4593","title":"复地美墅中环新界","lon":"121.382669","lat":"31.283906","category":"47","category_name":"住宅区","address":"普陀区古浪路8号（近真北路）"},{"poiid":"B2094655D36DA1FD449F","title":"真大路1号桥","lon":"121.39185","lat":"31.2784","category":"250","category_name":"公园户外","address":""},{"poiid":"B2094654D465A3F44099","title":"生乐公寓A区","lon":"121.38723","lat":"31.27341","category":"47","category_name":"住宅区","address":"上海普陀区真南路500号同济大学沪西校区"},{"poiid":"B2094757D068A7FF469B","title":"星之健身(大华店)","lon":"121.39299","lat":"31.28234","category":"220","category_name":"运动场所","address":"普陀区古浪路88号(真北路口)"},{"poiid":"B2094654D465A3F54398","title":"良友金伴(安居古浪新苑东)","lon":"121.38304","lat":"31.28385","category":"117","category_name":"便民商店/便利店","address":""},{"poiid":"B2094757D065AAF5429C","title":"上海高校机动车驾驶员培训中心(古浪路分部)","lon":"121.38323525","lat":"31.283293213","category":"253","category_name":"校园生活","address":"上海古浪路415弄8号2楼"},{"poiid":"B2094654D465A2F84893","title":"复地太阳城","lon":"121.39957","lat":"31.28284","category":"47","category_name":"住宅区","address":"上海市普陀区古浪路108弄"},{"poiid":"B2094655D26FA0FB4798","title":"李子园别墅(西门)","lon":"121.38495","lat":"31.27738","category":"47","category_name":"住宅区","address":"真南路822弄390支弄"},{"poiid":"B2094654D465A3F4419B","title":"同济大学第一教学楼","lon":"121.38958","lat":"31.2709","category":"52","category_name":"高等院校","address":"上海普陀区真南路500号同济大学沪西校区"},{"poiid":"B2094757D065A0FF4193","title":"李子园花苑","lon":"121.38638","lat":"31.271622","category":"47","category_name":"住宅区","address":"上海普陀区真南路710弄"},{"poiid":"B2094654D465A3F5439E","title":"丝千美容美发院","lon":"121.38296","lat":"31.28388","category":"148","category_name":"美容美发店","address":""},{"poiid":"B2094757D06AABFA409E","title":"冠松别克","lon":"121.39691995","lat":"31.274100138","category":"163","category_name":"4S店","address":"上海市普陀区真北路3045号"},{"poiid":"B2094757D069A1F54493","title":"一汽大众华星众捷","lon":"121.38895971","lat":"31.2686372739","category":"500","category_name":"未知分类","address":"上海真南路589号"},{"poiid":"B2094655D26CA7F84593","title":"金光花苑(东门)","lon":"121.39165","lat":"31.28089","category":"656","category_name":"大门","address":"桃浦西路955弄"},{"poiid":"B2094750DB64A2F9429C","title":"祥和星宇花园二期","lon":"121.395744","lat":"31.280811","category":"47","category_name":"住宅区","address":"普陀区古浪路183弄"},{"poiid":"B2094757D06FA3FD449D","title":"同济大学(沪西校区)","lon":"121.39089202","lat":"31.269561767","category":"671","category_name":"高校中心点","address":"普陀区真南路500号(近真北路)"},{"poiid":"B2094654D465A3F54392","title":"安居古浪新苑","lon":"121.389373","lat":"31.289503","category":"47","category_name":"住宅区","address":"上海市普陀区古浪路518弄"},{"poiid":"B2094757D068A0F5459B","title":"真南路李子园","lon":"121.38638795","lat":"31.2723731053","category":"500","category_name":"未知分类","address":"上海普陀区真南路822弄"},{"poiid":"B2094757D06FAAFB429B","title":"沪嘉高速","lon":"121.379823","lat":"31.290642","category":"38","category_name":"公交车站","address":"上海沪嘉高速"},{"poiid":"B2094757D06EAAFD449E","title":"李子园地铁站","lon":"121.38968953","lat":"31.269055936","category":"36","category_name":"地铁站","address":"上海轨道交通 十一号线 轨交李子园站 11"},{"poiid":"B2094757D06FABFE469C","title":"祥和星宇花园","lon":"121.39809388","lat":"31.2802769342","category":"47","category_name":"住宅区","address":"上海市闸北区康宁路616弄"},{"poiid":"B2094757D064A6F5489F","title":"恒盛鼎城华公馆","lon":"121.39661883554","lat":"31.283067185","category":"500","category_name":"未知分类","address":"普陀区武威东路788弄(近桃浦西路)"},{"poiid":"B2094750D56AA0FE459F","title":"恒盛鼎城圣都汇","lon":"121.38742","lat":"31.27816","category":"47","category_name":"住宅区","address":"普陀区武威东路888号"},{"poiid":"B2094757D66EA7F9469A","title":"同福来大酒店","lon":"121.38811475","lat":"31.2829816079","category":"76","category_name":"上海菜","address":"普陀区古浪路415弄1号(近祁连山路)"},{"poiid":"B2094757D065A5FD489C","title":"古浪路","lon":"121.37608995","lat":"31.2849073447","category":"500","category_name":"未知分类","address":"上海市普陀区古浪路"},{"poiid":"B2094757D06FA5FD489F","title":"M50桃浦创意园(祁连山路店)","lon":"121.37942583","lat":"31.278534862","category":"260","category_name":"其他","address":"上海普陀区祁连山路(武威路口)11号线祁连山路直达"},{"poiid":"B2094757D065A0FF499A","title":"金光花苑","lon":"121.38979","lat":"31.281506","category":"252","category_name":"楼宇机构","address":"上海古浪路355弄"},{"poiid":"B2094757D064A2FD4792","title":"新古浪大酒店","lon":"121.38274","lat":"31.2835","category":"76","category_name":"上海菜","address":"普陀区古浪路489号(近祁连山路)"},{"poiid":"B2094757D069A2F5469D","title":"金祁新城","lon":"121.38579695","lat":"31.293607511","category":"47","category_name":"住宅区","address":"上海普陀区祁安路365弄"},{"poiid":"B2094757D16CA7F5449A","title":"冠松大众","lon":"121.39540495","lat":"31.2721101003","category":"158","category_name":"汽车销售","address":"上海市普陀区真北路3045号"},{"poiid":"B2094757D16CA0FD4899","title":"祁连新家园","lon":"121.38506095","lat":"31.284919345","category":"252","category_name":"楼宇机构","address":"上海古浪路祁安路"},{"poiid":"B2094654D465A3F54093","title":"李子园别墅","lon":"121.392","lat":"31.2831","category":"47","category_name":"住宅区","address":"真南路822弄390支弄"},{"poiid":"B2094757D16DA1F84899","title":"三子烧烤","lon":"121.38469","lat":"31.2831","category":"68","category_name":"快餐厅","address":"普陀区古浪路400号(近祁安路)"},{"poiid":"B2094655D36CA2FE499F","title":"祁安路古浪路","lon":"121.38559","lat":"31.28365","category":"38","category_name":"公交车站","address":""},{"poiid":"B2094757D16AA5F94693","title":"中环名品公馆","lon":"121.39634084","lat":"31.281997811","category":"500","category_name":"未知分类","address":"上海市古浪路真大路"},{"poiid":"B2094750D565A0F8479B","title":"上海市普陀中心医院","lon":"121.391281","lat":"31.280668","category":"162","category_name":"医院","address":null},{"poiid":"B2094654D46BA6F9429D","title":"国际包装印刷城","lon":"121.3853818159","lat":"31.275776057594","category":"255","category_name":"专卖店","address":"普陀区真南路1051弄"},{"poiid":"B2094757D165A5F9429E","title":"李子园","lon":"121.38956538453","lat":"31.276329634011","category":"500","category_name":"未知分类","address":"普陀区真南路822弄390支弄李子园别墅20号"},{"poiid":"B2094654DB6AABF9439B","title":"金光花苑(北门)","lon":"121.38829","lat":"31.2828","category":"656","category_name":"大门","address":"古浪路355弄"},{"poiid":"B2094654D465A3F5409B","title":"三千里花苑","lon":"121.38623","lat":"31.27504","category":"47","category_name":"住宅区","address":"上海真南路822弄188支弄"},{"poiid":"B2094654D465A3F5479A","title":"好德No.871","lon":"121.38474","lat":"31.27995","category":"117","category_name":"便民商店/便利店","address":"真南路822弄521支弄31"},{"poiid":"B2094655D36CA6FC449B","title":"古浪路真北路","lon":"121.39992","lat":"31.28123","category":"38","category_name":"公交车站","address":""},{"poiid":"B2094655D26FA0F4459F","title":"祁连新家园(东门)","lon":"121.38553","lat":"31.28423","category":"47","category_name":"住宅区","address":"古浪路518弄"},{"poiid":"B2094654D465A3F54599","title":"好又多连锁超市","lon":"121.38339","lat":"31.28312","category":"118","category_name":"超级市场","address":"古浪路479"},{"poiid":"B2094655D264A4F5409F","title":"艺尖美容美发","lon":"121.38436","lat":"31.28336","category":"148","category_name":"美容美发店","address":"古浪路445-447号"},{"poiid":"B2094757D065A4F9419B","title":"智富名品城","lon":"121.392266","lat":"31.282621","category":"500","category_name":"未知分类","address":"普陀区古浪路188号"},{"poiid":"B2094655D26FA0FB479E","title":"桃浦公园(西门)","lon":"121.39201","lat":"31.28153","category":"680","category_name":"楼宇机构","address":"桃浦西路1018号"},{"poiid":"B2094757D065A1F44493","title":"738祁安路古浪路车站","lon":"121.38592995","lat":"31.2855573572","category":"500","category_name":"未知分类","address":"上海市普陀区古浪路祁安路"},{"poiid":"B2094654D465A3F4409B","title":"生乐公寓B区","lon":"121.395","lat":"31.2795","category":"47","category_name":"住宅区","address":"同济大学校沪西校区"},{"poiid":"B2094655D264A4F44493","title":"良友(古浪路店)","lon":"121.3829","lat":"31.28373","category":"117","category_name":"便民商店/便利店","address":"古浪路462号"},{"poiid":"B2094757DA6BAAFA4593","title":"复地美墅中环新界","lon":"121.382669","lat":"31.283906","category":"47","category_name":"住宅区","address":"普陀区古浪路8号（近真北路）"},{"poiid":"B2094655D36DA1FD449F","title":"真大路1号桥","lon":"121.39185","lat":"31.2784","category":"250","category_name":"公园户外","address":""},{"poiid":"B2094654D465A3F44099","title":"生乐公寓A区","lon":"121.38723","lat":"31.27341","category":"47","category_name":"住宅区","address":"上海普陀区真南路500号同济大学沪西校区"},{"poiid":"B2094757D068A7FF469B","title":"星之健身(大华店)","lon":"121.39299","lat":"31.28234","category":"220","category_name":"运动场所","address":"普陀区古浪路88号(真北路口)"},{"poiid":"B2094654D465A3F54398","title":"良友金伴(安居古浪新苑东)","lon":"121.38304","lat":"31.28385","category":"117","category_name":"便民商店/便利店","address":""},{"poiid":"B2094757D065AAF5429C","title":"上海高校机动车驾驶员培训中心(古浪路分部)","lon":"121.38323525","lat":"31.283293213","category":"253","category_name":"校园生活","address":"上海古浪路415弄8号2楼"},{"poiid":"B2094654D465A2F84893","title":"复地太阳城","lon":"121.39957","lat":"31.28284","category":"47","category_name":"住宅区","address":"上海市普陀区古浪路108弄"},{"poiid":"B2094655D26FA0FB4798","title":"李子园别墅(西门)","lon":"121.38495","lat":"31.27738","category":"47","category_name":"住宅区","address":"真南路822弄390支弄"},{"poiid":"B2094654D465A3F4419B","title":"同济大学第一教学楼","lon":"121.38958","lat":"31.2709","category":"52","category_name":"高等院校","address":"上海普陀区真南路500号同济大学沪西校区"},{"poiid":"B2094757D065A0FF4193","title":"李子园花苑","lon":"121.38638","lat":"31.271622","category":"47","category_name":"住宅区","address":"上海普陀区真南路710弄"},{"poiid":"B2094654D465A3F5439E","title":"丝千美容美发院","lon":"121.38296","lat":"31.28388","category":"148","category_name":"美容美发店","address":""},{"poiid":"B2094757D06AABFA409E","title":"冠松别克","lon":"121.39691995","lat":"31.274100138","category":"163","category_name":"4S店","address":"上海市普陀区真北路3045号"},{"poiid":"B2094757D069A1F54493","title":"一汽大众华星众捷","lon":"121.38895971","lat":"31.2686372739","category":"500","category_name":"未知分类","address":"上海真南路589号"},{"poiid":"B2094655D26CA7F84593","title":"金光花苑(东门)","lon":"121.39165","lat":"31.28089","category":"656","category_name":"大门","address":"桃浦西路955弄"},{"poiid":"B2094750DB64A2F9429C","title":"祥和星宇花园二期","lon":"121.395744","lat":"31.280811","category":"47","category_name":"住宅区","address":"普陀区古浪路183弄"},{"poiid":"B2094757D06FA3FD449D","title":"同济大学(沪西校区)","lon":"121.39089202","lat":"31.269561767","category":"671","category_name":"高校中心点","address":"普陀区真南路500号(近真北路)"},{"poiid":"B2094654D465A3F54392","title":"安居古浪新苑","lon":"121.389373","lat":"31.289503","category":"47","category_name":"住宅区","address":"上海市普陀区古浪路518弄"},{"poiid":"B2094757D068A0F5459B","title":"真南路李子园","lon":"121.38638795","lat":"31.2723731053","category":"500","category_name":"未知分类","address":"上海普陀区真南路822弄"},{"poiid":"B2094757D06FAAFB429B","title":"沪嘉高速","lon":"121.379823","lat":"31.290642","category":"38","category_name":"公交车站","address":"上海沪嘉高速"},{"poiid":"B2094757D06EAAFD449E","title":"李子园地铁站","lon":"121.38968953","lat":"31.269055936","category":"36","category_name":"地铁站","address":"上海轨道交通 十一号线 轨交李子园站 11"},{"poiid":"B2094757D06FABFE469C","title":"祥和星宇花园","lon":"121.39809388","lat":"31.2802769342","category":"47","category_name":"住宅区","address":"上海市闸北区康宁路616弄"},{"poiid":"B2094757D064A6F5489F","title":"恒盛鼎城华公馆","lon":"121.39661883554","lat":"31.283067185","category":"500","category_name":"未知分类","address":"普陀区武威东路788弄(近桃浦西路)"},{"poiid":"B2094750D56AA0FE459F","title":"恒盛鼎城圣都汇","lon":"121.38742","lat":"31.27816","category":"47","category_name":"住宅区","address":"普陀区武威东路888号"},{"poiid":"B2094757D66EA7F9469A","title":"同福来大酒店","lon":"121.38811475","lat":"31.2829816079","category":"76","category_name":"上海菜","address":"普陀区古浪路415弄1号(近祁连山路)"},{"poiid":"B2094757D065A5FD489C","title":"古浪路","lon":"121.37608995","lat":"31.2849073447","category":"500","category_name":"未知分类","address":"上海市普陀区古浪路"},{"poiid":"B2094757D06FA5FD489F","title":"M50桃浦创意园(祁连山路店)","lon":"121.37942583","lat":"31.278534862","category":"260","category_name":"其他","address":"上海普陀区祁连山路(武威路口)11号线祁连山路直达"},{"poiid":"B2094757D065A0FF499A","title":"金光花苑","lon":"121.38979","lat":"31.281506","category":"252","category_name":"楼宇机构","address":"上海古浪路355弄"},{"poiid":"B2094757D064A2FD4792","title":"新古浪大酒店","lon":"121.38274","lat":"31.2835","category":"76","category_name":"上海菜","address":"普陀区古浪路489号(近祁连山路)"},{"poiid":"B2094757D069A2F5469D","title":"金祁新城","lon":"121.38579695","lat":"31.293607511","category":"47","category_name":"住宅区","address":"上海普陀区祁安路365弄"},{"poiid":"B2094757D16CA7F5449A","title":"冠松大众","lon":"121.39540495","lat":"31.2721101003","category":"158","category_name":"汽车销售","address":"上海市普陀区真北路3045号"},{"poiid":"B2094757D16CA0FD4899","title":"祁连新家园","lon":"121.38506095","lat":"31.284919345","category":"252","category_name":"楼宇机构","address":"上海古浪路祁安路"},{"poiid":"B2094654D465A3F54093","title":"李子园别墅","lon":"121.392","lat":"31.2831","category":"47","category_name":"住宅区","address":"真南路822弄390支弄"},{"poiid":"B2094757D16DA1F84899","title":"三子烧烤","lon":"121.38469","lat":"31.2831","category":"68","category_name":"快餐厅","address":"普陀区古浪路400号(近祁安路)"},{"poiid":"B2094655D36CA2FE499F","title":"祁安路古浪路","lon":"121.38559","lat":"31.28365","category":"38","category_name":"公交车站","address":""},{"poiid":"B2094757D16AA5F94693","title":"中环名品公馆","lon":"121.39634084","lat":"31.281997811","category":"500","category_name":"未知分类","address":"上海市古浪路真大路"},{"poiid":"B2094750D565A0F8479B","title":"上海市普陀中心医院","lon":"121.391281","lat":"31.280668","category":"162","category_name":"医院","address":null},{"poiid":"B2094654D46BA6F9429D","title":"国际包装印刷城","lon":"121.3853818159","lat":"31.275776057594","category":"255","category_name":"专卖店","address":"普陀区真南路1051弄"},{"poiid":"B2094757D165A5F9429E","title":"李子园","lon":"121.38956538453","lat":"31.276329634011","category":"500","category_name":"未知分类","address":"普陀区真南路822弄390支弄李子园别墅20号"},{"poiid":"B2094654DB6AABF9439B","title":"金光花苑(北门)","lon":"121.38829","lat":"31.2828","category":"656","category_name":"大门","address":"古浪路355弄"},{"poiid":"B2094654D465A3F5409B","title":"三千里花苑","lon":"121.38623","lat":"31.27504","category":"47","category_name":"住宅区","address":"上海真南路822弄188支弄"},{"poiid":"B2094654D465A3F5479A","title":"好德No.871","lon":"121.38474","lat":"31.27995","category":"117","category_name":"便民商店/便利店","address":"真南路822弄521支弄31"},{"poiid":"B2094655D36CA6FC449B","title":"古浪路真北路","lon":"121.39992","lat":"31.28123","category":"38","category_name":"公交车站","address":""},{"poiid":"B2094655D26FA0F4459F","title":"祁连新家园(东门)","lon":"121.38553","lat":"31.28423","category":"47","category_name":"住宅区","address":"古浪路518弄"},{"poiid":"B2094654D465A3F54599","title":"好又多连锁超市","lon":"121.38339","lat":"31.28312","category":"118","category_name":"超级市场","address":"古浪路479"},{"poiid":"B2094655D264A4F5409F","title":"艺尖美容美发","lon":"121.38436","lat":"31.28336","category":"148","category_name":"美容美发店","address":"古浪路445-447号"},{"poiid":"B2094757D065A4F9419B","title":"智富名品城","lon":"121.392266","lat":"31.282621","category":"500","category_name":"未知分类","address":"普陀区古浪路188号"},{"poiid":"B2094655D26FA0FB479E","title":"桃浦公园(西门)","lon":"121.39201","lat":"31.28153","category":"680","category_name":"楼宇机构","address":"桃浦西路1018号"},{"poiid":"B2094757D065A1F44493","title":"738祁安路古浪路车站","lon":"121.38592995","lat":"31.2855573572","category":"500","category_name":"未知分类","address":"上海市普陀区古浪路祁安路"},{"poiid":"B2094654D465A3F4409B","title":"生乐公寓B区","lon":"121.395","lat":"31.2795","category":"47","category_name":"住宅区","address":"同济大学校沪西校区"},{"poiid":"B2094655D264A4F44493","title":"良友(古浪路店)","lon":"121.3829","lat":"31.28373","category":"117","category_name":"便民商店/便利店","address":"古浪路462号"},{"poiid":"B2094757DA6BAAFA4593","title":"复地美墅中环新界","lon":"121.382669","lat":"31.283906","category":"47","category_name":"住宅区","address":"普陀区古浪路8号（近真北路）"},{"poiid":"B2094655D36DA1FD449F","title":"真大路1号桥","lon":"121.39185","lat":"31.2784","category":"250","category_name":"公园户外","address":""},{"poiid":"B2094654D465A3F44099","title":"生乐公寓A区","lon":"121.38723","lat":"31.27341","category":"47","category_name":"住宅区","address":"上海普陀区真南路500号同济大学沪西校区"},{"poiid":"B2094757D068A7FF469B","title":"星之健身(大华店)","lon":"121.39299","lat":"31.28234","category":"220","category_name":"运动场所","address":"普陀区古浪路88号(真北路口)"},{"poiid":"B2094654D465A3F54398","title":"良友金伴(安居古浪新苑东)","lon":"121.38304","lat":"31.28385","category":"117","category_name":"便民商店/便利店","address":""},{"poiid":"B2094757D065AAF5429C","title":"上海高校机动车驾驶员培训中心(古浪路分部)","lon":"121.38323525","lat":"31.283293213","category":"253","category_name":"校园生活","address":"上海古浪路415弄8号2楼"},{"poiid":"B2094654D465A2F84893","title":"复地太阳城","lon":"121.39957","lat":"31.28284","category":"47","category_name":"住宅区","address":"上海市普陀区古浪路108弄"},{"poiid":"B2094655D26FA0FB4798","title":"李子园别墅(西门)","lon":"121.38495","lat":"31.27738","category":"47","category_name":"住宅区","address":"真南路822弄390支弄"},{"poiid":"B2094654D465A3F4419B","title":"同济大学第一教学楼","lon":"121.38958","lat":"31.2709","category":"52","category_name":"高等院校","address":"上海普陀区真南路500号同济大学沪西校区"},{"poiid":"B2094757D065A0FF4193","title":"李子园花苑","lon":"121.38638","lat":"31.271622","category":"47","category_name":"住宅区","address":"上海普陀区真南路710弄"},{"poiid":"B2094654D465A3F5439E","title":"丝千美容美发院","lon":"121.38296","lat":"31.28388","category":"148","category_name":"美容美发店","address":""},{"poiid":"B2094757D06AABFA409E","title":"冠松别克","lon":"121.39691995","lat":"31.274100138","category":"163","category_name":"4S店","address":"上海市普陀区真北路3045号"},{"poiid":"B2094757D069A1F54493","title":"一汽大众华星众捷","lon":"121.38895971","lat":"31.2686372739","category":"500","category_name":"未知分类","address":"上海真南路589号"},{"poiid":"B2094655D26CA7F84593","title":"金光花苑(东门)","lon":"121.39165","lat":"31.28089","category":"656","category_name":"大门","address":"桃浦西路955弄"},{"poiid":"B2094750DB64A2F9429C","title":"祥和星宇花园二期","lon":"121.395744","lat":"31.280811","category":"47","category_name":"住宅区","address":"普陀区古浪路183弄"},{"poiid":"B2094757D06FA3FD449D","title":"同济大学(沪西校区)","lon":"121.39089202","lat":"31.269561767","category":"671","category_name":"高校中心点","address":"普陀区真南路500号(近真北路)"},{"poiid":"B2094654D465A3F54392","title":"安居古浪新苑","lon":"121.389373","lat":"31.289503","category":"47","category_name":"住宅区","address":"上海市普陀区古浪路518弄"},{"poiid":"B2094757D068A0F5459B","title":"真南路李子园","lon":"121.38638795","lat":"31.2723731053","category":"500","category_name":"未知分类","address":"上海普陀区真南路822弄"},{"poiid":"B2094757D06FAAFB429B","title":"沪嘉高速","lon":"121.379823","lat":"31.290642","category":"38","category_name":"公交车站","address":"上海沪嘉高速"},{"poiid":"B2094757D06EAAFD449E","title":"李子园地铁站","lon":"121.38968953","lat":"31.269055936","category":"36","category_name":"地铁站","address":"上海轨道交通 十一号线 轨交李子园站 11"},{"poiid":"B2094757D06FABFE469C","title":"祥和星宇花园","lon":"121.39809388","lat":"31.2802769342","category":"47","category_name":"住宅区","address":"上海市闸北区康宁路616弄"},{"poiid":"B2094757D064A6F5489F","title":"恒盛鼎城华公馆","lon":"121.39661883554","lat":"31.283067185","category":"500","category_name":"未知分类","address":"普陀区武威东路788弄(近桃浦西路)"},{"poiid":"B2094750D56AA0FE459F","title":"恒盛鼎城圣都汇","lon":"121.38742","lat":"31.27816","category":"47","category_name":"住宅区","address":"普陀区武威东路888号"},{"poiid":"B2094757D66EA7F9469A","title":"同福来大酒店","lon":"121.38811475","lat":"31.2829816079","category":"76","category_name":"上海菜","address":"普陀区古浪路415弄1号(近祁连山路)"},{"poiid":"B2094757D065A5FD489C","title":"古浪路","lon":"121.37608995","lat":"31.2849073447","category":"500","category_name":"未知分类","address":"上海市普陀区古浪路"},{"poiid":"B2094757D06FA5FD489F","title":"M50桃浦创意园(祁连山路店)","lon":"121.37942583","lat":"31.278534862","category":"260","category_name":"其他","address":"上海普陀区祁连山路(武威路口)11号线祁连山路直达"},{"poiid":"B2094757D065A0FF499A","title":"金光花苑","lon":"121.38979","lat":"31.281506","category":"252","category_name":"楼宇机构","address":"上海古浪路355弄"},{"poiid":"B2094757D064A2FD4792","title":"新古浪大酒店","lon":"121.38274","lat":"31.2835","category":"76","category_name":"上海菜","address":"普陀区古浪路489号(近祁连山路)"},{"poiid":"B2094757D069A2F5469D","title":"金祁新城","lon":"121.38579695","lat":"31.293607511","category":"47","category_name":"住宅区","address":"上海普陀区祁安路365弄"},{"poiid":"B2094757D16CA7F5449A","title":"冠松大众","lon":"121.39540495","lat":"31.2721101003","category":"158","category_name":"汽车销售","address":"上海市普陀区真北路3045号"},{"poiid":"B2094757D16CA0FD4899","title":"祁连新家园","lon":"121.38506095","lat":"31.284919345","category":"252","category_name":"楼宇机构","address":"上海古浪路祁安路"},{"poiid":"B2094654D465A3F54093","title":"李子园别墅","lon":"121.392","lat":"31.2831","category":"47","category_name":"住宅区","address":"真南路822弄390支弄"},{"poiid":"B2094757D16DA1F84899","title":"三子烧烤","lon":"121.38469","lat":"31.2831","category":"68","category_name":"快餐厅","address":"普陀区古浪路400号(近祁安路)"},{"poiid":"B2094655D36CA2FE499F","title":"祁安路古浪路","lon":"121.38559","lat":"31.28365","category":"38","category_name":"公交车站","address":""},{"poiid":"B2094757D16AA5F94693","title":"中环名品公馆","lon":"121.39634084","lat":"31.281997811","category":"500","category_name":"未知分类","address":"上海市古浪路真大路"},{"poiid":"B2094750D565A0F8479B","title":"上海市普陀中心医院","lon":"121.391281","lat":"31.280668","category":"162","category_name":"医院","address":null},{"poiid":"B2094654D46BA6F9429D","title":"国际包装印刷城","lon":"121.3853818159","lat":"31.275776057594","category":"255","category_name":"专卖店","address":"普陀区真南路1051弄"},{"poiid":"B2094757D165A5F9429E","title":"李子园","lon":"121.38956538453","lat":"31.276329634011","category":"500","category_name":"未知分类","address":"普陀区真南路822弄390支弄李子园别墅20号"},{"poiid":"B2094654DB6AABF9439B","title":"金光花苑(北门)","lon":"121.38829","lat":"31.2828","category":"656","category_name":"大门","address":"古浪路355弄"},{"poiid":"B2094654D465A3F5409B","title":"三千里花苑","lon":"121.38623","lat":"31.27504","category":"47","category_name":"住宅区","address":"上海真南路822弄188支弄"},{"poiid":"B2094654D465A3F5479A","title":"好德No.871","lon":"121.38474","lat":"31.27995","category":"117","category_name":"便民商店/便利店","address":"真南路822弄521支弄31"},{"poiid":"B2094655D36CA6FC449B","title":"古浪路真北路","lon":"121.39992","lat":"31.28123","category":"38","category_name":"公交车站","address":""},{"poiid":"B2094655D26FA0F4459F","title":"祁连新家园(东门)","lon":"121.38553","lat":"31.28423","category":"47","category_name":"住宅区","address":"古浪路518弄"},{"poiid":"B2094654D465A3F54599","title":"好又多连锁超市","lon":"121.38339","lat":"31.28312","category":"118","category_name":"超级市场","address":"古浪路479"},{"poiid":"B2094655D264A4F5409F","title":"艺尖美容美发","lon":"121.38436","lat":"31.28336","category":"148","category_name":"美容美发店","address":"古浪路445-447号"},{"poiid":"B2094757D065A4F9419B","title":"智富名品城","lon":"121.392266","lat":"31.282621","category":"500","category_name":"未知分类","address":"普陀区古浪路188号"},{"poiid":"B2094655D26FA0FB479E","title":"桃浦公园(西门)","lon":"121.39201","lat":"31.28153","category":"680","category_name":"楼宇机构","address":"桃浦西路1018号"},{"poiid":"B2094757D065A1F44493","title":"738祁安路古浪路车站","lon":"121.38592995","lat":"31.2855573572","category":"500","category_name":"未知分类","address":"上海市普陀区古浪路祁安路"},{"poiid":"B2094654D465A3F4409B","title":"生乐公寓B区","lon":"121.395","lat":"31.2795","category":"47","category_name":"住宅区","address":"同济大学校沪西校区"},{"poiid":"B2094655D264A4F44493","title":"良友(古浪路店)","lon":"121.3829","lat":"31.28373","category":"117","category_name":"便民商店/便利店","address":"古浪路462号"},{"poiid":"B2094757DA6BAAFA4593","title":"复地美墅中环新界","lon":"121.382669","lat":"31.283906","category":"47","category_name":"住宅区","address":"普陀区古浪路8号（近真北路）"},{"poiid":"B2094655D36DA1FD449F","title":"真大路1号桥","lon":"121.39185","lat":"31.2784","category":"250","category_name":"公园户外","address":""},{"poiid":"B2094654D465A3F44099","title":"生乐公寓A区","lon":"121.38723","lat":"31.27341","category":"47","category_name":"住宅区","address":"上海普陀区真南路500号同济大学沪西校区"},{"poiid":"B2094757D068A7FF469B","title":"星之健身(大华店)","lon":"121.39299","lat":"31.28234","category":"220","category_name":"运动场所","address":"普陀区古浪路88号(真北路口)"},{"poiid":"B2094654D465A3F54398","title":"良友金伴(安居古浪新苑东)","lon":"121.38304","lat":"31.28385","category":"117","category_name":"便民商店/便利店","address":""},{"poiid":"B2094757D065AAF5429C","title":"上海高校机动车驾驶员培训中心(古浪路分部)","lon":"121.38323525","lat":"31.283293213","category":"253","category_name":"校园生活","address":"上海古浪路415弄8号2楼"},{"poiid":"B2094654D465A2F84893","title":"复地太阳城","lon":"121.39957","lat":"31.28284","category":"47","category_name":"住宅区","address":"上海市普陀区古浪路108弄"},{"poiid":"B2094655D26FA0FB4798","title":"李子园别墅(西门)","lon":"121.38495","lat":"31.27738","category":"47","category_name":"住宅区","address":"真南路822弄390支弄"},{"poiid":"B2094654D465A3F4419B","title":"同济大学第一教学楼","lon":"121.38958","lat":"31.2709","category":"52","category_name":"高等院校","address":"上海普陀区真南路500号同济大学沪西校区"},{"poiid":"B2094757D065A0FF4193","title":"李子园花苑","lon":"121.38638","lat":"31.271622","category":"47","category_name":"住宅区","address":"上海普陀区真南路710弄"},{"poiid":"B2094654D465A3F5439E","title":"丝千美容美发院","lon":"121.38296","lat":"31.28388","category":"148","category_name":"美容美发店","address":""},{"poiid":"B2094757D06AABFA409E","title":"冠松别克","lon":"121.39691995","lat":"31.274100138","category":"163","category_name":"4S店","address":"上海市普陀区真北路3045号"},{"poiid":"B2094757D069A1F54493","title":"一汽大众华星众捷","lon":"121.38895971","lat":"31.2686372739","category":"500","category_name":"未知分类","address":"上海真南路589号"},{"poiid":"B2094655D26CA7F84593","title":"金光花苑(东门)","lon":"121.39165","lat":"31.28089","category":"656","category_name":"大门","address":"桃浦西路955弄"},{"poiid":"B2094750DB64A2F9429C","title":"祥和星宇花园二期","lon":"121.395744","lat":"31.280811","category":"47","category_name":"住宅区","address":"普陀区古浪路183弄"}]