[{"poiid":"B2094757D06FA2F9499C","title":"百联南桥购物中心","lon":"121.490521","lat":"30.921125","category":"119","category_name":"商场","address":"近郊奉贤南桥镇百齐路588号"},{"poiid":"B2094654DB64A4FD409E","title":"南郊宾馆","lon":"121.48276","lat":"30.92526","category":"213","category_name":"五星级宾馆","address":"近郊奉贤区望园路8号(近团南公路)"},{"poiid":"B2094654DB68A2F9499B","title":"老街绿地南桥新苑","lon":"121.47113","lat":"30.92874","category":"47","category_name":"住宅区","address":"上海市奉贤区环城东路885弄"},{"poiid":"B2094757D064A7FA409A","title":"奉浦四季生态园","lon":"121.47242491","lat":"30.935544403","category":"500","category_name":"未知分类","address":"近郊奉贤航南公路(近韩谊路)"},{"poiid":"B2094654DB6FAAF8489D","title":"塞纳河畔 奉浦店","lon":"121.46427","lat":"30.92857","category":"75","category_name":"浙江菜","address":"近郊奉贤奉浦环城东路696号(近航南路)"},{"poiid":"B2094757D064A6FB419E","title":"南郊林农家乐","lon":"121.4798496","lat":"30.931089797","category":"260","category_name":"其他","address":"近郊奉贤区南航公路北侧(望园路口)"},{"poiid":"B2094654DB68A2FE409F","title":"迪豪小田园酒店","lon":"121.46408","lat":"30.93087","category":"75","category_name":"浙江菜","address":"近郊奉贤区奉浦环城东路781号(南桥环城东路韩村路)"},{"poiid":"B2094750D26FA7FB409B","title":"赛露维","lon":"121.465347","lat":"30.927162","category":"76","category_name":"上海菜","address":"近郊奉贤区南桥镇环城东路883弄63号(近南桥老街)"},{"poiid":"B2094750D665A0FF4498","title":"舍得坊私房酒家","lon":"121.475","lat":"30.9365","category":"76","category_name":"上海菜","address":"近郊奉贤航南公路5000号生态园四季广场1-2楼"},{"poiid":"B2094757D16EA0F44092","title":"百合苑","lon":"121.470248929","lat":"30.9390231194","category":"500","category_name":"未知分类","address":"上海八字桥路158号"},{"poiid":"B2094757D664AAFB469C","title":"上海美都大酒店 MEIDU HOTEL","lon":"121.46965836441802","lat":"30.92584379644889","category":"76","category_name":"上海菜","address":"近郊奉贤区南桥镇运河北路155号(近环城东路、高洲路、S4高速南桥出口)"},{"poiid":"B2094757D568A1F8449C","title":"绿地智尊","lon":"121.471085129","lat":"30.929179517027","category":"46","category_name":"楼宇","address":"上海市奉贤区环城东路455,465弄"},{"poiid":"B2094750D76DA1FC4792","title":"蒋记海鲜坊","lon":"121.475","lat":"30.9365","category":"260","category_name":"其他","address":"近郊奉贤区航南公路5000号生态园四季广场内"},{"poiid":"B2094655D264A1FB4392","title":"小元国(环城东路店)","lon":"121.46386","lat":"30.93107","category":"76","category_name":"上海菜","address":"近郊奉贤区环城东路777号(近航南公路)"},{"poiid":"B2094654DB69A7F9479F","title":"聚贤煌都","lon":"121.46578","lat":"30.940882","category":"47","category_name":"住宅区","address":"奉贤区奉浦大道95弄"},{"poiid":"B2094655D26BABFF459E","title":"恒盛湖畔豪庭","lon":"121.498","lat":"30.934","category":"47","category_name":"住宅区","address":"奉贤南桥新城泽丰路89弄(金海路德丰路口)"},{"poiid":"B2094757D16EA5F44998","title":"家渔沪晓","lon":"121.46188","lat":"30.93676","category":"76","category_name":"上海菜","address":"近郊奉贤区环城东路611号(近八字桥路)"},{"poiid":"B2094655D26BA2FE4098","title":"望园路","lon":"121.48169","lat":"30.93184","category":"38","category_name":"公交车站","address":""},{"poiid":"B2094655D265A6FA449D","title":"S4南桥收费站","lon":"121.47964","lat":"30.93006","category":"267","category_name":"收费站","address":""},{"poiid":"B2094757D165A3FC409E","title":"沈坚强健身俱乐部(奉贤店)","lon":"121.47096001","lat":"30.929098255","category":"148","category_name":"美容美发店","address":"近郊奉贤区南桥镇环城东路885弄270号(近航南公路)"},{"poiid":"B2094757D568A4F5419C","title":"南桥新城","lon":"121.4788278","lat":"30.94887056","category":"47","category_name":"住宅区","address":"上海市奉贤区奉浦大道11弄"},{"poiid":"B2094655D26FA6FF499C","title":"锦江之星(奉贤南桥店)","lon":"121.46498","lat":"30.93118","category":"216","category_name":"经济型连锁酒店","address":"近郊奉贤区南桥镇航南公路5499号"},{"poiid":"B2094757D16FAAF4449A","title":"沪金高速南桥出口","lon":"121.475308","lat":"30.931361","category":"500","category_name":"未知分类","address":"上海沪金高速南桥出口"},{"poiid":"B2094654DB69A7FB409A","title":"华龙别墅","lon":"121.4707","lat":"30.9321","category":"47","category_name":"住宅区","address":"奉贤区江海镇"},{"poiid":"B209475CD76CA2F94998","title":"17.5影城（南桥四季广场店）","lon":"121.47112","lat":"30.932581","category":"178","category_name":"电影院","address":"上海市奉贤区航南公路5000号1幢1-3号"},{"poiid":"B2094752D665A2FD439F","title":"罗曼园高级婚礼会所","lon":"121.470501","lat":"30.933207","category":"247","category_name":"餐饮美食","address":null},{"poiid":"B2094757D16DA1F44198","title":"悦圣渔港","lon":"121.46122","lat":"30.93901","category":"76","category_name":"上海菜","address":"近郊奉贤区奉浦开发区环城东路525号(近八字桥路)"},{"poiid":"B2094655D268ABF9479D","title":"Ａ４航南公路收费站","lon":"121.47953","lat":"30.92993","category":"267","category_name":"收费站","address":""},{"poiid":"B2094757D16FA7FF479D","title":"映山红湘菜馆(南桥店)","lon":"121.464495249","lat":"30.9291445903","category":"77","category_name":"湖南菜","address":"近郊奉贤区南桥环城东路850号(近易买得)"},{"poiid":"B2094757D064A4FC4699","title":"奉贤区人民法院","lon":"121.48103356","lat":"30.9254841","category":"608","category_name":"法院","address":"上海市奉贤区解放东路199号"},{"poiid":"B2094752D26BA5FB449C","title":"恒盛毓美幼儿园","lon":"121.487625","lat":"30.929291","category":"57","category_name":"幼儿园","address":"泽丰路楚园路197号"},{"poiid":"B209475CD26BA5FD479A","title":"海上歌友","lon":"121.471023","lat":"30.931718","category":"170","category_name":"KTV","address":"上海市 环城东路630号"},{"poiid":"B2094757DB68A0FC4393","title":"南郊美墅","lon":"121.485399","lat":"30.928094","category":"47","category_name":"住宅区","address":"南郊美墅"},{"poiid":"B2094655D36CA2FC4298","title":"南郊名墅","lon":"121.478","lat":"30.925","category":"47","category_name":"住宅区","address":"奉贤展园路300弄"},{"poiid":"B2094757D568A1F9489D","title":"南郊宾馆中餐厅","lon":"121.482765","lat":"30.92526","category":"247","category_name":"餐饮美食","address":"近郊奉贤区望园路8号(近团南公路)"},{"poiid":"B2094757D66EA4FB449A","title":"奉浦苑","lon":"121.46478","lat":"30.934446","category":"500","category_name":"未知分类","address":"八字桥路219号"},{"poiid":"B2094757D568A1F8479E","title":"深呼吸KTV量贩欢城","lon":"121.46304362","lat":"30.93183078","category":"170","category_name":"KTV","address":"中国上海市奉贤区环城东路"},{"poiid":"B2094757D66CA2F44599","title":"奉浦玫瑰苑","lon":"121.466213","lat":"30.937641","category":"500","category_name":"未知分类","address":"上海奉贤区环城东路八字桥路"},{"poiid":"B2094757D665A2FE469D","title":"湘乡人家","lon":"121.4615841","lat":"30.9366226","category":"77","category_name":"湖南菜","address":"近郊奉贤区环城东路600,606号(近八字桥路)"},{"poiid":"B2094757D06EAAF5459F","title":"绿地万豪酒店","lon":"121.46538383","lat":"30.939536039","category":"213","category_name":"五星级宾馆","address":"上海卢湾区江滨路99号"},{"poiid":"B2094654DB68A3F5499D","title":"蓝天苑","lon":"121.484","lat":"30.9253","category":"47","category_name":"住宅区","address":"远东路2749弄"},{"poiid":"B2094757DB69A1FB449C","title":"嘎嘎酒吧","lon":"121.47149562836","lat":"30.931954896883","category":"260","category_name":"其他","address":"近郊奉贤区航南公路5000号生态园四季广场内(近绿庭汇广场)"},{"poiid":"B2094655D36CA6FF4993","title":"奉浦新村","lon":"121.467","lat":"30.9447","category":"38","category_name":"公交车站","address":"川南奉公路202弄"},{"poiid":"B2094655D268A7FA4893","title":"绿地方舟商务楼","lon":"121.4662","lat":"30.92573","category":"46","category_name":"楼宇","address":"运河北路258"},{"poiid":"B2094757D464A7F84393","title":"庆尚北道","lon":"121.46501","lat":"30.92859","category":"96","category_name":"韩国料理","address":"近郊奉贤区环城东路883弄16-17号(近老街)"},{"poiid":"B2094757D464A7F84693","title":"汤尼日本料理","lon":"121.46236557958","lat":"30.93136925716","category":"95","category_name":"日本料理","address":"近郊环城东路883弄13号"},{"poiid":"B2094757D168A5FA419D","title":"聚润广场","lon":"121.48834891","lat":"30.923655131","category":"119","category_name":"商场","address":"近郊奉贤望园路(近南郊宾馆)"},{"poiid":"B2094757D06AA6F5409A","title":"上海工商奉贤分局","lon":"121.48812446","lat":"30.921109373","category":"500","category_name":"未知分类","address":"上海奉贤区解放东路58号"},{"poiid":"B2094757D06FA4FE4393","title":"凯桥绿地","lon":"121.465383832","lat":"30.939536039","category":"196","category_name":"公园","address":"上海长宁区延安西路凯旋路口  "},{"poiid":"B2094655D36CA7FB4799","title":"国顺路","lon":"121.46249","lat":"30.93408","category":"38","category_name":"公交车站","address":""},{"poiid":"B2094757D06FA2F9499C","title":"百联南桥购物中心","lon":"121.490521","lat":"30.921125","category":"119","category_name":"商场","address":"近郊奉贤南桥镇百齐路588号"},{"poiid":"B2094654DB64A4FD409E","title":"南郊宾馆","lon":"121.48276","lat":"30.92526","category":"213","category_name":"五星级宾馆","address":"近郊奉贤区望园路8号(近团南公路)"},{"poiid":"B2094654DB68A2F9499B","title":"老街绿地南桥新苑","lon":"121.47113","lat":"30.92874","category":"47","category_name":"住宅区","address":"上海市奉贤区环城东路885弄"},{"poiid":"B2094757D064A7FA409A","title":"奉浦四季生态园","lon":"121.47242491","lat":"30.935544403","category":"500","category_name":"未知分类","address":"近郊奉贤航南公路(近韩谊路)"},{"poiid":"B2094654DB6FAAF8489D","title":"塞纳河畔 奉浦店","lon":"121.46427","lat":"30.92857","category":"75","category_name":"浙江菜","address":"近郊奉贤奉浦环城东路696号(近航南路)"},{"poiid":"B2094757D064A6FB419E","title":"南郊林农家乐","lon":"121.4798496","lat":"30.931089797","category":"260","category_name":"其他","address":"近郊奉贤区南航公路北侧(望园路口)"},{"poiid":"B2094654DB68A2FE409F","title":"迪豪小田园酒店","lon":"121.46408","lat":"30.93087","category":"75","category_name":"浙江菜","address":"近郊奉贤区奉浦环城东路781号(南桥环城东路韩村路)"},{"poiid":"B2094750D26FA7FB409B","title":"赛露维","lon":"121.465347","lat":"30.927162","category":"76","category_name":"上海菜","address":"近郊奉贤区南桥镇环城东路883弄63号(近南桥老街)"},{"poiid":"B2094750D665A0FF4498","title":"舍得坊私房酒家","lon":"121.475","lat":"30.9365","category":"76","category_name":"上海菜","address":"近郊奉贤航南公路5000号生态园四季广场1-2楼"},{"poiid":"B2094757D16EA0F44092","title":"百合苑","lon":"121.470248929","lat":"30.9390231194","category":"500","category_name":"未知分类","address":"上海八字桥路158号"},{"poiid":"B2094757D664AAFB469C","title":"上海美都大酒店 MEIDU HOTEL","lon":"121.46965836441802","lat":"30.92584379644889","category":"76","category_name":"上海菜","address":"近郊奉贤区南桥镇运河北路155号(近环城东路、高洲路、S4高速南桥出口)"},{"poiid":"B2094757D568A1F8449C","title":"绿地智尊","lon":"121.471085129","lat":"30.929179517027","category":"46","category_name":"楼宇","address":"上海市奉贤区环城东路455,465弄"},{"poiid":"B2094750D76DA1FC4792","title":"蒋记海鲜坊","lon":"121.475","lat":"30.9365","category":"260","category_name":"其他","address":"近郊奉贤区航南公路5000号生态园四季广场内"},{"poiid":"B2094655D264A1FB4392","title":"小元国(环城东路店)","lon":"121.46386","lat":"30.93107","category":"76","category_name":"上海菜","address":"近郊奉贤区环城东路777号(近航南公路)"},{"poiid":"B2094654DB69A7F9479F","title":"聚贤煌都","lon":"121.46578","lat":"30.940882","category":"47","category_name":"住宅区","address":"奉贤区奉浦大道95弄"},{"poiid":"B2094655D26BABFF459E","title":"恒盛湖畔豪庭","lon":"121.498","lat":"30.934","category":"47","category_name":"住宅区","address":"奉贤南桥新城泽丰路89弄(金海路德丰路口)"},{"poiid":"B2094757D16EA5F44998","title":"家渔沪晓","lon":"121.46188","lat":"30.93676","category":"76","category_name":"上海菜","address":"近郊奉贤区环城东路611号(近八字桥路)"},{"poiid":"B2094655D26BA2FE4098","title":"望园路","lon":"121.48169","lat":"30.93184","category":"38","category_name":"公交车站","address":""},{"poiid":"B2094655D265A6FA449D","title":"S4南桥收费站","lon":"121.47964","lat":"30.93006","category":"267","category_name":"收费站","address":""},{"poiid":"B2094757D165A3FC409E","title":"沈坚强健身俱乐部(奉贤店)","lon":"121.47096001","lat":"30.929098255","category":"148","category_name":"美容美发店","address":"近郊奉贤区南桥镇环城东路885弄270号(近航南公路)"},{"poiid":"B2094757D568A4F5419C","title":"南桥新城","lon":"121.4788278","lat":"30.94887056","category":"47","category_name":"住宅区","address":"上海市奉贤区奉浦大道11弄"},{"poiid":"B2094655D26FA6FF499C","title":"锦江之星(奉贤南桥店)","lon":"121.46498","lat":"30.93118","category":"216","category_name":"经济型连锁酒店","address":"近郊奉贤区南桥镇航南公路5499号"},{"poiid":"B2094757D16FAAF4449A","title":"沪金高速南桥出口","lon":"121.475308","lat":"30.931361","category":"500","category_name":"未知分类","address":"上海沪金高速南桥出口"},{"poiid":"B2094654DB69A7FB409A","title":"华龙别墅","lon":"121.4707","lat":"30.9321","category":"47","category_name":"住宅区","address":"奉贤区江海镇"},{"poiid":"B209475CD76CA2F94998","title":"17.5影城（南桥四季广场店）","lon":"121.47112","lat":"30.932581","category":"178","category_name":"电影院","address":"上海市奉贤区航南公路5000号1幢1-3号"},{"poiid":"B2094752D665A2FD439F","title":"罗曼园高级婚礼会所","lon":"121.470501","lat":"30.933207","category":"247","category_name":"餐饮美食","address":null},{"poiid":"B2094757D16DA1F44198","title":"悦圣渔港","lon":"121.46122","lat":"30.93901","category":"76","category_name":"上海菜","address":"近郊奉贤区奉浦开发区环城东路525号(近八字桥路)"},{"poiid":"B2094655D268ABF9479D","title":"Ａ４航南公路收费站","lon":"121.47953","lat":"30.92993","category":"267","category_name":"收费站","address":""},{"poiid":"B2094757D16FA7FF479D","title":"映山红湘菜馆(南桥店)","lon":"121.464495249","lat":"30.9291445903","category":"77","category_name":"湖南菜","address":"近郊奉贤区南桥环城东路850号(近易买得)"},{"poiid":"B2094757D064A4FC4699","title":"奉贤区人民法院","lon":"121.48103356","lat":"30.9254841","category":"608","category_name":"法院","address":"上海市奉贤区解放东路199号"},{"poiid":"B2094752D26BA5FB449C","title":"恒盛毓美幼儿园","lon":"121.487625","lat":"30.929291","category":"57","category_name":"幼儿园","address":"泽丰路楚园路197号"},{"poiid":"B209475CD26BA5FD479A","title":"海上歌友","lon":"121.471023","lat":"30.931718","category":"170","category_name":"KTV","address":"上海市 环城东路630号"},{"poiid":"B2094757DB68A0FC4393","title":"南郊美墅","lon":"121.485399","lat":"30.928094","category":"47","category_name":"住宅区","address":"南郊美墅"},{"poiid":"B2094655D36CA2FC4298","title":"南郊名墅","lon":"121.478","lat":"30.925","category":"47","category_name":"住宅区","address":"奉贤展园路300弄"},{"poiid":"B2094757D568A1F9489D","title":"南郊宾馆中餐厅","lon":"121.482765","lat":"30.92526","category":"247","category_name":"餐饮美食","address":"近郊奉贤区望园路8号(近团南公路)"},{"poiid":"B2094757D66EA4FB449A","title":"奉浦苑","lon":"121.46478","lat":"30.934446","category":"500","category_name":"未知分类","address":"八字桥路219号"},{"poiid":"B2094757D568A1F8479E","title":"深呼吸KTV量贩欢城","lon":"121.46304362","lat":"30.93183078","category":"170","category_name":"KTV","address":"中国上海市奉贤区环城东路"},{"poiid":"B2094757D66CA2F44599","title":"奉浦玫瑰苑","lon":"121.466213","lat":"30.937641","category":"500","category_name":"未知分类","address":"上海奉贤区环城东路八字桥路"},{"poiid":"B2094757D665A2FE469D","title":"湘乡人家","lon":"121.4615841","lat":"30.9366226","category":"77","category_name":"湖南菜","address":"近郊奉贤区环城东路600,606号(近八字桥路)"},{"poiid":"B2094757D06EAAF5459F","title":"绿地万豪酒店","lon":"121.46538383","lat":"30.939536039","category":"213","category_name":"五星级宾馆","address":"上海卢湾区江滨路99号"},{"poiid":"B2094654DB68A3F5499D","title":"蓝天苑","lon":"121.484","lat":"30.9253","category":"47","category_name":"住宅区","address":"远东路2749弄"},{"poiid":"B2094757DB69A1FB449C","title":"嘎嘎酒吧","lon":"121.47149562836","lat":"30.931954896883","category":"260","category_name":"其他","address":"近郊奉贤区航南公路5000号生态园四季广场内(近绿庭汇广场)"},{"poiid":"B2094655D36CA6FF4993","title":"奉浦新村","lon":"121.467","lat":"30.9447","category":"38","category_name":"公交车站","address":"川南奉公路202弄"},{"poiid":"B2094655D268A7FA4893","title":"绿地方舟商务楼","lon":"121.4662","lat":"30.92573","category":"46","category_name":"楼宇","address":"运河北路258"},{"poiid":"B2094757D464A7F84393","title":"庆尚北道","lon":"121.46501","lat":"30.92859","category":"96","category_name":"韩国料理","address":"近郊奉贤区环城东路883弄16-17号(近老街)"},{"poiid":"B2094757D464A7F84693","title":"汤尼日本料理","lon":"121.46236557958","lat":"30.93136925716","category":"95","category_name":"日本料理","address":"近郊环城东路883弄13号"},{"poiid":"B2094757D168A5FA419D","title":"聚润广场","lon":"121.48834891","lat":"30.923655131","category":"119","category_name":"商场","address":"近郊奉贤望园路(近南郊宾馆)"},{"poiid":"B2094757D06AA6F5409A","title":"上海工商奉贤分局","lon":"121.48812446","lat":"30.921109373","category":"500","category_name":"未知分类","address":"上海奉贤区解放东路58号"},{"poiid":"B2094757D06FA4FE4393","title":"凯桥绿地","lon":"121.465383832","lat":"30.939536039","category":"196","category_name":"公园","address":"上海长宁区延安西路凯旋路口  "},{"poiid":"B2094655D36CA7FB4799","title":"国顺路","lon":"121.46249","lat":"30.93408","category":"38","category_name":"公交车站","address":""},{"poiid":"B2094757D06FA2F9499C","title":"百联南桥购物中心","lon":"121.490521","lat":"30.921125","category":"119","category_name":"商场","address":"近郊奉贤南桥镇百齐路588号"},{"poiid":"B2094654DB64A4FD409E","title":"南郊宾馆","lon":"121.48276","lat":"30.92526","category":"213","category_name":"五星级宾馆","address":"近郊奉贤区望园路8号(近团南公路)"},{"poiid":"B2094654DB68A2F9499B","title":"老街绿地南桥新苑","lon":"121.47113","lat":"30.92874","category":"47","category_name":"住宅区","address":"上海市奉贤区环城东路885弄"},{"poiid":"B2094757D064A7FA409A","title":"奉浦四季生态园","lon":"121.47242491","lat":"30.935544403","category":"500","category_name":"未知分类","address":"近郊奉贤航南公路(近韩谊路)"},{"poiid":"B2094654DB6FAAF8489D","title":"塞纳河畔 奉浦店","lon":"121.46427","lat":"30.92857","category":"75","category_name":"浙江菜","address":"近郊奉贤奉浦环城东路696号(近航南路)"},{"poiid":"B2094757D064A6FB419E","title":"南郊林农家乐","lon":"121.4798496","lat":"30.931089797","category":"260","category_name":"其他","address":"近郊奉贤区南航公路北侧(望园路口)"},{"poiid":"B2094654DB68A2FE409F","title":"迪豪小田园酒店","lon":"121.46408","lat":"30.93087","category":"75","category_name":"浙江菜","address":"近郊奉贤区奉浦环城东路781号(南桥环城东路韩村路)"},{"poiid":"B2094750D26FA7FB409B","title":"赛露维","lon":"121.465347","lat":"30.927162","category":"76","category_name":"上海菜","address":"近郊奉贤区南桥镇环城东路883弄63号(近南桥老街)"},{"poiid":"B2094750D665A0FF4498","title":"舍得坊私房酒家","lon":"121.475","lat":"30.9365","category":"76","category_name":"上海菜","address":"近郊奉贤航南公路5000号生态园四季广场1-2楼"},{"poiid":"B2094757D16EA0F44092","title":"百合苑","lon":"121.470248929","lat":"30.9390231194","category":"500","category_name":"未知分类","address":"上海八字桥路158号"},{"poiid":"B2094757D664AAFB469C","title":"上海美都大酒店 MEIDU HOTEL","lon":"121.46965836441802","lat":"30.92584379644889","category":"76","category_name":"上海菜","address":"近郊奉贤区南桥镇运河北路155号(近环城东路、高洲路、S4高速南桥出口)"},{"poiid":"B2094757D568A1F8449C","title":"绿地智尊","lon":"121.471085129","lat":"30.929179517027","category":"46","category_name":"楼宇","address":"上海市奉贤区环城东路455,465弄"},{"poiid":"B2094750D76DA1FC4792","title":"蒋记海鲜坊","lon":"121.475","lat":"30.9365","category":"260","category_name":"其他","address":"近郊奉贤区航南公路5000号生态园四季广场内"},{"poiid":"B2094655D264A1FB4392","title":"小元国(环城东路店)","lon":"121.46386","lat":"30.93107","category":"76","category_name":"上海菜","address":"近郊奉贤区环城东路777号(近航南公路)"},{"poiid":"B2094654DB69A7F9479F","title":"聚贤煌都","lon":"121.46578","lat":"30.940882","category":"47","category_name":"住宅区","address":"奉贤区奉浦大道95弄"},{"poiid":"B2094655D26BABFF459E","title":"恒盛湖畔豪庭","lon":"121.498","lat":"30.934","category":"47","category_name":"住宅区","address":"奉贤南桥新城泽丰路89弄(金海路德丰路口)"},{"poiid":"B2094757D16EA5F44998","title":"家渔沪晓","lon":"121.46188","lat":"30.93676","category":"76","category_name":"上海菜","address":"近郊奉贤区环城东路611号(近八字桥路)"},{"poiid":"B2094655D26BA2FE4098","title":"望园路","lon":"121.48169","lat":"30.93184","category":"38","category_name":"公交车站","address":""},{"poiid":"B2094655D265A6FA449D","title":"S4南桥收费站","lon":"121.47964","lat":"30.93006","category":"267","category_name":"收费站","address":""},{"poiid":"B2094757D165A3FC409E","title":"沈坚强健身俱乐部(奉贤店)","lon":"121.47096001","lat":"30.929098255","category":"148","category_name":"美容美发店","address":"近郊奉贤区南桥镇环城东路885弄270号(近航南公路)"},{"poiid":"B2094757D568A4F5419C","title":"南桥新城","lon":"121.4788278","lat":"30.94887056","category":"47","category_name":"住宅区","address":"上海市奉贤区奉浦大道11弄"},{"poiid":"B2094655D26FA6FF499C","title":"锦江之星(奉贤南桥店)","lon":"121.46498","lat":"30.93118","category":"216","category_name":"经济型连锁酒店","address":"近郊奉贤区南桥镇航南公路5499号"},{"poiid":"B2094757D16FAAF4449A","title":"沪金高速南桥出口","lon":"121.475308","lat":"30.931361","category":"500","category_name":"未知分类","address":"上海沪金高速南桥出口"},{"poiid":"B2094654DB69A7FB409A","title":"华龙别墅","lon":"121.4707","lat":"30.9321","category":"47","category_name":"住宅区","address":"奉贤区江海镇"},{"poiid":"B209475CD76CA2F94998","title":"17.5影城（南桥四季广场店）","lon":"121.47112","lat":"30.932581","category":"178","category_name":"电影院","address":"上海市奉贤区航南公路5000号1幢1-3号"},{"poiid":"B2094752D665A2FD439F","title":"罗曼园高级婚礼会所","lon":"121.470501","lat":"30.933207","category":"247","category_name":"餐饮美食","address":null},{"poiid":"B2094757D16DA1F44198","title":"悦圣渔港","lon":"121.46122","lat":"30.93901","category":"76","category_name":"上海菜","address":"近郊奉贤区奉浦开发区环城东路525号(近八字桥路)"},{"poiid":"B2094655D268ABF9479D","title":"Ａ４航南公路收费站","lon":"121.47953","lat":"30.92993","category":"267","category_name":"收费站","address":""},{"poiid":"B2094757D16FA7FF479D","title":"映山红湘菜馆(南桥店)","lon":"121.464495249","lat":"30.9291445903","category":"77","category_name":"湖南菜","address":"近郊奉贤区南桥环城东路850号(近易买得)"},{"poiid":"B2094757D064A4FC4699","title":"奉贤区人民法院","lon":"121.48103356","lat":"30.9254841","category":"608","category_name":"法院","address":"上海市奉贤区解放东路199号"},{"poiid":"B2094752D26BA5FB449C","title":"恒盛毓美幼儿园","lon":"121.487625","lat":"30.929291","category":"57","category_name":"幼儿园","address":"泽丰路楚园路197号"},{"poiid":"B209475CD26BA5FD479A","title":"海上歌友","lon":"121.471023","lat":"30.931718","category":"170","category_name":"KTV","address":"上海市 环城东路630号"},{"poiid":"B2094757DB68A0FC4393","title":"南郊美墅","lon":"121.485399","lat":"30.928094","category":"47","category_name":"住宅区","address":"南郊美墅"},{"poiid":"B2094655D36CA2FC4298","title":"南郊名墅","lon":"121.478","lat":"30.925","category":"47","category_name":"住宅区","address":"奉贤展园路300弄"},{"poiid":"B2094757D568A1F9489D","title":"南郊宾馆中餐厅","lon":"121.482765","lat":"30.92526","category":"247","category_name":"餐饮美食","address":"近郊奉贤区望园路8号(近团南公路)"},{"poiid":"B2094757D66EA4FB449A","title":"奉浦苑","lon":"121.46478","lat":"30.934446","category":"500","category_name":"未知分类","address":"八字桥路219号"},{"poiid":"B2094757D568A1F8479E","title":"深呼吸KTV量贩欢城","lon":"121.46304362","lat":"30.93183078","category":"170","category_name":"KTV","address":"中国上海市奉贤区环城东路"},{"poiid":"B2094757D66CA2F44599","title":"奉浦玫瑰苑","lon":"121.466213","lat":"30.937641","category":"500","category_name":"未知分类","address":"上海奉贤区环城东路八字桥路"},{"poiid":"B2094757D665A2FE469D","title":"湘乡人家","lon":"121.4615841","lat":"30.9366226","category":"77","category_name":"湖南菜","address":"近郊奉贤区环城东路600,606号(近八字桥路)"},{"poiid":"B2094757D06EAAF5459F","title":"绿地万豪酒店","lon":"121.46538383","lat":"30.939536039","category":"213","category_name":"五星级宾馆","address":"上海卢湾区江滨路99号"},{"poiid":"B2094654DB68A3F5499D","title":"蓝天苑","lon":"121.484","lat":"30.9253","category":"47","category_name":"住宅区","address":"远东路2749弄"},{"poiid":"B2094757DB69A1FB449C","title":"嘎嘎酒吧","lon":"121.47149562836","lat":"30.931954896883","category":"260","category_name":"其他","address":"近郊奉贤区航南公路5000号生态园四季广场内(近绿庭汇广场)"},{"poiid":"B2094655D36CA6FF4993","title":"奉浦新村","lon":"121.467","lat":"30.9447","category":"38","category_name":"公交车站","address":"川南奉公路202弄"},{"poiid":"B2094655D268A7FA4893","title":"绿地方舟商务楼","lon":"121.4662","lat":"30.92573","category":"46","category_name":"楼宇","address":"运河北路258"},{"poiid":"B2094757D464A7F84393","title":"庆尚北道","lon":"121.46501","lat":"30.92859","category":"96","category_name":"韩国料理","address":"近郊奉贤区环城东路883弄16-17号(近老街)"},{"poiid":"B2094757D464A7F84693","title":"汤尼日本料理","lon":"121.46236557958","lat":"30.93136925716","category":"95","category_name":"日本料理","address":"近郊环城东路883弄13号"},{"poiid":"B2094757D168A5FA419D","title":"聚润广场","lon":"121.48834891","lat":"30.923655131","category":"119","category_name":"商场","address":"近郊奉贤望园路(近南郊宾馆)"},{"poiid":"B2094757D06AA6F5409A","title":"上海工商奉贤分局","lon":"121.48812446","lat":"30.921109373","category":"500","category_name":"未知分类","address":"上海奉贤区解放东路58号"},{"poiid":"B2094757D06FA4FE4393","title":"凯桥绿地","lon":"121.465383832","lat":"30.939536039","category":"196","category_name":"公园","address":"上海长宁区延安西路凯旋路口  "},{"poiid":"B2094655D36CA7FB4799","title":"国顺路","lon":"121.46249","lat":"30.93408","category":"38","category_name":"公交车站","address":""}]