[{"poiid":"B2094655D36DA6FF499F","title":"海上国际影城(南桥百联店)","lon":"121.48177","lat":"30.91604","category":"178","category_name":"电影院","address":"近郊奉贤区南桥镇百齐路588号百联南桥购物中心4楼(近南桥汽车站)"},{"poiid":"B2094757D06FA3F8469D","title":"南桥汽车站","lon":"121.47966003","lat":"30.915561676","category":"35","category_name":"长途汽车站","address":"上海市奉贤区南奉公路(近沪金高速)"},{"poiid":"B2094757D068A1F4499D","title":"顺风大酒店(南桥店)","lon":"121.4838563","lat":"30.9150002","category":"75","category_name":"浙江菜","address":"近郊奉贤区南桥镇百齐路588号百联南桥购物中心2期4楼(近南桥汽车站)"},{"poiid":"B2094757D069A0F9449A","title":"必胜客(百齐路店)","lon":"121.48385724","lat":"30.912406941","category":"94","category_name":"西餐厅","address":"近郊奉贤区南桥镇南奉公路8515号南方国际购物中心1-2楼"},{"poiid":"B2094757D068A3FF4099","title":"避风塘(奉贤店)","lon":"121.48395274","lat":"30.915436548","category":"72","category_name":"广东菜","address":"近郊奉贤区南桥镇百齐路588号百联南桥购物中心内(近南桥汽车站)"},{"poiid":"B2094757D06BA3F94592","title":"正阳世纪星城","lon":"121.47933291","lat":"30.911579855","category":"47","category_name":"住宅区","address":"奉贤区南桥南奉公路8889号"},{"poiid":"B2094750DA6EA5FF4092","title":"源泰东南亚风味餐厅","lon":"121.486236","lat":"30.915634","category":"247","category_name":"餐饮美食","address":"近郊奉贤南奉公路8509弄28号南方国际C幢3楼"},{"poiid":"B2094757D068AAF9439F","title":"奉贤图书馆","lon":"121.475452781","lat":"30.9170988553","category":"181","category_name":"图书馆","address":"上海奉贤区解放东路889号"},{"poiid":"B2094655D26BA1F8419F","title":"南方国际广场","lon":"121.48474","lat":"30.91689","category":"38","category_name":"公交车站","address":"奉贤百兴路78弄"},{"poiid":"B2094757D06AA6FC409D","title":"釜山料理","lon":"121.48421291","lat":"30.914152914","category":"247","category_name":"餐饮美食","address":"上海市奉贤区南桥镇百齐路588号 百联三期3F"},{"poiid":"B2094757D164A4FA4992","title":"南方国际","lon":"121.481894516","lat":"30.9144391209","category":"47","category_name":"住宅区","address":"上海奉贤南奉公路"},{"poiid":"B2094757DA6AABFE4598","title":"好乐迪","lon":"121.479519","lat":"30.917919","category":"248","category_name":"生活娱乐","address":"南桥镇百齐路558号4F"},{"poiid":"B2094757D069A1FA4093","title":"卜蜂莲花(南桥店)","lon":"121.47638","lat":"30.9145","category":"118","category_name":"超级市场","address":"近郊奉贤区南桥镇南奉公路8891号"},{"poiid":"B2094757DA6EA4F94999","title":"自由港量贩式KTV(南桥百联店)","lon":"121.483965999997","lat":"30.915239","category":"170","category_name":"KTV","address":"奉贤区南奉公路8509弄2栋3F"},{"poiid":"B2094757D468AAFE4098","title":"蜀府 奉贤百联店","lon":"121.4834690094","lat":"30.915259263997","category":"71","category_name":"四川菜","address":"近郊奉贤区南桥镇百齐路588号百联南桥购物中心3楼"},{"poiid":"B2094750DB65A1FF449B","title":"韩果汗蒸","lon":"121.478309","lat":"30.911874","category":"148","category_name":"美容美发店","address":null},{"poiid":"B2094757D66BA4FB429C","title":"南桥百联店 Starbucks Cafe","lon":"121.48385","lat":"30.915","category":"65","category_name":"咖啡厅","address":"百齐路588号百联南桥购物中心近南奉公路"},{"poiid":"B2094757D064A5FE459D","title":"翡翠国际广场","lon":"121.474159","lat":"30.918167","category":"500","category_name":"未知分类","address":"上海奉贤区解放东路1088号"},{"poiid":"B2094757D065AAF84193","title":"斗牛士","lon":"121.48427391","lat":"30.914887931","category":"500","category_name":"未知分类","address":"奉贤区南桥镇百齐路588号百联南郊购物中心近百顺路"},{"poiid":"B2094655D36DA0F54592","title":"育秀路","lon":"121.47074","lat":"30.91057","category":"38","category_name":"公交车站","address":""},{"poiid":"B2094757D06AA5F94192","title":"许留山（百联）","lon":"121.48467461","lat":"30.914308984","category":"67","category_name":"甜品店","address":"近郊奉贤区南桥镇百齐路588号百联南桥购物中心内(近南桥汽车站)"},{"poiid":"B2094757D568ABF9449A","title":"正阳世纪星城3期丽骏湾","lon":"121.47707086","lat":"30.90681939","category":"47","category_name":"住宅区","address":"中国上海市奉贤区环城南路"},{"poiid":"B2094757D66BA4FA409B","title":"斗牛士 南桥百联店","lon":"121.485151","lat":"30.912734","category":"94","category_name":"西餐厅","address":"近郊奉贤区南桥镇百齐路588号百联南桥购物中心内(近南桥汽车站)"},{"poiid":"B2094757D76BA1FA439D","title":"爱茜茜里 南郊百联店 ICEASON","lon":"121.473639054","lat":"30.914233793","category":"67","category_name":"甜品店","address":"近郊奉贤区南桥镇百齐路588号百联南郊购物中心1楼"},{"poiid":"B2094655D268A2F4489A","title":"米兰风尚","lon":"121.47924","lat":"30.91044","category":"47","category_name":"住宅区","address":"正环路888弄65号-96号"},{"poiid":"B2094757D064A6FD419C","title":"呷哺呷哺(奉贤乐购南桥店)","lon":"121.4699019","lat":"30.9126736","category":"86","category_name":"火锅店","address":"近郊奉贤区环城东路1454-1468号S21铺位(近莘庄地铁站)"},{"poiid":"B2094757D664A7F94992","title":"DQ冰雪皇后 南桥百联店 Dairy Queen","lon":"121.484","lat":"30.91554","category":"113","category_name":"冷饮店","address":"近郊奉贤区南桥镇百齐路588号百联南郊购物中心第一食品店1楼"},{"poiid":"B2094757D569A0F94899","title":"LACALA阳光海岸","lon":"121.47938205","lat":"30.90839138","category":"47","category_name":"住宅区","address":"莘奉公路4588弄"},{"poiid":"B2094655D268A2F4489E","title":"英伦风情","lon":"121.47605","lat":"30.91057","category":"47","category_name":"住宅区","address":"正环路888弄1号-32号"},{"poiid":"B2094757D465A4FA479D","title":"韩林炭烤 （百联南桥店）","lon":"121.473706","lat":"30.914175","category":"247","category_name":"餐饮美食","address":"百齐路288号百联南桥购物中心二期4楼近南奉公路"},{"poiid":"B2094655D268A2F4489B","title":"米兰风尚(东门)","lon":"121.48005","lat":"30.9105","category":"47","category_name":"住宅区","address":"正环路888弄65号-96号"},{"poiid":"B2094757D569A2FC4398","title":"青青草幼儿园","lon":"121.48041884","lat":"30.91054362","category":"57","category_name":"幼儿园","address":"近郊奉贤区南桥镇正环路289号"},{"poiid":"B2094757D56DA0F8459E","title":"南方百联营业厅","lon":"121.483198","lat":"30.912063","category":"151","category_name":"电讯营业厅","address":"奉贤区莘奉公路1985号"},{"poiid":"B2094655D268A6FA499A","title":"南桥镇社区卫生服务中心育秀站","lon":"121.48092","lat":"30.91088","category":"162","category_name":"医院","address":"育秀东路29"},{"poiid":"B2094757D66CA4FA439B","title":"弘文学校","lon":"121.481139316","lat":"30.912171069","category":"253","category_name":"校园生活","address":"近郊奉贤区南桥镇正环路"},{"poiid":"B2094655D36DA7FF439E","title":"正阳小区","lon":"121.47286","lat":"30.91074","category":"47","category_name":"住宅区","address":""},{"poiid":"B2094757D065AAFA4999","title":"甜蜜蜜(南桥二店)","lon":"121.47451476","lat":"30.91413988","category":"67","category_name":"甜品店","address":"近郊南奉公路8891号(近易初莲花)"},{"poiid":"B2094757D765A4FC409E","title":"肯德基 南桥百联店 KFC","lon":"121.48385","lat":"30.915","category":"68","category_name":"快餐厅","address":"近郊奉贤区南桥镇百齐路588号百联南桥购物中心内(近南桥汽车站)"},{"poiid":"B2094655D268A2F44793","title":"江海派出所","lon":"121.48119","lat":"30.90827","category":"609","category_name":"警察局","address":"南港路1399"},{"poiid":"B2094750D568A3FA4492","title":"肯德基(南奉公路店)","lon":"121.476","lat":"30.9147","category":"68","category_name":"快餐厅","address":"近郊奉贤区南奉公路8889号"},{"poiid":"B2094654DB6FAAF4499B","title":"南桥车站","lon":"121.47953","lat":"30.91489","category":"35","category_name":"长途汽车站","address":"南奉公路"},{"poiid":"B2094654DB68A7FA439F","title":"中央公园","lon":"121.47805","lat":"30.91205","category":"196","category_name":"公园","address":"江海镇"},{"poiid":"B2094757D16CA2FE4698","title":"奉贤分局江海派出所","lon":"121.48219891","lat":"30.909282803","category":"609","category_name":"警察局","address":"上海奉贤区南桥镇南港路1399号"},{"poiid":"B2094757D464ABF9459C","title":"棒约翰比萨 南桥百联店 Papa John's Pizza","lon":"121.48385","lat":"30.915","category":"94","category_name":"西餐厅","address":"近郊奉贤区南桥镇百齐路588号百联南郊购物中心4楼"},{"poiid":"B2094654DB68A7FA439C","title":"绅鸿苑","lon":"121.48049","lat":"30.91249","category":"47","category_name":"住宅区","address":"正环路158弄1-29号"},{"poiid":"B2094757D06BABFB4798","title":"环城东路优佳造型","lon":"121.47432741","lat":"30.908445783","category":"500","category_name":"未知分类","address":"近郊奉贤南桥环城东路1630号(近育秀路)"},{"poiid":"B209475CD264A0F54099","title":"吉旺港式餐厅","lon":"121.483238","lat":"30.912925","category":"247","category_name":"餐饮美食","address":"上海市 百联南桥"},{"poiid":"B2094655D268A0FF489B","title":"绅鸿苑(西门)","lon":"121.47982","lat":"30.91229","category":"47","category_name":"住宅区","address":"正环路158弄1-29号"},{"poiid":"B2094654DB68A7FA439D","title":"居礼苑","lon":"121.47891","lat":"30.91254","category":"47","category_name":"住宅区","address":"南奉公路8889弄103-131号"},{"poiid":"B2094655D268A1FF419E","title":"莱茵之恋","lon":"121.47433","lat":"30.91009","category":"47","category_name":"住宅区","address":"正环路889弄1号-32号"},{"poiid":"B2094655D36DA6FF499F","title":"海上国际影城(南桥百联店)","lon":"121.48177","lat":"30.91604","category":"178","category_name":"电影院","address":"近郊奉贤区南桥镇百齐路588号百联南桥购物中心4楼(近南桥汽车站)"},{"poiid":"B2094757D06FA3F8469D","title":"南桥汽车站","lon":"121.47966003","lat":"30.915561676","category":"35","category_name":"长途汽车站","address":"上海市奉贤区南奉公路(近沪金高速)"},{"poiid":"B2094757D068A1F4499D","title":"顺风大酒店(南桥店)","lon":"121.4838563","lat":"30.9150002","category":"75","category_name":"浙江菜","address":"近郊奉贤区南桥镇百齐路588号百联南桥购物中心2期4楼(近南桥汽车站)"},{"poiid":"B2094757D069A0F9449A","title":"必胜客(百齐路店)","lon":"121.48385724","lat":"30.912406941","category":"94","category_name":"西餐厅","address":"近郊奉贤区南桥镇南奉公路8515号南方国际购物中心1-2楼"},{"poiid":"B2094757D068A3FF4099","title":"避风塘(奉贤店)","lon":"121.48395274","lat":"30.915436548","category":"72","category_name":"广东菜","address":"近郊奉贤区南桥镇百齐路588号百联南桥购物中心内(近南桥汽车站)"},{"poiid":"B2094757D06BA3F94592","title":"正阳世纪星城","lon":"121.47933291","lat":"30.911579855","category":"47","category_name":"住宅区","address":"奉贤区南桥南奉公路8889号"},{"poiid":"B2094750DA6EA5FF4092","title":"源泰东南亚风味餐厅","lon":"121.486236","lat":"30.915634","category":"247","category_name":"餐饮美食","address":"近郊奉贤南奉公路8509弄28号南方国际C幢3楼"},{"poiid":"B2094757D068AAF9439F","title":"奉贤图书馆","lon":"121.475452781","lat":"30.9170988553","category":"181","category_name":"图书馆","address":"上海奉贤区解放东路889号"},{"poiid":"B2094655D26BA1F8419F","title":"南方国际广场","lon":"121.48474","lat":"30.91689","category":"38","category_name":"公交车站","address":"奉贤百兴路78弄"},{"poiid":"B2094757D06AA6FC409D","title":"釜山料理","lon":"121.48421291","lat":"30.914152914","category":"247","category_name":"餐饮美食","address":"上海市奉贤区南桥镇百齐路588号 百联三期3F"},{"poiid":"B2094757D164A4FA4992","title":"南方国际","lon":"121.481894516","lat":"30.9144391209","category":"47","category_name":"住宅区","address":"上海奉贤南奉公路"},{"poiid":"B2094757DA6AABFE4598","title":"好乐迪","lon":"121.479519","lat":"30.917919","category":"248","category_name":"生活娱乐","address":"南桥镇百齐路558号4F"},{"poiid":"B2094757D069A1FA4093","title":"卜蜂莲花(南桥店)","lon":"121.47638","lat":"30.9145","category":"118","category_name":"超级市场","address":"近郊奉贤区南桥镇南奉公路8891号"},{"poiid":"B2094757DA6EA4F94999","title":"自由港量贩式KTV(南桥百联店)","lon":"121.483965999997","lat":"30.915239","category":"170","category_name":"KTV","address":"奉贤区南奉公路8509弄2栋3F"},{"poiid":"B2094757D468AAFE4098","title":"蜀府 奉贤百联店","lon":"121.4834690094","lat":"30.915259263997","category":"71","category_name":"四川菜","address":"近郊奉贤区南桥镇百齐路588号百联南桥购物中心3楼"},{"poiid":"B2094750DB65A1FF449B","title":"韩果汗蒸","lon":"121.478309","lat":"30.911874","category":"148","category_name":"美容美发店","address":null},{"poiid":"B2094757D66BA4FB429C","title":"南桥百联店 Starbucks Cafe","lon":"121.48385","lat":"30.915","category":"65","category_name":"咖啡厅","address":"百齐路588号百联南桥购物中心近南奉公路"},{"poiid":"B2094757D064A5FE459D","title":"翡翠国际广场","lon":"121.474159","lat":"30.918167","category":"500","category_name":"未知分类","address":"上海奉贤区解放东路1088号"},{"poiid":"B2094757D065AAF84193","title":"斗牛士","lon":"121.48427391","lat":"30.914887931","category":"500","category_name":"未知分类","address":"奉贤区南桥镇百齐路588号百联南郊购物中心近百顺路"},{"poiid":"B2094655D36DA0F54592","title":"育秀路","lon":"121.47074","lat":"30.91057","category":"38","category_name":"公交车站","address":""},{"poiid":"B2094757D06AA5F94192","title":"许留山（百联）","lon":"121.48467461","lat":"30.914308984","category":"67","category_name":"甜品店","address":"近郊奉贤区南桥镇百齐路588号百联南桥购物中心内(近南桥汽车站)"},{"poiid":"B2094757D568ABF9449A","title":"正阳世纪星城3期丽骏湾","lon":"121.47707086","lat":"30.90681939","category":"47","category_name":"住宅区","address":"中国上海市奉贤区环城南路"},{"poiid":"B2094757D66BA4FA409B","title":"斗牛士 南桥百联店","lon":"121.485151","lat":"30.912734","category":"94","category_name":"西餐厅","address":"近郊奉贤区南桥镇百齐路588号百联南桥购物中心内(近南桥汽车站)"},{"poiid":"B2094757D76BA1FA439D","title":"爱茜茜里 南郊百联店 ICEASON","lon":"121.473639054","lat":"30.914233793","category":"67","category_name":"甜品店","address":"近郊奉贤区南桥镇百齐路588号百联南郊购物中心1楼"},{"poiid":"B2094655D268A2F4489A","title":"米兰风尚","lon":"121.47924","lat":"30.91044","category":"47","category_name":"住宅区","address":"正环路888弄65号-96号"},{"poiid":"B2094757D064A6FD419C","title":"呷哺呷哺(奉贤乐购南桥店)","lon":"121.4699019","lat":"30.9126736","category":"86","category_name":"火锅店","address":"近郊奉贤区环城东路1454-1468号S21铺位(近莘庄地铁站)"},{"poiid":"B2094757D664A7F94992","title":"DQ冰雪皇后 南桥百联店 Dairy Queen","lon":"121.484","lat":"30.91554","category":"113","category_name":"冷饮店","address":"近郊奉贤区南桥镇百齐路588号百联南郊购物中心第一食品店1楼"},{"poiid":"B2094757D569A0F94899","title":"LACALA阳光海岸","lon":"121.47938205","lat":"30.90839138","category":"47","category_name":"住宅区","address":"莘奉公路4588弄"},{"poiid":"B2094655D268A2F4489E","title":"英伦风情","lon":"121.47605","lat":"30.91057","category":"47","category_name":"住宅区","address":"正环路888弄1号-32号"},{"poiid":"B2094757D465A4FA479D","title":"韩林炭烤 （百联南桥店）","lon":"121.473706","lat":"30.914175","category":"247","category_name":"餐饮美食","address":"百齐路288号百联南桥购物中心二期4楼近南奉公路"},{"poiid":"B2094655D268A2F4489B","title":"米兰风尚(东门)","lon":"121.48005","lat":"30.9105","category":"47","category_name":"住宅区","address":"正环路888弄65号-96号"},{"poiid":"B2094757D569A2FC4398","title":"青青草幼儿园","lon":"121.48041884","lat":"30.91054362","category":"57","category_name":"幼儿园","address":"近郊奉贤区南桥镇正环路289号"},{"poiid":"B2094757D56DA0F8459E","title":"南方百联营业厅","lon":"121.483198","lat":"30.912063","category":"151","category_name":"电讯营业厅","address":"奉贤区莘奉公路1985号"},{"poiid":"B2094655D268A6FA499A","title":"南桥镇社区卫生服务中心育秀站","lon":"121.48092","lat":"30.91088","category":"162","category_name":"医院","address":"育秀东路29"},{"poiid":"B2094757D66CA4FA439B","title":"弘文学校","lon":"121.481139316","lat":"30.912171069","category":"253","category_name":"校园生活","address":"近郊奉贤区南桥镇正环路"},{"poiid":"B2094655D36DA7FF439E","title":"正阳小区","lon":"121.47286","lat":"30.91074","category":"47","category_name":"住宅区","address":""},{"poiid":"B2094757D065AAFA4999","title":"甜蜜蜜(南桥二店)","lon":"121.47451476","lat":"30.91413988","category":"67","category_name":"甜品店","address":"近郊南奉公路8891号(近易初莲花)"},{"poiid":"B2094757D765A4FC409E","title":"肯德基 南桥百联店 KFC","lon":"121.48385","lat":"30.915","category":"68","category_name":"快餐厅","address":"近郊奉贤区南桥镇百齐路588号百联南桥购物中心内(近南桥汽车站)"},{"poiid":"B2094655D268A2F44793","title":"江海派出所","lon":"121.48119","lat":"30.90827","category":"609","category_name":"警察局","address":"南港路1399"},{"poiid":"B2094750D568A3FA4492","title":"肯德基(南奉公路店)","lon":"121.476","lat":"30.9147","category":"68","category_name":"快餐厅","address":"近郊奉贤区南奉公路8889号"},{"poiid":"B2094654DB6FAAF4499B","title":"南桥车站","lon":"121.47953","lat":"30.91489","category":"35","category_name":"长途汽车站","address":"南奉公路"},{"poiid":"B2094654DB68A7FA439F","title":"中央公园","lon":"121.47805","lat":"30.91205","category":"196","category_name":"公园","address":"江海镇"},{"poiid":"B2094757D16CA2FE4698","title":"奉贤分局江海派出所","lon":"121.48219891","lat":"30.909282803","category":"609","category_name":"警察局","address":"上海奉贤区南桥镇南港路1399号"},{"poiid":"B2094757D464ABF9459C","title":"棒约翰比萨 南桥百联店 Papa John's Pizza","lon":"121.48385","lat":"30.915","category":"94","category_name":"西餐厅","address":"近郊奉贤区南桥镇百齐路588号百联南郊购物中心4楼"},{"poiid":"B2094654DB68A7FA439C","title":"绅鸿苑","lon":"121.48049","lat":"30.91249","category":"47","category_name":"住宅区","address":"正环路158弄1-29号"},{"poiid":"B2094757D06BABFB4798","title":"环城东路优佳造型","lon":"121.47432741","lat":"30.908445783","category":"500","category_name":"未知分类","address":"近郊奉贤南桥环城东路1630号(近育秀路)"},{"poiid":"B209475CD264A0F54099","title":"吉旺港式餐厅","lon":"121.483238","lat":"30.912925","category":"247","category_name":"餐饮美食","address":"上海市 百联南桥"},{"poiid":"B2094655D268A0FF489B","title":"绅鸿苑(西门)","lon":"121.47982","lat":"30.91229","category":"47","category_name":"住宅区","address":"正环路158弄1-29号"},{"poiid":"B2094654DB68A7FA439D","title":"居礼苑","lon":"121.47891","lat":"30.91254","category":"47","category_name":"住宅区","address":"南奉公路8889弄103-131号"},{"poiid":"B2094655D268A1FF419E","title":"莱茵之恋","lon":"121.47433","lat":"30.91009","category":"47","category_name":"住宅区","address":"正环路889弄1号-32号"},{"poiid":"B2094655D36DA6FF499F","title":"海上国际影城(南桥百联店)","lon":"121.48177","lat":"30.91604","category":"178","category_name":"电影院","address":"近郊奉贤区南桥镇百齐路588号百联南桥购物中心4楼(近南桥汽车站)"},{"poiid":"B2094757D06FA3F8469D","title":"南桥汽车站","lon":"121.47966003","lat":"30.915561676","category":"35","category_name":"长途汽车站","address":"上海市奉贤区南奉公路(近沪金高速)"},{"poiid":"B2094757D068A1F4499D","title":"顺风大酒店(南桥店)","lon":"121.4838563","lat":"30.9150002","category":"75","category_name":"浙江菜","address":"近郊奉贤区南桥镇百齐路588号百联南桥购物中心2期4楼(近南桥汽车站)"},{"poiid":"B2094757D069A0F9449A","title":"必胜客(百齐路店)","lon":"121.48385724","lat":"30.912406941","category":"94","category_name":"西餐厅","address":"近郊奉贤区南桥镇南奉公路8515号南方国际购物中心1-2楼"},{"poiid":"B2094757D068A3FF4099","title":"避风塘(奉贤店)","lon":"121.48395274","lat":"30.915436548","category":"72","category_name":"广东菜","address":"近郊奉贤区南桥镇百齐路588号百联南桥购物中心内(近南桥汽车站)"},{"poiid":"B2094757D06BA3F94592","title":"正阳世纪星城","lon":"121.47933291","lat":"30.911579855","category":"47","category_name":"住宅区","address":"奉贤区南桥南奉公路8889号"},{"poiid":"B2094750DA6EA5FF4092","title":"源泰东南亚风味餐厅","lon":"121.486236","lat":"30.915634","category":"247","category_name":"餐饮美食","address":"近郊奉贤南奉公路8509弄28号南方国际C幢3楼"},{"poiid":"B2094757D068AAF9439F","title":"奉贤图书馆","lon":"121.475452781","lat":"30.9170988553","category":"181","category_name":"图书馆","address":"上海奉贤区解放东路889号"},{"poiid":"B2094655D26BA1F8419F","title":"南方国际广场","lon":"121.48474","lat":"30.91689","category":"38","category_name":"公交车站","address":"奉贤百兴路78弄"},{"poiid":"B2094757D06AA6FC409D","title":"釜山料理","lon":"121.48421291","lat":"30.914152914","category":"247","category_name":"餐饮美食","address":"上海市奉贤区南桥镇百齐路588号 百联三期3F"},{"poiid":"B2094757D164A4FA4992","title":"南方国际","lon":"121.481894516","lat":"30.9144391209","category":"47","category_name":"住宅区","address":"上海奉贤南奉公路"},{"poiid":"B2094757DA6AABFE4598","title":"好乐迪","lon":"121.479519","lat":"30.917919","category":"248","category_name":"生活娱乐","address":"南桥镇百齐路558号4F"},{"poiid":"B2094757D069A1FA4093","title":"卜蜂莲花(南桥店)","lon":"121.47638","lat":"30.9145","category":"118","category_name":"超级市场","address":"近郊奉贤区南桥镇南奉公路8891号"},{"poiid":"B2094757DA6EA4F94999","title":"自由港量贩式KTV(南桥百联店)","lon":"121.483965999997","lat":"30.915239","category":"170","category_name":"KTV","address":"奉贤区南奉公路8509弄2栋3F"},{"poiid":"B2094757D468AAFE4098","title":"蜀府 奉贤百联店","lon":"121.4834690094","lat":"30.915259263997","category":"71","category_name":"四川菜","address":"近郊奉贤区南桥镇百齐路588号百联南桥购物中心3楼"},{"poiid":"B2094750DB65A1FF449B","title":"韩果汗蒸","lon":"121.478309","lat":"30.911874","category":"148","category_name":"美容美发店","address":null},{"poiid":"B2094757D66BA4FB429C","title":"南桥百联店 Starbucks Cafe","lon":"121.48385","lat":"30.915","category":"65","category_name":"咖啡厅","address":"百齐路588号百联南桥购物中心近南奉公路"},{"poiid":"B2094757D064A5FE459D","title":"翡翠国际广场","lon":"121.474159","lat":"30.918167","category":"500","category_name":"未知分类","address":"上海奉贤区解放东路1088号"},{"poiid":"B2094757D065AAF84193","title":"斗牛士","lon":"121.48427391","lat":"30.914887931","category":"500","category_name":"未知分类","address":"奉贤区南桥镇百齐路588号百联南郊购物中心近百顺路"},{"poiid":"B2094655D36DA0F54592","title":"育秀路","lon":"121.47074","lat":"30.91057","category":"38","category_name":"公交车站","address":""},{"poiid":"B2094757D06AA5F94192","title":"许留山（百联）","lon":"121.48467461","lat":"30.914308984","category":"67","category_name":"甜品店","address":"近郊奉贤区南桥镇百齐路588号百联南桥购物中心内(近南桥汽车站)"},{"poiid":"B2094757D568ABF9449A","title":"正阳世纪星城3期丽骏湾","lon":"121.47707086","lat":"30.90681939","category":"47","category_name":"住宅区","address":"中国上海市奉贤区环城南路"},{"poiid":"B2094757D66BA4FA409B","title":"斗牛士 南桥百联店","lon":"121.485151","lat":"30.912734","category":"94","category_name":"西餐厅","address":"近郊奉贤区南桥镇百齐路588号百联南桥购物中心内(近南桥汽车站)"},{"poiid":"B2094757D76BA1FA439D","title":"爱茜茜里 南郊百联店 ICEASON","lon":"121.473639054","lat":"30.914233793","category":"67","category_name":"甜品店","address":"近郊奉贤区南桥镇百齐路588号百联南郊购物中心1楼"},{"poiid":"B2094655D268A2F4489A","title":"米兰风尚","lon":"121.47924","lat":"30.91044","category":"47","category_name":"住宅区","address":"正环路888弄65号-96号"},{"poiid":"B2094757D064A6FD419C","title":"呷哺呷哺(奉贤乐购南桥店)","lon":"121.4699019","lat":"30.9126736","category":"86","category_name":"火锅店","address":"近郊奉贤区环城东路1454-1468号S21铺位(近莘庄地铁站)"},{"poiid":"B2094757D664A7F94992","title":"DQ冰雪皇后 南桥百联店 Dairy Queen","lon":"121.484","lat":"30.91554","category":"113","category_name":"冷饮店","address":"近郊奉贤区南桥镇百齐路588号百联南郊购物中心第一食品店1楼"},{"poiid":"B2094757D569A0F94899","title":"LACALA阳光海岸","lon":"121.47938205","lat":"30.90839138","category":"47","category_name":"住宅区","address":"莘奉公路4588弄"},{"poiid":"B2094655D268A2F4489E","title":"英伦风情","lon":"121.47605","lat":"30.91057","category":"47","category_name":"住宅区","address":"正环路888弄1号-32号"},{"poiid":"B2094757D465A4FA479D","title":"韩林炭烤 （百联南桥店）","lon":"121.473706","lat":"30.914175","category":"247","category_name":"餐饮美食","address":"百齐路288号百联南桥购物中心二期4楼近南奉公路"},{"poiid":"B2094655D268A2F4489B","title":"米兰风尚(东门)","lon":"121.48005","lat":"30.9105","category":"47","category_name":"住宅区","address":"正环路888弄65号-96号"},{"poiid":"B2094757D569A2FC4398","title":"青青草幼儿园","lon":"121.48041884","lat":"30.91054362","category":"57","category_name":"幼儿园","address":"近郊奉贤区南桥镇正环路289号"},{"poiid":"B2094757D56DA0F8459E","title":"南方百联营业厅","lon":"121.483198","lat":"30.912063","category":"151","category_name":"电讯营业厅","address":"奉贤区莘奉公路1985号"},{"poiid":"B2094655D268A6FA499A","title":"南桥镇社区卫生服务中心育秀站","lon":"121.48092","lat":"30.91088","category":"162","category_name":"医院","address":"育秀东路29"},{"poiid":"B2094757D66CA4FA439B","title":"弘文学校","lon":"121.481139316","lat":"30.912171069","category":"253","category_name":"校园生活","address":"近郊奉贤区南桥镇正环路"},{"poiid":"B2094655D36DA7FF439E","title":"正阳小区","lon":"121.47286","lat":"30.91074","category":"47","category_name":"住宅区","address":""},{"poiid":"B2094757D065AAFA4999","title":"甜蜜蜜(南桥二店)","lon":"121.47451476","lat":"30.91413988","category":"67","category_name":"甜品店","address":"近郊南奉公路8891号(近易初莲花)"},{"poiid":"B2094757D765A4FC409E","title":"肯德基 南桥百联店 KFC","lon":"121.48385","lat":"30.915","category":"68","category_name":"快餐厅","address":"近郊奉贤区南桥镇百齐路588号百联南桥购物中心内(近南桥汽车站)"},{"poiid":"B2094655D268A2F44793","title":"江海派出所","lon":"121.48119","lat":"30.90827","category":"609","category_name":"警察局","address":"南港路1399"},{"poiid":"B2094750D568A3FA4492","title":"肯德基(南奉公路店)","lon":"121.476","lat":"30.9147","category":"68","category_name":"快餐厅","address":"近郊奉贤区南奉公路8889号"},{"poiid":"B2094654DB6FAAF4499B","title":"南桥车站","lon":"121.47953","lat":"30.91489","category":"35","category_name":"长途汽车站","address":"南奉公路"},{"poiid":"B2094654DB68A7FA439F","title":"中央公园","lon":"121.47805","lat":"30.91205","category":"196","category_name":"公园","address":"江海镇"},{"poiid":"B2094757D16CA2FE4698","title":"奉贤分局江海派出所","lon":"121.48219891","lat":"30.909282803","category":"609","category_name":"警察局","address":"上海奉贤区南桥镇南港路1399号"},{"poiid":"B2094757D464ABF9459C","title":"棒约翰比萨 南桥百联店 Papa John's Pizza","lon":"121.48385","lat":"30.915","category":"94","category_name":"西餐厅","address":"近郊奉贤区南桥镇百齐路588号百联南郊购物中心4楼"},{"poiid":"B2094654DB68A7FA439C","title":"绅鸿苑","lon":"121.48049","lat":"30.91249","category":"47","category_name":"住宅区","address":"正环路158弄1-29号"},{"poiid":"B2094757D06BABFB4798","title":"环城东路优佳造型","lon":"121.47432741","lat":"30.908445783","category":"500","category_name":"未知分类","address":"近郊奉贤南桥环城东路1630号(近育秀路)"},{"poiid":"B209475CD264A0F54099","title":"吉旺港式餐厅","lon":"121.483238","lat":"30.912925","category":"247","category_name":"餐饮美食","address":"上海市 百联南桥"},{"poiid":"B2094655D268A0FF489B","title":"绅鸿苑(西门)","lon":"121.47982","lat":"30.91229","category":"47","category_name":"住宅区","address":"正环路158弄1-29号"},{"poiid":"B2094654DB68A7FA439D","title":"居礼苑","lon":"121.47891","lat":"30.91254","category":"47","category_name":"住宅区","address":"南奉公路8889弄103-131号"},{"poiid":"B2094655D268A1FF419E","title":"莱茵之恋","lon":"121.47433","lat":"30.91009","category":"47","category_name":"住宅区","address":"正环路889弄1号-32号"},{"poiid":"B2094655D36DA6FF499F","title":"海上国际影城(南桥百联店)","lon":"121.48177","lat":"30.91604","category":"178","category_name":"电影院","address":"近郊奉贤区南桥镇百齐路588号百联南桥购物中心4楼(近南桥汽车站)"},{"poiid":"B2094757D06FA3F8469D","title":"南桥汽车站","lon":"121.47966003","lat":"30.915561676","category":"35","category_name":"长途汽车站","address":"上海市奉贤区南奉公路(近沪金高速)"},{"poiid":"B2094757D068A1F4499D","title":"顺风大酒店(南桥店)","lon":"121.4838563","lat":"30.9150002","category":"75","category_name":"浙江菜","address":"近郊奉贤区南桥镇百齐路588号百联南桥购物中心2期4楼(近南桥汽车站)"},{"poiid":"B2094757D069A0F9449A","title":"必胜客(百齐路店)","lon":"121.48385724","lat":"30.912406941","category":"94","category_name":"西餐厅","address":"近郊奉贤区南桥镇南奉公路8515号南方国际购物中心1-2楼"},{"poiid":"B2094757D068A3FF4099","title":"避风塘(奉贤店)","lon":"121.48395274","lat":"30.915436548","category":"72","category_name":"广东菜","address":"近郊奉贤区南桥镇百齐路588号百联南桥购物中心内(近南桥汽车站)"},{"poiid":"B2094757D06BA3F94592","title":"正阳世纪星城","lon":"121.47933291","lat":"30.911579855","category":"47","category_name":"住宅区","address":"奉贤区南桥南奉公路8889号"},{"poiid":"B2094750DA6EA5FF4092","title":"源泰东南亚风味餐厅","lon":"121.486236","lat":"30.915634","category":"247","category_name":"餐饮美食","address":"近郊奉贤南奉公路8509弄28号南方国际C幢3楼"},{"poiid":"B2094757D068AAF9439F","title":"奉贤图书馆","lon":"121.475452781","lat":"30.9170988553","category":"181","category_name":"图书馆","address":"上海奉贤区解放东路889号"},{"poiid":"B2094655D26BA1F8419F","title":"南方国际广场","lon":"121.48474","lat":"30.91689","category":"38","category_name":"公交车站","address":"奉贤百兴路78弄"},{"poiid":"B2094757D06AA6FC409D","title":"釜山料理","lon":"121.48421291","lat":"30.914152914","category":"247","category_name":"餐饮美食","address":"上海市奉贤区南桥镇百齐路588号 百联三期3F"},{"poiid":"B2094757D164A4FA4992","title":"南方国际","lon":"121.481894516","lat":"30.9144391209","category":"47","category_name":"住宅区","address":"上海奉贤南奉公路"},{"poiid":"B2094757DA6AABFE4598","title":"好乐迪","lon":"121.479519","lat":"30.917919","category":"248","category_name":"生活娱乐","address":"南桥镇百齐路558号4F"},{"poiid":"B2094757D069A1FA4093","title":"卜蜂莲花(南桥店)","lon":"121.47638","lat":"30.9145","category":"118","category_name":"超级市场","address":"近郊奉贤区南桥镇南奉公路8891号"},{"poiid":"B2094757DA6EA4F94999","title":"自由港量贩式KTV(南桥百联店)","lon":"121.483965999997","lat":"30.915239","category":"170","category_name":"KTV","address":"奉贤区南奉公路8509弄2栋3F"},{"poiid":"B2094757D468AAFE4098","title":"蜀府 奉贤百联店","lon":"121.4834690094","lat":"30.915259263997","category":"71","category_name":"四川菜","address":"近郊奉贤区南桥镇百齐路588号百联南桥购物中心3楼"},{"poiid":"B2094750DB65A1FF449B","title":"韩果汗蒸","lon":"121.478309","lat":"30.911874","category":"148","category_name":"美容美发店","address":null},{"poiid":"B2094757D66BA4FB429C","title":"南桥百联店 Starbucks Cafe","lon":"121.48385","lat":"30.915","category":"65","category_name":"咖啡厅","address":"百齐路588号百联南桥购物中心近南奉公路"},{"poiid":"B2094757D064A5FE459D","title":"翡翠国际广场","lon":"121.474159","lat":"30.918167","category":"500","category_name":"未知分类","address":"上海奉贤区解放东路1088号"},{"poiid":"B2094757D065AAF84193","title":"斗牛士","lon":"121.48427391","lat":"30.914887931","category":"500","category_name":"未知分类","address":"奉贤区南桥镇百齐路588号百联南郊购物中心近百顺路"},{"poiid":"B2094655D36DA0F54592","title":"育秀路","lon":"121.47074","lat":"30.91057","category":"38","category_name":"公交车站","address":""},{"poiid":"B2094757D06AA5F94192","title":"许留山（百联）","lon":"121.48467461","lat":"30.914308984","category":"67","category_name":"甜品店","address":"近郊奉贤区南桥镇百齐路588号百联南桥购物中心内(近南桥汽车站)"},{"poiid":"B2094757D568ABF9449A","title":"正阳世纪星城3期丽骏湾","lon":"121.47707086","lat":"30.90681939","category":"47","category_name":"住宅区","address":"中国上海市奉贤区环城南路"},{"poiid":"B2094757D66BA4FA409B","title":"斗牛士 南桥百联店","lon":"121.485151","lat":"30.912734","category":"94","category_name":"西餐厅","address":"近郊奉贤区南桥镇百齐路588号百联南桥购物中心内(近南桥汽车站)"},{"poiid":"B2094757D76BA1FA439D","title":"爱茜茜里 南郊百联店 ICEASON","lon":"121.473639054","lat":"30.914233793","category":"67","category_name":"甜品店","address":"近郊奉贤区南桥镇百齐路588号百联南郊购物中心1楼"},{"poiid":"B2094655D268A2F4489A","title":"米兰风尚","lon":"121.47924","lat":"30.91044","category":"47","category_name":"住宅区","address":"正环路888弄65号-96号"},{"poiid":"B2094757D064A6FD419C","title":"呷哺呷哺(奉贤乐购南桥店)","lon":"121.4699019","lat":"30.9126736","category":"86","category_name":"火锅店","address":"近郊奉贤区环城东路1454-1468号S21铺位(近莘庄地铁站)"},{"poiid":"B2094757D664A7F94992","title":"DQ冰雪皇后 南桥百联店 Dairy Queen","lon":"121.484","lat":"30.91554","category":"113","category_name":"冷饮店","address":"近郊奉贤区南桥镇百齐路588号百联南郊购物中心第一食品店1楼"},{"poiid":"B2094757D569A0F94899","title":"LACALA阳光海岸","lon":"121.47938205","lat":"30.90839138","category":"47","category_name":"住宅区","address":"莘奉公路4588弄"},{"poiid":"B2094655D268A2F4489E","title":"英伦风情","lon":"121.47605","lat":"30.91057","category":"47","category_name":"住宅区","address":"正环路888弄1号-32号"},{"poiid":"B2094757D465A4FA479D","title":"韩林炭烤 （百联南桥店）","lon":"121.473706","lat":"30.914175","category":"247","category_name":"餐饮美食","address":"百齐路288号百联南桥购物中心二期4楼近南奉公路"},{"poiid":"B2094655D268A2F4489B","title":"米兰风尚(东门)","lon":"121.48005","lat":"30.9105","category":"47","category_name":"住宅区","address":"正环路888弄65号-96号"},{"poiid":"B2094757D569A2FC4398","title":"青青草幼儿园","lon":"121.48041884","lat":"30.91054362","category":"57","category_name":"幼儿园","address":"近郊奉贤区南桥镇正环路289号"},{"poiid":"B2094757D56DA0F8459E","title":"南方百联营业厅","lon":"121.483198","lat":"30.912063","category":"151","category_name":"电讯营业厅","address":"奉贤区莘奉公路1985号"},{"poiid":"B2094655D268A6FA499A","title":"南桥镇社区卫生服务中心育秀站","lon":"121.48092","lat":"30.91088","category":"162","category_name":"医院","address":"育秀东路29"},{"poiid":"B2094757D66CA4FA439B","title":"弘文学校","lon":"121.481139316","lat":"30.912171069","category":"253","category_name":"校园生活","address":"近郊奉贤区南桥镇正环路"},{"poiid":"B2094655D36DA7FF439E","title":"正阳小区","lon":"121.47286","lat":"30.91074","category":"47","category_name":"住宅区","address":""},{"poiid":"B2094757D065AAFA4999","title":"甜蜜蜜(南桥二店)","lon":"121.47451476","lat":"30.91413988","category":"67","category_name":"甜品店","address":"近郊南奉公路8891号(近易初莲花)"},{"poiid":"B2094757D765A4FC409E","title":"肯德基 南桥百联店 KFC","lon":"121.48385","lat":"30.915","category":"68","category_name":"快餐厅","address":"近郊奉贤区南桥镇百齐路588号百联南桥购物中心内(近南桥汽车站)"},{"poiid":"B2094655D268A2F44793","title":"江海派出所","lon":"121.48119","lat":"30.90827","category":"609","category_name":"警察局","address":"南港路1399"},{"poiid":"B2094750D568A3FA4492","title":"肯德基(南奉公路店)","lon":"121.476","lat":"30.9147","category":"68","category_name":"快餐厅","address":"近郊奉贤区南奉公路8889号"},{"poiid":"B2094654DB6FAAF4499B","title":"南桥车站","lon":"121.47953","lat":"30.91489","category":"35","category_name":"长途汽车站","address":"南奉公路"},{"poiid":"B2094654DB68A7FA439F","title":"中央公园","lon":"121.47805","lat":"30.91205","category":"196","category_name":"公园","address":"江海镇"},{"poiid":"B2094757D16CA2FE4698","title":"奉贤分局江海派出所","lon":"121.48219891","lat":"30.909282803","category":"609","category_name":"警察局","address":"上海奉贤区南桥镇南港路1399号"},{"poiid":"B2094757D464ABF9459C","title":"棒约翰比萨 南桥百联店 Papa John's Pizza","lon":"121.48385","lat":"30.915","category":"94","category_name":"西餐厅","address":"近郊奉贤区南桥镇百齐路588号百联南郊购物中心4楼"},{"poiid":"B2094654DB68A7FA439C","title":"绅鸿苑","lon":"121.48049","lat":"30.91249","category":"47","category_name":"住宅区","address":"正环路158弄1-29号"},{"poiid":"B2094757D06BABFB4798","title":"环城东路优佳造型","lon":"121.47432741","lat":"30.908445783","category":"500","category_name":"未知分类","address":"近郊奉贤南桥环城东路1630号(近育秀路)"},{"poiid":"B209475CD264A0F54099","title":"吉旺港式餐厅","lon":"121.483238","lat":"30.912925","category":"247","category_name":"餐饮美食","address":"上海市 百联南桥"},{"poiid":"B2094655D268A0FF489B","title":"绅鸿苑(西门)","lon":"121.47982","lat":"30.91229","category":"47","category_name":"住宅区","address":"正环路158弄1-29号"},{"poiid":"B2094654DB68A7FA439D","title":"居礼苑","lon":"121.47891","lat":"30.91254","category":"47","category_name":"住宅区","address":"南奉公路8889弄103-131号"},{"poiid":"B2094655D268A1FF419E","title":"莱茵之恋","lon":"121.47433","lat":"30.91009","category":"47","category_name":"住宅区","address":"正环路889弄1号-32号"}]