[{"poiid":"B2094654DB64A6F9459F","title":"星巴克(美臣店)","lon":"121.4594193","lat":"31.2168944","category":"65","category_name":"咖啡厅","address":"卢湾区淮海中路937号美臣大楼1楼(近陕西南路)"},{"poiid":"B2094753DB6DA2FF4792","title":"稻香(iapm店)","lon":"121.458999","lat":"31.215892","category":"247","category_name":"餐饮美食","address":"卢湾区淮海中路999号环贸IAPM商场三层301号铺"},{"poiid":"B2094655D26FA1FD489B","title":"巴黎春天(淮海店)","lon":"121.45944","lat":"31.21677","category":"119","category_name":"商场","address":"上海巿卢湾区淮海中路939-947号"},{"poiid":"B2094753D76FAAFA449C","title":"上海滩国泰旗舰店","lon":"121.466011","lat":"31.216125","category":"249","category_name":"购物服务","address":"淮海中路868号"},{"poiid":"B209475CD564A7F84292","title":"上海滩新天地店","lon":"121.47463","lat":"31.22164","category":"119","category_name":"商场","address":"\"太仓路181弄新天地北里15号\r\n\""},{"poiid":"B209475CD564A7F8439E","title":"上海滩中信泰富店","lon":"121.45602","lat":"31.22851","category":"119","category_name":"商场","address":"\"南京西路1168号中信泰富广场，店铺号221.\r\n\""},{"poiid":"B2094757D06FA3FF469F","title":"哈根达斯(花园店)","lon":"121.45976","lat":"31.21686","category":"113","category_name":"冷饮店","address":"卢湾区淮海中路900号1楼(近陕西南路)"},{"poiid":"B2094757D06EAAFB4093","title":"陕西南路地铁站","lon":"121.45824382","lat":"31.215062494","category":"36","category_name":"地铁站","address":"上海轨道交通 一号线 十号线 轨交陕西南路站 1 10"},{"poiid":"B2094757D06FA1FC419E","title":"小桥流水精菜坊(淮海路店)","lon":"121.45936","lat":"31.21639","category":"76","category_name":"上海菜","address":"卢湾区淮海中路923号2-3楼(百盛对面)"},{"poiid":"B2094753DB6CA2FE419F","title":"百丽宫影城（环贸iapm 店）","lon":"121.461425","lat":"31.214521","category":"178","category_name":"电影院","address":"淮海中路999号环贸广场"},{"poiid":"B2094757D06FA0FE489A","title":"陕西南路淮海中路","lon":"121.4590977","lat":"31.2167849","category":"260","category_name":"其他","address":"上海卢湾区陕西南路淮海中路口"},{"poiid":"B2094757D06EAAFD439E","title":"OPA百货(我丽王国)","lon":"121.45958523","lat":"31.217199722","category":"141","category_name":"服装鞋帽皮具店","address":"上海卢湾区淮海中路900号(陕西南路口)"},{"poiid":"B2094751DA6CA1FB4298","title":"Baker One","lon":"121.45824","lat":"31.21444","category":"67","category_name":"甜品店","address":"卢湾区南昌路559号1楼(近襄阳南路)"},{"poiid":"B2094757D06FA6FD4198","title":"山间堂民间瓦缸煨汤(淮海店)","lon":"121.45814","lat":"31.21621","category":"260","category_name":"其他","address":"徐汇区淮海中路1008号2楼(近襄阳北路)"},{"poiid":"B2094757D06FA7FC4299","title":"COSTA COFFEE (淮海巴黎春天店)","lon":"121.458969","lat":"31.216909","category":"65","category_name":"咖啡厅","address":"卢湾区淮海中路939号巴黎春天2楼3-4号商铺(近陕西南路)"},{"poiid":"B2094751D26AA3F5449D","title":"掌上韩品","lon":"121.459297","lat":"31.215394","category":"96","category_name":"韩国料理","address":"卢湾区陕西南路145号(近南昌路)"},{"poiid":"B2094654DA6EA1FE499F","title":"竹屋川菜","lon":"121.46006400887","lat":"31.214710755142","category":"71","category_name":"四川菜","address":"卢湾区陕西南路145-3号(南昌路口)"},{"poiid":"B2094753DA6FAAFF469B","title":"iapm","lon":"121.458961","lat":"31.216442","category":"500","category_name":"未知分类","address":"上海市 淮海路陕西路"},{"poiid":"B2094757D06EAAF94598","title":"麦当劳(淮海百盛店)","lon":"121.45949","lat":"31.21677","category":"68","category_name":"快餐厅","address":"卢湾区淮海中路918号百盛购物中心B1楼(近陕西南路)"},{"poiid":"B2094757D06FA2F44699","title":"康师傅私房牛肉面(淮海中路店)","lon":"121.45862","lat":"31.21636","category":"68","category_name":"快餐厅","address":"徐汇区淮海中路988号黄金商厦2楼(近陕西南路)"},{"poiid":"B209475CD76AAAF9409E","title":"甜兮兮","lon":"121.459022","lat":"31.216119","category":"500","category_name":"未知分类","address":"上海市 环茂广场LG2"},{"poiid":"B2094757D065A3F84698","title":"虹桥火车站A16检票口","lon":"121.45851925","lat":"31.214354796","category":"22","category_name":"火车站","address":"上海虹桥火车站"},{"poiid":"B2094655D36DA6FE439B","title":"陕西南路","lon":"121.45822","lat":"31.2151","category":"38","category_name":"公交车站","address":""},{"poiid":"B2094750D76CAAFE4298","title":"拿渡麻辣香锅(淮海路巴黎春天店)","lon":"121.459","lat":"31.2167","category":"71","category_name":"四川菜","address":"卢湾区淮海中路939号巴黎春天内(近陕西南路)"},{"poiid":"B2094757D068A2FA4099","title":"巨鹿路","lon":"121.46028137","lat":"31.215452194","category":"260","category_name":"其他","address":"上海卢湾区巨鹿路"},{"poiid":"B2094654DB6BA6FC419B","title":"萨莉亚(淮海中路)","lon":"121.4584","lat":"31.21671","category":"94","category_name":"西餐厅","address":"徐汇区淮海中路988号黄金世界商厦3楼(近陕西南路)"},{"poiid":"B2094757D065A7FA479B","title":"徐汇牙防所","lon":"121.459458938","lat":"31.2167361126","category":"500","category_name":"未知分类","address":"上海肇嘉浜路"},{"poiid":"B209475CDB6BA0FA479D","title":"甜兮兮 | Sweet CC","lon":"121.457908","lat":"31.215703","category":"500","category_name":"未知分类","address":"上海市 iapm环贸商城LG2层236商铺"},{"poiid":"B2094750D76FA1FE429B","title":"咔喱咖喱(淮海店)","lon":"121.459","lat":"31.2167","category":"95","category_name":"日本料理","address":"卢湾区淮海中路939号巴黎春天内(近陕西南路)"},{"poiid":"B2094750DA6EA4FB4398","title":"徐汇中心医院","lon":"121.458412","lat":"31.216621","category":"162","category_name":"医院","address":"淮海中路966号"},{"poiid":"B2094750D76EA5FC4693","title":"小杨生煎(淮海中路店)","lon":"121.459","lat":"31.2167","category":"68","category_name":"快餐厅","address":"卢湾区淮海中路939号巴黎春天内(近陕西南路)"},{"poiid":"B2094757D068ABF84499","title":"Sony Gallery","lon":"121.45975","lat":"31.21686","category":"138","category_name":"家电电子卖场","address":"上海卢湾区淮海中路901-909号1-3楼(近陕西南路)"},{"poiid":"B2094655D265ABFC479A","title":"沧浪亭酒楼","lon":"121.458455","lat":"31.21669","category":"76","category_name":"上海菜","address":"徐汇区淮海中路988号黄金世界商厦4楼(近陕西南路)"},{"poiid":"B2094654DA6EA1FF4099","title":"美臣大酒店","lon":"121.45985","lat":"31.21694","category":"215","category_name":"三星级宾馆","address":"卢湾区淮海中路935号(近陕西南路)"},{"poiid":"B2094753D768A3FE4199","title":"上海市徐汇区中心医院","lon":"121.461021","lat":"31.213911","category":"162","category_name":"医院","address":"上海市 淮海路陕西南路"},{"poiid":"B209475CD469A5F8459D","title":"一风堂","lon":"121.461448","lat":"31.214548","category":"500","category_name":"未知分类","address":"上海市 iapm"},{"poiid":"B2094753DA65ABF44892","title":"无印良品环贸iapm旗舰店","lon":"121.458007","lat":"31.21507","category":"500","category_name":"未知分类","address":"上海市 上海市徐汇区淮海中路999号上海环贸广场 3F"},{"poiid":"B2094757D16DA2FA419A","title":"淮海坊","lon":"121.46008","lat":"31.216351","category":"47","category_name":"住宅区","address":"淮海中路925弄11-15号,927弄1-146号"},{"poiid":"B2094757D06FA5FA479A","title":"吉野家(陕西南路店)","lon":"121.46013","lat":"31.2152","category":"95","category_name":"日本料理","address":"卢湾区陕西南路141号(近南昌路)"},{"poiid":"B209475CD76FA1FD489B","title":"STAGE 上海iapm","lon":"121.457992","lat":"31.214294","category":"500","category_name":"未知分类","address":"上海市 上海市淮海中路環貿廣場IAPM LG2-273~275"},{"poiid":"B209475DD46BA3FB4998","title":"查厘士港式茶餐厅","lon":"121.45861","lat":"31.216394","category":"247","category_name":"餐饮美食","address":"上海市 iapm对面"},{"poiid":"B2094757D06FA7F5419D","title":"85度C(陕西南路店)","lon":"121.459662648","lat":"31.2157876213","category":"112","category_name":"糕饼店","address":"卢湾区陕西南路141号(近巴黎春天淮海店)"},{"poiid":"B2094757D468ABFC419C","title":"吴越人家面馆 陕西南路店","lon":"121.459669","lat":"31.215655","category":"68","category_name":"快餐厅","address":"卢湾区陕西南路141号2楼(近南昌路)"},{"poiid":"B2094751DA6DA0FF4293","title":"Quinn\\'s cafe 晴咖啡","lon":"121.460342","lat":"31.213989","category":"247","category_name":"餐饮美食","address":"上海市陕西南路165号"},{"poiid":"B2094750D66EA5FE4893","title":"OPA","lon":"121.459159","lat":"31.216171","category":"627","category_name":"一般地点标志","address":"卢湾区淮海中路900号"},{"poiid":"B2094757D06AA0F94492","title":"新吉柯德土菜馆","lon":"121.460006","lat":"31.214986","category":"247","category_name":"餐饮美食","address":"上海陕西南路145号"},{"poiid":"B2094753DA64A6F84398","title":"大咀港式茶餐厅","lon":"121.460014","lat":"31.215612","category":"500","category_name":"未知分类","address":"上海市 陕西南路117号5楼"},{"poiid":"B2094753DB68A2F9499C","title":"老吉士","lon":"121.461433","lat":"31.214521","category":"247","category_name":"餐饮美食","address":"上海市 淮海中路999号环贸iapm商场3楼"},{"poiid":"B2094655D36CA0F54192","title":"淮海中路陕西南路","lon":"121.45852","lat":"31.21658","category":"38","category_name":"公交车站","address":""},{"poiid":"B209475DD76FA7FB4492","title":"恋暖の初茶","lon":"121.461441","lat":"31.214523","category":"247","category_name":"餐饮美食","address":"上海市 淮海中路999号环贸iapm广场LG2-227号铺"},{"poiid":"B2094750D464A6F84193","title":"Grace Studio","lon":"121.460456","lat":"31.215869","category":"248","category_name":"生活娱乐","address":"淮海中路927弄淮海坊93号"},{"poiid":"B209475CD664A1FF4198","title":"STAYREAL CAFÉ","lon":"121.45903","lat":"31.216117","category":"500","category_name":"未知分类","address":"上海市 淮海中路999号环贸广场"},{"poiid":"B2094757D06FA2FD409B","title":"香港糖朝","lon":"121.459704","lat":"31.215751","category":"67","category_name":"甜品店","address":"黄浦区陕西南路141号1楼(近淮海中路)"},{"poiid":"B209475CD664A2FB4598","title":"Stayreal Cafe","lon":"121.457832","lat":"31.21512","category":"500","category_name":"未知分类","address":"上海市 淮海中路1000号环贸广场"},{"poiid":"B2094757D465A3F9499B","title":"新吉诃德土菜馆","lon":"121.46006400887","lat":"31.214710755142","category":"76","category_name":"上海菜","address":"卢湾区陕西南路145号(近南昌路)"},{"poiid":"B2094750D76FABF84493","title":"饥饿吐司(巴黎春天店)","lon":"121.459","lat":"31.2167","category":"112","category_name":"糕饼店","address":"卢湾区淮海中路939号巴黎春天B1楼(近陕西南路)"},{"poiid":"B209475CD465A0FB439D","title":"麵屋武藏","lon":"121.457855","lat":"31.215824","category":"500","category_name":"未知分类","address":"上海市 淮海中路999号iapm"},{"poiid":"B2094753DB69A7FC4993","title":"环贸iapm","lon":"121.458526","lat":"31.216222","category":"500","category_name":"未知分类","address":"上海市 淮海中路999号"},{"poiid":"B2094757D468AAF84598","title":"PONY 淮海百盛店","lon":"121.459135054","lat":"31.216857793","category":"67","category_name":"甜品店","address":"卢湾区淮海中路918号百盛购物中心内(近陕西南路)"},{"poiid":"B209475CDA65ABFE4392","title":"新加坡•珍宝海鲜","lon":"121.458615","lat":"31.216546","category":"247","category_name":"餐饮美食","address":"上海市徐汇区淮海中路999号5F502单元"},{"poiid":"B2094753D66EA7FD429D","title":"西久巷咖啡（淮海路店）","lon":"121.458537","lat":"31.21633","category":"247","category_name":"餐饮美食","address":"淮海中路988号黄金世界商厦2楼(近陕西南路)"},{"poiid":"B2094757D468ABF44998","title":"快乐柠檬 淮海百盛店 Happy Lemon","lon":"121.459135054","lat":"31.216857793","category":"113","category_name":"冷饮店","address":"卢湾区淮海中路939号巴黎春天B2楼(近陕西南路)"},{"poiid":"B2094757D16EABF94692","title":"中国工商银行(陕西南路支行)","lon":"121.45924","lat":"31.21667","category":"46","category_name":"楼宇","address":"徐汇区淮海中路960号近陕西南路(淮海中路陕西南路)"},{"poiid":"B209475CD26FABF8419A","title":"环贸IAPM","lon":"121.458992","lat":"31.214897","category":"500","category_name":"未知分类","address":"上海市 上海市徐汇区淮海中路999号"},{"poiid":"B2094757D064A7F8409E","title":"上海电影院","lon":"121.460184","lat":"31.213463","category":"178","category_name":"电影院","address":"徐汇区复兴中路1186号(近陕西南路)"},{"poiid":"B209475CD46CA2F94693","title":"莫尔顿海鲜牛排坊","lon":"121.458816","lat":"31.216312","category":"500","category_name":"未知分类","address":"上海市 淮海中路999号，环贸广场4楼403商铺"},{"poiid":"B209475CD76FAAF8499B","title":"STAGE上海iapm","lon":"121.45803","lat":"31.215185","category":"500","category_name":"未知分类","address":"上海市 STAGE上海iapm"},{"poiid":"B209475CD46CA5F9429F","title":"STAYREAL CAFE","lon":"121.459999","lat":"31.214502","category":"500","category_name":"未知分类","address":"上海市 徐汇区淮海中路999号环贸广场"},{"poiid":"B209475DDA69A5F4419F","title":"AIME PATISSERIE","lon":"121.460853","lat":"31.214288","category":"247","category_name":"餐饮美食","address":"上海市 上海淮海中路1008号"},{"poiid":"B2094757D66EA7FC469C","title":"淮海中路","lon":"121.45901673","lat":"31.217017018","category":"500","category_name":"未知分类","address":"上海市静安区长乐路"},{"poiid":"B209475CD66FA3F54992","title":"稻香（iapm店）","lon":"121.459548","lat":"31.216974","category":"247","category_name":"餐饮美食","address":"上海市 淮海中路999号环贸iapm商场3楼301号铺(近陕西南路)"},{"poiid":"B2094654DA6EA1FE459C","title":"伊加伊 淮海店","lon":"121.46006400887","lat":"31.214710755142","category":"68","category_name":"快餐厅","address":"卢湾区陕西南路145号(近南昌路)"},{"poiid":"B209475CD66AA0F9419D","title":"百丽宫影城（环贸iapm店）","lon":"121.461448","lat":"31.214538","category":"178","category_name":"电影院","address":"上海市 淮海中路999号"},{"poiid":"B209475CD76FAAFF4792","title":"StayReal Cafe (上海环贸iapm）","lon":"121.457901","lat":"31.21516","category":"500","category_name":"未知分类","address":"上海市 上海市淮海中路999号上海环贸iapm商场"},{"poiid":"B2094757D068A7FD4499","title":"Fresh Mix(淮海店)","lon":"121.459170518","lat":"31.2169752077","category":"113","category_name":"冷饮店","address":"长宁区长宁路1018号龙之梦购物中心B2楼食品区内(近凯旋路)"},{"poiid":"B2094753DB69A1FB4699","title":"Mizzi Cafe","lon":"121.458992","lat":"31.214891","category":"500","category_name":"未知分类","address":"上海市 淮海中路iapm"},{"poiid":"B2094753D66FA7FE4093","title":"吴记老锅底麻辣火锅(陕西南路店)","lon":"121.459617","lat":"31.215882","category":"86","category_name":"火锅店","address":"陕西南路141-1号2楼"},{"poiid":"B209475DD76AABF4439D","title":"Godiva","lon":"121.457824","lat":"31.215198","category":"247","category_name":"餐饮美食","address":"上海市 淮海中路ipam廣場"},{"poiid":"B209475CD76CA5F9449B","title":"stay real cafe 淮海店","lon":"121.458473","lat":"31.215404","category":"500","category_name":"未知分类","address":"上海市 淮海中路999号"},{"poiid":"B2094753D264A7F8489D","title":"阪川 Hair Salon","lon":"121.458823","lat":"31.216035","category":"148","category_name":"美容美发店","address":"上海市卢湾区陕西南路187弄181号5A"},{"poiid":"B2094655D268A0FC429F","title":"霞飞阁餐厅","lon":"121.45985","lat":"31.21695","category":"257","category_name":"中餐厅","address":"美臣大酒店8层"},{"poiid":"B2094750D564AAF84498","title":"环贸广场adidas总部","lon":"121.458427","lat":"31.215453","category":"500","category_name":"未知分类","address":"淮海中路999路"},{"poiid":"B2094757D16CA6F94693","title":"丝廷水疗zeta spa","lon":"121.459088788","lat":"31.2142862137","category":"148","category_name":"美容美发店","address":"上海卢湾区太仓路181弄9号1座"},{"poiid":"B2094655D26AA0F44992","title":"三樱桌球房陕西南路店","lon":"121.45988","lat":"31.21549","category":"247","category_name":"餐饮美食","address":"卢湾区陕西南路141号3楼(近淮海中路)"},{"poiid":"B2094654DB64A7F4419D","title":"上海市卢湾区瑞金二路地段医院","lon":"121.46035","lat":"31.21453","category":"162","category_name":"医院","address":"陕西南路147号"},{"poiid":"B2094654DA6EA1FE4593","title":"上海市卢湾区巨鹿路第一小学","lon":"121.46041","lat":"31.21548","category":"56","category_name":"小学","address":"卢湾区南昌路366号(近陕西南路)"},{"poiid":"B2094757D16CABFF4693","title":"精菜坊","lon":"121.459666738","lat":"31.2171220208","category":"500","category_name":"未知分类","address":"宛平南路968弄32号"},{"poiid":"B209475DD46EAAF8419D","title":"凯博音乐酒吧","lon":"121.457962","lat":"31.215164","category":"247","category_name":"餐饮美食","address":"上海市 上海市淮海路999号LG1-142"},{"poiid":"B2094654DA6EA1FE499D","title":"上海三樱桌球俱乐部","lon":"121.45983","lat":"31.21552","category":"171","category_name":"台球厅","address":"陕西南路141乙星泰3层"},{"poiid":"B2094752D268A0F5489E","title":"上海环茂广场一期","lon":"121.458441","lat":"31.216118","category":"47","category_name":"住宅区","address":"淮海中路999号"},{"poiid":"B2094757D56CA4FD489B","title":"巴黎贝甜 淮海中路店 Paris Baguette","lon":"121.45942","lat":"31.21718","category":"67","category_name":"甜品店","address":"卢湾区淮海中路918号百盛购物中心B1楼(近陕西南路)"},{"poiid":"B2094654DB65A7F9449D","title":"城市超市(巴黎春天店)","lon":"121.45934","lat":"31.21661","category":"118","category_name":"超级市场","address":"徐汇区淮海中路939号巴黎春天百货B1层"},{"poiid":"B209475CD665A1FB499B","title":"StayrealCafe","lon":"121.458457","lat":"31.214866","category":"500","category_name":"未知分类","address":"上海市 上海环贸广场"},{"poiid":"B2094654D564ABFC499A","title":"黄金世界","lon":"121.4584","lat":"31.21671","category":"46","category_name":"楼宇","address":"淮海中路988号"},{"poiid":"B2094655D26AABFF4198","title":"新吉柯德","lon":"121.46002","lat":"31.21507","category":"247","category_name":"餐饮美食","address":"卢湾区陕西南路145号近南昌路;;"},{"poiid":"B209475CDA6EA7F5429A","title":"珍寶海鮮","lon":"121.461479","lat":"31.214473","category":"247","category_name":"餐饮美食","address":"上海市 上海市徐匯區淮海中路999號環貿廣場L5-502"},{"poiid":"B209475CDA69A2FB4293","title":"Jumbo Sea Food","lon":"121.457855","lat":"31.215377","category":"500","category_name":"未知分类","address":"上海市 上海徐汇区环贸广场L5-502"},{"poiid":"B2094654D564ABFC499B","title":"陆羽茶艺中心","lon":"121.4584","lat":"31.21672","category":"66","category_name":"茶艺馆","address":"淮海中路988号黄金世界6层"},{"poiid":"B2094757DB6FA1FD499E","title":"组合发型顾问","lon":"121.460451","lat":"31.216023","category":"148","category_name":"美容美发店","address":"卢湾区瑞金二路116号(近复兴中路)"},{"poiid":"B2094757D16DA0FC4699","title":"中国工商银行上海分行久事复兴大厦支行","lon":"121.45883129","lat":"31.216876101","category":"46","category_name":"楼宇","address":"上海淮海中路918号 淮海百盛"},{"poiid":"B209475CD26DA1F5429F","title":"千两","lon":"121.457901","lat":"31.215806","category":"247","category_name":"餐饮美食","address":"上海市 淮海中路999号4F"},{"poiid":"B2094654DB6BA6FC4692","title":"士多啤梨(淮海中路店)","lon":"121.45929","lat":"31.21714","category":"111","category_name":"休闲餐饮场所","address":"徐汇区淮海中路918號百盛百貨公司6樓"},{"poiid":"B2094752D069A1F9439E","title":"国泰电影院","lon":"121.4594193","lat":"31.2168944","category":"178","category_name":"电影院","address":null},{"poiid":"B209475CD768A2F54198","title":"stayreal cafe","lon":"121.459022","lat":"31.216115","category":"500","category_name":"未知分类","address":"上海市 iapm"},{"poiid":"B2094757D16FA6F44999","title":"id hair 二店","lon":"121.46087321","lat":"31.215547275","category":"500","category_name":"未知分类","address":"上海南昌路350号"},{"poiid":"B2094757D06AA1FD419A","title":"CY塔罗占卜馆","lon":"121.46117","lat":"31.21509","category":"260","category_name":"其他","address":"卢湾区南昌路205弄1号(近陕西南路)"},{"poiid":"B2094757D468ABFE469D","title":"赛百味 淮海百盛店 Subway","lon":"121.459135054","lat":"31.216857793","category":"94","category_name":"西餐厅","address":"淮海中路918号百盛购物中心淮海店（九海百盛）B1楼陕西南路口"},{"poiid":"B2094757D069A6F8449D","title":"7-ELEVEN(襄阳店)","lon":"121.4578923","lat":"31.2160163778","category":"117","category_name":"便民商店/便利店","address":"上海卢湾区淮海中路1008号"},{"poiid":"B209475DD36DA4FD4493","title":"烧肉孙三郎","lon":"121.458122","lat":"31.215463","category":"247","category_name":"餐饮美食","address":"上海市 淮海中路999号6楼"},{"poiid":"B209475CDB6CA1F84698","title":"徐汇区中心医院","lon":"121.458885","lat":"31.216657","category":"162","category_name":"医院","address":"徐汇区淮海中路陕西南路"},{"poiid":"B2094654DA6EA1FE4599","title":"瑞金二路街道社区卫生服务中心(陕西南路)","lon":"121.46035","lat":"31.21453","category":"162","category_name":"医院","address":"卢湾区陕西南路147号(近南昌路)"},{"poiid":"B209475CD665A7FB409F","title":"Stayreal Cafe 环贸广场LG2","lon":"121.458038","lat":"31.215192","category":"500","category_name":"未知分类","address":"上海市 上海市淮海路"},{"poiid":"B2094654DB65A3F4499E","title":"咖喱美食坊","lon":"121.460683054","lat":"31.213479793","category":"257","category_name":"中餐厅","address":"复兴中路1186号近陕西南路"},{"poiid":"B209475DDA69ABF9439B","title":"stayreal cafe","lon":"121.459442","lat":"31.215152","category":"247","category_name":"餐饮美食","address":"上海市 徐汇区环贸广场"},{"poiid":"B2094757D569A1FE489A","title":"玫瑰人生咖啡吧陕西南路店","lon":"121.4593644","lat":"31.21621139","category":"65","category_name":"咖啡厅","address":"陕西南路30号马勒别墅花园内(近延安中路)"},{"poiid":"B2094655D26AA3FA499E","title":"徐汇区中心医院儿科","lon":"121.45864","lat":"31.21681","category":"247","category_name":"餐饮美食","address":"徐汇区淮海中路966号(近陕西南路)"},{"poiid":"B2094750DA6EAAFE4299","title":"竹屋川菜馆","lon":"121.458137","lat":"31.216165","category":"247","category_name":"餐饮美食","address":"瑞金路"},{"poiid":"B2094753D464A7FE479E","title":"糖朝","lon":"121.458976","lat":"31.215579","category":"247","category_name":"餐饮美食","address":"上海市 上海市黄浦区陕西南路141-1号"},{"poiid":"B2094753D76AA3F5409B","title":"爱茜茜里意大利手工冰淇淋(巴黎春天淮海路店)","lon":"121.4595","lat":"31.21668","category":"67","category_name":"甜品店","address":"上海市卢湾区淮海中路939号巴黎春天内(近陕西南路)"},{"poiid":"B2094757D66BA6F44099","title":"爱丽舍面包房 陕西南路店","lon":"121.45997","lat":"31.21505","category":"67","category_name":"甜品店","address":"卢湾区陕西南路145号-2(近南昌路)"},{"poiid":"B2094654DA6EA2FA4398","title":"好德便利No.003","lon":"121.45997","lat":"31.21342","category":"117","category_name":"便民商店/便利店","address":"复兴中路1194"},{"poiid":"B2094655D26AA1FE499A","title":"VOGUEJSNAILSALON淮海中路陕西南路京世新娘美甲","lon":"121.45864","lat":"31.21681","category":"247","category_name":"餐饮美食","address":"卢湾区淮海中路966号二四楼(陕西南路口淮海路百盛巴黎春天)"},{"poiid":"B2094757D06FA0F8439F","title":"屈臣氏(巴黎春天店)","lon":"121.459526384","lat":"31.2168295658","category":"122","category_name":"个人用品/化妆品店","address":"卢湾区淮海中路939号巴黎春天B1楼(近陕西南路)"},{"poiid":"B2094753DA69ABFA4693","title":"赵小姐不等位","lon":"121.459152","lat":"31.216993","category":"500","category_name":"未知分类","address":"上海市 徐汇区长乐路628号"},{"poiid":"B209475CD568A1F94292","title":"鹿港小镇","lon":"121.458045","lat":"31.215089","category":"500","category_name":"未知分类","address":"上海市 上海市徐汇区环贸广场"},{"poiid":"B2094752DA68A5F5469E","title":"苏浙汇","lon":"121.45998","lat":"31.216636","category":"500","category_name":"未知分类","address":"上海市 茂名南路127号"},{"poiid":"B2094750D26AA7F94098","title":"Phmeni Donas 女神的占卜師們","lon":"121.460334","lat":"31.214143","category":"248","category_name":"生活娱乐","address":"陝西南路165號5室"},{"poiid":"B2094757D16EA2FB489B","title":"徐汇区中心医院1号楼21楼","lon":"121.45915913","lat":"31.215045576","category":"500","category_name":"未知分类","address":"上海市徐汇区淮海中路966号"},{"poiid":"B2094753DB68A4FE459E","title":"IAPM","lon":"121.459526","lat":"31.217134","category":"500","category_name":"未知分类","address":"上海市 淮海路陕西路口"},{"poiid":"B2094750D76DA0FB499C","title":"丸来玩趣(淮海中路店)","lon":"121.459","lat":"31.2167","category":"68","category_name":"快餐厅","address":"卢湾区淮海中路939号巴黎春天内(近陕西南路)"},{"poiid":"B209475CD769A4FF439D","title":"STAGE 上海iapm","lon":"121.458999","lat":"31.214799","category":"500","category_name":"未知分类","address":"上海市 上海市环茂广场"},{"poiid":"B2094753D66FA0FF459A","title":"曼都发型(淮海店)","lon":"121.458421","lat":"31.214526","category":"148","category_name":"美容美发店","address":"南昌路559号二楼"},{"poiid":"B2094654DA6EA2FA429B","title":"汇丰大药房复兴店","lon":"121.46047","lat":"31.21357","category":"162","category_name":"医院","address":"徐汇区复兴中路1180号(近陕西南路)"},{"poiid":"B2094655D264A5FE409D","title":"淮海坊(北门)","lon":"121.45991","lat":"31.21697","category":"47","category_name":"住宅区","address":"淮海中路927弄1-146号"},{"poiid":"B209475CD46DA5FB4299","title":"stayreal cafe","lon":"121.461456","lat":"31.214536","category":"500","category_name":"未知分类","address":"上海市 环贸iapm"},{"poiid":"B2094757D06BA1F54092","title":"热风(陕西南路店)","lon":"121.45943","lat":"31.21692","category":"141","category_name":"服装鞋帽皮具店","address":"卢湾区轨交一号线陕西南路站2号出口百盛地下1楼(淮海中路陕西南路)"},{"poiid":"B209475CD76AA3F4469A","title":"iapm","lon":"121.458923","lat":"31.215679","category":"500","category_name":"未知分类","address":"上海市 淮海中路"},{"poiid":"B209475CD46CA6FE489C","title":"StayReal","lon":"121.457862","lat":"31.215251","category":"500","category_name":"未知分类","address":"上海市 徐汇区淮海中路999号"},{"poiid":"B2094757D064AAFF469F","title":"ID","lon":"121.46088293","lat":"31.215554987","category":"500","category_name":"未知分类","address":"上海南昌路(靠陕西路)"},{"poiid":"B2094654DA6EA2FA409D","title":"大众书店","lon":"121.46012","lat":"31.21431","category":"125","category_name":"书店","address":""},{"poiid":"B209475CD16BAAF84693","title":"上海文化广场","lon":"121.4589","lat":"31.21474","category":"500","category_name":"未知分类","address":"上海市 复兴中路597号"},{"poiid":"B209475CD765A6F5469A","title":"stayreal cafe","lon":"121.457824","lat":"31.215206","category":"500","category_name":"未知分类","address":"上海市 上海市卢湾区淮海中路ip a m"},{"poiid":"B209475CD664A0FA499C","title":"stayreal cafe","lon":"121.45906","lat":"31.21668","category":"500","category_name":"未知分类","address":"上海市 iamp環貿"},{"poiid":"B2094757D66FA0F84098","title":"弥敦道","lon":"121.46076933","lat":"31.215612207","category":"500","category_name":"未知分类","address":"卢湾区南昌路360号(近陕西南路)"},{"poiid":"B2094753D465A7FA4999","title":"上海环贸中心","lon":"121.458122","lat":"31.215417","category":"500","category_name":"未知分类","address":"上海市 淮海中路999号"},{"poiid":"B2094753D664AAFE4092","title":"南昌路","lon":"121.458007","lat":"31.216207","category":"500","category_name":"未知分类","address":"上海市 南昌路襄阳南路"},{"poiid":"B2094757D064A7FD4298","title":"京世造型","lon":"121.4583904","lat":"31.215728901","category":"148","category_name":"美容美发店","address":"上海淮海路"},{"poiid":"B209475CD26FABFD449D","title":"兰心大剧院","lon":"121.46125","lat":"31.214418","category":"500","category_name":"未知分类","address":"上海市 茂名南路57号"},{"poiid":"B209475CD769A3F8499B","title":"stay real cafe","lon":"121.460006","lat":"31.214506","category":"500","category_name":"未知分类","address":"上海市 陕西南路apm地下二层"},{"poiid":"B2094750D06CA2F94899","title":"ONE BY OLIVE des OLIVEl(OPA淮海店)","lon":"121.459899","lat":"31.216476","category":"255","category_name":"专卖店","address":"卢湾区淮海中路900号OPA3F"},{"poiid":"B2094757D568ABFF499E","title":"EXR(淮海巴黎春天店)","lon":"121.459452","lat":"31.21677","category":"141","category_name":"服装鞋帽皮具店","address":"卢湾区淮海中路939号巴黎春天内(近陕西南路)"},{"poiid":"B209475DD46DA4FB419F","title":"上海理工大学中英国际学院","lon":"121.459892","lat":"31.214179","category":"253","category_name":"校园生活","address":"上海市 徐汇区复兴中路1195号"},{"poiid":"B209475CD768ABFB489D","title":"STAGE上海环贸iapm","lon":"121.459007","lat":"31.214797","category":"500","category_name":"未知分类","address":"上海市 上海市徐汇区淮海中路999号"},{"poiid":"B209475CD46EA2FB439F","title":"StayReal Cafe","lon":"121.46035","lat":"31.214534","category":"500","category_name":"未知分类","address":"上海市 淮海路iapm环贸广场"},{"poiid":"B2094654DA6EA1FE469C","title":"服装店(卢湾区围棋协会东南)","lon":"121.46109","lat":"31.21577","category":"141","category_name":"服装鞋帽皮具店","address":"南昌路334"},{"poiid":"B2094654DA6EA1FF4092","title":"鳄鱼(淮海中路)","lon":"121.46025","lat":"31.21705","category":"141","category_name":"服装鞋帽皮具店","address":"淮海中路911"},{"poiid":"B2094654DA6EA1FE489F","title":"Kyo","lon":"121.46088","lat":"31.21546","category":"141","category_name":"服装鞋帽皮具店","address":"南昌路203-3"},{"poiid":"B2094654DA6EA2FA409E","title":"热浪(陕西南路)","lon":"121.46002","lat":"31.21448","category":"141","category_name":"服装鞋帽皮具店","address":"陕西南路360"},{"poiid":"B2094654DA6EA1FE4692","title":"MOON LIGHT","lon":"121.46134","lat":"31.21592","category":"141","category_name":"服装鞋帽皮具店","address":"南昌路328"},{"poiid":"B209475CDA68A6F54992","title":"Pure Yoga","lon":"121.458326","lat":"31.215339","category":"248","category_name":"生活娱乐","address":"上海市淮海中路999号上海环贸商场L6-615"},{"poiid":"B2094753D76DA7F84892","title":"恒隆广场","lon":"121.458816","lat":"31.214164","category":"500","category_name":"未知分类","address":"上海市 南京西路1266号"},{"poiid":"B2094752D364A1F9429C","title":"酷圣石(淮海百盛店)","lon":"121.45942","lat":"31.21718","category":"113","category_name":"冷饮店","address":"卢湾区淮海中路918号百盛购物中心B1楼(近陕西南路)"},{"poiid":"B2094757D16DABF94292","title":"ROXY(淮海店)","lon":"121.45948","lat":"31.21674","category":"141","category_name":"服装鞋帽皮具店","address":"上海卢湾区淮海中路921号(近陕西南路)  "},{"poiid":"B2094757D169A1F54993","title":"vip room","lon":"121.45868173","lat":"31.2161891","category":"141","category_name":"服装鞋帽皮具店","address":"茂名南路108号"},{"poiid":"B209475CD168AAFB4198","title":"Charisma 臺媚軒","lon":"121.460632","lat":"31.216802","category":"500","category_name":"未知分类","address":"上海市 上海 淮海中路899弄7号"},{"poiid":"B2094751D46AA5F5429B","title":"Grace studio","lon":"121.460434","lat":"31.215851","category":"500","category_name":"未知分类","address":null},{"poiid":"B209475CD76EAAF8479F","title":"stayreal iapm店","lon":"121.457931","lat":"31.215213","category":"500","category_name":"未知分类","address":"上海市 上海环贸广场"},{"poiid":"B2094753D56FABFB479D","title":"千代保","lon":"121.459426","lat":"31.214483","category":"500","category_name":"未知分类","address":"上海市 东湖路20号2楼"},{"poiid":"B209475CD768A3F5449F","title":"Stay Real Cofe","lon":"121.459014","lat":"31.214807","category":"500","category_name":"未知分类","address":"上海市 徐汇区淮海中路999号iamp广场LG2"},{"poiid":"B209475CD76AA3F4479E","title":"iapm","lon":"121.458885","lat":"31.21569","category":"500","category_name":"未知分类","address":"上海市 淮海中路"},{"poiid":"B209475CDB6CA4FF419C","title":"小金牛","lon":"121.45787","lat":"31.215364","category":"500","category_name":"未知分类","address":"上海市 环茂广场"},{"poiid":"B209475CD664A1FA499D","title":"Stayreal Cafe","lon":"121.460014","lat":"31.214708","category":"500","category_name":"未知分类","address":"上海市 环贸iapm商场LG-2"},{"poiid":"B2094654DA6EA2FA4192","title":"Nini Collection","lon":"121.46041","lat":"31.21372","category":"140","category_name":"体育用品店","address":"陕西南路380号2层"},{"poiid":"B2094757DA6EA7FB489A","title":"彌敦道","lon":"121.460707999999","lat":"31.2156169999997","category":"249","category_name":"购物服务","address":"卢湾区南昌路360号"},{"poiid":"B2094750DA69AAFE4199","title":"SBC","lon":"121.459335","lat":"31.213745","category":"249","category_name":"购物服务","address":"宛平南路336"},{"poiid":"B2094655D26EAAF54699","title":"名洲健身俱乐部","lon":"121.45822","lat":"31.21444","category":"221","category_name":"健身中心","address":"卢湾区南昌路559号"},{"poiid":"B2094757D068A0FF479F","title":"麦肯光明","lon":"121.45899963","lat":"31.214208602","category":"500","category_name":"未知分类","address":"上海淮海国际广场25楼"},{"poiid":"B2094757D164A6F9419A","title":"巴黎春天i.t","lon":"121.459321738","lat":"31.2162800029","category":"500","category_name":"未知分类","address":"上海淮海中路939号近陕西路"},{"poiid":"B2094757D068A0F8479C","title":"卡地亚(淮海店)","lon":"121.4607791","lat":"31.214829485","category":"131","category_name":"珠宝首饰工艺品","address":"卢湾区淮海中路806号(近陕西南路)"},{"poiid":"B2094757D069A7F84193","title":"狗窩","lon":"121.459791","lat":"31.213586","category":"500","category_name":"未知分类","address":null},{"poiid":"B2094757D66DA5FC489A","title":"淮海中路3号工地","lon":"121.45868423","lat":"31.2161877","category":"500","category_name":"未知分类","address":"上海淮海中路陕西南路口"},{"poiid":"B2094757D569A3FA4892","title":"天申茗茶(淮海中路)","lon":"121.4585259","lat":"31.21673476","category":"255","category_name":"专卖店","address":"淮海中路988-2"},{"poiid":"B2094654DB65A7FE4299","title":"osim nutrition(香港新世界上海巴黎春天淮海店)","lon":"121.45934","lat":"31.21661","category":"255","category_name":"专卖店","address":"徐汇区淮海中路939号"},{"poiid":"B2094757D165A2FB409A","title":"越商足浴会所","lon":"121.459786738","lat":"31.2162670026","category":"148","category_name":"美容美发店","address":"上海新闸路1888号(近延平路)"},{"poiid":"B2094757D16DABFD4092","title":"Des Lys","lon":"121.459823608","lat":"31.2154083252","category":"500","category_name":"未知分类","address":"上海新乐路178号"},{"poiid":"B2094654DA6EA1FF409B","title":"周大福(陕西南路)","lon":"121.45948","lat":"31.21639","category":"131","category_name":"珠宝首饰工艺品","address":"瑞金二路"},{"poiid":"B2094757D164A7FD449F","title":"葛澜婚纱","lon":"121.459021738","lat":"31.2167420127","category":"249","category_name":"购物服务","address":"静安区陕西南路162-3号(近长乐路)查看地图"},{"poiid":"B2094757D66DA5FC489B","title":"加油站","lon":"121.46018473","lat":"31.21383995","category":"500","category_name":"未知分类","address":"徐汇区宛平路(近肇嘉浜路)"},{"poiid":"B2094757D16AA6FD459E","title":"马威斯","lon":"121.45873843","lat":"31.216290993","category":"249","category_name":"购物服务","address":"上海淮海路"},{"poiid":"B2094757D16DA5F8479E","title":"小桃园自定义别墅","lon":"121.458847738","lat":"31.2137139482","category":"500","category_name":"未知分类","address":null},{"poiid":"B2094757D66EA4F44993","title":"靠边Sideways(新乐路店)","lon":"121.45924377","lat":"31.216627121","category":"132","category_name":"眼镜店","address":"上海徐汇区新乐路144号(近东湖路)"},{"poiid":"B2094757D064ABF9429E","title":"J.Lee Collection","lon":"121.45930768","lat":"31.214960112","category":"500","category_name":"未知分类","address":"上海南昌路503号"},{"poiid":"B2094757D16BA0F4489C","title":"Meldor I.T.S高级男装定制(南昌路店)","lon":"121.45874","lat":"31.21425","category":"500","category_name":"未知分类","address":"上海卢湾区南昌路555号东方巴黎B座1701室(近陕西南路)  "},{"poiid":"B2094757D66EA4F8479F","title":"百盛雅漾专柜","lon":"121.459207798","lat":"31.2170309989","category":"500","category_name":"未知分类","address":"卢湾区淮海中路918号百盛购物中心B1楼(近陕西南路)"},{"poiid":"B2094654DA6EA1FE459B","title":"海鲸画廊","lon":"121.46063","lat":"31.21392","category":"252","category_name":"楼宇机构","address":"卢湾区陕西南路165号(近长乐路)"},{"poiid":"B2094757D16FA1F8429D","title":"新光数码","lon":"121.458867205","lat":"31.2164963408","category":"249","category_name":"购物服务","address":"上海市陕西南路141号3楼至5楼"},{"poiid":"B2094751D268A5FF4392","title":"南昌路新生活（春天画廊）","lon":"121.460166","lat":"31.215017","category":"248","category_name":"生活娱乐","address":"卢湾区南昌路209号5弄"},{"poiid":"B2094654DB6AA1FD479F","title":"上海天鹅阁美乃斯餐饮有限公司","lon":"121.45969","lat":"31.21502","category":"263","category_name":"公司","address":"陕西南路344号"},{"poiid":"B2094655D26EA1F54693","title":"ENZO(巴黎春天店)","lon":"121.45944","lat":"31.21677","category":"248","category_name":"生活娱乐","address":"卢湾区淮海中路939号1楼"},{"poiid":"B2094750D364A5FA439C","title":"伊丽莎白雅顿美丽沙龙","lon":"121.4598593906","lat":"31.217168723726","category":"641","category_name":"化妆卫浴用品类公司","address":"淮海中路918号"},{"poiid":"B2094655D268A3F5489D","title":"中国建设银行24小时自助银行(淮海中路)","lon":"121.46005","lat":"31.21686","category":"152","category_name":"ATM","address":""},{"poiid":"B2094654DA6EA2F9489D","title":"东方巴黎霞飞苑(北门)","lon":"121.45842","lat":"31.21455","category":"656","category_name":"大门","address":"南昌路555"},{"poiid":"B2094654DA6EA2F94893","title":"东方巴黎霞飞苑(侧门)","lon":"121.45928","lat":"31.21479","category":"656","category_name":"大门","address":""}]