[{"poiid":"B2094655D265A5FA4098","title":"浦东嘉里中心","lon":"121.56254","lat":"31.21279","category":"46","category_name":"楼宇","address":"浦东新区花木路芳甸路"},{"poiid":"B2094655D26AA6F9489A","title":"新国际展览中心","lon":"121.5654","lat":"31.21161","category":"247","category_name":"餐饮美食","address":"浦东新区龙阳路2345号(近芳甸路)"},{"poiid":"B2094757D06FA6FE449A","title":"浦东嘉里大酒店(Kerry Hotel)","lon":"121.562339396","lat":"31.2128867007","category":"217","category_name":"旅馆招待所","address":"浦东新区花木路1388号(近芳甸路)"},{"poiid":"B2094757D064A2F9439A","title":"新旺茶餐厅(嘉里城店)","lon":"121.563320975","lat":"31.2123346421","category":"72","category_name":"广东菜","address":"浦东新区花木路1378号浦东嘉里城1楼L126单元"},{"poiid":"B2094757D16DA1FE4098","title":"California pizza kitchen(嘉里城店)","lon":"121.5616","lat":"31.21347","category":"94","category_name":"西餐厅","address":"浦东新区花木路1378号浦东嘉里城2楼L231室(近芳甸路)"},{"poiid":"B2094757D06FA4FD429B","title":"蓝蛙(嘉里城店)","lon":"121.562534178","lat":"31.2128727619","category":"260","category_name":"其他","address":"浦东新区花木路1378号嘉里城商场1楼L131号(近浦东新博览中心)"},{"poiid":"B2094757D06FAAFD4499","title":"融合马来西亚餐厅(嘉里城店)","lon":"121.563071975","lat":"31.2119606334","category":"110","category_name":"其他亚洲菜","address":"浦东新区芳甸路1155号嘉里城商场2楼L216A号(近新国际展览中心)"},{"poiid":"B2094757D06FA6FB4392","title":"新元素(嘉里城店)","lon":"121.56213664","lat":"31.213014313","category":"94","category_name":"西餐厅","address":"浦东新区花木路1378号浦东嘉里城1楼(近梅花路)"},{"poiid":"B2094757D069A2F4499B","title":"Baker&Spice(嘉里城店)","lon":"121.563149975","lat":"31.2127126509","category":"67","category_name":"甜品店","address":"浦东新区花木路1378号嘉里城(近芳甸路)"},{"poiid":"B2094757D06FA7F9459C","title":"和民居食屋(浦东嘉里城店)","lon":"121.56422097","lat":"31.212740651","category":"95","category_name":"日本料理","address":"上海市浦东新区花木路1378号浦东嘉里城商场地下一层B105b号单元"},{"poiid":"B2094757D06FA2F84993","title":"星巴克 STARBUCKS (浦东嘉里中心店)","lon":"121.5616098","lat":"31.2134727","category":"260","category_name":"其他","address":"浦东新区花木路1378号嘉里城商场1楼L110单元"},{"poiid":"B2094757D06BA0FC439E","title":"Johnny Moo（浦东嘉里城旗舰店）","lon":"121.56301597","lat":"31.212829653","category":"94","category_name":"西餐厅","address":"浦东新区花木路1378号浦东嘉里城2楼(近芳甸路)"},{"poiid":"B2094655D26DA1F94998","title":"世纪公园(四号门)","lon":"121.56079","lat":"31.21623","category":"680","category_name":"楼宇机构","address":"芳甸路858"},{"poiid":"B2094757D065A6FF479C","title":"逸谷","lon":"121.563296975","lat":"31.2123126416","category":"72","category_name":"广东菜","address":"浦东新区花木路1378号嘉里城2楼219A号(近芳甸路)"},{"poiid":"B2094757D06AA2FD4498","title":"大茴香(嘉里城店)","lon":"121.563372638","lat":"31.2124443102","category":"99","category_name":"泰国／越南菜品餐厅","address":"浦东新区花木路1378号嘉里城商场1楼115室(近芳甸路,新国际展览中心W5展馆对面)"},{"poiid":"B2094757D064A0FC479E","title":"赤坂亭(浦东嘉里店)","lon":"121.563086975","lat":"31.2127956529","category":"269","category_name":"烧烤","address":"浦东新区花木路1378号浦东嘉里城商场2楼L234单元"},{"poiid":"B2094757D068A3F8479E","title":"友乐达台北精致面馆(浦东嘉里城店)","lon":"121.56402197","lat":"31.211982633","category":"68","category_name":"快餐厅","address":"浦东新区花木路1378号浦东嘉里城B1楼05A号(近梅花路)"},{"poiid":"B2094757D068A6F84498","title":"食之秘(浦东嘉里城店)","lon":"121.56416617","lat":"31.21139112","category":"67","category_name":"甜品店","address":"浦东新区花木路1378号浦东嘉里城商场B110号铺(近芳甸路)"},{"poiid":"B2094757D06FA5FE439C","title":"永达国际大厦","lon":"121.57","lat":"31.2114","category":"46","category_name":"楼宇","address":"上海市浦东新区龙阳路2277号"},{"poiid":"B2094757D06FA7F4479C","title":"仁恒河滨城","lon":"121.5674189","lat":"31.227980431","category":"47","category_name":"住宅区","address":"奉贤区南桥南奉公路8889号"},{"poiid":"B2094757D069A4FE419A","title":"小南国(浦东嘉里城)","lon":"121.563241975","lat":"31.2125196464","category":"500","category_name":"未知分类","address":"上海市浦东新区花木路1378号浦东嘉里城2楼"},{"poiid":"B2094757D06FA4FF4893","title":"The COOK·厨","lon":"121.56314097","lat":"31.212868654","category":"217","category_name":"旅馆招待所","address":"上海浦东新区花木路1388号嘉里大酒店1楼(近芳甸路)"},{"poiid":"B2094757D068A2FD489E","title":"九间堂","lon":"121.5620138","lat":"31.222304185","category":"500","category_name":"未知分类","address":"浦东新区芳甸路599弄1号(近锦绣路)"},{"poiid":"B2094757D064A1F5499B","title":"龙阳路磁悬浮","lon":"121.560088975","lat":"31.2184807858","category":"500","category_name":"未知分类","address":"上海龙阳路"},{"poiid":"B2094757D068A7F84793","title":"Ole' Supermarket(浦东嘉里城店)","lon":"121.563133227","lat":"31.2132648841","category":"118","category_name":"超级市场","address":"浦东新区花木路1378号嘉里城B108商铺(近新国际博览中心)"},{"poiid":"B2094757D06FABFA469F","title":"紫竹国际大厦","lon":"121.56824976597","lat":"31.217863825633","category":"46","category_name":"楼宇","address":"普陀区大渡河路588号"},{"poiid":"B2094757D465A3FA439E","title":"俏江南 花木路店","lon":"121.5616098","lat":"31.2134727","category":"247","category_name":"餐饮美食","address":"浦东新区花木路1378号浦东嘉里城L215号(近浦东新国际展览中心)"},{"poiid":"B2094750D76FA0FB4699","title":"居食屋和民(浦东嘉里城店)","lon":"121.562","lat":"31.2124","category":"95","category_name":"日本料理","address":"浦东新区芳甸路1155号嘉里城B1楼105B号(花木路口)"},{"poiid":"B2094757D06BA5F9419F","title":"瑞亚湖滨精品酒店","lon":"121.57144497","lat":"31.224963937","category":"217","category_name":"旅馆招待所","address":"上海市浦东新区罗山路1609号"},{"poiid":"B2094757D069AAFB4399","title":"The BREW•酿","lon":"121.56264494","lat":"31.213571604","category":"172","category_name":"酒吧","address":"浦东新区花木路1388号嘉里大酒店1楼(近芳甸路)"},{"poiid":"B2094757D469A3F5429C","title":"瑞亚湖滨酒店多功能厅","lon":"121.570945","lat":"31.226697","category":"76","category_name":"上海菜","address":"罗山路1609号瑞亚湖滨酒店1楼近锦绣路"},{"poiid":"B2094757D069A3FA4992","title":"有心","lon":"121.5616098","lat":"31.2134727","category":"75","category_name":"浙江菜","address":"浦东新区花木路1378号嘉里城商场1楼113号(近芳甸路)"},{"poiid":"B2094757DB6CA4FF4899","title":"宝珠奶酪（嘉里城店）","lon":"121.56224","lat":"31.21243","category":"67","category_name":"甜品店","address":"浦东新区芳甸路1155号嘉里城B区B1楼(近世纪公园)"},{"poiid":"B2094757D06EAAFC4499","title":"花木路地铁站","lon":"121.56275848","lat":"31.211390958","category":"36","category_name":"地铁站","address":"上海轨道交通 七号线 轨交花木路站 7"},{"poiid":"B2094757D068ABFF459F","title":"永达东风日产4s店","lon":"121.570136","lat":"31.226448","category":"158","category_name":"汽车销售","address":"上海罗山路1447号"},{"poiid":"B2094757D06EAAFC4392","title":"太平洋咖啡Pacific Coffee(浦东嘉里城店)","lon":"121.564106638","lat":"31.212344308","category":"260","category_name":"其他","address":"浦东新区花木路1378号浦东嘉里城2楼L205号(近7号线花木路站)"},{"poiid":"B2094655D26FA5F84293","title":"御翠园","lon":"121.5723460187","lat":"31.223593222378","category":"47","category_name":"住宅区","address":"上海市浦东新区花木路1883弄"},{"poiid":"B2094655D36CA7FD4499","title":"花木路","lon":"121.57282","lat":"31.217","category":"38","category_name":"公交车站","address":""},{"poiid":"B2094751D569A1FF409F","title":"龍美术馆","lon":"121.573639","lat":"31.215622","category":"248","category_name":"生活娱乐","address":"罗山路2255号"},{"poiid":"B2094753D76AA4FF459C","title":"泰迪之家(嘉里城店)","lon":"121.562709","lat":"31.212447","category":"99","category_name":"泰国／越南菜品餐厅","address":"上海市浦东新区花木路1378号嘉里城1楼L225号铺"},{"poiid":"B2094655D26EA4FE4999","title":"松坊餐厅(四季店)","lon":"121.56896","lat":"31.21805","category":"257","category_name":"中餐厅","address":"浦东新区花木路1983号"},{"poiid":"B2094655D26FA6FA469A","title":"四季雅苑","lon":"121.575","lat":"31.2222","category":"47","category_name":"住宅区","address":"浦东区花木路1983弄"},{"poiid":"B2094757D068A3FF459E","title":"Afternoon Tea(花木路店)","lon":"121.562549975","lat":"31.2125306467","category":"94","category_name":"西餐厅","address":"浦东新区花木路1378号浦东嘉里城L109铺"},{"poiid":"B2094757D568A0FB439A","title":"汤臣湖庭花园","lon":"121.574922","lat":"31.215573","category":"47","category_name":"住宅区","address":"浦东新区罗山路2255弄(花木路口)"},{"poiid":"B2094655D36CA0FD459E","title":"锦绣路罗山路","lon":"121.56943","lat":"31.22644","category":"38","category_name":"公交车站","address":""},{"poiid":"B2094757D06AA7F5499E","title":"东风本田汽车冠松4S","lon":"121.571006","lat":"31.226105","category":"158","category_name":"汽车销售","address":"浦东新区罗山路1589号(近锦绣路)"},{"poiid":"B2094757D569A3FB409D","title":"仁恒河滨城一期","lon":"121.566375","lat":"31.22726806","category":"47","category_name":"住宅区","address":"上海市浦东新区丁香路1599弄"},{"poiid":"B2094757D064A2FE449C","title":"Coffee Bean 浦东嘉里中心店","lon":"121.56428097","lat":"31.212755651","category":"65","category_name":"咖啡厅","address":"上海市浦东嘉里中心"},{"poiid":"B2094654DA69A2FA4399","title":"广洋新景苑","lon":"121.56838","lat":"31.22351","category":"47","category_name":"住宅区","address":"柳杉路99弄1-27号"},{"poiid":"B2094757D16EA5F8479F","title":"斗香园(嘉里店)","lon":"121.563118975","lat":"31.2124096439","category":"68","category_name":"快餐厅","address":"浦东新区花木路1378号嘉里城中心B1楼B103号(近新国际博览中心)"},{"poiid":"B2094750D569ABFD459F","title":"浦东世纪花园二期","lon":"121.565551","lat":"31.219154","category":"47","category_name":"住宅区","address":"上海市浦东新区花木路1108号"},{"poiid":"B2094751D564A0FE449C","title":"东方艺术中心","lon":"121.573425","lat":"31.218948","category":"500","category_name":"未知分类","address":null},{"poiid":"B2094750DB68AAFF4298","title":"嘉里城","lon":"121.563339","lat":"31.212678","category":"248","category_name":"生活娱乐","address":"浦东新区花木路1378号"},{"poiid":"B2094655D26AA6F94898","title":"上海车展","lon":"121.5654","lat":"31.21161","category":"247","category_name":"餐饮美食","address":"浦东新区龙阳路2345号新国际博览中心"},{"poiid":"B2094757D06AA5FB4092","title":"emoi基本生活(浦东嘉里城店)","lon":"121.568669","lat":"31.218798","category":"260","category_name":"其他","address":"上海浦东新区花木路1378号浦东嘉里城商场地下一层B116单元"},{"poiid":"B2094757D66BA0FD489D","title":"诺心Tableau 浦东嘉里中心店 TableauBakeryCafe","lon":"121.5616097","lat":"31.2134733","category":"67","category_name":"甜品店","address":"浦东新区花木路1378号浦东嘉里城B1楼11单元(近花木地铁站7号线)"},{"poiid":"B2094757DA6EABFA4693","title":"越味风(嘉里城店)","lon":"121.561609700001","lat":"31.2134733","category":"99","category_name":"泰国／越南菜品餐厅","address":"浦东新区花木路1378号嘉里城商场B1楼"},{"poiid":"B2094654DA6AA1FA419A","title":"上海瑞东医院(瑞金医院浦东分院)","lon":"121.57312","lat":"31.22623","category":"162","category_name":"医院","address":"浦东新区锦绣东路120"},{"poiid":"B2094757D16CA4FE469B","title":"纽约客(浦东嘉里城店)","lon":"121.56335327","lat":"31.211900131","category":"94","category_name":"西餐厅","address":"上海浦东新区花木路1378号浦东嘉里城L116店"},{"poiid":"B2094654DA69A2FA429D","title":"上海耀中国际学校(花木路)","lon":"121.56822","lat":"31.21512","category":"56","category_name":"小学","address":"花木路1817号"},{"poiid":"B2094654DA6AA0FA4999","title":"汤臣高尔夫别墅海顿园区","lon":"121.57684","lat":"31.21737","category":"47","category_name":"住宅区","address":""},{"poiid":"B2094654DA69A2FA4398","title":"小风车广洋新景幼儿园","lon":"121.56747","lat":"31.22271","category":"57","category_name":"幼儿园","address":"浦东新区花四路99弄27号"},{"poiid":"B2094757D16FAAFD429D","title":"诗碧阁西餐厅","lon":"121.563161975","lat":"31.2128106532","category":"500","category_name":"未知分类","address":"上海浦东嘉里中心"},{"poiid":"B2094757D164A6FA459D","title":"电力通信公司","lon":"121.567393975","lat":"31.2212988518","category":"263","category_name":"公司","address":"上海柳杉路223号"},{"poiid":"B2094757D06BA6FD4193","title":"斗香园(浦东嘉里中心店)","lon":"121.563023475","lat":"31.2113533192","category":"500","category_name":"未知分类","address":"上海地铁七号线花木路站1号口"},{"poiid":"B2094654DA69A2FA4492","title":"金色维也纳","lon":"121.56512","lat":"31.22323","category":"47","category_name":"住宅区","address":"锦绣路333弄1-56号"},{"poiid":"B2094655D26DA7F4489A","title":"浦园千秋别墅(西门)","lon":"121.56753","lat":"31.22124","category":"48","category_name":"楼宇大门","address":"柳杉路229弄1-21号"},{"poiid":"B2094751D56EAAFA499C","title":"上海新国际博物馆中心","lon":"121.569761","lat":"31.215325","category":"500","category_name":"未知分类","address":"上海市 上海新国际博物馆中心"},{"poiid":"B2094757D164ABFB4599","title":"上海天電通信网絡有限公司","lon":"121.56746397","lat":"31.221482856","category":"263","category_name":"公司","address":"上海浦东新区锦绣路柳杉路223號"},{"poiid":"B2094757D66FA7FD4393","title":"MOB(罗山路店)","lon":"121.57261","lat":"31.2155","category":"148","category_name":"美容美发店","address":"上海浦东新区罗山路2255弄1号(近花木路)  "},{"poiid":"B2094757D16AA4F84093","title":"宠乐道宠物医院柳杉分院","lon":"121.56647197","lat":"31.224570928","category":"162","category_name":"医院","address":"上海市浦东新区柳杉路47号"},{"poiid":"B2094654DB6BAAFC4499","title":"四季雅苑(北门)","lon":"121.56809","lat":"31.21895","category":"656","category_name":"大门","address":"花木路1983弄"},{"poiid":"B2094751D368A6F8439C","title":"Berry Bear(浦东嘉里城店)","lon":"121.56247","lat":"31.21379","category":"113","category_name":"冷饮店","address":"浦东新区花木路1378号浦东嘉里城B1楼B112A号商铺(32211667)"},{"poiid":"B2094751DA69A5FF489C","title":"上海东郊宾馆","lon":"121.572464","lat":"31.222214","category":"251","category_name":"出行住宿","address":"上海浦东新区金科路1800号"},{"poiid":"B2094655D26DA7F9419E","title":"金桂家园(南门)","lon":"121.56994","lat":"31.22437","category":"47","category_name":"住宅区","address":"罗山路1700弄1-8号"},{"poiid":"B2094655D268A1F5409B","title":"御翠园(东二门)","lon":"121.56739","lat":"31.22037","category":"656","category_name":"大门","address":""},{"poiid":"B2094654DA69A2FA439E","title":"克丽缇娜(柳杉路)","lon":"121.567","lat":"31.22391","category":"148","category_name":"美容美发店","address":"柳杉路71"},{"poiid":"B2094655D268A1F44992","title":"四季雅苑(西三门)","lon":"121.56774","lat":"31.22044","category":"656","category_name":"大门","address":"花木路1983弄"},{"poiid":"B2094757D165A6FA4892","title":"俏江南","lon":"121.55993697","lat":"31.21867379","category":"500","category_name":"未知分类","address":"上海市浦东新区锦绣路"},{"poiid":"B2094655D26DABFC4392","title":"浦东虹桥花园","lon":"121.56442","lat":"31.226006","category":"47","category_name":"住宅区","address":"锦绣路300弄1-37号"},{"poiid":"B2094654DA69A2FA4293","title":"御翠园(东门)","lon":"121.56797","lat":"31.21732","category":"656","category_name":"大门","address":"花木路1833弄1-48"},{"poiid":"B2094654DA69A2FA469E","title":"金桂家园","lon":"121.56998","lat":"31.224915","category":"47","category_name":"住宅区","address":"罗山路1700弄1-8号"},{"poiid":"B2094654DA69A2FA4699","title":"锦绣小区","lon":"121.56915","lat":"31.225288","category":"47","category_name":"住宅区","address":"罗山路1700弄"},{"poiid":"B2094757D16BA3FF459A","title":"blue frog","lon":"121.56209397","lat":"31.212975657","category":"500","category_name":"未知分类","address":"上海花木路"},{"poiid":"B2094753DB68A5F54499","title":"极食","lon":"121.562988","lat":"31.217916","category":"247","category_name":"餐饮美食","address":"上海市 喜马拉雅酒店"},{"poiid":"B2094655D26BA7FB4298","title":"曼都佳人SPA馆联洋2馆","lon":"121.56699","lat":"31.22401","category":"148","category_name":"美容美发店","address":"柳杉路63"},{"poiid":"B2094757D465A5FB479F","title":"东村韩料理","lon":"121.5687457","lat":"31.2261111","category":"96","category_name":"韩国料理","address":"浦东新区锦绣路33号(近罗山路)"},{"poiid":"B2094757D169ABF4429E","title":"Tableau","lon":"121.563304975","lat":"31.2123396422","category":"67","category_name":"甜品店","address":"浦东新区花木路1378号浦东嘉里城B111商铺(近芳甸路)"},{"poiid":"B2094753DA6FA7F94793","title":"Mr.Pizza","lon":"121.564018","lat":"31.223802","category":"500","category_name":"未知分类","address":"上海市 上海市迎春路1089号大拇指广场(近芳甸路)"},{"poiid":"B2094655D26EA0FD489C","title":"四季雅苑(西二门)","lon":"121.569","lat":"31.21582","category":"656","category_name":"大门","address":"花木路1983弄"},{"poiid":"B2094757D169AAF84298","title":"东方幼儿园仁恒部","lon":"121.56943897","lat":"31.226610976","category":"253","category_name":"校园生活","address":"浦东新区锦绣路50号(罗山路口)"},{"poiid":"B2094655D26FA1FD439D","title":"金桂花园","lon":"121.56894","lat":"31.22519","category":"47","category_name":"住宅区","address":""},{"poiid":"B209475CDB6EA5FF4192","title":"上海开元曼居酒店(原上海瑞亚湖滨酒店)","lon":"121.571706","lat":"31.225285","category":"214","category_name":"四星级宾馆","address":"浦东新区罗山路1609号(新国际博览中心区域,内环高架路旁)"},{"poiid":"B2094757D168A7F54193","title":"香啡缤(嘉里城店)","lon":"121.56297497","lat":"31.212646649","category":"260","category_name":"其他","address":"浦东新区花木路1378号浦东嘉里城1楼(近芳甸路路)"},{"poiid":"B2094654DA69A2FA449F","title":"宝乐宠物医院浦东店","lon":"121.56683","lat":"31.22473","category":"162","category_name":"医院","address":"浦东新区柳杉路25号(近锦绣路)"},{"poiid":"B2094757D16CA6F8489A","title":"西树泡芙(浦东嘉里城店)","lon":"121.563198975","lat":"31.212329642","category":"247","category_name":"餐饮美食","address":"浦东新区花木路1378号嘉里城B1楼(近新国际博览中心)"},{"poiid":"B2094654DB6BAAFC449E","title":"花木社区卫生服务中心钦洋服务站","lon":"121.56812","lat":"31.22545","category":"162","category_name":"医院","address":""},{"poiid":"B2094757D16FA3F4489D","title":"韩林碳烤","lon":"121.56340789","lat":"31.223962783","category":"247","category_name":"餐饮美食","address":"上海大拇指广场"},{"poiid":"B2094655D36CA6F44692","title":"丁香路锦绣路","lon":"121.56621","lat":"31.22586","category":"38","category_name":"公交车站","address":""},{"poiid":"B2094654DA69A2FA439B","title":"金樽花园(东门)","lon":"121.56688","lat":"31.22268","category":"48","category_name":"楼宇大门","address":""},{"poiid":"B2094757D568A0FF4498","title":"九间堂别墅","lon":"121.5613469","lat":"31.22273611","category":"47","category_name":"住宅区","address":"上海市浦东新区锦安东路88弄"},{"poiid":"B2094757D16CA2FF429F","title":"赛百味 嘉里城店","lon":"121.562051","lat":"31.213107","category":"94","category_name":"西餐厅","address":"浦东新区花木路1378号浦东嘉里城商场B1楼09A号(近七号线花木路站一号口)"},{"poiid":"B2094757D169A3FF4699","title":"baskin robbins(嘉里城店)","lon":"121.56294197","lat":"31.212565647","category":"113","category_name":"冷饮店","address":"浦东新区花木路1378号浦东嘉里城商场B1楼13室"},{"poiid":"B2094654DA69A3F8419E","title":"世纪公园(南门)","lon":"121.56092","lat":"31.21397","category":"680","category_name":"楼宇机构","address":""},{"poiid":"B2094753D469AAFD4699","title":"喜马拉雅海上国际影城","lon":"121.563003","lat":"31.217929","category":"500","category_name":"未知分类","address":"上海市 芳甸路1188弄"},{"poiid":"B2094757D165A1FD4799","title":"Mister Donut 美仕唐纳滋(浦东嘉里城店)","lon":"121.563796356","lat":"31.2125600564","category":"67","category_name":"甜品店","address":"浦东新区花木路1378号浦东嘉里城1楼L133B号铺"},{"poiid":"B2094757D16DA7FF4098","title":"菁翠御会所","lon":"121.564911975","lat":"31.2144446914","category":"148","category_name":"美容美发店","address":"上海花木路1717号"},{"poiid":"B2094750D165A2FF479D","title":"浦东机场二号航站楼53C","lon":"121.563468","lat":"31.217351","category":"627","category_name":"一般地点标志","address":null},{"poiid":"B2094757D469A3F4459E","title":"瑞亚湖滨酒店艾提西餐厅","lon":"121.570934","lat":"31.226669","category":"94","category_name":"西餐厅","address":"罗山路1609号瑞亚湖滨酒店1楼近锦绣路"},{"poiid":"B2094655D26FABFD4892","title":"四季雅苑(南门)","lon":"121.57182","lat":"31.21537","category":"656","category_name":"大门","address":""},{"poiid":"B2094750D669A4FE429B","title":"New York Pizza","lon":"121.563476","lat":"31.212341","category":"500","category_name":"未知分类","address":"浦东嘉里城"},{"poiid":"B2094757DA6EA5FE459F","title":"面包新语(嘉里城店)","lon":"121.562490700001","lat":"31.213627","category":"112","category_name":"糕饼店","address":"浦东新区花木路1378号嘉里城商场1楼(近GAP)"},{"poiid":"B2094757D16AA6F8449C","title":"中国石化加油站(锦绣路罗山路口)","lon":"121.5705434","lat":"31.226545154","category":"154","category_name":"加油加气站","address":"上海浦东新区锦绣路罗山路口"},{"poiid":"B2094654DB6BAAFD419E","title":"东方幼儿园","lon":"121.56922","lat":"31.22678","category":"57","category_name":"幼儿园","address":"锦绣路50号"},{"poiid":"B2094757D569A7F9429B","title":"钦洋镇图书馆","lon":"121.567461","lat":"31.225471","category":"125","category_name":"书店","address":"黄浦区锦绣路95-101号(丁香路锦绣路)"},{"poiid":"B2094655D26DA7F44893","title":"金色维也纳(北门)","lon":"121.56318","lat":"31.22383","category":"47","category_name":"住宅区","address":"锦绣路333弄1-56号"},{"poiid":"B2094655D264A0FA479B","title":"大唐盛世花园三期","lon":"121.565","lat":"31.2132","category":"47","category_name":"住宅区","address":"上海市宝山区电台路568弄"},{"poiid":"B2094753D36EA2FF479A","title":"kush(嘉里城店)","lon":"121.56234","lat":"31.213813","category":"89","category_name":"中式素餐馆","address":"花木路1378号浦东嘉里城B111室"},{"poiid":"B2094750DB6AABFF499B","title":"城隍庙","lon":"121.575614","lat":"31.224824","category":"500","category_name":"未知分类","address":"福佑路"},{"poiid":"B2094757D16BA5F5479E","title":"GAMx China Research Center","lon":"121.566273","lat":"31.214217","category":"500","category_name":"未知分类","address":"上海樱花路801弄"},{"poiid":"B2094757D569A2FC4298","title":"东方明珠花店","lon":"121.5659169","lat":"31.22616694","category":"120","category_name":"小商品市场","address":"浦东新区锦绣路300弄虹桥花园18号1002室(迎春路紫槐路)"},{"poiid":"B2094655D26DA0FC489B","title":"广洋新景苑(东门)","lon":"121.56997","lat":"31.22418","category":"656","category_name":"大门","address":"柳杉路99弄"},{"poiid":"B2094757D16EA1FF4699","title":"冠松汽车维修服务有限公司","lon":"121.57004975","lat":"31.226869182","category":"500","category_name":"未知分类","address":"上海市浦东新区罗山路1589号"},{"poiid":"B2094757D065A4F94598","title":"张博士茗茶馆","lon":"121.56254497","lat":"31.223913912","category":"247","category_name":"餐饮美食","address":"上海浦东新区芳甸路300号联洋广场B栋4楼(大拇指广场对面)  "},{"poiid":"B2094757D16CA7FF499A","title":"来吃面","lon":"121.562294","lat":"31.223865509","category":"247","category_name":"餐饮美食","address":"上海市浦东新区芳甸路300号B区104"},{"poiid":"B2094757D06AA1F94898","title":"四季雅苑御翠园会所","lon":"121.56230632","lat":"31.214060582","category":"500","category_name":"未知分类","address":"上海花木路1883号"},{"poiid":"B2094757D16AA5F9499A","title":"嘉里中心dragonfly悠庭保健会所","lon":"121.563188275","lat":"31.2113194184","category":"500","category_name":"未知分类","address":"浦东新区花木路1378号浦东嘉里城商场L119"},{"poiid":"B2094750D26BA1FA489A","title":"茶米家 花木店 Cha Mi Living","lon":"121.5624867","lat":"31.2136454","category":"66","category_name":"茶艺馆","address":"花木路1378号125B室近芳甸路"},{"poiid":"B2094757D069A4FC4598","title":"城市超市(联洋店)","lon":"121.56768","lat":"31.2277","category":"118","category_name":"超级市场","address":"浦东新区丁香路1399弄30号仁恒河滨城邻里之家107室(近芳甸路)"},{"poiid":"B2094655D26DA5F54799","title":"广洋新景苑(西门)","lon":"121.56706","lat":"31.22356","category":"656","category_name":"大门","address":"柳杉路99弄1-27号"},{"poiid":"B2094655D36CA6F9429D","title":"芳甸路花木路","lon":"121.56145","lat":"31.21466","category":"38","category_name":"公交车站","address":""},{"poiid":"B2094757D165A0FD4998","title":"芭斯罗缤(浦东嘉里城店)","lon":"121.563411975","lat":"31.2121886387","category":"500","category_name":"未知分类","address":"上海市浦东新区花木路1378号浦东嘉里城地下一层B113"},{"poiid":"B2094757D66EA5F4499B","title":"快乐柠檬(浦东嘉里城店)","lon":"121.563204975","lat":"31.2125486471","category":"247","category_name":"餐饮美食","address":"上海浦东嘉里城B1"},{"poiid":"B2094655D26AA0F9479F","title":"地铁花木路站","lon":"121.56282","lat":"31.21373","category":"36","category_name":"地铁站","address":""},{"poiid":"B2094750D36BA2FF4293","title":"新国际博览中心N3馆","lon":"121.567161","lat":"31.212766","category":"627","category_name":"一般地点标志","address":"浦东新区龙阳路2345号"},{"poiid":"B2094757D06BAAFF419D","title":"无印良品MUJI(浦东嘉里城店)","lon":"121.56313497","lat":"31.212380643","category":"123","category_name":"家具建材市场","address":"浦东新区花木路1378号浦东嘉里城L230铺(近芳甸路)"},{"poiid":"B2094757D064A2FF4192","title":"H&amp;M(浦东嘉里城店)","lon":"121.563023975","lat":"31.2128186534","category":"141","category_name":"服装鞋帽皮具店","address":"上海市浦东新区花木路1378号"},{"poiid":"B209475CD468A2F44792","title":"糖纸","lon":"121.568077","lat":"31.209997","category":"500","category_name":"未知分类","address":"上海市 浦东嘉里城"},{"poiid":"B209475DD568A7F54592","title":"糖纸","lon":"121.563674","lat":"31.21219","category":"247","category_name":"餐饮美食","address":"上海市 浦东嘉里城B1"},{"poiid":"B2094655D268A3FC419C","title":"柏尔口腔","lon":"121.5624","lat":"31.22696","category":"162","category_name":"医院","address":"迎春路1301"},{"poiid":"B2094757DA69A1FD4293","title":"上海世纪公园球场","lon":"121.55975029653","lat":"31.216317502733","category":"220","category_name":"运动场所","address":"芳甸路858号"},{"poiid":"B2094757D16BA2FC439B","title":"快乐柠檬","lon":"121.56324","lat":"31.2076","category":"113","category_name":"冷饮店","address":"浦东新区芳甸路1378号浦东嘉里城B1楼B112b号铺(近梅花路)"},{"poiid":"B2094757D165A0FB4093","title":"九城会馆","lon":"121.56373","lat":"31.22408","category":"220","category_name":"运动场所","address":"浦东新区锦绣路300弄35号(锦绣路紫槐路)"},{"poiid":"B2094757D168A5F5499A","title":"东田造型","lon":"121.56321597","lat":"31.212610648","category":"148","category_name":"美容美发店","address":"上海浦东嘉里城"},{"poiid":"B2094655D36CA6F9429F","title":"芳甸路锦绣路","lon":"121.55989","lat":"31.22159","category":"38","category_name":"公交车站","address":""},{"poiid":"B209475CD66FA2FD4093","title":"东方明珠电视塔","lon":"121.563011","lat":"31.212507","category":"500","category_name":"未知分类","address":"上海市 浦东区"},{"poiid":"B2094751D469A1F5469D","title":"外滩绿韵spa","lon":"121.560167","lat":"31.218088","category":"47","category_name":"住宅区","address":null},{"poiid":"B2094750DA6EA5FC4993","title":"东京街","lon":"121.564125","lat":"31.210634","category":"247","category_name":"餐饮美食","address":"喜马拉雅中心"},{"poiid":"B2094655D265AAF8449C","title":"水上餐厅","lon":"121.55983","lat":"31.22096","category":"257","category_name":"中餐厅","address":"芳甸路666号世纪公园2号门附近"},{"poiid":"B2094655D26BA0FB449C","title":"世纪咖啡","lon":"121.55983","lat":"31.22096","category":"65","category_name":"咖啡厅","address":"芳甸路666号世纪公园内"},{"poiid":"B2094757D16EABFC499E","title":"Coffee Hounds","lon":"121.564211975","lat":"31.2127176511","category":"260","category_name":"其他","address":"浦东新区花木路1378号浦东嘉里城B1楼OLE超市内(近芳甸路)"},{"poiid":"B2094757D165A2FD4993","title":"cold stone","lon":"121.563202975","lat":"31.2125636475","category":"500","category_name":"未知分类","address":"上海市浦东新区花木路嘉里中心1楼"},{"poiid":"B2094757D16FA0F54598","title":"朴坊(浦东嘉里城店)","lon":"121.56335563","lat":"31.2125086216","category":"249","category_name":"购物服务","address":"浦东新区花木路1378号浦东嘉里城B117(近国际展览中心)"},{"poiid":"B2094654DA6AA1F9429A","title":"汤臣高尔夫公寓汤臣豪园","lon":"121.57637","lat":"31.21114","category":"47","category_name":"住宅区","address":"龙东大道1号"},{"poiid":"B2094757D164A5F5469D","title":"爱手爱脚","lon":"121.56403249","lat":"31.224996078","category":"500","category_name":"未知分类","address":"上海联洋大拇指广场"},{"poiid":"B209475CD26DA5FB419F","title":"澈思叔叔烘焙工房","lon":"121.567863","lat":"31.210296","category":"247","category_name":"餐饮美食","address":"上海市 浦东嘉里城B1层"},{"poiid":"B2094655D26FA5FF449E","title":"吉云公寓","lon":"121.5685","lat":"31.228199","category":"47","category_name":"住宅区","address":"罗山路1502弄"},{"poiid":"B2094757D165A1FF479B","title":"屈臣氏(浦东嘉里城店)","lon":"121.563111737","lat":"31.212720885","category":"117","category_name":"便民商店/便利店","address":"浦东新区芳甸路1155号浦东嘉里城B1楼"},{"poiid":"B2094750D26CA3FD4593","title":"TheMeet聚","lon":"121.5616111","lat":"31.2134729","category":"247","category_name":"餐饮美食","address":"花木路1388号嘉里大酒店2楼近芳甸路"},{"poiid":"B2094757D16EABFB459C","title":"西安印象","lon":"121.56746897","lat":"31.211020611","category":"500","category_name":"未知分类","address":"上海市浦东新区花木路"},{"poiid":"B2094655D26FABFC499E","title":"御翠园(南门)","lon":"121.56498","lat":"31.21437","category":"656","category_name":"大门","address":""},{"poiid":"B2094655D26DA7F44892","title":"锦绣小区(北门)","lon":"121.5685","lat":"31.22562","category":"656","category_name":"大门","address":""},{"poiid":"B2094655D268A1F4499D","title":"锦绣小区(北一门)","lon":"121.56822","lat":"31.2255","category":"656","category_name":"大门","address":""},{"poiid":"B2094757D66AA4FA4898","title":"巴厘妃艺术咖啡馆 Putri Bali Art Cafe","lon":"121.568932054","lat":"31.229242793","category":"65","category_name":"咖啡厅","address":"浦东新区柳杉路75号(近锦绣路)"},{"poiid":"B2094753D26FABF84792","title":"俏江南","lon":"121.563675","lat":"31.211914","category":"500","category_name":"未知分类","address":"上海市 上海浦东新国际展览中心嘉里城"},{"poiid":"B2094757D569A0FE4393","title":"乐乐便利店","lon":"121.56938911","lat":"31.22841444","category":"117","category_name":"便民商店/便利店","address":"罗山路1528"},{"poiid":"B2094757D168A4FD409B","title":"Radisson","lon":"121.5600404","lat":"31.218771042","category":"500","category_name":"未知分类","address":"上海迎春路1199号"},{"poiid":"B2094655D26DA7F4419C","title":"吉云公寓(东门)","lon":"121.56911","lat":"31.22876","category":"47","category_name":"住宅区","address":"罗山路1502弄"},{"poiid":"B2094757D66CA3FB489F","title":"联洋地段医院","lon":"121.56191597","lat":"31.226475972","category":"162","category_name":"医院","address":"上海市浦东新区芳甸路"},{"poiid":"B2094757D569A1FA409A","title":"九城花店","lon":"121.56255968","lat":"31.22697591","category":"120","category_name":"小商品市场","address":"迎春路1305"},{"poiid":"B2094750D365A3FE4293","title":"CJCosplay嘉年华","lon":"121.5654","lat":"31.21161","category":"645","category_name":"机构及其他类公司","address":"中国上海浦东新区龙阳路2345号。"},{"poiid":"B2094654DA6AA1FA4299","title":"上海四菱医疗器械厂","lon":"121.57061","lat":"31.22775","category":"263","category_name":"公司","address":"罗山路1509"},{"poiid":"B2094654DA69A1FE4699","title":"仁恒河滨城(南门)","lon":"121.56898","lat":"31.22653","category":"656","category_name":"大门","address":""},{"poiid":"B2094753D06AA1F94899","title":"1004超市(迎春路店)","lon":"121.5621","lat":"31.22672","category":"117","category_name":"便民商店/便利店","address":"浦东新区迎春路1277号(近紫槐路)"},{"poiid":"B2094654DB69A7F44299","title":"上海市花木中学","lon":"121.56319","lat":"31.21121","category":"55","category_name":"中学","address":"浦东新区花木镇界沟湾68号"},{"poiid":"B2094757DA64AAF54899","title":"儿童医学中心","lon":"121.566375","lat":"31.22726806","category":"627","category_name":"一般地点标志","address":"东方路浦建路"},{"poiid":"B2094750D66CA6F4459B","title":"仁恒河滨二期","lon":"121.561721","lat":"31.225952","category":"500","category_name":"未知分类","address":null},{"poiid":"B2094654DA69A1FE479B","title":"浦东虹桥花园(南门)","lon":"121.56423","lat":"31.22471","category":"656","category_name":"大门","address":"锦绣路300弄1-37号"},{"poiid":"B2094654DA69A1FE469E","title":"浦东虹桥花园(东门)","lon":"121.56591","lat":"31.22616","category":"656","category_name":"大门","address":"锦绣路300弄1-37号"},{"poiid":"B2094655D265A3F4479B","title":"至家美容SPA","lon":"121.56242","lat":"31.22695","category":"148","category_name":"美容美发店","address":"浦东新区迎春路1297号(近大拇指广场)"},{"poiid":"B2094654DA6AA5FB4198","title":"高尔夫练习场","lon":"121.57933","lat":"31.21336","category":"206","category_name":"高尔夫相关","address":""},{"poiid":"B2094757D66EABF9429B","title":"同济大学南大道","lon":"121.563223375","lat":"31.2121233372","category":"500","category_name":"未知分类","address":"上海四平路1239号"},{"poiid":"B2094757D069A2F4479D","title":"仁恒会","lon":"121.565586","lat":"31.228893","category":"260","category_name":"其他","address":"上海丁香路1599弄仁恒河滨城"},{"poiid":"B2094757D164A4FE419C","title":"花木一线芳甸路花木路站台","lon":"121.561340975","lat":"31.2135426704","category":"500","category_name":"未知分类","address":"上海花木路芳甸路(近世纪公园后门)"},{"poiid":"B2094757D66CA7F54493","title":"朴坊","lon":"121.56271547","lat":"31.212437744","category":"500","category_name":"未知分类","address":"上海浦东新区花木路1378号B1"},{"poiid":"B2094757D16FA5FD4492","title":"芭斯罗缤","lon":"121.562273975","lat":"31.2124096439","category":"500","category_name":"未知分类","address":"上海嘉里城"},{"poiid":"B2094655D26BA3F4449A","title":"汤臣集团健身中心","lon":"121.57638","lat":"31.21114","category":"221","category_name":"健身中心","address":"浦东新区龙东大道1号"},{"poiid":"B2094654DA6AA7FA4699","title":"洗车房(黑松路)","lon":"121.57529","lat":"31.22793","category":"156","category_name":"洗车场","address":""},{"poiid":"B2094654DA69A1FE469C","title":"仁恒河滨城(西门)","lon":"121.56637","lat":"31.22726","category":"656","category_name":"大门","address":"丁香路1599弄"},{"poiid":"B2094757D16FABFA409D","title":"城市艺术季","lon":"121.573791","lat":"31.22919","category":"500","category_name":"未知分类","address":"上海柳杉路99弄"},{"poiid":"B2094757D164A0F84093","title":"建设银行联洋支行","lon":"121.564383","lat":"31.228629","category":"150","category_name":"银行","address":"上海丁香路1418号"},{"poiid":"B2094757D169A7F5489B","title":"新秀丽浦东嘉里城店","lon":"121.56230037","lat":"31.21185763","category":"500","category_name":"未知分类","address":"上海芳甸路1155号二楼L222"},{"poiid":"B2094655D26DAAF8489F","title":"仁恒河滨城(东门)","lon":"121.56955","lat":"31.228","category":"656","category_name":"大门","address":""},{"poiid":"B2094757D56EA6F8469C","title":"抢票2011亚瑟小子上海演唱会活动签到","lon":"121.567762","lat":"31.228766","category":"248","category_name":"生活娱乐","address":"活动地标"},{"poiid":"B2094654DA69A1FE479A","title":"水清木华(东门)","lon":"121.5624","lat":"31.22496","category":"656","category_name":"大门","address":""},{"poiid":"B2094655D268A1F44998","title":"水清木华(南门)","lon":"121.56134","lat":"31.22358","category":"656","category_name":"大门","address":""},{"poiid":"B2094757D16EA2FA4193","title":"乐宁教育(大拇指校区)","lon":"121.562614365","lat":"31.2269595657","category":"260","category_name":"其他","address":"上海迎春路1275号(紫槐路)"},{"poiid":"B2094654DA69A1FE469D","title":"浦东虹桥花园(北门)","lon":"121.56378","lat":"31.22699","category":"656","category_name":"大门","address":"锦绣路300弄1-37号"},{"poiid":"B2094654DA69A1FE4692","title":"浦东虹桥花园(西门)","lon":"121.56239","lat":"31.22584","category":"656","category_name":"大门","address":"锦绣路300弄1-37号"},{"poiid":"B2094655D268A4FF489B","title":"仁恒河滨城(侧门)","lon":"121.56558","lat":"31.22889","category":"656","category_name":"大门","address":""}]