[{"poiid":"B2094757D069A3FB4798","title":"四平路临平北路","lon":"121.4908431","lat":"31.264171","category":"260","category_name":"其他","address":"上海虹口区四平路临平北路"},{"poiid":"B2094757D06EAAFB4398","title":"邮电新村地铁站","lon":"121.49450107","lat":"31.268612797","category":"36","category_name":"地铁站","address":"上海轨道交通 十号线 轨交邮电新村站 10"},{"poiid":"B2094757D06FABFD459D","title":"荣欣大厦","lon":"121.490138","lat":"31.26684","category":"252","category_name":"楼宇机构","address":"上海市四川北路1851号"},{"poiid":"B2094751D56CABF8409A","title":"上海大饭堂(四平路店)","lon":"121.49058","lat":"31.26357","category":"76","category_name":"上海菜","address":"虹口区四平路216号新能源大厦内(近临平北路)"},{"poiid":"B2094654D56DAAF4449D","title":"上海市地方税务局虹口区分局","lon":"121.49301","lat":"31.26348","category":"250","category_name":"公园户外","address":"虹口区临平北路35号"},{"poiid":"B2094655D26AAAFD4492","title":"上海莫泰168连锁酒店四平路店","lon":"121.49122","lat":"31.26606","category":"250","category_name":"公园户外","address":"上海市虹口区四平路333号（近四达路）"},{"poiid":"B2094757D069AAF9479B","title":"老盛昌苏州汤包馆(临平店)","lon":"121.49756","lat":"31.26158","category":"68","category_name":"快餐厅","address":"虹口区临平路333号瑞虹新城正门旁(近天宝路)"},{"poiid":"B2094757D06BAAF4409F","title":"巨麦KTV","lon":"121.4916901","lat":"31.264270293","category":"170","category_name":"KTV","address":"虹口区物华路300号(近四平路)"},{"poiid":"B2094654DB6BA3F84993","title":"致真酒家 虹口店 Sincere Restaurant","lon":"121.490685054","lat":"31.263551793","category":"76","category_name":"上海菜","address":"虹口区四平路208号(近物华路)"},{"poiid":"B2094654D56DAAF44592","title":"渡边国际商务楼","lon":"121.49254932887084","lat":"31.263657606365875","category":"46","category_name":"楼宇","address":"上海市虹口区临平北路55号"},{"poiid":"B2094757D66AA5FD4793","title":"次郎日式快餐 四平店","lon":"121.49134445846","lat":"31.265653123995","category":"68","category_name":"快餐厅","address":"虹口区四平路170号(近溧阳路)"},{"poiid":"B2094757D06FABF9409F","title":"虹口区青少年活动中心","lon":"121.48973131","lat":"31.265364815","category":"260","category_name":"其他","address":"虹口区欧阳路67号(近四平路)"},{"poiid":"B2094757D06AAAF54798","title":"欧洲花园","lon":"121.492105","lat":"31.26443","category":"47","category_name":"住宅区","address":"上海临平北路89弄"},{"poiid":"B2094654D56DABF5439E","title":"银欣花苑","lon":"121.49253","lat":"31.262911","category":"47","category_name":"住宅区","address":"临平北路36-58号,60弄1-8号"},{"poiid":"B2094654D56DABF5469E","title":"盛泰国际大厦","lon":"121.49125","lat":"31.26289","category":"46","category_name":"楼宇","address":"上海市虹口区四平路200号"},{"poiid":"B2094654D56CA7FE4392","title":"龙邸大厦","lon":"121.495557","lat":"31.266546","category":"46","category_name":"楼宇","address":"徐汇区田林路388号"},{"poiid":"B2094757D068A1F5469B","title":"中国建设银行(临平路支行)","lon":"121.49348","lat":"31.26289","category":"150","category_name":"银行","address":"虹口区临平北路12号(临平北路临平路)"},{"poiid":"B2094757D169A5FF439E","title":"知茵坊","lon":"121.4891937","lat":"31.266933649","category":"76","category_name":"上海菜","address":"虹口区欧阳路196弄22-23号"},{"poiid":"B2094757D06BA0FC429E","title":"玛萨SPA专业美容香熏生活馆(旗舰店)","lon":"121.4926","lat":"31.26603","category":"149","category_name":"洗浴推拿场所","address":"上海虹口区四平路293号(近临平路)  "},{"poiid":"B2094757D164A7F5469B","title":"瑞虹新城","lon":"121.495373","lat":"31.263544","category":"47","category_name":"住宅区","address":"虹口区临平路333号"},{"poiid":"B2094757D069A3FB459D","title":"一品干锅蛙","lon":"121.48837","lat":"31.26689","category":"71","category_name":"四川菜","address":"虹口区欧阳路196号法兰桥创意园1号楼2楼(近四达路)"},{"poiid":"B2094753D56AA3F84393","title":"五角场","lon":"121.492378","lat":"31.26682","category":"500","category_name":"未知分类","address":"上海市 淞沪路"},{"poiid":"B2094654DB6BA3F9469C","title":"可的","lon":"121.49245","lat":"31.26651","category":"117","category_name":"便民商店/便利店","address":"虹口区四平路324号(近临平北路)"},{"poiid":"B2094654D56DAAF5439C","title":"新陆花苑","lon":"121.49319","lat":"31.266626","category":"47","category_name":"住宅区","address":"莘华世家南园位于闵行莘西南路沁春路口"},{"poiid":"B2094757D16CA3FA4992","title":"同济大学雅憩","lon":"121.49458812","lat":"31.266952489","category":"253","category_name":"校园生活","address":"上海同济大学四平路建筑与城规学苑"},{"poiid":"B2094655D265A1F4479B","title":"新陸花苑(北2号门)","lon":"121.49311","lat":"31.26705","category":"47","category_name":"住宅区","address":"四平路480弄1-2号"},{"poiid":"B2094757D16FA5FE439C","title":"摩斯娜养生堂","lon":"121.4924731","lat":"31.266188333","category":"500","category_name":"未知分类","address":"虹口区欧阳路220号(近鲁迅公园)"},{"poiid":"B2094654D56DAAFC4298","title":"虹诚大厦","lon":"121.49148","lat":"31.263783","category":"47","category_name":"住宅区","address":"上海虹诚大厦位于虹口临平北路88号"},{"poiid":"B2094655D26EA2FB499A","title":"四平路288弄小区","lon":"121.49182","lat":"31.26533","category":"47","category_name":"住宅区","address":"四平路288弄1-12号"},{"poiid":"B2094752DB65ABF5409E","title":"文艺小榴芒","lon":"121.492629","lat":"31.263812","category":"247","category_name":"餐饮美食","address":"上海市 临平路74号"},{"poiid":"B2094757DA64A6F5429B","title":"瑞虹新城铭庭","lon":"121.492920491457","lat":"31.26354000573943","category":"47","category_name":"住宅区","address":"虹口区天宝路181弄"},{"poiid":"B2094757D568ABFA4398","title":"必胜客(临平北路店)","lon":"121.4923239","lat":"31.26388694","category":"68","category_name":"快餐厅","address":"临平北路55号"},{"poiid":"B2094753D66DAAFD4499","title":"寿宁路长寿面馆","lon":"121.492114","lat":"31.264646","category":"247","category_name":"餐饮美食","address":"上海市 寿宁路57号"},{"poiid":"B2094757D16EA2FF469B","title":"8号线曲阳路站","lon":"121.489662103","lat":"31.264428297","category":"500","category_name":"未知分类","address":"上海曲阳路大连路"},{"poiid":"B2094757D16EA0F44493","title":"临平路黑暗料理界烧烤摊","lon":"121.4923931","lat":"31.265231313","category":"500","category_name":"未知分类","address":"上海市虹口区临平路"},{"poiid":"B2094757D16DABFC419B","title":"中国建设银行(四平路支行)","lon":"121.49171","lat":"31.26555","category":"150","category_name":"银行","address":"虹口区四平路337号(四达路四平路)"},{"poiid":"B2094655D26DABF54193","title":"四平路288弄小区(西门)","lon":"121.49156","lat":"31.26538","category":"47","category_name":"住宅区","address":"四平路288弄1-12号"},{"poiid":"B2094757D464AAF4459B","title":"人来人往渡边餐厅","lon":"121.491488054","lat":"31.263898793","category":"68","category_name":"快餐厅","address":"虹口区临平北路55号渡边国际商务楼东侧附楼B1楼(近银欣路)"},{"poiid":"B2094655D269AAF4409F","title":"锦江之星海伦路店","lon":"121.49014","lat":"31.26358","category":"247","category_name":"餐饮美食","address":"虹口区四平路285号(近物华路)"},{"poiid":"B2094757D06FA6F84899","title":"四平路临平北路公交车站","lon":"121.49063873","lat":"31.264434814","category":"38","category_name":"公交车站","address":"上海四平路311号"},{"poiid":"B2094654D56DAAF5419C","title":"正润欧洲花园","lon":"121.4921","lat":"31.264429","category":"47","category_name":"住宅区","address":"临平北路89弄1-23号"},{"poiid":"B2094757D068A7FA469B","title":"全家便利(临平北路店)","lon":"121.492041","lat":"31.263542","category":"117","category_name":"便民商店/便利店","address":"上海虹口区临平北路53号"},{"poiid":"B2094654DB6AA3FB429B","title":"龟兔锅贴包子铺 临平北路店","lon":"121.490890054","lat":"31.264039793","category":"68","category_name":"快餐厅","address":"虹口区临平北路55号(近四平路)"},{"poiid":"B2094654DB6AAAF8499B","title":"国美电器四平路店","lon":"121.49085","lat":"31.26515","category":"138","category_name":"家电电子卖场","address":"虹口区四平路311号(近临平路)"},{"poiid":"B2094757D06AA4F9409C","title":"中国工商银行(四平支行)","lon":"121.4912","lat":"31.26453","category":"150","category_name":"银行","address":"虹口区四平路311号近临平北路(临平北路四平路)"},{"poiid":"B2094757D06AA0FF479C","title":"85度C(欧阳店)","lon":"121.489107","lat":"31.2660613","category":"112","category_name":"糕饼店","address":"虹口区欧阳路196号1号楼1楼4-20室(近吉祥路)"},{"poiid":"B2094757D66DA3FA419C","title":"1933老廠房","lon":"121.4938251","lat":"31.262522257","category":"500","category_name":"未知分类","address":"上海九龍路法拉利俱樂部"},{"poiid":"B2094655D26CA0FF4898","title":"四达路25弄小区(北门)","lon":"121.49127","lat":"31.26681","category":"47","category_name":"住宅区","address":"四达路25弄1-4号"},{"poiid":"B2094654D56CA0F4489C","title":"可颂坊 四平路店 Croissants de France","lon":"121.491196054","lat":"31.265359793","category":"67","category_name":"甜品店","address":"四平路311号近欧阳路"},{"poiid":"B2094654D56DAAFC409E","title":"轻工国际大厦","lon":"121.49073","lat":"31.26304","category":"46","category_name":"楼宇","address":"昌平区回龙观镇国际信息产业基地高新二街"},{"poiid":"B2094757D76CA3F84298","title":"卧云茶敘","lon":"121.493871","lat":"31.268995","category":"66","category_name":"茶艺馆","address":"虹口区曲阳路26号(近四平路)"},{"poiid":"B2094757D169A4F44193","title":"石潭弄","lon":"121.49320327","lat":"31.2650856","category":"500","category_name":"未知分类","address":"上海90弄"},{"poiid":"B2094655D26DA6FA469E","title":"新能源大厦","lon":"121.49106","lat":"31.26382","category":"46","category_name":"楼宇","address":""},{"poiid":"B2094757D66EABFC449E","title":"85c","lon":"121.4939487","lat":"31.265484719","category":"500","category_name":"未知分类","address":"上海临平路333"},{"poiid":"B2094655D26AA4F5429B","title":"玛萨SPA专业美容香熏生活馆曲阳店","lon":"121.49359","lat":"31.26848","category":"247","category_name":"餐饮美食","address":"虹口区曲阳路1号(近四平路)"},{"poiid":"B2094757D66CABFC479D","title":"浦东国际机场T2停车场","lon":"121.489784103","lat":"31.2642642936","category":"21","category_name":"飞机场","address":"上海浦东"},{"poiid":"B2094757D064A2F8489A","title":"上海电信北区电信局四平支局","lon":"121.493195103","lat":"31.2670923527","category":"500","category_name":"未知分类","address":"上海四平路470号"},{"poiid":"B2094655D36CA1F94998","title":"临平北路","lon":"121.49242","lat":"31.2636","category":"38","category_name":"公交车站","address":""},{"poiid":"B2094757D064A0FA459C","title":"自来水市北公司","lon":"121.491512","lat":"31.265033","category":"500","category_name":"未知分类","address":"上海四平路260号"},{"poiid":"B2094654D56DAAF44292","title":"泾东工业园区","lon":"121.49419","lat":"31.26438","category":"45","category_name":"产业园区","address":"泾东路236号"},{"poiid":"B2094757D069A0F4429B","title":"新能源大厦〔四平路临平北路〕","lon":"121.4907","lat":"31.263794","category":"500","category_name":"未知分类","address":"上海四平路216"},{"poiid":"B2094655D26AA4F84198","title":"上海市人才服务中心虹口区分部","lon":"121.49258","lat":"31.26798","category":"247","category_name":"餐饮美食","address":"虹口区四平路421弄20号(近临平路)"},{"poiid":"B2094751D56AABFC4098","title":"康骏会馆","lon":"121.494596","lat":"31.266421","category":"248","category_name":"生活娱乐","address":"临平路133弄13号"},{"poiid":"B2094757D06BA7F44093","title":"永福汤包馆(临平北店)","lon":"121.492221103","lat":"31.2634472765","category":"257","category_name":"中餐厅","address":"上海虹口区临平北路53号(近四平路)"},{"poiid":"B2094757D06BA2F44292","title":"家纺大厦","lon":"121.490373703","lat":"31.2634898774","category":"46","category_name":"楼宇","address":"上海虹口区四平路210号"},{"poiid":"B2094655D26DA5FA419E","title":"新陆花苑(北二门)","lon":"121.49288","lat":"31.26684","category":"656","category_name":"大门","address":"四平路460弄1-2号"},{"poiid":"B2094654D56DAAF4459D","title":"千晨餐馆","lon":"121.49258","lat":"31.26366","category":"257","category_name":"中餐厅","address":"虹口区临平北路(临平北路四平路)"},{"poiid":"B2094750D76DAAF4419B","title":"EHS晶宴西餐厅","lon":"121.492","lat":"31.2624","category":"94","category_name":"西餐厅","address":"虹口区物华路288号2号楼1楼爱家国际大厦内(近临平路)"},{"poiid":"B2094654D56DAAF4449C","title":"海高苑","lon":"121.49365","lat":"31.263735","category":"47","category_name":"住宅区","address":"海高苑位于虹口临平北路5弄"},{"poiid":"B2094757D16BA6F5449F","title":"四达路25弄","lon":"121.491079","lat":"31.266557","category":"252","category_name":"楼宇机构","address":"四达路25弄1-4号"},{"poiid":"B2094757D56CA0FC429B","title":"甜蜜生活 虹口店","lon":"121.498579054","lat":"31.261225793","category":"247","category_name":"餐饮美食","address":"临平路123号瑞虹生活广场1-16号近瑞虹路"},{"poiid":"B2094655D269AAF4469B","title":"姬莲娜","lon":"121.49047","lat":"31.26478","category":"247","category_name":"餐饮美食","address":"虹口区四平路311号恒城花苑甲座405(近临平路)"},{"poiid":"B2094654DB6AA3FE4893","title":"上海市地方税务局虹口区第四税务所","lon":"121.49305","lat":"31.26347","category":"250","category_name":"公园户外","address":"虹口区临平北路35号"},{"poiid":"B2094654DB69A5F44698","title":"必胜宅急送(临平店)","lon":"121.4927","lat":"31.26359","category":"68","category_name":"快餐厅","address":"虹口区临平北路55号"},{"poiid":"B2094654D56CA7FF4799","title":"上海市虹口公证处","lon":"121.4928","lat":"31.26815","category":"250","category_name":"公园户外","address":"四平路421弄20号民通科技大楼"},{"poiid":"B2094654D56CA0FB449C","title":"虹口区第三中心小学分部","lon":"121.49035","lat":"31.26765","category":"56","category_name":"小学","address":"四达路96"},{"poiid":"B2094654DB6AA3F9449D","title":"文锦桂林米粉 临平北路店","lon":"121.491577054","lat":"31.263880793","category":"247","category_name":"餐饮美食","address":"虹口区临平北路53号(近四平路)"},{"poiid":"B2094655D264A1FE4593","title":"临平北路50号商务楼","lon":"121.49241","lat":"31.26336","category":"46","category_name":"楼宇","address":"临平北路50"},{"poiid":"B2094757D16DABFF459D","title":"俊峰美容美发","lon":"121.492327","lat":"31.263886","category":"148","category_name":"美容美发店","address":"虹口区临平北路"},{"poiid":"B2094757D165A1FF4392","title":"伊人美甲","lon":"121.4914921","lat":"31.263871285","category":"148","category_name":"美容美发店","address":"虹口区临平北路92号(近四平路)"},{"poiid":"B2094757D16CA0FE439C","title":"世博花园二期 馥敦坊","lon":"121.490123743","lat":"31.2679906114","category":"47","category_name":"住宅区","address":"上海市虹口区四达路58弄"},{"poiid":"B209475CDA6AA5FC4593","title":"许留山（瑞虹店）","lon":"121.494926","lat":"31.26576","category":"500","category_name":"未知分类","address":"上海市 上海市虹口区临平路123号瑞虹生活广场1楼"},{"poiid":"B2094654D56DAAF4459B","title":"避风塘临平店","lon":"121.4927","lat":"31.26359","category":"111","category_name":"休闲餐饮场所","address":"虹口区临平北路55号来伊份旁(近银欣路)"},{"poiid":"B2094757D568A5FA449F","title":"润迅易卖得瑞虹店(外场)","lon":"121.49276","lat":"31.263585","category":"162","category_name":"医院","address":"临平路133号"},{"poiid":"B2094655D265A7F8479F","title":"飞利浦国美四平路店","lon":"121.49046","lat":"31.26448","category":"138","category_name":"家电电子卖场","address":"四平路311号"},{"poiid":"B2094655D26CA1FA4098","title":"四达路99弄小区","lon":"121.49016","lat":"31.26697","category":"47","category_name":"住宅区","address":"四达路99弄1-10号"},{"poiid":"B2094655D26EA3FD489B","title":"华虹公寓","lon":"121.49435","lat":"31.26919","category":"47","category_name":"住宅区","address":"上海市虹口区曲阳路58弄"},{"poiid":"B2094757D06FA4FD439E","title":"余庆坊","lon":"121.491","lat":"31.2679","category":"500","category_name":"未知分类","address":"上海虹口区四川北路1906号"},{"poiid":"B2094655D26FA0FA4898","title":"宏祥花苑","lon":"121.49262","lat":"31.26956","category":"47","category_name":"住宅区","address":"宏祥花苑位于虹口曲阳路69弄"},{"poiid":"B2094757D064A1FD439F","title":"联华生活馆","lon":"121.49056","lat":"31.26351","category":"118","category_name":"超级市场","address":"虹口区四平路287号(近临平北路)"},{"poiid":"B2094757D064AAF5409D","title":"张桥路","lon":"121.49424333","lat":"31.26408878","category":"500","category_name":"未知分类","address":"上海老房子"},{"poiid":"B2094757D165ABF8419A","title":"凯蒂美甲屋","lon":"121.49072503","lat":"31.26698423","category":"148","category_name":"美容美发店","address":"虹口区欧阳路196号法兰桥创意园步行街(四达路口)"},{"poiid":"B2094757D164A2FB4193","title":"必勝宅急送","lon":"121.489606103","lat":"31.2659543289","category":"247","category_name":"餐饮美食","address":"上海市虹口区歐陽路"},{"poiid":"B2094654D56DAAF44492","title":"上海市虹口区国家税务局","lon":"121.49301","lat":"31.26348","category":"250","category_name":"公园户外","address":"临平北路35"},{"poiid":"B2094655D26CA0F9429F","title":"四达路99弄小区(西门)","lon":"121.48992","lat":"31.26693","category":"47","category_name":"住宅区","address":"四达路99弄1-10号"},{"poiid":"B2094757D16DABFB449D","title":"中国移动临平北路营业厅","lon":"121.491884103","lat":"31.2634872773","category":"150","category_name":"银行","address":"上海市虹口区临平北路55号"},{"poiid":"B2094654D56DAAFC439E","title":"虹口科技大楼","lon":"121.49308","lat":"31.26308","category":"46","category_name":"楼宇","address":"临平北路28"},{"poiid":"B2094654DB6BA3F9409B","title":"永琪美容美发(临平路)","lon":"121.49367","lat":"31.26285","category":"148","category_name":"美容美发店","address":"临平北路8"},{"poiid":"B2094655D26CA0FF429E","title":"新陆花苑(北一门)","lon":"121.49311","lat":"31.26708","category":"656","category_name":"大门","address":"四平路480弄1-2号"},{"poiid":"B2094655D26EA6FD4993","title":"姬莲娜婚纱礼服定制馆","lon":"121.49049","lat":"31.26446","category":"141","category_name":"服装鞋帽皮具店","address":"虹口区四平路311号恒城花苑甲座405"},{"poiid":"B2094757D165A2FC4793","title":"家门口","lon":"121.491037103","lat":"31.2643725958","category":"500","category_name":"未知分类","address":null},{"poiid":"B2094654DB6AA3FE499E","title":"上海市地方税务局虹口区第三税务所","lon":"121.49305","lat":"31.26347","category":"250","category_name":"公园户外","address":"虹口区临平北路35号"},{"poiid":"B2094753D265A3FD479A","title":"岳阳医院","lon":"121.493512","lat":"31.263159","category":"162","category_name":"医院","address":"上海市 甘河路110号"},{"poiid":"B2094654D56CA7FD4993","title":"玛萨SPA专业美容香薰生活馆旗舰店","lon":"121.49032","lat":"31.26389","category":"148","category_name":"美容美发店","address":"四平路293"},{"poiid":"B2094757D164A1F94498","title":"临平北路四平路","lon":"121.493655","lat":"31.263735","category":"500","category_name":"未知分类","address":"上海临平北路5弄海高苑"},{"poiid":"B2094757D068A1FB479E","title":"宁来疯桌游吧","lon":"121.49114555","lat":"31.266924018","category":"175","category_name":"棋牌室","address":"虹口区四平路SVA世博花园29号702室(近曲阳路)"},{"poiid":"B2094757D169AAF94992","title":"嘉兴社区文化活动中心","lon":"121.494379","lat":"31.263749","category":"500","category_name":"未知分类","address":"虹口区新港路317号(近四平路)"},{"poiid":"B2094655D26DA5FB469E","title":"好德便利No.261","lon":"121.48945","lat":"31.26476","category":"117","category_name":"便民商店/便利店","address":"欧阳路12"},{"poiid":"B2094654D56CA7FF489D","title":"曲阳公寓","lon":"121.49335","lat":"31.268833","category":"47","category_name":"住宅区","address":"曲阳路31号"},{"poiid":"B2094757D168A6FA499D","title":"FamilyMart全家","lon":"121.491552","lat":"31.263074","category":"247","category_name":"餐饮美食","address":"上海临平北路53号"},{"poiid":"B2094655D26CA1FA409B","title":"SVA世博花园(东门)","lon":"121.4922","lat":"31.26719","category":"656","category_name":"大门","address":""},{"poiid":"B2094757D168A3FB439C","title":"天星精品婚纱摄影","lon":"121.4943141","lat":"31.267656364","category":"249","category_name":"购物服务","address":"上海市虹口区四平路494弄9号楼"},{"poiid":"B2094757D16CA1F4469F","title":"市北自来水","lon":"121.49161009","lat":"31.2635034402","category":"500","category_name":"未知分类","address":"上海四平路206"},{"poiid":"B2094654D56DAAFC429C","title":"大朵(临平北路)","lon":"121.49223","lat":"31.26345","category":"141","category_name":"服装鞋帽皮具店","address":"临平北路58号丙"},{"poiid":"B2094757D164ABFC4193","title":"中信银行","lon":"121.4922486","lat":"31.26365478","category":"150","category_name":"银行","address":"上海四平路204号"},{"poiid":"B2094654D56CA7FF4492","title":"恒城花苑(东门)","lon":"121.49114","lat":"31.26576","category":"656","category_name":"大门","address":"四平路311号"},{"poiid":"B2094655D36CA3F84193","title":"玛萨养生美容专家曲阳店","lon":"121.49365","lat":"31.2687","category":"148","category_name":"美容美发店","address":"曲阳路1号"},{"poiid":"B2094655D26DAAFB409F","title":"虹临花园","lon":"121.49","lat":"31.263592","category":"47","category_name":"住宅区","address":"四平路283号"},{"poiid":"B2094654DB6BA3F9479A","title":"上海市虹口区张桥路小学","lon":"121.49562","lat":"31.26782","category":"56","category_name":"小学","address":"虹口区张桥路301号(曲阳路四平路)"},{"poiid":"B2094757D16EA2F8419B","title":"careme","lon":"121.49145876","lat":"31.263915972","category":"500","category_name":"未知分类","address":"上海临平北路59"},{"poiid":"B2094655D26FA0FD489F","title":"SVA世博花园(南一门)","lon":"121.49138","lat":"31.26698","category":"656","category_name":"大门","address":"四达路58弄"},{"poiid":"B2094654D56CA0F4429A","title":"佐登妮丝美容生活馆四平店","lon":"121.48908","lat":"31.26547","category":"148","category_name":"美容美发店","address":"欧阳路76"},{"poiid":"B2094757D065A1FD4098","title":"临平路邮政支局","lon":"121.49253601","lat":"31.263342102","category":"252","category_name":"楼宇机构","address":"上海虹口区临平北路36号(近香烟桥路)"},{"poiid":"B2094655D26BA3FB499C","title":"名典咖啡语茶四平路店","lon":"121.49113","lat":"31.2629","category":"260","category_name":"其他","address":"虹口区四平路200号(近物华路)"},{"poiid":"B2094757D16AA3F8459A","title":"雅曼妮养生会馆(临平路店)","lon":"121.49269","lat":"31.2631","category":"148","category_name":"美容美发店","address":"上海虹口区临平北路50号(近四平路)  "},{"poiid":"B2094654DB6BA3F8499C","title":"罗森物华路店","lon":"121.49123","lat":"31.26278","category":"117","category_name":"便民商店/便利店","address":""},{"poiid":"B2094655D26FA0FA489B","title":"曲阳公寓(东门)","lon":"121.49343","lat":"31.26896","category":"47","category_name":"住宅区","address":"曲阳路31"},{"poiid":"B2094655D26AA5FA4993","title":"SuperFoodsMarket","lon":"121.49113","lat":"31.2629","category":"247","category_name":"餐饮美食","address":"虹口区四平路200号(近物华路)"},{"poiid":"B209475DD06DA5F9479A","title":"齐云山庄","lon":"121.491188","lat":"31.268463","category":"500","category_name":"未知分类","address":"上海市 欧阳路196号，法兰桥20楼"},{"poiid":"B2094757D16AA0FF4298","title":"597临平站","lon":"121.492482363","lat":"31.263422006","category":"500","category_name":"未知分类","address":"上海临平北路四平路"},{"poiid":"B2094654D56DABF5439C","title":"虹临东园外贸小区","lon":"121.4912","lat":"31.26322","category":"47","category_name":"住宅区","address":"嘉兴路"},{"poiid":"B2094757D16DA1FA489A","title":"信云舞蹈培训","lon":"121.4908153730164","lat":"31.26371456092127","category":"253","category_name":"校园生活","address":"虹口区四平路210号24楼A座（家纺大厦）"},{"poiid":"B2094757D165A1F4439E","title":"人来人往面馆","lon":"121.4934691","lat":"31.262510256","category":"247","category_name":"餐饮美食","address":"上海虹口区临平北路53号渡边商务楼旁"},{"poiid":"B2094757D66CA3FD469D","title":"渡边商务大厦","lon":"121.4920401","lat":"31.263537278","category":"252","category_name":"楼宇机构","address":"上海临平北路55号"},{"poiid":"B2094655D26DA4F4419F","title":"SVA世博花园(北门)","lon":"121.49246","lat":"31.26766","category":"656","category_name":"大门","address":""},{"poiid":"B2094757D06AA2F5419F","title":"中国农业银行(曲阳支行)","lon":"121.49462","lat":"31.26863","category":"150","category_name":"银行","address":"虹口区曲阳路2号(曲阳路四平路)"},{"poiid":"B2094757D569A0F8469B","title":"上海香侬虹口店","lon":"121.4936589","lat":"31.26373806","category":"249","category_name":"购物服务","address":"临平北路5弄1号"},{"poiid":"B2094654D56CA0F4419D","title":"上海虹口区志汇鸿食品店","lon":"121.48911","lat":"31.26543","category":"117","category_name":"便民商店/便利店","address":""},{"poiid":"B2094654D56DAAFC419D","title":"中国光大银行(四平路)","lon":"121.49095","lat":"31.2636","category":"150","category_name":"银行","address":"四平路210号家纺大厦"},{"poiid":"B2094757D16EABF94098","title":"税务局","lon":"121.493736103","lat":"31.262897265","category":"500","category_name":"未知分类","address":"上海市虹口区欧阳路"},{"poiid":"B2094654D56CA7FF4598","title":"上海虹房(集团)有限公司","lon":"121.4936","lat":"31.26844","category":"263","category_name":"公司","address":"曲阳路1号华西证券大厦4-7层"},{"poiid":"B2094654D56DAAFC4399","title":"金殿苑","lon":"121.49349","lat":"31.262743","category":"47","category_name":"住宅区","address":"临平北路2号"},{"poiid":"B2094655D26FA3FB459C","title":"易经堂足浴(曲阳店)","lon":"121.49359","lat":"31.26848","category":"149","category_name":"洗浴推拿场所","address":"虹口区曲阳路1号2楼"},{"poiid":"B2094757D164A0FD449F","title":"公积金中心","lon":"121.492614","lat":"31.263246","category":"500","category_name":"未知分类","address":"上海临平路"},{"poiid":"B2094757D069A4FB409E","title":"123路四平路站","lon":"121.49297945","lat":"31.263276072","category":"500","category_name":"未知分类","address":"上海四平路临平路"},{"poiid":"B2094757D66FA2F4459D","title":"佐登妮丝(曲阳店)","lon":"121.4942","lat":"31.26829","category":"148","category_name":"美容美发店","address":"虹口区曲阳路163号(近四平路)"},{"poiid":"B2094654D56CA0FB4798","title":"上海神东船务有限公司","lon":"121.48952","lat":"31.2659","category":"263","category_name":"公司","address":"上海市虹口区欧阳路85号金陵国际大厦"},{"poiid":"B2094757D165AAF4409F","title":"华浦教育","lon":"121.489415","lat":"31.266284","category":"500","category_name":"未知分类","address":"上海牡丹江路1760号文化馆二楼"},{"poiid":"B2094654DB6AAAF8499E","title":"中国民生银行24小时自助银行(四平路)","lon":"121.49365","lat":"31.26836","category":"152","category_name":"ATM","address":""},{"poiid":"B2094654D56DAAFC4393","title":"佰仟代服饰","lon":"121.49345","lat":"31.26292","category":"141","category_name":"服装鞋帽皮具店","address":"虹口区临平北路10号查看地图"},{"poiid":"B2094757D165AAF84892","title":"中国移动通信营业厅","lon":"121.49211108","lat":"31.263851609","category":"260","category_name":"其他","address":"上海临平北路59号"},{"poiid":"B2094757D068A3F54392","title":"长春公寓","lon":"121.491","lat":"31.2689","category":"500","category_name":"未知分类","address":"上海市虹口区长春路"},{"poiid":"B2094654D56CA0FB479A","title":"上海洪亮物流有限公司","lon":"121.48951","lat":"31.2659","category":"248","category_name":"生活娱乐","address":"欧阳路85号金陵国际大厦24层"},{"poiid":"B2094654DB6BA3F9469F","title":"正润欧洲花园(东门)","lon":"121.49291","lat":"31.264","category":"656","category_name":"大门","address":""},{"poiid":"B2094654DB6BA3F9459D","title":"海高苑(南门)","lon":"121.49353","lat":"31.26338","category":"48","category_name":"楼宇大门","address":"临平北路5弄1-4号"},{"poiid":"B2094655D26FA0F4429C","title":"正润欧洲花园(西门)","lon":"121.49203","lat":"31.26393","category":"656","category_name":"大门","address":"临平北路89弄1-23号"},{"poiid":"B2094655D26CA0FD439C","title":"SVA世博花园(南二门)","lon":"121.49047","lat":"31.26719","category":"656","category_name":"大门","address":""},{"poiid":"B2094654D56DABF5449A","title":"上海汉万国际物流有限公司","lon":"121.49125","lat":"31.2629","category":"263","category_name":"公司","address":"四平路200号盛泰国际大厦14层"},{"poiid":"B2094757D065A2FE409D","title":"上海天龙外贸航空","lon":"121.4939461","lat":"31.262782262","category":"500","category_name":"未知分类","address":"上海市虹口区临平北路5弄1号"},{"poiid":"B2094654D56DAAFC4498","title":"捷捷宠物诊所","lon":"121.4942","lat":"31.26271","category":"668","category_name":"诊所","address":"虹口区临平路304号(泾东路太平桥支路)"},{"poiid":"B2094655D26FA1F54699","title":"金陵国际大厦(西二门)","lon":"121.4893","lat":"31.26614","category":"656","category_name":"大门","address":"欧阳路85"},{"poiid":"B2094655D26FA0FA4598","title":"恒城花苑(南门)","lon":"121.49023","lat":"31.26451","category":"656","category_name":"大门","address":"四平路311号"},{"poiid":"B2094655D26FA7F54692","title":"金陵国际大厦(西一门)","lon":"121.48955","lat":"31.26561","category":"656","category_name":"大门","address":""},{"poiid":"B2094654D56DABF5459B","title":"上海锦达进出口有限公司","lon":"121.49125","lat":"31.2629","category":"263","category_name":"公司","address":"四平路200号盛泰国际大厦19层"},{"poiid":"B2094655D26DABFB499A","title":"瑞虹新城一期(北一门)","lon":"121.49555","lat":"31.26444","category":"656","category_name":"大门","address":""},{"poiid":"B2094655D26FA7F94198","title":"新文苑(东一门)","lon":"121.48934","lat":"31.2649","category":"656","category_name":"大门","address":"欧阳路28弄1-6号"},{"poiid":"B2094757D16EA2FE449E","title":"天空之城","lon":"121.496288169","lat":"31.2659786183","category":"260","category_name":"其他","address":"上海乾鴻苑2樓"},{"poiid":"B2094655D26DAAF94198","title":"银欣花苑(西门)","lon":"121.49174","lat":"31.263","category":"656","category_name":"大门","address":"临平北路60弄1-8号"},{"poiid":"B2094655D26CA0FF4899","title":"虹临花园(北门)","lon":"121.48995","lat":"31.26416","category":"656","category_name":"大门","address":""},{"poiid":"B2094654D56EA0FF4898","title":"银欣花苑(东门)","lon":"121.49282","lat":"31.26258","category":"656","category_name":"大门","address":"临平北路60弄1-8号"},{"poiid":"B2094654D56EA0FF4792","title":"绿洲紫荆花园(东门)","lon":"121.49007","lat":"31.2681","category":"656","category_name":"大门","address":""},{"poiid":"B2094655D26CA0FD439E","title":"SVA世博花园(西门)","lon":"121.4907","lat":"31.26866","category":"656","category_name":"大门","address":""},{"poiid":"B2094757D168A4FA439B","title":"利强记北角鸡蛋仔(港晶中心店)","lon":"121.490647898","lat":"31.2631059767","category":"260","category_name":"其他","address":"香港尖沙咀加连威老道100号港晶中心地下  "},{"poiid":"B2094654DB6AAAF8479B","title":"新文苑(东二门)","lon":"121.48917","lat":"31.26529","category":"656","category_name":"大门","address":""},{"poiid":"B2094655D26CA1FA429C","title":"虹临东园外贸小区(东门)","lon":"121.49147","lat":"31.26308","category":"656","category_name":"大门","address":""},{"poiid":"B2094655D26CA1FF4798","title":"银欣花苑(东二门)","lon":"121.4928","lat":"31.26285","category":"656","category_name":"大门","address":""},{"poiid":"B2094655D26CA1F94193","title":"虹临东园外贸小区(西门)","lon":"121.49072","lat":"31.26331","category":"656","category_name":"大门","address":"四平路208"},{"poiid":"B2094655D26DA5FC4698","title":"银欣花苑(东一门)","lon":"121.49282","lat":"31.26258","category":"656","category_name":"大门","address":"临平北路60弄1-8号"},{"poiid":"B2094655D26CA1F5429D","title":"金殿苑(北门)","lon":"121.49375","lat":"31.26281","category":"656","category_name":"大门","address":"临平北路2号"},{"poiid":"B2094655D26FA1FB459D","title":"金殿苑(西门)","lon":"121.49314","lat":"31.26266","category":"656","category_name":"大门","address":"临平北路2号"},{"poiid":"B2094654DB6AAAF8499F","title":"宏祥花苑(东一门)","lon":"121.49309","lat":"31.26956","category":"656","category_name":"大门","address":"曲阳路69弄1-9号"},{"poiid":"B2094655D26FA6FC439F","title":"虹临东园外贸小区(南门)","lon":"121.49092","lat":"31.26281","category":"656","category_name":"大门","address":""}]