[{"poiid":"B2094757D06EAAFD4093","title":"铜川路炸猪排","lon":"121.37832","lat":"31.25411","category":"68","category_name":"快餐厅","address":"普陀区铜川路2555弄嘉秀坊门口处(近安边路)"},{"poiid":"B2094655D26BA2FF449A","title":"铜川路万镇路","lon":"121.37869","lat":"31.25432","category":"38","category_name":"公交车站","address":""},{"poiid":"B2094655D26EA1F5419E","title":"阳光威尼斯(提香湾)","lon":"121.37471033527845","lat":"31.26017739566505","category":"47","category_name":"住宅区","address":"普陀区祁连山南路2727弄"},{"poiid":"B2094750DB6DABFA439A","title":"谈阿姨炸猪排","lon":"121.379821","lat":"31.254615","category":"68","category_name":"快餐厅","address":"嘉定区丰庄路(肯德基对面)"},{"poiid":"B2094757D068A0FD439E","title":"新世界生活广场","lon":"121.375626","lat":"31.258542","category":"119","category_name":"商场","address":"嘉定区曹安公路2378号(近华江支路沃尔玛)"},{"poiid":"B2094655D36CA6FE419E","title":"高陵路铜川路","lon":"121.38285","lat":"31.25443","category":"38","category_name":"公交车站","address":""},{"poiid":"B2094757D068A6F8459A","title":"新王府酒店(祁连山店)","lon":"121.3728","lat":"31.25293","category":"72","category_name":"广东菜","address":"嘉定区祁连山南路2199号(近曹安路口)"},{"poiid":"B2094654DB65A4FD469E","title":"真光新村第四小区","lon":"121.38151","lat":"31.25481","category":"47","category_name":"住宅区","address":"铜川路2060弄1-156号"},{"poiid":"B2094757D068A2FE4293","title":"有山有水山里人家铜川路","lon":"121.38327767","lat":"31.25333347","category":"87","category_name":"特色／地方风味餐厅","address":"普陀区铜川路1819号(真光路口)"},{"poiid":"B2094757D06FA7FC449F","title":"昆仑花苑","lon":"121.38119895","lat":"31.260967887","category":"47","category_name":"住宅区","address":"昆仑花苑位于普陀桃浦路1149弄"},{"poiid":"B2094757D068A5FA489C","title":"嘉利坊","lon":"121.37836","lat":"31.255146","category":"500","category_name":"未知分类","address":"上海市嘉定区祁连山南路"},{"poiid":"B2094655D26FA1FB4892","title":"阳光威尼斯AB区(东门)","lon":"121.37495","lat":"31.26017","category":"656","category_name":"大门","address":"祁连山南路2727弄"},{"poiid":"B2094654D46BA6FF4998","title":"嘉善坊","lon":"121.37454","lat":"31.25315","category":"47","category_name":"住宅区","address":"卢湾区陕西南路550弄37号(近绍兴路)"},{"poiid":"B2094757D06EAAFF4292","title":"蔡先生苏州汤包馆","lon":"121.38181","lat":"31.25131","category":"68","category_name":"快餐厅","address":"普陀区高陵路11号(近真光路)"},{"poiid":"B2094654D46BA6FE4798","title":"安盛苑","lon":"121.37709","lat":"31.258755","category":"47","category_name":"住宅区","address":"双河路437弄"},{"poiid":"B2094757D469A5F94698","title":"湘府酒楼 双河路店","lon":"121.37894","lat":"31.26103","category":"77","category_name":"湖南菜","address":"普陀区双河路588号(桃浦路口)"},{"poiid":"B2094757D16AA0F8419E","title":"铜川路一品香特色炸猪排","lon":"121.37807495","lat":"31.2542867599","category":"247","category_name":"餐饮美食","address":"上海铜川路万镇路 嘉里坊门口"},{"poiid":"B2094655D36CA1FE449A","title":"双河路金鼎路","lon":"121.37741","lat":"31.25732","category":"38","category_name":"公交车站","address":""},{"poiid":"B2094654D46BA6FF419E","title":"香樟苑(桃浦路)","lon":"121.37712","lat":"31.26046","category":"47","category_name":"住宅区","address":"桃浦路1341弄1-152号"},{"poiid":"B2094757D068A7F5479F","title":"嘉美坊","lon":"121.3754","lat":"31.255497","category":"500","category_name":"未知分类","address":"上海铜川路2288弄"},{"poiid":"B2094654D46BA6FE469F","title":"鑫园热气羊肉馆","lon":"121.37792","lat":"31.25831","category":"86","category_name":"火锅店","address":"普陀区双河路金鼎路(近祁连山路)"},{"poiid":"B2094654DB65A0F4409A","title":"嘉利坊(南门)","lon":"121.37792","lat":"31.25448","category":"47","category_name":"住宅区","address":"铜川路2188弄"},{"poiid":"B2094757D06BA7FA439B","title":"董大师金牌稻香蛙","lon":"121.37847177","lat":"31.258619864","category":"71","category_name":"四川菜","address":"普陀区双河路451号(近桃浦路)"},{"poiid":"B2094757D069A3FB4498","title":"真光五街坊","lon":"121.38059","lat":"31.253047","category":"47","category_name":"住宅区","address":"上海铜川路2059弄"},{"poiid":"B2094654D46BA6FE469C","title":"阿三烧鸡公 双河路店","lon":"121.377850054","lat":"31.258145793","category":"71","category_name":"四川菜","address":"嘉定区双河路456号(金鼎路双河路)"},{"poiid":"B2094757D068A4F9499B","title":"真光四街坊","lon":"121.38202595","lat":"31.2537378794","category":"47","category_name":"住宅区","address":"上海铜川路2060弄"},{"poiid":"B2094655D26CA2F4459A","title":"帮帮酒家","lon":"121.38001","lat":"31.2546","category":"257","category_name":"中餐厅","address":"普陀区万镇路(近铜川路)"},{"poiid":"B2094757D068ABF5459C","title":"嘉泰花园","lon":"121.38","lat":"31.2536","category":"47","category_name":"住宅区","address":"上海梅川路1725弄"},{"poiid":"B2094654D465A3FE409A","title":"吉吉热气羊肉馆","lon":"121.383051054","lat":"31.255287793","category":"86","category_name":"火锅店","address":"普陀区高陵路191号(铜川路)"},{"poiid":"B2094757D16DA7FB439D","title":"嘉利小吃","lon":"121.37984","lat":"31.2538","category":"68","category_name":"快餐厅","address":"普陀区铜川路(近万镇路)"},{"poiid":"B2094654DB6AA4FF4498","title":"真新小吃店","lon":"121.37667","lat":"31.25436","category":"68","category_name":"快餐厅","address":"普陀区铜川路2255号(近双河路)"},{"poiid":"B2094654DB65A7FD419E","title":"双河绿地","lon":"121.37899","lat":"31.25675","category":"196","category_name":"公园","address":""},{"poiid":"B2094654D46BA6FD489B","title":"祁连社区","lon":"121.376","lat":"31.2547","category":"47","category_name":"住宅区","address":"丰庄北路480弄"},{"poiid":"B2094654DB65A7FD4199","title":"嘉善坊(北门)","lon":"121.37508","lat":"31.25465","category":"47","category_name":"住宅区","address":"铜川路2285弄"},{"poiid":"B2094757D16FA5FD469C","title":"牧羊郎烧烤","lon":"121.3724","lat":"31.2615","category":"68","category_name":"快餐厅","address":"普陀区双河路"},{"poiid":"B2094654D46BA6FF469F","title":"光明便利No.542","lon":"121.37754","lat":"31.2546","category":"117","category_name":"便民商店/便利店","address":"铜川路2192"},{"poiid":"B2094654D46BA7F54399","title":"好乐厚生商业广场","lon":"121.373","lat":"31.2581","category":"119","category_name":"商场","address":"曹安路1685号(丰庄路口)"},{"poiid":"B2094757D16DA3F5479B","title":"金鼎中学","lon":"121.37792","lat":"31.25773","category":"55","category_name":"中学","address":"普陀区双河路(近金鼎路)"},{"poiid":"B2094655D26BA7F4499E","title":"鼎秀园","lon":"121.379727","lat":"31.260312","category":"47","category_name":"住宅区","address":"嘉定区铜川路2655弄"},{"poiid":"B2094654D46BA6FF4592","title":"真新街道社区公共运动场","lon":"121.37761","lat":"31.25676","category":"220","category_name":"运动场所","address":"上海普陀区真南路500号同济大学沪西校区"},{"poiid":"B2094654D46BA6FF4692","title":"上海市嘉定区真新幼儿园","lon":"121.37834","lat":"31.25452","category":"57","category_name":"幼儿园","address":"嘉定区铜川路2168号"},{"poiid":"B2094757D06BA1FB409A","title":"金鼎学校","lon":"121.379959","lat":"31.258346","category":"253","category_name":"校园生活","address":"上海金鼎路1278号"},{"poiid":"B2094654DB65A0F4409B","title":"真新新村嘉德坊(北门)","lon":"121.3778","lat":"31.2542","category":"47","category_name":"住宅区","address":"铜川路2225弄"},{"poiid":"B2094757D66CA5FD4298","title":"铜川路万镇路嘉丽排挡","lon":"121.37978595","lat":"31.254651766","category":"500","category_name":"未知分类","address":"上海铜川路万镇路嘉丽排挡"},{"poiid":"B2094757D06BABFC409B","title":"上海银行(铜川路)","lon":"121.377181","lat":"31.254673","category":"150","category_name":"银行","address":"上海市铜川路2198号"},{"poiid":"B2094757D66CA0FE429C","title":"铜川路祁连山南路公交站点","lon":"121.37468885","lat":"31.255145876","category":"38","category_name":"公交车站","address":"上海铜川路靠近祁连山南路"},{"poiid":"B2094654DB65A7FD479B","title":"嘉美坊(南门)","lon":"121.37514","lat":"31.25487","category":"47","category_name":"住宅区","address":"铜川路2288弄"},{"poiid":"B2094654D46BA6FF4898","title":"真新新村嘉德坊","lon":"121.37777","lat":"31.25327","category":"47","category_name":"住宅区","address":"铜川路2225弄"},{"poiid":"B2094757D568A1FA419D","title":"月城美发厅","lon":"121.37654243","lat":"31.25423014","category":"148","category_name":"美容美发店","address":"铜川路2269"},{"poiid":"B2094757D06AA7FC489C","title":"明明烧烤","lon":"121.382125","lat":"31.252887","category":"247","category_name":"餐饮美食","address":"上海市普陀区高陵路185号"},{"poiid":"B2094757D06EAAFD4093","title":"铜川路炸猪排","lon":"121.37832","lat":"31.25411","category":"68","category_name":"快餐厅","address":"普陀区铜川路2555弄嘉秀坊门口处(近安边路)"},{"poiid":"B2094655D26BA2FF449A","title":"铜川路万镇路","lon":"121.37869","lat":"31.25432","category":"38","category_name":"公交车站","address":""},{"poiid":"B2094655D26EA1F5419E","title":"阳光威尼斯(提香湾)","lon":"121.37471033527845","lat":"31.26017739566505","category":"47","category_name":"住宅区","address":"普陀区祁连山南路2727弄"},{"poiid":"B2094750DB6DABFA439A","title":"谈阿姨炸猪排","lon":"121.379821","lat":"31.254615","category":"68","category_name":"快餐厅","address":"嘉定区丰庄路(肯德基对面)"},{"poiid":"B2094757D068A0FD439E","title":"新世界生活广场","lon":"121.375626","lat":"31.258542","category":"119","category_name":"商场","address":"嘉定区曹安公路2378号(近华江支路沃尔玛)"},{"poiid":"B2094655D36CA6FE419E","title":"高陵路铜川路","lon":"121.38285","lat":"31.25443","category":"38","category_name":"公交车站","address":""},{"poiid":"B2094757D068A6F8459A","title":"新王府酒店(祁连山店)","lon":"121.3728","lat":"31.25293","category":"72","category_name":"广东菜","address":"嘉定区祁连山南路2199号(近曹安路口)"},{"poiid":"B2094654DB65A4FD469E","title":"真光新村第四小区","lon":"121.38151","lat":"31.25481","category":"47","category_name":"住宅区","address":"铜川路2060弄1-156号"},{"poiid":"B2094757D068A2FE4293","title":"有山有水山里人家铜川路","lon":"121.38327767","lat":"31.25333347","category":"87","category_name":"特色／地方风味餐厅","address":"普陀区铜川路1819号(真光路口)"},{"poiid":"B2094757D06FA7FC449F","title":"昆仑花苑","lon":"121.38119895","lat":"31.260967887","category":"47","category_name":"住宅区","address":"昆仑花苑位于普陀桃浦路1149弄"},{"poiid":"B2094757D068A5FA489C","title":"嘉利坊","lon":"121.37836","lat":"31.255146","category":"500","category_name":"未知分类","address":"上海市嘉定区祁连山南路"},{"poiid":"B2094655D26FA1FB4892","title":"阳光威尼斯AB区(东门)","lon":"121.37495","lat":"31.26017","category":"656","category_name":"大门","address":"祁连山南路2727弄"},{"poiid":"B2094654D46BA6FF4998","title":"嘉善坊","lon":"121.37454","lat":"31.25315","category":"47","category_name":"住宅区","address":"卢湾区陕西南路550弄37号(近绍兴路)"},{"poiid":"B2094757D06EAAFF4292","title":"蔡先生苏州汤包馆","lon":"121.38181","lat":"31.25131","category":"68","category_name":"快餐厅","address":"普陀区高陵路11号(近真光路)"},{"poiid":"B2094654D46BA6FE4798","title":"安盛苑","lon":"121.37709","lat":"31.258755","category":"47","category_name":"住宅区","address":"双河路437弄"},{"poiid":"B2094757D469A5F94698","title":"湘府酒楼 双河路店","lon":"121.37894","lat":"31.26103","category":"77","category_name":"湖南菜","address":"普陀区双河路588号(桃浦路口)"},{"poiid":"B2094757D16AA0F8419E","title":"铜川路一品香特色炸猪排","lon":"121.37807495","lat":"31.2542867599","category":"247","category_name":"餐饮美食","address":"上海铜川路万镇路 嘉里坊门口"},{"poiid":"B2094655D36CA1FE449A","title":"双河路金鼎路","lon":"121.37741","lat":"31.25732","category":"38","category_name":"公交车站","address":""},{"poiid":"B2094654D46BA6FF419E","title":"香樟苑(桃浦路)","lon":"121.37712","lat":"31.26046","category":"47","category_name":"住宅区","address":"桃浦路1341弄1-152号"},{"poiid":"B2094757D068A7F5479F","title":"嘉美坊","lon":"121.3754","lat":"31.255497","category":"500","category_name":"未知分类","address":"上海铜川路2288弄"},{"poiid":"B2094654D46BA6FE469F","title":"鑫园热气羊肉馆","lon":"121.37792","lat":"31.25831","category":"86","category_name":"火锅店","address":"普陀区双河路金鼎路(近祁连山路)"},{"poiid":"B2094654DB65A0F4409A","title":"嘉利坊(南门)","lon":"121.37792","lat":"31.25448","category":"47","category_name":"住宅区","address":"铜川路2188弄"},{"poiid":"B2094757D06BA7FA439B","title":"董大师金牌稻香蛙","lon":"121.37847177","lat":"31.258619864","category":"71","category_name":"四川菜","address":"普陀区双河路451号(近桃浦路)"},{"poiid":"B2094757D069A3FB4498","title":"真光五街坊","lon":"121.38059","lat":"31.253047","category":"47","category_name":"住宅区","address":"上海铜川路2059弄"},{"poiid":"B2094654D46BA6FE469C","title":"阿三烧鸡公 双河路店","lon":"121.377850054","lat":"31.258145793","category":"71","category_name":"四川菜","address":"嘉定区双河路456号(金鼎路双河路)"},{"poiid":"B2094757D068A4F9499B","title":"真光四街坊","lon":"121.38202595","lat":"31.2537378794","category":"47","category_name":"住宅区","address":"上海铜川路2060弄"},{"poiid":"B2094655D26CA2F4459A","title":"帮帮酒家","lon":"121.38001","lat":"31.2546","category":"257","category_name":"中餐厅","address":"普陀区万镇路(近铜川路)"},{"poiid":"B2094757D068ABF5459C","title":"嘉泰花园","lon":"121.38","lat":"31.2536","category":"47","category_name":"住宅区","address":"上海梅川路1725弄"},{"poiid":"B2094654D465A3FE409A","title":"吉吉热气羊肉馆","lon":"121.383051054","lat":"31.255287793","category":"86","category_name":"火锅店","address":"普陀区高陵路191号(铜川路)"},{"poiid":"B2094757D16DA7FB439D","title":"嘉利小吃","lon":"121.37984","lat":"31.2538","category":"68","category_name":"快餐厅","address":"普陀区铜川路(近万镇路)"},{"poiid":"B2094654DB6AA4FF4498","title":"真新小吃店","lon":"121.37667","lat":"31.25436","category":"68","category_name":"快餐厅","address":"普陀区铜川路2255号(近双河路)"},{"poiid":"B2094654DB65A7FD419E","title":"双河绿地","lon":"121.37899","lat":"31.25675","category":"196","category_name":"公园","address":""},{"poiid":"B2094654D46BA6FD489B","title":"祁连社区","lon":"121.376","lat":"31.2547","category":"47","category_name":"住宅区","address":"丰庄北路480弄"},{"poiid":"B2094654DB65A7FD4199","title":"嘉善坊(北门)","lon":"121.37508","lat":"31.25465","category":"47","category_name":"住宅区","address":"铜川路2285弄"},{"poiid":"B2094757D16FA5FD469C","title":"牧羊郎烧烤","lon":"121.3724","lat":"31.2615","category":"68","category_name":"快餐厅","address":"普陀区双河路"},{"poiid":"B2094654D46BA6FF469F","title":"光明便利No.542","lon":"121.37754","lat":"31.2546","category":"117","category_name":"便民商店/便利店","address":"铜川路2192"},{"poiid":"B2094654D46BA7F54399","title":"好乐厚生商业广场","lon":"121.373","lat":"31.2581","category":"119","category_name":"商场","address":"曹安路1685号(丰庄路口)"},{"poiid":"B2094757D16DA3F5479B","title":"金鼎中学","lon":"121.37792","lat":"31.25773","category":"55","category_name":"中学","address":"普陀区双河路(近金鼎路)"},{"poiid":"B2094655D26BA7F4499E","title":"鼎秀园","lon":"121.379727","lat":"31.260312","category":"47","category_name":"住宅区","address":"嘉定区铜川路2655弄"},{"poiid":"B2094654D46BA6FF4592","title":"真新街道社区公共运动场","lon":"121.37761","lat":"31.25676","category":"220","category_name":"运动场所","address":"上海普陀区真南路500号同济大学沪西校区"},{"poiid":"B2094654D46BA6FF4692","title":"上海市嘉定区真新幼儿园","lon":"121.37834","lat":"31.25452","category":"57","category_name":"幼儿园","address":"嘉定区铜川路2168号"},{"poiid":"B2094757D06BA1FB409A","title":"金鼎学校","lon":"121.379959","lat":"31.258346","category":"253","category_name":"校园生活","address":"上海金鼎路1278号"},{"poiid":"B2094654DB65A0F4409B","title":"真新新村嘉德坊(北门)","lon":"121.3778","lat":"31.2542","category":"47","category_name":"住宅区","address":"铜川路2225弄"},{"poiid":"B2094757D66CA5FD4298","title":"铜川路万镇路嘉丽排挡","lon":"121.37978595","lat":"31.254651766","category":"500","category_name":"未知分类","address":"上海铜川路万镇路嘉丽排挡"},{"poiid":"B2094757D06BABFC409B","title":"上海银行(铜川路)","lon":"121.377181","lat":"31.254673","category":"150","category_name":"银行","address":"上海市铜川路2198号"},{"poiid":"B2094757D66CA0FE429C","title":"铜川路祁连山南路公交站点","lon":"121.37468885","lat":"31.255145876","category":"38","category_name":"公交车站","address":"上海铜川路靠近祁连山南路"},{"poiid":"B2094654DB65A7FD479B","title":"嘉美坊(南门)","lon":"121.37514","lat":"31.25487","category":"47","category_name":"住宅区","address":"铜川路2288弄"},{"poiid":"B2094654D46BA6FF4898","title":"真新新村嘉德坊","lon":"121.37777","lat":"31.25327","category":"47","category_name":"住宅区","address":"铜川路2225弄"},{"poiid":"B2094757D568A1FA419D","title":"月城美发厅","lon":"121.37654243","lat":"31.25423014","category":"148","category_name":"美容美发店","address":"铜川路2269"},{"poiid":"B2094757D06AA7FC489C","title":"明明烧烤","lon":"121.382125","lat":"31.252887","category":"247","category_name":"餐饮美食","address":"上海市普陀区高陵路185号"},{"poiid":"B2094757D06EAAFD4093","title":"铜川路炸猪排","lon":"121.37832","lat":"31.25411","category":"68","category_name":"快餐厅","address":"普陀区铜川路2555弄嘉秀坊门口处(近安边路)"},{"poiid":"B2094655D26BA2FF449A","title":"铜川路万镇路","lon":"121.37869","lat":"31.25432","category":"38","category_name":"公交车站","address":""},{"poiid":"B2094655D26EA1F5419E","title":"阳光威尼斯(提香湾)","lon":"121.37471033527845","lat":"31.26017739566505","category":"47","category_name":"住宅区","address":"普陀区祁连山南路2727弄"},{"poiid":"B2094750DB6DABFA439A","title":"谈阿姨炸猪排","lon":"121.379821","lat":"31.254615","category":"68","category_name":"快餐厅","address":"嘉定区丰庄路(肯德基对面)"},{"poiid":"B2094757D068A0FD439E","title":"新世界生活广场","lon":"121.375626","lat":"31.258542","category":"119","category_name":"商场","address":"嘉定区曹安公路2378号(近华江支路沃尔玛)"},{"poiid":"B2094655D36CA6FE419E","title":"高陵路铜川路","lon":"121.38285","lat":"31.25443","category":"38","category_name":"公交车站","address":""},{"poiid":"B2094757D068A6F8459A","title":"新王府酒店(祁连山店)","lon":"121.3728","lat":"31.25293","category":"72","category_name":"广东菜","address":"嘉定区祁连山南路2199号(近曹安路口)"},{"poiid":"B2094654DB65A4FD469E","title":"真光新村第四小区","lon":"121.38151","lat":"31.25481","category":"47","category_name":"住宅区","address":"铜川路2060弄1-156号"},{"poiid":"B2094757D068A2FE4293","title":"有山有水山里人家铜川路","lon":"121.38327767","lat":"31.25333347","category":"87","category_name":"特色／地方风味餐厅","address":"普陀区铜川路1819号(真光路口)"},{"poiid":"B2094757D06FA7FC449F","title":"昆仑花苑","lon":"121.38119895","lat":"31.260967887","category":"47","category_name":"住宅区","address":"昆仑花苑位于普陀桃浦路1149弄"},{"poiid":"B2094757D068A5FA489C","title":"嘉利坊","lon":"121.37836","lat":"31.255146","category":"500","category_name":"未知分类","address":"上海市嘉定区祁连山南路"},{"poiid":"B2094655D26FA1FB4892","title":"阳光威尼斯AB区(东门)","lon":"121.37495","lat":"31.26017","category":"656","category_name":"大门","address":"祁连山南路2727弄"},{"poiid":"B2094654D46BA6FF4998","title":"嘉善坊","lon":"121.37454","lat":"31.25315","category":"47","category_name":"住宅区","address":"卢湾区陕西南路550弄37号(近绍兴路)"},{"poiid":"B2094757D06EAAFF4292","title":"蔡先生苏州汤包馆","lon":"121.38181","lat":"31.25131","category":"68","category_name":"快餐厅","address":"普陀区高陵路11号(近真光路)"},{"poiid":"B2094654D46BA6FE4798","title":"安盛苑","lon":"121.37709","lat":"31.258755","category":"47","category_name":"住宅区","address":"双河路437弄"},{"poiid":"B2094757D469A5F94698","title":"湘府酒楼 双河路店","lon":"121.37894","lat":"31.26103","category":"77","category_name":"湖南菜","address":"普陀区双河路588号(桃浦路口)"},{"poiid":"B2094757D16AA0F8419E","title":"铜川路一品香特色炸猪排","lon":"121.37807495","lat":"31.2542867599","category":"247","category_name":"餐饮美食","address":"上海铜川路万镇路 嘉里坊门口"},{"poiid":"B2094655D36CA1FE449A","title":"双河路金鼎路","lon":"121.37741","lat":"31.25732","category":"38","category_name":"公交车站","address":""},{"poiid":"B2094654D46BA6FF419E","title":"香樟苑(桃浦路)","lon":"121.37712","lat":"31.26046","category":"47","category_name":"住宅区","address":"桃浦路1341弄1-152号"},{"poiid":"B2094757D068A7F5479F","title":"嘉美坊","lon":"121.3754","lat":"31.255497","category":"500","category_name":"未知分类","address":"上海铜川路2288弄"},{"poiid":"B2094654D46BA6FE469F","title":"鑫园热气羊肉馆","lon":"121.37792","lat":"31.25831","category":"86","category_name":"火锅店","address":"普陀区双河路金鼎路(近祁连山路)"},{"poiid":"B2094654DB65A0F4409A","title":"嘉利坊(南门)","lon":"121.37792","lat":"31.25448","category":"47","category_name":"住宅区","address":"铜川路2188弄"},{"poiid":"B2094757D06BA7FA439B","title":"董大师金牌稻香蛙","lon":"121.37847177","lat":"31.258619864","category":"71","category_name":"四川菜","address":"普陀区双河路451号(近桃浦路)"},{"poiid":"B2094757D069A3FB4498","title":"真光五街坊","lon":"121.38059","lat":"31.253047","category":"47","category_name":"住宅区","address":"上海铜川路2059弄"},{"poiid":"B2094654D46BA6FE469C","title":"阿三烧鸡公 双河路店","lon":"121.377850054","lat":"31.258145793","category":"71","category_name":"四川菜","address":"嘉定区双河路456号(金鼎路双河路)"},{"poiid":"B2094757D068A4F9499B","title":"真光四街坊","lon":"121.38202595","lat":"31.2537378794","category":"47","category_name":"住宅区","address":"上海铜川路2060弄"},{"poiid":"B2094655D26CA2F4459A","title":"帮帮酒家","lon":"121.38001","lat":"31.2546","category":"257","category_name":"中餐厅","address":"普陀区万镇路(近铜川路)"},{"poiid":"B2094757D068ABF5459C","title":"嘉泰花园","lon":"121.38","lat":"31.2536","category":"47","category_name":"住宅区","address":"上海梅川路1725弄"},{"poiid":"B2094654D465A3FE409A","title":"吉吉热气羊肉馆","lon":"121.383051054","lat":"31.255287793","category":"86","category_name":"火锅店","address":"普陀区高陵路191号(铜川路)"},{"poiid":"B2094757D16DA7FB439D","title":"嘉利小吃","lon":"121.37984","lat":"31.2538","category":"68","category_name":"快餐厅","address":"普陀区铜川路(近万镇路)"},{"poiid":"B2094654DB6AA4FF4498","title":"真新小吃店","lon":"121.37667","lat":"31.25436","category":"68","category_name":"快餐厅","address":"普陀区铜川路2255号(近双河路)"},{"poiid":"B2094654DB65A7FD419E","title":"双河绿地","lon":"121.37899","lat":"31.25675","category":"196","category_name":"公园","address":""},{"poiid":"B2094654D46BA6FD489B","title":"祁连社区","lon":"121.376","lat":"31.2547","category":"47","category_name":"住宅区","address":"丰庄北路480弄"},{"poiid":"B2094654DB65A7FD4199","title":"嘉善坊(北门)","lon":"121.37508","lat":"31.25465","category":"47","category_name":"住宅区","address":"铜川路2285弄"},{"poiid":"B2094757D16FA5FD469C","title":"牧羊郎烧烤","lon":"121.3724","lat":"31.2615","category":"68","category_name":"快餐厅","address":"普陀区双河路"},{"poiid":"B2094654D46BA6FF469F","title":"光明便利No.542","lon":"121.37754","lat":"31.2546","category":"117","category_name":"便民商店/便利店","address":"铜川路2192"},{"poiid":"B2094654D46BA7F54399","title":"好乐厚生商业广场","lon":"121.373","lat":"31.2581","category":"119","category_name":"商场","address":"曹安路1685号(丰庄路口)"},{"poiid":"B2094757D16DA3F5479B","title":"金鼎中学","lon":"121.37792","lat":"31.25773","category":"55","category_name":"中学","address":"普陀区双河路(近金鼎路)"},{"poiid":"B2094655D26BA7F4499E","title":"鼎秀园","lon":"121.379727","lat":"31.260312","category":"47","category_name":"住宅区","address":"嘉定区铜川路2655弄"},{"poiid":"B2094654D46BA6FF4592","title":"真新街道社区公共运动场","lon":"121.37761","lat":"31.25676","category":"220","category_name":"运动场所","address":"上海普陀区真南路500号同济大学沪西校区"},{"poiid":"B2094654D46BA6FF4692","title":"上海市嘉定区真新幼儿园","lon":"121.37834","lat":"31.25452","category":"57","category_name":"幼儿园","address":"嘉定区铜川路2168号"},{"poiid":"B2094757D06BA1FB409A","title":"金鼎学校","lon":"121.379959","lat":"31.258346","category":"253","category_name":"校园生活","address":"上海金鼎路1278号"},{"poiid":"B2094654DB65A0F4409B","title":"真新新村嘉德坊(北门)","lon":"121.3778","lat":"31.2542","category":"47","category_name":"住宅区","address":"铜川路2225弄"},{"poiid":"B2094757D66CA5FD4298","title":"铜川路万镇路嘉丽排挡","lon":"121.37978595","lat":"31.254651766","category":"500","category_name":"未知分类","address":"上海铜川路万镇路嘉丽排挡"},{"poiid":"B2094757D06BABFC409B","title":"上海银行(铜川路)","lon":"121.377181","lat":"31.254673","category":"150","category_name":"银行","address":"上海市铜川路2198号"},{"poiid":"B2094757D66CA0FE429C","title":"铜川路祁连山南路公交站点","lon":"121.37468885","lat":"31.255145876","category":"38","category_name":"公交车站","address":"上海铜川路靠近祁连山南路"},{"poiid":"B2094654DB65A7FD479B","title":"嘉美坊(南门)","lon":"121.37514","lat":"31.25487","category":"47","category_name":"住宅区","address":"铜川路2288弄"},{"poiid":"B2094654D46BA6FF4898","title":"真新新村嘉德坊","lon":"121.37777","lat":"31.25327","category":"47","category_name":"住宅区","address":"铜川路2225弄"},{"poiid":"B2094757D568A1FA419D","title":"月城美发厅","lon":"121.37654243","lat":"31.25423014","category":"148","category_name":"美容美发店","address":"铜川路2269"},{"poiid":"B2094757D06AA7FC489C","title":"明明烧烤","lon":"121.382125","lat":"31.252887","category":"247","category_name":"餐饮美食","address":"上海市普陀区高陵路185号"},{"poiid":"B2094757D06EAAFD4093","title":"铜川路炸猪排","lon":"121.37832","lat":"31.25411","category":"68","category_name":"快餐厅","address":"普陀区铜川路2555弄嘉秀坊门口处(近安边路)"},{"poiid":"B2094655D26BA2FF449A","title":"铜川路万镇路","lon":"121.37869","lat":"31.25432","category":"38","category_name":"公交车站","address":""},{"poiid":"B2094655D26EA1F5419E","title":"阳光威尼斯(提香湾)","lon":"121.37471033527845","lat":"31.26017739566505","category":"47","category_name":"住宅区","address":"普陀区祁连山南路2727弄"},{"poiid":"B2094750DB6DABFA439A","title":"谈阿姨炸猪排","lon":"121.379821","lat":"31.254615","category":"68","category_name":"快餐厅","address":"嘉定区丰庄路(肯德基对面)"},{"poiid":"B2094757D068A0FD439E","title":"新世界生活广场","lon":"121.375626","lat":"31.258542","category":"119","category_name":"商场","address":"嘉定区曹安公路2378号(近华江支路沃尔玛)"},{"poiid":"B2094655D36CA6FE419E","title":"高陵路铜川路","lon":"121.38285","lat":"31.25443","category":"38","category_name":"公交车站","address":""},{"poiid":"B2094757D068A6F8459A","title":"新王府酒店(祁连山店)","lon":"121.3728","lat":"31.25293","category":"72","category_name":"广东菜","address":"嘉定区祁连山南路2199号(近曹安路口)"},{"poiid":"B2094654DB65A4FD469E","title":"真光新村第四小区","lon":"121.38151","lat":"31.25481","category":"47","category_name":"住宅区","address":"铜川路2060弄1-156号"},{"poiid":"B2094757D068A2FE4293","title":"有山有水山里人家铜川路","lon":"121.38327767","lat":"31.25333347","category":"87","category_name":"特色／地方风味餐厅","address":"普陀区铜川路1819号(真光路口)"},{"poiid":"B2094757D06FA7FC449F","title":"昆仑花苑","lon":"121.38119895","lat":"31.260967887","category":"47","category_name":"住宅区","address":"昆仑花苑位于普陀桃浦路1149弄"},{"poiid":"B2094757D068A5FA489C","title":"嘉利坊","lon":"121.37836","lat":"31.255146","category":"500","category_name":"未知分类","address":"上海市嘉定区祁连山南路"},{"poiid":"B2094655D26FA1FB4892","title":"阳光威尼斯AB区(东门)","lon":"121.37495","lat":"31.26017","category":"656","category_name":"大门","address":"祁连山南路2727弄"},{"poiid":"B2094654D46BA6FF4998","title":"嘉善坊","lon":"121.37454","lat":"31.25315","category":"47","category_name":"住宅区","address":"卢湾区陕西南路550弄37号(近绍兴路)"},{"poiid":"B2094757D06EAAFF4292","title":"蔡先生苏州汤包馆","lon":"121.38181","lat":"31.25131","category":"68","category_name":"快餐厅","address":"普陀区高陵路11号(近真光路)"},{"poiid":"B2094654D46BA6FE4798","title":"安盛苑","lon":"121.37709","lat":"31.258755","category":"47","category_name":"住宅区","address":"双河路437弄"},{"poiid":"B2094757D469A5F94698","title":"湘府酒楼 双河路店","lon":"121.37894","lat":"31.26103","category":"77","category_name":"湖南菜","address":"普陀区双河路588号(桃浦路口)"},{"poiid":"B2094757D16AA0F8419E","title":"铜川路一品香特色炸猪排","lon":"121.37807495","lat":"31.2542867599","category":"247","category_name":"餐饮美食","address":"上海铜川路万镇路 嘉里坊门口"},{"poiid":"B2094655D36CA1FE449A","title":"双河路金鼎路","lon":"121.37741","lat":"31.25732","category":"38","category_name":"公交车站","address":""},{"poiid":"B2094654D46BA6FF419E","title":"香樟苑(桃浦路)","lon":"121.37712","lat":"31.26046","category":"47","category_name":"住宅区","address":"桃浦路1341弄1-152号"},{"poiid":"B2094757D068A7F5479F","title":"嘉美坊","lon":"121.3754","lat":"31.255497","category":"500","category_name":"未知分类","address":"上海铜川路2288弄"},{"poiid":"B2094654D46BA6FE469F","title":"鑫园热气羊肉馆","lon":"121.37792","lat":"31.25831","category":"86","category_name":"火锅店","address":"普陀区双河路金鼎路(近祁连山路)"},{"poiid":"B2094654DB65A0F4409A","title":"嘉利坊(南门)","lon":"121.37792","lat":"31.25448","category":"47","category_name":"住宅区","address":"铜川路2188弄"},{"poiid":"B2094757D06BA7FA439B","title":"董大师金牌稻香蛙","lon":"121.37847177","lat":"31.258619864","category":"71","category_name":"四川菜","address":"普陀区双河路451号(近桃浦路)"},{"poiid":"B2094757D069A3FB4498","title":"真光五街坊","lon":"121.38059","lat":"31.253047","category":"47","category_name":"住宅区","address":"上海铜川路2059弄"},{"poiid":"B2094654D46BA6FE469C","title":"阿三烧鸡公 双河路店","lon":"121.377850054","lat":"31.258145793","category":"71","category_name":"四川菜","address":"嘉定区双河路456号(金鼎路双河路)"},{"poiid":"B2094757D068A4F9499B","title":"真光四街坊","lon":"121.38202595","lat":"31.2537378794","category":"47","category_name":"住宅区","address":"上海铜川路2060弄"},{"poiid":"B2094655D26CA2F4459A","title":"帮帮酒家","lon":"121.38001","lat":"31.2546","category":"257","category_name":"中餐厅","address":"普陀区万镇路(近铜川路)"},{"poiid":"B2094757D068ABF5459C","title":"嘉泰花园","lon":"121.38","lat":"31.2536","category":"47","category_name":"住宅区","address":"上海梅川路1725弄"},{"poiid":"B2094654D465A3FE409A","title":"吉吉热气羊肉馆","lon":"121.383051054","lat":"31.255287793","category":"86","category_name":"火锅店","address":"普陀区高陵路191号(铜川路)"},{"poiid":"B2094757D16DA7FB439D","title":"嘉利小吃","lon":"121.37984","lat":"31.2538","category":"68","category_name":"快餐厅","address":"普陀区铜川路(近万镇路)"},{"poiid":"B2094654DB6AA4FF4498","title":"真新小吃店","lon":"121.37667","lat":"31.25436","category":"68","category_name":"快餐厅","address":"普陀区铜川路2255号(近双河路)"},{"poiid":"B2094654DB65A7FD419E","title":"双河绿地","lon":"121.37899","lat":"31.25675","category":"196","category_name":"公园","address":""},{"poiid":"B2094654D46BA6FD489B","title":"祁连社区","lon":"121.376","lat":"31.2547","category":"47","category_name":"住宅区","address":"丰庄北路480弄"},{"poiid":"B2094654DB65A7FD4199","title":"嘉善坊(北门)","lon":"121.37508","lat":"31.25465","category":"47","category_name":"住宅区","address":"铜川路2285弄"},{"poiid":"B2094757D16FA5FD469C","title":"牧羊郎烧烤","lon":"121.3724","lat":"31.2615","category":"68","category_name":"快餐厅","address":"普陀区双河路"},{"poiid":"B2094654D46BA6FF469F","title":"光明便利No.542","lon":"121.37754","lat":"31.2546","category":"117","category_name":"便民商店/便利店","address":"铜川路2192"},{"poiid":"B2094654D46BA7F54399","title":"好乐厚生商业广场","lon":"121.373","lat":"31.2581","category":"119","category_name":"商场","address":"曹安路1685号(丰庄路口)"},{"poiid":"B2094757D16DA3F5479B","title":"金鼎中学","lon":"121.37792","lat":"31.25773","category":"55","category_name":"中学","address":"普陀区双河路(近金鼎路)"},{"poiid":"B2094655D26BA7F4499E","title":"鼎秀园","lon":"121.379727","lat":"31.260312","category":"47","category_name":"住宅区","address":"嘉定区铜川路2655弄"},{"poiid":"B2094654D46BA6FF4592","title":"真新街道社区公共运动场","lon":"121.37761","lat":"31.25676","category":"220","category_name":"运动场所","address":"上海普陀区真南路500号同济大学沪西校区"},{"poiid":"B2094654D46BA6FF4692","title":"上海市嘉定区真新幼儿园","lon":"121.37834","lat":"31.25452","category":"57","category_name":"幼儿园","address":"嘉定区铜川路2168号"},{"poiid":"B2094757D06BA1FB409A","title":"金鼎学校","lon":"121.379959","lat":"31.258346","category":"253","category_name":"校园生活","address":"上海金鼎路1278号"},{"poiid":"B2094654DB65A0F4409B","title":"真新新村嘉德坊(北门)","lon":"121.3778","lat":"31.2542","category":"47","category_name":"住宅区","address":"铜川路2225弄"},{"poiid":"B2094757D66CA5FD4298","title":"铜川路万镇路嘉丽排挡","lon":"121.37978595","lat":"31.254651766","category":"500","category_name":"未知分类","address":"上海铜川路万镇路嘉丽排挡"},{"poiid":"B2094757D06BABFC409B","title":"上海银行(铜川路)","lon":"121.377181","lat":"31.254673","category":"150","category_name":"银行","address":"上海市铜川路2198号"},{"poiid":"B2094757D66CA0FE429C","title":"铜川路祁连山南路公交站点","lon":"121.37468885","lat":"31.255145876","category":"38","category_name":"公交车站","address":"上海铜川路靠近祁连山南路"},{"poiid":"B2094654DB65A7FD479B","title":"嘉美坊(南门)","lon":"121.37514","lat":"31.25487","category":"47","category_name":"住宅区","address":"铜川路2288弄"},{"poiid":"B2094654D46BA6FF4898","title":"真新新村嘉德坊","lon":"121.37777","lat":"31.25327","category":"47","category_name":"住宅区","address":"铜川路2225弄"},{"poiid":"B2094757D568A1FA419D","title":"月城美发厅","lon":"121.37654243","lat":"31.25423014","category":"148","category_name":"美容美发店","address":"铜川路2269"},{"poiid":"B2094757D06AA7FC489C","title":"明明烧烤","lon":"121.382125","lat":"31.252887","category":"247","category_name":"餐饮美食","address":"上海市普陀区高陵路185号"}]