[{"poiid":"B2094757D66FA7FE4599","title":"上海外高桥造船有限公司","lon":"121.639853339","lat":"31.33531876","category":"263","category_name":"公司","address":"浦东新区洲海路3001号"},{"poiid":"B2094655D36CA6FE4498","title":"高东镇","lon":"121.61866","lat":"31.33127","category":"38","category_name":"公交车站","address":"浦东光明路415弄"},{"poiid":"B2094757D16AA5F8449A","title":"樱花园","lon":"121.616539986","lat":"31.3283641507","category":"500","category_name":"未知分类","address":"上海市浦东新区光耀路"},{"poiid":"B2094654DB69A6FD4092","title":"上海港外高桥港区四期集装箱码头","lon":"121.65217","lat":"31.3242","category":"34","category_name":"港口码头","address":"港建路与越海路交叉口"},{"poiid":"B2094757D06FA4F4439E","title":"杨园体育公园","lon":"121.632972","lat":"31.315069","category":"196","category_name":"公园","address":"上海杨园社区新园路园二路"},{"poiid":"B2094654D568A0FA439F","title":"千秋嘉苑","lon":"121.63018382608","lat":"31.329122452928","category":"47","category_name":"住宅区","address":"浦东高东二路47弄"},{"poiid":"B2094757D065A6F4429F","title":"上海外高桥造船有限公司  科技楼","lon":"121.638169239","lat":"31.3302677437","category":"500","category_name":"未知分类","address":"上海洲海路3001号"},{"poiid":"B2094757D06FA1FC469C","title":"外高桥四期码头","lon":"121.65071106","lat":"31.3235397339","category":"46","category_name":"楼宇","address":"上海市浦东新区港建路1号"},{"poiid":"B2094757D06FA5FD4799","title":"杨园社区","lon":"121.628463","lat":"31.320476","category":"47","category_name":"住宅区","address":"上海新园路洲海路"},{"poiid":"B2094757D165A1FF4999","title":"杨园新村","lon":"121.63865730827","lat":"31.322282861356","category":"252","category_name":"楼宇机构","address":"新龙路289弄"},{"poiid":"B2094655D264AAF44993","title":"上海高东海上救助机场","lon":"121.62562","lat":"31.33478","category":"21","category_name":"飞机场","address":"高东一路200"},{"poiid":"B2094655D26FA0FD479B","title":"高东新村","lon":"121.623","lat":"31.3383","category":"47","category_name":"住宅区","address":"光明路41弄"},{"poiid":"B2094655D268ABFE4498","title":"外高桥船厂","lon":"121.6353","lat":"31.33472","category":"263","category_name":"公司","address":"浦东新区洲海路3001号"},{"poiid":"B2094654D569A2F5419D","title":"外高桥电力","lon":"121.63342","lat":"31.32888","category":"263","category_name":"公司","address":"高翔环路338"},{"poiid":"B2094757D16BA5F5409C","title":"EastContainerTerminalCo., Ltd.","lon":"121.63746443","lat":"31.327387077","category":"500","category_name":"未知分类","address":"上海港建路1号"},{"poiid":"B2094654D569A2F54192","title":"上海高的东经济园区","lon":"121.63071","lat":"31.32667","category":"45","category_name":"产业园区","address":"高翔环路988号"},{"poiid":"B2094655D26FA0FA4999","title":"西门子(上海)电气传动设备有限公司大型传动罗宾康部","lon":"121.6341","lat":"31.32798","category":"263","category_name":"公司","address":""},{"poiid":"B2094757D16BA4F8449E","title":"高东机场","lon":"121.62750033","lat":"31.332562696","category":"21","category_name":"飞机场","address":"上海市浦东新区高东一路"},{"poiid":"B2094654D569A3F9409F","title":"上海经贸山九储运有限公司浦东物流中心","lon":"121.6343","lat":"31.32706","category":"248","category_name":"生活娱乐","address":"高翔环路539"},{"poiid":"B2094654D46BA3F4409B","title":"上海都乐食品有限公司","lon":"121.62062","lat":"31.33389","category":"263","category_name":"公司","address":"海徐路1105"},{"poiid":"B2094654D568A0FA459B","title":"高东公园","lon":"121.62548","lat":"31.32757","category":"196","category_name":"公园","address":"浦东新区高东镇光明路743号佳雪缘酒店对面"},{"poiid":"B2094654D569A3F9409E","title":"上海森松环境技术工程有限公司","lon":"121.6328","lat":"31.32693","category":"263","category_name":"公司","address":"高翔环路562"},{"poiid":"B2094654D568A0FA469A","title":"逸墅新苑","lon":"121.6246","lat":"31.32523","category":"47","category_name":"住宅区","address":"高东二路99弄"},{"poiid":"B2094654DB6BA1FC4892","title":"采鲜坊(光明路)","lon":"121.62439","lat":"31.32669","category":"76","category_name":"上海菜","address":"浦东新区光明路719号"},{"poiid":"B2094654D46BA2FC4693","title":"上海振义企业发展有限公司","lon":"121.6302","lat":"31.33157","category":"263","category_name":"公司","address":"高翔环路155"},{"poiid":"B2094757D169A2F4409E","title":"高东中学","lon":"121.622475839","lat":"31.3315208725","category":"55","category_name":"中学","address":"上海高东镇光明路"},{"poiid":"B2094654D569A3F8499F","title":"上海中业电梯有限公司","lon":"121.63034","lat":"31.32907","category":"263","category_name":"公司","address":"高东二路315"},{"poiid":"B2094655D26EA6F44093","title":"LACOSTE(高翔路店)","lon":"121.63058","lat":"31.32748","category":"255","category_name":"专卖店","address":"浦东新区高东工业区高翔路941号(高东二路高翔路)"},{"poiid":"B2094654D568A0FA459D","title":"佳雪缘酒店","lon":"121.62451","lat":"31.32652","category":"76","category_name":"上海菜","address":"浦东新区高东镇光明路743号(高东公园对面)"},{"poiid":"B2094654D569A2F54699","title":"安元酒家","lon":"121.63595","lat":"31.32299","category":"257","category_name":"中餐厅","address":""},{"poiid":"B2094654D568AAFC4393","title":"上海东亚运输仓储有限公司(高翔路)","lon":"121.62825","lat":"31.32944","category":"263","category_name":"公司","address":""},{"poiid":"B209475CD469A5FD409B","title":"洲海花园酒店","lon":"121.629936","lat":"31.320917","category":"500","category_name":"未知分类","address":"上海市 洲海路"},{"poiid":"B2094654D568A0FA4498","title":"中国移动高东镇营业厅","lon":"121.62541","lat":"31.32575","category":"151","category_name":"电讯营业厅","address":"光明路801"},{"poiid":"B2094654D569A2F54193","title":"上海瀚国拍机动车拍卖有限公司","lon":"121.63217","lat":"31.32447","category":"263","category_name":"公司","address":"海徐路1899"},{"poiid":"B2094757D065A3F44298","title":"高东镇人民政府","lon":"121.622768","lat":"31.326886","category":"500","category_name":"未知分类","address":"上海浦东新区光明路718号"},{"poiid":"B2094757D16CA6FD459E","title":"上海海通国际汽车码头有限公司","lon":"121.64448742","lat":"31.333153476","category":"500","category_name":"未知分类","address":"上海洲海路3988号"},{"poiid":"B2094757D66CA5F5449B","title":"益海嘉里上海企业群","lon":"121.62242853","lat":"31.331521472","category":"500","category_name":"未知分类","address":"上海浦东新区高东路118号"},{"poiid":"B2094654D568A0FB419F","title":"高东馨苑","lon":"121.61721","lat":"31.329136","category":"47","category_name":"住宅区","address":"光泽路428弄1-92号"},{"poiid":"B2094655D26CA4FD4693","title":"扬盛佳苑","lon":"121.63584","lat":"31.314964","category":"47","category_name":"住宅区","address":"园洲路189弄1-87号"},{"poiid":"B2094654D569A2F5489A","title":"杨园二村","lon":"121.63155","lat":"31.318941","category":"47","category_name":"住宅区","address":"新园路65弄"},{"poiid":"B2094654D568A0FA4693","title":"东滨花苑","lon":"121.62217","lat":"31.327921","category":"47","category_name":"住宅区","address":"高东光明路618弄1-52号"},{"poiid":"B2094654D568A0FA459A","title":"高东公园(南门)","lon":"121.62478","lat":"31.32705","category":"680","category_name":"楼宇机构","address":""},{"poiid":"B2094654D568A0FA469B","title":"高东派出所","lon":"121.62419","lat":"31.32626","category":"609","category_name":"警察局","address":"光明路728"},{"poiid":"B2094654D568AAF4459C","title":"杨园一村","lon":"121.62968","lat":"31.318686","category":"47","category_name":"住宅区","address":"新园路32弄1-7号"},{"poiid":"B2094655D36DA1F4429F","title":"希雅路","lon":"121.62144","lat":"31.32082","category":"38","category_name":"公交车站","address":""},{"poiid":"B2094655D26DA5FF449C","title":"天天水煮鱼","lon":"121.615990054","lat":"31.332773793","category":"257","category_name":"中餐厅","address":"浦东新区高东镇光明路415弄24号(近外环线)"},{"poiid":"B2094655D36DA0FD499D","title":"新园路洲海路","lon":"121.62961","lat":"31.31941","category":"38","category_name":"公交车站","address":""},{"poiid":"B2094654D46AAAFE499A","title":"苹果园(光明路)","lon":"121.61777","lat":"31.3318","category":"112","category_name":"糕饼店","address":"浦东新区高东镇光明路"},{"poiid":"B2094654D46BA3F84792","title":"上海嘉里食品工业有限公司","lon":"121.62196","lat":"31.33987","category":"263","category_name":"公司","address":""},{"poiid":"B2094655D26CA5FC4198","title":"地下车库","lon":"121.62294","lat":"31.32657","category":"250","category_name":"公园户外","address":""},{"poiid":"B2094757D66FA7FE4599","title":"上海外高桥造船有限公司","lon":"121.639853339","lat":"31.33531876","category":"263","category_name":"公司","address":"浦东新区洲海路3001号"},{"poiid":"B2094655D36CA6FE4498","title":"高东镇","lon":"121.61866","lat":"31.33127","category":"38","category_name":"公交车站","address":"浦东光明路415弄"},{"poiid":"B2094757D16AA5F8449A","title":"樱花园","lon":"121.616539986","lat":"31.3283641507","category":"500","category_name":"未知分类","address":"上海市浦东新区光耀路"},{"poiid":"B2094654DB69A6FD4092","title":"上海港外高桥港区四期集装箱码头","lon":"121.65217","lat":"31.3242","category":"34","category_name":"港口码头","address":"港建路与越海路交叉口"},{"poiid":"B2094757D06FA4F4439E","title":"杨园体育公园","lon":"121.632972","lat":"31.315069","category":"196","category_name":"公园","address":"上海杨园社区新园路园二路"},{"poiid":"B2094654D568A0FA439F","title":"千秋嘉苑","lon":"121.63018382608","lat":"31.329122452928","category":"47","category_name":"住宅区","address":"浦东高东二路47弄"},{"poiid":"B2094757D065A6F4429F","title":"上海外高桥造船有限公司  科技楼","lon":"121.638169239","lat":"31.3302677437","category":"500","category_name":"未知分类","address":"上海洲海路3001号"},{"poiid":"B2094757D06FA1FC469C","title":"外高桥四期码头","lon":"121.65071106","lat":"31.3235397339","category":"46","category_name":"楼宇","address":"上海市浦东新区港建路1号"},{"poiid":"B2094757D06FA5FD4799","title":"杨园社区","lon":"121.628463","lat":"31.320476","category":"47","category_name":"住宅区","address":"上海新园路洲海路"},{"poiid":"B2094757D165A1FF4999","title":"杨园新村","lon":"121.63865730827","lat":"31.322282861356","category":"252","category_name":"楼宇机构","address":"新龙路289弄"},{"poiid":"B2094655D264AAF44993","title":"上海高东海上救助机场","lon":"121.62562","lat":"31.33478","category":"21","category_name":"飞机场","address":"高东一路200"},{"poiid":"B2094655D26FA0FD479B","title":"高东新村","lon":"121.623","lat":"31.3383","category":"47","category_name":"住宅区","address":"光明路41弄"},{"poiid":"B2094655D268ABFE4498","title":"外高桥船厂","lon":"121.6353","lat":"31.33472","category":"263","category_name":"公司","address":"浦东新区洲海路3001号"},{"poiid":"B2094654D569A2F5419D","title":"外高桥电力","lon":"121.63342","lat":"31.32888","category":"263","category_name":"公司","address":"高翔环路338"},{"poiid":"B2094757D16BA5F5409C","title":"EastContainerTerminalCo., Ltd.","lon":"121.63746443","lat":"31.327387077","category":"500","category_name":"未知分类","address":"上海港建路1号"},{"poiid":"B2094654D569A2F54192","title":"上海高的东经济园区","lon":"121.63071","lat":"31.32667","category":"45","category_name":"产业园区","address":"高翔环路988号"},{"poiid":"B2094655D26FA0FA4999","title":"西门子(上海)电气传动设备有限公司大型传动罗宾康部","lon":"121.6341","lat":"31.32798","category":"263","category_name":"公司","address":""},{"poiid":"B2094757D16BA4F8449E","title":"高东机场","lon":"121.62750033","lat":"31.332562696","category":"21","category_name":"飞机场","address":"上海市浦东新区高东一路"},{"poiid":"B2094654D569A3F9409F","title":"上海经贸山九储运有限公司浦东物流中心","lon":"121.6343","lat":"31.32706","category":"248","category_name":"生活娱乐","address":"高翔环路539"},{"poiid":"B2094654D46BA3F4409B","title":"上海都乐食品有限公司","lon":"121.62062","lat":"31.33389","category":"263","category_name":"公司","address":"海徐路1105"},{"poiid":"B2094654D568A0FA459B","title":"高东公园","lon":"121.62548","lat":"31.32757","category":"196","category_name":"公园","address":"浦东新区高东镇光明路743号佳雪缘酒店对面"},{"poiid":"B2094654D569A3F9409E","title":"上海森松环境技术工程有限公司","lon":"121.6328","lat":"31.32693","category":"263","category_name":"公司","address":"高翔环路562"},{"poiid":"B2094654D568A0FA469A","title":"逸墅新苑","lon":"121.6246","lat":"31.32523","category":"47","category_name":"住宅区","address":"高东二路99弄"},{"poiid":"B2094654DB6BA1FC4892","title":"采鲜坊(光明路)","lon":"121.62439","lat":"31.32669","category":"76","category_name":"上海菜","address":"浦东新区光明路719号"},{"poiid":"B2094654D46BA2FC4693","title":"上海振义企业发展有限公司","lon":"121.6302","lat":"31.33157","category":"263","category_name":"公司","address":"高翔环路155"},{"poiid":"B2094757D169A2F4409E","title":"高东中学","lon":"121.622475839","lat":"31.3315208725","category":"55","category_name":"中学","address":"上海高东镇光明路"},{"poiid":"B2094654D569A3F8499F","title":"上海中业电梯有限公司","lon":"121.63034","lat":"31.32907","category":"263","category_name":"公司","address":"高东二路315"},{"poiid":"B2094655D26EA6F44093","title":"LACOSTE(高翔路店)","lon":"121.63058","lat":"31.32748","category":"255","category_name":"专卖店","address":"浦东新区高东工业区高翔路941号(高东二路高翔路)"},{"poiid":"B2094654D568A0FA459D","title":"佳雪缘酒店","lon":"121.62451","lat":"31.32652","category":"76","category_name":"上海菜","address":"浦东新区高东镇光明路743号(高东公园对面)"},{"poiid":"B2094654D569A2F54699","title":"安元酒家","lon":"121.63595","lat":"31.32299","category":"257","category_name":"中餐厅","address":""},{"poiid":"B2094654D568AAFC4393","title":"上海东亚运输仓储有限公司(高翔路)","lon":"121.62825","lat":"31.32944","category":"263","category_name":"公司","address":""},{"poiid":"B209475CD469A5FD409B","title":"洲海花园酒店","lon":"121.629936","lat":"31.320917","category":"500","category_name":"未知分类","address":"上海市 洲海路"},{"poiid":"B2094654D568A0FA4498","title":"中国移动高东镇营业厅","lon":"121.62541","lat":"31.32575","category":"151","category_name":"电讯营业厅","address":"光明路801"},{"poiid":"B2094654D569A2F54193","title":"上海瀚国拍机动车拍卖有限公司","lon":"121.63217","lat":"31.32447","category":"263","category_name":"公司","address":"海徐路1899"},{"poiid":"B2094757D065A3F44298","title":"高东镇人民政府","lon":"121.622768","lat":"31.326886","category":"500","category_name":"未知分类","address":"上海浦东新区光明路718号"},{"poiid":"B2094757D16CA6FD459E","title":"上海海通国际汽车码头有限公司","lon":"121.64448742","lat":"31.333153476","category":"500","category_name":"未知分类","address":"上海洲海路3988号"},{"poiid":"B2094757D66CA5F5449B","title":"益海嘉里上海企业群","lon":"121.62242853","lat":"31.331521472","category":"500","category_name":"未知分类","address":"上海浦东新区高东路118号"},{"poiid":"B2094654D568A0FB419F","title":"高东馨苑","lon":"121.61721","lat":"31.329136","category":"47","category_name":"住宅区","address":"光泽路428弄1-92号"},{"poiid":"B2094655D26CA4FD4693","title":"扬盛佳苑","lon":"121.63584","lat":"31.314964","category":"47","category_name":"住宅区","address":"园洲路189弄1-87号"},{"poiid":"B2094654D569A2F5489A","title":"杨园二村","lon":"121.63155","lat":"31.318941","category":"47","category_name":"住宅区","address":"新园路65弄"},{"poiid":"B2094654D568A0FA4693","title":"东滨花苑","lon":"121.62217","lat":"31.327921","category":"47","category_name":"住宅区","address":"高东光明路618弄1-52号"},{"poiid":"B2094654D568A0FA459A","title":"高东公园(南门)","lon":"121.62478","lat":"31.32705","category":"680","category_name":"楼宇机构","address":""},{"poiid":"B2094654D568A0FA469B","title":"高东派出所","lon":"121.62419","lat":"31.32626","category":"609","category_name":"警察局","address":"光明路728"},{"poiid":"B2094654D568AAF4459C","title":"杨园一村","lon":"121.62968","lat":"31.318686","category":"47","category_name":"住宅区","address":"新园路32弄1-7号"},{"poiid":"B2094655D36DA1F4429F","title":"希雅路","lon":"121.62144","lat":"31.32082","category":"38","category_name":"公交车站","address":""},{"poiid":"B2094655D26DA5FF449C","title":"天天水煮鱼","lon":"121.615990054","lat":"31.332773793","category":"257","category_name":"中餐厅","address":"浦东新区高东镇光明路415弄24号(近外环线)"},{"poiid":"B2094655D36DA0FD499D","title":"新园路洲海路","lon":"121.62961","lat":"31.31941","category":"38","category_name":"公交车站","address":""},{"poiid":"B2094654D46AAAFE499A","title":"苹果园(光明路)","lon":"121.61777","lat":"31.3318","category":"112","category_name":"糕饼店","address":"浦东新区高东镇光明路"},{"poiid":"B2094654D46BA3F84792","title":"上海嘉里食品工业有限公司","lon":"121.62196","lat":"31.33987","category":"263","category_name":"公司","address":""},{"poiid":"B2094655D26CA5FC4198","title":"地下车库","lon":"121.62294","lat":"31.32657","category":"250","category_name":"公园户外","address":""},{"poiid":"B2094757D66FA7FE4599","title":"上海外高桥造船有限公司","lon":"121.639853339","lat":"31.33531876","category":"263","category_name":"公司","address":"浦东新区洲海路3001号"},{"poiid":"B2094655D36CA6FE4498","title":"高东镇","lon":"121.61866","lat":"31.33127","category":"38","category_name":"公交车站","address":"浦东光明路415弄"},{"poiid":"B2094757D16AA5F8449A","title":"樱花园","lon":"121.616539986","lat":"31.3283641507","category":"500","category_name":"未知分类","address":"上海市浦东新区光耀路"},{"poiid":"B2094654DB69A6FD4092","title":"上海港外高桥港区四期集装箱码头","lon":"121.65217","lat":"31.3242","category":"34","category_name":"港口码头","address":"港建路与越海路交叉口"},{"poiid":"B2094757D06FA4F4439E","title":"杨园体育公园","lon":"121.632972","lat":"31.315069","category":"196","category_name":"公园","address":"上海杨园社区新园路园二路"},{"poiid":"B2094654D568A0FA439F","title":"千秋嘉苑","lon":"121.63018382608","lat":"31.329122452928","category":"47","category_name":"住宅区","address":"浦东高东二路47弄"},{"poiid":"B2094757D065A6F4429F","title":"上海外高桥造船有限公司  科技楼","lon":"121.638169239","lat":"31.3302677437","category":"500","category_name":"未知分类","address":"上海洲海路3001号"},{"poiid":"B2094757D06FA1FC469C","title":"外高桥四期码头","lon":"121.65071106","lat":"31.3235397339","category":"46","category_name":"楼宇","address":"上海市浦东新区港建路1号"},{"poiid":"B2094757D06FA5FD4799","title":"杨园社区","lon":"121.628463","lat":"31.320476","category":"47","category_name":"住宅区","address":"上海新园路洲海路"},{"poiid":"B2094757D165A1FF4999","title":"杨园新村","lon":"121.63865730827","lat":"31.322282861356","category":"252","category_name":"楼宇机构","address":"新龙路289弄"},{"poiid":"B2094655D264AAF44993","title":"上海高东海上救助机场","lon":"121.62562","lat":"31.33478","category":"21","category_name":"飞机场","address":"高东一路200"},{"poiid":"B2094655D26FA0FD479B","title":"高东新村","lon":"121.623","lat":"31.3383","category":"47","category_name":"住宅区","address":"光明路41弄"},{"poiid":"B2094655D268ABFE4498","title":"外高桥船厂","lon":"121.6353","lat":"31.33472","category":"263","category_name":"公司","address":"浦东新区洲海路3001号"},{"poiid":"B2094654D569A2F5419D","title":"外高桥电力","lon":"121.63342","lat":"31.32888","category":"263","category_name":"公司","address":"高翔环路338"},{"poiid":"B2094757D16BA5F5409C","title":"EastContainerTerminalCo., Ltd.","lon":"121.63746443","lat":"31.327387077","category":"500","category_name":"未知分类","address":"上海港建路1号"},{"poiid":"B2094654D569A2F54192","title":"上海高的东经济园区","lon":"121.63071","lat":"31.32667","category":"45","category_name":"产业园区","address":"高翔环路988号"},{"poiid":"B2094655D26FA0FA4999","title":"西门子(上海)电气传动设备有限公司大型传动罗宾康部","lon":"121.6341","lat":"31.32798","category":"263","category_name":"公司","address":""},{"poiid":"B2094757D16BA4F8449E","title":"高东机场","lon":"121.62750033","lat":"31.332562696","category":"21","category_name":"飞机场","address":"上海市浦东新区高东一路"},{"poiid":"B2094654D569A3F9409F","title":"上海经贸山九储运有限公司浦东物流中心","lon":"121.6343","lat":"31.32706","category":"248","category_name":"生活娱乐","address":"高翔环路539"},{"poiid":"B2094654D46BA3F4409B","title":"上海都乐食品有限公司","lon":"121.62062","lat":"31.33389","category":"263","category_name":"公司","address":"海徐路1105"},{"poiid":"B2094654D568A0FA459B","title":"高东公园","lon":"121.62548","lat":"31.32757","category":"196","category_name":"公园","address":"浦东新区高东镇光明路743号佳雪缘酒店对面"},{"poiid":"B2094654D569A3F9409E","title":"上海森松环境技术工程有限公司","lon":"121.6328","lat":"31.32693","category":"263","category_name":"公司","address":"高翔环路562"},{"poiid":"B2094654D568A0FA469A","title":"逸墅新苑","lon":"121.6246","lat":"31.32523","category":"47","category_name":"住宅区","address":"高东二路99弄"},{"poiid":"B2094654DB6BA1FC4892","title":"采鲜坊(光明路)","lon":"121.62439","lat":"31.32669","category":"76","category_name":"上海菜","address":"浦东新区光明路719号"},{"poiid":"B2094654D46BA2FC4693","title":"上海振义企业发展有限公司","lon":"121.6302","lat":"31.33157","category":"263","category_name":"公司","address":"高翔环路155"},{"poiid":"B2094757D169A2F4409E","title":"高东中学","lon":"121.622475839","lat":"31.3315208725","category":"55","category_name":"中学","address":"上海高东镇光明路"},{"poiid":"B2094654D569A3F8499F","title":"上海中业电梯有限公司","lon":"121.63034","lat":"31.32907","category":"263","category_name":"公司","address":"高东二路315"},{"poiid":"B2094655D26EA6F44093","title":"LACOSTE(高翔路店)","lon":"121.63058","lat":"31.32748","category":"255","category_name":"专卖店","address":"浦东新区高东工业区高翔路941号(高东二路高翔路)"},{"poiid":"B2094654D568A0FA459D","title":"佳雪缘酒店","lon":"121.62451","lat":"31.32652","category":"76","category_name":"上海菜","address":"浦东新区高东镇光明路743号(高东公园对面)"},{"poiid":"B2094654D569A2F54699","title":"安元酒家","lon":"121.63595","lat":"31.32299","category":"257","category_name":"中餐厅","address":""},{"poiid":"B2094654D568AAFC4393","title":"上海东亚运输仓储有限公司(高翔路)","lon":"121.62825","lat":"31.32944","category":"263","category_name":"公司","address":""},{"poiid":"B209475CD469A5FD409B","title":"洲海花园酒店","lon":"121.629936","lat":"31.320917","category":"500","category_name":"未知分类","address":"上海市 洲海路"},{"poiid":"B2094654D568A0FA4498","title":"中国移动高东镇营业厅","lon":"121.62541","lat":"31.32575","category":"151","category_name":"电讯营业厅","address":"光明路801"},{"poiid":"B2094654D569A2F54193","title":"上海瀚国拍机动车拍卖有限公司","lon":"121.63217","lat":"31.32447","category":"263","category_name":"公司","address":"海徐路1899"},{"poiid":"B2094757D065A3F44298","title":"高东镇人民政府","lon":"121.622768","lat":"31.326886","category":"500","category_name":"未知分类","address":"上海浦东新区光明路718号"},{"poiid":"B2094757D16CA6FD459E","title":"上海海通国际汽车码头有限公司","lon":"121.64448742","lat":"31.333153476","category":"500","category_name":"未知分类","address":"上海洲海路3988号"},{"poiid":"B2094757D66CA5F5449B","title":"益海嘉里上海企业群","lon":"121.62242853","lat":"31.331521472","category":"500","category_name":"未知分类","address":"上海浦东新区高东路118号"},{"poiid":"B2094654D568A0FB419F","title":"高东馨苑","lon":"121.61721","lat":"31.329136","category":"47","category_name":"住宅区","address":"光泽路428弄1-92号"},{"poiid":"B2094655D26CA4FD4693","title":"扬盛佳苑","lon":"121.63584","lat":"31.314964","category":"47","category_name":"住宅区","address":"园洲路189弄1-87号"},{"poiid":"B2094654D569A2F5489A","title":"杨园二村","lon":"121.63155","lat":"31.318941","category":"47","category_name":"住宅区","address":"新园路65弄"},{"poiid":"B2094654D568A0FA4693","title":"东滨花苑","lon":"121.62217","lat":"31.327921","category":"47","category_name":"住宅区","address":"高东光明路618弄1-52号"},{"poiid":"B2094654D568A0FA459A","title":"高东公园(南门)","lon":"121.62478","lat":"31.32705","category":"680","category_name":"楼宇机构","address":""},{"poiid":"B2094654D568A0FA469B","title":"高东派出所","lon":"121.62419","lat":"31.32626","category":"609","category_name":"警察局","address":"光明路728"},{"poiid":"B2094654D568AAF4459C","title":"杨园一村","lon":"121.62968","lat":"31.318686","category":"47","category_name":"住宅区","address":"新园路32弄1-7号"},{"poiid":"B2094655D36DA1F4429F","title":"希雅路","lon":"121.62144","lat":"31.32082","category":"38","category_name":"公交车站","address":""},{"poiid":"B2094655D26DA5FF449C","title":"天天水煮鱼","lon":"121.615990054","lat":"31.332773793","category":"257","category_name":"中餐厅","address":"浦东新区高东镇光明路415弄24号(近外环线)"},{"poiid":"B2094655D36DA0FD499D","title":"新园路洲海路","lon":"121.62961","lat":"31.31941","category":"38","category_name":"公交车站","address":""},{"poiid":"B2094654D46AAAFE499A","title":"苹果园(光明路)","lon":"121.61777","lat":"31.3318","category":"112","category_name":"糕饼店","address":"浦东新区高东镇光明路"},{"poiid":"B2094654D46BA3F84792","title":"上海嘉里食品工业有限公司","lon":"121.62196","lat":"31.33987","category":"263","category_name":"公司","address":""},{"poiid":"B2094655D26CA5FC4198","title":"地下车库","lon":"121.62294","lat":"31.32657","category":"250","category_name":"公园户外","address":""}]