[{"poiid":"B2094654DA6FA7FD459E","title":"上海海洋水族馆","lon":"121.50194","lat":"31.24064","category":"199","category_name":"水族馆","address":"上海市浦东新区陆家嘴环路1388号"},{"poiid":"B2094654DA6FA7FC449A","title":"东方明珠广播电视塔","lon":"121.49967","lat":"31.23988","category":"240","category_name":"国家级景点","address":"浦东浦东新区世纪大道1号"},{"poiid":"B2094654DB64A5FE4098","title":"上海东方明珠塔","lon":"121.49958","lat":"31.23952","category":"247","category_name":"餐饮美食","address":"浦东新区浦东世纪大道1号(近二号线陆家嘴站)"},{"poiid":"B209475CD564A7F84392","title":"上海滩浦东香格里拉店","lon":"121.50058","lat":"31.23634","category":"119","category_name":"商场","address":"浦东富成路33号香格里拉酒店内大堂层"},{"poiid":"B2094655D36DA6FE409E","title":"陆家嘴","lon":"121.50163","lat":"31.23807","category":"38","category_name":"公交车站","address":"时代金融中心"},{"poiid":"B2094757D06FA5FB4493","title":"东方明珠旋转餐厅","lon":"121.50184","lat":"31.23831","category":"268","category_name":"自助","address":"浦东新区世纪大道1号东方明珠电视塔(近二号线陆家嘴站)"},{"poiid":"B2094757D06FA3FE429D","title":"鹿港小镇 陆家嘴店 Bellagio Cuisine","lon":"121.503279","lat":"31.241373","category":"91","category_name":"台湾菜","address":"浦东新区陆家嘴环路1318号星展银行大厦B1楼06室(东园路陆家嘴环路)"},{"poiid":"B2094757D06EABF5499C","title":"上海新天哈瓦那酒店","lon":"121.50419627","lat":"31.2422169954","category":"260","category_name":"其他","address":"浦东新区陆家嘴环路1288号(近东方明珠)"},{"poiid":"B2094757D06FA3FC4392","title":"中银大厦","lon":"121.502753258","lat":"31.2385470983","category":"46","category_name":"楼宇","address":"上海浦东新区银城中路200号"},{"poiid":"B2094655D26BA1F4419B","title":"陆家嘴地铁站","lon":"121.50161","lat":"31.23788","category":"36","category_name":"地铁站","address":"上海轨道交通 二号线 轨交陆家嘴站"},{"poiid":"B2094757D06EAAF9469F","title":"星展银行大厦","lon":"121.504057228","lat":"31.2418020945","category":"46","category_name":"楼宇","address":"浦东新区陆家嘴环路1318号B109"},{"poiid":"B2094757D06FA2FC4593","title":"hoF(陆家嘴店)","lon":"121.503866724","lat":"31.2410764887","category":"260","category_name":"其他","address":"浦东新区陆家嘴环路1318号星展银行大厦下沉式广场8号商铺(近东园路)"},{"poiid":"B2094654DA6FA7FD439C","title":"汇亚大厦","lon":"121.50415","lat":"31.24097","category":"46","category_name":"楼宇","address":"重庆北部新区金渝大道89号(北部新区管委会对面)"},{"poiid":"B2094753D66DA6FD409B","title":"上海凯宾斯基大酒店","lon":"121.504465341568","lat":"31.2420219309263","category":"213","category_name":"五星级宾馆","address":"陆家嘴环路1288号"},{"poiid":"B2094655D26DAAF8459A","title":"The Kitchen Salvatore Cuomo","lon":"121.49733","lat":"31.24084","category":"94","category_name":"西餐厅","address":"浦东新区陆家嘴西路2967号D座(近丰和路滨江大道海鸥舫)"},{"poiid":"B2094757D064ABF5479C","title":"Tavola Italian Dining","lon":"121.502135738","lat":"31.2423945594","category":"500","category_name":"未知分类","address":"上海浦东新区滨江大道2500号"},{"poiid":"B2094750D26FA3FE4698","title":"上海大自然野生昆虫馆","lon":"121.497772","lat":"31.240335","category":"627","category_name":"一般地点标志","address":"上海市浦东新区丰和路1号"},{"poiid":"B2094655D26CA4F44393","title":"东方明珠(东南门)","lon":"121.50051","lat":"31.23885","category":"680","category_name":"楼宇机构","address":"世纪大道1"},{"poiid":"B2094655D26DA3FF489B","title":"外滩12号大楼","lon":"121.497","lat":"31.2418","category":"46","category_name":"楼宇","address":"黄浦区中山东一路12号"},{"poiid":"B2094757D068AAF9489B","title":"海逸海鲜(滨江大道店)","lon":"121.5021791","lat":"31.242800436","category":"72","category_name":"广东菜","address":"浦东新区滨江大道2450号(近星展银行大厦停车场)"},{"poiid":"B2094757D06FA5FD499E","title":"星巴克Starbucks(东方浮庭店)","lon":"121.501809489","lat":"31.2383870977","category":"260","category_name":"其他","address":"浦东新区世纪大道55号东方浮庭2楼(近陆家嘴东路)"},{"poiid":"B2094655D26FABFB4093","title":"中国平安金融大厦","lon":"121.50234","lat":"31.23947","category":"46","category_name":"楼宇","address":""},{"poiid":"B2094757D06FA6F9479A","title":"交银金融大厦","lon":"121.50331115","lat":"31.238565444","category":"46","category_name":"楼宇","address":"碧云东壹栋位于浦东金藏路51号(浙桥路口)"},{"poiid":"B2094757D068A1F8459D","title":"La Verbena","lon":"121.49765","lat":"31.24109","category":"94","category_name":"西餐厅","address":"浦东新区陆家嘴西路2967号北滨江E座(近国际会议中心)"},{"poiid":"B2094750D26AA6FB489F","title":"北外滩滨江绿地","lon":"121.499412","lat":"31.243846","category":"248","category_name":"生活娱乐","address":"东大名路新建路"},{"poiid":"B2094750D165A1FA4193","title":"小杨生煎","lon":"121.501","lat":"31.2401","category":"68","category_name":"快餐厅","address":"浦东新区陆家嘴环路1396号陆家嘴景庭1楼(海洋水族馆旁)"},{"poiid":"B2094757D068A0F84099","title":"老上海餐厅(老上海捌号)","lon":"121.500544738","lat":"31.2385504774","category":"500","category_name":"未知分类","address":"上海浦东新区世纪大道1号东方明珠8号门国际新闻中心1楼(近二号线陆家嘴站)"},{"poiid":"B2094757D06FA7FB409A","title":"东方既白(小陆家嘴店)","lon":"121.50165713","lat":"31.238781115","category":"68","category_name":"快餐厅","address":"浦东新区世纪大道55号东方浮庭1楼(近东方明珠)"},{"poiid":"B2094757D16FA6FA459F","title":"陸家嘴","lon":"121.502214738","lat":"31.2382874718","category":"500","category_name":"未知分类","address":"上海市浦东新区丰和路"},{"poiid":"B2094654DA6FA7FD499F","title":"东方明珠游船码头","lon":"121.49693","lat":"31.24078","category":"34","category_name":"港口码头","address":"滨江大道2852号"},{"poiid":"B2094757D068A5FD4798","title":"SCENA","lon":"121.49932544","lat":"31.238503496","category":"94","category_name":"西餐厅","address":"浦东新区世纪大道8号上海国金中心52楼丽思卡尔顿酒店(东泰路世纪大道)"},{"poiid":"B2094757D065A0FD459A","title":"星巴克 STARBICKS (汇亚大厦店)","lon":"121.503237538","lat":"31.2409458285","category":"65","category_name":"咖啡厅","address":"浦东新区陆家嘴环路1233号汇亚大厦1楼大厅(近海族馆)"},{"poiid":"B2094757D06BA7FA4398","title":"海鸥坊","lon":"121.498747738","lat":"31.2394844973","category":"500","category_name":"未知分类","address":"上海市浦东新区滨江大道"},{"poiid":"B2094757D06FA7FA459A","title":"宝寿司(陆家嘴店)","lon":"121.503959724","lat":"31.2409894884","category":"95","category_name":"日本料理","address":"浦东新区陆家嘴环路1318号星展银行大厦B1楼5号铺(近东园路)"},{"poiid":"B2094757D168A5F9409F","title":"Sunflour 星展银行店","lon":"121.50335","lat":"31.241352","category":"94","category_name":"西餐厅","address":"浦东新区陆家嘴环路1318号星展银行大厦美食广场(近东方明珠)"},{"poiid":"B2094757D168AAF44793","title":"Tavola","lon":"121.50140267","lat":"31.242693473","category":"94","category_name":"西餐厅","address":"浦东新区滨江大道2500号(近星展银行)"},{"poiid":"B2094752D66FA2F4479A","title":"蒗葶泰式酒吧餐厅","lon":"121.498146","lat":"31.241444","category":"256","category_name":"外国餐厅","address":"上海市 滨江大道2600号"},{"poiid":"B2094655D26AA0FA469F","title":"地铁陆家嘴站","lon":"121.50163","lat":"31.23807","category":"36","category_name":"地铁站","address":""},{"poiid":"B2094654DB6BA4F5499C","title":"禾绿回转寿司(明珠店)","lon":"121.50121","lat":"31.23975","category":"95","category_name":"日本料理","address":"上海浦东新区陆家嘴环路1406-1414号2楼(近海洋水族馆)"},{"poiid":"B2094654DB6BA4F5499E","title":"味千拉面","lon":"121.5011","lat":"31.23962","category":"95","category_name":"日本料理","address":"陆家嘴环路1416号"},{"poiid":"B2094757D068A1FA439D","title":"伊藤家(明珠店)","lon":"121.50153","lat":"31.23946","category":"95","category_name":"日本料理","address":"浦东新区陆家嘴环路1402号(近海洋水族馆)"},{"poiid":"B2094757D66DA3F84099","title":"麦当劳(东方浮庭店)","lon":"121.50247573","lat":"31.24010151","category":"68","category_name":"快餐厅","address":"浦东新区世纪大道55号世纪浮庭世纪天桥2楼(近陆家嘴环路)"},{"poiid":"B2094757D069AAFF4192","title":"COSTA COFFEE (星展店)","lon":"121.50335442","lat":"31.241647043","category":"65","category_name":"咖啡厅","address":"浦东新区陆家嘴环路1318号星展银行大厦B104号商铺(近海洋水族馆)"},{"poiid":"B2094757D16BABFB489A","title":"上海海洋水族馆(极地馆区)","lon":"121.501246","lat":"31.239975","category":"249","category_name":"购物服务","address":"上海市浦东新区陆家嘴环路1388号"},{"poiid":"B2094757D06FA5F9419A","title":"可颂坊(陆家嘴店)","lon":"121.501476","lat":"31.238862","category":"112","category_name":"糕饼店","address":"浦东新区世纪大道55号(近陆家嘴地铁站2出口)"},{"poiid":"B2094654DB64AAFD439A","title":"上海城市历史发展陈列馆","lon":"121.49958","lat":"31.23951","category":"182","category_name":"博物馆","address":"浦东新区浦东世纪大道1号东方明珠零米大厅内(丰和路明珠塔路)"},{"poiid":"B2094757D069A7FE499D","title":"伊藤家(汇亚店)","lon":"121.504283","lat":"31.241407","category":"95","category_name":"日本料理","address":"浦东新区陆家嘴环路1233号汇亚大厦M楼(近海族馆)"},{"poiid":"B2094757D068A4F4449E","title":"干锅居(陆家嘴店)","lon":"121.50114938","lat":"31.239771358","category":"83","category_name":"云贵菜","address":"浦东新区陆家嘴环路1406-1414号2楼(近海洋水族馆)"},{"poiid":"B2094752D264A7FB4798","title":"isola上海国金中心IFC","lon":"121.501307","lat":"31.23788","category":"247","category_name":"餐饮美食","address":"上海国金中心"},{"poiid":"B2094654DB6AA2FC4898","title":"沃歌斯 汇亚店 Wagas","lon":"121.504424054","lat":"31.241192793","category":"94","category_name":"西餐厅","address":"浦东新区陆家嘴环路1233号汇亚大厦1楼(近海族馆)"},{"poiid":"B2094654DA6FA7FD459E","title":"上海海洋水族馆","lon":"121.50194","lat":"31.24064","category":"199","category_name":"水族馆","address":"上海市浦东新区陆家嘴环路1388号"},{"poiid":"B2094654DA6FA7FC449A","title":"东方明珠广播电视塔","lon":"121.49967","lat":"31.23988","category":"240","category_name":"国家级景点","address":"浦东浦东新区世纪大道1号"},{"poiid":"B2094654DB64A5FE4098","title":"上海东方明珠塔","lon":"121.49958","lat":"31.23952","category":"247","category_name":"餐饮美食","address":"浦东新区浦东世纪大道1号(近二号线陆家嘴站)"},{"poiid":"B209475CD564A7F84392","title":"上海滩浦东香格里拉店","lon":"121.50058","lat":"31.23634","category":"119","category_name":"商场","address":"浦东富成路33号香格里拉酒店内大堂层"},{"poiid":"B2094655D36DA6FE409E","title":"陆家嘴","lon":"121.50163","lat":"31.23807","category":"38","category_name":"公交车站","address":"时代金融中心"},{"poiid":"B2094757D06FA5FB4493","title":"东方明珠旋转餐厅","lon":"121.50184","lat":"31.23831","category":"268","category_name":"自助","address":"浦东新区世纪大道1号东方明珠电视塔(近二号线陆家嘴站)"},{"poiid":"B2094757D06FA3FE429D","title":"鹿港小镇 陆家嘴店 Bellagio Cuisine","lon":"121.503279","lat":"31.241373","category":"91","category_name":"台湾菜","address":"浦东新区陆家嘴环路1318号星展银行大厦B1楼06室(东园路陆家嘴环路)"},{"poiid":"B2094757D06EABF5499C","title":"上海新天哈瓦那酒店","lon":"121.50419627","lat":"31.2422169954","category":"260","category_name":"其他","address":"浦东新区陆家嘴环路1288号(近东方明珠)"},{"poiid":"B2094757D06FA3FC4392","title":"中银大厦","lon":"121.502753258","lat":"31.2385470983","category":"46","category_name":"楼宇","address":"上海浦东新区银城中路200号"},{"poiid":"B2094655D26BA1F4419B","title":"陆家嘴地铁站","lon":"121.50161","lat":"31.23788","category":"36","category_name":"地铁站","address":"上海轨道交通 二号线 轨交陆家嘴站"},{"poiid":"B2094757D06EAAF9469F","title":"星展银行大厦","lon":"121.504057228","lat":"31.2418020945","category":"46","category_name":"楼宇","address":"浦东新区陆家嘴环路1318号B109"},{"poiid":"B2094757D06FA2FC4593","title":"hoF(陆家嘴店)","lon":"121.503866724","lat":"31.2410764887","category":"260","category_name":"其他","address":"浦东新区陆家嘴环路1318号星展银行大厦下沉式广场8号商铺(近东园路)"},{"poiid":"B2094654DA6FA7FD439C","title":"汇亚大厦","lon":"121.50415","lat":"31.24097","category":"46","category_name":"楼宇","address":"重庆北部新区金渝大道89号(北部新区管委会对面)"},{"poiid":"B2094753D66DA6FD409B","title":"上海凯宾斯基大酒店","lon":"121.504465341568","lat":"31.2420219309263","category":"213","category_name":"五星级宾馆","address":"陆家嘴环路1288号"},{"poiid":"B2094655D26DAAF8459A","title":"The Kitchen Salvatore Cuomo","lon":"121.49733","lat":"31.24084","category":"94","category_name":"西餐厅","address":"浦东新区陆家嘴西路2967号D座(近丰和路滨江大道海鸥舫)"},{"poiid":"B2094757D064ABF5479C","title":"Tavola Italian Dining","lon":"121.502135738","lat":"31.2423945594","category":"500","category_name":"未知分类","address":"上海浦东新区滨江大道2500号"},{"poiid":"B2094750D26FA3FE4698","title":"上海大自然野生昆虫馆","lon":"121.497772","lat":"31.240335","category":"627","category_name":"一般地点标志","address":"上海市浦东新区丰和路1号"},{"poiid":"B2094655D26CA4F44393","title":"东方明珠(东南门)","lon":"121.50051","lat":"31.23885","category":"680","category_name":"楼宇机构","address":"世纪大道1"},{"poiid":"B2094655D26DA3FF489B","title":"外滩12号大楼","lon":"121.497","lat":"31.2418","category":"46","category_name":"楼宇","address":"黄浦区中山东一路12号"},{"poiid":"B2094757D068AAF9489B","title":"海逸海鲜(滨江大道店)","lon":"121.5021791","lat":"31.242800436","category":"72","category_name":"广东菜","address":"浦东新区滨江大道2450号(近星展银行大厦停车场)"},{"poiid":"B2094757D06FA5FD499E","title":"星巴克Starbucks(东方浮庭店)","lon":"121.501809489","lat":"31.2383870977","category":"260","category_name":"其他","address":"浦东新区世纪大道55号东方浮庭2楼(近陆家嘴东路)"},{"poiid":"B2094655D26FABFB4093","title":"中国平安金融大厦","lon":"121.50234","lat":"31.23947","category":"46","category_name":"楼宇","address":""},{"poiid":"B2094757D06FA6F9479A","title":"交银金融大厦","lon":"121.50331115","lat":"31.238565444","category":"46","category_name":"楼宇","address":"碧云东壹栋位于浦东金藏路51号(浙桥路口)"},{"poiid":"B2094757D068A1F8459D","title":"La Verbena","lon":"121.49765","lat":"31.24109","category":"94","category_name":"西餐厅","address":"浦东新区陆家嘴西路2967号北滨江E座(近国际会议中心)"},{"poiid":"B2094750D26AA6FB489F","title":"北外滩滨江绿地","lon":"121.499412","lat":"31.243846","category":"248","category_name":"生活娱乐","address":"东大名路新建路"},{"poiid":"B2094750D165A1FA4193","title":"小杨生煎","lon":"121.501","lat":"31.2401","category":"68","category_name":"快餐厅","address":"浦东新区陆家嘴环路1396号陆家嘴景庭1楼(海洋水族馆旁)"},{"poiid":"B2094757D068A0F84099","title":"老上海餐厅(老上海捌号)","lon":"121.500544738","lat":"31.2385504774","category":"500","category_name":"未知分类","address":"上海浦东新区世纪大道1号东方明珠8号门国际新闻中心1楼(近二号线陆家嘴站)"},{"poiid":"B2094757D06FA7FB409A","title":"东方既白(小陆家嘴店)","lon":"121.50165713","lat":"31.238781115","category":"68","category_name":"快餐厅","address":"浦东新区世纪大道55号东方浮庭1楼(近东方明珠)"},{"poiid":"B2094757D16FA6FA459F","title":"陸家嘴","lon":"121.502214738","lat":"31.2382874718","category":"500","category_name":"未知分类","address":"上海市浦东新区丰和路"},{"poiid":"B2094654DA6FA7FD499F","title":"东方明珠游船码头","lon":"121.49693","lat":"31.24078","category":"34","category_name":"港口码头","address":"滨江大道2852号"},{"poiid":"B2094757D068A5FD4798","title":"SCENA","lon":"121.49932544","lat":"31.238503496","category":"94","category_name":"西餐厅","address":"浦东新区世纪大道8号上海国金中心52楼丽思卡尔顿酒店(东泰路世纪大道)"},{"poiid":"B2094757D065A0FD459A","title":"星巴克 STARBICKS (汇亚大厦店)","lon":"121.503237538","lat":"31.2409458285","category":"65","category_name":"咖啡厅","address":"浦东新区陆家嘴环路1233号汇亚大厦1楼大厅(近海族馆)"},{"poiid":"B2094757D06BA7FA4398","title":"海鸥坊","lon":"121.498747738","lat":"31.2394844973","category":"500","category_name":"未知分类","address":"上海市浦东新区滨江大道"},{"poiid":"B2094757D06FA7FA459A","title":"宝寿司(陆家嘴店)","lon":"121.503959724","lat":"31.2409894884","category":"95","category_name":"日本料理","address":"浦东新区陆家嘴环路1318号星展银行大厦B1楼5号铺(近东园路)"},{"poiid":"B2094757D168A5F9409F","title":"Sunflour 星展银行店","lon":"121.50335","lat":"31.241352","category":"94","category_name":"西餐厅","address":"浦东新区陆家嘴环路1318号星展银行大厦美食广场(近东方明珠)"},{"poiid":"B2094757D168AAF44793","title":"Tavola","lon":"121.50140267","lat":"31.242693473","category":"94","category_name":"西餐厅","address":"浦东新区滨江大道2500号(近星展银行)"},{"poiid":"B2094752D66FA2F4479A","title":"蒗葶泰式酒吧餐厅","lon":"121.498146","lat":"31.241444","category":"256","category_name":"外国餐厅","address":"上海市 滨江大道2600号"},{"poiid":"B2094655D26AA0FA469F","title":"地铁陆家嘴站","lon":"121.50163","lat":"31.23807","category":"36","category_name":"地铁站","address":""},{"poiid":"B2094654DB6BA4F5499C","title":"禾绿回转寿司(明珠店)","lon":"121.50121","lat":"31.23975","category":"95","category_name":"日本料理","address":"上海浦东新区陆家嘴环路1406-1414号2楼(近海洋水族馆)"},{"poiid":"B2094654DB6BA4F5499E","title":"味千拉面","lon":"121.5011","lat":"31.23962","category":"95","category_name":"日本料理","address":"陆家嘴环路1416号"},{"poiid":"B2094757D068A1FA439D","title":"伊藤家(明珠店)","lon":"121.50153","lat":"31.23946","category":"95","category_name":"日本料理","address":"浦东新区陆家嘴环路1402号(近海洋水族馆)"},{"poiid":"B2094757D66DA3F84099","title":"麦当劳(东方浮庭店)","lon":"121.50247573","lat":"31.24010151","category":"68","category_name":"快餐厅","address":"浦东新区世纪大道55号世纪浮庭世纪天桥2楼(近陆家嘴环路)"},{"poiid":"B2094757D069AAFF4192","title":"COSTA COFFEE (星展店)","lon":"121.50335442","lat":"31.241647043","category":"65","category_name":"咖啡厅","address":"浦东新区陆家嘴环路1318号星展银行大厦B104号商铺(近海洋水族馆)"},{"poiid":"B2094757D16BABFB489A","title":"上海海洋水族馆(极地馆区)","lon":"121.501246","lat":"31.239975","category":"249","category_name":"购物服务","address":"上海市浦东新区陆家嘴环路1388号"},{"poiid":"B2094757D06FA5F9419A","title":"可颂坊(陆家嘴店)","lon":"121.501476","lat":"31.238862","category":"112","category_name":"糕饼店","address":"浦东新区世纪大道55号(近陆家嘴地铁站2出口)"},{"poiid":"B2094654DB64AAFD439A","title":"上海城市历史发展陈列馆","lon":"121.49958","lat":"31.23951","category":"182","category_name":"博物馆","address":"浦东新区浦东世纪大道1号东方明珠零米大厅内(丰和路明珠塔路)"},{"poiid":"B2094757D069A7FE499D","title":"伊藤家(汇亚店)","lon":"121.504283","lat":"31.241407","category":"95","category_name":"日本料理","address":"浦东新区陆家嘴环路1233号汇亚大厦M楼(近海族馆)"},{"poiid":"B2094757D068A4F4449E","title":"干锅居(陆家嘴店)","lon":"121.50114938","lat":"31.239771358","category":"83","category_name":"云贵菜","address":"浦东新区陆家嘴环路1406-1414号2楼(近海洋水族馆)"},{"poiid":"B2094752D264A7FB4798","title":"isola上海国金中心IFC","lon":"121.501307","lat":"31.23788","category":"247","category_name":"餐饮美食","address":"上海国金中心"},{"poiid":"B2094654DB6AA2FC4898","title":"沃歌斯 汇亚店 Wagas","lon":"121.504424054","lat":"31.241192793","category":"94","category_name":"西餐厅","address":"浦东新区陆家嘴环路1233号汇亚大厦1楼(近海族馆)"},{"poiid":"B2094654DA6FA7FD459E","title":"上海海洋水族馆","lon":"121.50194","lat":"31.24064","category":"199","category_name":"水族馆","address":"上海市浦东新区陆家嘴环路1388号"},{"poiid":"B2094654DA6FA7FC449A","title":"东方明珠广播电视塔","lon":"121.49967","lat":"31.23988","category":"240","category_name":"国家级景点","address":"浦东浦东新区世纪大道1号"},{"poiid":"B2094654DB64A5FE4098","title":"上海东方明珠塔","lon":"121.49958","lat":"31.23952","category":"247","category_name":"餐饮美食","address":"浦东新区浦东世纪大道1号(近二号线陆家嘴站)"},{"poiid":"B209475CD564A7F84392","title":"上海滩浦东香格里拉店","lon":"121.50058","lat":"31.23634","category":"119","category_name":"商场","address":"浦东富成路33号香格里拉酒店内大堂层"},{"poiid":"B2094655D36DA6FE409E","title":"陆家嘴","lon":"121.50163","lat":"31.23807","category":"38","category_name":"公交车站","address":"时代金融中心"},{"poiid":"B2094757D06FA5FB4493","title":"东方明珠旋转餐厅","lon":"121.50184","lat":"31.23831","category":"268","category_name":"自助","address":"浦东新区世纪大道1号东方明珠电视塔(近二号线陆家嘴站)"},{"poiid":"B2094757D06FA3FE429D","title":"鹿港小镇 陆家嘴店 Bellagio Cuisine","lon":"121.503279","lat":"31.241373","category":"91","category_name":"台湾菜","address":"浦东新区陆家嘴环路1318号星展银行大厦B1楼06室(东园路陆家嘴环路)"},{"poiid":"B2094757D06EABF5499C","title":"上海新天哈瓦那酒店","lon":"121.50419627","lat":"31.2422169954","category":"260","category_name":"其他","address":"浦东新区陆家嘴环路1288号(近东方明珠)"},{"poiid":"B2094757D06FA3FC4392","title":"中银大厦","lon":"121.502753258","lat":"31.2385470983","category":"46","category_name":"楼宇","address":"上海浦东新区银城中路200号"},{"poiid":"B2094655D26BA1F4419B","title":"陆家嘴地铁站","lon":"121.50161","lat":"31.23788","category":"36","category_name":"地铁站","address":"上海轨道交通 二号线 轨交陆家嘴站"},{"poiid":"B2094757D06EAAF9469F","title":"星展银行大厦","lon":"121.504057228","lat":"31.2418020945","category":"46","category_name":"楼宇","address":"浦东新区陆家嘴环路1318号B109"},{"poiid":"B2094757D06FA2FC4593","title":"hoF(陆家嘴店)","lon":"121.503866724","lat":"31.2410764887","category":"260","category_name":"其他","address":"浦东新区陆家嘴环路1318号星展银行大厦下沉式广场8号商铺(近东园路)"},{"poiid":"B2094654DA6FA7FD439C","title":"汇亚大厦","lon":"121.50415","lat":"31.24097","category":"46","category_name":"楼宇","address":"重庆北部新区金渝大道89号(北部新区管委会对面)"},{"poiid":"B2094753D66DA6FD409B","title":"上海凯宾斯基大酒店","lon":"121.504465341568","lat":"31.2420219309263","category":"213","category_name":"五星级宾馆","address":"陆家嘴环路1288号"},{"poiid":"B2094655D26DAAF8459A","title":"The Kitchen Salvatore Cuomo","lon":"121.49733","lat":"31.24084","category":"94","category_name":"西餐厅","address":"浦东新区陆家嘴西路2967号D座(近丰和路滨江大道海鸥舫)"},{"poiid":"B2094757D064ABF5479C","title":"Tavola Italian Dining","lon":"121.502135738","lat":"31.2423945594","category":"500","category_name":"未知分类","address":"上海浦东新区滨江大道2500号"},{"poiid":"B2094750D26FA3FE4698","title":"上海大自然野生昆虫馆","lon":"121.497772","lat":"31.240335","category":"627","category_name":"一般地点标志","address":"上海市浦东新区丰和路1号"},{"poiid":"B2094655D26CA4F44393","title":"东方明珠(东南门)","lon":"121.50051","lat":"31.23885","category":"680","category_name":"楼宇机构","address":"世纪大道1"},{"poiid":"B2094655D26DA3FF489B","title":"外滩12号大楼","lon":"121.497","lat":"31.2418","category":"46","category_name":"楼宇","address":"黄浦区中山东一路12号"},{"poiid":"B2094757D068AAF9489B","title":"海逸海鲜(滨江大道店)","lon":"121.5021791","lat":"31.242800436","category":"72","category_name":"广东菜","address":"浦东新区滨江大道2450号(近星展银行大厦停车场)"},{"poiid":"B2094757D06FA5FD499E","title":"星巴克Starbucks(东方浮庭店)","lon":"121.501809489","lat":"31.2383870977","category":"260","category_name":"其他","address":"浦东新区世纪大道55号东方浮庭2楼(近陆家嘴东路)"},{"poiid":"B2094655D26FABFB4093","title":"中国平安金融大厦","lon":"121.50234","lat":"31.23947","category":"46","category_name":"楼宇","address":""},{"poiid":"B2094757D06FA6F9479A","title":"交银金融大厦","lon":"121.50331115","lat":"31.238565444","category":"46","category_name":"楼宇","address":"碧云东壹栋位于浦东金藏路51号(浙桥路口)"},{"poiid":"B2094757D068A1F8459D","title":"La Verbena","lon":"121.49765","lat":"31.24109","category":"94","category_name":"西餐厅","address":"浦东新区陆家嘴西路2967号北滨江E座(近国际会议中心)"},{"poiid":"B2094750D26AA6FB489F","title":"北外滩滨江绿地","lon":"121.499412","lat":"31.243846","category":"248","category_name":"生活娱乐","address":"东大名路新建路"},{"poiid":"B2094750D165A1FA4193","title":"小杨生煎","lon":"121.501","lat":"31.2401","category":"68","category_name":"快餐厅","address":"浦东新区陆家嘴环路1396号陆家嘴景庭1楼(海洋水族馆旁)"},{"poiid":"B2094757D068A0F84099","title":"老上海餐厅(老上海捌号)","lon":"121.500544738","lat":"31.2385504774","category":"500","category_name":"未知分类","address":"上海浦东新区世纪大道1号东方明珠8号门国际新闻中心1楼(近二号线陆家嘴站)"},{"poiid":"B2094757D06FA7FB409A","title":"东方既白(小陆家嘴店)","lon":"121.50165713","lat":"31.238781115","category":"68","category_name":"快餐厅","address":"浦东新区世纪大道55号东方浮庭1楼(近东方明珠)"},{"poiid":"B2094757D16FA6FA459F","title":"陸家嘴","lon":"121.502214738","lat":"31.2382874718","category":"500","category_name":"未知分类","address":"上海市浦东新区丰和路"},{"poiid":"B2094654DA6FA7FD499F","title":"东方明珠游船码头","lon":"121.49693","lat":"31.24078","category":"34","category_name":"港口码头","address":"滨江大道2852号"},{"poiid":"B2094757D068A5FD4798","title":"SCENA","lon":"121.49932544","lat":"31.238503496","category":"94","category_name":"西餐厅","address":"浦东新区世纪大道8号上海国金中心52楼丽思卡尔顿酒店(东泰路世纪大道)"},{"poiid":"B2094757D065A0FD459A","title":"星巴克 STARBICKS (汇亚大厦店)","lon":"121.503237538","lat":"31.2409458285","category":"65","category_name":"咖啡厅","address":"浦东新区陆家嘴环路1233号汇亚大厦1楼大厅(近海族馆)"},{"poiid":"B2094757D06BA7FA4398","title":"海鸥坊","lon":"121.498747738","lat":"31.2394844973","category":"500","category_name":"未知分类","address":"上海市浦东新区滨江大道"},{"poiid":"B2094757D06FA7FA459A","title":"宝寿司(陆家嘴店)","lon":"121.503959724","lat":"31.2409894884","category":"95","category_name":"日本料理","address":"浦东新区陆家嘴环路1318号星展银行大厦B1楼5号铺(近东园路)"},{"poiid":"B2094757D168A5F9409F","title":"Sunflour 星展银行店","lon":"121.50335","lat":"31.241352","category":"94","category_name":"西餐厅","address":"浦东新区陆家嘴环路1318号星展银行大厦美食广场(近东方明珠)"},{"poiid":"B2094757D168AAF44793","title":"Tavola","lon":"121.50140267","lat":"31.242693473","category":"94","category_name":"西餐厅","address":"浦东新区滨江大道2500号(近星展银行)"},{"poiid":"B2094752D66FA2F4479A","title":"蒗葶泰式酒吧餐厅","lon":"121.498146","lat":"31.241444","category":"256","category_name":"外国餐厅","address":"上海市 滨江大道2600号"},{"poiid":"B2094655D26AA0FA469F","title":"地铁陆家嘴站","lon":"121.50163","lat":"31.23807","category":"36","category_name":"地铁站","address":""},{"poiid":"B2094654DB6BA4F5499C","title":"禾绿回转寿司(明珠店)","lon":"121.50121","lat":"31.23975","category":"95","category_name":"日本料理","address":"上海浦东新区陆家嘴环路1406-1414号2楼(近海洋水族馆)"},{"poiid":"B2094654DB6BA4F5499E","title":"味千拉面","lon":"121.5011","lat":"31.23962","category":"95","category_name":"日本料理","address":"陆家嘴环路1416号"},{"poiid":"B2094757D068A1FA439D","title":"伊藤家(明珠店)","lon":"121.50153","lat":"31.23946","category":"95","category_name":"日本料理","address":"浦东新区陆家嘴环路1402号(近海洋水族馆)"},{"poiid":"B2094757D66DA3F84099","title":"麦当劳(东方浮庭店)","lon":"121.50247573","lat":"31.24010151","category":"68","category_name":"快餐厅","address":"浦东新区世纪大道55号世纪浮庭世纪天桥2楼(近陆家嘴环路)"},{"poiid":"B2094757D069AAFF4192","title":"COSTA COFFEE (星展店)","lon":"121.50335442","lat":"31.241647043","category":"65","category_name":"咖啡厅","address":"浦东新区陆家嘴环路1318号星展银行大厦B104号商铺(近海洋水族馆)"},{"poiid":"B2094757D16BABFB489A","title":"上海海洋水族馆(极地馆区)","lon":"121.501246","lat":"31.239975","category":"249","category_name":"购物服务","address":"上海市浦东新区陆家嘴环路1388号"},{"poiid":"B2094757D06FA5F9419A","title":"可颂坊(陆家嘴店)","lon":"121.501476","lat":"31.238862","category":"112","category_name":"糕饼店","address":"浦东新区世纪大道55号(近陆家嘴地铁站2出口)"},{"poiid":"B2094654DB64AAFD439A","title":"上海城市历史发展陈列馆","lon":"121.49958","lat":"31.23951","category":"182","category_name":"博物馆","address":"浦东新区浦东世纪大道1号东方明珠零米大厅内(丰和路明珠塔路)"},{"poiid":"B2094757D069A7FE499D","title":"伊藤家(汇亚店)","lon":"121.504283","lat":"31.241407","category":"95","category_name":"日本料理","address":"浦东新区陆家嘴环路1233号汇亚大厦M楼(近海族馆)"},{"poiid":"B2094757D068A4F4449E","title":"干锅居(陆家嘴店)","lon":"121.50114938","lat":"31.239771358","category":"83","category_name":"云贵菜","address":"浦东新区陆家嘴环路1406-1414号2楼(近海洋水族馆)"},{"poiid":"B2094752D264A7FB4798","title":"isola上海国金中心IFC","lon":"121.501307","lat":"31.23788","category":"247","category_name":"餐饮美食","address":"上海国金中心"},{"poiid":"B2094654DB6AA2FC4898","title":"沃歌斯 汇亚店 Wagas","lon":"121.504424054","lat":"31.241192793","category":"94","category_name":"西餐厅","address":"浦东新区陆家嘴环路1233号汇亚大厦1楼(近海族馆)"},{"poiid":"B2094654DA6FA7FD459E","title":"上海海洋水族馆","lon":"121.50194","lat":"31.24064","category":"199","category_name":"水族馆","address":"上海市浦东新区陆家嘴环路1388号"},{"poiid":"B2094654DA6FA7FC449A","title":"东方明珠广播电视塔","lon":"121.49967","lat":"31.23988","category":"240","category_name":"国家级景点","address":"浦东浦东新区世纪大道1号"},{"poiid":"B2094654DB64A5FE4098","title":"上海东方明珠塔","lon":"121.49958","lat":"31.23952","category":"247","category_name":"餐饮美食","address":"浦东新区浦东世纪大道1号(近二号线陆家嘴站)"},{"poiid":"B209475CD564A7F84392","title":"上海滩浦东香格里拉店","lon":"121.50058","lat":"31.23634","category":"119","category_name":"商场","address":"浦东富成路33号香格里拉酒店内大堂层"},{"poiid":"B2094655D36DA6FE409E","title":"陆家嘴","lon":"121.50163","lat":"31.23807","category":"38","category_name":"公交车站","address":"时代金融中心"},{"poiid":"B2094757D06FA5FB4493","title":"东方明珠旋转餐厅","lon":"121.50184","lat":"31.23831","category":"268","category_name":"自助","address":"浦东新区世纪大道1号东方明珠电视塔(近二号线陆家嘴站)"},{"poiid":"B2094757D06FA3FE429D","title":"鹿港小镇 陆家嘴店 Bellagio Cuisine","lon":"121.503279","lat":"31.241373","category":"91","category_name":"台湾菜","address":"浦东新区陆家嘴环路1318号星展银行大厦B1楼06室(东园路陆家嘴环路)"},{"poiid":"B2094757D06EABF5499C","title":"上海新天哈瓦那酒店","lon":"121.50419627","lat":"31.2422169954","category":"260","category_name":"其他","address":"浦东新区陆家嘴环路1288号(近东方明珠)"},{"poiid":"B2094757D06FA3FC4392","title":"中银大厦","lon":"121.502753258","lat":"31.2385470983","category":"46","category_name":"楼宇","address":"上海浦东新区银城中路200号"},{"poiid":"B2094655D26BA1F4419B","title":"陆家嘴地铁站","lon":"121.50161","lat":"31.23788","category":"36","category_name":"地铁站","address":"上海轨道交通 二号线 轨交陆家嘴站"},{"poiid":"B2094757D06EAAF9469F","title":"星展银行大厦","lon":"121.504057228","lat":"31.2418020945","category":"46","category_name":"楼宇","address":"浦东新区陆家嘴环路1318号B109"},{"poiid":"B2094757D06FA2FC4593","title":"hoF(陆家嘴店)","lon":"121.503866724","lat":"31.2410764887","category":"260","category_name":"其他","address":"浦东新区陆家嘴环路1318号星展银行大厦下沉式广场8号商铺(近东园路)"},{"poiid":"B2094654DA6FA7FD439C","title":"汇亚大厦","lon":"121.50415","lat":"31.24097","category":"46","category_name":"楼宇","address":"重庆北部新区金渝大道89号(北部新区管委会对面)"},{"poiid":"B2094753D66DA6FD409B","title":"上海凯宾斯基大酒店","lon":"121.504465341568","lat":"31.2420219309263","category":"213","category_name":"五星级宾馆","address":"陆家嘴环路1288号"},{"poiid":"B2094655D26DAAF8459A","title":"The Kitchen Salvatore Cuomo","lon":"121.49733","lat":"31.24084","category":"94","category_name":"西餐厅","address":"浦东新区陆家嘴西路2967号D座(近丰和路滨江大道海鸥舫)"},{"poiid":"B2094757D064ABF5479C","title":"Tavola Italian Dining","lon":"121.502135738","lat":"31.2423945594","category":"500","category_name":"未知分类","address":"上海浦东新区滨江大道2500号"},{"poiid":"B2094750D26FA3FE4698","title":"上海大自然野生昆虫馆","lon":"121.497772","lat":"31.240335","category":"627","category_name":"一般地点标志","address":"上海市浦东新区丰和路1号"},{"poiid":"B2094655D26CA4F44393","title":"东方明珠(东南门)","lon":"121.50051","lat":"31.23885","category":"680","category_name":"楼宇机构","address":"世纪大道1"},{"poiid":"B2094655D26DA3FF489B","title":"外滩12号大楼","lon":"121.497","lat":"31.2418","category":"46","category_name":"楼宇","address":"黄浦区中山东一路12号"},{"poiid":"B2094757D068AAF9489B","title":"海逸海鲜(滨江大道店)","lon":"121.5021791","lat":"31.242800436","category":"72","category_name":"广东菜","address":"浦东新区滨江大道2450号(近星展银行大厦停车场)"},{"poiid":"B2094757D06FA5FD499E","title":"星巴克Starbucks(东方浮庭店)","lon":"121.501809489","lat":"31.2383870977","category":"260","category_name":"其他","address":"浦东新区世纪大道55号东方浮庭2楼(近陆家嘴东路)"},{"poiid":"B2094655D26FABFB4093","title":"中国平安金融大厦","lon":"121.50234","lat":"31.23947","category":"46","category_name":"楼宇","address":""},{"poiid":"B2094757D06FA6F9479A","title":"交银金融大厦","lon":"121.50331115","lat":"31.238565444","category":"46","category_name":"楼宇","address":"碧云东壹栋位于浦东金藏路51号(浙桥路口)"},{"poiid":"B2094757D068A1F8459D","title":"La Verbena","lon":"121.49765","lat":"31.24109","category":"94","category_name":"西餐厅","address":"浦东新区陆家嘴西路2967号北滨江E座(近国际会议中心)"},{"poiid":"B2094750D26AA6FB489F","title":"北外滩滨江绿地","lon":"121.499412","lat":"31.243846","category":"248","category_name":"生活娱乐","address":"东大名路新建路"},{"poiid":"B2094750D165A1FA4193","title":"小杨生煎","lon":"121.501","lat":"31.2401","category":"68","category_name":"快餐厅","address":"浦东新区陆家嘴环路1396号陆家嘴景庭1楼(海洋水族馆旁)"},{"poiid":"B2094757D068A0F84099","title":"老上海餐厅(老上海捌号)","lon":"121.500544738","lat":"31.2385504774","category":"500","category_name":"未知分类","address":"上海浦东新区世纪大道1号东方明珠8号门国际新闻中心1楼(近二号线陆家嘴站)"},{"poiid":"B2094757D06FA7FB409A","title":"东方既白(小陆家嘴店)","lon":"121.50165713","lat":"31.238781115","category":"68","category_name":"快餐厅","address":"浦东新区世纪大道55号东方浮庭1楼(近东方明珠)"},{"poiid":"B2094757D16FA6FA459F","title":"陸家嘴","lon":"121.502214738","lat":"31.2382874718","category":"500","category_name":"未知分类","address":"上海市浦东新区丰和路"},{"poiid":"B2094654DA6FA7FD499F","title":"东方明珠游船码头","lon":"121.49693","lat":"31.24078","category":"34","category_name":"港口码头","address":"滨江大道2852号"},{"poiid":"B2094757D068A5FD4798","title":"SCENA","lon":"121.49932544","lat":"31.238503496","category":"94","category_name":"西餐厅","address":"浦东新区世纪大道8号上海国金中心52楼丽思卡尔顿酒店(东泰路世纪大道)"},{"poiid":"B2094757D065A0FD459A","title":"星巴克 STARBICKS (汇亚大厦店)","lon":"121.503237538","lat":"31.2409458285","category":"65","category_name":"咖啡厅","address":"浦东新区陆家嘴环路1233号汇亚大厦1楼大厅(近海族馆)"},{"poiid":"B2094757D06BA7FA4398","title":"海鸥坊","lon":"121.498747738","lat":"31.2394844973","category":"500","category_name":"未知分类","address":"上海市浦东新区滨江大道"},{"poiid":"B2094757D06FA7FA459A","title":"宝寿司(陆家嘴店)","lon":"121.503959724","lat":"31.2409894884","category":"95","category_name":"日本料理","address":"浦东新区陆家嘴环路1318号星展银行大厦B1楼5号铺(近东园路)"},{"poiid":"B2094757D168A5F9409F","title":"Sunflour 星展银行店","lon":"121.50335","lat":"31.241352","category":"94","category_name":"西餐厅","address":"浦东新区陆家嘴环路1318号星展银行大厦美食广场(近东方明珠)"},{"poiid":"B2094757D168AAF44793","title":"Tavola","lon":"121.50140267","lat":"31.242693473","category":"94","category_name":"西餐厅","address":"浦东新区滨江大道2500号(近星展银行)"},{"poiid":"B2094752D66FA2F4479A","title":"蒗葶泰式酒吧餐厅","lon":"121.498146","lat":"31.241444","category":"256","category_name":"外国餐厅","address":"上海市 滨江大道2600号"},{"poiid":"B2094655D26AA0FA469F","title":"地铁陆家嘴站","lon":"121.50163","lat":"31.23807","category":"36","category_name":"地铁站","address":""},{"poiid":"B2094654DB6BA4F5499C","title":"禾绿回转寿司(明珠店)","lon":"121.50121","lat":"31.23975","category":"95","category_name":"日本料理","address":"上海浦东新区陆家嘴环路1406-1414号2楼(近海洋水族馆)"},{"poiid":"B2094654DB6BA4F5499E","title":"味千拉面","lon":"121.5011","lat":"31.23962","category":"95","category_name":"日本料理","address":"陆家嘴环路1416号"},{"poiid":"B2094757D068A1FA439D","title":"伊藤家(明珠店)","lon":"121.50153","lat":"31.23946","category":"95","category_name":"日本料理","address":"浦东新区陆家嘴环路1402号(近海洋水族馆)"},{"poiid":"B2094757D66DA3F84099","title":"麦当劳(东方浮庭店)","lon":"121.50247573","lat":"31.24010151","category":"68","category_name":"快餐厅","address":"浦东新区世纪大道55号世纪浮庭世纪天桥2楼(近陆家嘴环路)"},{"poiid":"B2094757D069AAFF4192","title":"COSTA COFFEE (星展店)","lon":"121.50335442","lat":"31.241647043","category":"65","category_name":"咖啡厅","address":"浦东新区陆家嘴环路1318号星展银行大厦B104号商铺(近海洋水族馆)"},{"poiid":"B2094757D16BABFB489A","title":"上海海洋水族馆(极地馆区)","lon":"121.501246","lat":"31.239975","category":"249","category_name":"购物服务","address":"上海市浦东新区陆家嘴环路1388号"},{"poiid":"B2094757D06FA5F9419A","title":"可颂坊(陆家嘴店)","lon":"121.501476","lat":"31.238862","category":"112","category_name":"糕饼店","address":"浦东新区世纪大道55号(近陆家嘴地铁站2出口)"},{"poiid":"B2094654DB64AAFD439A","title":"上海城市历史发展陈列馆","lon":"121.49958","lat":"31.23951","category":"182","category_name":"博物馆","address":"浦东新区浦东世纪大道1号东方明珠零米大厅内(丰和路明珠塔路)"},{"poiid":"B2094757D069A7FE499D","title":"伊藤家(汇亚店)","lon":"121.504283","lat":"31.241407","category":"95","category_name":"日本料理","address":"浦东新区陆家嘴环路1233号汇亚大厦M楼(近海族馆)"},{"poiid":"B2094757D068A4F4449E","title":"干锅居(陆家嘴店)","lon":"121.50114938","lat":"31.239771358","category":"83","category_name":"云贵菜","address":"浦东新区陆家嘴环路1406-1414号2楼(近海洋水族馆)"},{"poiid":"B2094752D264A7FB4798","title":"isola上海国金中心IFC","lon":"121.501307","lat":"31.23788","category":"247","category_name":"餐饮美食","address":"上海国金中心"},{"poiid":"B2094654DB6AA2FC4898","title":"沃歌斯 汇亚店 Wagas","lon":"121.504424054","lat":"31.241192793","category":"94","category_name":"西餐厅","address":"浦东新区陆家嘴环路1233号汇亚大厦1楼(近海族馆)"},{"poiid":"B2094654DA6FA7FD459E","title":"上海海洋水族馆","lon":"121.50194","lat":"31.24064","category":"199","category_name":"水族馆","address":"上海市浦东新区陆家嘴环路1388号"},{"poiid":"B2094654DA6FA7FC449A","title":"东方明珠广播电视塔","lon":"121.49967","lat":"31.23988","category":"240","category_name":"国家级景点","address":"浦东浦东新区世纪大道1号"},{"poiid":"B2094654DB64A5FE4098","title":"上海东方明珠塔","lon":"121.49958","lat":"31.23952","category":"247","category_name":"餐饮美食","address":"浦东新区浦东世纪大道1号(近二号线陆家嘴站)"},{"poiid":"B209475CD564A7F84392","title":"上海滩浦东香格里拉店","lon":"121.50058","lat":"31.23634","category":"119","category_name":"商场","address":"浦东富成路33号香格里拉酒店内大堂层"},{"poiid":"B2094655D36DA6FE409E","title":"陆家嘴","lon":"121.50163","lat":"31.23807","category":"38","category_name":"公交车站","address":"时代金融中心"},{"poiid":"B2094757D06FA5FB4493","title":"东方明珠旋转餐厅","lon":"121.50184","lat":"31.23831","category":"268","category_name":"自助","address":"浦东新区世纪大道1号东方明珠电视塔(近二号线陆家嘴站)"},{"poiid":"B2094757D06FA3FE429D","title":"鹿港小镇 陆家嘴店 Bellagio Cuisine","lon":"121.503279","lat":"31.241373","category":"91","category_name":"台湾菜","address":"浦东新区陆家嘴环路1318号星展银行大厦B1楼06室(东园路陆家嘴环路)"},{"poiid":"B2094757D06EABF5499C","title":"上海新天哈瓦那酒店","lon":"121.50419627","lat":"31.2422169954","category":"260","category_name":"其他","address":"浦东新区陆家嘴环路1288号(近东方明珠)"},{"poiid":"B2094757D06FA3FC4392","title":"中银大厦","lon":"121.502753258","lat":"31.2385470983","category":"46","category_name":"楼宇","address":"上海浦东新区银城中路200号"},{"poiid":"B2094655D26BA1F4419B","title":"陆家嘴地铁站","lon":"121.50161","lat":"31.23788","category":"36","category_name":"地铁站","address":"上海轨道交通 二号线 轨交陆家嘴站"},{"poiid":"B2094757D06EAAF9469F","title":"星展银行大厦","lon":"121.504057228","lat":"31.2418020945","category":"46","category_name":"楼宇","address":"浦东新区陆家嘴环路1318号B109"},{"poiid":"B2094757D06FA2FC4593","title":"hoF(陆家嘴店)","lon":"121.503866724","lat":"31.2410764887","category":"260","category_name":"其他","address":"浦东新区陆家嘴环路1318号星展银行大厦下沉式广场8号商铺(近东园路)"},{"poiid":"B2094654DA6FA7FD439C","title":"汇亚大厦","lon":"121.50415","lat":"31.24097","category":"46","category_name":"楼宇","address":"重庆北部新区金渝大道89号(北部新区管委会对面)"},{"poiid":"B2094753D66DA6FD409B","title":"上海凯宾斯基大酒店","lon":"121.504465341568","lat":"31.2420219309263","category":"213","category_name":"五星级宾馆","address":"陆家嘴环路1288号"},{"poiid":"B2094655D26DAAF8459A","title":"The Kitchen Salvatore Cuomo","lon":"121.49733","lat":"31.24084","category":"94","category_name":"西餐厅","address":"浦东新区陆家嘴西路2967号D座(近丰和路滨江大道海鸥舫)"},{"poiid":"B2094757D064ABF5479C","title":"Tavola Italian Dining","lon":"121.502135738","lat":"31.2423945594","category":"500","category_name":"未知分类","address":"上海浦东新区滨江大道2500号"},{"poiid":"B2094750D26FA3FE4698","title":"上海大自然野生昆虫馆","lon":"121.497772","lat":"31.240335","category":"627","category_name":"一般地点标志","address":"上海市浦东新区丰和路1号"},{"poiid":"B2094655D26CA4F44393","title":"东方明珠(东南门)","lon":"121.50051","lat":"31.23885","category":"680","category_name":"楼宇机构","address":"世纪大道1"},{"poiid":"B2094655D26DA3FF489B","title":"外滩12号大楼","lon":"121.497","lat":"31.2418","category":"46","category_name":"楼宇","address":"黄浦区中山东一路12号"},{"poiid":"B2094757D068AAF9489B","title":"海逸海鲜(滨江大道店)","lon":"121.5021791","lat":"31.242800436","category":"72","category_name":"广东菜","address":"浦东新区滨江大道2450号(近星展银行大厦停车场)"},{"poiid":"B2094757D06FA5FD499E","title":"星巴克Starbucks(东方浮庭店)","lon":"121.501809489","lat":"31.2383870977","category":"260","category_name":"其他","address":"浦东新区世纪大道55号东方浮庭2楼(近陆家嘴东路)"},{"poiid":"B2094655D26FABFB4093","title":"中国平安金融大厦","lon":"121.50234","lat":"31.23947","category":"46","category_name":"楼宇","address":""},{"poiid":"B2094757D06FA6F9479A","title":"交银金融大厦","lon":"121.50331115","lat":"31.238565444","category":"46","category_name":"楼宇","address":"碧云东壹栋位于浦东金藏路51号(浙桥路口)"},{"poiid":"B2094757D068A1F8459D","title":"La Verbena","lon":"121.49765","lat":"31.24109","category":"94","category_name":"西餐厅","address":"浦东新区陆家嘴西路2967号北滨江E座(近国际会议中心)"},{"poiid":"B2094750D26AA6FB489F","title":"北外滩滨江绿地","lon":"121.499412","lat":"31.243846","category":"248","category_name":"生活娱乐","address":"东大名路新建路"},{"poiid":"B2094750D165A1FA4193","title":"小杨生煎","lon":"121.501","lat":"31.2401","category":"68","category_name":"快餐厅","address":"浦东新区陆家嘴环路1396号陆家嘴景庭1楼(海洋水族馆旁)"},{"poiid":"B2094757D068A0F84099","title":"老上海餐厅(老上海捌号)","lon":"121.500544738","lat":"31.2385504774","category":"500","category_name":"未知分类","address":"上海浦东新区世纪大道1号东方明珠8号门国际新闻中心1楼(近二号线陆家嘴站)"},{"poiid":"B2094757D06FA7FB409A","title":"东方既白(小陆家嘴店)","lon":"121.50165713","lat":"31.238781115","category":"68","category_name":"快餐厅","address":"浦东新区世纪大道55号东方浮庭1楼(近东方明珠)"},{"poiid":"B2094757D16FA6FA459F","title":"陸家嘴","lon":"121.502214738","lat":"31.2382874718","category":"500","category_name":"未知分类","address":"上海市浦东新区丰和路"},{"poiid":"B2094654DA6FA7FD499F","title":"东方明珠游船码头","lon":"121.49693","lat":"31.24078","category":"34","category_name":"港口码头","address":"滨江大道2852号"},{"poiid":"B2094757D068A5FD4798","title":"SCENA","lon":"121.49932544","lat":"31.238503496","category":"94","category_name":"西餐厅","address":"浦东新区世纪大道8号上海国金中心52楼丽思卡尔顿酒店(东泰路世纪大道)"},{"poiid":"B2094757D065A0FD459A","title":"星巴克 STARBICKS (汇亚大厦店)","lon":"121.503237538","lat":"31.2409458285","category":"65","category_name":"咖啡厅","address":"浦东新区陆家嘴环路1233号汇亚大厦1楼大厅(近海族馆)"},{"poiid":"B2094757D06BA7FA4398","title":"海鸥坊","lon":"121.498747738","lat":"31.2394844973","category":"500","category_name":"未知分类","address":"上海市浦东新区滨江大道"},{"poiid":"B2094757D06FA7FA459A","title":"宝寿司(陆家嘴店)","lon":"121.503959724","lat":"31.2409894884","category":"95","category_name":"日本料理","address":"浦东新区陆家嘴环路1318号星展银行大厦B1楼5号铺(近东园路)"},{"poiid":"B2094757D168A5F9409F","title":"Sunflour 星展银行店","lon":"121.50335","lat":"31.241352","category":"94","category_name":"西餐厅","address":"浦东新区陆家嘴环路1318号星展银行大厦美食广场(近东方明珠)"},{"poiid":"B2094757D168AAF44793","title":"Tavola","lon":"121.50140267","lat":"31.242693473","category":"94","category_name":"西餐厅","address":"浦东新区滨江大道2500号(近星展银行)"},{"poiid":"B2094752D66FA2F4479A","title":"蒗葶泰式酒吧餐厅","lon":"121.498146","lat":"31.241444","category":"256","category_name":"外国餐厅","address":"上海市 滨江大道2600号"},{"poiid":"B2094655D26AA0FA469F","title":"地铁陆家嘴站","lon":"121.50163","lat":"31.23807","category":"36","category_name":"地铁站","address":""},{"poiid":"B2094654DB6BA4F5499C","title":"禾绿回转寿司(明珠店)","lon":"121.50121","lat":"31.23975","category":"95","category_name":"日本料理","address":"上海浦东新区陆家嘴环路1406-1414号2楼(近海洋水族馆)"},{"poiid":"B2094654DB6BA4F5499E","title":"味千拉面","lon":"121.5011","lat":"31.23962","category":"95","category_name":"日本料理","address":"陆家嘴环路1416号"},{"poiid":"B2094757D068A1FA439D","title":"伊藤家(明珠店)","lon":"121.50153","lat":"31.23946","category":"95","category_name":"日本料理","address":"浦东新区陆家嘴环路1402号(近海洋水族馆)"},{"poiid":"B2094757D66DA3F84099","title":"麦当劳(东方浮庭店)","lon":"121.50247573","lat":"31.24010151","category":"68","category_name":"快餐厅","address":"浦东新区世纪大道55号世纪浮庭世纪天桥2楼(近陆家嘴环路)"},{"poiid":"B2094757D069AAFF4192","title":"COSTA COFFEE (星展店)","lon":"121.50335442","lat":"31.241647043","category":"65","category_name":"咖啡厅","address":"浦东新区陆家嘴环路1318号星展银行大厦B104号商铺(近海洋水族馆)"},{"poiid":"B2094757D16BABFB489A","title":"上海海洋水族馆(极地馆区)","lon":"121.501246","lat":"31.239975","category":"249","category_name":"购物服务","address":"上海市浦东新区陆家嘴环路1388号"},{"poiid":"B2094757D06FA5F9419A","title":"可颂坊(陆家嘴店)","lon":"121.501476","lat":"31.238862","category":"112","category_name":"糕饼店","address":"浦东新区世纪大道55号(近陆家嘴地铁站2出口)"},{"poiid":"B2094654DB64AAFD439A","title":"上海城市历史发展陈列馆","lon":"121.49958","lat":"31.23951","category":"182","category_name":"博物馆","address":"浦东新区浦东世纪大道1号东方明珠零米大厅内(丰和路明珠塔路)"},{"poiid":"B2094757D069A7FE499D","title":"伊藤家(汇亚店)","lon":"121.504283","lat":"31.241407","category":"95","category_name":"日本料理","address":"浦东新区陆家嘴环路1233号汇亚大厦M楼(近海族馆)"},{"poiid":"B2094757D068A4F4449E","title":"干锅居(陆家嘴店)","lon":"121.50114938","lat":"31.239771358","category":"83","category_name":"云贵菜","address":"浦东新区陆家嘴环路1406-1414号2楼(近海洋水族馆)"},{"poiid":"B2094752D264A7FB4798","title":"isola上海国金中心IFC","lon":"121.501307","lat":"31.23788","category":"247","category_name":"餐饮美食","address":"上海国金中心"},{"poiid":"B2094654DB6AA2FC4898","title":"沃歌斯 汇亚店 Wagas","lon":"121.504424054","lat":"31.241192793","category":"94","category_name":"西餐厅","address":"浦东新区陆家嘴环路1233号汇亚大厦1楼(近海族馆)"}]