[{"poiid":"B2094757D06FA7FA439F","title":"美特斯邦威集团","lon":"121.61739265","lat":"31.155516802","category":"46","category_name":"楼宇","address":"上海康桥东路800号"},{"poiid":"B2094757D06FA1FE409B","title":"中侨学院","lon":"121.624334","lat":"31.144325","category":"52","category_name":"高等院校","address":"浦东新区川周公路2788号"},{"poiid":"B2094757D16CAAFC469D","title":"疯人院","lon":"121.62086054","lat":"31.142437505","category":"500","category_name":"未知分类","address":"上海疯子居所升级版"},{"poiid":"B2094757D068A6FD419E","title":"孙桥现代农业开发区","lon":"121.63107","lat":"31.17052","category":"260","category_name":"其他","address":"上海浦东新区孙桥沔北路185号  "},{"poiid":"B2094654DB64A1FF499F","title":"上海中侨职业技术学院(川周公路)","lon":"121.62335","lat":"31.14542","category":"671","category_name":"高校中心点","address":"川周公路2788号"},{"poiid":"B2094757D06BA0FE429D","title":"和记小菜(孙桥农业开发区)","lon":"121.618694642","lat":"31.1659332243","category":"75","category_name":"浙江菜","address":"上海孙桥农业开发区"},{"poiid":"B2094655D26BA2FA499A","title":"孙桥农业园区","lon":"121.62261","lat":"31.16351","category":"38","category_name":"公交车站","address":"浦东新区张江镇孙桥沔北路185号。"},{"poiid":"B2094757D064A4FC4198","title":"外环线申江路出口","lon":"121.626492","lat":"31.153867","category":"500","category_name":"未知分类","address":"上海外环线申江路"},{"poiid":"B2094757D069A5F9449B","title":"孙桥花鸟市场","lon":"121.63124","lat":"31.17471","category":"249","category_name":"购物服务","address":"上海浦东新区孙桥路600号  "},{"poiid":"B2094655D26BA2FA4892","title":"孙桥镇","lon":"121.63003","lat":"31.17707","category":"38","category_name":"公交车站","address":"上海孙环路长美路"},{"poiid":"B2094655D264A0FA4292","title":"墅外金柳湾","lon":"121.621567","lat":"31.145622","category":"47","category_name":"住宅区","address":"浦东新区康桥镇川周公路2828弄"},{"poiid":"B2094654DB6DA6FD439D","title":"康桥工业区(康桥东路)","lon":"121.63565","lat":"31.16045","category":"45","category_name":"产业园区","address":"康桥东路1365弄1-32号"},{"poiid":"B2094757D069A4FB439F","title":"紫晶苑","lon":"121.62564","lat":"31.176443","category":"252","category_name":"楼宇机构","address":"上海市浦东新区孙农路398弄"},{"poiid":"B2094655D36DA7F4479F","title":"沔北路军民路","lon":"121.6173","lat":"31.16174","category":"38","category_name":"公交车站","address":""},{"poiid":"B2094654DB6DA1F8499B","title":"美特斯·邦威(康桥东路)","lon":"121.61742","lat":"31.15553","category":"141","category_name":"服装鞋帽皮具店","address":"浦东新区康桥东路800号"},{"poiid":"B2094654DB6DA1F9419B","title":"高西村民营企业小区","lon":"121.62217","lat":"31.15803","category":"47","category_name":"住宅区","address":""},{"poiid":"B2094757D16CA2FC4993","title":"利君绿苑酒家","lon":"121.63072","lat":"31.16855","category":"76","category_name":"上海菜","address":"上海浦东新区沔北路185号(近孙桥农业园)  "},{"poiid":"B2094757D16CA2F4429E","title":"奥琪羊毛","lon":"121.62351256","lat":"31.158886883","category":"249","category_name":"购物服务","address":"上海横沔江路538号"},{"poiid":"B2094757D06BA0FF409A","title":"上海邦购信息科技有限公司","lon":"121.61717764","lat":"31.154522043","category":"46","category_name":"楼宇","address":"上海市浦东新区康桥东路700号"},{"poiid":"B2094757D068A0F5479A","title":"华夏高架路","lon":"121.61191608","lat":"31.176733945","category":"500","category_name":"未知分类","address":"上海华夏高架路"},{"poiid":"B2094654DB6DA1F94298","title":"上海安太祥机械设备有限公司","lon":"121.62684","lat":"31.16351","category":"263","category_name":"公司","address":""},{"poiid":"B2094654DB6DA1F44099","title":"高西民营小区","lon":"121.629","lat":"31.1651","category":"47","category_name":"住宅区","address":"康桥东路905弄28号"},{"poiid":"B2094757D06BAAF5489A","title":"美特斯邦威大学","lon":"121.61649097","lat":"31.155532314","category":"253","category_name":"校园生活","address":"上海市浦东新区康桥东路800号 一阶、二阶、三阶"},{"poiid":"B2094654DB6DA1F9429F","title":"上海晨龙橡塑线缆厂","lon":"121.62744","lat":"31.16203","category":"263","category_name":"公司","address":"沔北村唐家宅58号"},{"poiid":"B2094654DA6AA6FD4099","title":"同济大学学生素质教育孙桥实践基地","lon":"121.61495","lat":"31.16859","category":"45","category_name":"产业园区","address":""},{"poiid":"B2094654DA6AA6FF4292","title":"上海广特水电安装服务有限公司","lon":"121.62659","lat":"31.16568","category":"263","category_name":"公司","address":"沔北路555"},{"poiid":"B2094757D16FA3F94092","title":"浦东发展银行锦绣支行","lon":"121.61679797","lat":"31.15664134","category":"150","category_name":"银行","address":"上海市浦东新区锦延路342号"},{"poiid":"B2094654DA6AA6FC4993","title":"向华医院","lon":"121.6141","lat":"31.16842","category":"162","category_name":"医院","address":"向华北路;军民公路"},{"poiid":"B2094757D16CA7F9479D","title":"康桥东路","lon":"121.62065124","lat":"31.153776168","category":"500","category_name":"未知分类","address":"上海康桥东路800"},{"poiid":"B2094654DB6DA3FD449C","title":"上海善能机械有限公司","lon":"121.61991","lat":"31.15571","category":"263","category_name":"公司","address":"康桥东路889"},{"poiid":"B2094654DB6DA1FB499C","title":"红蜻蜓集团·上海鞋业","lon":"121.62834","lat":"31.15659","category":"263","category_name":"公司","address":"康桥东路1088号"},{"poiid":"B2094655D36DA2FD4193","title":"申江路跨线桥","lon":"121.6245","lat":"31.15376","category":"250","category_name":"公园户外","address":""},{"poiid":"B2094654DB6DA3FD4492","title":"上海神汇汽车转向器有限公司","lon":"121.62036","lat":"31.15463","category":"263","category_name":"公司","address":"康桥东路888"},{"poiid":"B2094655D265A4FA409E","title":"东郊紫园","lon":"121.62326","lat":"31.179136","category":"47","category_name":"住宅区","address":"浦东新区孙农路200弄"},{"poiid":"B2094757D66CA3F8439D","title":"上海乐来汽车分析测试有限公司","lon":"121.630175","lat":"31.159897","category":"263","category_name":"公司","address":"上海市浦东新区康桥东路1365弄12A"},{"poiid":"B2094757DB6DA6FA479E","title":"上海康桥凯莱酒店","lon":"121.625645","lat":"31.144464","category":"215","category_name":"三星级宾馆","address":"浦东新区川周公路2689号(近高新路)"},{"poiid":"B2094654DB6DA6FD449B","title":"JOST","lon":"121.63032","lat":"31.15947","category":"248","category_name":"生活娱乐","address":"康桥东路1159-81"},{"poiid":"B2094655D26BA2FA4999","title":"孙桥路科农路","lon":"121.6311","lat":"31.17046","category":"38","category_name":"公交车站","address":""},{"poiid":"B2094654DB6DA3FD459A","title":"上海双基药业有限公司","lon":"121.61475","lat":"31.15462","category":"263","category_name":"公司","address":"康桥东路585号"},{"poiid":"B2094654DB6DA6FD4393","title":"上海申龙客车有限公司","lon":"121.63185","lat":"31.16004","category":"263","category_name":"公司","address":"康桥东路1159弄105"},{"poiid":"B2094654DB6DA6F5479E","title":"上海江森自控汽车电子有限公司","lon":"121.63281","lat":"31.15745","category":"263","category_name":"公司","address":""},{"poiid":"B2094654DB6DA6FD4392","title":"金旅客车上海基地","lon":"121.63206","lat":"31.16007","category":"263","category_name":"公司","address":"康桥东路1159弄105"},{"poiid":"B2094654DA6AA6FF459B","title":"航空公司华教通用上海基地","lon":"121.62593","lat":"31.17081","category":"263","category_name":"公司","address":"勤政路185"},{"poiid":"B2094654DA6AA4FD4792","title":"上海烟草集团牡丹香精香料有限公司","lon":"121.63151","lat":"31.16694","category":"263","category_name":"公司","address":""},{"poiid":"B2094654DB6DA7F54993","title":"上海市第二精神病医院","lon":"121.63709","lat":"31.15025","category":"162","category_name":"医院","address":"南汇区川周公路"},{"poiid":"B2094654DA6AA4FD4799","title":"上海市孙桥中学","lon":"121.63123","lat":"31.17281","category":"55","category_name":"中学","address":"浦东新区孙桥镇孙桥路705号"},{"poiid":"B2094757D168A0FF439E","title":"亲和源","lon":"121.61853724","lat":"31.142419505","category":"247","category_name":"餐饮美食","address":"萧山经济开发区青年路建设二路交界处东北侧"},{"poiid":"B2094654DB6DA1F94292","title":"江苏大学浙江大元技术研究中心","lon":"121.60968","lat":"31.1537","category":"52","category_name":"高等院校","address":"南汇区康桥东路333号"},{"poiid":"B2094654DA6AA6FF4299","title":"上海绿色地带食品有限公司","lon":"121.62493","lat":"31.17214","category":"263","category_name":"公司","address":"勤政路48"},{"poiid":"B2094654DB6DA6FC439B","title":"同济大学耐候实验室","lon":"121.63333","lat":"31.15796","category":"253","category_name":"校园生活","address":"康桥东路1221号"},{"poiid":"B2094757D06FA7FA439F","title":"美特斯邦威集团","lon":"121.61739265","lat":"31.155516802","category":"46","category_name":"楼宇","address":"上海康桥东路800号"},{"poiid":"B2094757D06FA1FE409B","title":"中侨学院","lon":"121.624334","lat":"31.144325","category":"52","category_name":"高等院校","address":"浦东新区川周公路2788号"},{"poiid":"B2094757D16CAAFC469D","title":"疯人院","lon":"121.62086054","lat":"31.142437505","category":"500","category_name":"未知分类","address":"上海疯子居所升级版"},{"poiid":"B2094757D068A6FD419E","title":"孙桥现代农业开发区","lon":"121.63107","lat":"31.17052","category":"260","category_name":"其他","address":"上海浦东新区孙桥沔北路185号  "},{"poiid":"B2094654DB64A1FF499F","title":"上海中侨职业技术学院(川周公路)","lon":"121.62335","lat":"31.14542","category":"671","category_name":"高校中心点","address":"川周公路2788号"},{"poiid":"B2094757D06BA0FE429D","title":"和记小菜(孙桥农业开发区)","lon":"121.618694642","lat":"31.1659332243","category":"75","category_name":"浙江菜","address":"上海孙桥农业开发区"},{"poiid":"B2094655D26BA2FA499A","title":"孙桥农业园区","lon":"121.62261","lat":"31.16351","category":"38","category_name":"公交车站","address":"浦东新区张江镇孙桥沔北路185号。"},{"poiid":"B2094757D064A4FC4198","title":"外环线申江路出口","lon":"121.626492","lat":"31.153867","category":"500","category_name":"未知分类","address":"上海外环线申江路"},{"poiid":"B2094757D069A5F9449B","title":"孙桥花鸟市场","lon":"121.63124","lat":"31.17471","category":"249","category_name":"购物服务","address":"上海浦东新区孙桥路600号  "},{"poiid":"B2094655D26BA2FA4892","title":"孙桥镇","lon":"121.63003","lat":"31.17707","category":"38","category_name":"公交车站","address":"上海孙环路长美路"},{"poiid":"B2094655D264A0FA4292","title":"墅外金柳湾","lon":"121.621567","lat":"31.145622","category":"47","category_name":"住宅区","address":"浦东新区康桥镇川周公路2828弄"},{"poiid":"B2094654DB6DA6FD439D","title":"康桥工业区(康桥东路)","lon":"121.63565","lat":"31.16045","category":"45","category_name":"产业园区","address":"康桥东路1365弄1-32号"},{"poiid":"B2094757D069A4FB439F","title":"紫晶苑","lon":"121.62564","lat":"31.176443","category":"252","category_name":"楼宇机构","address":"上海市浦东新区孙农路398弄"},{"poiid":"B2094655D36DA7F4479F","title":"沔北路军民路","lon":"121.6173","lat":"31.16174","category":"38","category_name":"公交车站","address":""},{"poiid":"B2094654DB6DA1F8499B","title":"美特斯·邦威(康桥东路)","lon":"121.61742","lat":"31.15553","category":"141","category_name":"服装鞋帽皮具店","address":"浦东新区康桥东路800号"},{"poiid":"B2094654DB6DA1F9419B","title":"高西村民营企业小区","lon":"121.62217","lat":"31.15803","category":"47","category_name":"住宅区","address":""},{"poiid":"B2094757D16CA2FC4993","title":"利君绿苑酒家","lon":"121.63072","lat":"31.16855","category":"76","category_name":"上海菜","address":"上海浦东新区沔北路185号(近孙桥农业园)  "},{"poiid":"B2094757D16CA2F4429E","title":"奥琪羊毛","lon":"121.62351256","lat":"31.158886883","category":"249","category_name":"购物服务","address":"上海横沔江路538号"},{"poiid":"B2094757D06BA0FF409A","title":"上海邦购信息科技有限公司","lon":"121.61717764","lat":"31.154522043","category":"46","category_name":"楼宇","address":"上海市浦东新区康桥东路700号"},{"poiid":"B2094757D068A0F5479A","title":"华夏高架路","lon":"121.61191608","lat":"31.176733945","category":"500","category_name":"未知分类","address":"上海华夏高架路"},{"poiid":"B2094654DB6DA1F94298","title":"上海安太祥机械设备有限公司","lon":"121.62684","lat":"31.16351","category":"263","category_name":"公司","address":""},{"poiid":"B2094654DB6DA1F44099","title":"高西民营小区","lon":"121.629","lat":"31.1651","category":"47","category_name":"住宅区","address":"康桥东路905弄28号"},{"poiid":"B2094757D06BAAF5489A","title":"美特斯邦威大学","lon":"121.61649097","lat":"31.155532314","category":"253","category_name":"校园生活","address":"上海市浦东新区康桥东路800号 一阶、二阶、三阶"},{"poiid":"B2094654DB6DA1F9429F","title":"上海晨龙橡塑线缆厂","lon":"121.62744","lat":"31.16203","category":"263","category_name":"公司","address":"沔北村唐家宅58号"},{"poiid":"B2094654DA6AA6FD4099","title":"同济大学学生素质教育孙桥实践基地","lon":"121.61495","lat":"31.16859","category":"45","category_name":"产业园区","address":""},{"poiid":"B2094654DA6AA6FF4292","title":"上海广特水电安装服务有限公司","lon":"121.62659","lat":"31.16568","category":"263","category_name":"公司","address":"沔北路555"},{"poiid":"B2094757D16FA3F94092","title":"浦东发展银行锦绣支行","lon":"121.61679797","lat":"31.15664134","category":"150","category_name":"银行","address":"上海市浦东新区锦延路342号"},{"poiid":"B2094654DA6AA6FC4993","title":"向华医院","lon":"121.6141","lat":"31.16842","category":"162","category_name":"医院","address":"向华北路;军民公路"},{"poiid":"B2094757D16CA7F9479D","title":"康桥东路","lon":"121.62065124","lat":"31.153776168","category":"500","category_name":"未知分类","address":"上海康桥东路800"},{"poiid":"B2094654DB6DA3FD449C","title":"上海善能机械有限公司","lon":"121.61991","lat":"31.15571","category":"263","category_name":"公司","address":"康桥东路889"},{"poiid":"B2094654DB6DA1FB499C","title":"红蜻蜓集团·上海鞋业","lon":"121.62834","lat":"31.15659","category":"263","category_name":"公司","address":"康桥东路1088号"},{"poiid":"B2094655D36DA2FD4193","title":"申江路跨线桥","lon":"121.6245","lat":"31.15376","category":"250","category_name":"公园户外","address":""},{"poiid":"B2094654DB6DA3FD4492","title":"上海神汇汽车转向器有限公司","lon":"121.62036","lat":"31.15463","category":"263","category_name":"公司","address":"康桥东路888"},{"poiid":"B2094655D265A4FA409E","title":"东郊紫园","lon":"121.62326","lat":"31.179136","category":"47","category_name":"住宅区","address":"浦东新区孙农路200弄"},{"poiid":"B2094757D66CA3F8439D","title":"上海乐来汽车分析测试有限公司","lon":"121.630175","lat":"31.159897","category":"263","category_name":"公司","address":"上海市浦东新区康桥东路1365弄12A"},{"poiid":"B2094757DB6DA6FA479E","title":"上海康桥凯莱酒店","lon":"121.625645","lat":"31.144464","category":"215","category_name":"三星级宾馆","address":"浦东新区川周公路2689号(近高新路)"},{"poiid":"B2094654DB6DA6FD449B","title":"JOST","lon":"121.63032","lat":"31.15947","category":"248","category_name":"生活娱乐","address":"康桥东路1159-81"},{"poiid":"B2094655D26BA2FA4999","title":"孙桥路科农路","lon":"121.6311","lat":"31.17046","category":"38","category_name":"公交车站","address":""},{"poiid":"B2094654DB6DA3FD459A","title":"上海双基药业有限公司","lon":"121.61475","lat":"31.15462","category":"263","category_name":"公司","address":"康桥东路585号"},{"poiid":"B2094654DB6DA6FD4393","title":"上海申龙客车有限公司","lon":"121.63185","lat":"31.16004","category":"263","category_name":"公司","address":"康桥东路1159弄105"},{"poiid":"B2094654DB6DA6F5479E","title":"上海江森自控汽车电子有限公司","lon":"121.63281","lat":"31.15745","category":"263","category_name":"公司","address":""},{"poiid":"B2094654DB6DA6FD4392","title":"金旅客车上海基地","lon":"121.63206","lat":"31.16007","category":"263","category_name":"公司","address":"康桥东路1159弄105"},{"poiid":"B2094654DA6AA6FF459B","title":"航空公司华教通用上海基地","lon":"121.62593","lat":"31.17081","category":"263","category_name":"公司","address":"勤政路185"},{"poiid":"B2094654DA6AA4FD4792","title":"上海烟草集团牡丹香精香料有限公司","lon":"121.63151","lat":"31.16694","category":"263","category_name":"公司","address":""},{"poiid":"B2094654DB6DA7F54993","title":"上海市第二精神病医院","lon":"121.63709","lat":"31.15025","category":"162","category_name":"医院","address":"南汇区川周公路"},{"poiid":"B2094654DA6AA4FD4799","title":"上海市孙桥中学","lon":"121.63123","lat":"31.17281","category":"55","category_name":"中学","address":"浦东新区孙桥镇孙桥路705号"},{"poiid":"B2094757D168A0FF439E","title":"亲和源","lon":"121.61853724","lat":"31.142419505","category":"247","category_name":"餐饮美食","address":"萧山经济开发区青年路建设二路交界处东北侧"},{"poiid":"B2094654DB6DA1F94292","title":"江苏大学浙江大元技术研究中心","lon":"121.60968","lat":"31.1537","category":"52","category_name":"高等院校","address":"南汇区康桥东路333号"},{"poiid":"B2094654DA6AA6FF4299","title":"上海绿色地带食品有限公司","lon":"121.62493","lat":"31.17214","category":"263","category_name":"公司","address":"勤政路48"},{"poiid":"B2094654DB6DA6FC439B","title":"同济大学耐候实验室","lon":"121.63333","lat":"31.15796","category":"253","category_name":"校园生活","address":"康桥东路1221号"}]