[{"poiid":"B2094655D268ABF94898","title":"徐浦大桥","lon":"121.46894","lat":"31.12749","category":"250","category_name":"公园户外","address":"上海徐汇区环南二大道-浦东新区环南二大道"},{"poiid":"B2094655D26BAAFD479F","title":"印象欧洲","lon":"121.462118","lat":"31.118556","category":"47","category_name":"住宅区","address":"华泾镇龙吴路2488号"},{"poiid":"B2094757D06FA1F5489B","title":"徐汇新城","lon":"121.453094482","lat":"31.1309185028","category":"47","category_name":"住宅区","address":"上海市徐汇区龙吴路1595号"},{"poiid":"B2094757D06FA0FC429C","title":"龙吴路罗秀路","lon":"121.452246","lat":"31.135412","category":"260","category_name":"其他","address":"上海市徐汇区龙吴路罗秀路"},{"poiid":"B2094757D06FA1FA489B","title":"紫阳花苑","lon":"121.45851978229","lat":"31.119646803034","category":"47","category_name":"住宅区","address":"紫阳花苑位于徐汇龙吴路2589号"},{"poiid":"B2094655D26FA3F4459D","title":"华泾绿苑","lon":"121.45804","lat":"31.1153","category":"47","category_name":"住宅区","address":"上海市徐汇区龙吴路2588弄"},{"poiid":"B2094757D06FA2FA4192","title":"明丰新纪苑","lon":"121.45352","lat":"31.126495","category":"47","category_name":"住宅区","address":"上海市徐汇区华发路99弄"},{"poiid":"B2094654DB6CA5F8449D","title":"华欣家园","lon":"121.45748","lat":"31.11902","category":"47","category_name":"住宅区","address":"龙吴路2418号"},{"poiid":"B2094654DB6DA3FC439A","title":"华泾公园","lon":"121.4546","lat":"31.12032","category":"196","category_name":"公园","address":"徐汇区华泾路190号(近龙吴路)"},{"poiid":"B2094757D065A0FA4999","title":"馨宁公寓","lon":"121.44778","lat":"31.128372","category":"47","category_name":"住宅区","address":"上海华发路368弄"},{"poiid":"B2094655D36CA0F5449D","title":"华泾小区","lon":"121.467","lat":"31.1225","category":"47","category_name":"住宅区","address":"华泾路38弄"},{"poiid":"B2094655D26FAAFC479E","title":"徐汇臻园","lon":"121.45024","lat":"31.126078","category":"47","category_name":"住宅区","address":"上海市徐汇区华发路151号"},{"poiid":"B2094654DA65A6F54192","title":"上海市公安局徐汇分局交警支队对外办事窗口","lon":"121.45696","lat":"31.12466","category":"250","category_name":"公园户外","address":"龙吴路2138"},{"poiid":"B2094655D36CA1F8419E","title":"龙吴路华发路","lon":"121.45608","lat":"31.12669","category":"38","category_name":"公交车站","address":""},{"poiid":"B2094750D26FABFA4793","title":"东湾小区","lon":"121.45731","lat":"31.12269","category":"251","category_name":"出行住宿","address":"东湾小区位于徐汇龙吴路2388弄"},{"poiid":"B2094757D068A4F4459B","title":"宁国禅寺","lon":"121.450095","lat":"31.116805","category":"244","category_name":"寺庙道观","address":"徐汇区长华路(近华泾路)"},{"poiid":"B2094757D16FA7FD409A","title":"华育中学","lon":"121.453852857","lat":"31.1190827441","category":"55","category_name":"中学","address":"徐汇区龙吟路99号(近华济路)"},{"poiid":"B2094655D268ABF9489B","title":"龙吴路立交桥","lon":"121.45769","lat":"31.1244","category":"250","category_name":"公园户外","address":""},{"poiid":"B2094757D068A2FF4499","title":"徐汇区体育馆","lon":"121.4476242","lat":"31.118782043","category":"220","category_name":"运动场所","address":"上海华泾路1190号"},{"poiid":"B2094757D06FA6F8479C","title":"TONY WEAR(汤尼威尔)上海公司","lon":"121.457831","lat":"31.126421","category":"500","category_name":"未知分类","address":"上海龙吴路2046号"},{"poiid":"B2094757D065A2F8429C","title":"新红园大酒店","lon":"121.455392643","lat":"31.1244974373","category":"76","category_name":"上海菜","address":"徐汇区华泾镇龙吟路9号(近华泾路)查看地图"},{"poiid":"B2094654DA65A6F5419C","title":"上海市公安局徐汇分局交警支队事故审理科","lon":"121.45696","lat":"31.12466","category":"250","category_name":"公园户外","address":"龙吴路2138"},{"poiid":"B2094757D16BA2F8479E","title":"770路龙吴路华泾路(东湾小区)站","lon":"121.459006009","lat":"31.1240475275","category":"500","category_name":"未知分类","address":"上海龙吴路 华泾路 东湾小区"},{"poiid":"B2094757D16AAAFB4893","title":"汇龙足球场","lon":"121.458764009","lat":"31.1214444708","category":"220","category_name":"运动场所","address":"上海闵行区华泾镇"},{"poiid":"B2094655D268A6FC4592","title":"徐汇公安分局交通警察支队业务受理点","lon":"121.45697","lat":"31.12466","category":"250","category_name":"公园户外","address":""},{"poiid":"B2094654DA65A6F54298","title":"上海良友海狮油脂实业有限公司","lon":"121.46038","lat":"31.12612","category":"263","category_name":"公司","address":"龙吴路2080号"},{"poiid":"B2094757D068A7F54592","title":"永达别克汽车龙吴路4s店","lon":"121.458501009","lat":"31.1251955525","category":"500","category_name":"未知分类","address":"上海市徐汇区龙吴路1600号"},{"poiid":"B2094757D06FA5FE469D","title":"徐汇华园","lon":"121.45417","lat":"31.128843","category":"47","category_name":"住宅区","address":"上海华发路58弄"},{"poiid":"B2094654DA65A6F54193","title":"上海星州汽车维修有限公司(龙吴路)","lon":"121.45843","lat":"31.12495","category":"159","category_name":"汽车维修","address":"龙吴路2148号"},{"poiid":"B2094750D66CA1FF469D","title":"华沁家园","lon":"121.449996","lat":"31.134494","category":"500","category_name":"未知分类","address":"上海徐汇区龙吴路1343弄"},{"poiid":"B2094655D36CA3F5439E","title":"物损交通事故保险理赔服务中心星州分中心","lon":"121.45843","lat":"31.12496","category":"219","category_name":"其他","address":"徐梅路180临"},{"poiid":"B2094753D665A0FF429B","title":"徐浦大桥","lon":"121.456626","lat":"31.124225","category":"500","category_name":"未知分类","address":"上海市 外环徐浦大桥"},{"poiid":"B2094757D66DABFE4493","title":"华泾路老沪闵路(规划15号线华泾路站)","lon":"121.458504","lat":"31.123019505","category":"500","category_name":"未知分类","address":"上海华泾路老沪闵路 718 714路"},{"poiid":"B2094757D06BA0FA449A","title":"新路达华联吉卖盛(华泾路店)","lon":"121.45421736","lat":"31.1196646376","category":"118","category_name":"超级市场","address":"上海华泾路龙吴路 华泾社区中心旁"},{"poiid":"B2094655D36CA0F54493","title":"华泾路龙吴路","lon":"121.4546","lat":"31.1198","category":"38","category_name":"公交车站","address":""},{"poiid":"B2094757D16CA1F8489D","title":"华发小区","lon":"121.45112485","lat":"31.128025923","category":"47","category_name":"住宅区","address":"华发小区位于徐汇华发路176号"},{"poiid":"B2094757D06BA0F84599","title":"华泾镇政府","lon":"121.456136","lat":"31.117457","category":"500","category_name":"未知分类","address":"上海龙吴路2443号"},{"poiid":"B2094654DB6CA5F8449A","title":"闽南石材码头","lon":"121.46392","lat":"31.12052","category":"34","category_name":"港口码头","address":""},{"poiid":"B2094654DB6CA5F8429B","title":"华欣家园农副产品综合市场","lon":"121.45917","lat":"31.12011","category":"117","category_name":"便民商店/便利店","address":""},{"poiid":"B2094757D169AAF4469E","title":"豪大大鸡排","lon":"121.454907009","lat":"31.1255505602","category":"247","category_name":"餐饮美食","address":"上海市徐汇区华发路41号"},{"poiid":"B2094654DA65A6F4489B","title":"汤尼威尔(上海)服饰有限公司","lon":"121.45782","lat":"31.12642","category":"263","category_name":"公司","address":"龙吴路2046号"},{"poiid":"B2094654DB64A2FA419D","title":"世纪华联","lon":"121.45601","lat":"31.12823","category":"117","category_name":"便民商店/便利店","address":"龙吴路2028识别"},{"poiid":"B2094654DA65A6F4449C","title":"港口渡口","lon":"121.45875","lat":"31.1334","category":"34","category_name":"港口码头","address":""},{"poiid":"B2094757D66CAAF5469A","title":"华特酒家","lon":"121.456708009","lat":"31.1171123764","category":"76","category_name":"上海菜","address":"徐汇区华济路15号(近龙吴路)"},{"poiid":"B2094654DB6CA2FB419D","title":"快客No.6981","lon":"121.45454","lat":"31.12693","category":"117","category_name":"便民商店/便利店","address":"华发路21"},{"poiid":"B2094655D26FA3F5419C","title":"华济苑小区","lon":"121.46212","lat":"31.11741","category":"47","category_name":"住宅区","address":"华济苑位于徐汇华济路38弄8号"},{"poiid":"B2094655D268A7FA409D","title":"好又多超市","lon":"121.45323","lat":"31.12682","category":"118","category_name":"超级市场","address":""},{"poiid":"B2094752D06DA2F44992","title":"浦东假日酒店","lon":"121.463451","lat":"31.128871","category":"247","category_name":"餐饮美食","address":"上海东方路899号"},{"poiid":"B2094654DA65A6F44293","title":"上海市划船俱乐部","lon":"121.45666","lat":"31.13521","category":"220","category_name":"运动场所","address":"龙吴路1594"},{"poiid":"B2094757D064A6FB479F","title":"小yiの屋","lon":"121.4558085","lat":"31.12647318","category":"500","category_name":"未知分类","address":"上海华发路99弄 5号 ×0×室"},{"poiid":"B2094655D268ABF94898","title":"徐浦大桥","lon":"121.46894","lat":"31.12749","category":"250","category_name":"公园户外","address":"上海徐汇区环南二大道-浦东新区环南二大道"},{"poiid":"B2094655D26BAAFD479F","title":"印象欧洲","lon":"121.462118","lat":"31.118556","category":"47","category_name":"住宅区","address":"华泾镇龙吴路2488号"},{"poiid":"B2094757D06FA1F5489B","title":"徐汇新城","lon":"121.453094482","lat":"31.1309185028","category":"47","category_name":"住宅区","address":"上海市徐汇区龙吴路1595号"},{"poiid":"B2094757D06FA0FC429C","title":"龙吴路罗秀路","lon":"121.452246","lat":"31.135412","category":"260","category_name":"其他","address":"上海市徐汇区龙吴路罗秀路"},{"poiid":"B2094757D06FA1FA489B","title":"紫阳花苑","lon":"121.45851978229","lat":"31.119646803034","category":"47","category_name":"住宅区","address":"紫阳花苑位于徐汇龙吴路2589号"},{"poiid":"B2094655D26FA3F4459D","title":"华泾绿苑","lon":"121.45804","lat":"31.1153","category":"47","category_name":"住宅区","address":"上海市徐汇区龙吴路2588弄"},{"poiid":"B2094757D06FA2FA4192","title":"明丰新纪苑","lon":"121.45352","lat":"31.126495","category":"47","category_name":"住宅区","address":"上海市徐汇区华发路99弄"},{"poiid":"B2094654DB6CA5F8449D","title":"华欣家园","lon":"121.45748","lat":"31.11902","category":"47","category_name":"住宅区","address":"龙吴路2418号"},{"poiid":"B2094654DB6DA3FC439A","title":"华泾公园","lon":"121.4546","lat":"31.12032","category":"196","category_name":"公园","address":"徐汇区华泾路190号(近龙吴路)"},{"poiid":"B2094757D065A0FA4999","title":"馨宁公寓","lon":"121.44778","lat":"31.128372","category":"47","category_name":"住宅区","address":"上海华发路368弄"},{"poiid":"B2094655D36CA0F5449D","title":"华泾小区","lon":"121.467","lat":"31.1225","category":"47","category_name":"住宅区","address":"华泾路38弄"},{"poiid":"B2094655D26FAAFC479E","title":"徐汇臻园","lon":"121.45024","lat":"31.126078","category":"47","category_name":"住宅区","address":"上海市徐汇区华发路151号"},{"poiid":"B2094654DA65A6F54192","title":"上海市公安局徐汇分局交警支队对外办事窗口","lon":"121.45696","lat":"31.12466","category":"250","category_name":"公园户外","address":"龙吴路2138"},{"poiid":"B2094655D36CA1F8419E","title":"龙吴路华发路","lon":"121.45608","lat":"31.12669","category":"38","category_name":"公交车站","address":""},{"poiid":"B2094750D26FABFA4793","title":"东湾小区","lon":"121.45731","lat":"31.12269","category":"251","category_name":"出行住宿","address":"东湾小区位于徐汇龙吴路2388弄"},{"poiid":"B2094757D068A4F4459B","title":"宁国禅寺","lon":"121.450095","lat":"31.116805","category":"244","category_name":"寺庙道观","address":"徐汇区长华路(近华泾路)"},{"poiid":"B2094757D16FA7FD409A","title":"华育中学","lon":"121.453852857","lat":"31.1190827441","category":"55","category_name":"中学","address":"徐汇区龙吟路99号(近华济路)"},{"poiid":"B2094655D268ABF9489B","title":"龙吴路立交桥","lon":"121.45769","lat":"31.1244","category":"250","category_name":"公园户外","address":""},{"poiid":"B2094757D068A2FF4499","title":"徐汇区体育馆","lon":"121.4476242","lat":"31.118782043","category":"220","category_name":"运动场所","address":"上海华泾路1190号"},{"poiid":"B2094757D06FA6F8479C","title":"TONY WEAR(汤尼威尔)上海公司","lon":"121.457831","lat":"31.126421","category":"500","category_name":"未知分类","address":"上海龙吴路2046号"},{"poiid":"B2094757D065A2F8429C","title":"新红园大酒店","lon":"121.455392643","lat":"31.1244974373","category":"76","category_name":"上海菜","address":"徐汇区华泾镇龙吟路9号(近华泾路)查看地图"},{"poiid":"B2094654DA65A6F5419C","title":"上海市公安局徐汇分局交警支队事故审理科","lon":"121.45696","lat":"31.12466","category":"250","category_name":"公园户外","address":"龙吴路2138"},{"poiid":"B2094757D16BA2F8479E","title":"770路龙吴路华泾路(东湾小区)站","lon":"121.459006009","lat":"31.1240475275","category":"500","category_name":"未知分类","address":"上海龙吴路 华泾路 东湾小区"},{"poiid":"B2094757D16AAAFB4893","title":"汇龙足球场","lon":"121.458764009","lat":"31.1214444708","category":"220","category_name":"运动场所","address":"上海闵行区华泾镇"},{"poiid":"B2094655D268A6FC4592","title":"徐汇公安分局交通警察支队业务受理点","lon":"121.45697","lat":"31.12466","category":"250","category_name":"公园户外","address":""},{"poiid":"B2094654DA65A6F54298","title":"上海良友海狮油脂实业有限公司","lon":"121.46038","lat":"31.12612","category":"263","category_name":"公司","address":"龙吴路2080号"},{"poiid":"B2094757D068A7F54592","title":"永达别克汽车龙吴路4s店","lon":"121.458501009","lat":"31.1251955525","category":"500","category_name":"未知分类","address":"上海市徐汇区龙吴路1600号"},{"poiid":"B2094757D06FA5FE469D","title":"徐汇华园","lon":"121.45417","lat":"31.128843","category":"47","category_name":"住宅区","address":"上海华发路58弄"},{"poiid":"B2094654DA65A6F54193","title":"上海星州汽车维修有限公司(龙吴路)","lon":"121.45843","lat":"31.12495","category":"159","category_name":"汽车维修","address":"龙吴路2148号"},{"poiid":"B2094750D66CA1FF469D","title":"华沁家园","lon":"121.449996","lat":"31.134494","category":"500","category_name":"未知分类","address":"上海徐汇区龙吴路1343弄"},{"poiid":"B2094655D36CA3F5439E","title":"物损交通事故保险理赔服务中心星州分中心","lon":"121.45843","lat":"31.12496","category":"219","category_name":"其他","address":"徐梅路180临"},{"poiid":"B2094753D665A0FF429B","title":"徐浦大桥","lon":"121.456626","lat":"31.124225","category":"500","category_name":"未知分类","address":"上海市 外环徐浦大桥"},{"poiid":"B2094757D66DABFE4493","title":"华泾路老沪闵路(规划15号线华泾路站)","lon":"121.458504","lat":"31.123019505","category":"500","category_name":"未知分类","address":"上海华泾路老沪闵路 718 714路"},{"poiid":"B2094757D06BA0FA449A","title":"新路达华联吉卖盛(华泾路店)","lon":"121.45421736","lat":"31.1196646376","category":"118","category_name":"超级市场","address":"上海华泾路龙吴路 华泾社区中心旁"},{"poiid":"B2094655D36CA0F54493","title":"华泾路龙吴路","lon":"121.4546","lat":"31.1198","category":"38","category_name":"公交车站","address":""},{"poiid":"B2094757D16CA1F8489D","title":"华发小区","lon":"121.45112485","lat":"31.128025923","category":"47","category_name":"住宅区","address":"华发小区位于徐汇华发路176号"},{"poiid":"B2094757D06BA0F84599","title":"华泾镇政府","lon":"121.456136","lat":"31.117457","category":"500","category_name":"未知分类","address":"上海龙吴路2443号"},{"poiid":"B2094654DB6CA5F8449A","title":"闽南石材码头","lon":"121.46392","lat":"31.12052","category":"34","category_name":"港口码头","address":""},{"poiid":"B2094654DB6CA5F8429B","title":"华欣家园农副产品综合市场","lon":"121.45917","lat":"31.12011","category":"117","category_name":"便民商店/便利店","address":""},{"poiid":"B2094757D169AAF4469E","title":"豪大大鸡排","lon":"121.454907009","lat":"31.1255505602","category":"247","category_name":"餐饮美食","address":"上海市徐汇区华发路41号"},{"poiid":"B2094654DA65A6F4489B","title":"汤尼威尔(上海)服饰有限公司","lon":"121.45782","lat":"31.12642","category":"263","category_name":"公司","address":"龙吴路2046号"},{"poiid":"B2094654DB64A2FA419D","title":"世纪华联","lon":"121.45601","lat":"31.12823","category":"117","category_name":"便民商店/便利店","address":"龙吴路2028识别"},{"poiid":"B2094654DA65A6F4449C","title":"港口渡口","lon":"121.45875","lat":"31.1334","category":"34","category_name":"港口码头","address":""},{"poiid":"B2094757D66CAAF5469A","title":"华特酒家","lon":"121.456708009","lat":"31.1171123764","category":"76","category_name":"上海菜","address":"徐汇区华济路15号(近龙吴路)"},{"poiid":"B2094654DB6CA2FB419D","title":"快客No.6981","lon":"121.45454","lat":"31.12693","category":"117","category_name":"便民商店/便利店","address":"华发路21"},{"poiid":"B2094655D26FA3F5419C","title":"华济苑小区","lon":"121.46212","lat":"31.11741","category":"47","category_name":"住宅区","address":"华济苑位于徐汇华济路38弄8号"},{"poiid":"B2094655D268A7FA409D","title":"好又多超市","lon":"121.45323","lat":"31.12682","category":"118","category_name":"超级市场","address":""},{"poiid":"B2094752D06DA2F44992","title":"浦东假日酒店","lon":"121.463451","lat":"31.128871","category":"247","category_name":"餐饮美食","address":"上海东方路899号"},{"poiid":"B2094654DA65A6F44293","title":"上海市划船俱乐部","lon":"121.45666","lat":"31.13521","category":"220","category_name":"运动场所","address":"龙吴路1594"},{"poiid":"B2094757D064A6FB479F","title":"小yiの屋","lon":"121.4558085","lat":"31.12647318","category":"500","category_name":"未知分类","address":"上海华发路99弄 5号 ×0×室"},{"poiid":"B2094655D268ABF94898","title":"徐浦大桥","lon":"121.46894","lat":"31.12749","category":"250","category_name":"公园户外","address":"上海徐汇区环南二大道-浦东新区环南二大道"},{"poiid":"B2094655D26BAAFD479F","title":"印象欧洲","lon":"121.462118","lat":"31.118556","category":"47","category_name":"住宅区","address":"华泾镇龙吴路2488号"},{"poiid":"B2094757D06FA1F5489B","title":"徐汇新城","lon":"121.453094482","lat":"31.1309185028","category":"47","category_name":"住宅区","address":"上海市徐汇区龙吴路1595号"},{"poiid":"B2094757D06FA0FC429C","title":"龙吴路罗秀路","lon":"121.452246","lat":"31.135412","category":"260","category_name":"其他","address":"上海市徐汇区龙吴路罗秀路"},{"poiid":"B2094757D06FA1FA489B","title":"紫阳花苑","lon":"121.45851978229","lat":"31.119646803034","category":"47","category_name":"住宅区","address":"紫阳花苑位于徐汇龙吴路2589号"},{"poiid":"B2094655D26FA3F4459D","title":"华泾绿苑","lon":"121.45804","lat":"31.1153","category":"47","category_name":"住宅区","address":"上海市徐汇区龙吴路2588弄"},{"poiid":"B2094757D06FA2FA4192","title":"明丰新纪苑","lon":"121.45352","lat":"31.126495","category":"47","category_name":"住宅区","address":"上海市徐汇区华发路99弄"},{"poiid":"B2094654DB6CA5F8449D","title":"华欣家园","lon":"121.45748","lat":"31.11902","category":"47","category_name":"住宅区","address":"龙吴路2418号"},{"poiid":"B2094654DB6DA3FC439A","title":"华泾公园","lon":"121.4546","lat":"31.12032","category":"196","category_name":"公园","address":"徐汇区华泾路190号(近龙吴路)"},{"poiid":"B2094757D065A0FA4999","title":"馨宁公寓","lon":"121.44778","lat":"31.128372","category":"47","category_name":"住宅区","address":"上海华发路368弄"},{"poiid":"B2094655D36CA0F5449D","title":"华泾小区","lon":"121.467","lat":"31.1225","category":"47","category_name":"住宅区","address":"华泾路38弄"},{"poiid":"B2094655D26FAAFC479E","title":"徐汇臻园","lon":"121.45024","lat":"31.126078","category":"47","category_name":"住宅区","address":"上海市徐汇区华发路151号"},{"poiid":"B2094654DA65A6F54192","title":"上海市公安局徐汇分局交警支队对外办事窗口","lon":"121.45696","lat":"31.12466","category":"250","category_name":"公园户外","address":"龙吴路2138"},{"poiid":"B2094655D36CA1F8419E","title":"龙吴路华发路","lon":"121.45608","lat":"31.12669","category":"38","category_name":"公交车站","address":""},{"poiid":"B2094750D26FABFA4793","title":"东湾小区","lon":"121.45731","lat":"31.12269","category":"251","category_name":"出行住宿","address":"东湾小区位于徐汇龙吴路2388弄"},{"poiid":"B2094757D068A4F4459B","title":"宁国禅寺","lon":"121.450095","lat":"31.116805","category":"244","category_name":"寺庙道观","address":"徐汇区长华路(近华泾路)"},{"poiid":"B2094757D16FA7FD409A","title":"华育中学","lon":"121.453852857","lat":"31.1190827441","category":"55","category_name":"中学","address":"徐汇区龙吟路99号(近华济路)"},{"poiid":"B2094655D268ABF9489B","title":"龙吴路立交桥","lon":"121.45769","lat":"31.1244","category":"250","category_name":"公园户外","address":""},{"poiid":"B2094757D068A2FF4499","title":"徐汇区体育馆","lon":"121.4476242","lat":"31.118782043","category":"220","category_name":"运动场所","address":"上海华泾路1190号"},{"poiid":"B2094757D06FA6F8479C","title":"TONY WEAR(汤尼威尔)上海公司","lon":"121.457831","lat":"31.126421","category":"500","category_name":"未知分类","address":"上海龙吴路2046号"},{"poiid":"B2094757D065A2F8429C","title":"新红园大酒店","lon":"121.455392643","lat":"31.1244974373","category":"76","category_name":"上海菜","address":"徐汇区华泾镇龙吟路9号(近华泾路)查看地图"},{"poiid":"B2094654DA65A6F5419C","title":"上海市公安局徐汇分局交警支队事故审理科","lon":"121.45696","lat":"31.12466","category":"250","category_name":"公园户外","address":"龙吴路2138"},{"poiid":"B2094757D16BA2F8479E","title":"770路龙吴路华泾路(东湾小区)站","lon":"121.459006009","lat":"31.1240475275","category":"500","category_name":"未知分类","address":"上海龙吴路 华泾路 东湾小区"},{"poiid":"B2094757D16AAAFB4893","title":"汇龙足球场","lon":"121.458764009","lat":"31.1214444708","category":"220","category_name":"运动场所","address":"上海闵行区华泾镇"},{"poiid":"B2094655D268A6FC4592","title":"徐汇公安分局交通警察支队业务受理点","lon":"121.45697","lat":"31.12466","category":"250","category_name":"公园户外","address":""},{"poiid":"B2094654DA65A6F54298","title":"上海良友海狮油脂实业有限公司","lon":"121.46038","lat":"31.12612","category":"263","category_name":"公司","address":"龙吴路2080号"},{"poiid":"B2094757D068A7F54592","title":"永达别克汽车龙吴路4s店","lon":"121.458501009","lat":"31.1251955525","category":"500","category_name":"未知分类","address":"上海市徐汇区龙吴路1600号"},{"poiid":"B2094757D06FA5FE469D","title":"徐汇华园","lon":"121.45417","lat":"31.128843","category":"47","category_name":"住宅区","address":"上海华发路58弄"},{"poiid":"B2094654DA65A6F54193","title":"上海星州汽车维修有限公司(龙吴路)","lon":"121.45843","lat":"31.12495","category":"159","category_name":"汽车维修","address":"龙吴路2148号"},{"poiid":"B2094750D66CA1FF469D","title":"华沁家园","lon":"121.449996","lat":"31.134494","category":"500","category_name":"未知分类","address":"上海徐汇区龙吴路1343弄"},{"poiid":"B2094655D36CA3F5439E","title":"物损交通事故保险理赔服务中心星州分中心","lon":"121.45843","lat":"31.12496","category":"219","category_name":"其他","address":"徐梅路180临"},{"poiid":"B2094753D665A0FF429B","title":"徐浦大桥","lon":"121.456626","lat":"31.124225","category":"500","category_name":"未知分类","address":"上海市 外环徐浦大桥"},{"poiid":"B2094757D66DABFE4493","title":"华泾路老沪闵路(规划15号线华泾路站)","lon":"121.458504","lat":"31.123019505","category":"500","category_name":"未知分类","address":"上海华泾路老沪闵路 718 714路"},{"poiid":"B2094757D06BA0FA449A","title":"新路达华联吉卖盛(华泾路店)","lon":"121.45421736","lat":"31.1196646376","category":"118","category_name":"超级市场","address":"上海华泾路龙吴路 华泾社区中心旁"},{"poiid":"B2094655D36CA0F54493","title":"华泾路龙吴路","lon":"121.4546","lat":"31.1198","category":"38","category_name":"公交车站","address":""},{"poiid":"B2094757D16CA1F8489D","title":"华发小区","lon":"121.45112485","lat":"31.128025923","category":"47","category_name":"住宅区","address":"华发小区位于徐汇华发路176号"},{"poiid":"B2094757D06BA0F84599","title":"华泾镇政府","lon":"121.456136","lat":"31.117457","category":"500","category_name":"未知分类","address":"上海龙吴路2443号"},{"poiid":"B2094654DB6CA5F8449A","title":"闽南石材码头","lon":"121.46392","lat":"31.12052","category":"34","category_name":"港口码头","address":""},{"poiid":"B2094654DB6CA5F8429B","title":"华欣家园农副产品综合市场","lon":"121.45917","lat":"31.12011","category":"117","category_name":"便民商店/便利店","address":""},{"poiid":"B2094757D169AAF4469E","title":"豪大大鸡排","lon":"121.454907009","lat":"31.1255505602","category":"247","category_name":"餐饮美食","address":"上海市徐汇区华发路41号"},{"poiid":"B2094654DA65A6F4489B","title":"汤尼威尔(上海)服饰有限公司","lon":"121.45782","lat":"31.12642","category":"263","category_name":"公司","address":"龙吴路2046号"},{"poiid":"B2094654DB64A2FA419D","title":"世纪华联","lon":"121.45601","lat":"31.12823","category":"117","category_name":"便民商店/便利店","address":"龙吴路2028识别"},{"poiid":"B2094654DA65A6F4449C","title":"港口渡口","lon":"121.45875","lat":"31.1334","category":"34","category_name":"港口码头","address":""},{"poiid":"B2094757D66CAAF5469A","title":"华特酒家","lon":"121.456708009","lat":"31.1171123764","category":"76","category_name":"上海菜","address":"徐汇区华济路15号(近龙吴路)"},{"poiid":"B2094654DB6CA2FB419D","title":"快客No.6981","lon":"121.45454","lat":"31.12693","category":"117","category_name":"便民商店/便利店","address":"华发路21"},{"poiid":"B2094655D26FA3F5419C","title":"华济苑小区","lon":"121.46212","lat":"31.11741","category":"47","category_name":"住宅区","address":"华济苑位于徐汇华济路38弄8号"},{"poiid":"B2094655D268A7FA409D","title":"好又多超市","lon":"121.45323","lat":"31.12682","category":"118","category_name":"超级市场","address":""},{"poiid":"B2094752D06DA2F44992","title":"浦东假日酒店","lon":"121.463451","lat":"31.128871","category":"247","category_name":"餐饮美食","address":"上海东方路899号"},{"poiid":"B2094654DA65A6F44293","title":"上海市划船俱乐部","lon":"121.45666","lat":"31.13521","category":"220","category_name":"运动场所","address":"龙吴路1594"},{"poiid":"B2094757D064A6FB479F","title":"小yiの屋","lon":"121.4558085","lat":"31.12647318","category":"500","category_name":"未知分类","address":"上海华发路99弄 5号 ×0×室"},{"poiid":"B2094655D268ABF94898","title":"徐浦大桥","lon":"121.46894","lat":"31.12749","category":"250","category_name":"公园户外","address":"上海徐汇区环南二大道-浦东新区环南二大道"},{"poiid":"B2094655D26BAAFD479F","title":"印象欧洲","lon":"121.462118","lat":"31.118556","category":"47","category_name":"住宅区","address":"华泾镇龙吴路2488号"},{"poiid":"B2094757D06FA1F5489B","title":"徐汇新城","lon":"121.453094482","lat":"31.1309185028","category":"47","category_name":"住宅区","address":"上海市徐汇区龙吴路1595号"},{"poiid":"B2094757D06FA0FC429C","title":"龙吴路罗秀路","lon":"121.452246","lat":"31.135412","category":"260","category_name":"其他","address":"上海市徐汇区龙吴路罗秀路"},{"poiid":"B2094757D06FA1FA489B","title":"紫阳花苑","lon":"121.45851978229","lat":"31.119646803034","category":"47","category_name":"住宅区","address":"紫阳花苑位于徐汇龙吴路2589号"},{"poiid":"B2094655D26FA3F4459D","title":"华泾绿苑","lon":"121.45804","lat":"31.1153","category":"47","category_name":"住宅区","address":"上海市徐汇区龙吴路2588弄"},{"poiid":"B2094757D06FA2FA4192","title":"明丰新纪苑","lon":"121.45352","lat":"31.126495","category":"47","category_name":"住宅区","address":"上海市徐汇区华发路99弄"},{"poiid":"B2094654DB6CA5F8449D","title":"华欣家园","lon":"121.45748","lat":"31.11902","category":"47","category_name":"住宅区","address":"龙吴路2418号"},{"poiid":"B2094654DB6DA3FC439A","title":"华泾公园","lon":"121.4546","lat":"31.12032","category":"196","category_name":"公园","address":"徐汇区华泾路190号(近龙吴路)"},{"poiid":"B2094757D065A0FA4999","title":"馨宁公寓","lon":"121.44778","lat":"31.128372","category":"47","category_name":"住宅区","address":"上海华发路368弄"},{"poiid":"B2094655D36CA0F5449D","title":"华泾小区","lon":"121.467","lat":"31.1225","category":"47","category_name":"住宅区","address":"华泾路38弄"},{"poiid":"B2094655D26FAAFC479E","title":"徐汇臻园","lon":"121.45024","lat":"31.126078","category":"47","category_name":"住宅区","address":"上海市徐汇区华发路151号"},{"poiid":"B2094654DA65A6F54192","title":"上海市公安局徐汇分局交警支队对外办事窗口","lon":"121.45696","lat":"31.12466","category":"250","category_name":"公园户外","address":"龙吴路2138"},{"poiid":"B2094655D36CA1F8419E","title":"龙吴路华发路","lon":"121.45608","lat":"31.12669","category":"38","category_name":"公交车站","address":""},{"poiid":"B2094750D26FABFA4793","title":"东湾小区","lon":"121.45731","lat":"31.12269","category":"251","category_name":"出行住宿","address":"东湾小区位于徐汇龙吴路2388弄"},{"poiid":"B2094757D068A4F4459B","title":"宁国禅寺","lon":"121.450095","lat":"31.116805","category":"244","category_name":"寺庙道观","address":"徐汇区长华路(近华泾路)"},{"poiid":"B2094757D16FA7FD409A","title":"华育中学","lon":"121.453852857","lat":"31.1190827441","category":"55","category_name":"中学","address":"徐汇区龙吟路99号(近华济路)"},{"poiid":"B2094655D268ABF9489B","title":"龙吴路立交桥","lon":"121.45769","lat":"31.1244","category":"250","category_name":"公园户外","address":""},{"poiid":"B2094757D068A2FF4499","title":"徐汇区体育馆","lon":"121.4476242","lat":"31.118782043","category":"220","category_name":"运动场所","address":"上海华泾路1190号"},{"poiid":"B2094757D06FA6F8479C","title":"TONY WEAR(汤尼威尔)上海公司","lon":"121.457831","lat":"31.126421","category":"500","category_name":"未知分类","address":"上海龙吴路2046号"},{"poiid":"B2094757D065A2F8429C","title":"新红园大酒店","lon":"121.455392643","lat":"31.1244974373","category":"76","category_name":"上海菜","address":"徐汇区华泾镇龙吟路9号(近华泾路)查看地图"},{"poiid":"B2094654DA65A6F5419C","title":"上海市公安局徐汇分局交警支队事故审理科","lon":"121.45696","lat":"31.12466","category":"250","category_name":"公园户外","address":"龙吴路2138"},{"poiid":"B2094757D16BA2F8479E","title":"770路龙吴路华泾路(东湾小区)站","lon":"121.459006009","lat":"31.1240475275","category":"500","category_name":"未知分类","address":"上海龙吴路 华泾路 东湾小区"},{"poiid":"B2094757D16AAAFB4893","title":"汇龙足球场","lon":"121.458764009","lat":"31.1214444708","category":"220","category_name":"运动场所","address":"上海闵行区华泾镇"},{"poiid":"B2094655D268A6FC4592","title":"徐汇公安分局交通警察支队业务受理点","lon":"121.45697","lat":"31.12466","category":"250","category_name":"公园户外","address":""},{"poiid":"B2094654DA65A6F54298","title":"上海良友海狮油脂实业有限公司","lon":"121.46038","lat":"31.12612","category":"263","category_name":"公司","address":"龙吴路2080号"},{"poiid":"B2094757D068A7F54592","title":"永达别克汽车龙吴路4s店","lon":"121.458501009","lat":"31.1251955525","category":"500","category_name":"未知分类","address":"上海市徐汇区龙吴路1600号"},{"poiid":"B2094757D06FA5FE469D","title":"徐汇华园","lon":"121.45417","lat":"31.128843","category":"47","category_name":"住宅区","address":"上海华发路58弄"},{"poiid":"B2094654DA65A6F54193","title":"上海星州汽车维修有限公司(龙吴路)","lon":"121.45843","lat":"31.12495","category":"159","category_name":"汽车维修","address":"龙吴路2148号"},{"poiid":"B2094750D66CA1FF469D","title":"华沁家园","lon":"121.449996","lat":"31.134494","category":"500","category_name":"未知分类","address":"上海徐汇区龙吴路1343弄"},{"poiid":"B2094655D36CA3F5439E","title":"物损交通事故保险理赔服务中心星州分中心","lon":"121.45843","lat":"31.12496","category":"219","category_name":"其他","address":"徐梅路180临"},{"poiid":"B2094753D665A0FF429B","title":"徐浦大桥","lon":"121.456626","lat":"31.124225","category":"500","category_name":"未知分类","address":"上海市 外环徐浦大桥"},{"poiid":"B2094757D66DABFE4493","title":"华泾路老沪闵路(规划15号线华泾路站)","lon":"121.458504","lat":"31.123019505","category":"500","category_name":"未知分类","address":"上海华泾路老沪闵路 718 714路"},{"poiid":"B2094757D06BA0FA449A","title":"新路达华联吉卖盛(华泾路店)","lon":"121.45421736","lat":"31.1196646376","category":"118","category_name":"超级市场","address":"上海华泾路龙吴路 华泾社区中心旁"},{"poiid":"B2094655D36CA0F54493","title":"华泾路龙吴路","lon":"121.4546","lat":"31.1198","category":"38","category_name":"公交车站","address":""},{"poiid":"B2094757D16CA1F8489D","title":"华发小区","lon":"121.45112485","lat":"31.128025923","category":"47","category_name":"住宅区","address":"华发小区位于徐汇华发路176号"},{"poiid":"B2094757D06BA0F84599","title":"华泾镇政府","lon":"121.456136","lat":"31.117457","category":"500","category_name":"未知分类","address":"上海龙吴路2443号"},{"poiid":"B2094654DB6CA5F8449A","title":"闽南石材码头","lon":"121.46392","lat":"31.12052","category":"34","category_name":"港口码头","address":""},{"poiid":"B2094654DB6CA5F8429B","title":"华欣家园农副产品综合市场","lon":"121.45917","lat":"31.12011","category":"117","category_name":"便民商店/便利店","address":""},{"poiid":"B2094757D169AAF4469E","title":"豪大大鸡排","lon":"121.454907009","lat":"31.1255505602","category":"247","category_name":"餐饮美食","address":"上海市徐汇区华发路41号"},{"poiid":"B2094654DA65A6F4489B","title":"汤尼威尔(上海)服饰有限公司","lon":"121.45782","lat":"31.12642","category":"263","category_name":"公司","address":"龙吴路2046号"},{"poiid":"B2094654DB64A2FA419D","title":"世纪华联","lon":"121.45601","lat":"31.12823","category":"117","category_name":"便民商店/便利店","address":"龙吴路2028识别"},{"poiid":"B2094654DA65A6F4449C","title":"港口渡口","lon":"121.45875","lat":"31.1334","category":"34","category_name":"港口码头","address":""},{"poiid":"B2094757D66CAAF5469A","title":"华特酒家","lon":"121.456708009","lat":"31.1171123764","category":"76","category_name":"上海菜","address":"徐汇区华济路15号(近龙吴路)"},{"poiid":"B2094654DB6CA2FB419D","title":"快客No.6981","lon":"121.45454","lat":"31.12693","category":"117","category_name":"便民商店/便利店","address":"华发路21"},{"poiid":"B2094655D26FA3F5419C","title":"华济苑小区","lon":"121.46212","lat":"31.11741","category":"47","category_name":"住宅区","address":"华济苑位于徐汇华济路38弄8号"},{"poiid":"B2094655D268A7FA409D","title":"好又多超市","lon":"121.45323","lat":"31.12682","category":"118","category_name":"超级市场","address":""},{"poiid":"B2094752D06DA2F44992","title":"浦东假日酒店","lon":"121.463451","lat":"31.128871","category":"247","category_name":"餐饮美食","address":"上海东方路899号"},{"poiid":"B2094654DA65A6F44293","title":"上海市划船俱乐部","lon":"121.45666","lat":"31.13521","category":"220","category_name":"运动场所","address":"龙吴路1594"},{"poiid":"B2094757D064A6FB479F","title":"小yiの屋","lon":"121.4558085","lat":"31.12647318","category":"500","category_name":"未知分类","address":"上海华发路99弄 5号 ×0×室"}]