[{"poiid":"B2094654DA68A3FB469F","title":"上海大剧院","lon":"121.471968","lat":"31.230142","category":"180","category_name":"剧场","address":"黄浦区人民大道300号(近人民广场)"},{"poiid":"B2094654DA68A2FD4399","title":"上海美术馆","lon":"121.47093","lat":"31.23108","category":"184","category_name":"美术馆","address":"黄浦区南京西路325号(近黄陂北路)"},{"poiid":"B2094757D06FA3F54893","title":"Kathleen's 5 Rooftop Restaurant &amp; Bar","lon":"121.470920351","lat":"31.2311566892","category":"94","category_name":"西餐厅","address":"黄浦区南京西路325号上海美术馆5楼(近黄陂北路)"},{"poiid":"B2094753D76FAAFA449C","title":"上海滩国泰旗舰店","lon":"121.466011","lat":"31.216125","category":"249","category_name":"购物服务","address":"淮海中路868号"},{"poiid":"B209475CD564A7F84292","title":"上海滩新天地店","lon":"121.47463","lat":"31.22164","category":"119","category_name":"商场","address":"\"太仓路181弄新天地北里15号\r\n\""},{"poiid":"B209475CD564A7F8439E","title":"上海滩中信泰富店","lon":"121.45602","lat":"31.22851","category":"119","category_name":"商场","address":"\"南京西路1168号中信泰富广场，店铺号221.\r\n\""},{"poiid":"B209475CD564A7F84392","title":"上海滩浦东香格里拉店","lon":"121.50058","lat":"31.23634","category":"119","category_name":"商场","address":"浦东富成路33号香格里拉酒店内大堂层"},{"poiid":"B2094654DB6BABFE4593","title":"顺风大酒店(人民广场店)","lon":"121.47048","lat":"31.22931","category":"75","category_name":"浙江菜","address":"黄浦区黄陂北路227号中区广场3楼(近上海大剧院)"},{"poiid":"B2094757D06EAAFF4592","title":"葡京茶餐厅(迪美店)","lon":"121.47341","lat":"31.22841","category":"72","category_name":"广东菜","address":"黄浦区人民大道221号迪美购物中心224-3号铺(近武胜路)"},{"poiid":"B2094655D26BA7F8449E","title":"上海大剧院-中剧场(Shanghai Grand Theatre - Drama Theatre)","lon":"121.47076","lat":"31.23004","category":"180","category_name":"剧场","address":"黄浦区人民大道300号大剧院1楼(近黄陂路)"},{"poiid":"B2094757D66FA6FB419C","title":"风云再起动漫娱乐中心(上海人民广场店)","lon":"121.47352917109686","lat":"31.22873113574779","category":"173","category_name":"游戏厅","address":"上海市黄浦区人民大道221号迪美广场负一楼227-229#"},{"poiid":"B2094757D46EA5F44198","title":"林记小馆 人民广场店","lon":"121.470848","lat":"31.229474","category":"72","category_name":"广东菜","address":"普陀区真北路2022号映象戴斯大酒店内(近铜川路)"},{"poiid":"B2094757D06EAAFF4898","title":"呷哺呷哺 黄浦迪美店","lon":"121.471745","lat":"31.228894","category":"86","category_name":"火锅店","address":"人民大道221号B1楼迪美购物中心近武胜路"},{"poiid":"B2094757D064A3FD449F","title":"一号线人民广场站","lon":"121.472942738","lat":"31.2278892502","category":"500","category_name":"未知分类","address":"上海轨道交通1，2，8号线"},{"poiid":"B2094757D06FA2F94199","title":"唐朝大酒店(明天店)","lon":"121.47028","lat":"31.2298","category":"72","category_name":"广东菜","address":"上海南京西路389号明天广场二楼"},{"poiid":"B2094757D06FA0F8499D","title":"王品台塑牛排(仙乐斯店)","lon":"121.47152548","lat":"31.230202321","category":"94","category_name":"西餐厅","address":"静安区南京西路388号仙乐斯广场3楼(黄陂北路口)"},{"poiid":"B2094757D06FA7F94199","title":"市政大厦","lon":"121.472011","lat":"31.226881","category":"46","category_name":"楼宇","address":"上海市黄浦区大沽路100号"},{"poiid":"B2094757D068A2FE469E","title":"酒池星座(黄陂北路)","lon":"121.470575126","lat":"31.2296706472","category":"260","category_name":"其他","address":"黄浦区黄陂北路251号(近江阴路)"},{"poiid":"B2094757D06FA0FB4893","title":"马威斯HAIR IN SALON(迪美店)","lon":"121.473351","lat":"31.2285","category":"148","category_name":"美容美发店","address":"上海黄浦区人民大道221号迪美购物中心kfc旁"},{"poiid":"B2094757D069A2F94392","title":"宝得莱","lon":"121.47042873","lat":"31.230037296","category":"95","category_name":"日本料理","address":"黄浦区黄陂北路227号中区广场1楼(近大剧院)"},{"poiid":"B2094757D06FA0FD459E","title":"味千拉面(迪美店)","lon":"121.47302","lat":"31.22833","category":"95","category_name":"日本料理","address":"黄浦区人民大道221号迪美购物中心内(近武胜路)"},{"poiid":"B2094654DB6BABFE4598","title":"马克西姆西餐厅 Maxim's","lon":"121.47126716885","lat":"31.228677607786","category":"97","category_name":"法式菜品餐厅","address":"黄陂北路200号上海大剧院1楼近人民大道"},{"poiid":"B2094757D06FAAFB449F","title":"近江和牛正传(中区广场店)","lon":"121.47032673","lat":"31.22977029","category":"95","category_name":"日本料理","address":"黄浦区黄陂北路227号中区广场201室(近人民大道)"},{"poiid":"B2094757D469A1F5429C","title":"JW's Lounge Bar","lon":"121.470491054","lat":"31.229576793","category":"172","category_name":"酒吧","address":"黄浦区南京西路399号JW万豪酒店40楼(近黄陂北路)"},{"poiid":"B2094757D06FA7F8489E","title":"DQ冰雪皇后(迪美店)","lon":"121.47378","lat":"31.22833","category":"113","category_name":"冷饮店","address":"黄浦区武胜路218号迪美购物中心(近人民广场)"},{"poiid":"B2094757D06FA5FE469A","title":"民生银行大厦(威海路)","lon":"121.47063446","lat":"31.228408813","category":"252","category_name":"楼宇机构","address":"黄浦区威海路48号(近黄陂北路)"},{"poiid":"B2094757D06FA0F54593","title":"蜀菜行家(人民广场中区总店)","lon":"121.47095","lat":"31.22901","category":"71","category_name":"四川菜","address":"黄浦区黄陂北路227号中区广场1楼B区(近上海大剧院)"},{"poiid":"B2094655D26DA7FD4792","title":"明堂上海新易途青年旅舍","lon":"121.46965","lat":"31.22958","category":"218","category_name":"青年旅舍","address":"江阴路55号"},{"poiid":"B2094752D365A2F84093","title":"西贝西北菜","lon":"121.473495","lat":"31.229059","category":"247","category_name":"餐饮美食","address":"南京东路"},{"poiid":"B2094757D06BAAF44293","title":"FC Salon","lon":"121.470497738","lat":"31.2299832948","category":"500","category_name":"未知分类","address":"上海黄陂北路251号(近南京西路)"},{"poiid":"B2094750D268A0F84398","title":"J.W万豪咖啡厅 Marriott Cafe","lon":"121.4704907438","lat":"31.22955780243","category":"268","category_name":"自助","address":"南京西路399号明天广场J.W.(金威)万豪酒店38楼近黄陂北路"},{"poiid":"B2094757D068AAF94392","title":"JW万豪大宴会厅","lon":"121.47125","lat":"31.23022","category":"247","category_name":"餐饮美食","address":"静安区南京西路399号JW万豪酒店5楼(近黄陂北路)查看地图"},{"poiid":"B2094757D469A5F84592","title":"克比泰国餐厅 Thai Aroma","lon":"121.470815","lat":"31.229563","category":"99","category_name":"泰国／越南菜品餐厅","address":"黄浦区黄陂北路227号中区广场1楼103室(近人民大道)"},{"poiid":"B2094757DA64AAF44398","title":"M&S cafe","lon":"121.473258","lat":"31.227341","category":"247","category_name":"餐饮美食","address":"上海市淮海中路96号金钟广场M&S内"},{"poiid":"B2094654DA68A3FB479E","title":"小精灵宠物医院(武胜路分院)","lon":"121.47087","lat":"31.22751","category":"162","category_name":"医院","address":"黄浦区武胜路451号(黄陂北路人民大道)"},{"poiid":"B2094757D66EA5FA4192","title":"浦东机场6号登机口","lon":"121.47187673","lat":"31.230381303","category":"21","category_name":"飞机场","address":"上海浦东机场"},{"poiid":"B2094757D16FA1F5449E","title":"A-ONE造型","lon":"121.469784","lat":"31.227877","category":"148","category_name":"美容美发店","address":"黄浦区威海路82号"},{"poiid":"B2094757D06FA3FC479A","title":"马里兰商务中心(明天广场)","lon":"121.46985219","lat":"31.230372587","category":"46","category_name":"楼宇","address":"上海黄浦区南京西路399号"},{"poiid":"B2094757D068A6FE479C","title":"Bar Constellation NO.3","lon":"121.4705964","lat":"31.229731422","category":"172","category_name":"酒吧","address":"上海浦东新区丁香路1399弄30号邻里之家2楼"},{"poiid":"B2094757D06FAAFE409E","title":"Mayson cafe","lon":"121.47056","lat":"31.22737","category":"260","category_name":"其他","address":"黄浦区武胜路469号(近黄陂北路)"},{"poiid":"B2094757D569A1FB439E","title":"Kathleen s 5","lon":"121.470924","lat":"31.231096","category":"94","category_name":"西餐厅","address":"南京西路325号上海美术馆5楼(近黄陂北路)"},{"poiid":"B2094757D068A4F54599","title":"京城日式烧肉(黄浦店)","lon":"121.46613","lat":"31.23077","category":"269","category_name":"烧烤","address":"静安区南京西路555号B1楼(近成都北路)"},{"poiid":"B2094757D068A0F54892","title":"林记小厨","lon":"121.470973738","lat":"31.2274302404","category":"247","category_name":"餐饮美食","address":"上海黄浦区黄陂北路227号中区广场二楼"},{"poiid":"B2094757D169A7FA429B","title":"重庆北路大沽路","lon":"121.47001933","lat":"31.227480141","category":"500","category_name":"未知分类","address":"上海重庆北路大沽路口"},{"poiid":"B209475CD76BA1FF499E","title":"上海明天广场JW万豪酒店","lon":"121.470657","lat":"31.230693","category":"500","category_name":"未知分类","address":"上海市 上海市南京西路399号"},{"poiid":"B2094752D06FA3FC4999","title":"淮海中路300号K11购物艺术中心301-307号铺(近黄陂南路地铁站)","lon":"121.470142","lat":"31.226922","category":"247","category_name":"餐饮美食","address":"淮海中路300号K11购物艺术中心301-307号铺(近黄陂南路地铁站)"},{"poiid":"B2094654DA68A3FB4199","title":"黄浦政法大楼","lon":"121.47194","lat":"31.22642","category":"68","category_name":"快餐厅","address":"黄浦区大沽路123号2楼(近重庆北路)"},{"poiid":"B2094757D068A0FF4993","title":"储能中学(北校)","lon":"121.46921","lat":"31.22784","category":"55","category_name":"中学","address":"黄浦区重庆北路270号(威海路重庆北路)"},{"poiid":"B209475CDB6BA0FF4893","title":"上海当代艺术馆","lon":"121.470901","lat":"31.231262","category":"500","category_name":"未知分类","address":"上海市 人民广场"},{"poiid":"B2094757D56EA0FF4599","title":"朋朋烘焙体验馆（中山公园店）","lon":"121.472916","lat":"31.2307079999998","category":"247","category_name":"餐饮美食","address":"长宁区长宁路988号花园大厦10楼D座(近中山公园)"},{"poiid":"B209475DD16EAAF5469F","title":"清水日本料理（仙乐斯店）","lon":"121.473731","lat":"31.229269","category":"500","category_name":"未知分类","address":"上海市 南京西路388号仙乐斯广场3楼309-311室(黄坡北路口)"},{"poiid":"B2094654D564A5FA429C","title":"鑫兴大厦","lon":"121.473","lat":"31.229","category":"46","category_name":"楼宇","address":"上海巨鹿路137号"},{"poiid":"B2094750DA64A5F94293","title":"Constellation","lon":"121.470573","lat":"31.229925","category":"247","category_name":"餐饮美食","address":"黄陂北路251号(近江阴路)"},{"poiid":"B2094654DB64A6FC479E","title":"金威万豪咖啡厅","lon":"121.46992","lat":"31.2305","category":"65","category_name":"咖啡厅","address":"黄浦区南京西路399号"},{"poiid":"B2094757D568A5FF469F","title":"如家快捷酒店(上海人民广场店)","lon":"121.4699547","lat":"31.22698215","category":"216","category_name":"经济型连锁酒店","address":"上海市黄浦区重庆北路208号(近威海路)"},{"poiid":"B2094757D164A5F4489F","title":"金贸大厦","lon":"121.472284238","lat":"31.2308132125","category":"252","category_name":"楼宇机构","address":"上海世纪大道88号"},{"poiid":"B2094757D16EABFA419D","title":"台湾肉粽大王(人民广场店)","lon":"121.47335","lat":"31.22803","category":"68","category_name":"快餐厅","address":"黄浦区武胜路218号迪美广场南特9号(近人民广场)"},{"poiid":"B2094757D069A0FE489B","title":"苹果花园 威海路店","lon":"121.46916","lat":"31.227874","category":"47","category_name":"住宅区","address":"静安区威海路62号(近重庆北路)"},{"poiid":"B2094757D464A0F9499F","title":"百乐餐厅","lon":"121.47151639465","lat":"31.226478273305","category":"77","category_name":"湖南菜","address":"黄浦区大沽路199号(重庆北路口)"},{"poiid":"B2094757D16AA6FC4099","title":"明天广场万豪行政公寓","lon":"121.46983","lat":"31.23069","category":"217","category_name":"旅馆招待所","address":"静安区南京西路399号(近上海美术馆)  "},{"poiid":"B2094654DB6AA3FF449A","title":"典艺牛奶棚 威海路店","lon":"121.469281054","lat":"31.227710793","category":"67","category_name":"甜品店","address":"黄浦区威海路90号(近重庆北路)"},{"poiid":"B2094654DA68A2FC4893","title":"野天鹅酒家","lon":"121.46968","lat":"31.22784","category":"68","category_name":"快餐厅","address":"静安区威海路108号(近重庆北路)"},{"poiid":"B2094757D06AA7FF419F","title":"中国工商银行(人民广场支行)","lon":"121.47034","lat":"31.23086","category":"150","category_name":"银行","address":"黄浦区南京西路377号近黄陂北路(南京西路新昌路)"},{"poiid":"B2094750D26DA4F5429D","title":"Marks & Spencers Cafe","lon":"121.473083","lat":"31.228156","category":"247","category_name":"餐饮美食","address":null},{"poiid":"B2094757D06BA5FA449A","title":"上海市统计局","lon":"121.47013513","lat":"31.227842067","category":"500","category_name":"未知分类","address":"上海威海路48号"},{"poiid":"B2094757D06FA4FD4793","title":"康莱4D动感旅程","lon":"121.473443","lat":"31.228718","category":"173","category_name":"游戏厅","address":"黄浦区人民大道221号迪美购物中心240号(近武胜路)"},{"poiid":"B2094757D665ABFD4593","title":"尝想来桂林米粉 武胜路店","lon":"121.472704","lat":"31.227689","category":"68","category_name":"快餐厅","address":"黄浦区武胜路433号(黄陂北路)"},{"poiid":"B2094654DB6AA3F4459A","title":"街客 武胜路店 Jack Hut","lon":"121.47126749955","lat":"31.227655267338","category":"113","category_name":"冷饮店","address":"黄浦区武胜路433号(黄陂路口)"},{"poiid":"B2094757D168A3F44493","title":"人民广场20路公交车站","lon":"121.47164527","lat":"31.230462338","category":"38","category_name":"公交车站","address":"上海人民广场下沉式广场西南面(金门大酒店前)"},{"poiid":"B2094654DA68A3FB409D","title":"宏泰公寓","lon":"121.47105","lat":"31.226851","category":"47","category_name":"住宅区","address":"宏泰公寓位于黄浦大沽路186弄"},{"poiid":"B2094757D069A5FF4093","title":"CCG COFFEE","lon":"121.47011455985","lat":"31.227308298709","category":"260","category_name":"其他","address":"黄浦区重庆北路232号(近威海路)"},{"poiid":"B2094750D268A0F8439E","title":"万豪轩 Wan Hao","lon":"121.4704907438","lat":"31.22955780243","category":"247","category_name":"餐饮美食","address":"南京西路399号明天广场J.W.(金威)万豪酒店39楼近黄陂北路"},{"poiid":"B2094757D66BABFE489B","title":"明堂上海新易途咖啡吧","lon":"121.46965","lat":"31.22958","category":"68","category_name":"快餐厅","address":"江阴路55号近黄陂北路"},{"poiid":"B2094655D26BA2FE4099","title":"威海路黄陂北路","lon":"121.47022","lat":"31.22798","category":"38","category_name":"公交车站","address":""},{"poiid":"B209475CDA6FABFF4998","title":"人民广场","lon":"121.470809","lat":"31.227878","category":"500","category_name":"未知分类","address":"上海市 人民大道1号"},{"poiid":"B2094757D16DA4FB469C","title":"Four Seasons Hotel Shanghai","lon":"121.472915649","lat":"31.2307071686","category":"500","category_name":"未知分类","address":"邮政编码: 200041上海市威海路500号 (Four Seasons Hotel Shanghai)"},{"poiid":"B2094750D56DAAF84593","title":"红麻辣料理","lon":"121.469848","lat":"31.229969","category":"247","category_name":"餐饮美食","address":null},{"poiid":"B2094752D26AA0FB409A","title":"Andaz Hotel","lon":"121.470517","lat":"31.226734","category":"247","category_name":"餐饮美食","address":"嵩山路88号"},{"poiid":"B2094751D46BA2FE4393","title":"Mingtown Bar","lon":"121.469482","lat":"31.229462","category":"247","category_name":"餐饮美食","address":"江阴路55号"},{"poiid":"B2094757DB69ABF8449E","title":"唛歌时尚KTV","lon":"121.471234449673","lat":"31.22841116755756","category":"170","category_name":"KTV","address":null},{"poiid":"B2094757D16AA3FF449A","title":"Maxim's De Paris","lon":"121.471077738","lat":"31.2291102762","category":"500","category_name":"未知分类","address":"黄陂北路200号(上海大剧院一层西侧)"},{"poiid":"B2094655D26EA6FB4699","title":"美术馆咖啡","lon":"121.470702054","lat":"31.231240793","category":"65","category_name":"咖啡厅","address":"南京西路325号上海美术馆P楼近黄陂北路"},{"poiid":"B2094757D464AAFB499E","title":"太沽咖啡披萨屋","lon":"121.472199054","lat":"31.227579793","category":"68","category_name":"快餐厅","address":"黄浦区武胜路503号(近黄陂南路)"},{"poiid":"B2094753D76AA3FF4199","title":"林记小馆(人民广场店)","lon":"121.470815","lat":"31.229563","category":"72","category_name":"广东菜","address":"上海市黄浦区黄陂北路227号201中区广场2楼(近南京西路)"},{"poiid":"B2094757D068A2F44699","title":"屈臣氏(迪美店)","lon":"121.47358","lat":"31.22973","category":"122","category_name":"个人用品/化妆品店","address":"黄浦区人民大道221号迪美购物中心56号铺(近武胜路)"},{"poiid":"B2094753D268A7F94493","title":"home thai","lon":"121.470243","lat":"31.227341","category":"500","category_name":"未知分类","address":"上海市 淮海中路300号K11购物艺术中心401号铺(近黄陂南路)"},{"poiid":"B209475CD765A2F5469E","title":"望星空  Shanghai Grand Theatre Banquet Hall","lon":"121.47126716885","lat":"31.228677607786","category":"76","category_name":"上海菜","address":"人民大道300号(黄陂北路200号)上海大剧院A1门至8楼"},{"poiid":"B2094752D56AA6FF429C","title":"nana\\'s green tea","lon":"121.473358","lat":"31.227539","category":"247","category_name":"餐饮美食","address":"人民廣場"},{"poiid":"B2094757D16DA2FC4599","title":"上海大剧院售票中心","lon":"121.47180175","lat":"31.229623794","category":"500","category_name":"未知分类","address":"上海人民大道300号"},{"poiid":"B2094757D069A4F9419E","title":"23路武胜路黄陂北路站","lon":"121.470925","lat":"31.227622","category":"38","category_name":"公交车站","address":"上海黄浦区武胜路(近黄陂北路)"},{"poiid":"B2094752D06CA5FF489E","title":"鱼酷烤全鱼","lon":"121.473502","lat":"31.229059","category":"247","category_name":"餐饮美食","address":"南京东路东方商厦9楼"},{"poiid":"B2094757DA64A3FD439B","title":"明堂咖啡吧","lon":"121.46947","lat":"31.22967","category":"260","category_name":"其他","address":"黄浦区江阴路55号新易途旅社内(近黄陂北路)"},{"poiid":"B209475CD16CA5F84398","title":"仙芋世家 迪美店","lon":"121.47344","lat":"31.22871","category":"67","category_name":"甜品店","address":"人民大道221号迪美购物中心B1楼(肯德基旁)"},{"poiid":"B2094655D26EA2FE439F","title":"沁茗园","lon":"121.47132","lat":"31.22956","category":"66","category_name":"茶艺馆","address":"黄浦区黄陂北路200号大剧院售票口处(近人民广场)"},{"poiid":"B2094654DA68A3FB4993","title":"快客(重庆北路)","lon":"121.46982","lat":"31.22715","category":"117","category_name":"便民商店/便利店","address":"重庆北路226"},{"poiid":"B2094757D06BABF54899","title":"EF教育旗舰店","lon":"121.47223736","lat":"31.228682476","category":"190","category_name":"培训机构","address":"上海福州路666号"},{"poiid":"B2094654DA68A3FB419A","title":"可的(大沽路)","lon":"121.47148","lat":"31.22639","category":"117","category_name":"便民商店/便利店","address":"大沽路143-145"},{"poiid":"B209475CD16CA7FB499B","title":"肯德基 迪美店 KFC","lon":"121.47344","lat":"31.22871","category":"68","category_name":"快餐厅","address":"人民大道221号迪美购物中心B1楼(近武胜路)"},{"poiid":"B2094753D668A6FC419B","title":"莫泰168(上海南京路人民广场店)","lon":"121.469832","lat":"31.227116","category":"216","category_name":"经济型连锁酒店","address":"重庆北路212号"},{"poiid":"B2094757D169A0F9459B","title":"重新小区","lon":"121.47099","lat":"31.226984","category":"47","category_name":"住宅区","address":"武胜路429弄"},{"poiid":"B2094757D16EA6FA469D","title":"mingtown cafe","lon":"121.469475738","lat":"31.2293612816","category":"500","category_name":"未知分类","address":"上海市静安区南京西路"},{"poiid":"B2094654DA68A3F5499E","title":"可的(黄陂北路)","lon":"121.47074","lat":"31.22919","category":"117","category_name":"便民商店/便利店","address":"黄陂北路205"},{"poiid":"B2094757D16BA0F4419C","title":"46路人民广场站","lon":"121.472180738","lat":"31.2280002526","category":"500","category_name":"未知分类","address":"上海人民广场"},{"poiid":"B2094757D069A5FB4792","title":"全家便利(黄陂北路店)","lon":"121.470868","lat":"31.229169","category":"117","category_name":"便民商店/便利店","address":"上海黄陂北路205号"},{"poiid":"B2094654DA68A3FB4798","title":"可的(武胜路)","lon":"121.47101","lat":"31.22751","category":"117","category_name":"便民商店/便利店","address":"黄浦区武胜路445号(黄陂北路人民大道)"},{"poiid":"B2094654DA68A3F4409B","title":"上海市第一医药商店连锁经营有限公司","lon":"121.46961","lat":"31.22712","category":"162","category_name":"医院","address":"重庆北路211"},{"poiid":"B2094757D568A1FD4092","title":"翠碧湖","lon":"121.47171","lat":"31.231241","category":"607","category_name":"一般景点","address":"中国上海市黄浦区南京西路297"},{"poiid":"B2094750D26CA4FC4392","title":"Wagas","lon":"121.4711119381015","lat":"31.22733424167025","category":"500","category_name":"未知分类","address":null},{"poiid":"B2094757D16DA3FF409C","title":"黄陂北路","lon":"121.472694397","lat":"31.2269515991","category":"500","category_name":"未知分类","address":"上海黄陂北路"},{"poiid":"B2094750D66FA3FE469E","title":"柏斯美容SPA會所","lon":"121.469947","lat":"31.22791","category":"148","category_name":"美容美发店","address":"黃浦區威海路80號"},{"poiid":"B2094654DA68A3F5449B","title":"法拉利玛莎拉蒂汽车国际贸易(上海)有限公司","lon":"121.46993","lat":"31.2305","category":"158","category_name":"汽车销售","address":"南京西路399号明天广场1层"},{"poiid":"B2094757D16CA3FD449B","title":"普京","lon":"121.47198373","lat":"31.226548221","category":"500","category_name":"未知分类","address":"上海迪美"},{"poiid":"B2094654DA68A3F5489B","title":"心约茶坊","lon":"121.47047","lat":"31.22931","category":"66","category_name":"茶艺馆","address":"黄浦区黄陂北路227号中区广场2楼209室(近上海大剧院)"},{"poiid":"B2094655D26AA2F4459B","title":"上海大剧院停车库","lon":"121.47176","lat":"31.22947","category":"247","category_name":"餐饮美食","address":"黄浦区人民大道300号"},{"poiid":"B2094757D16DA7FA449C","title":"鼎茶(武胜路店)","lon":"121.47034873","lat":"31.227639244","category":"247","category_name":"餐饮美食","address":"上海静安区武胜路 112终点站旁"},{"poiid":"B2094655D265A4FF419B","title":"伟仔茶餐厅","lon":"121.47345","lat":"31.22872","category":"68","category_name":"快餐厅","address":"人民大道221号迪美购物中心"},{"poiid":"B2094655D26AA7F5439C","title":"家书侍","lon":"121.4695","lat":"31.22736","category":"247","category_name":"餐饮美食","address":"黄浦区重庆北路235号乙(近威海路)"},{"poiid":"B2094654DA68A2FC499F","title":"振兴大楼","lon":"121.46931","lat":"31.227448","category":"47","category_name":"住宅区","address":"重庆北路235号"},{"poiid":"B2094654DA68A2FD409A","title":"威海小区","lon":"121.46984","lat":"31.228336","category":"47","category_name":"住宅区","address":"威海路62号"},{"poiid":"B2094757D168A3FF449C","title":"外环S5(嘉定城区方向)","lon":"121.47092437","lat":"31.231090545","category":"500","category_name":"未知分类","address":"上海S5"},{"poiid":"B2094757D66DA6FC4099","title":"大丰收鱼庄","lon":"121.469758","lat":"31.230368","category":"247","category_name":"餐饮美食","address":"厦门加州莱雅一层"},{"poiid":"B2094757D164A4F5419E","title":"黑川饮铺","lon":"121.471373","lat":"31.22945","category":"247","category_name":"餐饮美食","address":"上海南京西路388号B1"},{"poiid":"B2094655D265A0F8449F","title":"市政大厦(北门)","lon":"121.47195","lat":"31.2275","category":"49","category_name":"无中心点楼宇大门","address":""},{"poiid":"B2094654DA68A3FB419E","title":"上海市公安局黄浦分局交通警察支队","lon":"121.47229","lat":"31.22652","category":"250","category_name":"公园户外","address":"大沽路"},{"poiid":"B2094655D26EA3F44199","title":"宏泰小区(东门)","lon":"121.47135","lat":"31.22735","category":"47","category_name":"住宅区","address":""},{"poiid":"B2094655D26DA7FF449B","title":"威海小区(南门)","lon":"121.46998","lat":"31.228","category":"47","category_name":"住宅区","address":"威海路62"},{"poiid":"B2094757D16BA2FF499C","title":"广场KFC","lon":"121.473387","lat":"31.228757","category":"500","category_name":"未知分类","address":"上海人民广场迪美"},{"poiid":"B2094655D26BA6F4499A","title":"Za迪美屈臣氏店","lon":"121.47345","lat":"31.22872","category":"122","category_name":"个人用品/化妆品店","address":"人民大道221号"},{"poiid":"B2094751DB6CA0FA4398","title":"上海大剧院望星空","lon":"121.469775","lat":"31.228741","category":"500","category_name":"未知分类","address":"上海大剧院"},{"poiid":"B2094654DA68A3F5429F","title":"蔓达梦SPA","lon":"121.46978","lat":"31.23039","category":"148","category_name":"美容美发店","address":"南京西路399号明天广场"},{"poiid":"B2094655D26CABFA419F","title":"宏泰小区","lon":"121.47111","lat":"31.22725","category":"47","category_name":"住宅区","address":""},{"poiid":"B2094753D16DAAF8489B","title":"richbaby club","lon":"121.470811","lat":"31.227321","category":"500","category_name":"未知分类","address":"上海市 淮海中路"},{"poiid":"B2094654DA68A3FB4198","title":"上海市公安局黄浦分局交巡警支队","lon":"121.47195","lat":"31.22642","category":"250","category_name":"公园户外","address":"大沽路123号黄浦政法大楼"},{"poiid":"B2094757D164A0FF429C","title":"全家便利(江阴街店)","lon":"121.4699937","lat":"31.2299293","category":"117","category_name":"便民商店/便利店","address":"上海黄浦区江阴路60号(近河南南路)"},{"poiid":"B2094655D264A7FD429B","title":"玩世堂桌游","lon":"121.47105","lat":"31.22685","category":"173","category_name":"游戏厅","address":"大沽路186弄2号楼宏泰公寓301室"},{"poiid":"B2094757DA6FA3FC4293","title":"上海博物馆观众活动中心","lon":"121.470243","lat":"31.2275900000002","category":"248","category_name":"生活娱乐","address":"黄浦区人民大道201号上海博物馆内"},{"poiid":"B2094654DA68A3FB4592","title":"中国民生银行上海分行","lon":"121.47075","lat":"31.2284","category":"150","category_name":"银行","address":"黄浦区威海路48"},{"poiid":"B2094753D269A0F54599","title":"上海音乐厅","lon":"121.470224","lat":"31.230125","category":"500","category_name":"未知分类","address":"上海市 金陵中路88号"},{"poiid":"B2094655D26DA7FD429F","title":"威海苑(西门)","lon":"121.46895","lat":"31.22848","category":"48","category_name":"楼宇大门","address":"重庆北路318弄"},{"poiid":"B2094655D26BA3FD489E","title":"BACKROOM","lon":"121.47092","lat":"31.23109","category":"172","category_name":"酒吧","address":"黄浦区南京西路325号上海美术馆5楼K5后面近黄陂北路;;"},{"poiid":"B2094757D069A5FD479A","title":"上海电视台食堂","lon":"121.47021484","lat":"31.22813034","category":"260","category_name":"其他","address":"上海威海路/南京西路"},{"poiid":"B2094757D168A5FF4999","title":"渡口书店马当路245号新天地时尚店","lon":"121.47111073","lat":"31.231215321","category":"500","category_name":"未知分类","address":"上海市黄浦区南北高架路"},{"poiid":"B2094757D16DAAF94899","title":"Ling's Love","lon":"121.473542738","lat":"31.2281012547","category":"500","category_name":"未知分类","address":"上海迪美"},{"poiid":"B2094757D16EAAFA459A","title":"水蔓庭","lon":"121.470872738","lat":"31.228020253","category":"500","category_name":"未知分类","address":"上海市黄陂北路195号三楼"},{"poiid":"B209475CD66EA0FF4792","title":"上海南京路","lon":"121.472015","lat":"31.228122","category":"500","category_name":"未知分类","address":"上海市 南京西路"},{"poiid":"B2094655D26CAAF9459F","title":"明天广场地下车库","lon":"121.46974","lat":"31.23001","category":"250","category_name":"公园户外","address":""},{"poiid":"B2094757D06BAAF4459C","title":"Auto","lon":"121.473198","lat":"31.228027","category":"141","category_name":"服装鞋帽皮具店","address":"上海市长乐路190号A25.A18"},{"poiid":"B2094750D46BABFF4693","title":"中美联泰大都会","lon":"121.470085","lat":"31.229166","category":"263","category_name":"公司","address":"黄浦区黄陂北路227中区广场"},{"poiid":"B2094757D169A3FE479C","title":"阿童木(迪美店)","lon":"121.47368","lat":"31.22828","category":"141","category_name":"服装鞋帽皮具店","address":"黄浦区人民大道221号迪美购物中心内(近武胜路)"},{"poiid":"B2094757D169A5FB4299","title":"太湖","lon":"121.47148363","lat":"31.228426561","category":"500","category_name":"未知分类","address":"苏州太湖环湖路"},{"poiid":"B2094757D16EABF44098","title":"STEAK meal(迪美店)","lon":"121.47147923","lat":"31.227939251","category":"500","category_name":"未知分类","address":"上海人民廣場"},{"poiid":"B2094750D36BA7F94798","title":"上海人口计生12356","lon":"121.47216","lat":"31.22689","category":"617","category_name":"政府机构","address":"大沽路100号"},{"poiid":"B2094757D065A6FE4198","title":"Brahma","lon":"121.473221","lat":"31.22791","category":"122","category_name":"个人用品/化妆品店","address":"上海长乐路190号都市风情街P08"},{"poiid":"B2094752D66EA7FD499E","title":"八佰伴","lon":"121.46947","lat":"31.229232","category":"500","category_name":"未知分类","address":null},{"poiid":"B2094757D164A6FF479B","title":"49路武胜路黄陂北路站","lon":"121.47109025","lat":"31.227463586","category":"500","category_name":"未知分类","address":"上海大剧院"},{"poiid":"B2094753D668A6FA4892","title":"七叶和茶","lon":"121.469705","lat":"31.22931","category":"500","category_name":"未知分类","address":"上海市 迪美店"},{"poiid":"B2094753D269A0F54393","title":"上海音乐厅","lon":"121.470225","lat":"31.230125","category":"500","category_name":"未知分类","address":"上海市 金陵中路88号"},{"poiid":"B2094757D66EA5F8499A","title":"賽瑪西餐廳","lon":"121.470924","lat":"31.231091","category":"500","category_name":"未知分类","address":"上海南京西路325號5樓"},{"poiid":"B2094757D064A6F9439B","title":"嘉宏CARGO","lon":"121.47163373","lat":"31.227932251","category":"500","category_name":"未知分类","address":"上海市延安东路700号13楼"},{"poiid":"B2094757D66FA0F54298","title":"Mandara Spa","lon":"121.46948","lat":"31.23038","category":"500","category_name":"未知分类","address":"上海黄浦区南京西路399号明天广场JW万豪酒店6楼(近黄陂北路)  "},{"poiid":"B2094757D66EA7FB409C","title":"上海市环境学校","lon":"121.470101238","lat":"31.2270090314","category":"500","category_name":"未知分类","address":"上海浦东新区商城路1980号"},{"poiid":"B2094654DA68A3F54499","title":"上海大剧院画廊","lon":"121.47058","lat":"31.23037","category":"252","category_name":"楼宇机构","address":"黄浦区黄陂北路286号(近南京西路)"},{"poiid":"B2094750D76EA6FD459F","title":"illy(黄陂路店)","lon":"121.472","lat":"31.2279","category":"260","category_name":"其他","address":"卢湾区黄陂路(黄陂北路人民大道)"},{"poiid":"B2094757D168AAFE439F","title":"威海苑","lon":"121.46918","lat":"31.228424","category":"252","category_name":"楼宇机构","address":"上海重庆北路318"},{"poiid":"B2094757D569A3F54898","title":"家隆名妆迪美店","lon":"121.4734489","lat":"31.22872111","category":"249","category_name":"购物服务","address":"黄浦区人民大道221号迪美购物中心239号(近武胜路)"},{"poiid":"B2094753D764A5F54598","title":"创兴金融中心大厦","lon":"121.470001","lat":"31.227798","category":"252","category_name":"楼宇机构","address":"上海市 南京西路288号"},{"poiid":"B2094757D06AAAFE419C","title":"自己家- -","lon":"121.4698944","lat":"31.226959228","category":"500","category_name":"未知分类","address":"上海自己家--"},{"poiid":"B2094757D065A1F5469E","title":"思得客(迪美店)","lon":"121.47357","lat":"31.22973","category":"500","category_name":"未知分类","address":"上海黄浦区人民大道221号迪美购物中心南特8室(近武胜路)  "},{"poiid":"B2094757D165A6FB4293","title":"重庆大楼","lon":"121.469557738","lat":"31.228022253","category":"252","category_name":"楼宇机构","address":"上海市黄浦区武胜路507号"},{"poiid":"B2094751D26EA2F9429A","title":"爱尔兰中心","lon":"121.470726","lat":"31.229738","category":"252","category_name":"楼宇机构","address":"卢湾区黄陂北路227号203单位"},{"poiid":"B2094757D06BAAFB4293","title":"长安服务区","lon":"121.47241","lat":"31.230588","category":"500","category_name":"未知分类","address":"上海休息休息"},{"poiid":"B2094757D168A7FF419E","title":"南洋商业银行上海分行","lon":"121.47006673","lat":"31.230204299","category":"150","category_name":"银行","address":"上海市南京西路389号明天广场"},{"poiid":"B2094757D16CAAF5489F","title":"全家便利 威海路二店","lon":"121.47323073","lat":"31.230404303","category":"249","category_name":"购物服务","address":"上海黃浦區威海路64號 (49路/109路威海路黃陂北路車站旁)"},{"poiid":"B2094757D16BA2FE4799","title":"挚恒珠宝","lon":"121.471988238","lat":"31.2278702498","category":"249","category_name":"购物服务","address":"上海淮海路222号力宝广场2702室"},{"poiid":"B2094757D16BABF4419C","title":"香港必瘦站","lon":"121.47299933","lat":"31.229222778","category":"500","category_name":"未知分类","address":"上海市黄浦区南京南路步行街"},{"poiid":"B2094654DA68A3F54493","title":"人民公园邮政储蓄","lon":"121.47043","lat":"31.22995","category":"150","category_name":"银行","address":"黄陂北路279号"},{"poiid":"B2094757D16BA3FA439A","title":"光大银行(黄浦支行)","lon":"121.47078","lat":"31.22915","category":"150","category_name":"银行","address":"上海黄浦区黄陂北路227号  "},{"poiid":"B2094757D164A2FA4298","title":"大沽路点心店","lon":"121.469888738","lat":"31.227925251","category":"500","category_name":"未知分类","address":"上海黄浦区重庆北路大沽路"},{"poiid":"B2094757D56EA6F84098","title":"S-NAILSPA美甲造型沙龙","lon":"121.472916","lat":"31.230708","category":"249","category_name":"购物服务","address":"泰康路274弄1号(田字坊内)"},{"poiid":"B2094757D16BA2FF499A","title":"八剑伝日本料理","lon":"121.469617","lat":"31.229176","category":"500","category_name":"未知分类","address":"上海瑞金一路8号"},{"poiid":"B2094757D16CA5FA429B","title":"公文式四平教育中心","lon":"121.47220573","lat":"31.230231262","category":"500","category_name":"未知分类","address":"上海本溪路191号4F"},{"poiid":"B2094757D06BA0F9479E","title":"XIANMANNI","lon":"121.470588","lat":"31.227602","category":"500","category_name":"未知分类","address":"上海长乐路302号"},{"poiid":"B2094752D268A0F84492","title":"剪约造型威海路店","lon":"121.469996","lat":"31.227845","category":"248","category_name":"生活娱乐","address":"威海路88号"},{"poiid":"B2094757D66EA5F5409B","title":"八仙马立斯菜市场","lon":"121.470744738","lat":"31.227035232","category":"249","category_name":"购物服务","address":"上海大沽路"},{"poiid":"B2094757D16CA6F9469C","title":"爱疯桌游","lon":"121.47034333","lat":"31.227332238","category":"248","category_name":"生活娱乐","address":"上海市重庆北路318弄威海苑2号楼紫藤阁11楼G座"},{"poiid":"B2094757D065A2F94993","title":"菲恋","lon":"121.473551928","lat":"31.2280807443","category":"249","category_name":"购物服务","address":"上海迪美店"},{"poiid":"B2094654DA68A3F5469E","title":"波士顿咨询(上海)有限公司","lon":"121.47047","lat":"31.22931","category":"263","category_name":"公司","address":"黄陂北路227号中区广场21层2101-2112"},{"poiid":"B2094655D26DA3FF449F","title":"道顿堀","lon":"121.47052","lat":"31.23107","category":"134","category_name":"古玩字画店","address":""},{"poiid":"B2094655D265ABF4499C","title":"プリクラ城堡","lon":"121.47345","lat":"31.22872","category":"248","category_name":"生活娱乐","address":"人民大道221号迪美购物中心227号铺"},{"poiid":"B2094654DA68A2FC429A","title":"上海宏泰房地产有限公司","lon":"121.47006","lat":"31.22676","category":"263","category_name":"公司","address":"重庆北路198"},{"poiid":"B2094654DA68A3F54592","title":"罗思(上海)咨询有限公司","lon":"121.47047","lat":"31.2293","category":"263","category_name":"公司","address":"黄陂北路227号中区广场25层2509、26层2601、2611-2612"},{"poiid":"B2094752D16EA2F5459A","title":"城隍庙","lon":"121.471478","lat":"31.22674","category":"500","category_name":"未知分类","address":null},{"poiid":"B2094654DA68A3FB4899","title":"上海大世界国际旅游公司(武胜路)","lon":"121.47039","lat":"31.22753","category":"248","category_name":"生活娱乐","address":""},{"poiid":"B2094655D264A5FB4299","title":"CITYLIFE迪美店","lon":"121.47345","lat":"31.22872","category":"248","category_name":"生活娱乐","address":"黄浦区人民大道221号迪美购物中心内(近武胜路)"},{"poiid":"B2094655D265A5FC459C","title":"MICKEYMOUSE迪美店","lon":"121.47345","lat":"31.22872","category":"248","category_name":"生活娱乐","address":"黄浦区人民大道221号迪美购物中心内(近武胜路)"},{"poiid":"B2094752D069A6FC489E","title":"东方商厦","lon":"121.471687","lat":"31.227442","category":"249","category_name":"购物服务","address":"淮海中路瑞金二路"},{"poiid":"B2094654DA68A3FB449D","title":"世纪证券上海威海路营业部","lon":"121.47067","lat":"31.22843","category":"219","category_name":"其他","address":"威海路48号中国民生银行大厦24-25层"},{"poiid":"B2094655D26CAAFC439F","title":"宏泰公寓(西门)","lon":"121.46997","lat":"31.22692","category":"656","category_name":"大门","address":"重庆北路198"},{"poiid":"B2094655D26DA7FD429A","title":"宏泰公寓(南门)","lon":"121.47114","lat":"31.22649","category":"656","category_name":"大门","address":"大沽路186弄1-2号"},{"poiid":"B2094655D26CABFC4092","title":"重新小区(北一门)","lon":"121.47131","lat":"31.22749","category":"656","category_name":"大门","address":"武胜路429弄1-9号"},{"poiid":"B2094655D26CABFA419C","title":"重新小区(北二门)","lon":"121.4713","lat":"31.2275","category":"656","category_name":"大门","address":"武胜路429弄1-9号"},{"poiid":"B2094655D26CABFA429E","title":"重新小区(西门)","lon":"121.46984","lat":"31.22706","category":"656","category_name":"大门","address":"重庆北路216弄2-66号"}]