[{"poiid":"B2094757D06EAAF54292","title":"辣府","lon":"121.46055803420836","lat":"31.204216638609246","category":"71","category_name":"四川菜","address":"徐汇区嘉善路512号附5号(近肇嘉浜路)"},{"poiid":"B2094655D26CA4F94298","title":"尚街Loft","lon":"121.45912","lat":"31.20524","category":"116","category_name":"特色商业街","address":"中央商务区CBD22号"},{"poiid":"B2094655D26BA0FA479B","title":"新苑私房菜","lon":"121.4603","lat":"31.20464","category":"76","category_name":"上海菜","address":"徐汇区嘉善路508号尚街1号楼102室(肇嘉浜路建国西路间)"},{"poiid":"B2094753D76FAAFA449C","title":"上海滩国泰旗舰店","lon":"121.466011","lat":"31.216125","category":"249","category_name":"购物服务","address":"淮海中路868号"},{"poiid":"B209475CD564A7F84292","title":"上海滩新天地店","lon":"121.47463","lat":"31.22164","category":"119","category_name":"商场","address":"\"太仓路181弄新天地北里15号\r\n\""},{"poiid":"B209475CD564A7F8439E","title":"上海滩中信泰富店","lon":"121.45602","lat":"31.22851","category":"119","category_name":"商场","address":"\"南京西路1168号中信泰富广场，店铺号221.\r\n\""},{"poiid":"B2094751DA6FAAF8459A","title":"捞王猪肚鸡火锅","lon":"121.461071","lat":"31.203251","category":"247","category_name":"餐饮美食","address":"肇嘉浜路嘉善路"},{"poiid":"B2094757D06FA7FF459C","title":"旭日屋 襄阳南路","lon":"121.45815664124","lat":"31.204645031668","category":"95","category_name":"日本料理","address":"徐汇区襄阳南路533号(近肇嘉浜路)"},{"poiid":"B2094757D16DA1F5449C","title":"嘉善老市","lon":"121.46068573","lat":"31.207114807","category":"500","category_name":"未知分类","address":"上海市徐汇区永嘉路"},{"poiid":"B2094757D06FA0F9439A","title":"木村日本料理(肇嘉浜路店)","lon":"121.460549838","lat":"31.2040251418","category":"95","category_name":"日本料理","address":"徐汇区嘉善路524号(近肇嘉浜路)"},{"poiid":"B2094757D06EAAF44499","title":"嘉善路地铁站","lon":"121.46090136","lat":"31.202866912","category":"36","category_name":"地铁站","address":"上海轨道交通 九号线 轨交嘉善路站 9"},{"poiid":"B2094757D06FA0FF419B","title":"沃歌斯 建国西路店 wagas","lon":"121.46050136399","lat":"31.206048786127","category":"94","category_name":"西餐厅","address":"徐汇区建国西路283号尚街LOFT1104-1105室(近嘉善路)"},{"poiid":"B2094757D069A7F5479F","title":"襄阳会馆","lon":"121.45852","lat":"31.20484","category":"76","category_name":"上海菜","address":"徐汇区建国西路296号(近襄阳南路)"},{"poiid":"B209475DD76DA2FF4792","title":"很高兴遇见你","lon":"121.460838","lat":"31.206756","category":"247","category_name":"餐饮美食","address":"上海市 建国西路221号2楼(陕西南路与嘉善路之间)"},{"poiid":"B2094654DA6DA6F94298","title":"大可堂普洱会所","lon":"121.45772","lat":"31.20758","category":"260","category_name":"其他","address":"徐汇区襄阳南路388弄25号(近永嘉路)"},{"poiid":"B2094757D068A4FB4092","title":"Naam Thai","lon":"121.4605","lat":"31.2048","category":"99","category_name":"泰国／越南菜品餐厅","address":"徐汇区嘉善路508号Loft尚街1107-1108室(近建国西路)"},{"poiid":"B2094757D068A7FD4799","title":"上海市高级人民法院","lon":"121.45943123","lat":"31.203331163","category":"608","category_name":"法院","address":"上海市徐汇区肇嘉浜路308号"},{"poiid":"B2094655D264A5FA469F","title":"尚街创意园","lon":"121.4603","lat":"31.20464","category":"45","category_name":"产业园区","address":"嘉善路508号"},{"poiid":"B2094757D069A3FE439C","title":"Cafe Sambal","lon":"121.4594935","lat":"31.207575767","category":"110","category_name":"其他亚洲菜","address":"卢湾区陕西南路550弄37号嘉善市场(近绍兴路)"},{"poiid":"B209475CDA6DA1F9489B","title":"柴田西点","lon":"121.460445","lat":"31.206314","category":"67","category_name":"甜品店","address":"徐汇区嘉善路309号"},{"poiid":"B2094655D36DA1F44792","title":"襄阳南路建国西路","lon":"121.45804","lat":"31.20557","category":"38","category_name":"公交车站","address":"上海襄阳南路建国西路"},{"poiid":"B2094654DB69A7FD439F","title":"秋萍茶宴馆","lon":"121.4576585804","lat":"31.205616427492","category":"75","category_name":"浙江菜","address":"徐汇区襄阳南路500号(近建国西路)"},{"poiid":"B2094757D068A6FA4299","title":"巴黎时韵","lon":"121.45768","lat":"31.205799","category":"46","category_name":"楼宇","address":"巴黎时韵位于卢湾襄阳南路500号建国西路口"},{"poiid":"B2094757D06FAAF54998","title":"亚太企业大厦","lon":"121.460398738","lat":"31.2025817111","category":"46","category_name":"楼宇","address":"丰台学城海鹰路1号，3号"},{"poiid":"B2094751DA6FA3FC469F","title":"捞王猪肚鸡","lon":"121.45716","lat":"31.20452","category":"86","category_name":"火锅店","address":"徐汇区肇嘉浜路268号2楼(近嘉善路地铁站2号出口)"},{"poiid":"B2094757D468AAF94898","title":"GRUB&GROOVE","lon":"121.4586568","lat":"31.2052323","category":"94","category_name":"西餐厅","address":"徐汇区建国西路283号2号楼附楼B单元(嘉善路口)"},{"poiid":"B2094654DA6DA6F4449D","title":"科投大厦","lon":"121.45893","lat":"31.20502","category":"46","category_name":"楼宇","address":"建国西路285"},{"poiid":"B209475DD565A0FD4993","title":"很高兴遇见你","lon":"121.461494","lat":"31.205625","category":"247","category_name":"餐饮美食","address":"上海市 建国路221号"},{"poiid":"B2094757D16CA6FE4499","title":"Venus Spring Massage","lon":"121.460971","lat":"31.207268","category":"500","category_name":"未知分类","address":"上海市,陕西南路550弄37号嘉善坊E栋(近绍兴路)"},{"poiid":"B209475CD36FA5F8499C","title":"捞王锅物料理 肇嘉浜路店","lon":"121.46121","lat":"31.20346","category":"72","category_name":"广东菜","address":"肇嘉浜路268号2楼(近嘉善路地铁站2号出口)"},{"poiid":"B2094750D664A3F54598","title":"鸿公馆","lon":"121.458","lat":"31.2034","category":"72","category_name":"广东菜","address":"徐汇区襄阳南路578号乙(近肇嘉浜路)"},{"poiid":"B2094757D168ABF8419D","title":"小荧星艺校","lon":"121.459269088","lat":"31.2048389592","category":"500","category_name":"未知分类","address":"徐汇区建国西路283号-3(近嘉善路)"},{"poiid":"B2094757D168A7FC439E","title":"The Kitchen At","lon":"121.45926773","lat":"31.205949782","category":"500","category_name":"未知分类","address":"上海襄阳南路383弄20号3楼"},{"poiid":"B2094655D26CA4FE419B","title":"梧桐花园A座","lon":"121.4596","lat":"31.20472","category":"47","category_name":"住宅区","address":"建国西路273"},{"poiid":"B2094757D06AA3FA489E","title":"小荧星艺校(尚街校区)","lon":"121.457245738","lat":"31.2069285447","category":"500","category_name":"未知分类","address":"上海卢湾区建国西路283号(近嘉善路)"},{"poiid":"B2094654DA6DABFC4098","title":"中科大厦","lon":"121.46","lat":"31.2078","category":"46","category_name":"楼宇","address":"上海徐汇区岳阳路319号"},{"poiid":"B2094654DB65A1FA4093","title":"三连山茶行(襄阳南路)","lon":"121.45817","lat":"31.20527","category":"66","category_name":"茶艺馆","address":"襄阳南路439-3乙识别"},{"poiid":"B2094757D568AAFF4399","title":"飞蛋超市(建国西路Loft店)","lon":"121.4591289","lat":"31.20524","category":"118","category_name":"超级市场","address":"徐汇区建国西路283号1号楼1106室(近嘉善路)"},{"poiid":"B2094655D36CA0F9499A","title":"建国西路襄阳南路","lon":"121.45923","lat":"31.20547","category":"38","category_name":"公交车站","address":""},{"poiid":"B2094655D26AA6FE4293","title":"CKCLUB","lon":"121.45893","lat":"31.20502","category":"247","category_name":"餐饮美食","address":"卢湾区建国西路285号(近嘉善路)"},{"poiid":"B2094757D069AAFF4999","title":"7-ELEVEN(建国店)","lon":"121.459534818","lat":"31.2054495707","category":"117","category_name":"便民商店/便利店","address":"徐汇区建国西路273号(近嘉善路)"},{"poiid":"B2094654DA6DA6FA4193","title":"生煎锅贴","lon":"121.45815","lat":"31.20562","category":"68","category_name":"快餐厅","address":"徐汇区襄阳南路435号(近建国西路)"},{"poiid":"B2094654DA6DA6FA429A","title":"重庆麻辣烫(建国西路)","lon":"121.45778","lat":"31.20489","category":"68","category_name":"快餐厅","address":"徐汇区建国西路295号(近襄阳南路)"},{"poiid":"B2094654DA6DAAFE4099","title":"华业大厦","lon":"121.462","lat":"31.2058","category":"46","category_name":"楼宇","address":"上海医学院路69号"},{"poiid":"B2094757D568A0F5429B","title":"阿婆葱油饼","lon":"121.4582589","lat":"31.20335306","category":"68","category_name":"快餐厅","address":"徐汇区襄阳南路578弄口(近肇嘉浜路)"},{"poiid":"B2094757D06BA7FA499F","title":"疯狂科学儿童俱乐部","lon":"121.45879255","lat":"31.205080764","category":"500","category_name":"未知分类","address":"上海建国西路285号"},{"poiid":"B2094757D16CA5FE499E","title":"annion Kitchen","lon":"121.46055162","lat":"31.207221618","category":"96","category_name":"韩国料理","address":"卢湾区陕西南路550弄37号嘉善市场(近绍兴路)"},{"poiid":"B2094757D168ABFF429F","title":"沁源茶楼","lon":"121.45827913","lat":"31.205097664","category":"247","category_name":"餐饮美食","address":"上海浦东大道569号"},{"poiid":"B2094757D469A7FE459E","title":"吾饮良品 襄阳南路店","lon":"121.457903","lat":"31.204461","category":"113","category_name":"冷饮店","address":"徐汇区襄阳南路514号(近建国西路)"},{"poiid":"B2094654DA6DA4F5489C","title":"联业大厦","lon":"121.457","lat":"31.2063","category":"46","category_name":"楼宇","address":"联业大厦位于徐汇乌鲁木齐南路299号"},{"poiid":"B2094757D06EAAF54292","title":"辣府","lon":"121.46055803420836","lat":"31.204216638609246","category":"71","category_name":"四川菜","address":"徐汇区嘉善路512号附5号(近肇嘉浜路)"},{"poiid":"B2094655D26CA4F94298","title":"尚街Loft","lon":"121.45912","lat":"31.20524","category":"116","category_name":"特色商业街","address":"中央商务区CBD22号"},{"poiid":"B2094655D26BA0FA479B","title":"新苑私房菜","lon":"121.4603","lat":"31.20464","category":"76","category_name":"上海菜","address":"徐汇区嘉善路508号尚街1号楼102室(肇嘉浜路建国西路间)"},{"poiid":"B2094753D76FAAFA449C","title":"上海滩国泰旗舰店","lon":"121.466011","lat":"31.216125","category":"249","category_name":"购物服务","address":"淮海中路868号"},{"poiid":"B209475CD564A7F84292","title":"上海滩新天地店","lon":"121.47463","lat":"31.22164","category":"119","category_name":"商场","address":"\"太仓路181弄新天地北里15号\r\n\""},{"poiid":"B209475CD564A7F8439E","title":"上海滩中信泰富店","lon":"121.45602","lat":"31.22851","category":"119","category_name":"商场","address":"\"南京西路1168号中信泰富广场，店铺号221.\r\n\""},{"poiid":"B2094751DA6FAAF8459A","title":"捞王猪肚鸡火锅","lon":"121.461071","lat":"31.203251","category":"247","category_name":"餐饮美食","address":"肇嘉浜路嘉善路"},{"poiid":"B2094757D06FA7FF459C","title":"旭日屋 襄阳南路","lon":"121.45815664124","lat":"31.204645031668","category":"95","category_name":"日本料理","address":"徐汇区襄阳南路533号(近肇嘉浜路)"},{"poiid":"B2094757D16DA1F5449C","title":"嘉善老市","lon":"121.46068573","lat":"31.207114807","category":"500","category_name":"未知分类","address":"上海市徐汇区永嘉路"},{"poiid":"B2094757D06FA0F9439A","title":"木村日本料理(肇嘉浜路店)","lon":"121.460549838","lat":"31.2040251418","category":"95","category_name":"日本料理","address":"徐汇区嘉善路524号(近肇嘉浜路)"},{"poiid":"B2094757D06EAAF44499","title":"嘉善路地铁站","lon":"121.46090136","lat":"31.202866912","category":"36","category_name":"地铁站","address":"上海轨道交通 九号线 轨交嘉善路站 9"},{"poiid":"B2094757D06FA0FF419B","title":"沃歌斯 建国西路店 wagas","lon":"121.46050136399","lat":"31.206048786127","category":"94","category_name":"西餐厅","address":"徐汇区建国西路283号尚街LOFT1104-1105室(近嘉善路)"},{"poiid":"B2094757D069A7F5479F","title":"襄阳会馆","lon":"121.45852","lat":"31.20484","category":"76","category_name":"上海菜","address":"徐汇区建国西路296号(近襄阳南路)"},{"poiid":"B209475DD76DA2FF4792","title":"很高兴遇见你","lon":"121.460838","lat":"31.206756","category":"247","category_name":"餐饮美食","address":"上海市 建国西路221号2楼(陕西南路与嘉善路之间)"},{"poiid":"B2094654DA6DA6F94298","title":"大可堂普洱会所","lon":"121.45772","lat":"31.20758","category":"260","category_name":"其他","address":"徐汇区襄阳南路388弄25号(近永嘉路)"},{"poiid":"B2094757D068A4FB4092","title":"Naam Thai","lon":"121.4605","lat":"31.2048","category":"99","category_name":"泰国／越南菜品餐厅","address":"徐汇区嘉善路508号Loft尚街1107-1108室(近建国西路)"},{"poiid":"B2094757D068A7FD4799","title":"上海市高级人民法院","lon":"121.45943123","lat":"31.203331163","category":"608","category_name":"法院","address":"上海市徐汇区肇嘉浜路308号"},{"poiid":"B2094655D264A5FA469F","title":"尚街创意园","lon":"121.4603","lat":"31.20464","category":"45","category_name":"产业园区","address":"嘉善路508号"},{"poiid":"B2094757D069A3FE439C","title":"Cafe Sambal","lon":"121.4594935","lat":"31.207575767","category":"110","category_name":"其他亚洲菜","address":"卢湾区陕西南路550弄37号嘉善市场(近绍兴路)"},{"poiid":"B209475CDA6DA1F9489B","title":"柴田西点","lon":"121.460445","lat":"31.206314","category":"67","category_name":"甜品店","address":"徐汇区嘉善路309号"},{"poiid":"B2094655D36DA1F44792","title":"襄阳南路建国西路","lon":"121.45804","lat":"31.20557","category":"38","category_name":"公交车站","address":"上海襄阳南路建国西路"},{"poiid":"B2094654DB69A7FD439F","title":"秋萍茶宴馆","lon":"121.4576585804","lat":"31.205616427492","category":"75","category_name":"浙江菜","address":"徐汇区襄阳南路500号(近建国西路)"},{"poiid":"B2094757D068A6FA4299","title":"巴黎时韵","lon":"121.45768","lat":"31.205799","category":"46","category_name":"楼宇","address":"巴黎时韵位于卢湾襄阳南路500号建国西路口"},{"poiid":"B2094757D06FAAF54998","title":"亚太企业大厦","lon":"121.460398738","lat":"31.2025817111","category":"46","category_name":"楼宇","address":"丰台学城海鹰路1号，3号"},{"poiid":"B2094751DA6FA3FC469F","title":"捞王猪肚鸡","lon":"121.45716","lat":"31.20452","category":"86","category_name":"火锅店","address":"徐汇区肇嘉浜路268号2楼(近嘉善路地铁站2号出口)"},{"poiid":"B2094757D468AAF94898","title":"GRUB&GROOVE","lon":"121.4586568","lat":"31.2052323","category":"94","category_name":"西餐厅","address":"徐汇区建国西路283号2号楼附楼B单元(嘉善路口)"},{"poiid":"B2094654DA6DA6F4449D","title":"科投大厦","lon":"121.45893","lat":"31.20502","category":"46","category_name":"楼宇","address":"建国西路285"},{"poiid":"B209475DD565A0FD4993","title":"很高兴遇见你","lon":"121.461494","lat":"31.205625","category":"247","category_name":"餐饮美食","address":"上海市 建国路221号"},{"poiid":"B2094757D16CA6FE4499","title":"Venus Spring Massage","lon":"121.460971","lat":"31.207268","category":"500","category_name":"未知分类","address":"上海市,陕西南路550弄37号嘉善坊E栋(近绍兴路)"},{"poiid":"B209475CD36FA5F8499C","title":"捞王锅物料理 肇嘉浜路店","lon":"121.46121","lat":"31.20346","category":"72","category_name":"广东菜","address":"肇嘉浜路268号2楼(近嘉善路地铁站2号出口)"},{"poiid":"B2094750D664A3F54598","title":"鸿公馆","lon":"121.458","lat":"31.2034","category":"72","category_name":"广东菜","address":"徐汇区襄阳南路578号乙(近肇嘉浜路)"},{"poiid":"B2094757D168ABF8419D","title":"小荧星艺校","lon":"121.459269088","lat":"31.2048389592","category":"500","category_name":"未知分类","address":"徐汇区建国西路283号-3(近嘉善路)"},{"poiid":"B2094757D168A7FC439E","title":"The Kitchen At","lon":"121.45926773","lat":"31.205949782","category":"500","category_name":"未知分类","address":"上海襄阳南路383弄20号3楼"},{"poiid":"B2094655D26CA4FE419B","title":"梧桐花园A座","lon":"121.4596","lat":"31.20472","category":"47","category_name":"住宅区","address":"建国西路273"},{"poiid":"B2094757D06AA3FA489E","title":"小荧星艺校(尚街校区)","lon":"121.457245738","lat":"31.2069285447","category":"500","category_name":"未知分类","address":"上海卢湾区建国西路283号(近嘉善路)"},{"poiid":"B2094654DA6DABFC4098","title":"中科大厦","lon":"121.46","lat":"31.2078","category":"46","category_name":"楼宇","address":"上海徐汇区岳阳路319号"},{"poiid":"B2094654DB65A1FA4093","title":"三连山茶行(襄阳南路)","lon":"121.45817","lat":"31.20527","category":"66","category_name":"茶艺馆","address":"襄阳南路439-3乙识别"},{"poiid":"B2094757D568AAFF4399","title":"飞蛋超市(建国西路Loft店)","lon":"121.4591289","lat":"31.20524","category":"118","category_name":"超级市场","address":"徐汇区建国西路283号1号楼1106室(近嘉善路)"},{"poiid":"B2094655D36CA0F9499A","title":"建国西路襄阳南路","lon":"121.45923","lat":"31.20547","category":"38","category_name":"公交车站","address":""},{"poiid":"B2094655D26AA6FE4293","title":"CKCLUB","lon":"121.45893","lat":"31.20502","category":"247","category_name":"餐饮美食","address":"卢湾区建国西路285号(近嘉善路)"},{"poiid":"B2094757D069AAFF4999","title":"7-ELEVEN(建国店)","lon":"121.459534818","lat":"31.2054495707","category":"117","category_name":"便民商店/便利店","address":"徐汇区建国西路273号(近嘉善路)"},{"poiid":"B2094654DA6DA6FA4193","title":"生煎锅贴","lon":"121.45815","lat":"31.20562","category":"68","category_name":"快餐厅","address":"徐汇区襄阳南路435号(近建国西路)"},{"poiid":"B2094654DA6DA6FA429A","title":"重庆麻辣烫(建国西路)","lon":"121.45778","lat":"31.20489","category":"68","category_name":"快餐厅","address":"徐汇区建国西路295号(近襄阳南路)"},{"poiid":"B2094654DA6DAAFE4099","title":"华业大厦","lon":"121.462","lat":"31.2058","category":"46","category_name":"楼宇","address":"上海医学院路69号"},{"poiid":"B2094757D568A0F5429B","title":"阿婆葱油饼","lon":"121.4582589","lat":"31.20335306","category":"68","category_name":"快餐厅","address":"徐汇区襄阳南路578弄口(近肇嘉浜路)"},{"poiid":"B2094757D06BA7FA499F","title":"疯狂科学儿童俱乐部","lon":"121.45879255","lat":"31.205080764","category":"500","category_name":"未知分类","address":"上海建国西路285号"},{"poiid":"B2094757D16CA5FE499E","title":"annion Kitchen","lon":"121.46055162","lat":"31.207221618","category":"96","category_name":"韩国料理","address":"卢湾区陕西南路550弄37号嘉善市场(近绍兴路)"},{"poiid":"B2094757D168ABFF429F","title":"沁源茶楼","lon":"121.45827913","lat":"31.205097664","category":"247","category_name":"餐饮美食","address":"上海浦东大道569号"},{"poiid":"B2094757D469A7FE459E","title":"吾饮良品 襄阳南路店","lon":"121.457903","lat":"31.204461","category":"113","category_name":"冷饮店","address":"徐汇区襄阳南路514号(近建国西路)"},{"poiid":"B2094654DA6DA4F5489C","title":"联业大厦","lon":"121.457","lat":"31.2063","category":"46","category_name":"楼宇","address":"联业大厦位于徐汇乌鲁木齐南路299号"},{"poiid":"B2094757D06EAAF54292","title":"辣府","lon":"121.46055803420836","lat":"31.204216638609246","category":"71","category_name":"四川菜","address":"徐汇区嘉善路512号附5号(近肇嘉浜路)"},{"poiid":"B2094655D26CA4F94298","title":"尚街Loft","lon":"121.45912","lat":"31.20524","category":"116","category_name":"特色商业街","address":"中央商务区CBD22号"},{"poiid":"B2094655D26BA0FA479B","title":"新苑私房菜","lon":"121.4603","lat":"31.20464","category":"76","category_name":"上海菜","address":"徐汇区嘉善路508号尚街1号楼102室(肇嘉浜路建国西路间)"},{"poiid":"B2094753D76FAAFA449C","title":"上海滩国泰旗舰店","lon":"121.466011","lat":"31.216125","category":"249","category_name":"购物服务","address":"淮海中路868号"},{"poiid":"B209475CD564A7F84292","title":"上海滩新天地店","lon":"121.47463","lat":"31.22164","category":"119","category_name":"商场","address":"\"太仓路181弄新天地北里15号\r\n\""},{"poiid":"B209475CD564A7F8439E","title":"上海滩中信泰富店","lon":"121.45602","lat":"31.22851","category":"119","category_name":"商场","address":"\"南京西路1168号中信泰富广场，店铺号221.\r\n\""},{"poiid":"B2094751DA6FAAF8459A","title":"捞王猪肚鸡火锅","lon":"121.461071","lat":"31.203251","category":"247","category_name":"餐饮美食","address":"肇嘉浜路嘉善路"},{"poiid":"B2094757D06FA7FF459C","title":"旭日屋 襄阳南路","lon":"121.45815664124","lat":"31.204645031668","category":"95","category_name":"日本料理","address":"徐汇区襄阳南路533号(近肇嘉浜路)"},{"poiid":"B2094757D16DA1F5449C","title":"嘉善老市","lon":"121.46068573","lat":"31.207114807","category":"500","category_name":"未知分类","address":"上海市徐汇区永嘉路"},{"poiid":"B2094757D06FA0F9439A","title":"木村日本料理(肇嘉浜路店)","lon":"121.460549838","lat":"31.2040251418","category":"95","category_name":"日本料理","address":"徐汇区嘉善路524号(近肇嘉浜路)"},{"poiid":"B2094757D06EAAF44499","title":"嘉善路地铁站","lon":"121.46090136","lat":"31.202866912","category":"36","category_name":"地铁站","address":"上海轨道交通 九号线 轨交嘉善路站 9"},{"poiid":"B2094757D06FA0FF419B","title":"沃歌斯 建国西路店 wagas","lon":"121.46050136399","lat":"31.206048786127","category":"94","category_name":"西餐厅","address":"徐汇区建国西路283号尚街LOFT1104-1105室(近嘉善路)"},{"poiid":"B2094757D069A7F5479F","title":"襄阳会馆","lon":"121.45852","lat":"31.20484","category":"76","category_name":"上海菜","address":"徐汇区建国西路296号(近襄阳南路)"},{"poiid":"B209475DD76DA2FF4792","title":"很高兴遇见你","lon":"121.460838","lat":"31.206756","category":"247","category_name":"餐饮美食","address":"上海市 建国西路221号2楼(陕西南路与嘉善路之间)"},{"poiid":"B2094654DA6DA6F94298","title":"大可堂普洱会所","lon":"121.45772","lat":"31.20758","category":"260","category_name":"其他","address":"徐汇区襄阳南路388弄25号(近永嘉路)"},{"poiid":"B2094757D068A4FB4092","title":"Naam Thai","lon":"121.4605","lat":"31.2048","category":"99","category_name":"泰国／越南菜品餐厅","address":"徐汇区嘉善路508号Loft尚街1107-1108室(近建国西路)"},{"poiid":"B2094757D068A7FD4799","title":"上海市高级人民法院","lon":"121.45943123","lat":"31.203331163","category":"608","category_name":"法院","address":"上海市徐汇区肇嘉浜路308号"},{"poiid":"B2094655D264A5FA469F","title":"尚街创意园","lon":"121.4603","lat":"31.20464","category":"45","category_name":"产业园区","address":"嘉善路508号"},{"poiid":"B2094757D069A3FE439C","title":"Cafe Sambal","lon":"121.4594935","lat":"31.207575767","category":"110","category_name":"其他亚洲菜","address":"卢湾区陕西南路550弄37号嘉善市场(近绍兴路)"},{"poiid":"B209475CDA6DA1F9489B","title":"柴田西点","lon":"121.460445","lat":"31.206314","category":"67","category_name":"甜品店","address":"徐汇区嘉善路309号"},{"poiid":"B2094655D36DA1F44792","title":"襄阳南路建国西路","lon":"121.45804","lat":"31.20557","category":"38","category_name":"公交车站","address":"上海襄阳南路建国西路"},{"poiid":"B2094654DB69A7FD439F","title":"秋萍茶宴馆","lon":"121.4576585804","lat":"31.205616427492","category":"75","category_name":"浙江菜","address":"徐汇区襄阳南路500号(近建国西路)"},{"poiid":"B2094757D068A6FA4299","title":"巴黎时韵","lon":"121.45768","lat":"31.205799","category":"46","category_name":"楼宇","address":"巴黎时韵位于卢湾襄阳南路500号建国西路口"},{"poiid":"B2094757D06FAAF54998","title":"亚太企业大厦","lon":"121.460398738","lat":"31.2025817111","category":"46","category_name":"楼宇","address":"丰台学城海鹰路1号，3号"},{"poiid":"B2094751DA6FA3FC469F","title":"捞王猪肚鸡","lon":"121.45716","lat":"31.20452","category":"86","category_name":"火锅店","address":"徐汇区肇嘉浜路268号2楼(近嘉善路地铁站2号出口)"},{"poiid":"B2094757D468AAF94898","title":"GRUB&GROOVE","lon":"121.4586568","lat":"31.2052323","category":"94","category_name":"西餐厅","address":"徐汇区建国西路283号2号楼附楼B单元(嘉善路口)"},{"poiid":"B2094654DA6DA6F4449D","title":"科投大厦","lon":"121.45893","lat":"31.20502","category":"46","category_name":"楼宇","address":"建国西路285"},{"poiid":"B209475DD565A0FD4993","title":"很高兴遇见你","lon":"121.461494","lat":"31.205625","category":"247","category_name":"餐饮美食","address":"上海市 建国路221号"},{"poiid":"B2094757D16CA6FE4499","title":"Venus Spring Massage","lon":"121.460971","lat":"31.207268","category":"500","category_name":"未知分类","address":"上海市,陕西南路550弄37号嘉善坊E栋(近绍兴路)"},{"poiid":"B209475CD36FA5F8499C","title":"捞王锅物料理 肇嘉浜路店","lon":"121.46121","lat":"31.20346","category":"72","category_name":"广东菜","address":"肇嘉浜路268号2楼(近嘉善路地铁站2号出口)"},{"poiid":"B2094750D664A3F54598","title":"鸿公馆","lon":"121.458","lat":"31.2034","category":"72","category_name":"广东菜","address":"徐汇区襄阳南路578号乙(近肇嘉浜路)"},{"poiid":"B2094757D168ABF8419D","title":"小荧星艺校","lon":"121.459269088","lat":"31.2048389592","category":"500","category_name":"未知分类","address":"徐汇区建国西路283号-3(近嘉善路)"},{"poiid":"B2094757D168A7FC439E","title":"The Kitchen At","lon":"121.45926773","lat":"31.205949782","category":"500","category_name":"未知分类","address":"上海襄阳南路383弄20号3楼"},{"poiid":"B2094655D26CA4FE419B","title":"梧桐花园A座","lon":"121.4596","lat":"31.20472","category":"47","category_name":"住宅区","address":"建国西路273"},{"poiid":"B2094757D06AA3FA489E","title":"小荧星艺校(尚街校区)","lon":"121.457245738","lat":"31.2069285447","category":"500","category_name":"未知分类","address":"上海卢湾区建国西路283号(近嘉善路)"},{"poiid":"B2094654DA6DABFC4098","title":"中科大厦","lon":"121.46","lat":"31.2078","category":"46","category_name":"楼宇","address":"上海徐汇区岳阳路319号"},{"poiid":"B2094654DB65A1FA4093","title":"三连山茶行(襄阳南路)","lon":"121.45817","lat":"31.20527","category":"66","category_name":"茶艺馆","address":"襄阳南路439-3乙识别"},{"poiid":"B2094757D568AAFF4399","title":"飞蛋超市(建国西路Loft店)","lon":"121.4591289","lat":"31.20524","category":"118","category_name":"超级市场","address":"徐汇区建国西路283号1号楼1106室(近嘉善路)"},{"poiid":"B2094655D36CA0F9499A","title":"建国西路襄阳南路","lon":"121.45923","lat":"31.20547","category":"38","category_name":"公交车站","address":""},{"poiid":"B2094655D26AA6FE4293","title":"CKCLUB","lon":"121.45893","lat":"31.20502","category":"247","category_name":"餐饮美食","address":"卢湾区建国西路285号(近嘉善路)"},{"poiid":"B2094757D069AAFF4999","title":"7-ELEVEN(建国店)","lon":"121.459534818","lat":"31.2054495707","category":"117","category_name":"便民商店/便利店","address":"徐汇区建国西路273号(近嘉善路)"},{"poiid":"B2094654DA6DA6FA4193","title":"生煎锅贴","lon":"121.45815","lat":"31.20562","category":"68","category_name":"快餐厅","address":"徐汇区襄阳南路435号(近建国西路)"},{"poiid":"B2094654DA6DA6FA429A","title":"重庆麻辣烫(建国西路)","lon":"121.45778","lat":"31.20489","category":"68","category_name":"快餐厅","address":"徐汇区建国西路295号(近襄阳南路)"},{"poiid":"B2094654DA6DAAFE4099","title":"华业大厦","lon":"121.462","lat":"31.2058","category":"46","category_name":"楼宇","address":"上海医学院路69号"},{"poiid":"B2094757D568A0F5429B","title":"阿婆葱油饼","lon":"121.4582589","lat":"31.20335306","category":"68","category_name":"快餐厅","address":"徐汇区襄阳南路578弄口(近肇嘉浜路)"},{"poiid":"B2094757D06BA7FA499F","title":"疯狂科学儿童俱乐部","lon":"121.45879255","lat":"31.205080764","category":"500","category_name":"未知分类","address":"上海建国西路285号"},{"poiid":"B2094757D16CA5FE499E","title":"annion Kitchen","lon":"121.46055162","lat":"31.207221618","category":"96","category_name":"韩国料理","address":"卢湾区陕西南路550弄37号嘉善市场(近绍兴路)"},{"poiid":"B2094757D168ABFF429F","title":"沁源茶楼","lon":"121.45827913","lat":"31.205097664","category":"247","category_name":"餐饮美食","address":"上海浦东大道569号"},{"poiid":"B2094757D469A7FE459E","title":"吾饮良品 襄阳南路店","lon":"121.457903","lat":"31.204461","category":"113","category_name":"冷饮店","address":"徐汇区襄阳南路514号(近建国西路)"},{"poiid":"B2094654DA6DA4F5489C","title":"联业大厦","lon":"121.457","lat":"31.2063","category":"46","category_name":"楼宇","address":"联业大厦位于徐汇乌鲁木齐南路299号"},{"poiid":"B2094757D06EAAF54292","title":"辣府","lon":"121.46055803420836","lat":"31.204216638609246","category":"71","category_name":"四川菜","address":"徐汇区嘉善路512号附5号(近肇嘉浜路)"},{"poiid":"B2094655D26CA4F94298","title":"尚街Loft","lon":"121.45912","lat":"31.20524","category":"116","category_name":"特色商业街","address":"中央商务区CBD22号"},{"poiid":"B2094655D26BA0FA479B","title":"新苑私房菜","lon":"121.4603","lat":"31.20464","category":"76","category_name":"上海菜","address":"徐汇区嘉善路508号尚街1号楼102室(肇嘉浜路建国西路间)"},{"poiid":"B2094753D76FAAFA449C","title":"上海滩国泰旗舰店","lon":"121.466011","lat":"31.216125","category":"249","category_name":"购物服务","address":"淮海中路868号"},{"poiid":"B209475CD564A7F84292","title":"上海滩新天地店","lon":"121.47463","lat":"31.22164","category":"119","category_name":"商场","address":"\"太仓路181弄新天地北里15号\r\n\""},{"poiid":"B209475CD564A7F8439E","title":"上海滩中信泰富店","lon":"121.45602","lat":"31.22851","category":"119","category_name":"商场","address":"\"南京西路1168号中信泰富广场，店铺号221.\r\n\""},{"poiid":"B2094751DA6FAAF8459A","title":"捞王猪肚鸡火锅","lon":"121.461071","lat":"31.203251","category":"247","category_name":"餐饮美食","address":"肇嘉浜路嘉善路"},{"poiid":"B2094757D06FA7FF459C","title":"旭日屋 襄阳南路","lon":"121.45815664124","lat":"31.204645031668","category":"95","category_name":"日本料理","address":"徐汇区襄阳南路533号(近肇嘉浜路)"},{"poiid":"B2094757D16DA1F5449C","title":"嘉善老市","lon":"121.46068573","lat":"31.207114807","category":"500","category_name":"未知分类","address":"上海市徐汇区永嘉路"},{"poiid":"B2094757D06FA0F9439A","title":"木村日本料理(肇嘉浜路店)","lon":"121.460549838","lat":"31.2040251418","category":"95","category_name":"日本料理","address":"徐汇区嘉善路524号(近肇嘉浜路)"},{"poiid":"B2094757D06EAAF44499","title":"嘉善路地铁站","lon":"121.46090136","lat":"31.202866912","category":"36","category_name":"地铁站","address":"上海轨道交通 九号线 轨交嘉善路站 9"},{"poiid":"B2094757D06FA0FF419B","title":"沃歌斯 建国西路店 wagas","lon":"121.46050136399","lat":"31.206048786127","category":"94","category_name":"西餐厅","address":"徐汇区建国西路283号尚街LOFT1104-1105室(近嘉善路)"},{"poiid":"B2094757D069A7F5479F","title":"襄阳会馆","lon":"121.45852","lat":"31.20484","category":"76","category_name":"上海菜","address":"徐汇区建国西路296号(近襄阳南路)"},{"poiid":"B209475DD76DA2FF4792","title":"很高兴遇见你","lon":"121.460838","lat":"31.206756","category":"247","category_name":"餐饮美食","address":"上海市 建国西路221号2楼(陕西南路与嘉善路之间)"},{"poiid":"B2094654DA6DA6F94298","title":"大可堂普洱会所","lon":"121.45772","lat":"31.20758","category":"260","category_name":"其他","address":"徐汇区襄阳南路388弄25号(近永嘉路)"},{"poiid":"B2094757D068A4FB4092","title":"Naam Thai","lon":"121.4605","lat":"31.2048","category":"99","category_name":"泰国／越南菜品餐厅","address":"徐汇区嘉善路508号Loft尚街1107-1108室(近建国西路)"},{"poiid":"B2094757D068A7FD4799","title":"上海市高级人民法院","lon":"121.45943123","lat":"31.203331163","category":"608","category_name":"法院","address":"上海市徐汇区肇嘉浜路308号"},{"poiid":"B2094655D264A5FA469F","title":"尚街创意园","lon":"121.4603","lat":"31.20464","category":"45","category_name":"产业园区","address":"嘉善路508号"},{"poiid":"B2094757D069A3FE439C","title":"Cafe Sambal","lon":"121.4594935","lat":"31.207575767","category":"110","category_name":"其他亚洲菜","address":"卢湾区陕西南路550弄37号嘉善市场(近绍兴路)"},{"poiid":"B209475CDA6DA1F9489B","title":"柴田西点","lon":"121.460445","lat":"31.206314","category":"67","category_name":"甜品店","address":"徐汇区嘉善路309号"},{"poiid":"B2094655D36DA1F44792","title":"襄阳南路建国西路","lon":"121.45804","lat":"31.20557","category":"38","category_name":"公交车站","address":"上海襄阳南路建国西路"},{"poiid":"B2094654DB69A7FD439F","title":"秋萍茶宴馆","lon":"121.4576585804","lat":"31.205616427492","category":"75","category_name":"浙江菜","address":"徐汇区襄阳南路500号(近建国西路)"},{"poiid":"B2094757D068A6FA4299","title":"巴黎时韵","lon":"121.45768","lat":"31.205799","category":"46","category_name":"楼宇","address":"巴黎时韵位于卢湾襄阳南路500号建国西路口"},{"poiid":"B2094757D06FAAF54998","title":"亚太企业大厦","lon":"121.460398738","lat":"31.2025817111","category":"46","category_name":"楼宇","address":"丰台学城海鹰路1号，3号"},{"poiid":"B2094751DA6FA3FC469F","title":"捞王猪肚鸡","lon":"121.45716","lat":"31.20452","category":"86","category_name":"火锅店","address":"徐汇区肇嘉浜路268号2楼(近嘉善路地铁站2号出口)"},{"poiid":"B2094757D468AAF94898","title":"GRUB&GROOVE","lon":"121.4586568","lat":"31.2052323","category":"94","category_name":"西餐厅","address":"徐汇区建国西路283号2号楼附楼B单元(嘉善路口)"},{"poiid":"B2094654DA6DA6F4449D","title":"科投大厦","lon":"121.45893","lat":"31.20502","category":"46","category_name":"楼宇","address":"建国西路285"},{"poiid":"B209475DD565A0FD4993","title":"很高兴遇见你","lon":"121.461494","lat":"31.205625","category":"247","category_name":"餐饮美食","address":"上海市 建国路221号"},{"poiid":"B2094757D16CA6FE4499","title":"Venus Spring Massage","lon":"121.460971","lat":"31.207268","category":"500","category_name":"未知分类","address":"上海市,陕西南路550弄37号嘉善坊E栋(近绍兴路)"},{"poiid":"B209475CD36FA5F8499C","title":"捞王锅物料理 肇嘉浜路店","lon":"121.46121","lat":"31.20346","category":"72","category_name":"广东菜","address":"肇嘉浜路268号2楼(近嘉善路地铁站2号出口)"},{"poiid":"B2094750D664A3F54598","title":"鸿公馆","lon":"121.458","lat":"31.2034","category":"72","category_name":"广东菜","address":"徐汇区襄阳南路578号乙(近肇嘉浜路)"},{"poiid":"B2094757D168ABF8419D","title":"小荧星艺校","lon":"121.459269088","lat":"31.2048389592","category":"500","category_name":"未知分类","address":"徐汇区建国西路283号-3(近嘉善路)"},{"poiid":"B2094757D168A7FC439E","title":"The Kitchen At","lon":"121.45926773","lat":"31.205949782","category":"500","category_name":"未知分类","address":"上海襄阳南路383弄20号3楼"},{"poiid":"B2094655D26CA4FE419B","title":"梧桐花园A座","lon":"121.4596","lat":"31.20472","category":"47","category_name":"住宅区","address":"建国西路273"},{"poiid":"B2094757D06AA3FA489E","title":"小荧星艺校(尚街校区)","lon":"121.457245738","lat":"31.2069285447","category":"500","category_name":"未知分类","address":"上海卢湾区建国西路283号(近嘉善路)"},{"poiid":"B2094654DA6DABFC4098","title":"中科大厦","lon":"121.46","lat":"31.2078","category":"46","category_name":"楼宇","address":"上海徐汇区岳阳路319号"},{"poiid":"B2094654DB65A1FA4093","title":"三连山茶行(襄阳南路)","lon":"121.45817","lat":"31.20527","category":"66","category_name":"茶艺馆","address":"襄阳南路439-3乙识别"},{"poiid":"B2094757D568AAFF4399","title":"飞蛋超市(建国西路Loft店)","lon":"121.4591289","lat":"31.20524","category":"118","category_name":"超级市场","address":"徐汇区建国西路283号1号楼1106室(近嘉善路)"},{"poiid":"B2094655D36CA0F9499A","title":"建国西路襄阳南路","lon":"121.45923","lat":"31.20547","category":"38","category_name":"公交车站","address":""},{"poiid":"B2094655D26AA6FE4293","title":"CKCLUB","lon":"121.45893","lat":"31.20502","category":"247","category_name":"餐饮美食","address":"卢湾区建国西路285号(近嘉善路)"},{"poiid":"B2094757D069AAFF4999","title":"7-ELEVEN(建国店)","lon":"121.459534818","lat":"31.2054495707","category":"117","category_name":"便民商店/便利店","address":"徐汇区建国西路273号(近嘉善路)"},{"poiid":"B2094654DA6DA6FA4193","title":"生煎锅贴","lon":"121.45815","lat":"31.20562","category":"68","category_name":"快餐厅","address":"徐汇区襄阳南路435号(近建国西路)"},{"poiid":"B2094654DA6DA6FA429A","title":"重庆麻辣烫(建国西路)","lon":"121.45778","lat":"31.20489","category":"68","category_name":"快餐厅","address":"徐汇区建国西路295号(近襄阳南路)"},{"poiid":"B2094654DA6DAAFE4099","title":"华业大厦","lon":"121.462","lat":"31.2058","category":"46","category_name":"楼宇","address":"上海医学院路69号"},{"poiid":"B2094757D568A0F5429B","title":"阿婆葱油饼","lon":"121.4582589","lat":"31.20335306","category":"68","category_name":"快餐厅","address":"徐汇区襄阳南路578弄口(近肇嘉浜路)"},{"poiid":"B2094757D06BA7FA499F","title":"疯狂科学儿童俱乐部","lon":"121.45879255","lat":"31.205080764","category":"500","category_name":"未知分类","address":"上海建国西路285号"},{"poiid":"B2094757D16CA5FE499E","title":"annion Kitchen","lon":"121.46055162","lat":"31.207221618","category":"96","category_name":"韩国料理","address":"卢湾区陕西南路550弄37号嘉善市场(近绍兴路)"},{"poiid":"B2094757D168ABFF429F","title":"沁源茶楼","lon":"121.45827913","lat":"31.205097664","category":"247","category_name":"餐饮美食","address":"上海浦东大道569号"},{"poiid":"B2094757D469A7FE459E","title":"吾饮良品 襄阳南路店","lon":"121.457903","lat":"31.204461","category":"113","category_name":"冷饮店","address":"徐汇区襄阳南路514号(近建国西路)"},{"poiid":"B2094654DA6DA4F5489C","title":"联业大厦","lon":"121.457","lat":"31.2063","category":"46","category_name":"楼宇","address":"联业大厦位于徐汇乌鲁木齐南路299号"}]