[{"poiid":"B2094757D06FA3FA409E","title":"吉亨面馆(古羊路店)","lon":"121.41247","lat":"31.19093","category":"68","category_name":"快餐厅","address":"上海长宁区古羊路433号(近张虹路)  "},{"poiid":"B2094757D068A7FE4898","title":"儿童博物馆","lon":"121.41312011","lat":"31.193867929","category":"182","category_name":"博物馆","address":"长宁区宋园路61号(黄金城道宋园路)"},{"poiid":"B2094654D56BABF8429B","title":"古羊路休闲街","lon":"121.41237","lat":"31.19117","category":"116","category_name":"特色商业街","address":"长宁区古羊路(近宋园路)"},{"poiid":"B2094750D365A0FE419E","title":"花嫁丽舍私人婚礼会所（吴中店）","lon":"121.417551","lat":"31.188712","category":"248","category_name":"生活娱乐","address":"徐汇区吴中路52号4楼(10月份开业)查看地图"},{"poiid":"B2094757D06FA1FC429B","title":"中山西路虹橋路","lon":"121.41738","lat":"31.194231","category":"500","category_name":"未知分类","address":"上海中山西路虹橋路"},{"poiid":"B2094757D06FABF4469F","title":"上海市第一中级人民法院","lon":"121.41495811","lat":"31.195533261","category":"608","category_name":"法院","address":"上海市长宁区虹桥路1200号"},{"poiid":"B2094757D06FA4FB4099","title":"御香海 宋园店 Gokohai","lon":"121.41368969936","lat":"31.190034480628","category":"95","category_name":"日本料理","address":"长宁区宋园路85号(近古羊路)"},{"poiid":"B2094757D069A3FD429C","title":"九兴里经典本帮餐厅","lon":"121.412582","lat":"31.191641","category":"76","category_name":"上海菜","address":"上海古羊路316号，近宋园路张虹路"},{"poiid":"B2094757D068A1FB479B","title":"宋庆龄陵园","lon":"121.41373","lat":"31.19463","category":"620","category_name":"丧葬","address":"长宁区宋园路21号(近虹桥路)"},{"poiid":"B2094753D46BA3F94193","title":"月星·环球港","lon":"121.416976","lat":"31.196382","category":"500","category_name":"未知分类","address":"上海市 中山北路3300号"},{"poiid":"B2094654D56BABF94193","title":"上海市疾病预防控制中心","lon":"121.41779","lat":"31.19329","category":"162","category_name":"医院","address":"上海市长宁区中山西路1380号"},{"poiid":"B2094752DB6FA0F5489B","title":"小黑蚝情（淮海西路店）","lon":"121.417349","lat":"31.19725","category":"247","category_name":"餐饮美食","address":"上海市 上海市长宁区淮海西路虹桥路"},{"poiid":"B2094655D26BA4FB4299","title":"百丽时尚中心","lon":"121.42039","lat":"31.19241","category":"46","category_name":"楼宇","address":"中山西路1279弄2"},{"poiid":"B2094655D26BABFD4992","title":"小鹭鹭酒家宋园店","lon":"121.41328","lat":"31.19241","category":"71","category_name":"四川菜","address":"长宁区宋园路71-73号(黄金城道古羊路间)"},{"poiid":"B2094757D065A2FA4393","title":"紋兵衛","lon":"121.41381215","lat":"31.192454142","category":"95","category_name":"日本料理","address":"长宁区宋园路79号(近古羊路)"},{"poiid":"B2094757D06AA6FE469A","title":"台湾小调","lon":"121.41223352","lat":"31.193278568","category":"91","category_name":"台湾菜","address":"长宁区古羊路443号(近张虹路)"},{"poiid":"B2094757D56EA1F4469B","title":"星巴克","lon":"121.41682099017935","lat":"31.18908598862775","category":"247","category_name":"餐饮美食","address":"徐汇区中山西路1602号宏汇国际广场B座1楼(近吴中路)"},{"poiid":"B2094757D56CA0F94893","title":"西贡庭","lon":"121.412907","lat":"31.191131","category":"99","category_name":"泰国／越南菜品餐厅","address":"长宁区古羊路399号(近张虹路)"},{"poiid":"B2094654DA6DA2FF419A","title":"丽池(虹桥)会所","lon":"121.41874","lat":"31.19545","category":"248","category_name":"生活娱乐","address":"虹桥路1030"},{"poiid":"B2094757D069A3FA449B","title":"台北名厨","lon":"121.41248","lat":"31.19089","category":"91","category_name":"台湾菜","address":"长宁区古羊路429号(近宋园路)"},{"poiid":"B2094757D068A7F54999","title":"尼章鱼","lon":"121.41254457","lat":"31.190864762","category":"95","category_name":"日本料理","address":"长宁区古羊路427号(近张虹路)"},{"poiid":"B2094750D365A6F8439B","title":"上海外灘","lon":"121.41497","lat":"31.18865","category":"250","category_name":"公园户外","address":null},{"poiid":"B2094757D068A0FE4398","title":"ESPRIT CHINA","lon":"121.42015183","lat":"31.193534303","category":"500","category_name":"未知分类","address":"上海虹桥路996弄71号甲"},{"poiid":"B2094757D164A0FD469D","title":"肯德基(宋园路店)","lon":"121.41376458","lat":"31.19642477","category":"68","category_name":"快餐厅","address":"徐汇区虹桥路1号港汇恒隆广场1楼B108号商铺(华山路口)"},{"poiid":"B2094757D66BA2F5429B","title":"AROMA日式家庭料理","lon":"121.4135171","lat":"31.1928983","category":"95","category_name":"日本料理","address":"长宁区宋园路52号(近黄金城道)"},{"poiid":"B2094750DB6CA4FC4398","title":"上海动物园","lon":"121.416801","lat":"31.194623","category":"500","category_name":"未知分类","address":null},{"poiid":"B2094654DB6BA7FF4999","title":"振宏苑","lon":"121.416","lat":"31.1934","category":"47","category_name":"住宅区","address":"姚虹路108弄"},{"poiid":"B2094654D56BABFA419A","title":"炭家","lon":"121.41315631277","lat":"31.191282848228","category":"269","category_name":"烧烤","address":"长宁区宋园路133-3号(近古羊路)"},{"poiid":"B2094654DB6BA7FF479C","title":"虹欣小区","lon":"121.41825","lat":"31.1926","category":"47","category_name":"住宅区","address":"中山西路1410弄1-29号"},{"poiid":"B2094757D16FA0F8479C","title":"中星美华村","lon":"121.417229","lat":"31.193576","category":"500","category_name":"未知分类","address":"长宁区镇宁路111号"},{"poiid":"B2094757D069AAFA439E","title":"同昆数码彩印(虹桥路店)","lon":"121.41739","lat":"31.19542","category":"500","category_name":"未知分类","address":"长宁区虹桥路1112号丽景苑(近中山西路)"},{"poiid":"B2094750D76EA5F9469E","title":"いば昇(古羊路店)","lon":"121.413","lat":"31.1912","category":"95","category_name":"日本料理","address":"长宁区古羊路389号(近宋园路)"},{"poiid":"B2094654D56BABFA439C","title":"磐石虹三大厦","lon":"121.41619","lat":"31.19133","category":"46","category_name":"楼宇","address":"古羊路158"},{"poiid":"B2094655D268A6F5429D","title":"芙蓉阁","lon":"121.41686585848","lat":"31.195169471921","category":"77","category_name":"湖南菜","address":"长宁区中山西路1243号三湘大厦2楼(近虹桥路口)"},{"poiid":"B2094757D06AA2FB469C","title":"古北虹苑","lon":"121.41301703446","lat":"31.194441016015","category":"47","category_name":"住宅区","address":"上海市闵行区红松东路251号"},{"poiid":"B2094757D065A0F44393","title":"虹南小区","lon":"121.41888","lat":"31.191803","category":"252","category_name":"楼宇机构","address":"上海中山西路1432弄"},{"poiid":"B2094757D16DA7FC4198","title":"鸟膳","lon":"121.41335","lat":"31.19096","category":"95","category_name":"日本料理","address":"长宁区伊犁南路111号钱江商务广场4楼(近古羊路)"},{"poiid":"B2094757D468A4FC459F","title":"樱川日本料理","lon":"121.4170033","lat":"31.1963432","category":"95","category_name":"日本料理","address":"长宁区中山西路888号银河宾馆2楼"},{"poiid":"B2094655D36DA7F84899","title":"中山西路虹桥路","lon":"121.41561","lat":"31.19704","category":"38","category_name":"公交车站","address":""},{"poiid":"B2094752DB6FA2FD469F","title":"纳东云南小菜","lon":"121.416415","lat":"31.191194","category":"500","category_name":"未知分类","address":"上海市 徐汇区柳州路928号2F"},{"poiid":"B2094655D265A2F4439D","title":"筷莫停 中山西路店","lon":"121.41969","lat":"31.1916","category":"77","category_name":"湖南菜","address":"长宁区中山西路1257号(近虹桥路)"},{"poiid":"B2094757D468A4FD489E","title":"美伊娜日式意大利餐厅 古羊路店","lon":"121.413097","lat":"31.19137","category":"94","category_name":"西餐厅","address":"长宁区古羊路300号-10(近姚虹东路)"},{"poiid":"B2094757D664A4FE479B","title":"吉祥特色馄饨 中山西路四店","lon":"121.417355","lat":"31.195033","category":"68","category_name":"快餐厅","address":"长宁区中山西路1257号(近虹桥路)"},{"poiid":"B2094757D069ABFB489F","title":"湘江大厦","lon":"121.420207","lat":"31.192691","category":"252","category_name":"楼宇机构","address":"上海市长宁区中山西路1265弄18号"},{"poiid":"B2094654DA6DA2FF489A","title":"钟记小馆","lon":"121.41946","lat":"31.19242","category":"68","category_name":"快餐厅","address":"长宁区中山西路(近吴中路)"},{"poiid":"B2094655D265A2F9439C","title":"圣骊虹桥创意园","lon":"121.42069","lat":"31.1935","category":"45","category_name":"产业园区","address":"上海虹桥路996弄161号"},{"poiid":"B2094655D268A3F94892","title":"古北首席","lon":"121.418","lat":"31.1901","category":"47","category_name":"住宅区","address":"吴中路405弄100支弄"},{"poiid":"B2094655D26FA5FD409B","title":"九九园","lon":"121.41926","lat":"31.193438","category":"47","category_name":"住宅区","address":"上海市长宁区中山西路1251号"},{"poiid":"B2094753D665A6FB419F","title":"凛家日式料理","lon":"121.413536","lat":"31.193893","category":"247","category_name":"餐饮美食","address":"上海市 宋园路36号"},{"poiid":"B209475DD36FA6FE459E","title":"人民广场","lon":"121.41809","lat":"31.191297","category":"500","category_name":"未知分类","address":"上海市 人民广场"},{"poiid":"B2094757D06FA3FA409E","title":"吉亨面馆(古羊路店)","lon":"121.41247","lat":"31.19093","category":"68","category_name":"快餐厅","address":"上海长宁区古羊路433号(近张虹路)  "},{"poiid":"B2094757D068A7FE4898","title":"儿童博物馆","lon":"121.41312011","lat":"31.193867929","category":"182","category_name":"博物馆","address":"长宁区宋园路61号(黄金城道宋园路)"},{"poiid":"B2094654D56BABF8429B","title":"古羊路休闲街","lon":"121.41237","lat":"31.19117","category":"116","category_name":"特色商业街","address":"长宁区古羊路(近宋园路)"},{"poiid":"B2094750D365A0FE419E","title":"花嫁丽舍私人婚礼会所（吴中店）","lon":"121.417551","lat":"31.188712","category":"248","category_name":"生活娱乐","address":"徐汇区吴中路52号4楼(10月份开业)查看地图"},{"poiid":"B2094757D06FA1FC429B","title":"中山西路虹橋路","lon":"121.41738","lat":"31.194231","category":"500","category_name":"未知分类","address":"上海中山西路虹橋路"},{"poiid":"B2094757D06FABF4469F","title":"上海市第一中级人民法院","lon":"121.41495811","lat":"31.195533261","category":"608","category_name":"法院","address":"上海市长宁区虹桥路1200号"},{"poiid":"B2094757D06FA4FB4099","title":"御香海 宋园店 Gokohai","lon":"121.41368969936","lat":"31.190034480628","category":"95","category_name":"日本料理","address":"长宁区宋园路85号(近古羊路)"},{"poiid":"B2094757D069A3FD429C","title":"九兴里经典本帮餐厅","lon":"121.412582","lat":"31.191641","category":"76","category_name":"上海菜","address":"上海古羊路316号，近宋园路张虹路"},{"poiid":"B2094757D068A1FB479B","title":"宋庆龄陵园","lon":"121.41373","lat":"31.19463","category":"620","category_name":"丧葬","address":"长宁区宋园路21号(近虹桥路)"},{"poiid":"B2094753D46BA3F94193","title":"月星·环球港","lon":"121.416976","lat":"31.196382","category":"500","category_name":"未知分类","address":"上海市 中山北路3300号"},{"poiid":"B2094654D56BABF94193","title":"上海市疾病预防控制中心","lon":"121.41779","lat":"31.19329","category":"162","category_name":"医院","address":"上海市长宁区中山西路1380号"},{"poiid":"B2094752DB6FA0F5489B","title":"小黑蚝情（淮海西路店）","lon":"121.417349","lat":"31.19725","category":"247","category_name":"餐饮美食","address":"上海市 上海市长宁区淮海西路虹桥路"},{"poiid":"B2094655D26BA4FB4299","title":"百丽时尚中心","lon":"121.42039","lat":"31.19241","category":"46","category_name":"楼宇","address":"中山西路1279弄2"},{"poiid":"B2094655D26BABFD4992","title":"小鹭鹭酒家宋园店","lon":"121.41328","lat":"31.19241","category":"71","category_name":"四川菜","address":"长宁区宋园路71-73号(黄金城道古羊路间)"},{"poiid":"B2094757D065A2FA4393","title":"紋兵衛","lon":"121.41381215","lat":"31.192454142","category":"95","category_name":"日本料理","address":"长宁区宋园路79号(近古羊路)"},{"poiid":"B2094757D06AA6FE469A","title":"台湾小调","lon":"121.41223352","lat":"31.193278568","category":"91","category_name":"台湾菜","address":"长宁区古羊路443号(近张虹路)"},{"poiid":"B2094757D56EA1F4469B","title":"星巴克","lon":"121.41682099017935","lat":"31.18908598862775","category":"247","category_name":"餐饮美食","address":"徐汇区中山西路1602号宏汇国际广场B座1楼(近吴中路)"},{"poiid":"B2094757D56CA0F94893","title":"西贡庭","lon":"121.412907","lat":"31.191131","category":"99","category_name":"泰国／越南菜品餐厅","address":"长宁区古羊路399号(近张虹路)"},{"poiid":"B2094654DA6DA2FF419A","title":"丽池(虹桥)会所","lon":"121.41874","lat":"31.19545","category":"248","category_name":"生活娱乐","address":"虹桥路1030"},{"poiid":"B2094757D069A3FA449B","title":"台北名厨","lon":"121.41248","lat":"31.19089","category":"91","category_name":"台湾菜","address":"长宁区古羊路429号(近宋园路)"},{"poiid":"B2094757D068A7F54999","title":"尼章鱼","lon":"121.41254457","lat":"31.190864762","category":"95","category_name":"日本料理","address":"长宁区古羊路427号(近张虹路)"},{"poiid":"B2094750D365A6F8439B","title":"上海外灘","lon":"121.41497","lat":"31.18865","category":"250","category_name":"公园户外","address":null},{"poiid":"B2094757D068A0FE4398","title":"ESPRIT CHINA","lon":"121.42015183","lat":"31.193534303","category":"500","category_name":"未知分类","address":"上海虹桥路996弄71号甲"},{"poiid":"B2094757D164A0FD469D","title":"肯德基(宋园路店)","lon":"121.41376458","lat":"31.19642477","category":"68","category_name":"快餐厅","address":"徐汇区虹桥路1号港汇恒隆广场1楼B108号商铺(华山路口)"},{"poiid":"B2094757D66BA2F5429B","title":"AROMA日式家庭料理","lon":"121.4135171","lat":"31.1928983","category":"95","category_name":"日本料理","address":"长宁区宋园路52号(近黄金城道)"},{"poiid":"B2094750DB6CA4FC4398","title":"上海动物园","lon":"121.416801","lat":"31.194623","category":"500","category_name":"未知分类","address":null},{"poiid":"B2094654DB6BA7FF4999","title":"振宏苑","lon":"121.416","lat":"31.1934","category":"47","category_name":"住宅区","address":"姚虹路108弄"},{"poiid":"B2094654D56BABFA419A","title":"炭家","lon":"121.41315631277","lat":"31.191282848228","category":"269","category_name":"烧烤","address":"长宁区宋园路133-3号(近古羊路)"},{"poiid":"B2094654DB6BA7FF479C","title":"虹欣小区","lon":"121.41825","lat":"31.1926","category":"47","category_name":"住宅区","address":"中山西路1410弄1-29号"},{"poiid":"B2094757D16FA0F8479C","title":"中星美华村","lon":"121.417229","lat":"31.193576","category":"500","category_name":"未知分类","address":"长宁区镇宁路111号"},{"poiid":"B2094757D069AAFA439E","title":"同昆数码彩印(虹桥路店)","lon":"121.41739","lat":"31.19542","category":"500","category_name":"未知分类","address":"长宁区虹桥路1112号丽景苑(近中山西路)"},{"poiid":"B2094750D76EA5F9469E","title":"いば昇(古羊路店)","lon":"121.413","lat":"31.1912","category":"95","category_name":"日本料理","address":"长宁区古羊路389号(近宋园路)"},{"poiid":"B2094654D56BABFA439C","title":"磐石虹三大厦","lon":"121.41619","lat":"31.19133","category":"46","category_name":"楼宇","address":"古羊路158"},{"poiid":"B2094655D268A6F5429D","title":"芙蓉阁","lon":"121.41686585848","lat":"31.195169471921","category":"77","category_name":"湖南菜","address":"长宁区中山西路1243号三湘大厦2楼(近虹桥路口)"},{"poiid":"B2094757D06AA2FB469C","title":"古北虹苑","lon":"121.41301703446","lat":"31.194441016015","category":"47","category_name":"住宅区","address":"上海市闵行区红松东路251号"},{"poiid":"B2094757D065A0F44393","title":"虹南小区","lon":"121.41888","lat":"31.191803","category":"252","category_name":"楼宇机构","address":"上海中山西路1432弄"},{"poiid":"B2094757D16DA7FC4198","title":"鸟膳","lon":"121.41335","lat":"31.19096","category":"95","category_name":"日本料理","address":"长宁区伊犁南路111号钱江商务广场4楼(近古羊路)"},{"poiid":"B2094757D468A4FC459F","title":"樱川日本料理","lon":"121.4170033","lat":"31.1963432","category":"95","category_name":"日本料理","address":"长宁区中山西路888号银河宾馆2楼"},{"poiid":"B2094655D36DA7F84899","title":"中山西路虹桥路","lon":"121.41561","lat":"31.19704","category":"38","category_name":"公交车站","address":""},{"poiid":"B2094752DB6FA2FD469F","title":"纳东云南小菜","lon":"121.416415","lat":"31.191194","category":"500","category_name":"未知分类","address":"上海市 徐汇区柳州路928号2F"},{"poiid":"B2094655D265A2F4439D","title":"筷莫停 中山西路店","lon":"121.41969","lat":"31.1916","category":"77","category_name":"湖南菜","address":"长宁区中山西路1257号(近虹桥路)"},{"poiid":"B2094757D468A4FD489E","title":"美伊娜日式意大利餐厅 古羊路店","lon":"121.413097","lat":"31.19137","category":"94","category_name":"西餐厅","address":"长宁区古羊路300号-10(近姚虹东路)"},{"poiid":"B2094757D664A4FE479B","title":"吉祥特色馄饨 中山西路四店","lon":"121.417355","lat":"31.195033","category":"68","category_name":"快餐厅","address":"长宁区中山西路1257号(近虹桥路)"},{"poiid":"B2094757D069ABFB489F","title":"湘江大厦","lon":"121.420207","lat":"31.192691","category":"252","category_name":"楼宇机构","address":"上海市长宁区中山西路1265弄18号"},{"poiid":"B2094654DA6DA2FF489A","title":"钟记小馆","lon":"121.41946","lat":"31.19242","category":"68","category_name":"快餐厅","address":"长宁区中山西路(近吴中路)"},{"poiid":"B2094655D265A2F9439C","title":"圣骊虹桥创意园","lon":"121.42069","lat":"31.1935","category":"45","category_name":"产业园区","address":"上海虹桥路996弄161号"},{"poiid":"B2094655D268A3F94892","title":"古北首席","lon":"121.418","lat":"31.1901","category":"47","category_name":"住宅区","address":"吴中路405弄100支弄"},{"poiid":"B2094655D26FA5FD409B","title":"九九园","lon":"121.41926","lat":"31.193438","category":"47","category_name":"住宅区","address":"上海市长宁区中山西路1251号"},{"poiid":"B2094753D665A6FB419F","title":"凛家日式料理","lon":"121.413536","lat":"31.193893","category":"247","category_name":"餐饮美食","address":"上海市 宋园路36号"},{"poiid":"B209475DD36FA6FE459E","title":"人民广场","lon":"121.41809","lat":"31.191297","category":"500","category_name":"未知分类","address":"上海市 人民广场"},{"poiid":"B2094757D06FA3FA409E","title":"吉亨面馆(古羊路店)","lon":"121.41247","lat":"31.19093","category":"68","category_name":"快餐厅","address":"上海长宁区古羊路433号(近张虹路)  "},{"poiid":"B2094757D068A7FE4898","title":"儿童博物馆","lon":"121.41312011","lat":"31.193867929","category":"182","category_name":"博物馆","address":"长宁区宋园路61号(黄金城道宋园路)"},{"poiid":"B2094654D56BABF8429B","title":"古羊路休闲街","lon":"121.41237","lat":"31.19117","category":"116","category_name":"特色商业街","address":"长宁区古羊路(近宋园路)"},{"poiid":"B2094750D365A0FE419E","title":"花嫁丽舍私人婚礼会所（吴中店）","lon":"121.417551","lat":"31.188712","category":"248","category_name":"生活娱乐","address":"徐汇区吴中路52号4楼(10月份开业)查看地图"},{"poiid":"B2094757D06FA1FC429B","title":"中山西路虹橋路","lon":"121.41738","lat":"31.194231","category":"500","category_name":"未知分类","address":"上海中山西路虹橋路"},{"poiid":"B2094757D06FABF4469F","title":"上海市第一中级人民法院","lon":"121.41495811","lat":"31.195533261","category":"608","category_name":"法院","address":"上海市长宁区虹桥路1200号"},{"poiid":"B2094757D06FA4FB4099","title":"御香海 宋园店 Gokohai","lon":"121.41368969936","lat":"31.190034480628","category":"95","category_name":"日本料理","address":"长宁区宋园路85号(近古羊路)"},{"poiid":"B2094757D069A3FD429C","title":"九兴里经典本帮餐厅","lon":"121.412582","lat":"31.191641","category":"76","category_name":"上海菜","address":"上海古羊路316号，近宋园路张虹路"},{"poiid":"B2094757D068A1FB479B","title":"宋庆龄陵园","lon":"121.41373","lat":"31.19463","category":"620","category_name":"丧葬","address":"长宁区宋园路21号(近虹桥路)"},{"poiid":"B2094753D46BA3F94193","title":"月星·环球港","lon":"121.416976","lat":"31.196382","category":"500","category_name":"未知分类","address":"上海市 中山北路3300号"},{"poiid":"B2094654D56BABF94193","title":"上海市疾病预防控制中心","lon":"121.41779","lat":"31.19329","category":"162","category_name":"医院","address":"上海市长宁区中山西路1380号"},{"poiid":"B2094752DB6FA0F5489B","title":"小黑蚝情（淮海西路店）","lon":"121.417349","lat":"31.19725","category":"247","category_name":"餐饮美食","address":"上海市 上海市长宁区淮海西路虹桥路"},{"poiid":"B2094655D26BA4FB4299","title":"百丽时尚中心","lon":"121.42039","lat":"31.19241","category":"46","category_name":"楼宇","address":"中山西路1279弄2"},{"poiid":"B2094655D26BABFD4992","title":"小鹭鹭酒家宋园店","lon":"121.41328","lat":"31.19241","category":"71","category_name":"四川菜","address":"长宁区宋园路71-73号(黄金城道古羊路间)"},{"poiid":"B2094757D065A2FA4393","title":"紋兵衛","lon":"121.41381215","lat":"31.192454142","category":"95","category_name":"日本料理","address":"长宁区宋园路79号(近古羊路)"},{"poiid":"B2094757D06AA6FE469A","title":"台湾小调","lon":"121.41223352","lat":"31.193278568","category":"91","category_name":"台湾菜","address":"长宁区古羊路443号(近张虹路)"},{"poiid":"B2094757D56EA1F4469B","title":"星巴克","lon":"121.41682099017935","lat":"31.18908598862775","category":"247","category_name":"餐饮美食","address":"徐汇区中山西路1602号宏汇国际广场B座1楼(近吴中路)"},{"poiid":"B2094757D56CA0F94893","title":"西贡庭","lon":"121.412907","lat":"31.191131","category":"99","category_name":"泰国／越南菜品餐厅","address":"长宁区古羊路399号(近张虹路)"},{"poiid":"B2094654DA6DA2FF419A","title":"丽池(虹桥)会所","lon":"121.41874","lat":"31.19545","category":"248","category_name":"生活娱乐","address":"虹桥路1030"},{"poiid":"B2094757D069A3FA449B","title":"台北名厨","lon":"121.41248","lat":"31.19089","category":"91","category_name":"台湾菜","address":"长宁区古羊路429号(近宋园路)"},{"poiid":"B2094757D068A7F54999","title":"尼章鱼","lon":"121.41254457","lat":"31.190864762","category":"95","category_name":"日本料理","address":"长宁区古羊路427号(近张虹路)"},{"poiid":"B2094750D365A6F8439B","title":"上海外灘","lon":"121.41497","lat":"31.18865","category":"250","category_name":"公园户外","address":null},{"poiid":"B2094757D068A0FE4398","title":"ESPRIT CHINA","lon":"121.42015183","lat":"31.193534303","category":"500","category_name":"未知分类","address":"上海虹桥路996弄71号甲"},{"poiid":"B2094757D164A0FD469D","title":"肯德基(宋园路店)","lon":"121.41376458","lat":"31.19642477","category":"68","category_name":"快餐厅","address":"徐汇区虹桥路1号港汇恒隆广场1楼B108号商铺(华山路口)"},{"poiid":"B2094757D66BA2F5429B","title":"AROMA日式家庭料理","lon":"121.4135171","lat":"31.1928983","category":"95","category_name":"日本料理","address":"长宁区宋园路52号(近黄金城道)"},{"poiid":"B2094750DB6CA4FC4398","title":"上海动物园","lon":"121.416801","lat":"31.194623","category":"500","category_name":"未知分类","address":null},{"poiid":"B2094654DB6BA7FF4999","title":"振宏苑","lon":"121.416","lat":"31.1934","category":"47","category_name":"住宅区","address":"姚虹路108弄"},{"poiid":"B2094654D56BABFA419A","title":"炭家","lon":"121.41315631277","lat":"31.191282848228","category":"269","category_name":"烧烤","address":"长宁区宋园路133-3号(近古羊路)"},{"poiid":"B2094654DB6BA7FF479C","title":"虹欣小区","lon":"121.41825","lat":"31.1926","category":"47","category_name":"住宅区","address":"中山西路1410弄1-29号"},{"poiid":"B2094757D16FA0F8479C","title":"中星美华村","lon":"121.417229","lat":"31.193576","category":"500","category_name":"未知分类","address":"长宁区镇宁路111号"},{"poiid":"B2094757D069AAFA439E","title":"同昆数码彩印(虹桥路店)","lon":"121.41739","lat":"31.19542","category":"500","category_name":"未知分类","address":"长宁区虹桥路1112号丽景苑(近中山西路)"},{"poiid":"B2094750D76EA5F9469E","title":"いば昇(古羊路店)","lon":"121.413","lat":"31.1912","category":"95","category_name":"日本料理","address":"长宁区古羊路389号(近宋园路)"},{"poiid":"B2094654D56BABFA439C","title":"磐石虹三大厦","lon":"121.41619","lat":"31.19133","category":"46","category_name":"楼宇","address":"古羊路158"},{"poiid":"B2094655D268A6F5429D","title":"芙蓉阁","lon":"121.41686585848","lat":"31.195169471921","category":"77","category_name":"湖南菜","address":"长宁区中山西路1243号三湘大厦2楼(近虹桥路口)"},{"poiid":"B2094757D06AA2FB469C","title":"古北虹苑","lon":"121.41301703446","lat":"31.194441016015","category":"47","category_name":"住宅区","address":"上海市闵行区红松东路251号"},{"poiid":"B2094757D065A0F44393","title":"虹南小区","lon":"121.41888","lat":"31.191803","category":"252","category_name":"楼宇机构","address":"上海中山西路1432弄"},{"poiid":"B2094757D16DA7FC4198","title":"鸟膳","lon":"121.41335","lat":"31.19096","category":"95","category_name":"日本料理","address":"长宁区伊犁南路111号钱江商务广场4楼(近古羊路)"},{"poiid":"B2094757D468A4FC459F","title":"樱川日本料理","lon":"121.4170033","lat":"31.1963432","category":"95","category_name":"日本料理","address":"长宁区中山西路888号银河宾馆2楼"},{"poiid":"B2094655D36DA7F84899","title":"中山西路虹桥路","lon":"121.41561","lat":"31.19704","category":"38","category_name":"公交车站","address":""},{"poiid":"B2094752DB6FA2FD469F","title":"纳东云南小菜","lon":"121.416415","lat":"31.191194","category":"500","category_name":"未知分类","address":"上海市 徐汇区柳州路928号2F"},{"poiid":"B2094655D265A2F4439D","title":"筷莫停 中山西路店","lon":"121.41969","lat":"31.1916","category":"77","category_name":"湖南菜","address":"长宁区中山西路1257号(近虹桥路)"},{"poiid":"B2094757D468A4FD489E","title":"美伊娜日式意大利餐厅 古羊路店","lon":"121.413097","lat":"31.19137","category":"94","category_name":"西餐厅","address":"长宁区古羊路300号-10(近姚虹东路)"},{"poiid":"B2094757D664A4FE479B","title":"吉祥特色馄饨 中山西路四店","lon":"121.417355","lat":"31.195033","category":"68","category_name":"快餐厅","address":"长宁区中山西路1257号(近虹桥路)"},{"poiid":"B2094757D069ABFB489F","title":"湘江大厦","lon":"121.420207","lat":"31.192691","category":"252","category_name":"楼宇机构","address":"上海市长宁区中山西路1265弄18号"},{"poiid":"B2094654DA6DA2FF489A","title":"钟记小馆","lon":"121.41946","lat":"31.19242","category":"68","category_name":"快餐厅","address":"长宁区中山西路(近吴中路)"},{"poiid":"B2094655D265A2F9439C","title":"圣骊虹桥创意园","lon":"121.42069","lat":"31.1935","category":"45","category_name":"产业园区","address":"上海虹桥路996弄161号"},{"poiid":"B2094655D268A3F94892","title":"古北首席","lon":"121.418","lat":"31.1901","category":"47","category_name":"住宅区","address":"吴中路405弄100支弄"},{"poiid":"B2094655D26FA5FD409B","title":"九九园","lon":"121.41926","lat":"31.193438","category":"47","category_name":"住宅区","address":"上海市长宁区中山西路1251号"},{"poiid":"B2094753D665A6FB419F","title":"凛家日式料理","lon":"121.413536","lat":"31.193893","category":"247","category_name":"餐饮美食","address":"上海市 宋园路36号"},{"poiid":"B209475DD36FA6FE459E","title":"人民广场","lon":"121.41809","lat":"31.191297","category":"500","category_name":"未知分类","address":"上海市 人民广场"},{"poiid":"B2094757D06FA3FA409E","title":"吉亨面馆(古羊路店)","lon":"121.41247","lat":"31.19093","category":"68","category_name":"快餐厅","address":"上海长宁区古羊路433号(近张虹路)  "},{"poiid":"B2094757D068A7FE4898","title":"儿童博物馆","lon":"121.41312011","lat":"31.193867929","category":"182","category_name":"博物馆","address":"长宁区宋园路61号(黄金城道宋园路)"},{"poiid":"B2094654D56BABF8429B","title":"古羊路休闲街","lon":"121.41237","lat":"31.19117","category":"116","category_name":"特色商业街","address":"长宁区古羊路(近宋园路)"},{"poiid":"B2094750D365A0FE419E","title":"花嫁丽舍私人婚礼会所（吴中店）","lon":"121.417551","lat":"31.188712","category":"248","category_name":"生活娱乐","address":"徐汇区吴中路52号4楼(10月份开业)查看地图"},{"poiid":"B2094757D06FA1FC429B","title":"中山西路虹橋路","lon":"121.41738","lat":"31.194231","category":"500","category_name":"未知分类","address":"上海中山西路虹橋路"},{"poiid":"B2094757D06FABF4469F","title":"上海市第一中级人民法院","lon":"121.41495811","lat":"31.195533261","category":"608","category_name":"法院","address":"上海市长宁区虹桥路1200号"},{"poiid":"B2094757D06FA4FB4099","title":"御香海 宋园店 Gokohai","lon":"121.41368969936","lat":"31.190034480628","category":"95","category_name":"日本料理","address":"长宁区宋园路85号(近古羊路)"},{"poiid":"B2094757D069A3FD429C","title":"九兴里经典本帮餐厅","lon":"121.412582","lat":"31.191641","category":"76","category_name":"上海菜","address":"上海古羊路316号，近宋园路张虹路"},{"poiid":"B2094757D068A1FB479B","title":"宋庆龄陵园","lon":"121.41373","lat":"31.19463","category":"620","category_name":"丧葬","address":"长宁区宋园路21号(近虹桥路)"},{"poiid":"B2094753D46BA3F94193","title":"月星·环球港","lon":"121.416976","lat":"31.196382","category":"500","category_name":"未知分类","address":"上海市 中山北路3300号"},{"poiid":"B2094654D56BABF94193","title":"上海市疾病预防控制中心","lon":"121.41779","lat":"31.19329","category":"162","category_name":"医院","address":"上海市长宁区中山西路1380号"},{"poiid":"B2094752DB6FA0F5489B","title":"小黑蚝情（淮海西路店）","lon":"121.417349","lat":"31.19725","category":"247","category_name":"餐饮美食","address":"上海市 上海市长宁区淮海西路虹桥路"},{"poiid":"B2094655D26BA4FB4299","title":"百丽时尚中心","lon":"121.42039","lat":"31.19241","category":"46","category_name":"楼宇","address":"中山西路1279弄2"},{"poiid":"B2094655D26BABFD4992","title":"小鹭鹭酒家宋园店","lon":"121.41328","lat":"31.19241","category":"71","category_name":"四川菜","address":"长宁区宋园路71-73号(黄金城道古羊路间)"},{"poiid":"B2094757D065A2FA4393","title":"紋兵衛","lon":"121.41381215","lat":"31.192454142","category":"95","category_name":"日本料理","address":"长宁区宋园路79号(近古羊路)"},{"poiid":"B2094757D06AA6FE469A","title":"台湾小调","lon":"121.41223352","lat":"31.193278568","category":"91","category_name":"台湾菜","address":"长宁区古羊路443号(近张虹路)"},{"poiid":"B2094757D56EA1F4469B","title":"星巴克","lon":"121.41682099017935","lat":"31.18908598862775","category":"247","category_name":"餐饮美食","address":"徐汇区中山西路1602号宏汇国际广场B座1楼(近吴中路)"},{"poiid":"B2094757D56CA0F94893","title":"西贡庭","lon":"121.412907","lat":"31.191131","category":"99","category_name":"泰国／越南菜品餐厅","address":"长宁区古羊路399号(近张虹路)"},{"poiid":"B2094654DA6DA2FF419A","title":"丽池(虹桥)会所","lon":"121.41874","lat":"31.19545","category":"248","category_name":"生活娱乐","address":"虹桥路1030"},{"poiid":"B2094757D069A3FA449B","title":"台北名厨","lon":"121.41248","lat":"31.19089","category":"91","category_name":"台湾菜","address":"长宁区古羊路429号(近宋园路)"},{"poiid":"B2094757D068A7F54999","title":"尼章鱼","lon":"121.41254457","lat":"31.190864762","category":"95","category_name":"日本料理","address":"长宁区古羊路427号(近张虹路)"},{"poiid":"B2094750D365A6F8439B","title":"上海外灘","lon":"121.41497","lat":"31.18865","category":"250","category_name":"公园户外","address":null},{"poiid":"B2094757D068A0FE4398","title":"ESPRIT CHINA","lon":"121.42015183","lat":"31.193534303","category":"500","category_name":"未知分类","address":"上海虹桥路996弄71号甲"},{"poiid":"B2094757D164A0FD469D","title":"肯德基(宋园路店)","lon":"121.41376458","lat":"31.19642477","category":"68","category_name":"快餐厅","address":"徐汇区虹桥路1号港汇恒隆广场1楼B108号商铺(华山路口)"},{"poiid":"B2094757D66BA2F5429B","title":"AROMA日式家庭料理","lon":"121.4135171","lat":"31.1928983","category":"95","category_name":"日本料理","address":"长宁区宋园路52号(近黄金城道)"},{"poiid":"B2094750DB6CA4FC4398","title":"上海动物园","lon":"121.416801","lat":"31.194623","category":"500","category_name":"未知分类","address":null},{"poiid":"B2094654DB6BA7FF4999","title":"振宏苑","lon":"121.416","lat":"31.1934","category":"47","category_name":"住宅区","address":"姚虹路108弄"},{"poiid":"B2094654D56BABFA419A","title":"炭家","lon":"121.41315631277","lat":"31.191282848228","category":"269","category_name":"烧烤","address":"长宁区宋园路133-3号(近古羊路)"},{"poiid":"B2094654DB6BA7FF479C","title":"虹欣小区","lon":"121.41825","lat":"31.1926","category":"47","category_name":"住宅区","address":"中山西路1410弄1-29号"},{"poiid":"B2094757D16FA0F8479C","title":"中星美华村","lon":"121.417229","lat":"31.193576","category":"500","category_name":"未知分类","address":"长宁区镇宁路111号"},{"poiid":"B2094757D069AAFA439E","title":"同昆数码彩印(虹桥路店)","lon":"121.41739","lat":"31.19542","category":"500","category_name":"未知分类","address":"长宁区虹桥路1112号丽景苑(近中山西路)"},{"poiid":"B2094750D76EA5F9469E","title":"いば昇(古羊路店)","lon":"121.413","lat":"31.1912","category":"95","category_name":"日本料理","address":"长宁区古羊路389号(近宋园路)"},{"poiid":"B2094654D56BABFA439C","title":"磐石虹三大厦","lon":"121.41619","lat":"31.19133","category":"46","category_name":"楼宇","address":"古羊路158"},{"poiid":"B2094655D268A6F5429D","title":"芙蓉阁","lon":"121.41686585848","lat":"31.195169471921","category":"77","category_name":"湖南菜","address":"长宁区中山西路1243号三湘大厦2楼(近虹桥路口)"},{"poiid":"B2094757D06AA2FB469C","title":"古北虹苑","lon":"121.41301703446","lat":"31.194441016015","category":"47","category_name":"住宅区","address":"上海市闵行区红松东路251号"},{"poiid":"B2094757D065A0F44393","title":"虹南小区","lon":"121.41888","lat":"31.191803","category":"252","category_name":"楼宇机构","address":"上海中山西路1432弄"},{"poiid":"B2094757D16DA7FC4198","title":"鸟膳","lon":"121.41335","lat":"31.19096","category":"95","category_name":"日本料理","address":"长宁区伊犁南路111号钱江商务广场4楼(近古羊路)"},{"poiid":"B2094757D468A4FC459F","title":"樱川日本料理","lon":"121.4170033","lat":"31.1963432","category":"95","category_name":"日本料理","address":"长宁区中山西路888号银河宾馆2楼"},{"poiid":"B2094655D36DA7F84899","title":"中山西路虹桥路","lon":"121.41561","lat":"31.19704","category":"38","category_name":"公交车站","address":""},{"poiid":"B2094752DB6FA2FD469F","title":"纳东云南小菜","lon":"121.416415","lat":"31.191194","category":"500","category_name":"未知分类","address":"上海市 徐汇区柳州路928号2F"},{"poiid":"B2094655D265A2F4439D","title":"筷莫停 中山西路店","lon":"121.41969","lat":"31.1916","category":"77","category_name":"湖南菜","address":"长宁区中山西路1257号(近虹桥路)"},{"poiid":"B2094757D468A4FD489E","title":"美伊娜日式意大利餐厅 古羊路店","lon":"121.413097","lat":"31.19137","category":"94","category_name":"西餐厅","address":"长宁区古羊路300号-10(近姚虹东路)"},{"poiid":"B2094757D664A4FE479B","title":"吉祥特色馄饨 中山西路四店","lon":"121.417355","lat":"31.195033","category":"68","category_name":"快餐厅","address":"长宁区中山西路1257号(近虹桥路)"},{"poiid":"B2094757D069ABFB489F","title":"湘江大厦","lon":"121.420207","lat":"31.192691","category":"252","category_name":"楼宇机构","address":"上海市长宁区中山西路1265弄18号"},{"poiid":"B2094654DA6DA2FF489A","title":"钟记小馆","lon":"121.41946","lat":"31.19242","category":"68","category_name":"快餐厅","address":"长宁区中山西路(近吴中路)"},{"poiid":"B2094655D265A2F9439C","title":"圣骊虹桥创意园","lon":"121.42069","lat":"31.1935","category":"45","category_name":"产业园区","address":"上海虹桥路996弄161号"},{"poiid":"B2094655D268A3F94892","title":"古北首席","lon":"121.418","lat":"31.1901","category":"47","category_name":"住宅区","address":"吴中路405弄100支弄"},{"poiid":"B2094655D26FA5FD409B","title":"九九园","lon":"121.41926","lat":"31.193438","category":"47","category_name":"住宅区","address":"上海市长宁区中山西路1251号"},{"poiid":"B2094753D665A6FB419F","title":"凛家日式料理","lon":"121.413536","lat":"31.193893","category":"247","category_name":"餐饮美食","address":"上海市 宋园路36号"},{"poiid":"B209475DD36FA6FE459E","title":"人民广场","lon":"121.41809","lat":"31.191297","category":"500","category_name":"未知分类","address":"上海市 人民广场"}]