[{"poiid":"B2094757D06EAAF5499C","title":"百联虹口购物中心","lon":"121.46699381","lat":"31.272292599","category":"119","category_name":"商场","address":"虹口区同丰路699号"},{"poiid":"B2094655D265A3FB4193","title":"老李羊蝎子涮锅(闸北店)","lon":"121.46549","lat":"31.27302","category":"86","category_name":"火锅店","address":"闸北区北宝兴路182号(近洛川东路)"},{"poiid":"B2094757D068A1F9499F","title":"丰收日(同丰店)","lon":"121.465855103","lat":"31.2707034281","category":"75","category_name":"浙江菜","address":"虹口区同丰路699号百联购物中心5楼(近北宝兴路)"},{"poiid":"B2094752DB6DABF54099","title":"柳家","lon":"121.473142","lat":"31.272743","category":"500","category_name":"未知分类","address":"上海市 西江湾路388号凯德龙之梦购物中心B座5楼B05-07a号商铺(近虹口足球场)"},{"poiid":"B2094757D16DA0F4429C","title":"斗牛士虹口百联店","lon":"121.466597103","lat":"31.272898474","category":"94","category_name":"西餐厅","address":"虹口区同丰路699号百联购物中心4楼1-102室(北宝兴路洛川东路)"},{"poiid":"B2094751D464A2FB4292","title":"黄记煌三汁焖锅","lon":"121.472437","lat":"31.272741","category":"247","category_name":"餐饮美食","address":"虹口区西江湾路388号凯德龙之梦B座02楼09号商铺(近虹口足球场)"},{"poiid":"B2094757D06FA7F9499F","title":"柳营灯饰城","lon":"121.46814","lat":"31.2704","category":"119","category_name":"商场","address":"闸北区柳营路135号(近北宝兴路)"},{"poiid":"B2094750DA64AAFA419D","title":"好乐迪(虹口百联店)","lon":"121.46685032009884","lat":"31.273299499397623","category":"170","category_name":"KTV","address":"虹口区同丰路699号百联虹口购物中心5楼"},{"poiid":"B2094750D26AA0FA4898","title":"辛香汇","lon":"121.467285","lat":"31.272792","category":"500","category_name":"未知分类","address":"宝山区真华路950号3F"},{"poiid":"B2094751D06CA2FF4799","title":"金逸国际电影城","lon":"121.4731550669621","lat":"31.27254064812787","category":"178","category_name":"电影院","address":"虹口龙之梦6楼"},{"poiid":"B2094655D26CA0FC439F","title":"大上海紫金城","lon":"121.46705","lat":"31.273848","category":"47","category_name":"住宅区","address":"上海市虹口区同丰路666弄"},{"poiid":"B2094757D064AAFF409E","title":"东方商厦","lon":"121.467663819","lat":"31.2726715973","category":"119","category_name":"商场","address":"上海虹口区同丰路699号百联虹口店内(近北宝兴路)"},{"poiid":"B2094757D069A0F8459C","title":"陌生人火锅餐厅(虹口百联店)","lon":"121.468085","lat":"31.269598205","category":"500","category_name":"未知分类","address":"上海市虹口区同丰路699号虹口百联商厦4F"},{"poiid":"B2094757D06FA4FA4099","title":"北宝兴路洛川东路","lon":"121.465499","lat":"31.273287","category":"500","category_name":"未知分类","address":"上海北宝兴路洛川东路"},{"poiid":"B2094757D16DAAFC469A","title":"唐老鸭海味鲜大排档","lon":"121.465463903","lat":"31.2729590753","category":"68","category_name":"快餐厅","address":"闸北区北宝兴路191号(近同丰路)"},{"poiid":"B2094757D16CA5F4449D","title":"Imo Cafe 虹口百联店","lon":"121.468063103","lat":"31.2733204828","category":"113","category_name":"冷饮店","address":"虹口区同丰路699号百联虹口购物中心内(近北宝兴路)"},{"poiid":"B2094757D06AA6FD419B","title":"呷哺呷哺(百联虹口店)","lon":"121.466956103","lat":"31.2740574982","category":"247","category_name":"餐饮美食","address":"虹口区同丰路699号百联购物中心B1楼G48-FB1-1-106室"},{"poiid":"B2094757D069ABF9489B","title":"鼎中鼎澳门豆捞(北宝兴路店)","lon":"121.46598","lat":"31.27226","category":"86","category_name":"火锅店","address":"闸北区北宝兴路152号嘉利明珠城(洛川东路口)"},{"poiid":"B2094757D465ABFD499F","title":"一舟渔港","lon":"121.468116","lat":"31.27403","category":"75","category_name":"浙江菜","address":"虹口区同丰路699弄93-95号(南京银行旁)"},{"poiid":"B2094757D06FABFE489C","title":"花园城","lon":"121.47254871","lat":"31.272643459","category":"47","category_name":"住宅区","address":"上海虹口区花园路118弄"},{"poiid":"B2094655D265AAF54192","title":"木房子特色烤鱼 北宝兴路店","lon":"121.464176054","lat":"31.274371793","category":"71","category_name":"四川菜","address":"闸北区北宝兴路252号(近延长路)"},{"poiid":"B2094654D56DA5F94092","title":"上海市复旦大学附属公共卫生中心","lon":"121.47032","lat":"31.27245","category":"162","category_name":"医院","address":"虹口区水电路56号"},{"poiid":"B2094752D765A5F8499E","title":"段氏龙虾","lon":"121.468056","lat":"31.272816","category":"247","category_name":"餐饮美食","address":"北宝兴路170号"},{"poiid":"B2094757D66CA2FF499F","title":"味千拉面(百联虹口店)","lon":"121.465550103","lat":"31.2732004803","category":"95","category_name":"日本料理","address":"虹口区同丰路699号百联虹口购物中心"},{"poiid":"B2094757D065A6F8469D","title":"小杨生煎虹口百联店","lon":"121.465121503","lat":"31.2733471834","category":"68","category_name":"快餐厅","address":"虹口区同丰路699号虹口百联第一食品B1楼(近北宝兴路)"},{"poiid":"B2094757D06BA2FD4492","title":"99靓味馆","lon":"121.464987103","lat":"31.2732196807","category":"72","category_name":"广东菜","address":"虹口区同丰路699号百联购物中心4楼(近北宝兴路)"},{"poiid":"B2094757D069A0F8449E","title":"柳林公寓","lon":"121.46959","lat":"31.271997","category":"47","category_name":"住宅区","address":"上海市虹口区柳营路45弄"},{"poiid":"B2094757D469A6FE409C","title":"胡杨林烧烤吧","lon":"121.4656292","lat":"31.2731649","category":"68","category_name":"快餐厅","address":"虹口区北宝兴路155号(近洛川东路)"},{"poiid":"B2094757D16AA0FC489C","title":"爱茜茜里(百联虹口店)","lon":"121.46802182","lat":"31.2729135962","category":"67","category_name":"甜品店","address":"虹口区同丰路699号虹口百联第一食品1楼(北宝兴路洛川东路)"},{"poiid":"B2094757D06AA5F94298","title":"琪琪面馆","lon":"121.46451","lat":"31.27442","category":"68","category_name":"快餐厅","address":"闸北区北宝兴路296-298号(近延长路)"},{"poiid":"B2094757D064A2FC4692","title":"香汁源(虹口店)","lon":"121.467222803","lat":"31.2732929823","category":"71","category_name":"四川菜","address":"虹口区同丰路699号百联购物中心"},{"poiid":"B2094757DA6EABFE4898","title":"贝儿多爸爸泡芙工房(同丰路店)","lon":"121.467384000001","lat":"31.2734979999999","category":"67","category_name":"甜品店","address":"虹口区同丰路699号1楼(近北宝兴路)"},{"poiid":"B2094753D469A6F44793","title":"环球港","lon":"121.469902","lat":"31.273168","category":"500","category_name":"未知分类","address":"上海市 上海普陀区"},{"poiid":"B2094757D168A1F84998","title":"圆百爱(百联虹口店)","lon":"121.4670391","lat":"31.274051498","category":"111","category_name":"休闲餐饮场所","address":"虹口区同丰路699弄第一食品1楼(近洛川东路)"},{"poiid":"B2094757D165A3FD449D","title":"韩林碳烤","lon":"121.465628103","lat":"31.2726234683","category":"247","category_name":"餐饮美食","address":"上海虹口百联四楼"},{"poiid":"B2094750D664ABFC469E","title":"重庆周老大火锅","lon":"121.466","lat":"31.2729","category":"86","category_name":"火锅店","address":"闸北区北宝兴路174号(近洛川东路)"},{"poiid":"B209475CD268A7FE449B","title":"聚辣重庆麻辣火锅","lon":"121.466003","lat":"31.273103","category":"247","category_name":"餐饮美食","address":"上海市 北宝兴路152号"},{"poiid":"B2094757D16FA3F5469D","title":"一舟鱼港","lon":"121.467638103","lat":"31.2738424937","category":"247","category_name":"餐饮美食","address":"上海虹口区同丰路667弄93-95号世纪广场内"},{"poiid":"B2094757DA6EAAF5429A","title":"DQ冰雪皇后(百联虹口店)","lon":"121.467402999998","lat":"31.2736209999999","category":"113","category_name":"冷饮店","address":"虹口区同丰路699号百联虹口购物中心1楼(北宝兴路洛川东路)"},{"poiid":"B2094757D16CA0FE499A","title":"禾绿寿司(虹口百联店)","lon":"121.465366103","lat":"31.2735044867","category":"247","category_name":"餐饮美食","address":"上海同丰路699号"},{"poiid":"B2094752D468A1FF4898","title":"虹口龙之梦板长寿司","lon":"121.473176","lat":"31.273063","category":"247","category_name":"餐饮美食","address":null},{"poiid":"B2094654D56DA5F94199","title":"八字桥便民店","lon":"121.46918","lat":"31.27361","category":"117","category_name":"便民商店/便利店","address":""},{"poiid":"B2094655D265A3FF4093","title":"国大药房同丰路店","lon":"121.46792","lat":"31.2741","category":"162","category_name":"医院","address":"虹口区同丰路616号(近北宝兴路)"},{"poiid":"B2094757D16DA6FC4592","title":"食其家 百联虹口店","lon":"121.465132903","lat":"31.2733495834","category":"95","category_name":"日本料理","address":"虹口区同丰路699号百联虹口购物中心(北宝兴路洛川东路)"},{"poiid":"B2094757DB6EAAFD499F","title":"殡仪馆","lon":"121.467131","lat":"31.272409","category":"620","category_name":"丧葬","address":"闸北区西宝兴路833号(近黄山路)"},{"poiid":"B2094655D26CA0FC439E","title":"快客No.5191","lon":"121.4675","lat":"31.27356","category":"117","category_name":"便民商店/便利店","address":"同丰路662"},{"poiid":"B2094757D16BAAFA429A","title":"明光公寓","lon":"121.46792","lat":"31.272217","category":"47","category_name":"住宅区","address":"明光公寓位于虹口柳营路127号"},{"poiid":"B2094757D069A2F8489E","title":"少山咖啡","lon":"121.46724","lat":"31.26681","category":"260","category_name":"其他","address":"闸北区平型关路108弄6号(近柳营路)"},{"poiid":"B2094757D06BA5FD459C","title":"嘉丽明珠城","lon":"121.46936798","lat":"31.272251129","category":"47","category_name":"住宅区","address":"上海平型关路洛川东路口"},{"poiid":"B2094750D26AA0FA4893","title":"虹口百联辛香汇","lon":"121.467269","lat":"31.272779","category":"247","category_name":"餐饮美食","address":null},{"poiid":"B2094757D06EAAF5499C","title":"百联虹口购物中心","lon":"121.46699381","lat":"31.272292599","category":"119","category_name":"商场","address":"虹口区同丰路699号"},{"poiid":"B2094655D265A3FB4193","title":"老李羊蝎子涮锅(闸北店)","lon":"121.46549","lat":"31.27302","category":"86","category_name":"火锅店","address":"闸北区北宝兴路182号(近洛川东路)"},{"poiid":"B2094757D068A1F9499F","title":"丰收日(同丰店)","lon":"121.465855103","lat":"31.2707034281","category":"75","category_name":"浙江菜","address":"虹口区同丰路699号百联购物中心5楼(近北宝兴路)"},{"poiid":"B2094752DB6DABF54099","title":"柳家","lon":"121.473142","lat":"31.272743","category":"500","category_name":"未知分类","address":"上海市 西江湾路388号凯德龙之梦购物中心B座5楼B05-07a号商铺(近虹口足球场)"},{"poiid":"B2094757D16DA0F4429C","title":"斗牛士虹口百联店","lon":"121.466597103","lat":"31.272898474","category":"94","category_name":"西餐厅","address":"虹口区同丰路699号百联购物中心4楼1-102室(北宝兴路洛川东路)"},{"poiid":"B2094751D464A2FB4292","title":"黄记煌三汁焖锅","lon":"121.472437","lat":"31.272741","category":"247","category_name":"餐饮美食","address":"虹口区西江湾路388号凯德龙之梦B座02楼09号商铺(近虹口足球场)"},{"poiid":"B2094757D06FA7F9499F","title":"柳营灯饰城","lon":"121.46814","lat":"31.2704","category":"119","category_name":"商场","address":"闸北区柳营路135号(近北宝兴路)"},{"poiid":"B2094750DA64AAFA419D","title":"好乐迪(虹口百联店)","lon":"121.46685032009884","lat":"31.273299499397623","category":"170","category_name":"KTV","address":"虹口区同丰路699号百联虹口购物中心5楼"},{"poiid":"B2094750D26AA0FA4898","title":"辛香汇","lon":"121.467285","lat":"31.272792","category":"500","category_name":"未知分类","address":"宝山区真华路950号3F"},{"poiid":"B2094751D06CA2FF4799","title":"金逸国际电影城","lon":"121.4731550669621","lat":"31.27254064812787","category":"178","category_name":"电影院","address":"虹口龙之梦6楼"},{"poiid":"B2094655D26CA0FC439F","title":"大上海紫金城","lon":"121.46705","lat":"31.273848","category":"47","category_name":"住宅区","address":"上海市虹口区同丰路666弄"},{"poiid":"B2094757D064AAFF409E","title":"东方商厦","lon":"121.467663819","lat":"31.2726715973","category":"119","category_name":"商场","address":"上海虹口区同丰路699号百联虹口店内(近北宝兴路)"},{"poiid":"B2094757D069A0F8459C","title":"陌生人火锅餐厅(虹口百联店)","lon":"121.468085","lat":"31.269598205","category":"500","category_name":"未知分类","address":"上海市虹口区同丰路699号虹口百联商厦4F"},{"poiid":"B2094757D06FA4FA4099","title":"北宝兴路洛川东路","lon":"121.465499","lat":"31.273287","category":"500","category_name":"未知分类","address":"上海北宝兴路洛川东路"},{"poiid":"B2094757D16DAAFC469A","title":"唐老鸭海味鲜大排档","lon":"121.465463903","lat":"31.2729590753","category":"68","category_name":"快餐厅","address":"闸北区北宝兴路191号(近同丰路)"},{"poiid":"B2094757D16CA5F4449D","title":"Imo Cafe 虹口百联店","lon":"121.468063103","lat":"31.2733204828","category":"113","category_name":"冷饮店","address":"虹口区同丰路699号百联虹口购物中心内(近北宝兴路)"},{"poiid":"B2094757D06AA6FD419B","title":"呷哺呷哺(百联虹口店)","lon":"121.466956103","lat":"31.2740574982","category":"247","category_name":"餐饮美食","address":"虹口区同丰路699号百联购物中心B1楼G48-FB1-1-106室"},{"poiid":"B2094757D069ABF9489B","title":"鼎中鼎澳门豆捞(北宝兴路店)","lon":"121.46598","lat":"31.27226","category":"86","category_name":"火锅店","address":"闸北区北宝兴路152号嘉利明珠城(洛川东路口)"},{"poiid":"B2094757D465ABFD499F","title":"一舟渔港","lon":"121.468116","lat":"31.27403","category":"75","category_name":"浙江菜","address":"虹口区同丰路699弄93-95号(南京银行旁)"},{"poiid":"B2094757D06FABFE489C","title":"花园城","lon":"121.47254871","lat":"31.272643459","category":"47","category_name":"住宅区","address":"上海虹口区花园路118弄"},{"poiid":"B2094655D265AAF54192","title":"木房子特色烤鱼 北宝兴路店","lon":"121.464176054","lat":"31.274371793","category":"71","category_name":"四川菜","address":"闸北区北宝兴路252号(近延长路)"},{"poiid":"B2094654D56DA5F94092","title":"上海市复旦大学附属公共卫生中心","lon":"121.47032","lat":"31.27245","category":"162","category_name":"医院","address":"虹口区水电路56号"},{"poiid":"B2094752D765A5F8499E","title":"段氏龙虾","lon":"121.468056","lat":"31.272816","category":"247","category_name":"餐饮美食","address":"北宝兴路170号"},{"poiid":"B2094757D66CA2FF499F","title":"味千拉面(百联虹口店)","lon":"121.465550103","lat":"31.2732004803","category":"95","category_name":"日本料理","address":"虹口区同丰路699号百联虹口购物中心"},{"poiid":"B2094757D065A6F8469D","title":"小杨生煎虹口百联店","lon":"121.465121503","lat":"31.2733471834","category":"68","category_name":"快餐厅","address":"虹口区同丰路699号虹口百联第一食品B1楼(近北宝兴路)"},{"poiid":"B2094757D06BA2FD4492","title":"99靓味馆","lon":"121.464987103","lat":"31.2732196807","category":"72","category_name":"广东菜","address":"虹口区同丰路699号百联购物中心4楼(近北宝兴路)"},{"poiid":"B2094757D069A0F8449E","title":"柳林公寓","lon":"121.46959","lat":"31.271997","category":"47","category_name":"住宅区","address":"上海市虹口区柳营路45弄"},{"poiid":"B2094757D469A6FE409C","title":"胡杨林烧烤吧","lon":"121.4656292","lat":"31.2731649","category":"68","category_name":"快餐厅","address":"虹口区北宝兴路155号(近洛川东路)"},{"poiid":"B2094757D16AA0FC489C","title":"爱茜茜里(百联虹口店)","lon":"121.46802182","lat":"31.2729135962","category":"67","category_name":"甜品店","address":"虹口区同丰路699号虹口百联第一食品1楼(北宝兴路洛川东路)"},{"poiid":"B2094757D06AA5F94298","title":"琪琪面馆","lon":"121.46451","lat":"31.27442","category":"68","category_name":"快餐厅","address":"闸北区北宝兴路296-298号(近延长路)"},{"poiid":"B2094757D064A2FC4692","title":"香汁源(虹口店)","lon":"121.467222803","lat":"31.2732929823","category":"71","category_name":"四川菜","address":"虹口区同丰路699号百联购物中心"},{"poiid":"B2094757DA6EABFE4898","title":"贝儿多爸爸泡芙工房(同丰路店)","lon":"121.467384000001","lat":"31.2734979999999","category":"67","category_name":"甜品店","address":"虹口区同丰路699号1楼(近北宝兴路)"},{"poiid":"B2094753D469A6F44793","title":"环球港","lon":"121.469902","lat":"31.273168","category":"500","category_name":"未知分类","address":"上海市 上海普陀区"},{"poiid":"B2094757D168A1F84998","title":"圆百爱(百联虹口店)","lon":"121.4670391","lat":"31.274051498","category":"111","category_name":"休闲餐饮场所","address":"虹口区同丰路699弄第一食品1楼(近洛川东路)"},{"poiid":"B2094757D165A3FD449D","title":"韩林碳烤","lon":"121.465628103","lat":"31.2726234683","category":"247","category_name":"餐饮美食","address":"上海虹口百联四楼"},{"poiid":"B2094750D664ABFC469E","title":"重庆周老大火锅","lon":"121.466","lat":"31.2729","category":"86","category_name":"火锅店","address":"闸北区北宝兴路174号(近洛川东路)"},{"poiid":"B209475CD268A7FE449B","title":"聚辣重庆麻辣火锅","lon":"121.466003","lat":"31.273103","category":"247","category_name":"餐饮美食","address":"上海市 北宝兴路152号"},{"poiid":"B2094757D16FA3F5469D","title":"一舟鱼港","lon":"121.467638103","lat":"31.2738424937","category":"247","category_name":"餐饮美食","address":"上海虹口区同丰路667弄93-95号世纪广场内"},{"poiid":"B2094757DA6EAAF5429A","title":"DQ冰雪皇后(百联虹口店)","lon":"121.467402999998","lat":"31.2736209999999","category":"113","category_name":"冷饮店","address":"虹口区同丰路699号百联虹口购物中心1楼(北宝兴路洛川东路)"},{"poiid":"B2094757D16CA0FE499A","title":"禾绿寿司(虹口百联店)","lon":"121.465366103","lat":"31.2735044867","category":"247","category_name":"餐饮美食","address":"上海同丰路699号"},{"poiid":"B2094752D468A1FF4898","title":"虹口龙之梦板长寿司","lon":"121.473176","lat":"31.273063","category":"247","category_name":"餐饮美食","address":null},{"poiid":"B2094654D56DA5F94199","title":"八字桥便民店","lon":"121.46918","lat":"31.27361","category":"117","category_name":"便民商店/便利店","address":""},{"poiid":"B2094655D265A3FF4093","title":"国大药房同丰路店","lon":"121.46792","lat":"31.2741","category":"162","category_name":"医院","address":"虹口区同丰路616号(近北宝兴路)"},{"poiid":"B2094757D16DA6FC4592","title":"食其家 百联虹口店","lon":"121.465132903","lat":"31.2733495834","category":"95","category_name":"日本料理","address":"虹口区同丰路699号百联虹口购物中心(北宝兴路洛川东路)"},{"poiid":"B2094757DB6EAAFD499F","title":"殡仪馆","lon":"121.467131","lat":"31.272409","category":"620","category_name":"丧葬","address":"闸北区西宝兴路833号(近黄山路)"},{"poiid":"B2094655D26CA0FC439E","title":"快客No.5191","lon":"121.4675","lat":"31.27356","category":"117","category_name":"便民商店/便利店","address":"同丰路662"},{"poiid":"B2094757D16BAAFA429A","title":"明光公寓","lon":"121.46792","lat":"31.272217","category":"47","category_name":"住宅区","address":"明光公寓位于虹口柳营路127号"},{"poiid":"B2094757D069A2F8489E","title":"少山咖啡","lon":"121.46724","lat":"31.26681","category":"260","category_name":"其他","address":"闸北区平型关路108弄6号(近柳营路)"},{"poiid":"B2094757D06BA5FD459C","title":"嘉丽明珠城","lon":"121.46936798","lat":"31.272251129","category":"47","category_name":"住宅区","address":"上海平型关路洛川东路口"},{"poiid":"B2094750D26AA0FA4893","title":"虹口百联辛香汇","lon":"121.467269","lat":"31.272779","category":"247","category_name":"餐饮美食","address":null},{"poiid":"B2094757D06EAAF5499C","title":"百联虹口购物中心","lon":"121.46699381","lat":"31.272292599","category":"119","category_name":"商场","address":"虹口区同丰路699号"},{"poiid":"B2094655D265A3FB4193","title":"老李羊蝎子涮锅(闸北店)","lon":"121.46549","lat":"31.27302","category":"86","category_name":"火锅店","address":"闸北区北宝兴路182号(近洛川东路)"},{"poiid":"B2094757D068A1F9499F","title":"丰收日(同丰店)","lon":"121.465855103","lat":"31.2707034281","category":"75","category_name":"浙江菜","address":"虹口区同丰路699号百联购物中心5楼(近北宝兴路)"},{"poiid":"B2094752DB6DABF54099","title":"柳家","lon":"121.473142","lat":"31.272743","category":"500","category_name":"未知分类","address":"上海市 西江湾路388号凯德龙之梦购物中心B座5楼B05-07a号商铺(近虹口足球场)"},{"poiid":"B2094757D16DA0F4429C","title":"斗牛士虹口百联店","lon":"121.466597103","lat":"31.272898474","category":"94","category_name":"西餐厅","address":"虹口区同丰路699号百联购物中心4楼1-102室(北宝兴路洛川东路)"},{"poiid":"B2094751D464A2FB4292","title":"黄记煌三汁焖锅","lon":"121.472437","lat":"31.272741","category":"247","category_name":"餐饮美食","address":"虹口区西江湾路388号凯德龙之梦B座02楼09号商铺(近虹口足球场)"},{"poiid":"B2094757D06FA7F9499F","title":"柳营灯饰城","lon":"121.46814","lat":"31.2704","category":"119","category_name":"商场","address":"闸北区柳营路135号(近北宝兴路)"},{"poiid":"B2094750DA64AAFA419D","title":"好乐迪(虹口百联店)","lon":"121.46685032009884","lat":"31.273299499397623","category":"170","category_name":"KTV","address":"虹口区同丰路699号百联虹口购物中心5楼"},{"poiid":"B2094750D26AA0FA4898","title":"辛香汇","lon":"121.467285","lat":"31.272792","category":"500","category_name":"未知分类","address":"宝山区真华路950号3F"},{"poiid":"B2094751D06CA2FF4799","title":"金逸国际电影城","lon":"121.4731550669621","lat":"31.27254064812787","category":"178","category_name":"电影院","address":"虹口龙之梦6楼"},{"poiid":"B2094655D26CA0FC439F","title":"大上海紫金城","lon":"121.46705","lat":"31.273848","category":"47","category_name":"住宅区","address":"上海市虹口区同丰路666弄"},{"poiid":"B2094757D064AAFF409E","title":"东方商厦","lon":"121.467663819","lat":"31.2726715973","category":"119","category_name":"商场","address":"上海虹口区同丰路699号百联虹口店内(近北宝兴路)"},{"poiid":"B2094757D069A0F8459C","title":"陌生人火锅餐厅(虹口百联店)","lon":"121.468085","lat":"31.269598205","category":"500","category_name":"未知分类","address":"上海市虹口区同丰路699号虹口百联商厦4F"},{"poiid":"B2094757D06FA4FA4099","title":"北宝兴路洛川东路","lon":"121.465499","lat":"31.273287","category":"500","category_name":"未知分类","address":"上海北宝兴路洛川东路"},{"poiid":"B2094757D16DAAFC469A","title":"唐老鸭海味鲜大排档","lon":"121.465463903","lat":"31.2729590753","category":"68","category_name":"快餐厅","address":"闸北区北宝兴路191号(近同丰路)"},{"poiid":"B2094757D16CA5F4449D","title":"Imo Cafe 虹口百联店","lon":"121.468063103","lat":"31.2733204828","category":"113","category_name":"冷饮店","address":"虹口区同丰路699号百联虹口购物中心内(近北宝兴路)"},{"poiid":"B2094757D06AA6FD419B","title":"呷哺呷哺(百联虹口店)","lon":"121.466956103","lat":"31.2740574982","category":"247","category_name":"餐饮美食","address":"虹口区同丰路699号百联购物中心B1楼G48-FB1-1-106室"},{"poiid":"B2094757D069ABF9489B","title":"鼎中鼎澳门豆捞(北宝兴路店)","lon":"121.46598","lat":"31.27226","category":"86","category_name":"火锅店","address":"闸北区北宝兴路152号嘉利明珠城(洛川东路口)"},{"poiid":"B2094757D465ABFD499F","title":"一舟渔港","lon":"121.468116","lat":"31.27403","category":"75","category_name":"浙江菜","address":"虹口区同丰路699弄93-95号(南京银行旁)"},{"poiid":"B2094757D06FABFE489C","title":"花园城","lon":"121.47254871","lat":"31.272643459","category":"47","category_name":"住宅区","address":"上海虹口区花园路118弄"},{"poiid":"B2094655D265AAF54192","title":"木房子特色烤鱼 北宝兴路店","lon":"121.464176054","lat":"31.274371793","category":"71","category_name":"四川菜","address":"闸北区北宝兴路252号(近延长路)"},{"poiid":"B2094654D56DA5F94092","title":"上海市复旦大学附属公共卫生中心","lon":"121.47032","lat":"31.27245","category":"162","category_name":"医院","address":"虹口区水电路56号"},{"poiid":"B2094752D765A5F8499E","title":"段氏龙虾","lon":"121.468056","lat":"31.272816","category":"247","category_name":"餐饮美食","address":"北宝兴路170号"},{"poiid":"B2094757D66CA2FF499F","title":"味千拉面(百联虹口店)","lon":"121.465550103","lat":"31.2732004803","category":"95","category_name":"日本料理","address":"虹口区同丰路699号百联虹口购物中心"},{"poiid":"B2094757D065A6F8469D","title":"小杨生煎虹口百联店","lon":"121.465121503","lat":"31.2733471834","category":"68","category_name":"快餐厅","address":"虹口区同丰路699号虹口百联第一食品B1楼(近北宝兴路)"},{"poiid":"B2094757D06BA2FD4492","title":"99靓味馆","lon":"121.464987103","lat":"31.2732196807","category":"72","category_name":"广东菜","address":"虹口区同丰路699号百联购物中心4楼(近北宝兴路)"},{"poiid":"B2094757D069A0F8449E","title":"柳林公寓","lon":"121.46959","lat":"31.271997","category":"47","category_name":"住宅区","address":"上海市虹口区柳营路45弄"},{"poiid":"B2094757D469A6FE409C","title":"胡杨林烧烤吧","lon":"121.4656292","lat":"31.2731649","category":"68","category_name":"快餐厅","address":"虹口区北宝兴路155号(近洛川东路)"},{"poiid":"B2094757D16AA0FC489C","title":"爱茜茜里(百联虹口店)","lon":"121.46802182","lat":"31.2729135962","category":"67","category_name":"甜品店","address":"虹口区同丰路699号虹口百联第一食品1楼(北宝兴路洛川东路)"},{"poiid":"B2094757D06AA5F94298","title":"琪琪面馆","lon":"121.46451","lat":"31.27442","category":"68","category_name":"快餐厅","address":"闸北区北宝兴路296-298号(近延长路)"},{"poiid":"B2094757D064A2FC4692","title":"香汁源(虹口店)","lon":"121.467222803","lat":"31.2732929823","category":"71","category_name":"四川菜","address":"虹口区同丰路699号百联购物中心"},{"poiid":"B2094757DA6EABFE4898","title":"贝儿多爸爸泡芙工房(同丰路店)","lon":"121.467384000001","lat":"31.2734979999999","category":"67","category_name":"甜品店","address":"虹口区同丰路699号1楼(近北宝兴路)"},{"poiid":"B2094753D469A6F44793","title":"环球港","lon":"121.469902","lat":"31.273168","category":"500","category_name":"未知分类","address":"上海市 上海普陀区"},{"poiid":"B2094757D168A1F84998","title":"圆百爱(百联虹口店)","lon":"121.4670391","lat":"31.274051498","category":"111","category_name":"休闲餐饮场所","address":"虹口区同丰路699弄第一食品1楼(近洛川东路)"},{"poiid":"B2094757D165A3FD449D","title":"韩林碳烤","lon":"121.465628103","lat":"31.2726234683","category":"247","category_name":"餐饮美食","address":"上海虹口百联四楼"},{"poiid":"B2094750D664ABFC469E","title":"重庆周老大火锅","lon":"121.466","lat":"31.2729","category":"86","category_name":"火锅店","address":"闸北区北宝兴路174号(近洛川东路)"},{"poiid":"B209475CD268A7FE449B","title":"聚辣重庆麻辣火锅","lon":"121.466003","lat":"31.273103","category":"247","category_name":"餐饮美食","address":"上海市 北宝兴路152号"},{"poiid":"B2094757D16FA3F5469D","title":"一舟鱼港","lon":"121.467638103","lat":"31.2738424937","category":"247","category_name":"餐饮美食","address":"上海虹口区同丰路667弄93-95号世纪广场内"},{"poiid":"B2094757DA6EAAF5429A","title":"DQ冰雪皇后(百联虹口店)","lon":"121.467402999998","lat":"31.2736209999999","category":"113","category_name":"冷饮店","address":"虹口区同丰路699号百联虹口购物中心1楼(北宝兴路洛川东路)"},{"poiid":"B2094757D16CA0FE499A","title":"禾绿寿司(虹口百联店)","lon":"121.465366103","lat":"31.2735044867","category":"247","category_name":"餐饮美食","address":"上海同丰路699号"},{"poiid":"B2094752D468A1FF4898","title":"虹口龙之梦板长寿司","lon":"121.473176","lat":"31.273063","category":"247","category_name":"餐饮美食","address":null},{"poiid":"B2094654D56DA5F94199","title":"八字桥便民店","lon":"121.46918","lat":"31.27361","category":"117","category_name":"便民商店/便利店","address":""},{"poiid":"B2094655D265A3FF4093","title":"国大药房同丰路店","lon":"121.46792","lat":"31.2741","category":"162","category_name":"医院","address":"虹口区同丰路616号(近北宝兴路)"},{"poiid":"B2094757D16DA6FC4592","title":"食其家 百联虹口店","lon":"121.465132903","lat":"31.2733495834","category":"95","category_name":"日本料理","address":"虹口区同丰路699号百联虹口购物中心(北宝兴路洛川东路)"},{"poiid":"B2094757DB6EAAFD499F","title":"殡仪馆","lon":"121.467131","lat":"31.272409","category":"620","category_name":"丧葬","address":"闸北区西宝兴路833号(近黄山路)"},{"poiid":"B2094655D26CA0FC439E","title":"快客No.5191","lon":"121.4675","lat":"31.27356","category":"117","category_name":"便民商店/便利店","address":"同丰路662"},{"poiid":"B2094757D16BAAFA429A","title":"明光公寓","lon":"121.46792","lat":"31.272217","category":"47","category_name":"住宅区","address":"明光公寓位于虹口柳营路127号"},{"poiid":"B2094757D069A2F8489E","title":"少山咖啡","lon":"121.46724","lat":"31.26681","category":"260","category_name":"其他","address":"闸北区平型关路108弄6号(近柳营路)"},{"poiid":"B2094757D06BA5FD459C","title":"嘉丽明珠城","lon":"121.46936798","lat":"31.272251129","category":"47","category_name":"住宅区","address":"上海平型关路洛川东路口"},{"poiid":"B2094750D26AA0FA4893","title":"虹口百联辛香汇","lon":"121.467269","lat":"31.272779","category":"247","category_name":"餐饮美食","address":null},{"poiid":"B2094757D06EAAF5499C","title":"百联虹口购物中心","lon":"121.46699381","lat":"31.272292599","category":"119","category_name":"商场","address":"虹口区同丰路699号"},{"poiid":"B2094655D265A3FB4193","title":"老李羊蝎子涮锅(闸北店)","lon":"121.46549","lat":"31.27302","category":"86","category_name":"火锅店","address":"闸北区北宝兴路182号(近洛川东路)"},{"poiid":"B2094757D068A1F9499F","title":"丰收日(同丰店)","lon":"121.465855103","lat":"31.2707034281","category":"75","category_name":"浙江菜","address":"虹口区同丰路699号百联购物中心5楼(近北宝兴路)"},{"poiid":"B2094752DB6DABF54099","title":"柳家","lon":"121.473142","lat":"31.272743","category":"500","category_name":"未知分类","address":"上海市 西江湾路388号凯德龙之梦购物中心B座5楼B05-07a号商铺(近虹口足球场)"},{"poiid":"B2094757D16DA0F4429C","title":"斗牛士虹口百联店","lon":"121.466597103","lat":"31.272898474","category":"94","category_name":"西餐厅","address":"虹口区同丰路699号百联购物中心4楼1-102室(北宝兴路洛川东路)"},{"poiid":"B2094751D464A2FB4292","title":"黄记煌三汁焖锅","lon":"121.472437","lat":"31.272741","category":"247","category_name":"餐饮美食","address":"虹口区西江湾路388号凯德龙之梦B座02楼09号商铺(近虹口足球场)"},{"poiid":"B2094757D06FA7F9499F","title":"柳营灯饰城","lon":"121.46814","lat":"31.2704","category":"119","category_name":"商场","address":"闸北区柳营路135号(近北宝兴路)"},{"poiid":"B2094750DA64AAFA419D","title":"好乐迪(虹口百联店)","lon":"121.46685032009884","lat":"31.273299499397623","category":"170","category_name":"KTV","address":"虹口区同丰路699号百联虹口购物中心5楼"},{"poiid":"B2094750D26AA0FA4898","title":"辛香汇","lon":"121.467285","lat":"31.272792","category":"500","category_name":"未知分类","address":"宝山区真华路950号3F"},{"poiid":"B2094751D06CA2FF4799","title":"金逸国际电影城","lon":"121.4731550669621","lat":"31.27254064812787","category":"178","category_name":"电影院","address":"虹口龙之梦6楼"},{"poiid":"B2094655D26CA0FC439F","title":"大上海紫金城","lon":"121.46705","lat":"31.273848","category":"47","category_name":"住宅区","address":"上海市虹口区同丰路666弄"},{"poiid":"B2094757D064AAFF409E","title":"东方商厦","lon":"121.467663819","lat":"31.2726715973","category":"119","category_name":"商场","address":"上海虹口区同丰路699号百联虹口店内(近北宝兴路)"},{"poiid":"B2094757D069A0F8459C","title":"陌生人火锅餐厅(虹口百联店)","lon":"121.468085","lat":"31.269598205","category":"500","category_name":"未知分类","address":"上海市虹口区同丰路699号虹口百联商厦4F"},{"poiid":"B2094757D06FA4FA4099","title":"北宝兴路洛川东路","lon":"121.465499","lat":"31.273287","category":"500","category_name":"未知分类","address":"上海北宝兴路洛川东路"},{"poiid":"B2094757D16DAAFC469A","title":"唐老鸭海味鲜大排档","lon":"121.465463903","lat":"31.2729590753","category":"68","category_name":"快餐厅","address":"闸北区北宝兴路191号(近同丰路)"},{"poiid":"B2094757D16CA5F4449D","title":"Imo Cafe 虹口百联店","lon":"121.468063103","lat":"31.2733204828","category":"113","category_name":"冷饮店","address":"虹口区同丰路699号百联虹口购物中心内(近北宝兴路)"},{"poiid":"B2094757D06AA6FD419B","title":"呷哺呷哺(百联虹口店)","lon":"121.466956103","lat":"31.2740574982","category":"247","category_name":"餐饮美食","address":"虹口区同丰路699号百联购物中心B1楼G48-FB1-1-106室"},{"poiid":"B2094757D069ABF9489B","title":"鼎中鼎澳门豆捞(北宝兴路店)","lon":"121.46598","lat":"31.27226","category":"86","category_name":"火锅店","address":"闸北区北宝兴路152号嘉利明珠城(洛川东路口)"},{"poiid":"B2094757D465ABFD499F","title":"一舟渔港","lon":"121.468116","lat":"31.27403","category":"75","category_name":"浙江菜","address":"虹口区同丰路699弄93-95号(南京银行旁)"},{"poiid":"B2094757D06FABFE489C","title":"花园城","lon":"121.47254871","lat":"31.272643459","category":"47","category_name":"住宅区","address":"上海虹口区花园路118弄"},{"poiid":"B2094655D265AAF54192","title":"木房子特色烤鱼 北宝兴路店","lon":"121.464176054","lat":"31.274371793","category":"71","category_name":"四川菜","address":"闸北区北宝兴路252号(近延长路)"},{"poiid":"B2094654D56DA5F94092","title":"上海市复旦大学附属公共卫生中心","lon":"121.47032","lat":"31.27245","category":"162","category_name":"医院","address":"虹口区水电路56号"},{"poiid":"B2094752D765A5F8499E","title":"段氏龙虾","lon":"121.468056","lat":"31.272816","category":"247","category_name":"餐饮美食","address":"北宝兴路170号"},{"poiid":"B2094757D66CA2FF499F","title":"味千拉面(百联虹口店)","lon":"121.465550103","lat":"31.2732004803","category":"95","category_name":"日本料理","address":"虹口区同丰路699号百联虹口购物中心"},{"poiid":"B2094757D065A6F8469D","title":"小杨生煎虹口百联店","lon":"121.465121503","lat":"31.2733471834","category":"68","category_name":"快餐厅","address":"虹口区同丰路699号虹口百联第一食品B1楼(近北宝兴路)"},{"poiid":"B2094757D06BA2FD4492","title":"99靓味馆","lon":"121.464987103","lat":"31.2732196807","category":"72","category_name":"广东菜","address":"虹口区同丰路699号百联购物中心4楼(近北宝兴路)"},{"poiid":"B2094757D069A0F8449E","title":"柳林公寓","lon":"121.46959","lat":"31.271997","category":"47","category_name":"住宅区","address":"上海市虹口区柳营路45弄"},{"poiid":"B2094757D469A6FE409C","title":"胡杨林烧烤吧","lon":"121.4656292","lat":"31.2731649","category":"68","category_name":"快餐厅","address":"虹口区北宝兴路155号(近洛川东路)"},{"poiid":"B2094757D16AA0FC489C","title":"爱茜茜里(百联虹口店)","lon":"121.46802182","lat":"31.2729135962","category":"67","category_name":"甜品店","address":"虹口区同丰路699号虹口百联第一食品1楼(北宝兴路洛川东路)"},{"poiid":"B2094757D06AA5F94298","title":"琪琪面馆","lon":"121.46451","lat":"31.27442","category":"68","category_name":"快餐厅","address":"闸北区北宝兴路296-298号(近延长路)"},{"poiid":"B2094757D064A2FC4692","title":"香汁源(虹口店)","lon":"121.467222803","lat":"31.2732929823","category":"71","category_name":"四川菜","address":"虹口区同丰路699号百联购物中心"},{"poiid":"B2094757DA6EABFE4898","title":"贝儿多爸爸泡芙工房(同丰路店)","lon":"121.467384000001","lat":"31.2734979999999","category":"67","category_name":"甜品店","address":"虹口区同丰路699号1楼(近北宝兴路)"},{"poiid":"B2094753D469A6F44793","title":"环球港","lon":"121.469902","lat":"31.273168","category":"500","category_name":"未知分类","address":"上海市 上海普陀区"},{"poiid":"B2094757D168A1F84998","title":"圆百爱(百联虹口店)","lon":"121.4670391","lat":"31.274051498","category":"111","category_name":"休闲餐饮场所","address":"虹口区同丰路699弄第一食品1楼(近洛川东路)"},{"poiid":"B2094757D165A3FD449D","title":"韩林碳烤","lon":"121.465628103","lat":"31.2726234683","category":"247","category_name":"餐饮美食","address":"上海虹口百联四楼"},{"poiid":"B2094750D664ABFC469E","title":"重庆周老大火锅","lon":"121.466","lat":"31.2729","category":"86","category_name":"火锅店","address":"闸北区北宝兴路174号(近洛川东路)"},{"poiid":"B209475CD268A7FE449B","title":"聚辣重庆麻辣火锅","lon":"121.466003","lat":"31.273103","category":"247","category_name":"餐饮美食","address":"上海市 北宝兴路152号"},{"poiid":"B2094757D16FA3F5469D","title":"一舟鱼港","lon":"121.467638103","lat":"31.2738424937","category":"247","category_name":"餐饮美食","address":"上海虹口区同丰路667弄93-95号世纪广场内"},{"poiid":"B2094757DA6EAAF5429A","title":"DQ冰雪皇后(百联虹口店)","lon":"121.467402999998","lat":"31.2736209999999","category":"113","category_name":"冷饮店","address":"虹口区同丰路699号百联虹口购物中心1楼(北宝兴路洛川东路)"},{"poiid":"B2094757D16CA0FE499A","title":"禾绿寿司(虹口百联店)","lon":"121.465366103","lat":"31.2735044867","category":"247","category_name":"餐饮美食","address":"上海同丰路699号"},{"poiid":"B2094752D468A1FF4898","title":"虹口龙之梦板长寿司","lon":"121.473176","lat":"31.273063","category":"247","category_name":"餐饮美食","address":null},{"poiid":"B2094654D56DA5F94199","title":"八字桥便民店","lon":"121.46918","lat":"31.27361","category":"117","category_name":"便民商店/便利店","address":""},{"poiid":"B2094655D265A3FF4093","title":"国大药房同丰路店","lon":"121.46792","lat":"31.2741","category":"162","category_name":"医院","address":"虹口区同丰路616号(近北宝兴路)"},{"poiid":"B2094757D16DA6FC4592","title":"食其家 百联虹口店","lon":"121.465132903","lat":"31.2733495834","category":"95","category_name":"日本料理","address":"虹口区同丰路699号百联虹口购物中心(北宝兴路洛川东路)"},{"poiid":"B2094757DB6EAAFD499F","title":"殡仪馆","lon":"121.467131","lat":"31.272409","category":"620","category_name":"丧葬","address":"闸北区西宝兴路833号(近黄山路)"},{"poiid":"B2094655D26CA0FC439E","title":"快客No.5191","lon":"121.4675","lat":"31.27356","category":"117","category_name":"便民商店/便利店","address":"同丰路662"},{"poiid":"B2094757D16BAAFA429A","title":"明光公寓","lon":"121.46792","lat":"31.272217","category":"47","category_name":"住宅区","address":"明光公寓位于虹口柳营路127号"},{"poiid":"B2094757D069A2F8489E","title":"少山咖啡","lon":"121.46724","lat":"31.26681","category":"260","category_name":"其他","address":"闸北区平型关路108弄6号(近柳营路)"},{"poiid":"B2094757D06BA5FD459C","title":"嘉丽明珠城","lon":"121.46936798","lat":"31.272251129","category":"47","category_name":"住宅区","address":"上海平型关路洛川东路口"},{"poiid":"B2094750D26AA0FA4893","title":"虹口百联辛香汇","lon":"121.467269","lat":"31.272779","category":"247","category_name":"餐饮美食","address":null}]