[{"poiid":"B2094757D06FA0FE439E","title":"马陆葡萄主题公园","lon":"121.31552641","lat":"31.380945212","category":"196","category_name":"公园","address":"嘉定区马陆镇大治路29号(近浏翔公路)"},{"poiid":"B2094757D16EAAF5459B","title":"嘉新小区","lon":"121.289644653","lat":"31.3927763534","category":"47","category_name":"住宅区","address":"上海市嘉定区嘉定·立新路"},{"poiid":"B2094757D168A1F5479C","title":"农家苑葡萄园","lon":"121.31988","lat":"31.39312","category":"260","category_name":"其他","address":"上海近郊嘉庆区马陆镇大裕村半项(近刘村路)  "},{"poiid":"B2094757D065ABFA4198","title":"嘉罗公路","lon":"121.303894043","lat":"31.4034557343","category":"500","category_name":"未知分类","address":"上海嘉罗公路"},{"poiid":"B2094757D168A5FC409E","title":"惠佳葡萄园艺场","lon":"121.31225585","lat":"31.385622024","category":"500","category_name":"未知分类","address":"嘉定区马陆镇大裕村张顾路2515号"},{"poiid":"B2094757D16DA1F84593","title":"迎园十坊","lon":"121.30446624","lat":"31.402484893","category":"500","category_name":"未知分类","address":"上海嘉定区宝嘉公路"},{"poiid":"B2094654D469A5F8429D","title":"易购超便利新翔徐王店","lon":"121.29625","lat":"31.39393","category":"117","category_name":"便民商店/便利店","address":""},{"poiid":"B2094757D06AA0FC419F","title":"华亭息园","lon":"121.29913","lat":"31.38922","category":"500","category_name":"未知分类","address":"上海近郊嘉定华亭镇浏翔公路7994号  "},{"poiid":"B2094757D164A7F94598","title":"太仓长青陵园","lon":"121.299215428","lat":"31.3974843996","category":"620","category_name":"丧葬","address":"上海太仓长青陵园"},{"poiid":"B2094757D66DA4FF409C","title":"红葡萄餐厅","lon":"121.31696365","lat":"31.379767087","category":"76","category_name":"上海菜","address":"嘉定区马陆镇大治路27A马陆葡萄主题公园内(浏翔公路)"},{"poiid":"B2094757D168A2F4469B","title":"浏翔公路","lon":"121.29881725","lat":"31.406279129","category":"500","category_name":"未知分类","address":"上海浏翔公路"},{"poiid":"B2094655D36CA6F54793","title":"大裕村","lon":"121.31537","lat":"31.38115","category":"38","category_name":"公交车站","address":""},{"poiid":"B2094752D76CA2FB4898","title":"罗宾森广场","lon":"121.299225","lat":"31.402649","category":"248","category_name":"生活娱乐","address":"城中路"},{"poiid":"B2094654D469A0FA429B","title":"紫薇星理疗健康服务站","lon":"121.31488","lat":"31.40844","category":"162","category_name":"医院","address":"嘉罗路12号桥"},{"poiid":"B2094655D36CA0FA469F","title":"嘉旺路立业路","lon":"121.29265","lat":"31.38671","category":"38","category_name":"公交车站","address":""},{"poiid":"B2094655D264A2FC479E","title":"新12号桥","lon":"121.3156","lat":"31.40837","category":"250","category_name":"公园户外","address":""},{"poiid":"B2094757D16BA1F9439F","title":"立新便民餐厅","lon":"121.292025653","lat":"31.3862242195","category":"500","category_name":"未知分类","address":"上海市嘉定区嘉定·立新路"},{"poiid":"B2094655D36DA1FA4099","title":"腾家浜桥","lon":"121.29115","lat":"31.39521","category":"250","category_name":"公园户外","address":""},{"poiid":"B2094757D065A0F54799","title":"宝山区民兵训练基地","lon":"121.327846","lat":"31.388912","category":"500","category_name":"未知分类","address":"上海张墅一路"},{"poiid":"B2094757D164A2FC4992","title":"马陆葡萄交易市场","lon":"121.30273455","lat":"31.377431639","category":"500","category_name":"未知分类","address":"嘉定区马陆镇"},{"poiid":"B2094654D469A0FB409D","title":"上海沪嘉经济城(嘉戬公路)","lon":"121.29592","lat":"31.37973","category":"45","category_name":"产业园区","address":""},{"poiid":"B2094757D66CA0F84793","title":"鑫意农家乐","lon":"121.30147188","lat":"31.412585808","category":"247","category_name":"餐饮美食","address":"上海嘉定区北支路8号"},{"poiid":"B2094655D36CA0FA459B","title":"嘉戬公路立业路","lon":"121.29522","lat":"31.38111","category":"38","category_name":"公交车站","address":""},{"poiid":"B2094654D469A5F8469D","title":"上海保捷汽车零部件锻压有限公司正火车间","lon":"121.32341","lat":"31.4058","category":"263","category_name":"公司","address":"联杨路660号"},{"poiid":"B2094654D469A5F9429E","title":"上海市宝山县张士综合厂","lon":"121.32776","lat":"31.38941","category":"263","category_name":"公司","address":"联杨路3606弄117"},{"poiid":"B2094654D469A6FD4893","title":"嘉定高能电工职业技能培训中心","lon":"121.30179","lat":"31.37767","category":"190","category_name":"培训机构","address":"大治东路328"},{"poiid":"B2094757D16DA2F9419F","title":"CoCo都可茶饮(城中店)","lon":"121.31953917","lat":"31.377849548","category":"500","category_name":"未知分类","address":"上海嘉定区嘉定镇城中路22-2号"},{"poiid":"B2094654D469A6FD499A","title":"上海梵骋电力科技有限公司","lon":"121.30178","lat":"31.37766","category":"263","category_name":"公司","address":"大治东路328"}]