[{"poiid":"B2094757D16DA7FA459F","title":"浦东新区大团镇","lon":"121.739478128","lat":"30.9729776601","category":"500","category_name":"未知分类","address":"上海浦东新区大团镇"},{"poiid":"B2094654DB64AAFD499A","title":"大团桃园","lon":"121.74049","lat":"30.98645","category":"205","category_name":"采摘园","address":"上海市浦东新区南汇大团镇赵桥村888号"},{"poiid":"B2094654DB68A2F4429A","title":"上海东湖临港大酒店","lon":"121.73597","lat":"30.96562","category":"260","category_name":"其他","address":"浦东新区大团镇南芦公路888号(南芦公路永春南路)"},{"poiid":"B2094757D069A7FB479C","title":"花王人家","lon":"121.734222","lat":"30.967409","category":"76","category_name":"上海菜","address":"浦东新区南芦公路夏家村858号"},{"poiid":"B2094655D36CA4FE4099","title":"爱家新城","lon":"121.75229","lat":"30.97403","category":"47","category_name":"住宅区","address":"永旺路258弄1～16号"},{"poiid":"B2094757D66DA3F44692","title":"上岛咖啡","lon":"121.744458628","lat":"30.9714956261","category":"65","category_name":"咖啡厅","address":"浦东新区大团镇永春东路36号"},{"poiid":"B2094655D36CA2FA459E","title":"三墩镇","lon":"121.75541","lat":"30.99243","category":"38","category_name":"公交车站","address":""},{"poiid":"B2094757D465A1F8479E","title":"团一舫","lon":"121.7449","lat":"30.97314","category":"76","category_name":"上海菜","address":"浦东新区南汇大团镇永春东路39号(近永春东路)"},{"poiid":"B2094655D26BA1FE489A","title":"南团公路东大公路","lon":"121.75652","lat":"30.98623","category":"38","category_name":"公交车站","address":""},{"poiid":"B2094654DB64AAFD459E","title":"金团公园","lon":"121.75308","lat":"30.97611","category":"196","category_name":"公园","address":""},{"poiid":"B2094655D36CA6F5499D","title":"大团镇","lon":"121.73864","lat":"30.97023","category":"38","category_name":"公交车站","address":"上海南芦公路"},{"poiid":"B2094654DB68A2F4449B","title":"军民新村","lon":"121.74622","lat":"30.972281","category":"47","category_name":"住宅区","address":"新场镇军民新村"},{"poiid":"B2094655D26EABF54692","title":"大团笙安幼儿园","lon":"121.75096","lat":"30.97228","category":"57","category_name":"幼儿园","address":""},{"poiid":"B2094655D264A5FF429E","title":"五谷农家菜","lon":"121.74839","lat":"30.97059","category":"257","category_name":"中餐厅","address":"永晖路59号"},{"poiid":"B2094654DB69A0F4439E","title":"大团镇小学","lon":"121.74079","lat":"30.97261","category":"56","category_name":"小学","address":"浦东新区大团镇永春东路70号(永春东路永定北路)"},{"poiid":"B2094655D26BA0F54998","title":"定慧禅院","lon":"121.73585","lat":"30.97549","category":"244","category_name":"寺庙道观","address":"浦东新区大团永春西二路112号"},{"poiid":"B2094654DB65A6FC409D","title":"百味林(大团镇二店)","lon":"121.739585","lat":"30.972633","category":"648","category_name":"零食","address":"浦东新区大团镇永春东路83号"},{"poiid":"B2094654DB68A2F4479C","title":"小辣椒火锅城","lon":"121.73903","lat":"30.97294","category":"86","category_name":"火锅店","address":""},{"poiid":"B2094751D36DA3F4469D","title":"星田农家访","lon":"121.75669","lat":"30.9866","category":"76","category_name":"上海菜","address":"浦东新区大团镇南团公路1898号(近东大公路)"},{"poiid":"B2094655D36CA6F5499C","title":"大团镇(永春中路)","lon":"121.73855","lat":"30.97116","category":"38","category_name":"公交车站","address":""},{"poiid":"B2094654DB68A2FB4098","title":"新华书店(永春中路)","lon":"121.73888","lat":"30.97303","category":"125","category_name":"书店","address":"永春路138号"},{"poiid":"B2094654DB68A2F44599","title":"大团派出所","lon":"121.74798","lat":"30.97076","category":"609","category_name":"警察局","address":"南汇区大团镇永春路8号"},{"poiid":"B2094655D26BA1FE489B","title":"南团公路南大公路","lon":"121.74816","lat":"30.96871","category":"38","category_name":"公交车站","address":""},{"poiid":"B2094654DB69A6F94098","title":"大团医院","lon":"121.7405","lat":"30.96738","category":"162","category_name":"医院","address":"南汇区大团镇永定南路169号"},{"poiid":"B2094757D065AAFD4593","title":"东大公路","lon":"121.736697947","lat":"30.9820357902","category":"500","category_name":"未知分类","address":"上海市浦东新区东大公路"},{"poiid":"B2094750D26CA2FD419C","title":"奉城医院","lon":"121.735759","lat":"30.972803","category":"162","category_name":"医院","address":null},{"poiid":"B2094654DB68A1FC439F","title":"南湾新村","lon":"121.73803","lat":"30.96934","category":"47","category_name":"住宅区","address":""},{"poiid":"B2094654DB64AAFD459F","title":"芦洋花园","lon":"121.7356","lat":"30.973581","category":"47","category_name":"住宅区","address":"永春西一路169弄"},{"poiid":"B2094654DB68A2F44693","title":"华泰蟠龙角药店","lon":"121.73954","lat":"30.97346","category":"669","category_name":"药店","address":"大团镇"},{"poiid":"B2094655D265A0F4429E","title":"克莉丝汀(大团店)","lon":"121.738","lat":"30.96935","category":"112","category_name":"糕饼店","address":"浦东新区南三支路南湾新村17号(近永春东路)"},{"poiid":"B2094655D26BA1FF4493","title":"南芦公路永春南路","lon":"121.73883","lat":"30.9692","category":"38","category_name":"公交车站","address":""},{"poiid":"B2094654DB68A2F44699","title":"上海市大团高级中学","lon":"121.74992","lat":"30.96061","category":"55","category_name":"中学","address":"浦东新区南芦公路999号(近沪南公路)"},{"poiid":"B2094654DB68A2FB4099","title":"大团镇初级中学","lon":"121.74075","lat":"30.9677","category":"55","category_name":"中学","address":"浦东新区大团镇永定南路304弄20号(永定北路永定南路)"},{"poiid":"B2094655D36CA6F5499E","title":"大团镇(永晖路)","lon":"121.73813","lat":"30.96731","category":"38","category_name":"公交车站","address":""},{"poiid":"B2094654DB64A0F54193","title":"大团镇社区卫生服务中心","lon":"121.74023","lat":"30.96775","category":"162","category_name":"医院","address":""},{"poiid":"B2094655D26BA1FE4898","title":"南团公路南芦公路","lon":"121.74602","lat":"30.963","category":"38","category_name":"公交车站","address":""},{"poiid":"B2094654DB68A2F44492","title":"大团邮政支局","lon":"121.73833","lat":"30.97244","category":"248","category_name":"生活娱乐","address":"大团镇永春中路169号"},{"poiid":"B2094757D465A1FE459B","title":"敦煌农家乐","lon":"121.7529436","lat":"30.9938394","category":"76","category_name":"上海菜","address":"浦东新区三墩镇三宣公路401-403号"},{"poiid":"B2094654DB64A0F5429D","title":"中国建设银行上海大团支行","lon":"121.73817","lat":"30.96976","category":"150","category_name":"银行","address":"浦东新区大团镇南湾新村18号101室(永春南路永宁东路)"},{"poiid":"B2094655D36DA7FF419D","title":"镇南","lon":"121.73862","lat":"30.96671","category":"38","category_name":"公交车站","address":""},{"poiid":"B2094757D165ABFB419B","title":"南芦公路永春南路站(龙港线,龙大线,南大线,南闵线,航泥线)","lon":"121.737630897","lat":"30.965863687","category":"38","category_name":"公交车站","address":"上海市浦东新区南芦公路永春南路"},{"poiid":"B2094757DB6EABFC429F","title":"上海临港大酒店","lon":"121.736342","lat":"30.966098","category":"214","category_name":"四星级宾馆","address":"上海市浦东新区南汇大团镇南芦路888号(近S2新四平公路出口处)"},{"poiid":"B2094654DB68A2F4489B","title":"海港商务楼","lon":"121.73713","lat":"30.96637","category":"46","category_name":"楼宇","address":"南芦公路899号"},{"poiid":"B2094654DB68A1FD4298","title":"上海莲城百货商场","lon":"121.7563","lat":"30.99229","category":"119","category_name":"商场","address":""},{"poiid":"B2094655D36CA2FA4599","title":"三墩","lon":"121.75363","lat":"30.9935","category":"38","category_name":"公交车站","address":""},{"poiid":"B2094655D36CA2FB439F","title":"三宣公路三墩","lon":"121.75451","lat":"30.99296","category":"38","category_name":"公交车站","address":""},{"poiid":"B2094654DB64A0F5409A","title":"三墩中学","lon":"121.75423","lat":"30.99288","category":"55","category_name":"中学","address":""},{"poiid":"B2094655D26BA1FE4899","title":"南团公路三三公路","lon":"121.75975","lat":"30.99085","category":"38","category_name":"公交车站","address":""},{"poiid":"B2094654DB65A7F8469B","title":"百味林(三墩镇店)","lon":"121.75924","lat":"30.99019","category":"648","category_name":"零食","address":"浦东新区三墩镇三宣公路365号"},{"poiid":"B2094654DB68A2FA489D","title":"三墩花苑","lon":"121.75381","lat":"30.99313","category":"47","category_name":"住宅区","address":"三宣公路397弄"},{"poiid":"B2094757D16DA7FA459F","title":"浦东新区大团镇","lon":"121.739478128","lat":"30.9729776601","category":"500","category_name":"未知分类","address":"上海浦东新区大团镇"},{"poiid":"B2094654DB64AAFD499A","title":"大团桃园","lon":"121.74049","lat":"30.98645","category":"205","category_name":"采摘园","address":"上海市浦东新区南汇大团镇赵桥村888号"},{"poiid":"B2094654DB68A2F4429A","title":"上海东湖临港大酒店","lon":"121.73597","lat":"30.96562","category":"260","category_name":"其他","address":"浦东新区大团镇南芦公路888号(南芦公路永春南路)"},{"poiid":"B2094757D069A7FB479C","title":"花王人家","lon":"121.734222","lat":"30.967409","category":"76","category_name":"上海菜","address":"浦东新区南芦公路夏家村858号"},{"poiid":"B2094655D36CA4FE4099","title":"爱家新城","lon":"121.75229","lat":"30.97403","category":"47","category_name":"住宅区","address":"永旺路258弄1～16号"},{"poiid":"B2094757D66DA3F44692","title":"上岛咖啡","lon":"121.744458628","lat":"30.9714956261","category":"65","category_name":"咖啡厅","address":"浦东新区大团镇永春东路36号"},{"poiid":"B2094655D36CA2FA459E","title":"三墩镇","lon":"121.75541","lat":"30.99243","category":"38","category_name":"公交车站","address":""},{"poiid":"B2094757D465A1F8479E","title":"团一舫","lon":"121.7449","lat":"30.97314","category":"76","category_name":"上海菜","address":"浦东新区南汇大团镇永春东路39号(近永春东路)"},{"poiid":"B2094655D26BA1FE489A","title":"南团公路东大公路","lon":"121.75652","lat":"30.98623","category":"38","category_name":"公交车站","address":""},{"poiid":"B2094654DB64AAFD459E","title":"金团公园","lon":"121.75308","lat":"30.97611","category":"196","category_name":"公园","address":""},{"poiid":"B2094655D36CA6F5499D","title":"大团镇","lon":"121.73864","lat":"30.97023","category":"38","category_name":"公交车站","address":"上海南芦公路"},{"poiid":"B2094654DB68A2F4449B","title":"军民新村","lon":"121.74622","lat":"30.972281","category":"47","category_name":"住宅区","address":"新场镇军民新村"},{"poiid":"B2094655D26EABF54692","title":"大团笙安幼儿园","lon":"121.75096","lat":"30.97228","category":"57","category_name":"幼儿园","address":""},{"poiid":"B2094655D264A5FF429E","title":"五谷农家菜","lon":"121.74839","lat":"30.97059","category":"257","category_name":"中餐厅","address":"永晖路59号"},{"poiid":"B2094654DB69A0F4439E","title":"大团镇小学","lon":"121.74079","lat":"30.97261","category":"56","category_name":"小学","address":"浦东新区大团镇永春东路70号(永春东路永定北路)"},{"poiid":"B2094655D26BA0F54998","title":"定慧禅院","lon":"121.73585","lat":"30.97549","category":"244","category_name":"寺庙道观","address":"浦东新区大团永春西二路112号"},{"poiid":"B2094654DB65A6FC409D","title":"百味林(大团镇二店)","lon":"121.739585","lat":"30.972633","category":"648","category_name":"零食","address":"浦东新区大团镇永春东路83号"},{"poiid":"B2094654DB68A2F4479C","title":"小辣椒火锅城","lon":"121.73903","lat":"30.97294","category":"86","category_name":"火锅店","address":""},{"poiid":"B2094751D36DA3F4469D","title":"星田农家访","lon":"121.75669","lat":"30.9866","category":"76","category_name":"上海菜","address":"浦东新区大团镇南团公路1898号(近东大公路)"},{"poiid":"B2094655D36CA6F5499C","title":"大团镇(永春中路)","lon":"121.73855","lat":"30.97116","category":"38","category_name":"公交车站","address":""},{"poiid":"B2094654DB68A2FB4098","title":"新华书店(永春中路)","lon":"121.73888","lat":"30.97303","category":"125","category_name":"书店","address":"永春路138号"},{"poiid":"B2094654DB68A2F44599","title":"大团派出所","lon":"121.74798","lat":"30.97076","category":"609","category_name":"警察局","address":"南汇区大团镇永春路8号"},{"poiid":"B2094655D26BA1FE489B","title":"南团公路南大公路","lon":"121.74816","lat":"30.96871","category":"38","category_name":"公交车站","address":""},{"poiid":"B2094654DB69A6F94098","title":"大团医院","lon":"121.7405","lat":"30.96738","category":"162","category_name":"医院","address":"南汇区大团镇永定南路169号"},{"poiid":"B2094757D065AAFD4593","title":"东大公路","lon":"121.736697947","lat":"30.9820357902","category":"500","category_name":"未知分类","address":"上海市浦东新区东大公路"},{"poiid":"B2094750D26CA2FD419C","title":"奉城医院","lon":"121.735759","lat":"30.972803","category":"162","category_name":"医院","address":null},{"poiid":"B2094654DB68A1FC439F","title":"南湾新村","lon":"121.73803","lat":"30.96934","category":"47","category_name":"住宅区","address":""},{"poiid":"B2094654DB64AAFD459F","title":"芦洋花园","lon":"121.7356","lat":"30.973581","category":"47","category_name":"住宅区","address":"永春西一路169弄"},{"poiid":"B2094654DB68A2F44693","title":"华泰蟠龙角药店","lon":"121.73954","lat":"30.97346","category":"669","category_name":"药店","address":"大团镇"},{"poiid":"B2094655D265A0F4429E","title":"克莉丝汀(大团店)","lon":"121.738","lat":"30.96935","category":"112","category_name":"糕饼店","address":"浦东新区南三支路南湾新村17号(近永春东路)"},{"poiid":"B2094655D26BA1FF4493","title":"南芦公路永春南路","lon":"121.73883","lat":"30.9692","category":"38","category_name":"公交车站","address":""},{"poiid":"B2094654DB68A2F44699","title":"上海市大团高级中学","lon":"121.74992","lat":"30.96061","category":"55","category_name":"中学","address":"浦东新区南芦公路999号(近沪南公路)"},{"poiid":"B2094654DB68A2FB4099","title":"大团镇初级中学","lon":"121.74075","lat":"30.9677","category":"55","category_name":"中学","address":"浦东新区大团镇永定南路304弄20号(永定北路永定南路)"},{"poiid":"B2094655D36CA6F5499E","title":"大团镇(永晖路)","lon":"121.73813","lat":"30.96731","category":"38","category_name":"公交车站","address":""},{"poiid":"B2094654DB64A0F54193","title":"大团镇社区卫生服务中心","lon":"121.74023","lat":"30.96775","category":"162","category_name":"医院","address":""},{"poiid":"B2094655D26BA1FE4898","title":"南团公路南芦公路","lon":"121.74602","lat":"30.963","category":"38","category_name":"公交车站","address":""},{"poiid":"B2094654DB68A2F44492","title":"大团邮政支局","lon":"121.73833","lat":"30.97244","category":"248","category_name":"生活娱乐","address":"大团镇永春中路169号"},{"poiid":"B2094757D465A1FE459B","title":"敦煌农家乐","lon":"121.7529436","lat":"30.9938394","category":"76","category_name":"上海菜","address":"浦东新区三墩镇三宣公路401-403号"},{"poiid":"B2094654DB64A0F5429D","title":"中国建设银行上海大团支行","lon":"121.73817","lat":"30.96976","category":"150","category_name":"银行","address":"浦东新区大团镇南湾新村18号101室(永春南路永宁东路)"},{"poiid":"B2094655D36DA7FF419D","title":"镇南","lon":"121.73862","lat":"30.96671","category":"38","category_name":"公交车站","address":""},{"poiid":"B2094757D165ABFB419B","title":"南芦公路永春南路站(龙港线,龙大线,南大线,南闵线,航泥线)","lon":"121.737630897","lat":"30.965863687","category":"38","category_name":"公交车站","address":"上海市浦东新区南芦公路永春南路"},{"poiid":"B2094757DB6EABFC429F","title":"上海临港大酒店","lon":"121.736342","lat":"30.966098","category":"214","category_name":"四星级宾馆","address":"上海市浦东新区南汇大团镇南芦路888号(近S2新四平公路出口处)"},{"poiid":"B2094654DB68A2F4489B","title":"海港商务楼","lon":"121.73713","lat":"30.96637","category":"46","category_name":"楼宇","address":"南芦公路899号"},{"poiid":"B2094654DB68A1FD4298","title":"上海莲城百货商场","lon":"121.7563","lat":"30.99229","category":"119","category_name":"商场","address":""},{"poiid":"B2094655D36CA2FA4599","title":"三墩","lon":"121.75363","lat":"30.9935","category":"38","category_name":"公交车站","address":""},{"poiid":"B2094655D36CA2FB439F","title":"三宣公路三墩","lon":"121.75451","lat":"30.99296","category":"38","category_name":"公交车站","address":""},{"poiid":"B2094654DB64A0F5409A","title":"三墩中学","lon":"121.75423","lat":"30.99288","category":"55","category_name":"中学","address":""},{"poiid":"B2094655D26BA1FE4899","title":"南团公路三三公路","lon":"121.75975","lat":"30.99085","category":"38","category_name":"公交车站","address":""},{"poiid":"B2094654DB65A7F8469B","title":"百味林(三墩镇店)","lon":"121.75924","lat":"30.99019","category":"648","category_name":"零食","address":"浦东新区三墩镇三宣公路365号"},{"poiid":"B2094654DB68A2FA489D","title":"三墩花苑","lon":"121.75381","lat":"30.99313","category":"47","category_name":"住宅区","address":"三宣公路397弄"}]