[{"poiid":"B2094654DA6DA4FF439A","title":"上海绿地徐汇","lon":"121.4599","lat":"31.18599","category":"159","category_name":"汽车维修","address":"船厂路185号"},{"poiid":"B209475CD76CA3F8459F","title":"maan coffee漫咖啡","lon":"121.458557","lat":"31.186952","category":"500","category_name":"未知分类","address":"上海市 中山南二路699号正大乐城2楼(近东安路)"},{"poiid":"B2094757D06FA6FD489C","title":"上海市建筑建材业行政管理服务中心","lon":"121.463631","lat":"31.189351","category":"46","category_name":"楼宇","address":"上海小木桥路683号"},{"poiid":"B2094753D165A3F8459E","title":"查理布朗咖啡馆正大乐城店","lon":"121.458608","lat":"31.186094","category":"65","category_name":"咖啡厅","address":"上海市 东安路599号 正大乐城6-101-1号"},{"poiid":"B2094757D06FA4FC419C","title":"上海外经大厦","lon":"121.463529","lat":"31.189459","category":"46","category_name":"楼宇","address":"上海徐汇区小木桥路681号"},{"poiid":"B2094753DB69A7FF439B","title":"翠華餐廳（正大樂城店）","lon":"121.463157","lat":"31.184999","category":"500","category_name":"未知分类","address":"上海市 上海徐匯區中山南二路"},{"poiid":"B2094654DA6DA5F94398","title":"中粮大厦","lon":"121.46189","lat":"31.19029","category":"46","category_name":"楼宇","address":"北一环与亳州路交叉口(庐阳区政府对面)"},{"poiid":"B2094757D06FA6FC469A","title":"卜蜂莲花(船厂路店)","lon":"121.45965576","lat":"31.18546145","category":"118","category_name":"超级市场","address":"徐汇区船厂路178号(近中山南二路)"},{"poiid":"B2094757D06FA4FF4393","title":"泡椒同学","lon":"121.45728","lat":"31.19275","category":"71","category_name":"四川菜","address":"上海徐汇区枫林路331号(近零陵路)"},{"poiid":"B2094753D664A3FD469E","title":"正大乐城","lon":"121.458213","lat":"31.186937","category":"170","category_name":"KTV","address":"上海市 东安路中山南二路"},{"poiid":"B2094757D068A2FA4599","title":"上海市机动车物损交通事故保险理赔服务中心绿地分中心","lon":"121.460469","lat":"31.185364","category":"500","category_name":"未知分类","address":"上海市徐汇区船厂路185号"},{"poiid":"B2094757D068A7FD4599","title":"福岛第一核电站三号机组","lon":"121.46172857","lat":"31.190548563","category":"260","category_name":"其他","address":"日本福岛县"},{"poiid":"B2094757D06FA3FD4192","title":"船厂路地铁站","lon":"121.46025679","lat":"31.185244349","category":"36","category_name":"地铁站","address":"上海轨道交通 七号线 轨交船厂路站 7"},{"poiid":"B2094655D26AA0F44799","title":"新偶像艺术学校","lon":"121.46105","lat":"31.18889","category":"247","category_name":"餐饮美食","address":"徐汇区中山南二路555号冠霖大楼4127室(近大木桥路)"},{"poiid":"B2094757D069A0F84793","title":"斯柯达4s店","lon":"121.460461","lat":"31.188615","category":"500","category_name":"未知分类","address":"上海中山南二路555号"},{"poiid":"B2094757D06BA6FF469E","title":"船厂路中山南二路","lon":"121.459764","lat":"31.18839","category":"500","category_name":"未知分类","address":"上海船厂路中山南二路"},{"poiid":"B2094757D06FA6F5409B","title":"黄毛烧烤(零陵店)","lon":"121.45999908","lat":"31.19260025","category":"269","category_name":"烧烤","address":"徐汇区零陵路231号(小木桥路口)"},{"poiid":"B2094655D36DA7F8469F","title":"中山南二路大木桥路","lon":"121.4641","lat":"31.19151","category":"38","category_name":"公交车站","address":""},{"poiid":"B2094655D36DA1F54498","title":"小木桥路中山南二路","lon":"121.4611","lat":"31.19248","category":"38","category_name":"公交车站","address":""},{"poiid":"B2094750D26FA0F44898","title":"上海绿地中心","lon":"121.460937","lat":"31.186069","category":"252","category_name":"楼宇机构","address":"徐汇区 船厂路东安路"},{"poiid":"B2094654DA6DA4FE449F","title":"冠霖商务楼","lon":"121.46105","lat":"31.18889","category":"46","category_name":"楼宇","address":"中山南二路555号"},{"poiid":"B2094654DA6DA4FE4099","title":"良友金伴No.393(中山南二路)","lon":"121.46193","lat":"31.18959","category":"117","category_name":"便民商店/便利店","address":"徐汇区中山南二路481号(近小木桥路)"},{"poiid":"B2094655D268A4FC489D","title":"上海电子信息职业技术学院徐汇校区(东门)","lon":"121.45886","lat":"31.18878","category":"52","category_name":"高等院校","address":""},{"poiid":"B2094750D26FA5FA4093","title":"dancespace_吾秀文化","lon":"121.46113026222","lat":"31.188705252005","category":"606","category_name":"社区服务","address":"中山南二路555号冠霖大楼404"},{"poiid":"B2094655D264A1FE4192","title":"上海市徐汇区枫安菜市场","lon":"121.46133","lat":"31.18975","category":"117","category_name":"便民商店/便利店","address":"中山南二路450、450-1临"},{"poiid":"B2094654DB6BA5F44093","title":"上海为波宾馆凯地店","lon":"121.46143","lat":"31.19069","category":"250","category_name":"公园户外","address":"上海市徐汇区小木桥路604号(近中山南二路)"},{"poiid":"B2094757D16DA1FD4898","title":"海珀旭晖","lon":"121.462925","lat":"31.192106","category":"500","category_name":"未知分类","address":"徐汇区东安路800号"},{"poiid":"B2094753DB6AA5F4499E","title":"Wagas（正大乐城）","lon":"121.461524","lat":"31.187013","category":"500","category_name":"未知分类","address":"上海市 船厂路180号"},{"poiid":"B2094753D769A1F54499","title":"茶马颐苑","lon":"121.45903","lat":"31.186122","category":"47","category_name":"住宅区","address":"上海市 上海市徐汇区东安路598号绿地中心正大乐城2楼"},{"poiid":"B2094757D16CA2F8479A","title":"零陵路小木桥路","lon":"121.462027138","lat":"31.193420016","category":"500","category_name":"未知分类","address":"上海零陵路小木桥路"},{"poiid":"B2094753D664AAFB479D","title":"green vege cafe","lon":"121.460998","lat":"31.189102","category":"500","category_name":"未知分类","address":"上海市 徐汇区中山南二路699号3F"},{"poiid":"B2094655D268A5F4489D","title":"上海南亚职业技术培训学校(南门)","lon":"121.4603","lat":"31.18909","category":"678","category_name":"学校大门","address":"中山南二路530"},{"poiid":"B2094654DA6DA5F94892","title":"上海市工业技术学校(中山南二路)","lon":"121.45996","lat":"31.18919","category":"54","category_name":"职业技术学校","address":"中山南二路530"},{"poiid":"B2094655D264A7FA459B","title":"上海大众汽车斯柯达交运起成","lon":"121.46057","lat":"31.18868","category":"158","category_name":"汽车销售","address":""},{"poiid":"B2094655D268A5F44899","title":"上海工艺美术职业学院徐汇二分院(南门)","lon":"121.46028","lat":"31.18909","category":"52","category_name":"高等院校","address":"中山南二路530"},{"poiid":"B2094757D06BA0FD479A","title":"上海中医药大学零陵路校区","lon":"121.460261","lat":"31.189074","category":"500","category_name":"未知分类","address":"上海市东安路530号"},{"poiid":"B2094655D268A5F44898","title":"上海市轻工业学校(南门)","lon":"121.46024","lat":"31.18907","category":"678","category_name":"学校大门","address":"中山南二路530"},{"poiid":"B2094655D268A5F84098","title":"上海市工业技术学校南门(中山南二路)","lon":"121.46023","lat":"31.18906","category":"54","category_name":"职业技术学校","address":"中山南二路530"},{"poiid":"B2094757D16BA0F9489D","title":"檬舒舒~大悦城","lon":"121.462419738","lat":"31.1892724278","category":"500","category_name":"未知分类","address":"上海大悦城一楼中庭"},{"poiid":"B2094654DA6DA4FE409E","title":"上海良菱配销有限公司","lon":"121.46192","lat":"31.18947","category":"263","category_name":"公司","address":"中山南二路481"},{"poiid":"B2094757D465A0F44799","title":"风调雨顺土菜馆 小木桥路店","lon":"121.46067545609","lat":"31.193509137011","category":"77","category_name":"湖南菜","address":"徐汇区小木桥路458号(近零陵路)"},{"poiid":"B2094655D26AA0F4479C","title":"LilyDanceCenter","lon":"121.46033","lat":"31.18855","category":"247","category_name":"餐饮美食","address":"徐汇区中山南二路555号冠霖大楼4楼(近大木桥路)"},{"poiid":"B2094757D16DA1FA419B","title":"船长烧烤","lon":"121.45977673","lat":"31.187683393","category":"68","category_name":"快餐厅","address":"徐汇区船厂路178号卜蜂莲花超市旁(近龙华中路)"},{"poiid":"B2094654DA6DA5F94293","title":"徐汇新湖云庭(2号门)","lon":"121.4615","lat":"31.191","category":"47","category_name":"住宅区","address":""},{"poiid":"B2094757D66DA1FA499B","title":"漕溪北路中山南二路","lon":"121.46183073","lat":"31.189830439","category":"500","category_name":"未知分类","address":"上海漕溪北路中山南二路"},{"poiid":"B2094750D26CA2FA4898","title":"徐汇滨江 west bank","lon":"121.465913885","lat":"31.19017502","category":"47","category_name":"住宅区","address":null},{"poiid":"B2094654DA6DA5F9489D","title":"上海工艺美术职业学院徐汇二分院","lon":"121.45996","lat":"31.18918","category":"52","category_name":"高等院校","address":"中山南二路530"},{"poiid":"B2094655D26FA4F4499A","title":"中粮大厦(南门)","lon":"121.4617","lat":"31.19005","category":"48","category_name":"楼宇大门","address":"中山南二路440号"},{"poiid":"B2094757D66EA2FF479E","title":"全方位图文","lon":"121.46233853","lat":"31.18893762","category":"500","category_name":"未知分类","address":"上海中山南二路小木桥路"},{"poiid":"B2094757D16DA1F8419F","title":"我爱我家","lon":"121.46207573","lat":"31.190013443","category":"500","category_name":"未知分类","address":"徐汇区文定路200号盛源大地1楼A05室(近蒲汇塘路)"},{"poiid":"B2094654DA6DA4FF439A","title":"上海绿地徐汇","lon":"121.4599","lat":"31.18599","category":"159","category_name":"汽车维修","address":"船厂路185号"},{"poiid":"B209475CD76CA3F8459F","title":"maan coffee漫咖啡","lon":"121.458557","lat":"31.186952","category":"500","category_name":"未知分类","address":"上海市 中山南二路699号正大乐城2楼(近东安路)"},{"poiid":"B2094757D06FA6FD489C","title":"上海市建筑建材业行政管理服务中心","lon":"121.463631","lat":"31.189351","category":"46","category_name":"楼宇","address":"上海小木桥路683号"},{"poiid":"B2094753D165A3F8459E","title":"查理布朗咖啡馆正大乐城店","lon":"121.458608","lat":"31.186094","category":"65","category_name":"咖啡厅","address":"上海市 东安路599号 正大乐城6-101-1号"},{"poiid":"B2094757D06FA4FC419C","title":"上海外经大厦","lon":"121.463529","lat":"31.189459","category":"46","category_name":"楼宇","address":"上海徐汇区小木桥路681号"},{"poiid":"B2094753DB69A7FF439B","title":"翠華餐廳（正大樂城店）","lon":"121.463157","lat":"31.184999","category":"500","category_name":"未知分类","address":"上海市 上海徐匯區中山南二路"},{"poiid":"B2094654DA6DA5F94398","title":"中粮大厦","lon":"121.46189","lat":"31.19029","category":"46","category_name":"楼宇","address":"北一环与亳州路交叉口(庐阳区政府对面)"},{"poiid":"B2094757D06FA6FC469A","title":"卜蜂莲花(船厂路店)","lon":"121.45965576","lat":"31.18546145","category":"118","category_name":"超级市场","address":"徐汇区船厂路178号(近中山南二路)"},{"poiid":"B2094757D06FA4FF4393","title":"泡椒同学","lon":"121.45728","lat":"31.19275","category":"71","category_name":"四川菜","address":"上海徐汇区枫林路331号(近零陵路)"},{"poiid":"B2094753D664A3FD469E","title":"正大乐城","lon":"121.458213","lat":"31.186937","category":"170","category_name":"KTV","address":"上海市 东安路中山南二路"},{"poiid":"B2094757D068A2FA4599","title":"上海市机动车物损交通事故保险理赔服务中心绿地分中心","lon":"121.460469","lat":"31.185364","category":"500","category_name":"未知分类","address":"上海市徐汇区船厂路185号"},{"poiid":"B2094757D068A7FD4599","title":"福岛第一核电站三号机组","lon":"121.46172857","lat":"31.190548563","category":"260","category_name":"其他","address":"日本福岛县"},{"poiid":"B2094757D06FA3FD4192","title":"船厂路地铁站","lon":"121.46025679","lat":"31.185244349","category":"36","category_name":"地铁站","address":"上海轨道交通 七号线 轨交船厂路站 7"},{"poiid":"B2094655D26AA0F44799","title":"新偶像艺术学校","lon":"121.46105","lat":"31.18889","category":"247","category_name":"餐饮美食","address":"徐汇区中山南二路555号冠霖大楼4127室(近大木桥路)"},{"poiid":"B2094757D069A0F84793","title":"斯柯达4s店","lon":"121.460461","lat":"31.188615","category":"500","category_name":"未知分类","address":"上海中山南二路555号"},{"poiid":"B2094757D06BA6FF469E","title":"船厂路中山南二路","lon":"121.459764","lat":"31.18839","category":"500","category_name":"未知分类","address":"上海船厂路中山南二路"},{"poiid":"B2094757D06FA6F5409B","title":"黄毛烧烤(零陵店)","lon":"121.45999908","lat":"31.19260025","category":"269","category_name":"烧烤","address":"徐汇区零陵路231号(小木桥路口)"},{"poiid":"B2094655D36DA7F8469F","title":"中山南二路大木桥路","lon":"121.4641","lat":"31.19151","category":"38","category_name":"公交车站","address":""},{"poiid":"B2094655D36DA1F54498","title":"小木桥路中山南二路","lon":"121.4611","lat":"31.19248","category":"38","category_name":"公交车站","address":""},{"poiid":"B2094750D26FA0F44898","title":"上海绿地中心","lon":"121.460937","lat":"31.186069","category":"252","category_name":"楼宇机构","address":"徐汇区 船厂路东安路"},{"poiid":"B2094654DA6DA4FE449F","title":"冠霖商务楼","lon":"121.46105","lat":"31.18889","category":"46","category_name":"楼宇","address":"中山南二路555号"},{"poiid":"B2094654DA6DA4FE4099","title":"良友金伴No.393(中山南二路)","lon":"121.46193","lat":"31.18959","category":"117","category_name":"便民商店/便利店","address":"徐汇区中山南二路481号(近小木桥路)"},{"poiid":"B2094655D268A4FC489D","title":"上海电子信息职业技术学院徐汇校区(东门)","lon":"121.45886","lat":"31.18878","category":"52","category_name":"高等院校","address":""},{"poiid":"B2094750D26FA5FA4093","title":"dancespace_吾秀文化","lon":"121.46113026222","lat":"31.188705252005","category":"606","category_name":"社区服务","address":"中山南二路555号冠霖大楼404"},{"poiid":"B2094655D264A1FE4192","title":"上海市徐汇区枫安菜市场","lon":"121.46133","lat":"31.18975","category":"117","category_name":"便民商店/便利店","address":"中山南二路450、450-1临"},{"poiid":"B2094654DB6BA5F44093","title":"上海为波宾馆凯地店","lon":"121.46143","lat":"31.19069","category":"250","category_name":"公园户外","address":"上海市徐汇区小木桥路604号(近中山南二路)"},{"poiid":"B2094757D16DA1FD4898","title":"海珀旭晖","lon":"121.462925","lat":"31.192106","category":"500","category_name":"未知分类","address":"徐汇区东安路800号"},{"poiid":"B2094753DB6AA5F4499E","title":"Wagas（正大乐城）","lon":"121.461524","lat":"31.187013","category":"500","category_name":"未知分类","address":"上海市 船厂路180号"},{"poiid":"B2094753D769A1F54499","title":"茶马颐苑","lon":"121.45903","lat":"31.186122","category":"47","category_name":"住宅区","address":"上海市 上海市徐汇区东安路598号绿地中心正大乐城2楼"},{"poiid":"B2094757D16CA2F8479A","title":"零陵路小木桥路","lon":"121.462027138","lat":"31.193420016","category":"500","category_name":"未知分类","address":"上海零陵路小木桥路"},{"poiid":"B2094753D664AAFB479D","title":"green vege cafe","lon":"121.460998","lat":"31.189102","category":"500","category_name":"未知分类","address":"上海市 徐汇区中山南二路699号3F"},{"poiid":"B2094655D268A5F4489D","title":"上海南亚职业技术培训学校(南门)","lon":"121.4603","lat":"31.18909","category":"678","category_name":"学校大门","address":"中山南二路530"},{"poiid":"B2094654DA6DA5F94892","title":"上海市工业技术学校(中山南二路)","lon":"121.45996","lat":"31.18919","category":"54","category_name":"职业技术学校","address":"中山南二路530"},{"poiid":"B2094655D264A7FA459B","title":"上海大众汽车斯柯达交运起成","lon":"121.46057","lat":"31.18868","category":"158","category_name":"汽车销售","address":""},{"poiid":"B2094655D268A5F44899","title":"上海工艺美术职业学院徐汇二分院(南门)","lon":"121.46028","lat":"31.18909","category":"52","category_name":"高等院校","address":"中山南二路530"},{"poiid":"B2094757D06BA0FD479A","title":"上海中医药大学零陵路校区","lon":"121.460261","lat":"31.189074","category":"500","category_name":"未知分类","address":"上海市东安路530号"},{"poiid":"B2094655D268A5F44898","title":"上海市轻工业学校(南门)","lon":"121.46024","lat":"31.18907","category":"678","category_name":"学校大门","address":"中山南二路530"},{"poiid":"B2094655D268A5F84098","title":"上海市工业技术学校南门(中山南二路)","lon":"121.46023","lat":"31.18906","category":"54","category_name":"职业技术学校","address":"中山南二路530"},{"poiid":"B2094757D16BA0F9489D","title":"檬舒舒~大悦城","lon":"121.462419738","lat":"31.1892724278","category":"500","category_name":"未知分类","address":"上海大悦城一楼中庭"},{"poiid":"B2094654DA6DA4FE409E","title":"上海良菱配销有限公司","lon":"121.46192","lat":"31.18947","category":"263","category_name":"公司","address":"中山南二路481"},{"poiid":"B2094757D465A0F44799","title":"风调雨顺土菜馆 小木桥路店","lon":"121.46067545609","lat":"31.193509137011","category":"77","category_name":"湖南菜","address":"徐汇区小木桥路458号(近零陵路)"},{"poiid":"B2094655D26AA0F4479C","title":"LilyDanceCenter","lon":"121.46033","lat":"31.18855","category":"247","category_name":"餐饮美食","address":"徐汇区中山南二路555号冠霖大楼4楼(近大木桥路)"},{"poiid":"B2094757D16DA1FA419B","title":"船长烧烤","lon":"121.45977673","lat":"31.187683393","category":"68","category_name":"快餐厅","address":"徐汇区船厂路178号卜蜂莲花超市旁(近龙华中路)"},{"poiid":"B2094654DA6DA5F94293","title":"徐汇新湖云庭(2号门)","lon":"121.4615","lat":"31.191","category":"47","category_name":"住宅区","address":""},{"poiid":"B2094757D66DA1FA499B","title":"漕溪北路中山南二路","lon":"121.46183073","lat":"31.189830439","category":"500","category_name":"未知分类","address":"上海漕溪北路中山南二路"},{"poiid":"B2094750D26CA2FA4898","title":"徐汇滨江 west bank","lon":"121.465913885","lat":"31.19017502","category":"47","category_name":"住宅区","address":null},{"poiid":"B2094654DA6DA5F9489D","title":"上海工艺美术职业学院徐汇二分院","lon":"121.45996","lat":"31.18918","category":"52","category_name":"高等院校","address":"中山南二路530"},{"poiid":"B2094655D26FA4F4499A","title":"中粮大厦(南门)","lon":"121.4617","lat":"31.19005","category":"48","category_name":"楼宇大门","address":"中山南二路440号"},{"poiid":"B2094757D66EA2FF479E","title":"全方位图文","lon":"121.46233853","lat":"31.18893762","category":"500","category_name":"未知分类","address":"上海中山南二路小木桥路"},{"poiid":"B2094757D16DA1F8419F","title":"我爱我家","lon":"121.46207573","lat":"31.190013443","category":"500","category_name":"未知分类","address":"徐汇区文定路200号盛源大地1楼A05室(近蒲汇塘路)"},{"poiid":"B2094654DA6DA4FF439A","title":"上海绿地徐汇","lon":"121.4599","lat":"31.18599","category":"159","category_name":"汽车维修","address":"船厂路185号"},{"poiid":"B209475CD76CA3F8459F","title":"maan coffee漫咖啡","lon":"121.458557","lat":"31.186952","category":"500","category_name":"未知分类","address":"上海市 中山南二路699号正大乐城2楼(近东安路)"},{"poiid":"B2094757D06FA6FD489C","title":"上海市建筑建材业行政管理服务中心","lon":"121.463631","lat":"31.189351","category":"46","category_name":"楼宇","address":"上海小木桥路683号"},{"poiid":"B2094753D165A3F8459E","title":"查理布朗咖啡馆正大乐城店","lon":"121.458608","lat":"31.186094","category":"65","category_name":"咖啡厅","address":"上海市 东安路599号 正大乐城6-101-1号"},{"poiid":"B2094757D06FA4FC419C","title":"上海外经大厦","lon":"121.463529","lat":"31.189459","category":"46","category_name":"楼宇","address":"上海徐汇区小木桥路681号"},{"poiid":"B2094753DB69A7FF439B","title":"翠華餐廳（正大樂城店）","lon":"121.463157","lat":"31.184999","category":"500","category_name":"未知分类","address":"上海市 上海徐匯區中山南二路"},{"poiid":"B2094654DA6DA5F94398","title":"中粮大厦","lon":"121.46189","lat":"31.19029","category":"46","category_name":"楼宇","address":"北一环与亳州路交叉口(庐阳区政府对面)"},{"poiid":"B2094757D06FA6FC469A","title":"卜蜂莲花(船厂路店)","lon":"121.45965576","lat":"31.18546145","category":"118","category_name":"超级市场","address":"徐汇区船厂路178号(近中山南二路)"},{"poiid":"B2094757D06FA4FF4393","title":"泡椒同学","lon":"121.45728","lat":"31.19275","category":"71","category_name":"四川菜","address":"上海徐汇区枫林路331号(近零陵路)"},{"poiid":"B2094753D664A3FD469E","title":"正大乐城","lon":"121.458213","lat":"31.186937","category":"170","category_name":"KTV","address":"上海市 东安路中山南二路"},{"poiid":"B2094757D068A2FA4599","title":"上海市机动车物损交通事故保险理赔服务中心绿地分中心","lon":"121.460469","lat":"31.185364","category":"500","category_name":"未知分类","address":"上海市徐汇区船厂路185号"},{"poiid":"B2094757D068A7FD4599","title":"福岛第一核电站三号机组","lon":"121.46172857","lat":"31.190548563","category":"260","category_name":"其他","address":"日本福岛县"},{"poiid":"B2094757D06FA3FD4192","title":"船厂路地铁站","lon":"121.46025679","lat":"31.185244349","category":"36","category_name":"地铁站","address":"上海轨道交通 七号线 轨交船厂路站 7"},{"poiid":"B2094655D26AA0F44799","title":"新偶像艺术学校","lon":"121.46105","lat":"31.18889","category":"247","category_name":"餐饮美食","address":"徐汇区中山南二路555号冠霖大楼4127室(近大木桥路)"},{"poiid":"B2094757D069A0F84793","title":"斯柯达4s店","lon":"121.460461","lat":"31.188615","category":"500","category_name":"未知分类","address":"上海中山南二路555号"},{"poiid":"B2094757D06BA6FF469E","title":"船厂路中山南二路","lon":"121.459764","lat":"31.18839","category":"500","category_name":"未知分类","address":"上海船厂路中山南二路"},{"poiid":"B2094757D06FA6F5409B","title":"黄毛烧烤(零陵店)","lon":"121.45999908","lat":"31.19260025","category":"269","category_name":"烧烤","address":"徐汇区零陵路231号(小木桥路口)"},{"poiid":"B2094655D36DA7F8469F","title":"中山南二路大木桥路","lon":"121.4641","lat":"31.19151","category":"38","category_name":"公交车站","address":""},{"poiid":"B2094655D36DA1F54498","title":"小木桥路中山南二路","lon":"121.4611","lat":"31.19248","category":"38","category_name":"公交车站","address":""},{"poiid":"B2094750D26FA0F44898","title":"上海绿地中心","lon":"121.460937","lat":"31.186069","category":"252","category_name":"楼宇机构","address":"徐汇区 船厂路东安路"},{"poiid":"B2094654DA6DA4FE449F","title":"冠霖商务楼","lon":"121.46105","lat":"31.18889","category":"46","category_name":"楼宇","address":"中山南二路555号"},{"poiid":"B2094654DA6DA4FE4099","title":"良友金伴No.393(中山南二路)","lon":"121.46193","lat":"31.18959","category":"117","category_name":"便民商店/便利店","address":"徐汇区中山南二路481号(近小木桥路)"},{"poiid":"B2094655D268A4FC489D","title":"上海电子信息职业技术学院徐汇校区(东门)","lon":"121.45886","lat":"31.18878","category":"52","category_name":"高等院校","address":""},{"poiid":"B2094750D26FA5FA4093","title":"dancespace_吾秀文化","lon":"121.46113026222","lat":"31.188705252005","category":"606","category_name":"社区服务","address":"中山南二路555号冠霖大楼404"},{"poiid":"B2094655D264A1FE4192","title":"上海市徐汇区枫安菜市场","lon":"121.46133","lat":"31.18975","category":"117","category_name":"便民商店/便利店","address":"中山南二路450、450-1临"},{"poiid":"B2094654DB6BA5F44093","title":"上海为波宾馆凯地店","lon":"121.46143","lat":"31.19069","category":"250","category_name":"公园户外","address":"上海市徐汇区小木桥路604号(近中山南二路)"},{"poiid":"B2094757D16DA1FD4898","title":"海珀旭晖","lon":"121.462925","lat":"31.192106","category":"500","category_name":"未知分类","address":"徐汇区东安路800号"},{"poiid":"B2094753DB6AA5F4499E","title":"Wagas（正大乐城）","lon":"121.461524","lat":"31.187013","category":"500","category_name":"未知分类","address":"上海市 船厂路180号"},{"poiid":"B2094753D769A1F54499","title":"茶马颐苑","lon":"121.45903","lat":"31.186122","category":"47","category_name":"住宅区","address":"上海市 上海市徐汇区东安路598号绿地中心正大乐城2楼"},{"poiid":"B2094757D16CA2F8479A","title":"零陵路小木桥路","lon":"121.462027138","lat":"31.193420016","category":"500","category_name":"未知分类","address":"上海零陵路小木桥路"},{"poiid":"B2094753D664AAFB479D","title":"green vege cafe","lon":"121.460998","lat":"31.189102","category":"500","category_name":"未知分类","address":"上海市 徐汇区中山南二路699号3F"},{"poiid":"B2094655D268A5F4489D","title":"上海南亚职业技术培训学校(南门)","lon":"121.4603","lat":"31.18909","category":"678","category_name":"学校大门","address":"中山南二路530"},{"poiid":"B2094654DA6DA5F94892","title":"上海市工业技术学校(中山南二路)","lon":"121.45996","lat":"31.18919","category":"54","category_name":"职业技术学校","address":"中山南二路530"},{"poiid":"B2094655D264A7FA459B","title":"上海大众汽车斯柯达交运起成","lon":"121.46057","lat":"31.18868","category":"158","category_name":"汽车销售","address":""},{"poiid":"B2094655D268A5F44899","title":"上海工艺美术职业学院徐汇二分院(南门)","lon":"121.46028","lat":"31.18909","category":"52","category_name":"高等院校","address":"中山南二路530"},{"poiid":"B2094757D06BA0FD479A","title":"上海中医药大学零陵路校区","lon":"121.460261","lat":"31.189074","category":"500","category_name":"未知分类","address":"上海市东安路530号"},{"poiid":"B2094655D268A5F44898","title":"上海市轻工业学校(南门)","lon":"121.46024","lat":"31.18907","category":"678","category_name":"学校大门","address":"中山南二路530"},{"poiid":"B2094655D268A5F84098","title":"上海市工业技术学校南门(中山南二路)","lon":"121.46023","lat":"31.18906","category":"54","category_name":"职业技术学校","address":"中山南二路530"},{"poiid":"B2094757D16BA0F9489D","title":"檬舒舒~大悦城","lon":"121.462419738","lat":"31.1892724278","category":"500","category_name":"未知分类","address":"上海大悦城一楼中庭"},{"poiid":"B2094654DA6DA4FE409E","title":"上海良菱配销有限公司","lon":"121.46192","lat":"31.18947","category":"263","category_name":"公司","address":"中山南二路481"},{"poiid":"B2094757D465A0F44799","title":"风调雨顺土菜馆 小木桥路店","lon":"121.46067545609","lat":"31.193509137011","category":"77","category_name":"湖南菜","address":"徐汇区小木桥路458号(近零陵路)"},{"poiid":"B2094655D26AA0F4479C","title":"LilyDanceCenter","lon":"121.46033","lat":"31.18855","category":"247","category_name":"餐饮美食","address":"徐汇区中山南二路555号冠霖大楼4楼(近大木桥路)"},{"poiid":"B2094757D16DA1FA419B","title":"船长烧烤","lon":"121.45977673","lat":"31.187683393","category":"68","category_name":"快餐厅","address":"徐汇区船厂路178号卜蜂莲花超市旁(近龙华中路)"},{"poiid":"B2094654DA6DA5F94293","title":"徐汇新湖云庭(2号门)","lon":"121.4615","lat":"31.191","category":"47","category_name":"住宅区","address":""},{"poiid":"B2094757D66DA1FA499B","title":"漕溪北路中山南二路","lon":"121.46183073","lat":"31.189830439","category":"500","category_name":"未知分类","address":"上海漕溪北路中山南二路"},{"poiid":"B2094750D26CA2FA4898","title":"徐汇滨江 west bank","lon":"121.465913885","lat":"31.19017502","category":"47","category_name":"住宅区","address":null},{"poiid":"B2094654DA6DA5F9489D","title":"上海工艺美术职业学院徐汇二分院","lon":"121.45996","lat":"31.18918","category":"52","category_name":"高等院校","address":"中山南二路530"},{"poiid":"B2094655D26FA4F4499A","title":"中粮大厦(南门)","lon":"121.4617","lat":"31.19005","category":"48","category_name":"楼宇大门","address":"中山南二路440号"},{"poiid":"B2094757D66EA2FF479E","title":"全方位图文","lon":"121.46233853","lat":"31.18893762","category":"500","category_name":"未知分类","address":"上海中山南二路小木桥路"},{"poiid":"B2094757D16DA1F8419F","title":"我爱我家","lon":"121.46207573","lat":"31.190013443","category":"500","category_name":"未知分类","address":"徐汇区文定路200号盛源大地1楼A05室(近蒲汇塘路)"},{"poiid":"B2094654DA6DA4FF439A","title":"上海绿地徐汇","lon":"121.4599","lat":"31.18599","category":"159","category_name":"汽车维修","address":"船厂路185号"},{"poiid":"B209475CD76CA3F8459F","title":"maan coffee漫咖啡","lon":"121.458557","lat":"31.186952","category":"500","category_name":"未知分类","address":"上海市 中山南二路699号正大乐城2楼(近东安路)"},{"poiid":"B2094757D06FA6FD489C","title":"上海市建筑建材业行政管理服务中心","lon":"121.463631","lat":"31.189351","category":"46","category_name":"楼宇","address":"上海小木桥路683号"},{"poiid":"B2094753D165A3F8459E","title":"查理布朗咖啡馆正大乐城店","lon":"121.458608","lat":"31.186094","category":"65","category_name":"咖啡厅","address":"上海市 东安路599号 正大乐城6-101-1号"},{"poiid":"B2094757D06FA4FC419C","title":"上海外经大厦","lon":"121.463529","lat":"31.189459","category":"46","category_name":"楼宇","address":"上海徐汇区小木桥路681号"},{"poiid":"B2094753DB69A7FF439B","title":"翠華餐廳（正大樂城店）","lon":"121.463157","lat":"31.184999","category":"500","category_name":"未知分类","address":"上海市 上海徐匯區中山南二路"},{"poiid":"B2094654DA6DA5F94398","title":"中粮大厦","lon":"121.46189","lat":"31.19029","category":"46","category_name":"楼宇","address":"北一环与亳州路交叉口(庐阳区政府对面)"},{"poiid":"B2094757D06FA6FC469A","title":"卜蜂莲花(船厂路店)","lon":"121.45965576","lat":"31.18546145","category":"118","category_name":"超级市场","address":"徐汇区船厂路178号(近中山南二路)"},{"poiid":"B2094757D06FA4FF4393","title":"泡椒同学","lon":"121.45728","lat":"31.19275","category":"71","category_name":"四川菜","address":"上海徐汇区枫林路331号(近零陵路)"},{"poiid":"B2094753D664A3FD469E","title":"正大乐城","lon":"121.458213","lat":"31.186937","category":"170","category_name":"KTV","address":"上海市 东安路中山南二路"},{"poiid":"B2094757D068A2FA4599","title":"上海市机动车物损交通事故保险理赔服务中心绿地分中心","lon":"121.460469","lat":"31.185364","category":"500","category_name":"未知分类","address":"上海市徐汇区船厂路185号"},{"poiid":"B2094757D068A7FD4599","title":"福岛第一核电站三号机组","lon":"121.46172857","lat":"31.190548563","category":"260","category_name":"其他","address":"日本福岛县"},{"poiid":"B2094757D06FA3FD4192","title":"船厂路地铁站","lon":"121.46025679","lat":"31.185244349","category":"36","category_name":"地铁站","address":"上海轨道交通 七号线 轨交船厂路站 7"},{"poiid":"B2094655D26AA0F44799","title":"新偶像艺术学校","lon":"121.46105","lat":"31.18889","category":"247","category_name":"餐饮美食","address":"徐汇区中山南二路555号冠霖大楼4127室(近大木桥路)"},{"poiid":"B2094757D069A0F84793","title":"斯柯达4s店","lon":"121.460461","lat":"31.188615","category":"500","category_name":"未知分类","address":"上海中山南二路555号"},{"poiid":"B2094757D06BA6FF469E","title":"船厂路中山南二路","lon":"121.459764","lat":"31.18839","category":"500","category_name":"未知分类","address":"上海船厂路中山南二路"},{"poiid":"B2094757D06FA6F5409B","title":"黄毛烧烤(零陵店)","lon":"121.45999908","lat":"31.19260025","category":"269","category_name":"烧烤","address":"徐汇区零陵路231号(小木桥路口)"},{"poiid":"B2094655D36DA7F8469F","title":"中山南二路大木桥路","lon":"121.4641","lat":"31.19151","category":"38","category_name":"公交车站","address":""},{"poiid":"B2094655D36DA1F54498","title":"小木桥路中山南二路","lon":"121.4611","lat":"31.19248","category":"38","category_name":"公交车站","address":""},{"poiid":"B2094750D26FA0F44898","title":"上海绿地中心","lon":"121.460937","lat":"31.186069","category":"252","category_name":"楼宇机构","address":"徐汇区 船厂路东安路"},{"poiid":"B2094654DA6DA4FE449F","title":"冠霖商务楼","lon":"121.46105","lat":"31.18889","category":"46","category_name":"楼宇","address":"中山南二路555号"},{"poiid":"B2094654DA6DA4FE4099","title":"良友金伴No.393(中山南二路)","lon":"121.46193","lat":"31.18959","category":"117","category_name":"便民商店/便利店","address":"徐汇区中山南二路481号(近小木桥路)"},{"poiid":"B2094655D268A4FC489D","title":"上海电子信息职业技术学院徐汇校区(东门)","lon":"121.45886","lat":"31.18878","category":"52","category_name":"高等院校","address":""},{"poiid":"B2094750D26FA5FA4093","title":"dancespace_吾秀文化","lon":"121.46113026222","lat":"31.188705252005","category":"606","category_name":"社区服务","address":"中山南二路555号冠霖大楼404"},{"poiid":"B2094655D264A1FE4192","title":"上海市徐汇区枫安菜市场","lon":"121.46133","lat":"31.18975","category":"117","category_name":"便民商店/便利店","address":"中山南二路450、450-1临"},{"poiid":"B2094654DB6BA5F44093","title":"上海为波宾馆凯地店","lon":"121.46143","lat":"31.19069","category":"250","category_name":"公园户外","address":"上海市徐汇区小木桥路604号(近中山南二路)"},{"poiid":"B2094757D16DA1FD4898","title":"海珀旭晖","lon":"121.462925","lat":"31.192106","category":"500","category_name":"未知分类","address":"徐汇区东安路800号"},{"poiid":"B2094753DB6AA5F4499E","title":"Wagas（正大乐城）","lon":"121.461524","lat":"31.187013","category":"500","category_name":"未知分类","address":"上海市 船厂路180号"},{"poiid":"B2094753D769A1F54499","title":"茶马颐苑","lon":"121.45903","lat":"31.186122","category":"47","category_name":"住宅区","address":"上海市 上海市徐汇区东安路598号绿地中心正大乐城2楼"},{"poiid":"B2094757D16CA2F8479A","title":"零陵路小木桥路","lon":"121.462027138","lat":"31.193420016","category":"500","category_name":"未知分类","address":"上海零陵路小木桥路"},{"poiid":"B2094753D664AAFB479D","title":"green vege cafe","lon":"121.460998","lat":"31.189102","category":"500","category_name":"未知分类","address":"上海市 徐汇区中山南二路699号3F"},{"poiid":"B2094655D268A5F4489D","title":"上海南亚职业技术培训学校(南门)","lon":"121.4603","lat":"31.18909","category":"678","category_name":"学校大门","address":"中山南二路530"},{"poiid":"B2094654DA6DA5F94892","title":"上海市工业技术学校(中山南二路)","lon":"121.45996","lat":"31.18919","category":"54","category_name":"职业技术学校","address":"中山南二路530"},{"poiid":"B2094655D264A7FA459B","title":"上海大众汽车斯柯达交运起成","lon":"121.46057","lat":"31.18868","category":"158","category_name":"汽车销售","address":""},{"poiid":"B2094655D268A5F44899","title":"上海工艺美术职业学院徐汇二分院(南门)","lon":"121.46028","lat":"31.18909","category":"52","category_name":"高等院校","address":"中山南二路530"},{"poiid":"B2094757D06BA0FD479A","title":"上海中医药大学零陵路校区","lon":"121.460261","lat":"31.189074","category":"500","category_name":"未知分类","address":"上海市东安路530号"},{"poiid":"B2094655D268A5F44898","title":"上海市轻工业学校(南门)","lon":"121.46024","lat":"31.18907","category":"678","category_name":"学校大门","address":"中山南二路530"},{"poiid":"B2094655D268A5F84098","title":"上海市工业技术学校南门(中山南二路)","lon":"121.46023","lat":"31.18906","category":"54","category_name":"职业技术学校","address":"中山南二路530"},{"poiid":"B2094757D16BA0F9489D","title":"檬舒舒~大悦城","lon":"121.462419738","lat":"31.1892724278","category":"500","category_name":"未知分类","address":"上海大悦城一楼中庭"},{"poiid":"B2094654DA6DA4FE409E","title":"上海良菱配销有限公司","lon":"121.46192","lat":"31.18947","category":"263","category_name":"公司","address":"中山南二路481"},{"poiid":"B2094757D465A0F44799","title":"风调雨顺土菜馆 小木桥路店","lon":"121.46067545609","lat":"31.193509137011","category":"77","category_name":"湖南菜","address":"徐汇区小木桥路458号(近零陵路)"},{"poiid":"B2094655D26AA0F4479C","title":"LilyDanceCenter","lon":"121.46033","lat":"31.18855","category":"247","category_name":"餐饮美食","address":"徐汇区中山南二路555号冠霖大楼4楼(近大木桥路)"},{"poiid":"B2094757D16DA1FA419B","title":"船长烧烤","lon":"121.45977673","lat":"31.187683393","category":"68","category_name":"快餐厅","address":"徐汇区船厂路178号卜蜂莲花超市旁(近龙华中路)"},{"poiid":"B2094654DA6DA5F94293","title":"徐汇新湖云庭(2号门)","lon":"121.4615","lat":"31.191","category":"47","category_name":"住宅区","address":""},{"poiid":"B2094757D66DA1FA499B","title":"漕溪北路中山南二路","lon":"121.46183073","lat":"31.189830439","category":"500","category_name":"未知分类","address":"上海漕溪北路中山南二路"},{"poiid":"B2094750D26CA2FA4898","title":"徐汇滨江 west bank","lon":"121.465913885","lat":"31.19017502","category":"47","category_name":"住宅区","address":null},{"poiid":"B2094654DA6DA5F9489D","title":"上海工艺美术职业学院徐汇二分院","lon":"121.45996","lat":"31.18918","category":"52","category_name":"高等院校","address":"中山南二路530"},{"poiid":"B2094655D26FA4F4499A","title":"中粮大厦(南门)","lon":"121.4617","lat":"31.19005","category":"48","category_name":"楼宇大门","address":"中山南二路440号"},{"poiid":"B2094757D66EA2FF479E","title":"全方位图文","lon":"121.46233853","lat":"31.18893762","category":"500","category_name":"未知分类","address":"上海中山南二路小木桥路"},{"poiid":"B2094757D16DA1F8419F","title":"我爱我家","lon":"121.46207573","lat":"31.190013443","category":"500","category_name":"未知分类","address":"徐汇区文定路200号盛源大地1楼A05室(近蒲汇塘路)"}]