[{"poiid":"B2094655D36CA2F4479D","title":"上海体育场","lon":"121.44381","lat":"31.1833","category":"38","category_name":"公交车站","address":"徐汇区天钥桥路666号八万人体育场内(近中山南二路)"},{"poiid":"B2094655D26EABF94192","title":"世纪联华体育场店","lon":"121.44331","lat":"31.181","category":"118","category_name":"超级市场","address":"徐汇区天钥桥路666号八万人体育场内(近中山南二路)"},{"poiid":"B2094757D06FA0FA449B","title":"新农村饭庄","lon":"121.44276","lat":"31.18284","category":"76","category_name":"上海菜","address":"徐汇区天钥桥路666号八万人体育场2号通道旁(近中山南二路)"},{"poiid":"B2094757D06EAAFD4599","title":"鲜芋仙 万体馆店","lon":"121.442313","lat":"31.182856","category":"67","category_name":"甜品店","address":"徐汇区天钥桥路580号星游城B1楼"},{"poiid":"B2094757D06FA1FE489F","title":"唐韵秦风(天钥桥店)","lon":"121.44374","lat":"31.18525","category":"84","category_name":"西北菜","address":"徐汇区天钥桥路580号星游城4楼(近零陵路)"},{"poiid":"B2094757D66AA6FF4199","title":"鼎中鼎澳门豆捞 万体店 Macao Dolar","lon":"121.442564","lat":"31.182312","category":"86","category_name":"火锅店","address":"徐汇区天钥桥路660号万人体育馆南区66-68(近旅游集散中心5号门)"},{"poiid":"B2094757D06FA6F8439B","title":"龙山新村","lon":"121.44658451","lat":"31.18313221","category":"252","category_name":"楼宇机构","address":"上海八万人体育场"},{"poiid":"B2094655D36CA1FE4393","title":"双峰路中山南二路","lon":"121.44847","lat":"31.18264","category":"38","category_name":"公交车站","address":""},{"poiid":"B2094757D06FA1FE449A","title":"Mvuke Tokyo 布歌东京","lon":"121.443679336","lat":"31.1812833347","category":"67","category_name":"甜品店","address":"徐汇区天钥桥路666号世纪联华超市内"},{"poiid":"B2094757D16EA5FE4592","title":"内环高架","lon":"121.446675586","lat":"31.182659501","category":"500","category_name":"未知分类","address":"上海市徐汇区零陵路"},{"poiid":"B2094654DA6DA2F54793","title":"锦江之星万体店","lon":"121.44479","lat":"31.18283","category":"216","category_name":"经济型连锁酒店","address":"上海市徐汇区天钥桥路873号近中山南二路"},{"poiid":"B2094750D165A6FC409B","title":"鼎辣 徐家汇店","lon":"121.445602","lat":"31.181066","category":"247","category_name":"餐饮美食","address":"星游城三楼"},{"poiid":"B2094654DA6DA7FC4298","title":"肯德基(上海体育场内)","lon":"121.44317","lat":"31.18205","category":"68","category_name":"快餐厅","address":"徐汇区天钥桥路333号腾飞大厦1楼(近南丹东路)"},{"poiid":"B2094757D06BA4FD4393","title":"食星级美食广场","lon":"121.443836586","lat":"31.1817154826","category":"68","category_name":"快餐厅","address":"徐汇区天钥桥路666号八万人世纪联华体育场店内(近中山南二路)"},{"poiid":"B2094757D06BA1FC419B","title":"上海地铁四号线（上海体育场站）","lon":"121.44398340081932","lat":"31.18566485512449","category":"36","category_name":"地铁站","address":"徐汇区零陵路近漕溪北路"},{"poiid":"B2094757D068A6F4499A","title":"曼都发型(星游城店)","lon":"121.44353","lat":"31.18448","category":"148","category_name":"美容美发店","address":"徐汇区天钥桥路580号星游城2楼(近零陵路)"},{"poiid":"B2094757D069A0F44192","title":"上海市公安局徐汇分局","lon":"121.444672","lat":"31.181537","category":"500","category_name":"未知分类","address":"上海徐汇区天钥桥路901号"},{"poiid":"B2094654DA6DA1FF4393","title":"金谷园","lon":"121.443","lat":"31.1829","category":"47","category_name":"住宅区","address":"上海漕溪路125弄"},{"poiid":"B2094654DA6DA2F54992","title":"龙山小区","lon":"121.44579","lat":"31.182888","category":"47","category_name":"住宅区","address":"中山南二路960弄"},{"poiid":"B2094753D669A1F94893","title":"掌上韩品（星游城店）","lon":"121.447349","lat":"31.18342","category":"247","category_name":"餐饮美食","address":"上海市 上海体育场"},{"poiid":"B2094757D06AA3FC4793","title":"华富大厦","lon":"121.448","lat":"31.1834","category":"252","category_name":"楼宇机构","address":"北一环与亳州路交叉口(庐阳区政府对面)"},{"poiid":"B2094757D16DA7FA469B","title":"红辣椒湘菜馆(天钥桥路店)","lon":"121.44784","lat":"31.18208","category":"77","category_name":"湖南菜","address":"徐汇区中山南二路969号(近天钥桥路)"},{"poiid":"B2094654DA6DA2F5489A","title":"美晶佳园","lon":"121.44481","lat":"31.182938","category":"47","category_name":"住宅区","address":"上海市徐汇区天鈅桥路867号"},{"poiid":"B2094654DA6DA1FC4198","title":"天钥新村(中山南二路)","lon":"121.44714","lat":"31.18537","category":"47","category_name":"住宅区","address":"中山南二路918弄1-5号"},{"poiid":"B2094757D16AA2F9499F","title":"中山中信大楼","lon":"121.446212167","lat":"31.1819130135","category":"500","category_name":"未知分类","address":"普陀大渡河路168弄"},{"poiid":"B2094654DB64A6F94999","title":"锦江之星(体育场店)","lon":"121.44504","lat":"31.18366","category":"216","category_name":"经济型连锁酒店","address":"徐汇区中山南二路988弄21号(近天钥桥路)"},{"poiid":"B2094655D26EA7FE4092","title":"翔云楼宾馆","lon":"121.44765","lat":"31.18256","category":"250","category_name":"公园户外","address":"徐汇区中山南二路969号"},{"poiid":"B2094655D26BA3FA4292","title":"金脚盆养生足道","lon":"121.44722","lat":"31.18226","category":"149","category_name":"洗浴推拿场所","address":"徐汇区中山南二路969号近双峰路;;"},{"poiid":"B2094757D765A4FF4793","title":"晓林港式烧腊","lon":"121.4437","lat":"31.18168","category":"68","category_name":"快餐厅","address":"徐汇区天钥桥路666号(近世纪联华超市)"},{"poiid":"B2094752D468AAFB439F","title":"锦江乐园","lon":"121.446345","lat":"31.182532","category":"500","category_name":"未知分类","address":null},{"poiid":"B2094750D36EAAF4499C","title":"八万人体育场（17号看台）","lon":"121.44284","lat":"31.181451","category":"500","category_name":"未知分类","address":null},{"poiid":"B209475DD56DA4FA419A","title":"ICON by Angel","lon":"121.446075","lat":"31.181941","category":"248","category_name":"生活娱乐","address":"上海市 万体馆7号门"},{"poiid":"B2094654DB65A1FC489A","title":"上海第二工业大学成人与继续教育学院徐汇校区","lon":"121.44502","lat":"31.18339","category":"52","category_name":"高等院校","address":""},{"poiid":"B2094654DA6DA7F84299","title":"中信中山大楼","lon":"121.44656","lat":"31.18141","category":"46","category_name":"楼宇","address":"中山南二路999弄1-19号"},{"poiid":"B2094655D26BA2F8469C","title":"天钥桥路龙山新村","lon":"121.44412","lat":"31.18246","category":"38","category_name":"公交车站","address":""},{"poiid":"B2094753D464AAFC499B","title":"徐家汇","lon":"121.446022","lat":"31.183513","category":"500","category_name":"未知分类","address":"上海市 上海市徐汇区"},{"poiid":"B2094757D169A0FF4393","title":"天钥新村","lon":"121.446525304","lat":"31.1853354701","category":"252","category_name":"楼宇机构","address":"上海天钥新村66号"},{"poiid":"B2094757D169A3FE429A","title":"全家Family Mart(四号线上海体育场店)","lon":"121.445426586","lat":"31.184092529","category":"117","category_name":"便民商店/便利店","address":"上海市徐汇区四号线上海体育场站内"},{"poiid":"B2094654DA6DA7FF4199","title":"宛南六村","lon":"121.44566","lat":"31.179573","category":"47","category_name":"住宅区","address":"上海天钥桥路905弄"},{"poiid":"B2094757D66CA3FA4393","title":"tokyo express","lon":"121.44384858","lat":"31.181848485","category":"113","category_name":"冷饮店","address":"徐汇区天钥桥路666号世纪联华超市内"},{"poiid":"B2094753D46BA2FC4293","title":"拉亚汉堡","lon":"121.444984","lat":"31.181365","category":"247","category_name":"餐饮美食","address":"上海市 宜山路"},{"poiid":"B2094654DA6DA7F84398","title":"快客便利连锁No.169","lon":"121.4473","lat":"31.18235","category":"117","category_name":"便民商店/便利店","address":"枫林路"},{"poiid":"B2094655D268A5FF479F","title":"天龙小区","lon":"121.44718","lat":"31.18354","category":"47","category_name":"住宅区","address":"中山南二路950-960弄"},{"poiid":"B2094753D569AAF9479E","title":"八万人体育馆","lon":"121.446525","lat":"31.181686","category":"500","category_name":"未知分类","address":"上海市 上海"},{"poiid":"B2094757D66CA6FB499D","title":"天德堂中医门诊","lon":"121.44598693","lat":"31.181469436","category":"162","category_name":"医院","address":"上海中山南二路"},{"poiid":"B2094757D164A4F5409C","title":"复旦大学继续教育学院","lon":"121.445919586","lat":"31.180968468","category":"671","category_name":"高校中心点","address":"上海东安路130号"},{"poiid":"B2094757D068A5F8499E","title":"三夫户外用品(天钥桥路店)","lon":"121.44465","lat":"31.17978","category":"140","category_name":"体育用品店","address":"徐汇区天钥桥路859号北海大厦2楼(近零陵路)"},{"poiid":"B2094654DA6DA7F8429E","title":"中山苑","lon":"121.44663","lat":"31.181137","category":"47","category_name":"住宅区","address":"中山南二路999弄"},{"poiid":"B2094757D16AA7FA4298","title":"甜言蜜语","lon":"121.447433178","lat":"31.1836018036","category":"247","category_name":"餐饮美食","address":"上海天钥桥路580号星游城1F-16"},{"poiid":"B2094654DA6DA7F8439A","title":"宝来富宠物世界","lon":"121.44722","lat":"31.18228","category":"117","category_name":"便民商店/便利店","address":"中山南二路969号4-5识别"},{"poiid":"B2094655D36CA2F4479D","title":"上海体育场","lon":"121.44381","lat":"31.1833","category":"38","category_name":"公交车站","address":"徐汇区天钥桥路666号八万人体育场内(近中山南二路)"},{"poiid":"B2094655D26EABF94192","title":"世纪联华体育场店","lon":"121.44331","lat":"31.181","category":"118","category_name":"超级市场","address":"徐汇区天钥桥路666号八万人体育场内(近中山南二路)"},{"poiid":"B2094757D06FA0FA449B","title":"新农村饭庄","lon":"121.44276","lat":"31.18284","category":"76","category_name":"上海菜","address":"徐汇区天钥桥路666号八万人体育场2号通道旁(近中山南二路)"},{"poiid":"B2094757D06EAAFD4599","title":"鲜芋仙 万体馆店","lon":"121.442313","lat":"31.182856","category":"67","category_name":"甜品店","address":"徐汇区天钥桥路580号星游城B1楼"},{"poiid":"B2094757D06FA1FE489F","title":"唐韵秦风(天钥桥店)","lon":"121.44374","lat":"31.18525","category":"84","category_name":"西北菜","address":"徐汇区天钥桥路580号星游城4楼(近零陵路)"},{"poiid":"B2094757D66AA6FF4199","title":"鼎中鼎澳门豆捞 万体店 Macao Dolar","lon":"121.442564","lat":"31.182312","category":"86","category_name":"火锅店","address":"徐汇区天钥桥路660号万人体育馆南区66-68(近旅游集散中心5号门)"},{"poiid":"B2094757D06FA6F8439B","title":"龙山新村","lon":"121.44658451","lat":"31.18313221","category":"252","category_name":"楼宇机构","address":"上海八万人体育场"},{"poiid":"B2094655D36CA1FE4393","title":"双峰路中山南二路","lon":"121.44847","lat":"31.18264","category":"38","category_name":"公交车站","address":""},{"poiid":"B2094757D06FA1FE449A","title":"Mvuke Tokyo 布歌东京","lon":"121.443679336","lat":"31.1812833347","category":"67","category_name":"甜品店","address":"徐汇区天钥桥路666号世纪联华超市内"},{"poiid":"B2094757D16EA5FE4592","title":"内环高架","lon":"121.446675586","lat":"31.182659501","category":"500","category_name":"未知分类","address":"上海市徐汇区零陵路"},{"poiid":"B2094654DA6DA2F54793","title":"锦江之星万体店","lon":"121.44479","lat":"31.18283","category":"216","category_name":"经济型连锁酒店","address":"上海市徐汇区天钥桥路873号近中山南二路"},{"poiid":"B2094750D165A6FC409B","title":"鼎辣 徐家汇店","lon":"121.445602","lat":"31.181066","category":"247","category_name":"餐饮美食","address":"星游城三楼"},{"poiid":"B2094654DA6DA7FC4298","title":"肯德基(上海体育场内)","lon":"121.44317","lat":"31.18205","category":"68","category_name":"快餐厅","address":"徐汇区天钥桥路333号腾飞大厦1楼(近南丹东路)"},{"poiid":"B2094757D06BA4FD4393","title":"食星级美食广场","lon":"121.443836586","lat":"31.1817154826","category":"68","category_name":"快餐厅","address":"徐汇区天钥桥路666号八万人世纪联华体育场店内(近中山南二路)"},{"poiid":"B2094757D06BA1FC419B","title":"上海地铁四号线（上海体育场站）","lon":"121.44398340081932","lat":"31.18566485512449","category":"36","category_name":"地铁站","address":"徐汇区零陵路近漕溪北路"},{"poiid":"B2094757D068A6F4499A","title":"曼都发型(星游城店)","lon":"121.44353","lat":"31.18448","category":"148","category_name":"美容美发店","address":"徐汇区天钥桥路580号星游城2楼(近零陵路)"},{"poiid":"B2094757D069A0F44192","title":"上海市公安局徐汇分局","lon":"121.444672","lat":"31.181537","category":"500","category_name":"未知分类","address":"上海徐汇区天钥桥路901号"},{"poiid":"B2094654DA6DA1FF4393","title":"金谷园","lon":"121.443","lat":"31.1829","category":"47","category_name":"住宅区","address":"上海漕溪路125弄"},{"poiid":"B2094654DA6DA2F54992","title":"龙山小区","lon":"121.44579","lat":"31.182888","category":"47","category_name":"住宅区","address":"中山南二路960弄"},{"poiid":"B2094753D669A1F94893","title":"掌上韩品（星游城店）","lon":"121.447349","lat":"31.18342","category":"247","category_name":"餐饮美食","address":"上海市 上海体育场"},{"poiid":"B2094757D06AA3FC4793","title":"华富大厦","lon":"121.448","lat":"31.1834","category":"252","category_name":"楼宇机构","address":"北一环与亳州路交叉口(庐阳区政府对面)"},{"poiid":"B2094757D16DA7FA469B","title":"红辣椒湘菜馆(天钥桥路店)","lon":"121.44784","lat":"31.18208","category":"77","category_name":"湖南菜","address":"徐汇区中山南二路969号(近天钥桥路)"},{"poiid":"B2094654DA6DA2F5489A","title":"美晶佳园","lon":"121.44481","lat":"31.182938","category":"47","category_name":"住宅区","address":"上海市徐汇区天鈅桥路867号"},{"poiid":"B2094654DA6DA1FC4198","title":"天钥新村(中山南二路)","lon":"121.44714","lat":"31.18537","category":"47","category_name":"住宅区","address":"中山南二路918弄1-5号"},{"poiid":"B2094757D16AA2F9499F","title":"中山中信大楼","lon":"121.446212167","lat":"31.1819130135","category":"500","category_name":"未知分类","address":"普陀大渡河路168弄"},{"poiid":"B2094654DB64A6F94999","title":"锦江之星(体育场店)","lon":"121.44504","lat":"31.18366","category":"216","category_name":"经济型连锁酒店","address":"徐汇区中山南二路988弄21号(近天钥桥路)"},{"poiid":"B2094655D26EA7FE4092","title":"翔云楼宾馆","lon":"121.44765","lat":"31.18256","category":"250","category_name":"公园户外","address":"徐汇区中山南二路969号"},{"poiid":"B2094655D26BA3FA4292","title":"金脚盆养生足道","lon":"121.44722","lat":"31.18226","category":"149","category_name":"洗浴推拿场所","address":"徐汇区中山南二路969号近双峰路;;"},{"poiid":"B2094757D765A4FF4793","title":"晓林港式烧腊","lon":"121.4437","lat":"31.18168","category":"68","category_name":"快餐厅","address":"徐汇区天钥桥路666号(近世纪联华超市)"},{"poiid":"B2094752D468AAFB439F","title":"锦江乐园","lon":"121.446345","lat":"31.182532","category":"500","category_name":"未知分类","address":null},{"poiid":"B2094750D36EAAF4499C","title":"八万人体育场（17号看台）","lon":"121.44284","lat":"31.181451","category":"500","category_name":"未知分类","address":null},{"poiid":"B209475DD56DA4FA419A","title":"ICON by Angel","lon":"121.446075","lat":"31.181941","category":"248","category_name":"生活娱乐","address":"上海市 万体馆7号门"},{"poiid":"B2094654DB65A1FC489A","title":"上海第二工业大学成人与继续教育学院徐汇校区","lon":"121.44502","lat":"31.18339","category":"52","category_name":"高等院校","address":""},{"poiid":"B2094654DA6DA7F84299","title":"中信中山大楼","lon":"121.44656","lat":"31.18141","category":"46","category_name":"楼宇","address":"中山南二路999弄1-19号"},{"poiid":"B2094655D26BA2F8469C","title":"天钥桥路龙山新村","lon":"121.44412","lat":"31.18246","category":"38","category_name":"公交车站","address":""},{"poiid":"B2094753D464AAFC499B","title":"徐家汇","lon":"121.446022","lat":"31.183513","category":"500","category_name":"未知分类","address":"上海市 上海市徐汇区"},{"poiid":"B2094757D169A0FF4393","title":"天钥新村","lon":"121.446525304","lat":"31.1853354701","category":"252","category_name":"楼宇机构","address":"上海天钥新村66号"},{"poiid":"B2094757D169A3FE429A","title":"全家Family Mart(四号线上海体育场店)","lon":"121.445426586","lat":"31.184092529","category":"117","category_name":"便民商店/便利店","address":"上海市徐汇区四号线上海体育场站内"},{"poiid":"B2094654DA6DA7FF4199","title":"宛南六村","lon":"121.44566","lat":"31.179573","category":"47","category_name":"住宅区","address":"上海天钥桥路905弄"},{"poiid":"B2094757D66CA3FA4393","title":"tokyo express","lon":"121.44384858","lat":"31.181848485","category":"113","category_name":"冷饮店","address":"徐汇区天钥桥路666号世纪联华超市内"},{"poiid":"B2094753D46BA2FC4293","title":"拉亚汉堡","lon":"121.444984","lat":"31.181365","category":"247","category_name":"餐饮美食","address":"上海市 宜山路"},{"poiid":"B2094654DA6DA7F84398","title":"快客便利连锁No.169","lon":"121.4473","lat":"31.18235","category":"117","category_name":"便民商店/便利店","address":"枫林路"},{"poiid":"B2094655D268A5FF479F","title":"天龙小区","lon":"121.44718","lat":"31.18354","category":"47","category_name":"住宅区","address":"中山南二路950-960弄"},{"poiid":"B2094753D569AAF9479E","title":"八万人体育馆","lon":"121.446525","lat":"31.181686","category":"500","category_name":"未知分类","address":"上海市 上海"},{"poiid":"B2094757D66CA6FB499D","title":"天德堂中医门诊","lon":"121.44598693","lat":"31.181469436","category":"162","category_name":"医院","address":"上海中山南二路"},{"poiid":"B2094757D164A4F5409C","title":"复旦大学继续教育学院","lon":"121.445919586","lat":"31.180968468","category":"671","category_name":"高校中心点","address":"上海东安路130号"},{"poiid":"B2094757D068A5F8499E","title":"三夫户外用品(天钥桥路店)","lon":"121.44465","lat":"31.17978","category":"140","category_name":"体育用品店","address":"徐汇区天钥桥路859号北海大厦2楼(近零陵路)"},{"poiid":"B2094654DA6DA7F8429E","title":"中山苑","lon":"121.44663","lat":"31.181137","category":"47","category_name":"住宅区","address":"中山南二路999弄"},{"poiid":"B2094757D16AA7FA4298","title":"甜言蜜语","lon":"121.447433178","lat":"31.1836018036","category":"247","category_name":"餐饮美食","address":"上海天钥桥路580号星游城1F-16"},{"poiid":"B2094654DA6DA7F8439A","title":"宝来富宠物世界","lon":"121.44722","lat":"31.18228","category":"117","category_name":"便民商店/便利店","address":"中山南二路969号4-5识别"},{"poiid":"B2094655D36CA2F4479D","title":"上海体育场","lon":"121.44381","lat":"31.1833","category":"38","category_name":"公交车站","address":"徐汇区天钥桥路666号八万人体育场内(近中山南二路)"},{"poiid":"B2094655D26EABF94192","title":"世纪联华体育场店","lon":"121.44331","lat":"31.181","category":"118","category_name":"超级市场","address":"徐汇区天钥桥路666号八万人体育场内(近中山南二路)"},{"poiid":"B2094757D06FA0FA449B","title":"新农村饭庄","lon":"121.44276","lat":"31.18284","category":"76","category_name":"上海菜","address":"徐汇区天钥桥路666号八万人体育场2号通道旁(近中山南二路)"},{"poiid":"B2094757D06EAAFD4599","title":"鲜芋仙 万体馆店","lon":"121.442313","lat":"31.182856","category":"67","category_name":"甜品店","address":"徐汇区天钥桥路580号星游城B1楼"},{"poiid":"B2094757D06FA1FE489F","title":"唐韵秦风(天钥桥店)","lon":"121.44374","lat":"31.18525","category":"84","category_name":"西北菜","address":"徐汇区天钥桥路580号星游城4楼(近零陵路)"},{"poiid":"B2094757D66AA6FF4199","title":"鼎中鼎澳门豆捞 万体店 Macao Dolar","lon":"121.442564","lat":"31.182312","category":"86","category_name":"火锅店","address":"徐汇区天钥桥路660号万人体育馆南区66-68(近旅游集散中心5号门)"},{"poiid":"B2094757D06FA6F8439B","title":"龙山新村","lon":"121.44658451","lat":"31.18313221","category":"252","category_name":"楼宇机构","address":"上海八万人体育场"},{"poiid":"B2094655D36CA1FE4393","title":"双峰路中山南二路","lon":"121.44847","lat":"31.18264","category":"38","category_name":"公交车站","address":""},{"poiid":"B2094757D06FA1FE449A","title":"Mvuke Tokyo 布歌东京","lon":"121.443679336","lat":"31.1812833347","category":"67","category_name":"甜品店","address":"徐汇区天钥桥路666号世纪联华超市内"},{"poiid":"B2094757D16EA5FE4592","title":"内环高架","lon":"121.446675586","lat":"31.182659501","category":"500","category_name":"未知分类","address":"上海市徐汇区零陵路"},{"poiid":"B2094654DA6DA2F54793","title":"锦江之星万体店","lon":"121.44479","lat":"31.18283","category":"216","category_name":"经济型连锁酒店","address":"上海市徐汇区天钥桥路873号近中山南二路"},{"poiid":"B2094750D165A6FC409B","title":"鼎辣 徐家汇店","lon":"121.445602","lat":"31.181066","category":"247","category_name":"餐饮美食","address":"星游城三楼"},{"poiid":"B2094654DA6DA7FC4298","title":"肯德基(上海体育场内)","lon":"121.44317","lat":"31.18205","category":"68","category_name":"快餐厅","address":"徐汇区天钥桥路333号腾飞大厦1楼(近南丹东路)"},{"poiid":"B2094757D06BA4FD4393","title":"食星级美食广场","lon":"121.443836586","lat":"31.1817154826","category":"68","category_name":"快餐厅","address":"徐汇区天钥桥路666号八万人世纪联华体育场店内(近中山南二路)"},{"poiid":"B2094757D06BA1FC419B","title":"上海地铁四号线（上海体育场站）","lon":"121.44398340081932","lat":"31.18566485512449","category":"36","category_name":"地铁站","address":"徐汇区零陵路近漕溪北路"},{"poiid":"B2094757D068A6F4499A","title":"曼都发型(星游城店)","lon":"121.44353","lat":"31.18448","category":"148","category_name":"美容美发店","address":"徐汇区天钥桥路580号星游城2楼(近零陵路)"},{"poiid":"B2094757D069A0F44192","title":"上海市公安局徐汇分局","lon":"121.444672","lat":"31.181537","category":"500","category_name":"未知分类","address":"上海徐汇区天钥桥路901号"},{"poiid":"B2094654DA6DA1FF4393","title":"金谷园","lon":"121.443","lat":"31.1829","category":"47","category_name":"住宅区","address":"上海漕溪路125弄"},{"poiid":"B2094654DA6DA2F54992","title":"龙山小区","lon":"121.44579","lat":"31.182888","category":"47","category_name":"住宅区","address":"中山南二路960弄"},{"poiid":"B2094753D669A1F94893","title":"掌上韩品（星游城店）","lon":"121.447349","lat":"31.18342","category":"247","category_name":"餐饮美食","address":"上海市 上海体育场"},{"poiid":"B2094757D06AA3FC4793","title":"华富大厦","lon":"121.448","lat":"31.1834","category":"252","category_name":"楼宇机构","address":"北一环与亳州路交叉口(庐阳区政府对面)"},{"poiid":"B2094757D16DA7FA469B","title":"红辣椒湘菜馆(天钥桥路店)","lon":"121.44784","lat":"31.18208","category":"77","category_name":"湖南菜","address":"徐汇区中山南二路969号(近天钥桥路)"},{"poiid":"B2094654DA6DA2F5489A","title":"美晶佳园","lon":"121.44481","lat":"31.182938","category":"47","category_name":"住宅区","address":"上海市徐汇区天鈅桥路867号"},{"poiid":"B2094654DA6DA1FC4198","title":"天钥新村(中山南二路)","lon":"121.44714","lat":"31.18537","category":"47","category_name":"住宅区","address":"中山南二路918弄1-5号"},{"poiid":"B2094757D16AA2F9499F","title":"中山中信大楼","lon":"121.446212167","lat":"31.1819130135","category":"500","category_name":"未知分类","address":"普陀大渡河路168弄"},{"poiid":"B2094654DB64A6F94999","title":"锦江之星(体育场店)","lon":"121.44504","lat":"31.18366","category":"216","category_name":"经济型连锁酒店","address":"徐汇区中山南二路988弄21号(近天钥桥路)"},{"poiid":"B2094655D26EA7FE4092","title":"翔云楼宾馆","lon":"121.44765","lat":"31.18256","category":"250","category_name":"公园户外","address":"徐汇区中山南二路969号"},{"poiid":"B2094655D26BA3FA4292","title":"金脚盆养生足道","lon":"121.44722","lat":"31.18226","category":"149","category_name":"洗浴推拿场所","address":"徐汇区中山南二路969号近双峰路;;"},{"poiid":"B2094757D765A4FF4793","title":"晓林港式烧腊","lon":"121.4437","lat":"31.18168","category":"68","category_name":"快餐厅","address":"徐汇区天钥桥路666号(近世纪联华超市)"},{"poiid":"B2094752D468AAFB439F","title":"锦江乐园","lon":"121.446345","lat":"31.182532","category":"500","category_name":"未知分类","address":null},{"poiid":"B2094750D36EAAF4499C","title":"八万人体育场（17号看台）","lon":"121.44284","lat":"31.181451","category":"500","category_name":"未知分类","address":null},{"poiid":"B209475DD56DA4FA419A","title":"ICON by Angel","lon":"121.446075","lat":"31.181941","category":"248","category_name":"生活娱乐","address":"上海市 万体馆7号门"},{"poiid":"B2094654DB65A1FC489A","title":"上海第二工业大学成人与继续教育学院徐汇校区","lon":"121.44502","lat":"31.18339","category":"52","category_name":"高等院校","address":""},{"poiid":"B2094654DA6DA7F84299","title":"中信中山大楼","lon":"121.44656","lat":"31.18141","category":"46","category_name":"楼宇","address":"中山南二路999弄1-19号"},{"poiid":"B2094655D26BA2F8469C","title":"天钥桥路龙山新村","lon":"121.44412","lat":"31.18246","category":"38","category_name":"公交车站","address":""},{"poiid":"B2094753D464AAFC499B","title":"徐家汇","lon":"121.446022","lat":"31.183513","category":"500","category_name":"未知分类","address":"上海市 上海市徐汇区"},{"poiid":"B2094757D169A0FF4393","title":"天钥新村","lon":"121.446525304","lat":"31.1853354701","category":"252","category_name":"楼宇机构","address":"上海天钥新村66号"},{"poiid":"B2094757D169A3FE429A","title":"全家Family Mart(四号线上海体育场店)","lon":"121.445426586","lat":"31.184092529","category":"117","category_name":"便民商店/便利店","address":"上海市徐汇区四号线上海体育场站内"},{"poiid":"B2094654DA6DA7FF4199","title":"宛南六村","lon":"121.44566","lat":"31.179573","category":"47","category_name":"住宅区","address":"上海天钥桥路905弄"},{"poiid":"B2094757D66CA3FA4393","title":"tokyo express","lon":"121.44384858","lat":"31.181848485","category":"113","category_name":"冷饮店","address":"徐汇区天钥桥路666号世纪联华超市内"},{"poiid":"B2094753D46BA2FC4293","title":"拉亚汉堡","lon":"121.444984","lat":"31.181365","category":"247","category_name":"餐饮美食","address":"上海市 宜山路"},{"poiid":"B2094654DA6DA7F84398","title":"快客便利连锁No.169","lon":"121.4473","lat":"31.18235","category":"117","category_name":"便民商店/便利店","address":"枫林路"},{"poiid":"B2094655D268A5FF479F","title":"天龙小区","lon":"121.44718","lat":"31.18354","category":"47","category_name":"住宅区","address":"中山南二路950-960弄"},{"poiid":"B2094753D569AAF9479E","title":"八万人体育馆","lon":"121.446525","lat":"31.181686","category":"500","category_name":"未知分类","address":"上海市 上海"},{"poiid":"B2094757D66CA6FB499D","title":"天德堂中医门诊","lon":"121.44598693","lat":"31.181469436","category":"162","category_name":"医院","address":"上海中山南二路"},{"poiid":"B2094757D164A4F5409C","title":"复旦大学继续教育学院","lon":"121.445919586","lat":"31.180968468","category":"671","category_name":"高校中心点","address":"上海东安路130号"},{"poiid":"B2094757D068A5F8499E","title":"三夫户外用品(天钥桥路店)","lon":"121.44465","lat":"31.17978","category":"140","category_name":"体育用品店","address":"徐汇区天钥桥路859号北海大厦2楼(近零陵路)"},{"poiid":"B2094654DA6DA7F8429E","title":"中山苑","lon":"121.44663","lat":"31.181137","category":"47","category_name":"住宅区","address":"中山南二路999弄"},{"poiid":"B2094757D16AA7FA4298","title":"甜言蜜语","lon":"121.447433178","lat":"31.1836018036","category":"247","category_name":"餐饮美食","address":"上海天钥桥路580号星游城1F-16"},{"poiid":"B2094654DA6DA7F8439A","title":"宝来富宠物世界","lon":"121.44722","lat":"31.18228","category":"117","category_name":"便民商店/便利店","address":"中山南二路969号4-5识别"},{"poiid":"B2094655D36CA2F4479D","title":"上海体育场","lon":"121.44381","lat":"31.1833","category":"38","category_name":"公交车站","address":"徐汇区天钥桥路666号八万人体育场内(近中山南二路)"},{"poiid":"B2094655D26EABF94192","title":"世纪联华体育场店","lon":"121.44331","lat":"31.181","category":"118","category_name":"超级市场","address":"徐汇区天钥桥路666号八万人体育场内(近中山南二路)"},{"poiid":"B2094757D06FA0FA449B","title":"新农村饭庄","lon":"121.44276","lat":"31.18284","category":"76","category_name":"上海菜","address":"徐汇区天钥桥路666号八万人体育场2号通道旁(近中山南二路)"},{"poiid":"B2094757D06EAAFD4599","title":"鲜芋仙 万体馆店","lon":"121.442313","lat":"31.182856","category":"67","category_name":"甜品店","address":"徐汇区天钥桥路580号星游城B1楼"},{"poiid":"B2094757D06FA1FE489F","title":"唐韵秦风(天钥桥店)","lon":"121.44374","lat":"31.18525","category":"84","category_name":"西北菜","address":"徐汇区天钥桥路580号星游城4楼(近零陵路)"},{"poiid":"B2094757D66AA6FF4199","title":"鼎中鼎澳门豆捞 万体店 Macao Dolar","lon":"121.442564","lat":"31.182312","category":"86","category_name":"火锅店","address":"徐汇区天钥桥路660号万人体育馆南区66-68(近旅游集散中心5号门)"},{"poiid":"B2094757D06FA6F8439B","title":"龙山新村","lon":"121.44658451","lat":"31.18313221","category":"252","category_name":"楼宇机构","address":"上海八万人体育场"},{"poiid":"B2094655D36CA1FE4393","title":"双峰路中山南二路","lon":"121.44847","lat":"31.18264","category":"38","category_name":"公交车站","address":""},{"poiid":"B2094757D06FA1FE449A","title":"Mvuke Tokyo 布歌东京","lon":"121.443679336","lat":"31.1812833347","category":"67","category_name":"甜品店","address":"徐汇区天钥桥路666号世纪联华超市内"},{"poiid":"B2094757D16EA5FE4592","title":"内环高架","lon":"121.446675586","lat":"31.182659501","category":"500","category_name":"未知分类","address":"上海市徐汇区零陵路"},{"poiid":"B2094654DA6DA2F54793","title":"锦江之星万体店","lon":"121.44479","lat":"31.18283","category":"216","category_name":"经济型连锁酒店","address":"上海市徐汇区天钥桥路873号近中山南二路"},{"poiid":"B2094750D165A6FC409B","title":"鼎辣 徐家汇店","lon":"121.445602","lat":"31.181066","category":"247","category_name":"餐饮美食","address":"星游城三楼"},{"poiid":"B2094654DA6DA7FC4298","title":"肯德基(上海体育场内)","lon":"121.44317","lat":"31.18205","category":"68","category_name":"快餐厅","address":"徐汇区天钥桥路333号腾飞大厦1楼(近南丹东路)"},{"poiid":"B2094757D06BA4FD4393","title":"食星级美食广场","lon":"121.443836586","lat":"31.1817154826","category":"68","category_name":"快餐厅","address":"徐汇区天钥桥路666号八万人世纪联华体育场店内(近中山南二路)"},{"poiid":"B2094757D06BA1FC419B","title":"上海地铁四号线（上海体育场站）","lon":"121.44398340081932","lat":"31.18566485512449","category":"36","category_name":"地铁站","address":"徐汇区零陵路近漕溪北路"},{"poiid":"B2094757D068A6F4499A","title":"曼都发型(星游城店)","lon":"121.44353","lat":"31.18448","category":"148","category_name":"美容美发店","address":"徐汇区天钥桥路580号星游城2楼(近零陵路)"},{"poiid":"B2094757D069A0F44192","title":"上海市公安局徐汇分局","lon":"121.444672","lat":"31.181537","category":"500","category_name":"未知分类","address":"上海徐汇区天钥桥路901号"},{"poiid":"B2094654DA6DA1FF4393","title":"金谷园","lon":"121.443","lat":"31.1829","category":"47","category_name":"住宅区","address":"上海漕溪路125弄"},{"poiid":"B2094654DA6DA2F54992","title":"龙山小区","lon":"121.44579","lat":"31.182888","category":"47","category_name":"住宅区","address":"中山南二路960弄"},{"poiid":"B2094753D669A1F94893","title":"掌上韩品（星游城店）","lon":"121.447349","lat":"31.18342","category":"247","category_name":"餐饮美食","address":"上海市 上海体育场"},{"poiid":"B2094757D06AA3FC4793","title":"华富大厦","lon":"121.448","lat":"31.1834","category":"252","category_name":"楼宇机构","address":"北一环与亳州路交叉口(庐阳区政府对面)"},{"poiid":"B2094757D16DA7FA469B","title":"红辣椒湘菜馆(天钥桥路店)","lon":"121.44784","lat":"31.18208","category":"77","category_name":"湖南菜","address":"徐汇区中山南二路969号(近天钥桥路)"},{"poiid":"B2094654DA6DA2F5489A","title":"美晶佳园","lon":"121.44481","lat":"31.182938","category":"47","category_name":"住宅区","address":"上海市徐汇区天鈅桥路867号"},{"poiid":"B2094654DA6DA1FC4198","title":"天钥新村(中山南二路)","lon":"121.44714","lat":"31.18537","category":"47","category_name":"住宅区","address":"中山南二路918弄1-5号"},{"poiid":"B2094757D16AA2F9499F","title":"中山中信大楼","lon":"121.446212167","lat":"31.1819130135","category":"500","category_name":"未知分类","address":"普陀大渡河路168弄"},{"poiid":"B2094654DB64A6F94999","title":"锦江之星(体育场店)","lon":"121.44504","lat":"31.18366","category":"216","category_name":"经济型连锁酒店","address":"徐汇区中山南二路988弄21号(近天钥桥路)"},{"poiid":"B2094655D26EA7FE4092","title":"翔云楼宾馆","lon":"121.44765","lat":"31.18256","category":"250","category_name":"公园户外","address":"徐汇区中山南二路969号"},{"poiid":"B2094655D26BA3FA4292","title":"金脚盆养生足道","lon":"121.44722","lat":"31.18226","category":"149","category_name":"洗浴推拿场所","address":"徐汇区中山南二路969号近双峰路;;"},{"poiid":"B2094757D765A4FF4793","title":"晓林港式烧腊","lon":"121.4437","lat":"31.18168","category":"68","category_name":"快餐厅","address":"徐汇区天钥桥路666号(近世纪联华超市)"},{"poiid":"B2094752D468AAFB439F","title":"锦江乐园","lon":"121.446345","lat":"31.182532","category":"500","category_name":"未知分类","address":null},{"poiid":"B2094750D36EAAF4499C","title":"八万人体育场（17号看台）","lon":"121.44284","lat":"31.181451","category":"500","category_name":"未知分类","address":null},{"poiid":"B209475DD56DA4FA419A","title":"ICON by Angel","lon":"121.446075","lat":"31.181941","category":"248","category_name":"生活娱乐","address":"上海市 万体馆7号门"},{"poiid":"B2094654DB65A1FC489A","title":"上海第二工业大学成人与继续教育学院徐汇校区","lon":"121.44502","lat":"31.18339","category":"52","category_name":"高等院校","address":""},{"poiid":"B2094654DA6DA7F84299","title":"中信中山大楼","lon":"121.44656","lat":"31.18141","category":"46","category_name":"楼宇","address":"中山南二路999弄1-19号"},{"poiid":"B2094655D26BA2F8469C","title":"天钥桥路龙山新村","lon":"121.44412","lat":"31.18246","category":"38","category_name":"公交车站","address":""},{"poiid":"B2094753D464AAFC499B","title":"徐家汇","lon":"121.446022","lat":"31.183513","category":"500","category_name":"未知分类","address":"上海市 上海市徐汇区"},{"poiid":"B2094757D169A0FF4393","title":"天钥新村","lon":"121.446525304","lat":"31.1853354701","category":"252","category_name":"楼宇机构","address":"上海天钥新村66号"},{"poiid":"B2094757D169A3FE429A","title":"全家Family Mart(四号线上海体育场店)","lon":"121.445426586","lat":"31.184092529","category":"117","category_name":"便民商店/便利店","address":"上海市徐汇区四号线上海体育场站内"},{"poiid":"B2094654DA6DA7FF4199","title":"宛南六村","lon":"121.44566","lat":"31.179573","category":"47","category_name":"住宅区","address":"上海天钥桥路905弄"},{"poiid":"B2094757D66CA3FA4393","title":"tokyo express","lon":"121.44384858","lat":"31.181848485","category":"113","category_name":"冷饮店","address":"徐汇区天钥桥路666号世纪联华超市内"},{"poiid":"B2094753D46BA2FC4293","title":"拉亚汉堡","lon":"121.444984","lat":"31.181365","category":"247","category_name":"餐饮美食","address":"上海市 宜山路"},{"poiid":"B2094654DA6DA7F84398","title":"快客便利连锁No.169","lon":"121.4473","lat":"31.18235","category":"117","category_name":"便民商店/便利店","address":"枫林路"},{"poiid":"B2094655D268A5FF479F","title":"天龙小区","lon":"121.44718","lat":"31.18354","category":"47","category_name":"住宅区","address":"中山南二路950-960弄"},{"poiid":"B2094753D569AAF9479E","title":"八万人体育馆","lon":"121.446525","lat":"31.181686","category":"500","category_name":"未知分类","address":"上海市 上海"},{"poiid":"B2094757D66CA6FB499D","title":"天德堂中医门诊","lon":"121.44598693","lat":"31.181469436","category":"162","category_name":"医院","address":"上海中山南二路"},{"poiid":"B2094757D164A4F5409C","title":"复旦大学继续教育学院","lon":"121.445919586","lat":"31.180968468","category":"671","category_name":"高校中心点","address":"上海东安路130号"},{"poiid":"B2094757D068A5F8499E","title":"三夫户外用品(天钥桥路店)","lon":"121.44465","lat":"31.17978","category":"140","category_name":"体育用品店","address":"徐汇区天钥桥路859号北海大厦2楼(近零陵路)"},{"poiid":"B2094654DA6DA7F8429E","title":"中山苑","lon":"121.44663","lat":"31.181137","category":"47","category_name":"住宅区","address":"中山南二路999弄"},{"poiid":"B2094757D16AA7FA4298","title":"甜言蜜语","lon":"121.447433178","lat":"31.1836018036","category":"247","category_name":"餐饮美食","address":"上海天钥桥路580号星游城1F-16"},{"poiid":"B2094654DA6DA7F8439A","title":"宝来富宠物世界","lon":"121.44722","lat":"31.18228","category":"117","category_name":"便民商店/便利店","address":"中山南二路969号4-5识别"}]