[{"poiid":"B2094757D06AABF5429E","title":"吴淞口国际邮轮港","lon":"121.50557","lat":"31.404876","category":"500","category_name":"未知分类","address":"上海市宝山区宝杨路１号"},{"poiid":"B2094757D06FA1FE4299","title":"临江公园","lon":"121.49385081","lat":"31.408717702","category":"196","category_name":"公园","address":"上海市宝山区友谊路1号"},{"poiid":"B2094757D06FA5F44392","title":"宝杨码头","lon":"121.501694","lat":"31.40562","category":"234","category_name":"海滨浴场","address":"上海宝山区宝杨支路18号"},{"poiid":"B2094757D068A4FE4693","title":"长江江堤","lon":"121.49430583","lat":"31.411120415","category":"500","category_name":"未知分类","address":"上海市宝山区盘古路"},{"poiid":"B2094757D068A7FC4592","title":"行知中学","lon":"121.49784","lat":"31.40544","category":"55","category_name":"中学","address":"宝山区宝林支路99号"},{"poiid":"B2094757D068A0F5479C","title":"宝山区人民政府","lon":"121.48960876","lat":"31.405456543","category":"500","category_name":"未知分类","address":"上海密山路5号"},{"poiid":"B2094654DB6AA5FA409B","title":"上海红露圆宁江大酒店","lon":"121.48928","lat":"31.40715","category":"250","category_name":"公园户外","address":"上海宝山区友谊路40号"},{"poiid":"B2094654D46AA6FA4693","title":"宝杨路码头候船室","lon":"121.50009","lat":"31.40575","category":"34","category_name":"港口码头","address":""},{"poiid":"B2094757D06AABFA439B","title":"淞沪抗战纪念馆","lon":"121.493002","lat":"31.408646","category":"182","category_name":"博物馆","address":"宝山区友谊路1号临江公园内(近东林路)"},{"poiid":"B2094654D46AA6F9449E","title":"祥腾国际广场","lon":"121.489","lat":"31.4136","category":"46","category_name":"楼宇","address":"上海市松江区涞坊路599弄"},{"poiid":"B2094757D06AA1FA4199","title":"小绍兴(东林路店)","lon":"121.49421","lat":"31.40477","category":"68","category_name":"快餐厅","address":"宝山区东林路227号(近密山路)"},{"poiid":"B2094757DA6FA2FC4998","title":"吴淞炮台湾湿地公园(北门)","lon":"121.501836776732","lat":"31.4026964848086","category":"250","category_name":"公园户外","address":"宝山区宝杨路(近宝杨支路)"},{"poiid":"B2094757D66CA6FB459F","title":"黄浦江边","lon":"121.49665683","lat":"31.408402359","category":"500","category_name":"未知分类","address":"上海市宝山区东林路"},{"poiid":"B2094757D16EA7F94992","title":"宝林九村","lon":"121.504952","lat":"31.410461","category":"252","category_name":"楼宇机构","address":"上海市宝山区宝林路"},{"poiid":"B2094654D46AA5F5439F","title":"宝林八村","lon":"121.49574","lat":"31.407093","category":"47","category_name":"住宅区","address":"宝林八村"},{"poiid":"B2094654D46AA5F5429D","title":"凯源景江苑","lon":"121.49313","lat":"31.41293","category":"47","category_name":"住宅区","address":"盘古路19弄"},{"poiid":"B2094654D46AA4FE4198","title":"宝山六村","lon":"121.502","lat":"31.397743","category":"47","category_name":"住宅区","address":"上海市宝山区永乐路115弄"},{"poiid":"B2094654D46AA4F9499F","title":"宝钢一村","lon":"121.494","lat":"31.4097","category":"47","category_name":"住宅区","address":"友谊路114号"},{"poiid":"B209475DD365A2FD469C","title":"上海吴淞国际码头","lon":"121.512001","lat":"31.40802","category":"500","category_name":"未知分类","address":"上海宝山区宝杨路"},{"poiid":"B2094757D568A5FC4293","title":"宝杨路客运码头","lon":"121.5038789","lat":"31.40380139","category":"35","category_name":"长途汽车站","address":"宝杨支路18号宝杨码头"},{"poiid":"B2094655D265AAFF449E","title":"恺源景江苑","lon":"121.500343","lat":"31.417773","category":"47","category_name":"住宅区","address":"上海市宝山区盘古路115号"},{"poiid":"B2094654D46AA4FE439C","title":"中艺花园","lon":"121.49869","lat":"31.3999","category":"47","category_name":"住宅区","address":"中艺花园位于宝山海江路9号"},{"poiid":"B2094654D46AA4FE4993","title":"宝钢宝山十村(淞宝路)","lon":"121.49414","lat":"31.39959","category":"47","category_name":"住宅区","address":"宝山十村108"},{"poiid":"B2094757D16CA2F5449B","title":"杉松酒家","lon":"121.49534","lat":"31.40153","category":"76","category_name":"上海菜","address":"宝山区东林路17号(近宝杨路)"},{"poiid":"B2094654D46AA5F5439E","title":"临江佳园","lon":"121.497","lat":"31.407377","category":"47","category_name":"住宅区","address":"上海市宝山区密山东路11号"},{"poiid":"B2094654D46AA6FA469B","title":"宝钢宝林九村","lon":"121.49991","lat":"31.40378","category":"47","category_name":"住宅区","address":"友谊路"},{"poiid":"B2094757D16BA6F9479F","title":"宝林五村","lon":"121.498","lat":"31.4109","category":"252","category_name":"楼宇机构","address":"上海宝山区宝林五村"},{"poiid":"B2094654D46AA6FB409B","title":"宝钢宝林六村","lon":"121.49604","lat":"31.40335","category":"47","category_name":"住宅区","address":"友谊路"},{"poiid":"B2094654D46AA4FC4193","title":"宝城三村(海景苑)","lon":"121.49277","lat":"31.41064","category":"47","category_name":"住宅区","address":"友谊路"},{"poiid":"B2094654D46AA7FB4099","title":"宝山一村","lon":"121.509","lat":"31.4009","category":"47","category_name":"住宅区","address":"上海双城路宝东路宝山一村4号"},{"poiid":"B2094750D16BA0F84992","title":"宝山体育中心羽毛球馆","lon":"121.498832","lat":"31.398883","category":"250","category_name":"公园户外","address":"宝山区永清路700号(近海江路)"},{"poiid":"B2094757D169A1FE459B","title":"宝林三村","lon":"121.499","lat":"31.4084","category":"252","category_name":"楼宇机构","address":"上海宝林三村"},{"poiid":"B2094750D16BA2FE4598","title":"皇家加勒比游轮","lon":"121.502983","lat":"31.404596","category":"500","category_name":"未知分类","address":null},{"poiid":"B2094750D669A4FA459A","title":"上海长江河口科技馆","lon":"121.506713","lat":"31.400457","category":"250","category_name":"公园户外","address":"宝山区塘后路206号吴淞炮台湾湿地公园(近国际邮轮码头)"},{"poiid":"B2094757D069A5FE4692","title":"宝山区人民法院","lon":"121.49107","lat":"31.408154","category":"608","category_name":"法院","address":"上海友谊路15号"},{"poiid":"B2094757D164A4FA439B","title":"海滨五村","lon":"121.50103062728","lat":"31.401987993104","category":"46","category_name":"楼宇","address":"上海牡丹江路水产路"},{"poiid":"B2094654DB69AAF4459B","title":"红露园","lon":"121.49168230383","lat":"31.408288477598","category":"247","category_name":"餐饮美食","address":"宝山区友谊路40号(近友谊支路)"},{"poiid":"B2094654D46AA4FE459C","title":"上海市基督教吴淞堂","lon":"121.5013","lat":"31.40229","category":"245","category_name":"教堂","address":"宝山区宝杨路74"},{"poiid":"B2094654D46AA6FB419A","title":"晓刚面亭","lon":"121.49426744298","lat":"31.404081705949","category":"68","category_name":"快餐厅","address":"宝山区东林路69号(近宝杨路)"},{"poiid":"B2094757D068A7F44393","title":"宝山七村","lon":"121.49985","lat":"31.396515","category":"252","category_name":"楼宇机构","address":"上海宝山区海江路永乐路"},{"poiid":"B2094750D665A3F84899","title":"段氏龙虾(东林路店)","lon":"121.494","lat":"31.4051","category":"68","category_name":"快餐厅","address":"宝山区东林路"},{"poiid":"B2094654D46AA6FA479A","title":"宝林七村","lon":"121.49573","lat":"31.404539","category":"47","category_name":"住宅区","address":"上海市宝林路子青路"},{"poiid":"B2094757D164A6F5489B","title":"潮州汤骨煲 东林路店","lon":"121.494951054","lat":"31.401899793","category":"86","category_name":"火锅店","address":"宝山区东林路69号(近宝杨路)"},{"poiid":"B2094750D76EA2FB449D","title":"新青年羊蝎子火锅","lon":"121.494","lat":"31.4042","category":"86","category_name":"火锅店","address":"宝山区东林路197号(近宝杨路)"},{"poiid":"B2094654D46AA5F5499A","title":"吴淞古炮台","lon":"121.49378","lat":"31.40902","category":"250","category_name":"公园户外","address":"临江公园内"},{"poiid":"B2094654D46AA4FE419F","title":"海江公寓","lon":"121.5037","lat":"31.399063","category":"47","category_name":"住宅区","address":"塘后路285弄"},{"poiid":"B209475CD768A2FB479B","title":"吴淞国际码头","lon":"121.495025","lat":"31.408901","category":"500","category_name":"未知分类","address":"上海市 上海宝杨路1号"},{"poiid":"B2094655D268A5FE4998","title":"快客No.6409(炫盈数码科技西)","lon":"121.49342","lat":"31.41216","category":"117","category_name":"便民商店/便利店","address":"盘古路23"},{"poiid":"B2094654DB69AAF84392","title":"苏北土菜馆","lon":"121.493","lat":"31.40864","category":"247","category_name":"餐饮美食","address":"上海市宝山区友谊路1号(临江公园门口)"},{"poiid":"B2094757D165ABF8439A","title":"湘村人家 宝山店","lon":"121.493932","lat":"31.404509","category":"77","category_name":"湖南菜","address":"宝山区东林路168号(近密山路)"},{"poiid":"B2094757D465ABF4419F","title":"和众堡","lon":"121.493725054","lat":"31.405320793","category":"68","category_name":"快餐厅","address":"宝山区东林路230号(近密山路)"},{"poiid":"B2094757D16FA6F5489C","title":"宝林四小","lon":"121.50114293","lat":"31.402752243","category":"56","category_name":"小学","address":"上海宝山区宝林七村82号"},{"poiid":"B2094654DB6AA6FF489E","title":"上海君航假日酒店","lon":"121.49411","lat":"31.40555","category":"250","category_name":"公园户外","address":"上海市宝山区密山东路256号"},{"poiid":"B2094654D46AA5F54893","title":"陈化成纪念馆","lon":"121.49378","lat":"31.40902","category":"243","category_name":"纪念馆","address":"友谊路1号"},{"poiid":"B2094654D46AA6FA479B","title":"宝山区肃苑会计进修学校(东大门)","lon":"121.49416","lat":"31.40547","category":"678","category_name":"学校大门","address":"密山东路258号"},{"poiid":"B2094757D068ABFA429C","title":"952b终点站","lon":"121.4911209","lat":"31.404288142","category":"38","category_name":"公交车站","address":"上海友谊路宝钢一村门口"},{"poiid":"B2094654D46AA6FA469A","title":"友谊街道社区卫生服务中心","lon":"121.49568","lat":"31.40164","category":"162","category_name":"医院","address":"宝杨路333"},{"poiid":"B2094655D36CA5F54793","title":"宝杨路宝东路","lon":"121.49815","lat":"31.4021","category":"38","category_name":"公交车站","address":""},{"poiid":"B2094654D46AA5F5459F","title":"博士娃幼儿园","lon":"121.49308","lat":"31.40702","category":"57","category_name":"幼儿园","address":"上海市宝山区东林路"},{"poiid":"B2094757D06AA0F8499C","title":"宝山二村","lon":"121.507","lat":"31.4014","category":"260","category_name":"其他","address":"上海市宝山区双城路"},{"poiid":"B2094655D268A4F84699","title":"宝城三村(北门)","lon":"121.49291","lat":"31.41159","category":"47","category_name":"住宅区","address":""},{"poiid":"B2094655D36CA6FB429A","title":"东林路","lon":"121.49308","lat":"31.40649","category":"38","category_name":"公交车站","address":"上海东林路320号"},{"poiid":"B2094654D46AA6FB4599","title":"宝房集团宝林四村小区","lon":"121.49162","lat":"31.40484","category":"47","category_name":"住宅区","address":"友谊路"},{"poiid":"B2094655D26FAAFF4993","title":"临江佳园(南门)","lon":"121.49721","lat":"31.40701","category":"48","category_name":"楼宇大门","address":"密山东路11弄1-15号"},{"poiid":"B2094757D66CA5FB489D","title":"临江二村","lon":"121.496","lat":"31.4069","category":"252","category_name":"楼宇机构","address":"上海友谊支路盘古路"},{"poiid":"B2094655D36CA6FB4298","title":"东林路密山东路","lon":"121.49381","lat":"31.4048","category":"38","category_name":"公交车站","address":""},{"poiid":"B2094757D16BABF84598","title":"临江汗蒸堂","lon":"121.49412183","lat":"31.405747104","category":"148","category_name":"美容美发店","address":"宝山区东林路399号2楼(近临江公园)"},{"poiid":"B2094757D064A4F44293","title":"南翔馒头","lon":"121.48894","lat":"31.40663","category":"68","category_name":"快餐厅","address":"宝山区友谊路46号(近友谊支路)"},{"poiid":"B2094654D46AA5F44792","title":"临江四村","lon":"121.49133","lat":"31.412615","category":"47","category_name":"住宅区","address":"盘古路东林路"},{"poiid":"B2094757D16FA5FF4499","title":"寶城二村","lon":"121.48885233","lat":"31.408581263","category":"252","category_name":"楼宇机构","address":"上海市友誼路東林路"},{"poiid":"B2094654D46AA6FA479D","title":"可的(密山东路)","lon":"121.49383","lat":"31.40548","category":"117","category_name":"便民商店/便利店","address":"密山东路268"},{"poiid":"B2094654D46AA5F5459C","title":"宝钢宝林五村","lon":"121.49103","lat":"31.40608","category":"47","category_name":"住宅区","address":"友谊路"},{"poiid":"B2094757D16DA6FE499F","title":"行知中学宿舍楼","lon":"121.50007523","lat":"31.403496958","category":"500","category_name":"未知分类","address":"上海市宝山区宝杨路55号"},{"poiid":"B2094654D46AA5F4499F","title":"华联超市NO.1285","lon":"121.49225","lat":"31.4117","category":"118","category_name":"超级市场","address":"盘古路119"},{"poiid":"B2094655D36CA6FB4199","title":"东林路密山路","lon":"121.49363","lat":"31.40525","category":"38","category_name":"公交车站","address":""},{"poiid":"B2094654D46AA5F5489C","title":"上海宝山民办佳雅口腔门诊部","lon":"121.4927","lat":"31.40838","category":"162","category_name":"医院","address":"东林路395弄9号"},{"poiid":"B2094654D46AA5F5489B","title":"风荷楼","lon":"121.49253","lat":"31.40822","category":"66","category_name":"茶艺馆","address":"宝山区东林路399号风荷茶楼(临江公园旁)"},{"poiid":"B2094654D46AA5F44693","title":"宝山区实验小学","lon":"121.48945","lat":"31.41141","category":"56","category_name":"小学","address":"东林路500"},{"poiid":"B2094655D26BA1F8469A","title":"漠河路盘古路","lon":"121.49014","lat":"31.41268","category":"38","category_name":"公交车站","address":""},{"poiid":"B2094654D46AA6FF4893","title":"新宝山大厦","lon":"121.48991390948","lat":"31.411130311885","category":"46","category_name":"楼宇","address":"友谊路199号"},{"poiid":"B2094654D46AA6FA449F","title":"宝林新苑","lon":"121.49207","lat":"31.401365","category":"47","category_name":"住宅区","address":"宝杨路555弄"},{"poiid":"B2094655D26FAAFF4992","title":"宝林五村(东门)","lon":"121.49284","lat":"31.40641","category":"47","category_name":"住宅区","address":""},{"poiid":"B2094655D268A0FF499A","title":"快客No.5156","lon":"121.49394","lat":"31.40497","category":"117","category_name":"便民商店/便利店","address":"东林路223"},{"poiid":"B2094655D268A4FB4792","title":"上海市基督教吴淞堂(北门)","lon":"121.50147","lat":"31.40249","category":"680","category_name":"楼宇机构","address":""},{"poiid":"B2094654D46AA6FB449E","title":"临江商场","lon":"121.49343","lat":"31.40519","category":"119","category_name":"商场","address":"东林路220"},{"poiid":"B2094757D065A2FA4099","title":"老四海鲜","lon":"121.49145383","lat":"31.412678447","category":"247","category_name":"餐饮美食","address":"上海市杨浦区平凉路通北路"},{"poiid":"B2094757D169A2FB409C","title":"第四届BBQ盛典现场","lon":"121.49362783","lat":"31.412345441","category":"500","category_name":"未知分类","address":"上海市宝山区临江公园"},{"poiid":"B2094655D26FAAF8409C","title":"宝城三村海景苑(西门)","lon":"121.49146","lat":"31.41022","category":"47","category_name":"住宅区","address":""},{"poiid":"B2094757D66EA4FB4598","title":"东林路盘古路116公交站","lon":"121.493799","lat":"31.404727","category":"38","category_name":"公交车站","address":"上海东林路"},{"poiid":"B2094654D46AA5F4479C","title":"上海市宝山区培智学校","lon":"121.49076","lat":"31.41188","category":"57","category_name":"幼儿园","address":"宝山区东林路555号"},{"poiid":"B2094655D26FABF94198","title":"宝城新村","lon":"121.48963","lat":"31.40963","category":"47","category_name":"住宅区","address":""},{"poiid":"B2094654D46AA6FB409A","title":"好德NO.617","lon":"121.49456","lat":"31.40326","category":"117","category_name":"便民商店/便利店","address":"东林路135"},{"poiid":"B2094654D46AA4F9449C","title":"牡丹锦苑","lon":"121.491","lat":"31.4066","category":"47","category_name":"住宅区","address":"牡丹锦苑位于宝山宝林路481"},{"poiid":"B2094655D268A0FF499B","title":"宝林四村(东门)","lon":"121.49365","lat":"31.40458","category":"47","category_name":"住宅区","address":""},{"poiid":"B209475CD269A0FB429A","title":"上海吴淞口国际邮轮港","lon":"121.491355","lat":"31.410518","category":"500","category_name":"未知分类","address":"上海市 上海市宝山区宝杨路1号"},{"poiid":"B2094655D26BA1FD449A","title":"盘古路东林路","lon":"121.48991","lat":"31.41068","category":"38","category_name":"公交车站","address":""},{"poiid":"B2094655D268A2F8469B","title":"陵江公园(西门)","lon":"121.49279","lat":"31.4086","category":"680","category_name":"楼宇机构","address":"友谊路1"},{"poiid":"B2094757D569A3F54398","title":"迪亚天天(宝林四村东北)","lon":"121.49347304","lat":"31.40511041","category":"117","category_name":"便民商店/便利店","address":"中国上海市宝山区东林路"},{"poiid":"B2094757D66FA3FF499F","title":"中国黄金宝山店","lon":"121.496805031","lat":"31.4040325694","category":"500","category_name":"未知分类","address":"上海牡丹江路1670号"},{"poiid":"B2094655D268A2F54993","title":"恺源景江苑(南门)","lon":"121.4936","lat":"31.41225","category":"48","category_name":"楼宇大门","address":"盘古路19弄"},{"poiid":"B2094654D46AA6FB489F","title":"宝钢宝林三村","lon":"121.49287","lat":"31.40225","category":"47","category_name":"住宅区","address":"友谊路"},{"poiid":"B2094655D268A1F84799","title":"友谊商务楼(友谊路)","lon":"121.49015","lat":"31.40791","category":"46","category_name":"楼宇","address":"友谊路33号"},{"poiid":"B2094654D46AA5F44798","title":"上海港宝山港务公司集体宿舍楼","lon":"121.49025","lat":"31.41312","category":"47","category_name":"住宅区","address":""},{"poiid":"B2094757D064A7FB4098","title":"迪欧咖啡 宝山店 DIO CAFE","lon":"121.48941166259","lat":"31.407595687416","category":"260","category_name":"其他","address":"宝山区友谊路45号(近友谊支路)"},{"poiid":"B2094654D46AA6FA4892","title":"中国建设银行上海市东林路支行","lon":"121.49359","lat":"31.40588","category":"150","category_name":"银行","address":"宝山区东林路223号(密山东路密山路)"},{"poiid":"B2094655D36DA0F4499B","title":"友谊支路","lon":"121.4904","lat":"31.40767","category":"38","category_name":"公交车站","address":""},{"poiid":"B2094757DA65AAF44692","title":"上海临江壹号酒店","lon":"121.489917","lat":"31.40756807","category":"215","category_name":"三星级宾馆","address":"宝山区友谊路33号(近县佑街)"},{"poiid":"B2094757D16CA1FA439F","title":"宝山区人民检察院","lon":"121.49060058","lat":"31.407989502","category":"608","category_name":"法院","address":"上海宝山区友谊路17号"},{"poiid":"B2094654DB6AA5FA459E","title":"宝林一村","lon":"121.490574","lat":"31.403962","category":"47","category_name":"住宅区","address":"宝杨路853号"},{"poiid":"B2094655D268A5FE4992","title":"水上新村","lon":"121.48887","lat":"31.407965","category":"47","category_name":"住宅区","address":"新建中路88弄"},{"poiid":"B2094654D46AA6FA459E","title":"好德NO.151","lon":"121.49515","lat":"31.40151","category":"117","category_name":"便民商店/便利店","address":"东林路1"},{"poiid":"B2094757D66CA1FF4898","title":"宝山区友谊支路79号","lon":"121.492467831","lat":"31.4056743033","category":"500","category_name":"未知分类","address":"上海市宝山区人力资源和社会保障局"},{"poiid":"B2094757D568ABFF419D","title":"联华超市(塘后路)","lon":"121.50344618","lat":"31.39903754","category":"118","category_name":"超级市场","address":"塘后路381"},{"poiid":"B2094757D16DA2F8459D","title":"上海市宝山区医疗保险事务中心","lon":"121.499964831","lat":"31.3996001779","category":"500","category_name":"未知分类","address":"上海市宝山区宝东路879号"},{"poiid":"B2094757D16FA3FC449D","title":"赛博数码广场(宝山店)","lon":"121.49188","lat":"31.40768","category":"138","category_name":"家电电子卖场","address":"上海宝山区友谊路49号  "},{"poiid":"B2094757D168ABFB499A","title":"友临居","lon":"121.49273","lat":"31.40824","category":"260","category_name":"其他","address":"宝山区友谊路1号(近东林路)"},{"poiid":"B2094655D26BA1F8479B","title":"漠河路东林路","lon":"121.48854","lat":"31.41307","category":"38","category_name":"公交车站","address":""},{"poiid":"B2094757D169A3FC4493","title":"临江新村","lon":"121.49301427236","lat":"31.417663353742","category":"500","category_name":"未知分类","address":"上海宝山区友谊之路"},{"poiid":"B2094757D16FA5FB489A","title":"宝信软件海江路基地","lon":"121.501192","lat":"31.399475","category":"500","category_name":"未知分类","address":"上海宝山区海江路5号"},{"poiid":"B2094753D468A2FE429A","title":"宝山体育馆","lon":"121.493339","lat":"31.40163","category":"220","category_name":"运动场所","address":"上海市 永清路"},{"poiid":"B2094655D268A1F8469D","title":"宝林八村(南门)","lon":"121.49629","lat":"31.40674","category":"656","category_name":"大门","address":""},{"poiid":"B2094757D06BA6F44398","title":"宝经培训","lon":"121.49047","lat":"31.40716","category":"253","category_name":"校园生活","address":"宝山区宝城二村6号(县佑街友谊路)"},{"poiid":"B209475DD76AABFA4093","title":"吴淞炮台湾湿地森林公园","lon":"121.511054","lat":"31.39783","category":"250","category_name":"公园户外","address":"上海市 上海市宝山区黄浦江"},{"poiid":"B2094654D46AA4FE479C","title":"宝山派出所","lon":"121.49796","lat":"31.40126","category":"609","category_name":"警察局","address":"宝杨路256号"},{"poiid":"B2094655D268A4FB479D","title":"宝钢宝山九村(西门)","lon":"121.49572","lat":"31.39999","category":"47","category_name":"住宅区","address":""},{"poiid":"B2094655D36CA4FC429F","title":"宝东路海江路","lon":"121.50067","lat":"31.39725","category":"38","category_name":"公交车站","address":""},{"poiid":"B2094655D268A0F84098","title":"宝钢宝林九村(西一门)","lon":"121.49727","lat":"31.40489","category":"656","category_name":"大门","address":""},{"poiid":"B2094654DB6AA5F94493","title":"宝钢集团宝林四村小区(南门)","lon":"121.49249","lat":"31.40314","category":"47","category_name":"住宅区","address":"友谊路"},{"poiid":"B2094757D064A4F8439E","title":"宝山区机关幼儿园","lon":"121.49079","lat":"31.40377","category":"57","category_name":"幼儿园","address":"宝山区密山路4号"},{"poiid":"B2094757D16FAAF4469D","title":"合宴酒楼","lon":"121.50195","lat":"31.39935","category":"260","category_name":"其他","address":"宝山区海江路5号(海江路塘后路)"},{"poiid":"B2094655D268A0F8409A","title":"宝钢宝林九村(西门)","lon":"121.49914","lat":"31.40348","category":"656","category_name":"大门","address":""},{"poiid":"B2094757D16CA7F54493","title":"崇明 堡镇","lon":"121.49179239","lat":"31.417236541","category":"500","category_name":"未知分类","address":null},{"poiid":"B2094654D46AA5FB4193","title":"宝山宁江商场部宁江店","lon":"121.48905","lat":"31.40704","category":"119","category_name":"商场","address":"友谊路40-2"},{"poiid":"B2094757D06BA1FB429A","title":"宝林四村","lon":"121.49294","lat":"31.404434","category":"252","category_name":"楼宇机构","address":"上海宝林四村"},{"poiid":"B2094757D66CA0FB469A","title":"718","lon":"121.501457","lat":"31.399552","category":"500","category_name":"未知分类","address":"上海718"},{"poiid":"B2094655D268A5FE4993","title":"水上新村(南门)","lon":"121.48904","lat":"31.40744","category":"47","category_name":"住宅区","address":""},{"poiid":"B2094757D16EA2F5449C","title":"159路(大华新村~宝山临江四村)","lon":"121.48970043","lat":"31.415186599","category":"500","category_name":"未知分类","address":"上海大华新村~宝山(临江四村)"},{"poiid":"B2094655D268A0F84493","title":"上海市宝山区第一中心小学东部校区","lon":"121.49958","lat":"31.39813","category":"56","category_name":"小学","address":"宝东路580"},{"poiid":"B2094654D46AA4FE4398","title":"上海市宝山区民政福利企业公司","lon":"121.50061","lat":"31.39995","category":"263","category_name":"公司","address":"宝东路885"},{"poiid":"B2094655D26FABFA439F","title":"宝钢宝林六村(南一门)","lon":"121.49822","lat":"31.4023","category":"656","category_name":"大门","address":""},{"poiid":"B2094757D66CA3F5469B","title":"宝山九村","lon":"121.49686","lat":"31.398853","category":"252","category_name":"楼宇机构","address":"上海淞宝路宝杨路"},{"poiid":"B2094757D464A6F94898","title":"品客休闲屋 淞宝路店","lon":"121.497141054","lat":"31.396650793","category":"68","category_name":"快餐厅","address":"宝山区淞宝路1074号(近区卫生成人中等专业学校)"},{"poiid":"B2094757D16BA2F9479C","title":"小海螺幼儿园","lon":"121.495361831","lat":"31.4003401932","category":"253","category_name":"校园生活","address":"宝山区宝山十村49号"},{"poiid":"B2094655D268A1F8469F","title":"宝林八村(西门)","lon":"121.49433","lat":"31.40626","category":"656","category_name":"大门","address":""},{"poiid":"B2094757D168AAFD4192","title":"全家便利(友谊路店)","lon":"121.48881283","lat":"31.407141333","category":"249","category_name":"购物服务","address":"上海市宝山区友谊路37号"},{"poiid":"B2094655D268A1F9419B","title":"福幸餐厅","lon":"121.50036","lat":"31.40158","category":"260","category_name":"其他","address":"宝山区东林路3号(近宝杨路)"},{"poiid":"B2094655D268A5F4449B","title":"海江公寓(西门)","lon":"121.5048","lat":"31.39653","category":"47","category_name":"住宅区","address":"塘后路285弄1-21号"},{"poiid":"B2094654D46AA6FB4898","title":"上海市宝山区国家税务局","lon":"121.49108","lat":"31.40298","category":"250","category_name":"公园户外","address":"宝林路43"},{"poiid":"B2094654D46AA5F4409C","title":"芳芳理发店(宝山区政府采购中心东北)","lon":"121.48843","lat":"31.40935","category":"148","category_name":"美容美发店","address":"宝城一村37"},{"poiid":"B2094757DB6FA5FE469A","title":"吴淞古炮台公园","lon":"121.5022320674001","lat":"31.39532357457224","category":"196","category_name":"公园","address":"双城路"},{"poiid":"B2094757D069A0FE439B","title":"海滨七村","lon":"121.49321235759","lat":"31.402269136486","category":"252","category_name":"楼宇机构","address":"牡丹江路382弄"},{"poiid":"B2094757D16EA2FD469E","title":"成亿宝盛","lon":"121.495537","lat":"31.401579","category":"500","category_name":"未知分类","address":"上海水产西路858弄"},{"poiid":"B2094750D26AA1F84493","title":"宝城一村","lon":"121.489501","lat":"31.407653","category":"252","category_name":"楼宇机构","address":"友谊路友谊支路"},{"poiid":"B2094654D46AA4FD469A","title":"世纪华联NO.718","lon":"121.49703","lat":"31.39829","category":"118","category_name":"超级市场","address":"海江路275"},{"poiid":"B209475CD66EA3F9449E","title":"宝杨路码头","lon":"121.489494","lat":"31.407253","category":"500","category_name":"未知分类","address":"上海市 宝杨路"},{"poiid":"B2094654D46AA4FD479A","title":"上海新世纪药业有限公司","lon":"121.50019","lat":"31.39954","category":"263","category_name":"公司","address":"宝东路879"},{"poiid":"B2094654D46AA4FC4199","title":"倩倩棋牌(边门)","lon":"121.49095","lat":"31.41057","category":"175","category_name":"棋牌室","address":"盘古路128"},{"poiid":"B2094757D569A3F84593","title":"意绿王洗衣(宝杨路店)","lon":"121.49541531","lat":"31.40142605","category":"610","category_name":"干洗店","address":"中国上海市宝山区宝杨路"},{"poiid":"B2094655D26FABFA439C","title":"宝钢宝林六村(北门)","lon":"121.49677","lat":"31.40381","category":"656","category_name":"大门","address":""},{"poiid":"B2094655D268A4F54393","title":"宝莲府邸","lon":"121.493","lat":"31.4003","category":"47","category_name":"住宅区","address":"海江路803弄1-38号"},{"poiid":"B2094655D26FABF9419F","title":"临江四村(南门)","lon":"121.49151","lat":"31.41153","category":"656","category_name":"大门","address":""},{"poiid":"B2094654D46AA6FB459A","title":"阿竹棋牌","lon":"121.49322","lat":"31.40526","category":"175","category_name":"棋牌室","address":""},{"poiid":"B2094655D265A5FB4398","title":"住友宝莲府邸","lon":"121.492464","lat":"31.401019","category":"47","category_name":"住宅区","address":"上海市宝山区杨泰路300号"},{"poiid":"B2094757D569A2FE429F","title":"安徽人家酒楼","lon":"121.49514","lat":"31.40156306","category":"260","category_name":"其他","address":"宝山区东林路3号(近宝杨路)"},{"poiid":"B2094655D26FABFA4398","title":"宝林新苑(南门)","lon":"121.49234","lat":"31.4006","category":"47","category_name":"住宅区","address":"宝杨路555弄"},{"poiid":"B2094655D268A5F44392","title":"宝钢宝林六村(南门)","lon":"121.49687","lat":"31.4018","category":"656","category_name":"大门","address":""},{"poiid":"B2094757D569A6F94399","title":"长五小卖部","lon":"121.50292453","lat":"31.39648899","category":"117","category_name":"便民商店/便利店","address":"永乐路118-120"},{"poiid":"B2094655D268A0F84092","title":"宝钢宝林六村(北一门)","lon":"121.49571","lat":"31.40348","category":"656","category_name":"大门","address":""},{"poiid":"B2094757D66CAAF94098","title":"宝钢五村","lon":"121.488084","lat":"31.412205","category":"252","category_name":"楼宇机构","address":"上海宝山区牡丹江路1779号"},{"poiid":"B2094654D46AA6FA4593","title":"一德大药房宝林药店","lon":"121.49552","lat":"31.40144","category":"669","category_name":"药店","address":"宝杨路335号"},{"poiid":"B2094757D66CA1FE4399","title":"上海锦道汽车维修有限公司","lon":"121.48941683","lat":"31.409090373","category":"158","category_name":"汽车销售","address":"北京上海市宝山区牡丹江路1255号海江路口"},{"poiid":"B2094654D46BA2FC4498","title":"双城路二弄小区","lon":"121.50777","lat":"31.39484","category":"47","category_name":"住宅区","address":"上海市宝山区双城路塘后路"},{"poiid":"B2094654D46AA4FC4792","title":"皮皮家族","lon":"121.49574","lat":"31.39753","category":"162","category_name":"医院","address":"海江路320号"},{"poiid":"B2094757D16BA4F8409D","title":"宝山区人民调解工作室","lon":"121.489445191","lat":"31.4066195028","category":"500","category_name":"未知分类","address":"上海市宝山区友谊路15号2314室"},{"poiid":"B2094757D16DA2F94893","title":"尊爵台球馆(淞南店)","lon":"121.48991","lat":"31.40449","category":"171","category_name":"台球厅","address":"上海宝山区淞发路901弄祥腾生活广场5号楼210室(长江南路口)  "},{"poiid":"B2094655D26FABFA4899","title":"双城路2弄小区(西门)","lon":"121.50557","lat":"31.39492","category":"47","category_name":"住宅区","address":"双城路2弄1-22号"},{"poiid":"B2094752D26BABFF449C","title":"上善宝邸","lon":"121.508543","lat":"31.394886","category":"47","category_name":"住宅区","address":"宝山区塘后支路19号"},{"poiid":"B2094757D16EAAFC439F","title":"海隆石油工业集团","lon":"121.489612","lat":"31.405457","category":"500","category_name":"未知分类","address":"上海市宝山区宝山工业园区罗东路1825号"},{"poiid":"B2094655D268A4FB4793","title":"中艺花园(东门)","lon":"121.49962","lat":"31.39998","category":"656","category_name":"大门","address":"宝东路888弄1-34号"},{"poiid":"B2094757D568A7FA4699","title":"杰隆公司宝垄车业服务(浩睿店)","lon":"121.5029267","lat":"31.39681939","category":"159","category_name":"汽车维修","address":"中国上海市宝山区永乐路"},{"poiid":"B2094655D26FABFA429C","title":"海江二村(一号门)","lon":"121.50415","lat":"31.39466","category":"47","category_name":"住宅区","address":""},{"poiid":"B2094655D268A1F8469A","title":"临江四村(西门)","lon":"121.49032","lat":"31.41264","category":"656","category_name":"大门","address":""},{"poiid":"B2094654D46AA7FB4698","title":"永清路337弄小区","lon":"121.50261513212","lat":"31.394884022499","category":"47","category_name":"住宅区","address":"永清路337弄1-6号"},{"poiid":"B2094655D268A1F5439B","title":"临江三村(南门)","lon":"121.48813","lat":"31.41023","category":"48","category_name":"楼宇大门","address":"盘古路247弄"},{"poiid":"B2094655D26FAAF4429B","title":"宝山六村(北门)","lon":"121.5016","lat":"31.39929","category":"656","category_name":"大门","address":""},{"poiid":"B2094654DB6AA5F84893","title":"宝山一村(西门)","lon":"121.50186","lat":"31.39536","category":"656","category_name":"大门","address":"宝东路41号"},{"poiid":"B2094655D268A3FA419C","title":"宝钢宝林三村(东门)","lon":"121.49459","lat":"31.40182","category":"656","category_name":"大门","address":""},{"poiid":"B2094655D268A3FA419F","title":"宝钢宝林三村(北一门)","lon":"121.49371","lat":"31.40297","category":"656","category_name":"大门","address":"友谊路"},{"poiid":"B2094655D26FABF94199","title":"宝城新村(北门)","lon":"121.48931","lat":"31.4102","category":"656","category_name":"大门","address":""},{"poiid":"B2094655D26FAAF44298","title":"中艺花园(南门)","lon":"121.49912","lat":"31.3989","category":"656","category_name":"大门","address":""},{"poiid":"B2094655D268A1F8479F","title":"宝城新村(南门)","lon":"121.48968","lat":"31.4083","category":"656","category_name":"大门","address":""},{"poiid":"B2094655D268A5F4439F","title":"宝钢宝林三村(南门)","lon":"121.49422","lat":"31.40117","category":"656","category_name":"大门","address":""},{"poiid":"B2094757D568A7F9409D","title":"美国优玛汽车膜特约施工中心","lon":"121.50122152","lat":"31.3957156","category":"159","category_name":"汽车维修","address":"宝东路60"},{"poiid":"B2094757D568A7F94092","title":"上海东方车友服务社","lon":"121.50120009","lat":"31.39577447","category":"159","category_name":"汽车维修","address":"宝东路62"},{"poiid":"B2094655D268A3FA4199","title":"宝钢宝林三村(北门)","lon":"121.49272","lat":"31.40263","category":"656","category_name":"大门","address":""},{"poiid":"B2094654D46AA4FD4598","title":"紫晶娱乐总汇","lon":"121.49712","lat":"31.39724","category":"248","category_name":"生活娱乐","address":"宝山区淞宝路1185号"},{"poiid":"B2094655D268A4FB479C","title":"宝钢宝山十村(东门)","lon":"121.49522","lat":"31.40029","category":"656","category_name":"大门","address":""},{"poiid":"B2094655D268A1F5449F","title":"宝山六村(西门)","lon":"121.50077","lat":"31.39774","category":"656","category_name":"大门","address":""},{"poiid":"B2094655D268A0F8449E","title":"宝山一村(西北门)","lon":"121.50145","lat":"31.39611","category":"656","category_name":"大门","address":"宝东路41号"},{"poiid":"B2094655D268A4FB469C","title":"宝山七村(南门)","lon":"121.49975","lat":"31.39595","category":"656","category_name":"大门","address":""}]