[{"poiid":"B2094654D46AA5FA4699","title":"宝山体育中心","lon":"121.49156","lat":"31.39502","category":"224","category_name":"综合体育馆","address":"宝山区永清路700号(近永乐路)"},{"poiid":"B2094751DA6CA0FD4199","title":"上影国际影城（宝山店）","lon":"121.491117","lat":"31.392712","category":"178","category_name":"电影院","address":"宝山区永清路700号(牡丹江路永乐路)"},{"poiid":"B2094750D565A7F54892","title":"宝山图书馆","lon":"121.491104","lat":"31.395362","category":"181","category_name":"图书馆","address":"海江路600号"},{"poiid":"B2094757D06BAAF54298","title":"宝宸体育馆","lon":"121.49473","lat":"31.39126","category":"220","category_name":"运动场所","address":"上海宝山区永清路700号(近永乐路)  "},{"poiid":"B2094757D064A1F84793","title":"宝山三村","lon":"121.49794","lat":"31.39304","category":"47","category_name":"住宅区","address":"上海市宝山区永清路双城路"},{"poiid":"B2094757D06FA4FE469E","title":"永清路双城路","lon":"121.49533939","lat":"31.390468051","category":"500","category_name":"未知分类","address":"上海站点"},{"poiid":"B2094757D064A3FF419F","title":"鼎鼎牛烤肉","lon":"121.494939831","lat":"31.3905349909","category":"68","category_name":"快餐厅","address":"宝山区永清路452号"},{"poiid":"B2094750D268AAFD4299","title":"鲜芋仙易买得牡丹江路店","lon":"121.495666","lat":"31.397224","category":"247","category_name":"餐饮美食","address":"宝山区牡丹江路1258号易买得内(近安信广场)"},{"poiid":"B2094751D565A2F9439B","title":"宝山上影国际影城","lon":"121.492693","lat":"31.39612","category":"178","category_name":"电影院","address":"永清路700号宝山体育中心1层"},{"poiid":"B2094757D069A2F5409D","title":"龙景轩(永清路店)","lon":"121.49266","lat":"31.39521","category":"76","category_name":"上海菜","address":"宝山区永清路717号(近宝辰体育馆)"},{"poiid":"B2094654D46AA4FD4398","title":"上海交通大学医学附属卫生学校宝山分校","lon":"121.49748","lat":"31.3955","category":"52","category_name":"高等院校","address":"永乐路399"},{"poiid":"B2094757D06FAAFE449B","title":"宝钢宝山八村","lon":"121.49163","lat":"31.396232","category":"47","category_name":"住宅区","address":"上海海江路永清路"},{"poiid":"B2094654D46AA6FC479C","title":"同恒大酒店","lon":"121.49423","lat":"31.39053","category":"76","category_name":"上海菜","address":"宝山区双城路428号(近牡丹江路)"},{"poiid":"B2094752D46CABFA4792","title":"鸿瑞兴宝山店","lon":"121.491318","lat":"31.395088","category":"247","category_name":"餐饮美食","address":"宝山区永清路700号"},{"poiid":"B2094757D465A1F84392","title":"吉田屋日本料理","lon":"121.496661054","lat":"31.394855793","category":"95","category_name":"日本料理","address":"宝山区永乐路747号(近牡丹江路)"},{"poiid":"B2094757D06AA4F44899","title":"鑫斐大酒店(夏园店)","lon":"121.49143","lat":"31.39023","category":"76","category_name":"上海菜","address":"宝山区牡丹江路1081号夏园宾馆内(近水产路)"},{"poiid":"B2094757D569A0FD419C","title":"鱼林王新概念火锅","lon":"121.49453342","lat":"31.39067301","category":"86","category_name":"火锅店","address":"宝山区双城路408号(近牡丹江路)"},{"poiid":"B2094753D76AA5FE419B","title":"韩江缘韩国年糕料理","lon":"121.492168","lat":"31.394158","category":"96","category_name":"韩国料理","address":"上海市宝山区永清路700号宝山体育馆内(近海江路)"},{"poiid":"B2094655D268A5FB459A","title":"宝山体育中心(东门)","lon":"121.49176","lat":"31.3951","category":"224","category_name":"综合体育馆","address":"友谊支路700号"},{"poiid":"B2094655D26AA4F5479C","title":"宝山第一中心小学","lon":"121.49613","lat":"31.39515","category":"247","category_name":"餐饮美食","address":"宝山区宝山八村11号"},{"poiid":"B2094757D065A3F8489F","title":"美美大酒店","lon":"121.493451","lat":"31.39018","category":"76","category_name":"上海菜","address":"宝山区双城路456号(近牡丹江路)"},{"poiid":"B2094750D665A2F84599","title":"胡子烧烤店","lon":"121.496","lat":"31.3897","category":"68","category_name":"快餐厅","address":"宝山区永清路349号"},{"poiid":"B2094654D46AA4FD449A","title":"乐天川菜馆","lon":"121.497541054","lat":"31.396002793","category":"71","category_name":"四川菜","address":"宝山区淞宝路永乐路路口(淞宝路永乐路)"},{"poiid":"B2094757D464A6F94193","title":"重庆鸡公煲 永清路店","lon":"121.494891054","lat":"31.391285793","category":"71","category_name":"四川菜","address":"宝山区永清路450号(近双城路)"},{"poiid":"B2094655D36DA0F4429F","title":"永清路","lon":"121.49539","lat":"31.3942","category":"38","category_name":"公交车站","address":""},{"poiid":"B2094757D068A7F44393","title":"宝山七村","lon":"121.49985","lat":"31.396515","category":"252","category_name":"楼宇机构","address":"上海宝山区海江路永乐路"},{"poiid":"B2094757D064A6F5479B","title":"永清公园","lon":"121.49863","lat":"31.39242","category":"196","category_name":"公园","address":"宝山区双城路234号(双城路淞宝路)"},{"poiid":"B2094655D268A0F8409B","title":"宝山三村北块住宅小区(北门)","lon":"121.4964","lat":"31.39443","category":"47","category_name":"住宅区","address":""},{"poiid":"B2094750D665AAF5439F","title":"金辣椒火锅(双城路店)","lon":"121.493","lat":"31.3899","category":"86","category_name":"火锅店","address":"宝山区双城路476号(近永清路)"},{"poiid":"B2094757D66BA3F8489E","title":"七欣天迷宗蟹 双城路店","lon":"121.49381","lat":"31.39016","category":"86","category_name":"火锅店","address":"宝山区双城路436号(双城路永清路)"},{"poiid":"B2094654DB6AA5F84999","title":"川味香","lon":"121.49185","lat":"31.38983","category":"71","category_name":"四川菜","address":"宝山区双城路350号(牡丹江路双城路)"},{"poiid":"B2094654D46AA7F5459C","title":"宝山三村香樟苑","lon":"121.49517","lat":"31.39252","category":"47","category_name":"住宅区","address":"宝山三村27幢92-95号"},{"poiid":"B2094757D06FA6FD4492","title":"永清一村","lon":"121.49464033678","lat":"31.393892256434","category":"47","category_name":"住宅区","address":"上海宝山区永清路双城路"},{"poiid":"B2094757D06BA4FE499D","title":"永健和汤包馆","lon":"121.496387439","lat":"31.3896782052","category":"247","category_name":"餐饮美食","address":"宝山区永清路349号(近淞清路)"},{"poiid":"B2094654DB69AAF4439D","title":"莉莲蛋挞 宝山店 Lillian Cake Shop","lon":"121.494464054","lat":"31.393645793","category":"247","category_name":"餐饮美食","address":"永乐路426号近永清路"},{"poiid":"B2094757D16AA0FC499F","title":"七色花艺术幼儿园","lon":"121.49398483","lat":"31.395566094","category":"57","category_name":"幼儿园","address":"宝山区宝山八村78号"},{"poiid":"B2094654D46AA7F5409C","title":"良友金伴NO.756","lon":"121.49633","lat":"31.3944","category":"117","category_name":"便民商店/便利店","address":"永乐路426"},{"poiid":"B2094654D46AA7F54099","title":"好德NO.076","lon":"121.49654","lat":"31.39448","category":"117","category_name":"便民商店/便利店","address":"宝山镇"},{"poiid":"B2094654D46AA4FD429C","title":"快客NO.1265","lon":"121.49573","lat":"31.39455","category":"117","category_name":"便民商店/便利店","address":"永乐路417"},{"poiid":"B2094654DB69A5F4419C","title":"重庆鸡公煲 永乐路店","lon":"121.498148054","lat":"31.395452793","category":"71","category_name":"四川菜","address":"宝山区永乐路369号(近淞宝路)"},{"poiid":"B2094655D26FABFA439E","title":"宝山三村香樟苑(西门)","lon":"121.49412","lat":"31.3923","category":"47","category_name":"住宅区","address":""},{"poiid":"B2094654D46AA7F54399","title":"嘉茗轩茶艺馆 永乐路店","lon":"121.494656054","lat":"31.393729793","category":"260","category_name":"其他","address":"宝山区永乐路518号(近永清路)"},{"poiid":"B2094757D769A4FE469C","title":"双城小吃","lon":"121.5001403","lat":"31.3935328","category":"68","category_name":"快餐厅","address":"宝山区双城路139号(近淞宝路)"},{"poiid":"B2094753D36EA1FA499D","title":"台崎豆捞","lon":"121.49432","lat":"31.39198","category":"86","category_name":"火锅店","address":"永清路700号宝山体育馆A009号铺"},{"poiid":"B2094757D16EA0F44093","title":"爱情公寓 II","lon":"121.497791951","lat":"31.3932318665","category":"500","category_name":"未知分类","address":"上海爱情公寓II"},{"poiid":"B2094757D16CAAFB439B","title":"阿良海鲜","lon":"121.501203","lat":"31.393635","category":"247","category_name":"餐饮美食","address":"上海宝山区双城路116号"},{"poiid":"B2094654D46AA7F5459E","title":"光明百货便利店","lon":"121.49406","lat":"31.39239","category":"117","category_name":"便民商店/便利店","address":"永清路559号"},{"poiid":"B2094757D06AA7FF439B","title":"永清二村","lon":"121.49461","lat":"31.389336","category":"252","category_name":"楼宇机构","address":"上海市宝山区永清路"},{"poiid":"B2094654DB6AA5FA4093","title":"可颂坊","lon":"121.49406","lat":"31.39704","category":"112","category_name":"糕饼店","address":"宝山区海江路408号(近永清路)"},{"poiid":"B2094654D46AA7FB4693","title":"上海宝山都市科技工贸园区","lon":"121.495","lat":"31.39137","category":"45","category_name":"产业园区","address":"双城路351"},{"poiid":"B2094655D36DA0F44399","title":"永清新村","lon":"121.50102","lat":"31.39143","category":"38","category_name":"公交车站","address":"永清新村54幢188号"},{"poiid":"B2094654D46AA7F5419E","title":"雨竹足浴","lon":"121.49582","lat":"31.39419","category":"149","category_name":"洗浴推拿场所","address":"永乐路434号"},{"poiid":"B2094655D36CA1FE439E","title":"双城路淞宝路","lon":"121.49974","lat":"31.3934","category":"38","category_name":"公交车站","address":""},{"poiid":"B2094655D36DA0F44198","title":"永乐路","lon":"121.49777","lat":"31.39577","category":"38","category_name":"公交车站","address":""},{"poiid":"B2094655D268A4F5429E","title":"世纪联华(海江路)","lon":"121.49163","lat":"31.39623","category":"118","category_name":"超级市场","address":"宝山区海江路426号(近永清路)"},{"poiid":"B2094757D16BAAF54598","title":"代官山中山公园店","lon":"121.49615183","lat":"31.390806996","category":"196","category_name":"公园","address":"上海中山公园"},{"poiid":"B2094654DB69ABF44899","title":"韦博国际英语(宝山店)","lon":"121.49321","lat":"31.39419","category":"53","category_name":"成人教育","address":"宝山区牡丹江路1255号安信商业广场D区2楼(近海江路)"},{"poiid":"B2094757D464A6F94898","title":"品客休闲屋 淞宝路店","lon":"121.497141054","lat":"31.396650793","category":"68","category_name":"快餐厅","address":"宝山区淞宝路1074号(近区卫生成人中等专业学校)"},{"poiid":"B2094654D46AA7FB4299","title":"宝龙酒家","lon":"121.49949","lat":"31.392","category":"76","category_name":"上海菜","address":"宝山区凇宝路740号(双城路淞宝路)"},{"poiid":"B2094757D165A7FD499A","title":"兴太洋酒楼","lon":"121.49233083","lat":"31.391155003","category":"76","category_name":"上海菜","address":"宝山区双城路442号(近永清路)"},{"poiid":"B2094757D069A7FD4099","title":"上海电视大学(宝山)","lon":"121.496591","lat":"31.394502","category":"253","category_name":"校园生活","address":"上海永乐路737号"},{"poiid":"B2094654D46AA7F44992","title":"雨燕足部保健","lon":"121.49684","lat":"31.3946","category":"149","category_name":"洗浴推拿场所","address":"永乐路412"},{"poiid":"B2094654D46AA7FA4292","title":"上海民办和衷中学","lon":"121.4978","lat":"31.39016","category":"55","category_name":"中学","address":""},{"poiid":"B2094757D065A1FD429E","title":"宝山十村","lon":"121.493826","lat":"31.397192","category":"47","category_name":"住宅区","address":"上海宝山区宝山十村 永清路海江路口"},{"poiid":"B2094757D164A2F8449A","title":"90度炭烧咖啡小站","lon":"121.491470831","lat":"31.3963591111","category":"65","category_name":"咖啡厅","address":"上海宝山区永清路"},{"poiid":"B2094655D268A2F8489C","title":"宝山区卫生成人中等专业学校(南门)","lon":"121.49758","lat":"31.39531","category":"678","category_name":"学校大门","address":"永乐路399"},{"poiid":"B2094757DA6EAAFA419E","title":"慧轩酒行","lon":"121.496043699999","lat":"31.3919217000003","category":"249","category_name":"购物服务","address":"宝山区双城路301号"},{"poiid":"B2094757D168A7F54192","title":"天目山农庄 双城路店","lon":"121.491694831","lat":"31.3902368848","category":"247","category_name":"餐饮美食","address":"宝山区双城路578号(近牡丹江路)"},{"poiid":"B2094757D16BA0FD4598","title":"江边","lon":"121.50009583","lat":"31.394929081","category":"500","category_name":"未知分类","address":"上海盘古路江堤"},{"poiid":"B2094654D46AA7FB449C","title":"中国建设银行上海市双城路支行","lon":"121.49548","lat":"31.39112","category":"150","category_name":"银行","address":"宝山区双城路374号(双城路永清路)"},{"poiid":"B2094655D26BA1F8459F","title":"牡丹江路双城路","lon":"121.49105","lat":"31.39024","category":"38","category_name":"公交车站","address":""},{"poiid":"B2094654D46AA7FB4592","title":"上海烟草集团宝山烟草糖酒有限公司永清商场","lon":"121.49563","lat":"31.39","category":"119","category_name":"商场","address":"永清路369-381"},{"poiid":"B2094750DB6DA4FE419D","title":"拜尔齿科","lon":"121.492362","lat":"31.39207","category":"162","category_name":"医院","address":"牡丹江路1272号6楼"},{"poiid":"B2094751DA68AAFD429C","title":"上影國際影城","lon":"121.491501","lat":"31.392746","category":"178","category_name":"电影院","address":"上海市寶山區永清路700號"},{"poiid":"B2094757D16FA4FF469B","title":"719双城路淞宝路站","lon":"121.4981782","lat":"31.392425279","category":"500","category_name":"未知分类","address":"上海双城路淞宝路站"},{"poiid":"B2094757D069A1F4459F","title":"老码头火锅","lon":"121.49312883","lat":"31.390055981","category":"247","category_name":"餐饮美食","address":"双城路476号近牡丹江路"},{"poiid":"B2094757D469A7F5489B","title":"亨通酒楼","lon":"121.499317","lat":"31.389716","category":"76","category_name":"上海菜","address":"宝山区淞青路98号(近淞宝路)"},{"poiid":"B2094654DB6AA5FA419E","title":"良友金伴","lon":"121.49862","lat":"31.39565","category":"117","category_name":"便民商店/便利店","address":"永乐路359"},{"poiid":"B2094655D268A6F44092","title":"新雅食品(永清路)","lon":"121.4952","lat":"31.3899","category":"247","category_name":"餐饮美食","address":"永清路422号"},{"poiid":"B2094757D16CA6FB479D","title":"宝山区第一中心小学","lon":"121.498337","lat":"31.395569","category":"253","category_name":"校园生活","address":"上海永乐路"},{"poiid":"B2094654D46AA7F54393","title":"上海覃荣林口腔诊所","lon":"121.49372","lat":"31.39333","category":"668","category_name":"诊所","address":"永乐路540"},{"poiid":"B2094654D46AA7FB4393","title":"朝代网吧NO.0168","lon":"121.49578","lat":"31.39126","category":"176","category_name":"网吧","address":"双城路354"},{"poiid":"B2094757D16AA5FF449E","title":"双凤羊肉馆","lon":"121.493826831","lat":"31.3973031305","category":"247","category_name":"餐饮美食","address":"宝山区密山路258号"},{"poiid":"B2094757D66AA6FC4492","title":"永兴私房菜","lon":"121.500214054","lat":"31.392708793","category":"88","category_name":"海鲜酒楼","address":"宝山区淞宝路618号(近公交90路终点站)"},{"poiid":"B2094654D46AA5FA469B","title":"宝宸花园","lon":"121.49258","lat":"31.391321","category":"47","category_name":"住宅区","address":"双城路339弄"},{"poiid":"B209475CD364A6F8439D","title":"台崎铁板烧","lon":"121.49189","lat":"31.39367","category":"95","category_name":"日本料理","address":"永清路700号宝山体育馆A008号(近海江路)"},{"poiid":"B2094757D568A7FD4099","title":"灵萍杂货店","lon":"121.49943414","lat":"31.39345974","category":"117","category_name":"便民商店/便利店","address":"中国上海市宝山区凇宝路"},{"poiid":"B2094654D46AA7F4489A","title":"双城派出所","lon":"121.49882","lat":"31.39435","category":"609","category_name":"警察局","address":"宝山区淞宝路1101号"},{"poiid":"B2094757D169AAFB489E","title":"联华超市(双城路店)","lon":"121.4996","lat":"31.39289","category":"117","category_name":"便民商店/便利店","address":"上海宝山区淞宝路双城路口  "},{"poiid":"B2094757D165A2FA439F","title":"书杉桌球俱乐部","lon":"121.495195831","lat":"31.3909419993","category":"500","category_name":"未知分类","address":"宝山区牡丹江路1258号易买得4楼(海江路牡丹江路)"},{"poiid":"B2094654D46AA5FA4698","title":"宝山四村","lon":"121.49257","lat":"31.391319","category":"47","category_name":"住宅区","address":"宝山四村"},{"poiid":"B2094654D46AA7F44398","title":"同得快修","lon":"121.49834","lat":"31.39435","category":"159","category_name":"汽车维修","address":"宝山区淞宝路1016号(近双城路)"},{"poiid":"B2094655D268A1F94092","title":"宝宸花园(南门)","lon":"121.49302","lat":"31.39061","category":"47","category_name":"住宅区","address":"双城路339弄1-188号"},{"poiid":"B2094654D46AA7FA429F","title":"永清路335弄小区","lon":"121.4968","lat":"31.38963","category":"47","category_name":"住宅区","address":"永清路335弄1-9号"},{"poiid":"B2094752D76EA1FA4298","title":"台崎炭烧","lon":"121.493972","lat":"31.397217","category":"247","category_name":"餐饮美食","address":null},{"poiid":"B2094757D165A2F54793","title":"川惠自助火锅","lon":"121.493667","lat":"31.390269","category":"247","category_name":"餐饮美食","address":"上海宝山店"},{"poiid":"B2094654D46AA5FA439E","title":"永乐家电生活电器卖场宝山店","lon":"121.4916","lat":"31.38987","category":"138","category_name":"家电电子卖场","address":"上海市宝山区牡丹江路1001号"},{"poiid":"B2094757D569A3FD429A","title":"樱花洗衣","lon":"121.49911567","lat":"31.39381375","category":"610","category_name":"干洗店","address":"中国上海市宝山区凇宝路"},{"poiid":"B2094757D569A2F84292","title":"鸿丽美发","lon":"121.49989638","lat":"31.39229546","category":"148","category_name":"美容美发店","address":"淞宝路754"},{"poiid":"B2094655D268A1F54392","title":"宝山二村(南门)","lon":"121.50077","lat":"31.39391","category":"47","category_name":"住宅区","address":""},{"poiid":"B2094654DB6AA5F9499F","title":"巴比馒头 牡丹江路店","lon":"121.49114","lat":"31.39052","category":"68","category_name":"快餐厅","address":"宝山区牡丹江路1081号夏园宾馆内(近水产路)"},{"poiid":"B2094655D26FABFA439B","title":"宝山三村(南二门)","lon":"121.4962","lat":"31.39194","category":"656","category_name":"大门","address":""},{"poiid":"B2094655D268A0FF499C","title":"永清新村小区(北门)","lon":"121.49738","lat":"31.39199","category":"656","category_name":"大门","address":""},{"poiid":"B2094654D46AA6FC479B","title":"永清苑","lon":"121.49288","lat":"31.38916","category":"196","category_name":"公园","address":"双城路490"},{"poiid":"B2094654D46AA7FB439B","title":"东方网点双城店","lon":"121.49938","lat":"31.39283","category":"176","category_name":"网吧","address":"宝山区双城路204号"},{"poiid":"B2094757D16DA4FD4999","title":"青山(永清路店)","lon":"121.4955","lat":"31.39034","category":"500","category_name":"未知分类","address":"宝山区永清路419号(近双城路)"},{"poiid":"B2094757D16CA7FE499D","title":"永清路小学","lon":"121.49683","lat":"31.38744","category":"56","category_name":"小学","address":"宝山区永清路278号(水产路永清路)"},{"poiid":"B2094757D06AA7F9489C","title":"憬枫撞球俱乐部","lon":"121.49152","lat":"31.39097","category":"500","category_name":"未知分类","address":"宝山区牡丹江路1081号夏园宾馆3楼(近水产路)"},{"poiid":"B2094751DA64A4FA469F","title":"美格菲健身中心","lon":"121.491416","lat":"31.39525","category":"248","category_name":"生活娱乐","address":"宝山宝宸体育馆"},{"poiid":"B2094757D66CA0FD4292","title":"牡丹江路","lon":"121.491615531","lat":"31.3900748814","category":"500","category_name":"未知分类","address":"上海宝山区吴淞镇"},{"poiid":"B2094753D468A4FC4898","title":"中国好声音","lon":"121.492843","lat":"31.395763","category":"500","category_name":"未知分类","address":"上海市 宝山体育馆"},{"poiid":"B2094654D46AA4FC4898","title":"一德大药房广馨店","lon":"121.49565","lat":"31.3975","category":"162","category_name":"医院","address":"海江路326"},{"poiid":"B2094757D06AA5FA449A","title":"中国工商银行(永清路支行)","lon":"121.4958","lat":"31.38987","category":"150","category_name":"银行","address":"宝山区永清路387号近双城路(双城路永清路)"},{"poiid":"B2094757D16AA4FD4698","title":"尊爵台球","lon":"121.49483183","lat":"31.389969979","category":"171","category_name":"台球厅","address":"上海市宝山区永清路"},{"poiid":"B2094655D26FABF9429E","title":"永清二村(东门)","lon":"121.49542","lat":"31.38961","category":"656","category_name":"大门","address":""},{"poiid":"B2094655D26FABFA429B","title":"永清路337弄小区(西门)","lon":"121.49611","lat":"31.3893","category":"47","category_name":"住宅区","address":"永清路335弄1-6号"},{"poiid":"B2094654D46AA4FC4792","title":"皮皮家族","lon":"121.49574","lat":"31.39753","category":"162","category_name":"医院","address":"海江路320号"},{"poiid":"B2094757D165A4FD4092","title":"永清路工商银行","lon":"121.495533","lat":"31.390142","category":"500","category_name":"未知分类","address":"上海永清路工商银行"},{"poiid":"B2094654D46AA7FB4598","title":"杰洋酒吧","lon":"121.49538","lat":"31.39038","category":"260","category_name":"其他","address":"宝山区永清路401号(近双城路)"},{"poiid":"B2094752D165AAFA439A","title":"宝寿司","lon":"121.490917","lat":"31.395742","category":"247","category_name":"餐饮美食","address":"宝山区永清路700号"},{"poiid":"B2094654D46AA4FC449C","title":"快客NO.6990","lon":"121.49448","lat":"31.39754","category":"117","category_name":"便民商店/便利店","address":""},{"poiid":"B2094655D268A4F5429D","title":"宝钢宝山八村(南门)","lon":"121.49584","lat":"31.39483","category":"656","category_name":"大门","address":""},{"poiid":"B2094654D46AA4FC4999","title":"丽源美容美发设计有限公司","lon":"121.49526","lat":"31.39739","category":"148","category_name":"美容美发店","address":"宝山区海江路360号(近永清路)"},{"poiid":"B2094757D464AAFA439F","title":"名典咖啡语茶 双城路店","lon":"121.491906","lat":"31.389601","category":"260","category_name":"其他","address":"宝山区双城路490号(近牡丹江路)"},{"poiid":"B2094655D36DA0F4419A","title":"永靖路海江路","lon":"121.49233","lat":"31.39673","category":"38","category_name":"公交车站","address":""},{"poiid":"B2094753D16CA7F44098","title":"宝山体育中心游泳馆","lon":"121.491","lat":"31.3959","category":"231","category_name":"游泳馆","address":"宝山区永清路700号宝宸体育馆(近海江路)"},{"poiid":"B2094757D16CA3F8429B","title":"国美电器(牡丹江路店)","lon":"121.490582","lat":"31.391327","category":"138","category_name":"家电电子卖场","address":"宝山区牡丹江路1081号夏园宾馆内(近水产路)"},{"poiid":"B2094655D26FABFA429D","title":"宝山三村(南门)","lon":"121.49807","lat":"31.39281","category":"656","category_name":"大门","address":""},{"poiid":"B2094654DB6AA5F9499C","title":"重庆家富富侨足浴","lon":"121.49166","lat":"31.39069","category":"149","category_name":"洗浴推拿场所","address":"宝山区鑫斐大酒店夏园店4层"},{"poiid":"B2094757D16FA4FC459D","title":"上海市宝山公证处","lon":"121.49173641","lat":"31.389280435","category":"500","category_name":"未知分类","address":"上海牡丹江路738号"},{"poiid":"B209475CDB6BA6F54199","title":"田荳牛味馆","lon":"121.491661","lat":"31.389406","category":"247","category_name":"餐饮美食","address":"上海市 牡丹江路"},{"poiid":"B2094757D168A3FF4398","title":"张萍健身会所(夏园店)","lon":"121.49141","lat":"31.39025","category":"148","category_name":"美容美发店","address":"宝山区牡丹江路1081号夏园宾馆南5楼(近水产路)"},{"poiid":"B2094757D06AA4FF4192","title":"爱西牌山洞","lon":"121.49970638","lat":"31.395416204","category":"607","category_name":"一般景点","address":"上海市宝山区"},{"poiid":"B2094757D568ABF94193","title":"光明便利店(永清新村东)","lon":"121.50109999","lat":"31.3916059","category":"117","category_name":"便民商店/便利店","address":"宝山区永清路331号(淞青路永清路)"},{"poiid":"B2094654DB6AA3F54798","title":"中国建设银行海江路支行","lon":"121.4948","lat":"31.39725","category":"150","category_name":"银行","address":"宝山区海江路368号"},{"poiid":"B2094757D16EA1F84492","title":"永清路后三营房小区","lon":"121.499022998","lat":"31.3886801193","category":"47","category_name":"住宅区","address":"上海市宝山区永清路水产路"},{"poiid":"B2094654D46AA4FD469A","title":"世纪华联NO.718","lon":"121.49703","lat":"31.39829","category":"118","category_name":"超级市场","address":"海江路275"},{"poiid":"B2094655D26BABFE479A","title":"好美家大型综合超市","lon":"121.49147","lat":"31.39669","category":"123","category_name":"家具建材市场","address":"永清路宝钢宝山八村以北约100米"},{"poiid":"B2094655D268A2F5439E","title":"宝钢宝山八村(东门)","lon":"121.49702","lat":"31.39625","category":"656","category_name":"大门","address":""},{"poiid":"B2094654D46AA7FA4192","title":"吉英扦脚服务社","lon":"121.49662","lat":"31.38891","category":"149","category_name":"洗浴推拿场所","address":"淞青路245"},{"poiid":"B2094757D66CA3F5469B","title":"宝山九村","lon":"121.49686","lat":"31.398853","category":"252","category_name":"楼宇机构","address":"上海淞宝路宝杨路"},{"poiid":"B2094757D66FA2F94098","title":"huan's home","lon":"121.497148231","lat":"31.3889626585","category":"500","category_name":"未知分类","address":null},{"poiid":"B2094655D268A0F84493","title":"上海市宝山区第一中心小学东部校区","lon":"121.49958","lat":"31.39813","category":"56","category_name":"小学","address":"宝东路580"},{"poiid":"B2094654D46AA7FA4293","title":"吴淞街道办事处社会保障卡工作站","lon":"121.49842","lat":"31.38971","category":"248","category_name":"生活娱乐","address":"淞青路151-153"},{"poiid":"B2094757D168A0F4499D","title":"双城路 宝宸花园别墅","lon":"121.491751","lat":"31.389898","category":"500","category_name":"未知分类","address":"上海宝山区 牡丹江路双城路"},{"poiid":"B2094655D268A4FB479E","title":"永清路171弄小区(西门)","lon":"121.49697","lat":"31.38792","category":"47","category_name":"住宅区","address":"永清路171弄1-12号"},{"poiid":"B2094654D46AA4FD4598","title":"紫晶娱乐总汇","lon":"121.49712","lat":"31.39724","category":"248","category_name":"生活娱乐","address":"宝山区淞宝路1185号"},{"poiid":"B2094654D46AA5FA4498","title":"夏园宾馆","lon":"121.49115","lat":"31.39052","category":"215","category_name":"三星级宾馆","address":"宝山区牡丹江路1081号夏园宾馆内(近水产路)"},{"poiid":"B2094757D569A3F84199","title":"玫瑰苑KTV","lon":"121.4972714","lat":"31.38745917","category":"170","category_name":"KTV","address":"宝山区永清路259号(淞青路永清路)"},{"poiid":"B2094654DB65A5FC449B","title":"海尔斯保龄球馆","lon":"121.49121","lat":"31.39039","category":"228","category_name":"保龄球馆","address":"宝山区牡丹江路881-889号(牡丹江路双城路)"},{"poiid":"B2094654D46AA5FA4399","title":"牡丹江电脑市场","lon":"121.49149","lat":"31.39","category":"138","category_name":"家电电子卖场","address":"牡丹江路1001号"},{"poiid":"B2094655D268A2F54399","title":"宝山七村(西门)","lon":"121.49747","lat":"31.39646","category":"656","category_name":"大门","address":""},{"poiid":"B2094655D26FABF9419C","title":"永清苑(北门)","lon":"121.49259","lat":"31.38974","category":"680","category_name":"楼宇机构","address":"双城路490"},{"poiid":"B2094654D46AA5FA4393","title":"深圳发展银行(上海宝山支行)","lon":"121.4912","lat":"31.3904","category":"150","category_name":"银行","address":"宝山镇"},{"poiid":"B2094655D268A4F54299","title":"宝钢宝山八村(北门)","lon":"121.49362","lat":"31.39674","category":"656","category_name":"大门","address":""},{"poiid":"B2094753D16DA0FF469E","title":"美吉姆上海宝山中心","lon":"121.490829","lat":"31.396094","category":"190","category_name":"培训机构","address":"上海市宝山区永清路700号宝山体育中心北翼生活馆1楼"},{"poiid":"B2094655D26FA4F54393","title":"宝钢宝山八村(西门)","lon":"121.49236","lat":"31.39507","category":"656","category_name":"大门","address":""},{"poiid":"B2094757D568A7F9409D","title":"美国优玛汽车膜特约施工中心","lon":"121.50122152","lat":"31.3957156","category":"159","category_name":"汽车维修","address":"宝东路60"},{"poiid":"B2094757D16FA0FF4393","title":"永乐家电(宝山)","lon":"121.491457831","lat":"31.3896629729","category":"249","category_name":"购物服务","address":"上海牡丹江路1001号"},{"poiid":"B2094757D568A4FB4692","title":"上海泰洁干洗(淞宝路)","lon":"121.50156169","lat":"31.3911358","category":"610","category_name":"干洗店","address":"淞宝路741号"},{"poiid":"B2094655D26FABFA429E","title":"永清新村小区(西门)","lon":"121.4958","lat":"31.38972","category":"656","category_name":"大门","address":""},{"poiid":"B2094757D568A7F94092","title":"上海东方车友服务社","lon":"121.50120009","lat":"31.39577447","category":"159","category_name":"汽车维修","address":"宝东路62"},{"poiid":"B2094655D268A1F5439E","title":"永清二村(北门)","lon":"121.49364","lat":"31.39015","category":"656","category_name":"大门","address":""},{"poiid":"B2094757D165A7F8499E","title":"51路车站","lon":"121.496744665","lat":"31.3876913323","category":"500","category_name":"未知分类","address":"上海51路永清路水产路站"},{"poiid":"B2094655D268A1F5449A","title":"海江二村(北门)","lon":"121.5007","lat":"31.39346","category":"656","category_name":"大门","address":""},{"poiid":"B2094655D268A4FB469C","title":"宝山七村(南门)","lon":"121.49975","lat":"31.39595","category":"656","category_name":"大门","address":""},{"poiid":"B2094654D46AA5FA449E","title":"憬辉棋牌俱乐部","lon":"121.49076","lat":"31.391","category":"175","category_name":"棋牌室","address":""},{"poiid":"B2094655D268A1F54499","title":"永清路335弄小区(南门)","lon":"121.49698","lat":"31.38906","category":"656","category_name":"大门","address":"永清路335弄1-9号"},{"poiid":"B2094655D26FABF9429C","title":"永清路335弄小区(西门)","lon":"121.49616","lat":"31.38916","category":"656","category_name":"大门","address":"永清路335弄1-9号"},{"poiid":"B2094655D268A1F54498","title":"海江二村(西门)","lon":"121.50128","lat":"31.39142","category":"656","category_name":"大门","address":""}]