[{"poiid":"B2094757D66EA7F84098","title":"顾村公园","lon":"121.37257795","lat":"31.3389663785","category":"196","category_name":"公园","address":"上海市宝山区顾村"},{"poiid":"B2094757D06FA6FB409B","title":"顾村公园烧烤区","lon":"121.37870995","lat":"31.342285442","category":"196","category_name":"公园","address":"上海市宝山区陆翔路"},{"poiid":"B2094757D06FA6FA459E","title":"保利叶上海","lon":"121.371","lat":"31.3563","category":"47","category_name":"住宅区","address":"上海宝山区菊太路1198弄"},{"poiid":"B2094757D064A4F8409B","title":"上海衡山北郊宾馆","lon":"121.38487905","lat":"31.3455428044","category":"76","category_name":"上海菜","address":"宝山区顾村镇沪太路4788号顾村公园内"},{"poiid":"B2094757D06FA1F8459A","title":"刘行驾校","lon":"121.35638","lat":"31.35174","category":"260","category_name":"其他","address":"嘉定区宝安公路2009号(近沪太路)"},{"poiid":"B2094751D56AA4F54699","title":"复旦大学附属华山医院北院","lon":"121.374451","lat":"31.347397","category":"627","category_name":"一般地点标志","address":"陆翔路108号"},{"poiid":"B2094757D069A4F9489B","title":"上海馨佳园","lon":"121.372548679","lat":"31.358028028","category":"47","category_name":"住宅区","address":"上海菊泉街"},{"poiid":"B2094757D06FA5FD439D","title":"馨佳园","lon":"121.36769925","lat":"31.364690317","category":"47","category_name":"住宅区","address":"上海市韶山路418弄"},{"poiid":"B2094654D469A0F54199","title":"好日子大家园A区","lon":"121.35601","lat":"31.34792","category":"47","category_name":"住宅区","address":"菊太路777弄"},{"poiid":"B2094757D069A7FC459B","title":"东方帕堤欧","lon":"121.38584","lat":"31.351549","category":"47","category_name":"住宅区","address":"宝山区顾北路691号(近沪太路)"},{"poiid":"B2094757D06FA3F8409D","title":"顾村公园地铁站","lon":"121.36370398","lat":"31.338823543","category":"36","category_name":"地铁站","address":"上海轨道交通 七号线 轨交顾村公园站 7"},{"poiid":"B2094757D465A3F9469C","title":"顾村公园鹰冠庄园","lon":"121.38529968262","lat":"31.347066879273","category":"247","category_name":"餐饮美食","address":"宝山区沪太路4788号顾村公园英伦风情园悦林大道11号查看地图"},{"poiid":"B2094750D365AAFD429C","title":"重庆刘一手火锅((陆翔路店)","lon":"121.373187","lat":"31.344685","category":"86","category_name":"火锅店","address":"宝山区陆翔路26号(近顾村公园2号口)"},{"poiid":"B2094655D264A0F84299","title":"文宝苑","lon":"121.36794","lat":"31.348257","category":"47","category_name":"住宅区","address":"菊联路89弄"},{"poiid":"B2094757D16EA6FB4299","title":"好日子大家园B区","lon":"121.36821619839","lat":"31.355072537655","category":"500","category_name":"未知分类","address":"上海菊太路999弄"},{"poiid":"B2094654D469A0F54198","title":"古北陆翔苑","lon":"121.37132","lat":"31.348743","category":"47","category_name":"住宅区","address":"上海陆翔路358弄"},{"poiid":"B2094752D26CA0FF4998","title":"高老庄.绿色传奇","lon":"121.36793","lat":"31.34873","category":"76","category_name":"上海菜","address":"宝山区菊联路118号"},{"poiid":"B2094757D16CA0FF4999","title":"醒狮大酒店","lon":"121.3645","lat":"31.34986","category":"76","category_name":"上海菜","address":"宝山区菊太路855号(菊盛路)"},{"poiid":"B2094757D068A4FF439B","title":"采菊苑","lon":"121.36539","lat":"31.349243","category":"47","category_name":"住宅区","address":"上海菊联路68弄"},{"poiid":"B2094655D36CA0FC439D","title":"菊太路菊盛路","lon":"121.37021","lat":"31.35242","category":"38","category_name":"公交车站","address":""},{"poiid":"B2094757D568A7FA469E","title":"古北菊翔苑(美景良城)","lon":"121.36393175","lat":"31.34651123","category":"47","category_name":"住宅区","address":"上海市宝山区菊联路233弄,232弄"},{"poiid":"B2094757D168A6FB4499","title":"纽约市政大楼","lon":"121.36070367","lat":"31.349611069","category":"46","category_name":"楼宇","address":"Chambers and Centre streets,New York City,NY"},{"poiid":"B2094655D36CA1F94099","title":"刘行","lon":"121.37167","lat":"31.35772","category":"38","category_name":"公交车站","address":""},{"poiid":"B2094757D06FAAFC419E","title":"刘行机动车培训中心","lon":"121.356112","lat":"31.352015","category":"253","category_name":"校园生活","address":"上海嘉定区宝安公路2009号"},{"poiid":"B2094757D065A0FF459A","title":"好日子大家园C区","lon":"121.36391658736","lat":"31.35359507632","category":"500","category_name":"未知分类","address":"上海菊太路1221弄"},{"poiid":"B2094757D168A6FF4792","title":"重庆鸡公煲 菊太路店","lon":"121.369462054","lat":"31.353216793","category":"71","category_name":"四川菜","address":"宝山区菊太路刘行社区服务中心后侧(近菊盛路)"},{"poiid":"B2094757D16CA1F94198","title":"美景良城","lon":"121.37167291664","lat":"31.352694313464","category":"47","category_name":"住宅区","address":"上海市宝山区菊联路233弄"},{"poiid":"B2094757D06EAAFC4698","title":"刘行地铁站","lon":"121.35701063","lat":"31.35216295","category":"36","category_name":"地铁站","address":"上海轨道交通 七号线 轨交刘行站 7"},{"poiid":"B2094757D069A2FB4092","title":"沪太公路宝安公路","lon":"121.37589603","lat":"31.359785355","category":"260","category_name":"其他","address":"上海宝山区沪太公路宝安公路"},{"poiid":"B2094757D66AA6FC469D","title":"龙腾阁 菊太路店","lon":"121.37192","lat":"31.35404","category":"76","category_name":"上海菜","address":"宝山区菊太路325弄1003号2号楼(近菊盛路)"},{"poiid":"B2094757D168A0F9449F","title":"菊泉新城社区卫生服务中心","lon":"121.37238","lat":"31.35054","category":"500","category_name":"未知分类","address":"宝山区顾村镇菊盛路218号"},{"poiid":"B2094655D36CA0FC449B","title":"菊盛路","lon":"121.37274","lat":"31.34878","category":"38","category_name":"公交车站","address":""},{"poiid":"B2094757D164ABFF419B","title":"上坤公园天地","lon":"121.37140406318","lat":"31.353247956554","category":"196","category_name":"公园","address":"上海市宝山区宝安公路"},{"poiid":"B2094757D16EA1FB479F","title":"扬波幼儿园","lon":"121.369512","lat":"31.351582","category":"57","category_name":"幼儿园","address":"宝山区菊盛路456号"},{"poiid":"B2094757D06BA5FC4798","title":"菊泉新城陆翔苑","lon":"121.36662867","lat":"31.352921131","category":"47","category_name":"住宅区","address":null},{"poiid":"B2094751D569A1FD469C","title":"长宁龙之梦","lon":"121.383063","lat":"31.346911","category":"249","category_name":"购物服务","address":null},{"poiid":"B2094654D469A0F54093","title":"宝虹小学","lon":"121.37242","lat":"31.3509","category":"56","category_name":"小学","address":""},{"poiid":"B2094757D66CABFA459F","title":"菊泉新城","lon":"121.375124979","lat":"31.3551868744","category":"47","category_name":"住宅区","address":"上海市宝山区菊盛路50弄"},{"poiid":"B2094750D665A7FA499A","title":"永和大王(顾村公园店)","lon":"121.374","lat":"31.3441","category":"68","category_name":"快餐厅","address":"宝山区沪太路4788号顾村公园2号门附近"},{"poiid":"B2094752D264A4FC419D","title":"上海大学地铁站","lon":"121.366721","lat":"31.347498","category":"36","category_name":"地铁站","address":null},{"poiid":"B2094654D469A0F84398","title":"菊泉学校","lon":"121.37205","lat":"31.35425","category":"55","category_name":"中学","address":"菊太路321号"},{"poiid":"B2094753D26FA5F8449D","title":"讴K拉KTV刘行店","lon":"121.36678395628","lat":"31.348084912606","category":"170","category_name":"KTV","address":"宝山区菊联路90号昊园广场3楼"},{"poiid":"B2094757D168A3FA489D","title":"旺辉酒楼","lon":"121.364358679","lat":"31.3521741176","category":"76","category_name":"上海菜","address":"宝山区菊太路803号(近陆翔路)"},{"poiid":"B2094655D36CA0FC4498","title":"菊盛路宝安公路","lon":"121.37047","lat":"31.35581","category":"38","category_name":"公交车站","address":""},{"poiid":"B209475DD464ABF4419E","title":"顾村公园","lon":"121.370826","lat":"31.348064","category":"250","category_name":"公园户外","address":"上海市 宝山区陆翔路"},{"poiid":"B209475CD268A2F94199","title":"绿地•正大缤纷城","lon":"121.371675","lat":"31.346014","category":"119","category_name":"商场","address":"上海市 陆翔路111弄"},{"poiid":"B2094655D26BA3F5469C","title":"顾村镇基地","lon":"121.37032","lat":"31.34848","category":"47","category_name":"住宅区","address":"陆翔路358弄1-92号"},{"poiid":"B2094655D26BA1FB489C","title":"陆翔路宝安公路","lon":"121.36625","lat":"31.35336","category":"38","category_name":"公交车站","address":""},{"poiid":"B2094757D06AABF44493","title":"宝山国际民间艺术博览馆","lon":"121.3877161","lat":"31.346555898","category":"182","category_name":"博物馆","address":"宝山区沪太路4788号(近顾村公园1号门)"},{"poiid":"B2094654D469A0F5409A","title":"上海市刘行中学","lon":"121.37387","lat":"31.35592","category":"55","category_name":"中学","address":"上海市宝山区刘行镇菊泉街"},{"poiid":"B2094751D56EA4F44099","title":"德庄火锅","lon":"121.3614996724711","lat":"31.35063985985581","category":"247","category_name":"餐饮美食","address":"宝山区菊联路90号"},{"poiid":"B2094654D46AA7FC409B","title":"菊泉新城-爱建顾园","lon":"121.38014","lat":"31.3519","category":"47","category_name":"住宅区","address":""},{"poiid":"B2094757D16EA5F54598","title":"欧特福","lon":"121.36998289","lat":"31.348198915","category":"118","category_name":"超级市场","address":"宝山区菊联路169号文宝苑菜场2楼(近宝菊路)"},{"poiid":"B2094757D16DA2FA4399","title":"海尚菊园","lon":"121.36621","lat":"31.353643","category":"252","category_name":"楼宇机构","address":"陆翔路698弄,陆翔路678弄"},{"poiid":"B2094757D66EA2FC4093","title":"宝山1路","lon":"121.367607279","lat":"31.3509190939","category":"500","category_name":"未知分类","address":"上海菊太路777弄"},{"poiid":"B2094757D568AAFA489E","title":"上海仁缘口腔门诊部","lon":"121.366324","lat":"31.350521","category":"162","category_name":"医院","address":"宝山区菊太路68弄39号"},{"poiid":"B2094757D068ABF9449D","title":"圣卡洛 铂庭","lon":"121.388371","lat":"31.35749","category":"47","category_name":"住宅区","address":"上海沙浦路518弄"},{"poiid":"B2094655D26BA3F5419F","title":"好又多(刘行店)","lon":"121.36436","lat":"31.3507","category":"118","category_name":"超级市场","address":""},{"poiid":"B2094757D165A4FB4692","title":"宝山1路82路终点站","lon":"121.36754497","lat":"31.350961494","category":"500","category_name":"未知分类","address":"上海菊太路菊盛路"},{"poiid":"B2094757D169AAF5499B","title":"王家私房菜","lon":"121.365622679","lat":"31.3485320489","category":"247","category_name":"餐饮美食","address":"上海市宝山区菊太路"},{"poiid":"B2094757D16CA1F8419A","title":"菊泉新城39弄","lon":"121.378214679","lat":"31.3516941085","category":"47","category_name":"住宅区","address":"上海市宝山区菊太路"},{"poiid":"B2094655D26AA0F94493","title":"地铁顾村公园站","lon":"121.36118","lat":"31.34485","category":"36","category_name":"地铁站","address":""},{"poiid":"B2094750D76DA7F5459B","title":"新双林酒酒店","lon":"121.362","lat":"31.3503","category":"76","category_name":"上海菜","address":"宝山区菊太路1161号(近菊联路)"},{"poiid":"B2094654D469A0F5409C","title":"上海市地方税务局宝山区分局第十二税务所","lon":"121.37464","lat":"31.35452","category":"250","category_name":"公园户外","address":"菊泉街456"},{"poiid":"B2094750DA65A5F44692","title":"麦当劳顾村公园餐厅","lon":"121.374618","lat":"31.337192","category":"247","category_name":"餐饮美食","address":"顾村公园二号门"},{"poiid":"B2094654D469A0F5409F","title":"宝山区国家税务局第十二税务所","lon":"121.37463","lat":"31.35451","category":"250","category_name":"公园户外","address":"菊泉街456"},{"poiid":"B2094757D66CA2FD4393","title":"上海国际高尔夫乡村俱乐部","lon":"121.36638167","lat":"31.354670164","category":"500","category_name":"未知分类","address":"上海青浦区朱家角"},{"poiid":"B2094654D469A0F54098","title":"菊泉公寓","lon":"121.37437","lat":"31.355921","category":"47","category_name":"住宅区","address":"菊泉街515弄"},{"poiid":"B2094654DB69A7FA459D","title":"宝山区刘行税务所办税服务窗口","lon":"121.37432","lat":"31.35521","category":"250","category_name":"公园户外","address":"宝山区菊泉路456号"},{"poiid":"B2094752DA6CA4F5449E","title":"顾村公园1521","lon":"121.365384","lat":"31.3487","category":"500","category_name":"未知分类","address":null},{"poiid":"B2094757D164A4F84298","title":"安东尼","lon":"121.364872","lat":"31.3507","category":"500","category_name":"未知分类","address":"宁德安东尼造型"},{"poiid":"B2094654DB69A0F44798","title":"刘行派出所","lon":"121.37438","lat":"31.35563","category":"609","category_name":"警察局","address":"宝山区宝安公路1435号"},{"poiid":"B2094757D06BA6F4449D","title":"保利叶语售楼处","lon":"121.36470987","lat":"31.348733252","category":"260","category_name":"其他","address":"上海宝山区宝菊路1号"},{"poiid":"B2094757D16AAAFF4293","title":"刘行中心幼儿园","lon":"121.362593679","lat":"31.3490597589","category":"57","category_name":"幼儿园","address":"宝山区菊太路100号(菊太路陆翔路)"},{"poiid":"B2094654D469A0F5409D","title":"华林足疗","lon":"121.37478","lat":"31.35424","category":"149","category_name":"洗浴推拿场所","address":""},{"poiid":"B2094750D665A4FE449B","title":"上岛咖啡138","lon":"121.372","lat":"31.3458","category":"260","category_name":"其他","address":"宝山区陆翔路(近顾村公园2号口)"},{"poiid":"B2094757D068AAF5429B","title":"古北菊祥园","lon":"121.363749","lat":"31.346434","category":"47","category_name":"住宅区","address":"上海宝山区菊联路233弄"},{"poiid":"B2094757D66DA4FA4199","title":"乐驾汽车俱乐部","lon":"121.36664395","lat":"31.347768547","category":"500","category_name":"未知分类","address":"上海罗锦路211号"},{"poiid":"B2094655D36CA7FE439E","title":"沪太路顾北路","lon":"121.38204","lat":"31.35068","category":"38","category_name":"公交车站","address":""},{"poiid":"B2094757D66CA2FA4192","title":"SCK","lon":"121.37608267","lat":"31.353254138","category":"249","category_name":"购物服务","address":"上海市宝山区沪太路5198号"},{"poiid":"B209475CDA6EAAFF429E","title":"costa coffee","lon":"121.374496","lat":"31.34568","category":"500","category_name":"未知分类","address":"上海市 costa上海顾村公园店"},{"poiid":"B2094757D06AAAF54899","title":"宝安公路菊泉街","lon":"121.37276807","lat":"31.357912508","category":"260","category_name":"其他","address":"上海宝安公路菊泉街"},{"poiid":"B2094757D169A2F9499A","title":"菊翔苑","lon":"121.37411499","lat":"31.356494903","category":"252","category_name":"楼宇机构","address":"上海市菊联路"},{"poiid":"B2094752D76AA5FE409B","title":"顾村公园","lon":"121.373828","lat":"31.342504","category":"196","category_name":"公园","address":null},{"poiid":"B2094757D164ABF54292","title":"移动刘行营业厅","lon":"121.375296679","lat":"31.3553429273","category":"150","category_name":"银行","address":"上海菊太路325弄3号楼1027室"},{"poiid":"B2094751D26CA3FF489B","title":"龙之梦","lon":"121.3831","lat":"31.34691","category":"500","category_name":"未知分类","address":null},{"poiid":"B209475CD06BA0FF439F","title":"顾村公园休闲餐厅","lon":"121.37995861","lat":"31.34803854","category":"68","category_name":"快餐厅","address":"顾村镇沪太路4788号顾村公园内(近2号门)"},{"poiid":"B2094654D469A0F84892","title":"中国农业银行宝山区刘行分理处","lon":"121.37298","lat":"31.35762","category":"150","category_name":"银行","address":"菊泉街638"},{"poiid":"B2094655D36CA7FE4498","title":"沪太路宝安公路","lon":"121.37603","lat":"31.35993","category":"38","category_name":"公交车站","address":""},{"poiid":"B2094655D26BA7FD4393","title":"林肯电器","lon":"121.37776","lat":"31.34805","category":"138","category_name":"家电电子卖场","address":"沪太路5008弄195号"},{"poiid":"B2094654D469A0F5429B","title":"上海市宝山区菊泉初级中学","lon":"121.3738","lat":"31.34374","category":"55","category_name":"中学","address":""},{"poiid":"B2094757D16DA0F94599","title":"粥's 宝山的家","lon":"121.37463384","lat":"31.346398436","category":"500","category_name":"未知分类","address":null},{"poiid":"B2094654D469A0F5429A","title":"宝山区大陆双语学校","lon":"121.3738","lat":"31.34374","category":"55","category_name":"中学","address":""},{"poiid":"B2094757D068A4FE419A","title":"潘广路地铁站","lon":"121.35281799","lat":"31.360426674","category":"36","category_name":"地铁站","address":"上海轨道交通 七号线 轨交人民广场站 7"},{"poiid":"B2094751DA68AAFA4699","title":"美蘭湖","lon":"121.379592","lat":"31.352821","category":"500","category_name":"未知分类","address":null},{"poiid":"B2094654D469A0FF4799","title":"刘行邮政局","lon":"121.37317","lat":"31.35735","category":"248","category_name":"生活娱乐","address":"菊泉路618"},{"poiid":"B2094753D66BA1FA409F","title":"美兰湖","lon":"121.372573","lat":"31.36008","category":"500","category_name":"未知分类","address":"上海市 罗芬路"},{"poiid":"B2094757D06BA5F84498","title":"小虫租车","lon":"121.36629895","lat":"31.345830509","category":"163","category_name":"4S店","address":"上海市宝山区菊联路近陆翔路口"},{"poiid":"B2094751DA6FABF4429B","title":"馨佳园九街坊","lon":"121.371185","lat":"31.358412","category":"252","category_name":"楼宇机构","address":"韶山路348弄"},{"poiid":"B2094757D16EA7FC419D","title":"新菊泉大酒店","lon":"121.381729","lat":"31.350243","category":"76","category_name":"上海菜","address":"宝山区顾村镇沪太路5010号"},{"poiid":"B2094752D564A4FB4393","title":"保利叶语公寓","lon":"121.365331","lat":"31.346191","category":"627","category_name":"一般地点标志","address":"宝菊路22弄"},{"poiid":"B2094757D16BA5F44898","title":"华山医院(北院)","lon":"121.36696","lat":"31.33941","category":"162","category_name":"医院","address":"宝山区陆翔路108号(近菊太路)"},{"poiid":"B2094752DB68A5FF439F","title":"刘行教练场","lon":"121.379635","lat":"31.352771","category":"253","category_name":"校园生活","address":"上海市 宝安公路2009号"},{"poiid":"B2094757D16FA3F54192","title":"一唇香迷宗蟹","lon":"121.39015767","lat":"31.350380083","category":"71","category_name":"四川菜","address":"宝山区顾北路680号(近顾荻路)"},{"poiid":"B2094655D36CA1F8489E","title":"六房","lon":"121.3583","lat":"31.35268","category":"38","category_name":"公交车站","address":""},{"poiid":"B2094757D065A2F8489B","title":"小小家园","lon":"121.37366895","lat":"31.344215479","category":"500","category_name":"未知分类","address":null},{"poiid":"B2094757D56EA5F5469F","title":"南沈家宅","lon":"121.362335999997","lat":"31.351241","category":"248","category_name":"生活娱乐","address":"宝山区"},{"poiid":"B2094750D564A6F94592","title":"元邑酒家","lon":"121.383926","lat":"31.342247","category":"247","category_name":"餐饮美食","address":"宝山区沪太路4788号顾村公园2号门绿地广场1楼"},{"poiid":"B2094757D568A7F44399","title":"绿地公园壹品","lon":"121.3848917","lat":"31.35653167","category":"47","category_name":"住宅区","address":"宝山区沙浦路附近"},{"poiid":"B2094757D16FA0FA4492","title":"东方假日田园农家菜","lon":"121.35825","lat":"31.35251","category":"500","category_name":"未知分类","address":"宝山区联杨路3888号东方假日田园内(宝安公路联杨路)"},{"poiid":"B2094655D26AA0F94492","title":"地铁刘行站","lon":"121.35706","lat":"31.35215","category":"36","category_name":"地铁站","address":""},{"poiid":"B2094757D16FABFB429C","title":"烨王府","lon":"121.375481279","lat":"31.3612173881","category":"247","category_name":"餐饮美食","address":"上海电台路599弄"},{"poiid":"B2094757D16BA4F44999","title":"一一小屋","lon":"121.380292479","lat":"31.3535962444","category":"500","category_name":"未知分类","address":"上海菊泉街"},{"poiid":"B2094752D76BA7F84199","title":"中山公园龙之梦","lon":"121.386146","lat":"31.342991","category":"247","category_name":"餐饮美食","address":null},{"poiid":"B2094757D169A3FC479A","title":"馨佳苑","lon":"121.36161657","lat":"31.360396572","category":"500","category_name":"未知分类","address":"宝山区丹霞山路"},{"poiid":"B2094757D468A4FE4692","title":"98号公馆","lon":"121.38233137","lat":"31.34845038","category":"260","category_name":"其他","address":"宝山区顾村镇沪太路4788号顾村公园3号风情园(近地铁7号线)"},{"poiid":"B209475DD365A7FE499C","title":"保利 叶语","lon":"121.363945","lat":"31.343351","category":"500","category_name":"未知分类","address":"上海市 宝菊路"},{"poiid":"B2094752DA6FA5FC479C","title":"长宁妇幼保健医院","lon":"121.383063","lat":"31.346911","category":"162","category_name":"医院","address":"上海市 武夷路773号"},{"poiid":"B2094757D165A0FA409E","title":"双林饭店","lon":"121.35754822","lat":"31.354853078","category":"247","category_name":"餐饮美食","address":"上海宝安公路"},{"poiid":"B2094757D165A2F84892","title":"三村米线","lon":"121.384258679","lat":"31.3510460963","category":"247","category_name":"餐饮美食","address":"上海大学"},{"poiid":"B2094750DA6FA7FA479B","title":"龙之梦万丽酒店","lon":"121.387733","lat":"31.345125","category":"500","category_name":"未知分类","address":null},{"poiid":"B2094751DA6AA6FC4999","title":"品甬外婆桥","lon":"121.38518","lat":"31.34773","category":"76","category_name":"上海菜","address":"宝山区陆翔路29号顾村公园2号口"},{"poiid":"B2094655D36CA2FF459B","title":"羌家村","lon":"121.38179","lat":"31.35921","category":"38","category_name":"公交车站","address":""},{"poiid":"B2094757D569A0F9439C","title":"菊泉街300弄","lon":"121.38124522819","lat":"31.360062012828","category":"47","category_name":"住宅区","address":"上海市宝山区菊泉街398,404号"},{"poiid":"B2094757D66CA4F4499C","title":"m’s 屋企","lon":"121.35638167","lat":"31.351099097","category":"247","category_name":"餐饮美食","address":"上海m’s 屋企"},{"poiid":"B2094757D569A3F8479F","title":"绿洲花园A块商业","lon":"121.3857858","lat":"31.35598278","category":"47","category_name":"住宅区","address":"沙浦路128弄"},{"poiid":"B2094757D065A3FD429C","title":"旺鑫閣传菜","lon":"121.38779827","lat":"31.347523942","category":"75","category_name":"浙江菜","address":"宝山区顾北路688号(近东方帕缇欧)"},{"poiid":"B2094654D469A5FA4193","title":"上海刘行经济发展公司","lon":"121.37557","lat":"31.3594","category":"263","category_name":"公司","address":"宝山公路1435"},{"poiid":"B2094757D464A0F5439D","title":"美丽川","lon":"121.389576","lat":"31.351517","category":"71","category_name":"四川菜","address":"宝山区顾北路588-598号(近顾荻路)"},{"poiid":"B2094757DA6FA3FF4993","title":"好日子大家园D区","lon":"121.37950444423","lat":"31.360246626725","category":"252","category_name":"楼宇机构","address":"上海市宝山区菊太路1399弄"},{"poiid":"B2094757D568AAFF4799","title":"绿洲花园B块","lon":"121.3851308","lat":"31.35673694","category":"47","category_name":"住宅区","address":"上海市宝山区宝绿路99弄"},{"poiid":"B2094654DB69A6FD459E","title":"环绿森邻(环绿国际)","lon":"121.38561","lat":"31.35572","category":"47","category_name":"住宅区","address":"宝山区宝绿路99号"},{"poiid":"B2094757DA64A1FC4593","title":"绿地北郊广场","lon":"121.384313","lat":"31.357173","category":"252","category_name":"楼宇机构","address":"经区临海滨路,西临青岛路(机场路)"},{"poiid":"B2094654D469AAF9419E","title":"绿洲花园(A区)","lon":"121.3883","lat":"31.35599","category":"47","category_name":"住宅区","address":""},{"poiid":"B2094751D569A7F8409D","title":"美兰湖·领域","lon":"121.379669","lat":"31.358475","category":"251","category_name":"出行住宿","address":"宝山区罗芬路98号"},{"poiid":"B2094655D36CA1F4459A","title":"老安","lon":"121.37139","lat":"31.36674","category":"38","category_name":"公交车站","address":""},{"poiid":"B2094752D26BA3F44198","title":"圣都佩地中海庄园","lon":"121.373203","lat":"31.339324","category":"627","category_name":"一般地点标志","address":null},{"poiid":"B2094655D36CA4FC4199","title":"宝安公路六房","lon":"121.35413","lat":"31.3511","category":"38","category_name":"公交车站","address":""},{"poiid":"B2094757D66DA0F84999","title":"缘香大酒店","lon":"121.38170117","lat":"31.358479336","category":"217","category_name":"旅馆招待所","address":"上海宝山沙浦路288号"},{"poiid":"B2094757D66CA0F5459A","title":"宏润韶光花园","lon":"121.39035","lat":"31.352749","category":"47","category_name":"住宅区","address":"上海市宝山区顾北路501号"},{"poiid":"B2094757D16DA5FE499B","title":"世纪联华(罗店美兰湖店)","lon":"121.37117097","lat":"31.367469106","category":"249","category_name":"购物服务","address":"上海宝山区沪太公路美丹路口(近美兰湖地铁站)"},{"poiid":"B2094757D66EA0FE4299","title":"187路终点站政立路恒仁路","lon":"121.356680479","lat":"31.3545585626","category":"500","category_name":"未知分类","address":"上海政立路恒仁路"},{"poiid":"B2094757D464A0FA449F","title":"百姓美食 顾北路店","lon":"121.388903","lat":"31.351243","category":"76","category_name":"上海菜","address":"宝山区顾北路676-678号(近沪太路)"},{"poiid":"B2094750DB6FAAF9419D","title":"顾村公园地铁站","lon":"121.362617","lat":"31.367473","category":"36","category_name":"地铁站","address":null},{"poiid":"B2094654D469A0F5429D","title":"上海鸿文国际职业高级中学","lon":"121.35207","lat":"31.35","category":"55","category_name":"中学","address":"宝安公路2186"},{"poiid":"B2094757DA6EABFA4392","title":"上海荣安驾校","lon":"121.372902799997","lat":"31.3657306000002","category":"253","category_name":"校园生活","address":"宝山区潘广路2218号(沪太路潘广路)"},{"poiid":"B2094655D36CA7FE4393","title":"沪太路陈富路","lon":"121.38771","lat":"31.34693","category":"38","category_name":"公交车站","address":""},{"poiid":"B2094757D16AA1FE429D","title":"力欧桌球","lon":"121.381497","lat":"31.35966","category":"248","category_name":"生活娱乐","address":"上海曙光医院曙光大厦10楼"},{"poiid":"B2094655D36CA7F5459C","title":"顾荻路沙浦路","lon":"121.38954","lat":"31.35531","category":"38","category_name":"公交车站","address":""},{"poiid":"B2094753D568A6FE4592","title":"保利叶上海三期","lon":"121.356407","lat":"31.342578","category":"500","category_name":"未知分类","address":"上海市 上海市宝山区菊联路262弄"},{"poiid":"B2094757D16FA3FA4498","title":"刘行基地","lon":"121.38842367","lat":"31.349705071","category":"500","category_name":"未知分类","address":"上海刘行"},{"poiid":"B2094757D169AAFE469A","title":"7天连锁酒店","lon":"121.365444679","lat":"31.3651483622","category":"500","category_name":"未知分类","address":"上海宜川路310号"},{"poiid":"B2094753DA6EABFC449D","title":"新天地荻泾花园","lon":"121.38943","lat":"31.355042","category":"47","category_name":"住宅区","address":"沙浦路311弄"},{"poiid":"B2094757D168A1FD4299","title":"迟到集中时段","lon":"121.38662705","lat":"31.347785147","category":"500","category_name":"未知分类","address":"上海迟到集中路段"},{"poiid":"B2094655D26AA0F9449D","title":"地铁潘广路站","lon":"121.35287","lat":"31.36058","category":"36","category_name":"地铁站","address":""},{"poiid":"B2094654D469A6F9449A","title":"宝山区建芳杂货店","lon":"121.35557","lat":"31.36096","category":"117","category_name":"便民商店/便利店","address":""},{"poiid":"B209475CD668A1FB459E","title":"顾村公园","lon":"121.386589","lat":"31.344661","category":"196","category_name":"公园","address":"上海市 顾村公园"},{"poiid":"B2094654D469A0F44899","title":"老安村卫生室","lon":"121.3762","lat":"31.36745","category":"162","category_name":"医院","address":"潘广路995"},{"poiid":"B2094757D16AA6FD4192","title":"久久丫鸭颈王(顾获路店)","lon":"121.38928","lat":"31.35547","category":"247","category_name":"餐饮美食","address":"上海宝山区顾获路(近沙浦路)  "},{"poiid":"B2094751DA64A1F4479A","title":"菊盛路851弄馨佳园","lon":"121.356864","lat":"31.358254","category":"627","category_name":"一般地点标志","address":"菊盛路"},{"poiid":"B2094757D16EA4F44992","title":"爱建顾园","lon":"121.38712827997","lat":"31.357637965065","category":"500","category_name":"未知分类","address":"上海菊盛路50弄"},{"poiid":"B2094757D16DA7FA419B","title":"华茂驾校","lon":"121.38042095","lat":"31.3350893043","category":"253","category_name":"校园生活","address":"宝山区顾陈路388号(近上海大学)"},{"poiid":"B2094752DB6DA2FE499D","title":"宝山万达电影院","lon":"121.3901080423822","lat":"31.35294364389653","category":"500","category_name":"未知分类","address":"上海市 宝山区一二八纪念路988弄1号"},{"poiid":"B2094654D469A6F94498","title":"顾村镇外来流动人员管理归王村工作站","lon":"121.35565","lat":"31.36072","category":"248","category_name":"生活娱乐","address":""},{"poiid":"B2094654D469A0F4479B","title":"上海中远关西涂料化工有限公司","lon":"121.37145","lat":"31.36729","category":"263","category_name":"公司","address":"沪太路5558"},{"poiid":"B2094655D264A3F5479C","title":"外环中心河桥","lon":"121.36602","lat":"31.33409","category":"250","category_name":"公园户外","address":""},{"poiid":"B2094654D469A0F44898","title":"老安村老年活动中心","lon":"121.37622","lat":"31.36742","category":"248","category_name":"生活娱乐","address":"潘广路995"},{"poiid":"B2094757D16AA1F4459D","title":"景瑞农业配送中心","lon":"121.37899267","lat":"31.367585508","category":"500","category_name":"未知分类","address":"上海潘泾路800弄151号"},{"poiid":"B2094654D469A7FA4498","title":"上海王宅实业公司","lon":"121.36109","lat":"31.33612","category":"263","category_name":"公司","address":"陈富路1325"},{"poiid":"B2094654D469A5FA419B","title":"上海广大机床设备交易市场","lon":"121.36929","lat":"31.36982","category":"255","category_name":"专卖店","address":""},{"poiid":"B2094654D469A7FA449F","title":"叶禾红木家具厂","lon":"121.3602","lat":"31.33528","category":"263","category_name":"公司","address":"陈富路1399"}]