[{"poiid":"B2094757D064A4F8409B","title":"上海衡山北郊宾馆","lon":"121.38487905","lat":"31.3455428044","category":"76","category_name":"上海菜","address":"宝山区顾村镇沪太路4788号顾村公园内"},{"poiid":"B2094757D06FA0FF459C","title":"泰和新城","lon":"121.412","lat":"31.3549","category":"47","category_name":"住宅区","address":"上海泰和新城3381弄"},{"poiid":"B2094757D068AAFD429A","title":"宝山太平禅寺","lon":"121.410213","lat":"31.355918","category":"246","category_name":"回教寺","address":"上海宝山区顾村镇富联路(近泰和西路)"},{"poiid":"B2094757D069A7FC459B","title":"东方帕堤欧","lon":"121.38584","lat":"31.351549","category":"47","category_name":"住宅区","address":"宝山区顾北路691号(近沪太路)"},{"poiid":"B2094757D06AA1FE479F","title":"顾北路电台路","lon":"121.393651","lat":"31.351812","category":"500","category_name":"未知分类","address":"上海宝山区顾北路电台路"},{"poiid":"B2094757D465A3F9469C","title":"顾村公园鹰冠庄园","lon":"121.38529968262","lat":"31.347066879273","category":"247","category_name":"餐饮美食","address":"宝山区沪太路4788号顾村公园英伦风情园悦林大道11号查看地图"},{"poiid":"B2094757D069A2F5429F","title":"大唐花园","lon":"121.40004","lat":"31.344345","category":"47","category_name":"住宅区","address":"大唐花园位于宝山上海宝山沪太路3717弄"},{"poiid":"B2094757D168A0FE4898","title":"顾村公园﹣鹰冠婚礼庄园","lon":"121.39265295","lat":"31.3451464968","category":"196","category_name":"公园","address":"上海市宝山区沪太路"},{"poiid":"B2094757D06AA7FA4292","title":"顾村大家园A区","lon":"121.407711679","lat":"31.3588722439","category":"500","category_name":"未知分类","address":"上海市宝山区顾北东路501弄"},{"poiid":"B2094757D069A3F94498","title":"701路终点站 泰和新城","lon":"121.403744","lat":"31.351059","category":"38","category_name":"公交车站","address":"上海泰和西路"},{"poiid":"B2094757D064AAFD4399","title":"丰水宝坻 西苑","lon":"121.393518","lat":"31.355909","category":"500","category_name":"未知分类","address":"上海电台路教育路"},{"poiid":"B2094757D169A5FD469D","title":"鸡排超人(顾村店)","lon":"121.403499713","lat":"31.3506720893","category":"68","category_name":"快餐厅","address":"宝山区泰和西路3499弄65号(顾太路口)"},{"poiid":"B2094654DB6AA5FF419E","title":"泰和西路","lon":"121.402","lat":"31.35043","category":"47","category_name":"住宅区","address":""},{"poiid":"B2094757D464A0F44698","title":"伊诺咖啡 顾北路店","lon":"121.39682","lat":"31.3532","category":"65","category_name":"咖啡厅","address":"宝山区顾北路578号(顾北路教育路)"},{"poiid":"B2094757D068A7F94499","title":"东明家具广场(沪太路店)","lon":"121.40212","lat":"31.33917","category":"249","category_name":"购物服务","address":"宝山区沪太路4301号"},{"poiid":"B2094655D36CA7F5469A","title":"顾太路泰和路","lon":"121.39804","lat":"31.34777","category":"38","category_name":"公交车站","address":""},{"poiid":"B2094757D06AABF44493","title":"宝山国际民间艺术博览馆","lon":"121.3877161","lat":"31.346555898","category":"182","category_name":"博物馆","address":"宝山区沪太路4788号(近顾村公园1号门)"},{"poiid":"B2094654D469AAF94692","title":"好德NO.802(祥和路)","lon":"121.40267","lat":"31.35008","category":"117","category_name":"便民商店/便利店","address":""},{"poiid":"B2094654D469AAF9459A","title":"中国电信顾新路营业厅","lon":"121.39746","lat":"31.34837","category":"151","category_name":"电讯营业厅","address":"宝山区顾村顾新路2号"},{"poiid":"B2094757D069A7FA4393","title":"丰水宝坻 东苑","lon":"121.39669024","lat":"31.3517751278","category":"47","category_name":"住宅区","address":"上海市宝山区教育路555弄"},{"poiid":"B2094654D469ABFB4593","title":"上海市顾村中学","lon":"121.39422","lat":"31.35164","category":"55","category_name":"中学","address":"电台路93"},{"poiid":"B2094655D36CA1FE4798","title":"水产西路富联路","lon":"121.41202","lat":"31.35561","category":"38","category_name":"公交车站","address":""},{"poiid":"B2094654D469AAF5419E","title":"一德大药房恒泰店","lon":"121.40321","lat":"31.35031","category":"162","category_name":"医院","address":"顾村镇"},{"poiid":"B2094654DB6AA5F8459C","title":"宝山区泰和新城小学","lon":"121.40277","lat":"31.35156","category":"56","category_name":"小学","address":"宝山区泰和西路3493弄188"},{"poiid":"B2094654DB65A2F5439C","title":"中国移动营业厅(顾太路)","lon":"121.39749","lat":"31.34824","category":"151","category_name":"电讯营业厅","address":"顾太路10号"},{"poiid":"B2094654D469AAF94492","title":"快客(顾新路)","lon":"121.39708","lat":"31.34858","category":"117","category_name":"便民商店/便利店","address":""},{"poiid":"B2094654D46AA0FA4392","title":"双利百货","lon":"121.39749","lat":"31.34726","category":"119","category_name":"商场","address":""},{"poiid":"B2094757D16FA3F54192","title":"一唇香迷宗蟹","lon":"121.39015767","lat":"31.350380083","category":"71","category_name":"四川菜","address":"宝山区顾北路680号(近顾荻路)"},{"poiid":"B2094654D46AA0FA469F","title":"宝山区顾村工贸商场","lon":"121.39676","lat":"31.34824","category":"119","category_name":"商场","address":""},{"poiid":"B2094757D068ABF9449D","title":"圣卡洛 铂庭","lon":"121.388371","lat":"31.35749","category":"47","category_name":"住宅区","address":"上海沙浦路518弄"},{"poiid":"B2094757D069A5FC4592","title":"顾村大家园C区","lon":"121.41204192","lat":"31.360784179","category":"500","category_name":"未知分类","address":"上海顾北东路155弄"},{"poiid":"B2094654D46AA3FA409C","title":"德胜饮食店","lon":"121.39696","lat":"31.34739","category":"257","category_name":"中餐厅","address":""},{"poiid":"B2094655D264A0F5429A","title":"颐河苑","lon":"121.40876428618","lat":"31.348603156453","category":"47","category_name":"住宅区","address":"上海市宝山区顾太路21弄"},{"poiid":"B2094654D46AA0FA439F","title":"宝山区顾村中心幼儿园","lon":"121.39629","lat":"31.34749","category":"57","category_name":"幼儿园","address":"新泰路31"},{"poiid":"B2094654D469AAF5449B","title":"快客NO.1264","lon":"121.40481","lat":"31.35097","category":"117","category_name":"便民商店/便利店","address":"顾村镇"},{"poiid":"B2094654D469AAF5439C","title":"名角女士生活馆(祥和路)","lon":"121.40461","lat":"31.35089","category":"148","category_name":"美容美发店","address":""},{"poiid":"B2094654D469AAF94498","title":"雅美花苑","lon":"121.39633","lat":"31.348158","category":"47","category_name":"住宅区","address":"顾新路18号"},{"poiid":"B2094757D16CA0FF439B","title":"自然居家園","lon":"121.409995","lat":"31.353395","category":"500","category_name":"未知分类","address":"水产西路999弄1-11,38-47号"},{"poiid":"B2094654D469AAF94493","title":"中国建设银行上海市顾新路支行","lon":"121.39717","lat":"31.3486","category":"150","category_name":"银行","address":"宝山区顾村镇顾新路3号(顾太路顾新路)"},{"poiid":"B2094654D469AAF94992","title":"顾村社区卫生服务中心","lon":"121.40888","lat":"31.35302","category":"162","category_name":"医院","address":"宝山区泰和西路3369号"},{"poiid":"B2094654D46AA0FA4999","title":"红十字卫生站","lon":"121.40509","lat":"31.35128","category":"162","category_name":"医院","address":"泰和新城第一居委3463弄38号对面"},{"poiid":"B2094757D069A7F9479C","title":"成亿宝盛","lon":"121.414759","lat":"31.354816","category":"500","category_name":"未知分类","address":"上海水产西路859弄"},{"poiid":"B2094757D06AA0FA4499","title":"丰水宝坻","lon":"121.39216691","lat":"31.357603336","category":"253","category_name":"校园生活","address":"上海电台路教育路"},{"poiid":"B2094655D265A0FC469E","title":"阳光迪金阁","lon":"121.404677","lat":"31.354497","category":"47","category_name":"住宅区","address":"宝山区顾新东路387弄"},{"poiid":"B2094757DB69A2FC449A","title":"苏武牧羊 顾北路店","lon":"121.39244556427","lat":"31.351841147503","category":"86","category_name":"火锅店","address":"宝山区顾北路460号(近电台路)"},{"poiid":"B2094757D069A6FD469E","title":"顾村大家园B区","lon":"121.407729","lat":"31.358065","category":"500","category_name":"未知分类","address":"上海宝山区顾村大家园B区"},{"poiid":"B2094757D66CA7FC459F","title":"沪太路","lon":"121.40159195","lat":"31.34274145","category":"500","category_name":"未知分类","address":"上海沪太路4361号"},{"poiid":"B2094654D469ABF44793","title":"顾村镇图书馆","lon":"121.39566","lat":"31.3469","category":"181","category_name":"图书馆","address":"顾村镇电台南路7号"},{"poiid":"B2094751D565A3FB419A","title":"美蘭湖別墅","lon":"121.3948150944116","lat":"31.34968526929555","category":"47","category_name":"住宅区","address":null},{"poiid":"B2094654D46AA0FA4398","title":"上海市宝山区顾村镇兽医站","lon":"121.3953","lat":"31.34768","category":"162","category_name":"医院","address":""},{"poiid":"B2094654D469AAF54598","title":"快客NO.6590","lon":"121.40611","lat":"31.35132","category":"117","category_name":"便民商店/便利店","address":"顾村镇"},{"poiid":"B2094654D469ABF4479F","title":"顾村中心小学","lon":"121.39556","lat":"31.35286","category":"56","category_name":"小学","address":"顾北路101号"},{"poiid":"B2094654D469AAF94398","title":"宝山区顾村广播电视站","lon":"121.39529","lat":"31.34752","category":"59","category_name":"电视台","address":"电台南路11"},{"poiid":"B2094654D469AAF94293","title":"顾村派出所","lon":"121.39542","lat":"31.34654","category":"609","category_name":"警察局","address":"宝山区顾村电台南路2号"},{"poiid":"B2094654D46AA3FA4299","title":"上海农村商业银行顾村支行","lon":"121.39655","lat":"31.34844","category":"150","category_name":"银行","address":"顾新路15"},{"poiid":"B2094757D064ABF84593","title":"海宝呼叫中心","lon":"121.39669895","lat":"31.3449624933","category":"500","category_name":"未知分类","address":"上海顾村镇（顾太路泰和西路）"},{"poiid":"B2094757D568ABFD4999","title":"重庆人麻辣烫","lon":"121.3997322","lat":"31.34357917","category":"257","category_name":"中餐厅","address":"顾太路76号"},{"poiid":"B2094654D46AA0FB449B","title":"上海市宝山区顾村轧花厂","lon":"121.39741","lat":"31.35096","category":"263","category_name":"公司","address":""},{"poiid":"B2094655D26FA5F44493","title":"好德(顾村邮政支局北)","lon":"121.40635","lat":"31.35173","category":"117","category_name":"便民商店/便利店","address":""},{"poiid":"B2094655D265AAFE499B","title":"泊仕郡","lon":"121.39268","lat":"31.350485","category":"47","category_name":"住宅区","address":"宝山区顾北路468号"},{"poiid":"B2094654D469AAF9419B","title":"丰水宝邸","lon":"121.39304","lat":"31.356899","category":"47","category_name":"住宅区","address":"上海市宝山区电台路599弄"},{"poiid":"B2094655D36CA6F4499A","title":"电台路顾北路","lon":"121.39365","lat":"31.35181","category":"38","category_name":"公交车站","address":""},{"poiid":"B2094757D069A2FA4592","title":"天极盛宅花园","lon":"121.41443","lat":"31.352009","category":"47","category_name":"住宅区","address":"天极盛宅花园位于宝山上海宝山泰和西路3419弄"},{"poiid":"B2094655D36CA6F4499B","title":"电台路沙浦路","lon":"121.39176","lat":"31.35619","category":"38","category_name":"公交车站","address":"电台路沙浦路"},{"poiid":"B2094757D464A0F5439D","title":"美丽川","lon":"121.389576","lat":"31.351517","category":"71","category_name":"四川菜","address":"宝山区顾北路588-598号(近顾荻路)"},{"poiid":"B2094655D264A4FB4093","title":"外环沪太路立交桥","lon":"121.39284","lat":"31.34498","category":"250","category_name":"公园户外","address":""},{"poiid":"B2094750D768A7FD439B","title":"喜阁亭(顾北路店)","lon":"121.391","lat":"31.3517","category":"76","category_name":"上海菜","address":"宝山区顾北路468号(近沪太路)"},{"poiid":"B2094654D46AA2FF499C","title":"福玉客房部","lon":"121.39953","lat":"31.3446","category":"217","category_name":"旅馆招待所","address":"顾太路93"},{"poiid":"B2094752D468A2FD4192","title":"顾村公园","lon":"121.400937","lat":"31.341258","category":"250","category_name":"公园户外","address":null},{"poiid":"B2094757D064A3F4439B","title":"三品坊","lon":"121.41077567","lat":"31.356282195","category":"76","category_name":"上海菜","address":"宝山区宝山区水产西路1057-1063号(近富联路)"},{"poiid":"B2094757D66CA0FC439A","title":"驰耐普汽车美容连锁店","lon":"121.40600467","lat":"31.351631107","category":"500","category_name":"未知分类","address":"上海市宝山区祥和路"},{"poiid":"B2094655D36DA1FF499D","title":"中心桥","lon":"121.40629","lat":"31.34546","category":"250","category_name":"公园户外","address":""},{"poiid":"B2094655D36CA1FC469E","title":"盛宅村","lon":"121.41127","lat":"31.34973","category":"38","category_name":"公交车站","address":""},{"poiid":"B2094757D66CA0F5459A","title":"宏润韶光花园","lon":"121.39035","lat":"31.352749","category":"47","category_name":"住宅区","address":"上海市宝山区顾北路501号"},{"poiid":"B2094750D664AAFB419D","title":"肯德基(水产西路店)","lon":"121.408","lat":"31.3575","category":"68","category_name":"快餐厅","address":"宝山区水产西路999号(近富联路)"},{"poiid":"B2094654D469AAF94698","title":"上海华森消防水带有限公司","lon":"121.39775","lat":"31.35344","category":"263","category_name":"公司","address":"顾北路80"},{"poiid":"B2094757D165A0FE4099","title":"富联路128弄","lon":"121.41000867","lat":"31.353312139","category":"500","category_name":"未知分类","address":"上海盛宅一村"},{"poiid":"B2094757D168A1FD4193","title":"上海联集国际货运有限公司","lon":"121.399165","lat":"31.341366","category":"46","category_name":"楼宇","address":"上海市北苏州路1040号5A"},{"poiid":"B2094757D06BABF4469D","title":"自由地","lon":"121.40736567","lat":"31.351352102","category":"500","category_name":"未知分类","address":null},{"poiid":"B2094751DB6CA0FF4793","title":"上海大学宝山区","lon":"121.400471","lat":"31.341322","category":"500","category_name":"未知分类","address":"上海市 上大路98号"},{"poiid":"B2094757D06BA1FD4399","title":"顾村KFC","lon":"121.412238679","lat":"31.3536621457","category":"500","category_name":"未知分类","address":"上海市宝山区顾北东路"},{"poiid":"B2094655D36CA7F5489F","title":"顾北路顾荻路","lon":"121.39138","lat":"31.3519","category":"38","category_name":"公交车站","address":""},{"poiid":"B2094654D469AAF9489F","title":"顾村邮政支局","lon":"121.40651","lat":"31.35143","category":"248","category_name":"生活娱乐","address":"泰和西路3381弄300"},{"poiid":"B2094654D469AAF44793","title":"泰和海鲜","lon":"121.40742","lat":"31.34982","category":"260","category_name":"其他","address":"宝山区泰和西路潘泾路口(潘泾路泰和西路)"},{"poiid":"B2094757D769A7F9419D","title":"苹果花园 水产西路店","lon":"121.414129","lat":"31.35517","category":"47","category_name":"住宅区","address":"宝山区水产西路900号(近富联路)"},{"poiid":"B2094750DA6FA7FA479B","title":"龙之梦万丽酒店","lon":"121.387733","lat":"31.345125","category":"500","category_name":"未知分类","address":null},{"poiid":"B2094757D66CAAFE489D","title":"泰和新城东小区","lon":"121.40797667","lat":"31.35177511","category":"500","category_name":"未知分类","address":"上海市宝山区泰和西路3381弄"},{"poiid":"B2094757DB69A1FB469A","title":"毛家湘悦楼","lon":"121.4123696","lat":"31.3546188","category":"77","category_name":"湖南菜","address":"宝山区水产西路959号2楼(近富联路)"},{"poiid":"B2094655D26FA6F5489D","title":"合鑫大酒店","lon":"121.41294","lat":"31.3549","category":"71","category_name":"四川菜","address":"宝山区水产西路939号(近富联路)"},{"poiid":"B2094655D36DA1F84393","title":"杨木桥","lon":"121.40032","lat":"31.35672","category":"250","category_name":"公园户外","address":""},{"poiid":"B2094757D065A3FD429C","title":"旺鑫閣传菜","lon":"121.38779827","lat":"31.347523942","category":"75","category_name":"浙江菜","address":"宝山区顾北路688号(近东方帕缇欧)"},{"poiid":"B2094654D46AA2F8419C","title":"上海锦亿仓储物流有限公司","lon":"121.40463","lat":"31.34416","category":"248","category_name":"生活娱乐","address":""},{"poiid":"B2094757D168A1F5469C","title":"中国农业银行上海顾村支行","lon":"121.39575967","lat":"31.354932169","category":"500","category_name":"未知分类","address":"闵行区顾新路17号(顾新路新贸路)"},{"poiid":"B2094757DA69A2FF4393","title":"上海鸿途","lon":"121.39424","lat":"31.35041","category":"639","category_name":"汽车交通类公司","address":"宝山区沪太路5399号(近宝安公路)"},{"poiid":"B2094757D068A5FE469E","title":"世纪联华(顾村店)","lon":"121.41346","lat":"31.35497","category":"118","category_name":"超级市场","address":"宝山区水产西路1028号(近富联路)"},{"poiid":"B2094757D66CABFE429C","title":"天合火锅城","lon":"121.412404679","lat":"31.3537121466","category":"86","category_name":"火锅店","address":"水产西路997号自然居商业街1-2层"},{"poiid":"B2094757D164A3F8489B","title":"上海市宝山区顾村镇社区卫生服务中心","lon":"121.40950777","lat":"31.35129","category":"500","category_name":"未知分类","address":"上海市宝山区泰和西路3369号"},{"poiid":"B2094757D66EA3FB469E","title":"S20沪太路上匝道","lon":"121.411068679","lat":"31.3500830782","category":"500","category_name":"未知分类","address":"上海S20沪太路上匝道"},{"poiid":"B2094757D168A3FD469D","title":"重庆鸡公煲烤鱼","lon":"121.40996567","lat":"31.353147135","category":"247","category_name":"餐饮美食","address":"上海市宝山区水产西路自然居商业街"},{"poiid":"B2094757D469A7F44293","title":"蜀流香火锅","lon":"121.3913592","lat":"31.3570076","category":"86","category_name":"火锅店","address":"宝山区电台路378号(近顾北路)"},{"poiid":"B2094757D464A0FA449F","title":"百姓美食 顾北路店","lon":"121.388903","lat":"31.351243","category":"76","category_name":"上海菜","address":"宝山区顾北路676-678号(近沪太路)"},{"poiid":"B2094655D36DA1FF4992","title":"崇明塘桥","lon":"121.40736","lat":"31.34188","category":"250","category_name":"公园户外","address":""},{"poiid":"B2094654D46AA2FF449F","title":"扬州足浴休闲城","lon":"121.40066","lat":"31.34176","category":"149","category_name":"洗浴推拿场所","address":""},{"poiid":"B2094750D26DA7FF4099","title":"望湘园","lon":"121.3992805840574","lat":"31.33944581327599","category":"247","category_name":"餐饮美食","address":"宝山万达广场"},{"poiid":"B2094655D265A0F4459D","title":"世纪飞凡锦城(世纪长江苑)","lon":"121.38988","lat":"31.35764","category":"47","category_name":"住宅区","address":"上海市宝山区电台路568弄"},{"poiid":"B2094757D069A3F5479A","title":"世纪非凡锦城","lon":"121.398237","lat":"31.361296","category":"47","category_name":"住宅区","address":"上海电台路568弄"},{"poiid":"B2094654D46AA0F44893","title":"兴达利盛宅花园","lon":"121.41038","lat":"31.353539","category":"47","category_name":"住宅区","address":"上海市杨浦区四平路1145弄29号"},{"poiid":"B2094757D064A4FF4693","title":"世纪非凡怡园","lon":"121.397497","lat":"31.359647","category":"500","category_name":"未知分类","address":"上海电台路398弄"},{"poiid":"B2094757D169A2F94592","title":"Emma＇s Home","lon":"121.40969095","lat":"31.347849548","category":"500","category_name":"未知分类","address":null},{"poiid":"B2094654D46AA7FC439E","title":"东沪新村","lon":"121.39387","lat":"31.34152","category":"47","category_name":"住宅区","address":"顾陈路231弄"},{"poiid":"B2094753D669ABFC449A","title":"东平国家森林公园","lon":"121.391761","lat":"31.352804","category":"500","category_name":"未知分类","address":"上海市 崇明县北沿公路"},{"poiid":"B2094757D165ABFF469C","title":"兴明家具建材市场","lon":"121.39611295","lat":"31.339791394","category":"500","category_name":"未知分类","address":"上海市宝山区沪太路东明家具对面"},{"poiid":"B2094654D469AAF94299","title":"上海市农业生产资料公司农得利培训中心","lon":"121.39167","lat":"31.34738","category":"190","category_name":"培训机构","address":"顾太路728"},{"poiid":"B2094757D16FA6FF439C","title":"小天椒时尚火锅(顾村店)","lon":"121.39004217","lat":"31.355598452","category":"247","category_name":"餐饮美食","address":"上海宝山区顾村镇电台路566号"},{"poiid":"B2094752D76BA7F84199","title":"中山公园龙之梦","lon":"121.386146","lat":"31.342991","category":"247","category_name":"餐饮美食","address":null},{"poiid":"B2094753D76FA3FA459B","title":"纽斯韩式桑拿SPA会所","lon":"121.392395","lat":"31.343345","category":"500","category_name":"未知分类","address":"上海市 天山路1900号"},{"poiid":"B2094757D469A7F5419A","title":"客荟聚海鲜酒店","lon":"121.3909881","lat":"31.3517264","category":"260","category_name":"其他","address":"宝山区顾北路452-454号(近沪太路顾村公园)"},{"poiid":"B2094757D66DA6FB4893","title":"甲鱼家","lon":"121.39175281","lat":"31.351870111","category":"500","category_name":"未知分类","address":"上海甲鱼家"},{"poiid":"B2094654D469AAF94998","title":"吴家馆","lon":"121.408620054","lat":"31.358380793","category":"76","category_name":"上海菜","address":"宝山区顾北东路427号(近富联路)"},{"poiid":"B2094655D26FA4FC4092","title":"快客","lon":"121.40764","lat":"31.35725","category":"117","category_name":"便民商店/便利店","address":""},{"poiid":"B2094752D764AAFE479F","title":"龙之梦购物中心","lon":"121.392838","lat":"31.341934","category":"249","category_name":"购物服务","address":"上海市长宁区龙之梦"},{"poiid":"B2094655D36CA7F5459C","title":"顾荻路沙浦路","lon":"121.38954","lat":"31.35531","category":"38","category_name":"公交车站","address":""},{"poiid":"B2094750D069A4F84792","title":"中国工商银行宝山水产西路支行","lon":"121.41","lat":"31.353","category":"150","category_name":"银行","address":"上海市市辖区宝山区上海市宝山区顾村镇水产西路1041-1047号"},{"poiid":"B2094654D469AAF9419E","title":"绿洲花园(A区)","lon":"121.3883","lat":"31.35599","category":"47","category_name":"住宅区","address":""},{"poiid":"B2094757D569A2FF439D","title":"世纪飞凡二期","lon":"121.3905708","lat":"31.35548694","category":"47","category_name":"住宅区","address":"浦东新区惠南镇南园路455弄"},{"poiid":"B2094655D36CA6FE4993","title":"富联路顾北东路","lon":"121.40987","lat":"31.35879","category":"38","category_name":"公交车站","address":""},{"poiid":"B2094752DB6DA2FE499D","title":"宝山万达电影院","lon":"121.3901080423822","lat":"31.35294364389653","category":"500","category_name":"未知分类","address":"上海市 宝山区一二八纪念路988弄1号"},{"poiid":"B2094757D16FA3FA4498","title":"刘行基地","lon":"121.38842367","lat":"31.349705071","category":"500","category_name":"未知分类","address":"上海刘行"},{"poiid":"B2094757D16AA2F9469D","title":"3381弄车棚","lon":"121.41124977","lat":"31.349761872","category":"500","category_name":"未知分类","address":"上海泰和西路3381弄"},{"poiid":"B2094655D265A5FB439B","title":"成亿宝盛家苑北块","lon":"121.41332","lat":"31.35343","category":"47","category_name":"住宅区","address":"上海市宝山区富联路162号"},{"poiid":"B2094753DA6EABFC449D","title":"新天地荻泾花园","lon":"121.38943","lat":"31.355042","category":"47","category_name":"住宅区","address":"沙浦路311弄"},{"poiid":"B2094655D36CA7FE4393","title":"沪太路陈富路","lon":"121.38771","lat":"31.34693","category":"38","category_name":"公交车站","address":""},{"poiid":"B2094655D26BA0FE4199","title":"百味林(世纪联华顾村店)","lon":"121.41199","lat":"31.35405","category":"255","category_name":"专卖店","address":"水产西路1028号"},{"poiid":"B2094655D264A7F94299","title":"绿地公园7号","lon":"121.393293","lat":"31.361181","category":"47","category_name":"住宅区","address":"宝山区沙浦路205号"},{"poiid":"B2094654D46AA3FD439A","title":"快客(富联路)","lon":"121.41304","lat":"31.35341","category":"117","category_name":"便民商店/便利店","address":""},{"poiid":"B2094654D46AA1FB479D","title":"朱家弄村","lon":"121.38981","lat":"31.34214","category":"47","category_name":"住宅区","address":""},{"poiid":"B2094757D16EA0F8489D","title":"KFC水产西路店","lon":"121.412709679","lat":"31.3553181769","category":"500","category_name":"未知分类","address":"上海市宝山区水产西路富联路"},{"poiid":"B2094654D469AAF9499E","title":"荷霞幼儿园","lon":"121.41038","lat":"31.35745","category":"57","category_name":"幼儿园","address":""},{"poiid":"B2094655D36CA6FE499C","title":"富联路泰和西路","lon":"121.41393","lat":"31.35241","category":"38","category_name":"公交车站","address":""},{"poiid":"B2094757D16AA6FD4192","title":"久久丫鸭颈王(顾获路店)","lon":"121.38928","lat":"31.35547","category":"247","category_name":"餐饮美食","address":"上海宝山区顾获路(近沙浦路)  "},{"poiid":"B2094654D46AA0F4489F","title":"光明(顾北路)","lon":"121.4102","lat":"31.35774","category":"117","category_name":"便民商店/便利店","address":""},{"poiid":"B2094654D46AA3FD419A","title":"良友金伴(荷霞幼儿园西北)","lon":"121.41015","lat":"31.35774","category":"117","category_name":"便民商店/便利店","address":""},{"poiid":"B2094751DA6AA6FC4999","title":"品甬外婆桥","lon":"121.38518","lat":"31.34773","category":"76","category_name":"上海菜","address":"宝山区陆翔路29号顾村公园2号口"},{"poiid":"B2094757D16FAAF94492","title":"高山足浴","lon":"121.412265679","lat":"31.3548221675","category":"148","category_name":"美容美发店","address":"上海市宝山区水产西路"},{"poiid":"B2094655D265ABF9439A","title":"经纬城市绿洲二期","lon":"121.40532817287","lat":"31.337354743678","category":"47","category_name":"住宅区","address":"沪太路3888号"},{"poiid":"B2094655D36CA4FC4398","title":"宝安公路电台路","lon":"121.39017","lat":"31.35794","category":"38","category_name":"公交车站","address":""},{"poiid":"B2094750DA6DAAF84292","title":"虹口龙之梦","lon":"121.391052","lat":"31.357036","category":"500","category_name":"未知分类","address":null},{"poiid":"B2094655D36DA1F8439A","title":"潘泾桥","lon":"121.40246","lat":"31.36106","category":"250","category_name":"公园户外","address":""},{"poiid":"B2094757D06AA4FE449A","title":"爱巢","lon":"121.39071267","lat":"31.355940188","category":"500","category_name":"未知分类","address":null},{"poiid":"B2094655D36CA6FE4992","title":"富联路宝安公路","lon":"121.40778","lat":"31.3619","category":"38","category_name":"公交车站","address":""},{"poiid":"B2094757D569A3F8479F","title":"绿洲花园A块商业","lon":"121.3857858","lat":"31.35598278","category":"47","category_name":"住宅区","address":"沙浦路128弄"},{"poiid":"B2094757D16EA1FD499D","title":"环绿国际","lon":"121.39177982859","lat":"31.362350808418","category":"500","category_name":"未知分类","address":"上海市宝山区宝绿路99弄"},{"poiid":"B2094757D068A4FB4292","title":"电台路","lon":"121.39143","lat":"31.355651","category":"260","category_name":"其他","address":"上海锦城"},{"poiid":"B2094757D06FAAFF469F","title":"成亿宝盛858弄","lon":"121.415154679","lat":"31.3518701119","category":"252","category_name":"楼宇机构","address":"上海市宝山区水产西路"},{"poiid":"B2094655D36CA7FE4193","title":"沪太路塘桥","lon":"121.40394","lat":"31.33483","category":"38","category_name":"公交车站","address":""},{"poiid":"B2094757D168A1FD4299","title":"迟到集中时段","lon":"121.38662705","lat":"31.347785147","category":"500","category_name":"未知分类","address":"上海迟到集中路段"},{"poiid":"B2094753D46AA1F54492","title":"上海协通福茂福特4S店","lon":"121.402679","lat":"31.361396","category":"500","category_name":"未知分类","address":"上海市 上海市宝山区潘泾路401号"},{"poiid":"B2094757DB68A1FE459A","title":"大宁国际","lon":"121.4128348083795","lat":"31.34204235689705","category":"500","category_name":"未知分类","address":"star bucks"},{"poiid":"B209475CD668A1FB459E","title":"顾村公园","lon":"121.386589","lat":"31.344661","category":"196","category_name":"公园","address":"上海市 顾村公园"},{"poiid":"B2094654DB69A6FD459E","title":"环绿森邻(环绿国际)","lon":"121.38561","lat":"31.35572","category":"47","category_name":"住宅区","address":"宝山区宝绿路99号"},{"poiid":"B2094750D56DA7FB4999","title":"上海发那科机器人有限公司","lon":"121.401641","lat":"31.361474","category":"263","category_name":"公司","address":"富联路1500号"},{"poiid":"B2094655D36DA1F8409C","title":"龚江桥","lon":"121.38876","lat":"31.34024","category":"250","category_name":"公园户外","address":""},{"poiid":"B2094757D66CA3F4489A","title":"世纪联华(罗店店)","lon":"121.40947795","lat":"31.3374513495","category":"118","category_name":"超级市场","address":"上海市宝山区罗芬路1088号"},{"poiid":"B2094750D364A3F9429E","title":"西上海盛达skoda","lon":"121.40144896751","lat":"31.361363434161","category":"639","category_name":"汽车交通类公司","address":"上海市宝山区潘泾路399号(宝安公路口)"},{"poiid":"B2094757D164AAFC439B","title":"第四十八机动车安全检测站","lon":"121.40514335","lat":"31.3334885737","category":"500","category_name":"未知分类","address":"上海沪太路4199号"},{"poiid":"B2094757D169A6F44599","title":"荣安驾校","lon":"121.416363","lat":"31.351023","category":"253","category_name":"校园生活","address":"上海市宝山区潘广路2218号"},{"poiid":"B2094752D46AA2F8489C","title":"中国农业银行宝山顾村支行","lon":"121.397605","lat":"31.36348","category":"150","category_name":"银行","address":"上海市宝山区电台路500号"},{"poiid":"B2094757D568A4FB449B","title":"麦考林水产路店","lon":"121.4152797","lat":"31.35566472","category":"141","category_name":"服装鞋帽皮具店","address":"水产路1234号世纪联华超市"},{"poiid":"B2094757D16CA6F4499E","title":"水产西路","lon":"121.413461679","lat":"31.3553571776","category":"260","category_name":"其他","address":"上海宝山区"},{"poiid":"B2094757D16EA4F44992","title":"爱建顾园","lon":"121.38712827997","lat":"31.357637965065","category":"500","category_name":"未知分类","address":"上海菊盛路50弄"},{"poiid":"B2094757D164A2FB4292","title":"合兴镇","lon":"121.415562279","lat":"31.3559278884","category":"500","category_name":"未知分类","address":"上海市崇明县合兴镇"},{"poiid":"B2094654D469AAFF499D","title":"上海航空特种车辆有限责任公司","lon":"121.40549","lat":"31.36382","category":"263","category_name":"公司","address":"富联路758号"},{"poiid":"B2094654D469AAFF4992","title":"上海隆成日用制品有限公司","lon":"121.40762","lat":"31.36303","category":"263","category_name":"公司","address":""}]