[{"poiid":"B2094655D26FA1FD459E","title":"源深体育中心","lon":"121.53706","lat":"31.2334","category":"224","category_name":"综合体育馆","address":"浦东新区张杨路1458号"},{"poiid":"B2094757D06FA3F84798","title":"浦东假日酒店","lon":"121.536","lat":"31.2292","category":"214","category_name":"四星级宾馆","address":"浦东新区东方路899号(近向城路)"},{"poiid":"B2094757D06FA2FA4193","title":"源深体育馆","lon":"121.536191683","lat":"31.2310137082","category":"220","category_name":"运动场所","address":"上海浦东源深路200号"},{"poiid":"B2094757D06FA3FB429D","title":"浦东游泳馆(源深馆)","lon":"121.53847","lat":"31.23198","category":"231","category_name":"游泳馆","address":"浦东新区张杨路1458号源深体育中心内(近源深路)"},{"poiid":"B2094757D06FA1F5459F","title":"中建大厦","lon":"121.54","lat":"31.2295","category":"46","category_name":"楼宇","address":"上海市浦东新区世纪大道1568号"},{"poiid":"B2094757D06FA6FE419D","title":"柚子林炭火烧肉(潍坊路店)","lon":"121.53636","lat":"31.22868","category":"269","category_name":"烧烤","address":"上海浦东新区潍坊路328号嘉瑞酒店1楼(近源深路)  "},{"poiid":"B2094757D06FABF44193","title":"长泰国际金融大厦","lon":"121.542","lat":"31.231","category":"46","category_name":"楼宇","address":"上海市浦东新区世纪大道1589号"},{"poiid":"B2094655D26AA0FB459F","title":"源深体育场","lon":"121.53635","lat":"31.2306","category":"247","category_name":"餐饮美食","address":"浦东新区深源路655号"},{"poiid":"B2094757D06FA6FA469D","title":"重庆老火锅","lon":"121.54202","lat":"31.23087","category":"86","category_name":"火锅店","address":"浦东新区羽山路288号(近桃林路)"},{"poiid":"B2094757D068A4F9469E","title":"汉唐酒店","lon":"121.539241","lat":"31.23287","category":"72","category_name":"广东菜","address":"浦东新区桃林路777号(近张杨路)"},{"poiid":"B2094757D06FA5F8489D","title":"源深篮球公园","lon":"121.536632157","lat":"31.2295100303","category":"220","category_name":"运动场所","address":"浦东新区羽山路9号浦东源深体育中心6号门(潍坊路羽山路)"},{"poiid":"B2094757D06FABFE439A","title":"宏嘉大厦","lon":"121.537","lat":"31.2307","category":"46","category_name":"楼宇","address":"上海浦东新区福山路388号"},{"poiid":"B2094757D165AAF54892","title":"陆家嘴基金大厦","lon":"121.539","lat":"31.2302","category":"46","category_name":"楼宇","address":"上海竹林路101號"},{"poiid":"B2094757D06FA0FB439F","title":"宝钢大厦","lon":"121.538","lat":"31.2278","category":"46","category_name":"楼宇","address":"朝阳区北三环东路与京顺路交接处路口北侧"},{"poiid":"B2094757D068A6FE429D","title":"枣子树 源深店","lon":"121.534981","lat":"31.23073","category":"89","category_name":"中式素餐馆","address":"浦东新区张杨路1458号源深体育中心北区3楼(近源深路)"},{"poiid":"B2094757D068A5F8469D","title":"大马可意大利餐厅(羽山店)","lon":"121.54301","lat":"31.23189","category":"94","category_name":"西餐厅","address":"浦东新区羽山路350号(近桃林路)"},{"poiid":"B2094757D06FABFF4799","title":"老碗 源深店","lon":"121.537022054","lat":"31.229380793","category":"84","category_name":"西北菜","address":"浦东新区羽山路68号(近源深路)"},{"poiid":"B2094654DA6AA2FD4292","title":"东方国际科技大厦","lon":"121.537","lat":"31.2299","category":"46","category_name":"楼宇","address":"浦东新区向城路58号"},{"poiid":"B2094757D068A1FB479A","title":"陆家嘴花园","lon":"121.540586699","lat":"31.2326953785","category":"47","category_name":"住宅区","address":"上海浦东新区桃林路815弄"},{"poiid":"B2094757D06FA6FD449B","title":"盛世年华花园","lon":"121.5390333","lat":"31.229134892","category":"47","category_name":"住宅区","address":"上海市浦东新区羽山路100弄"},{"poiid":"B2094654DA69ABF5489A","title":"陆家嘴钻石大厦","lon":"121.543","lat":"31.2305","category":"46","category_name":"楼宇","address":"中央商务区CBD22号"},{"poiid":"B2094655D26EA7FA4293","title":"苏先生海鲜渔庄 源深店","lon":"121.53480097364","lat":"31.232918552506","category":"260","category_name":"其他","address":"浦东新区源深路655号体育中心内(近张杨路)"},{"poiid":"B2094757D06FAAF94899","title":"同盛大厦","lon":"121.538","lat":"31.2292","category":"46","category_name":"楼宇","address":"黄浦区南京东路311号"},{"poiid":"B2094654DA6AA3FB469F","title":"中达广场","lon":"121.536","lat":"31.2275","category":"46","category_name":"楼宇","address":"沈河北站路与北京街的交汇处"},{"poiid":"B2094757D06FA2F9499F","title":"源深体育中心羽毛球场","lon":"121.538296989","lat":"31.2324749785","category":"220","category_name":"运动场所","address":"浦东新区张杨路1458号源深体育中心内(近源深路)"},{"poiid":"B2094654DA6AA3F5479A","title":"钱江大厦","lon":"121.537","lat":"31.2286","category":"46","category_name":"楼宇","address":"浦东新区东方路971号"},{"poiid":"B2094751D465A3F4489B","title":"镰仓pasta","lon":"121.538772","lat":"31.229763","category":"247","category_name":"餐饮美食","address":"浦东新区东方路796号96广场9号门2楼212单元(近世纪大道)"},{"poiid":"B2094757D069A1F84599","title":"全华信息大厦","lon":"121.538","lat":"31.2304","category":"46","category_name":"楼宇","address":"黄陂区楚天大道与盘龙三路交汇处"},{"poiid":"B2094654DB64A6FB449B","title":"莫泰268(上海羽山路店)","lon":"121.53953","lat":"31.23068","category":"250","category_name":"公园户外","address":"上海市浦东新区羽山路166号(近桃林路)"},{"poiid":"B2094655D26FA2F9439C","title":"新加坡泰国村鱼翅 浦东店","lon":"121.53573989868","lat":"31.228344021284","category":"72","category_name":"广东菜","address":"浦东新区潍坊路328号嘉瑞酒店内(近源深路)"},{"poiid":"B2094757D064AAFE4599","title":"易公馆","lon":"121.536671","lat":"31.228654","category":"72","category_name":"广东菜","address":"浦东新区源深路789号2楼(近羽山路)"},{"poiid":"B2094757D06AA3FF4998","title":"东方希望大厦","lon":"121.54448413658","lat":"31.229635061024","category":"46","category_name":"楼宇","address":"世纪大道1777号"},{"poiid":"B2094757D06FABF5459A","title":"新天国际大厦","lon":"121.538","lat":"31.2301","category":"46","category_name":"楼宇","address":"上海市长宁区遵义南路88号"},{"poiid":"B2094757D06BA6FC429B","title":"佳思多食品料理店(羽山路店)","lon":"121.53914","lat":"31.22978","category":"91","category_name":"台湾菜","address":"浦东新区羽山路146号(近源深路)"},{"poiid":"B2094757D06FA5FB4192","title":"感智盲人保健会所(源深路店)","lon":"121.53671","lat":"31.22726","category":"149","category_name":"洗浴推拿场所","address":"浦东新区源深路836弄香榭丽舍花园18号中心会所楼底(近松林路)"},{"poiid":"B2094757D069A5FC439C","title":"陆家嘴花园二期(峰会)","lon":"121.54248869","lat":"31.230623372","category":"47","category_name":"住宅区","address":"陆家嘴花园二期(峰会)位于浦东桃林路815弄"},{"poiid":"B2094757D068A4FA489C","title":"鼎杰保龄球馆","lon":"121.53581","lat":"31.23152","category":"228","category_name":"保龄球馆","address":"浦东新区张杨路1458号源深体育馆3号门1楼(近源深路)"},{"poiid":"B2094655D265A4FB4299","title":"远东国际大厦","lon":"121.539","lat":"31.2297","category":"46","category_name":"楼宇","address":"丰台学城海鹰路1号,3号"},{"poiid":"B2094654DA6AA3F4459F","title":"一百杉杉大厦","lon":"121.536","lat":"31.2279","category":"46","category_name":"楼宇","address":"浦东临港新城主城区申港大道200号"},{"poiid":"B2094654DA69A1FB469F","title":"由由燕乔大厦","lon":"121.541","lat":"31.2287","category":"46","category_name":"楼宇","address":"静安区长寿路(万航渡路口)"},{"poiid":"B2094757D068A1F44199","title":"阿英煲(灵山路店)","lon":"121.53893","lat":"31.22548","category":"260","category_name":"其他","address":"上海浦东新区灵山路28号(近桃林路)  "},{"poiid":"B2094757D06FAAFA489B","title":"星之健身(源深体育馆店)","lon":"121.53567","lat":"31.22904","category":"148","category_name":"美容美发店","address":"浦东新区张杨路1458号源深体育中心内(近源深路)"},{"poiid":"B2094655D26BAAFD4493","title":"阿英煲","lon":"121.54076","lat":"31.22727","category":"257","category_name":"中餐厅","address":""},{"poiid":"B2094654DB64ABF9479B","title":"源深游泳馆","lon":"121.53855","lat":"31.23223","category":"231","category_name":"游泳馆","address":"桃林路892"},{"poiid":"B2094753D064A2FB479D","title":"福山外国语小学(花园校区)","lon":"121.54091","lat":"31.22947","category":"56","category_name":"小学","address":"浦东新区桃林路1055号(桃林路张杨路)"},{"poiid":"B2094757D16CA5FF489F","title":"豆香园","lon":"121.540669682","lat":"31.2269513783","category":"196","category_name":"公园","address":"浦东新区灵山路412号(桃林路口)"},{"poiid":"B2094757D069A2FF419B","title":"上海市工商行政管理局浦东新区分局","lon":"121.544212738","lat":"31.2269792308","category":"250","category_name":"公园户外","address":"上海浦东新区杨高中路2900号(近桃林路)"},{"poiid":"B2094654DA69A3F8489E","title":"浦东网球中心","lon":"121.53911","lat":"31.23113","category":"226","category_name":"网球场","address":"浦东新区羽山路9号"},{"poiid":"B2094654DA69A3F8499D","title":"必胜宅急送","lon":"121.53885","lat":"31.22999","category":"94","category_name":"西餐厅","address":"浦东新区羽山路132-134号(近源深体育中心)"},{"poiid":"B2094654DB64A4FA429E","title":"新概念酒店连锁","lon":"121.53939","lat":"31.23031","category":"216","category_name":"经济型连锁酒店","address":"浦东新区羽山路386号"},{"poiid":"B2094654DA69A3F8499F","title":"真锅咖啡馆源深体育店","lon":"121.5392","lat":"31.23008","category":"260","category_name":"其他","address":"浦东新区羽山路158号(近桃林路)"},{"poiid":"B2094655D26AA5F94199","title":"唯尚咖啡 羽山路店","lon":"121.54041626996","lat":"31.231321622837","category":"260","category_name":"其他","address":"浦东新区羽山路252号(桃林路口)"},{"poiid":"B2094654DB65ABFE439C","title":"驿居酒店连锁·上海羽山路店","lon":"121.53966","lat":"31.23073","category":"216","category_name":"经济型连锁酒店","address":"浦东新区羽山路166号"},{"poiid":"B2094757DB6DA5F8439E","title":"上海鄂尔多斯艾力酒店","lon":"121.539521813","lat":"31.233371411","category":"216","category_name":"经济型连锁酒店","address":"桃林路777号(靠近张杨路路口)"},{"poiid":"B2094654DA69A3F8499C","title":"上海美时美分美发有限公司","lon":"121.53892","lat":"31.23001","category":"148","category_name":"美容美发店","address":"浦东新区羽山路136号"},{"poiid":"B2094757D065A7FC4098","title":"桃林路灵山路","lon":"121.541329","lat":"31.228913","category":"500","category_name":"未知分类","address":"上海桃林路灵山路"},{"poiid":"B2094655D36DA0F54299","title":"羽山路源深路","lon":"121.53722","lat":"31.22952","category":"38","category_name":"公交车站","address":""},{"poiid":"B2094757D569A2FE459F","title":"茶识地","lon":"121.53570584","lat":"31.23188911","category":"66","category_name":"茶艺馆","address":"浦东新区张杨路1458号源深体育中心1楼(近源深路)"},{"poiid":"B2094654DB64A4FA469D","title":"馨月汇","lon":"121.54143","lat":"31.2271","category":"47","category_name":"住宅区","address":"上海桃林路1160号"},{"poiid":"B2094757D069A4F8429B","title":"徐家私房菜(羽山路店)","lon":"121.54265","lat":"31.23162","category":"74","category_name":"江苏菜","address":"浦东新区羽山路342号"},{"poiid":"B2094757DA68A1F5489D","title":"浦南幼儿园（陆家嘴分部）","lon":"121.53942892619","lat":"31.231126849804","category":"57","category_name":"幼儿园","address":"灵山路609号"},{"poiid":"B2094757D16CAAF8459B","title":"Da Marco Pudong","lon":"121.542728","lat":"31.23196","category":"500","category_name":"未知分类","address":"上海浦东羽山路350号"},{"poiid":"B2094654DB6BABF54692","title":"全家羽山路店","lon":"121.53754","lat":"31.22913","category":"117","category_name":"便民商店/便利店","address":"羽山路70-80"},{"poiid":"B2094757D16EA1F8439A","title":"忆江南","lon":"121.536568687","lat":"31.2285083906","category":"72","category_name":"广东菜","address":"浦东新区羽山路2号(源深体育馆对面)"},{"poiid":"B2094757D165A7FF4193","title":"品盛养生","lon":"121.541132238","lat":"31.2273275382","category":"148","category_name":"美容美发店","address":"浦东新区灵山路420号(近桃林路)"},{"poiid":"B2094654DB64ABFB469C","title":"御园古道茶馆","lon":"121.54264","lat":"31.23212","category":"260","category_name":"其他","address":"浦东新区羽山路348号(近源深路)"},{"poiid":"B2094757D164A2FA449D","title":"胡姬港湾幼儿园","lon":"121.53995873","lat":"31.227462241","category":"57","category_name":"幼儿园","address":"浦东新区羽山路100弄(源深体育中心对面)"},{"poiid":"B2094655D26FABF84292","title":"唯尚咖啡蛋糕烘焙专卖店","lon":"121.54104","lat":"31.23134","category":"112","category_name":"糕饼店","address":""},{"poiid":"B2094757D168A4FE489F","title":"福山羽毛球馆","lon":"121.54214","lat":"31.22844","category":"220","category_name":"运动场所","address":"上海浦东新区桃林路1055号福山外国语小学内(近灵山路)  "},{"poiid":"B2094654DA69A3F94298","title":"源深乒羽中心","lon":"121.53752","lat":"31.23028","category":"220","category_name":"运动场所","address":"浦东新区张杨路1458号源深体育中心内(近源深路)"},{"poiid":"B2094654DA69A3F94099","title":"招商银行上海源深支行","lon":"121.53828","lat":"31.22961","category":"150","category_name":"银行","address":"羽山路108"},{"poiid":"B2094655D268A7FB469B","title":"浦东新区源深体育发展中心(六-一号门)","lon":"121.53743","lat":"31.22979","category":"224","category_name":"综合体育馆","address":""},{"poiid":"B2094757D66EABF4459F","title":"638路(灵山路源深路)","lon":"121.54109973","lat":"31.228864271","category":"500","category_name":"未知分类","address":"上海灵山路源深路口"},{"poiid":"B2094757D169A2F4459D","title":"桃林幼儿园","lon":"121.53993143","lat":"31.231301022","category":"57","category_name":"幼儿园","address":"浦东新区桃林路815弄38号101-103室(桃林路羽山路)"},{"poiid":"B2094757D16BA2F4439C","title":"永琪美容美发羽山店","lon":"121.538967","lat":"31.230007","category":"500","category_name":"未知分类","address":"上海羽山路328号"},{"poiid":"B2094654DA69A3F8449B","title":"快客联华便利No.006423","lon":"121.54213","lat":"31.22802","category":"117","category_name":"便民商店/便利店","address":"灵山路576"},{"poiid":"B2094654DB6BABF5469E","title":"桃林一小区","lon":"121.54308","lat":"31.228199","category":"47","category_name":"住宅区","address":"灵山路600弄1-44号"},{"poiid":"B2094757D16AA1FC4793","title":"中国民族证券(羽山路)","lon":"121.541318538","lat":"31.2320796395","category":"46","category_name":"楼宇","address":"上海浦东羽山路362号"},{"poiid":"B2094654DA69A3F9429B","title":"浦东张德英乒乓中心","lon":"121.53752","lat":"31.23028","category":"225","category_name":"乒乓球馆","address":"羽山路9"},{"poiid":"B2094654DB64A6FB449F","title":"源深加州酒店","lon":"121.53654","lat":"31.23061","category":"250","category_name":"公园户外","address":"源深路655号"},{"poiid":"B2094757D66DABF4489F","title":"大东家餐馆","lon":"121.54481824933","lat":"31.233318119277","category":"76","category_name":"上海菜","address":"浦东新区羽山路358号(近民生路)"},{"poiid":"B2094654DB65A0FC4893","title":"光明便利店","lon":"121.54271","lat":"31.2284","category":"117","category_name":"便民商店/便利店","address":"浦东新区峨山路191-193号(近东方路)"},{"poiid":"B2094655D268A4FA459A","title":"源深体育发展中心(五号门)","lon":"121.53918","lat":"31.23208","category":"224","category_name":"综合体育馆","address":""},{"poiid":"B2094655D269AAFA419A","title":"SPR咖啡源深路店","lon":"121.53635","lat":"31.2306","category":"247","category_name":"餐饮美食","address":"浦东新区源深路655号浦东体育公园内源深加州酒店1楼"},{"poiid":"B2094655D264ABFE429A","title":"CareBay","lon":"121.54189","lat":"31.22711","category":"257","category_name":"中餐厅","address":"桃林路1160"},{"poiid":"B2094757D06FA0FF439E","title":"源深SMP滑板公园","lon":"121.5351809","lat":"31.2304439","category":"196","category_name":"公园","address":"浦东新区源深路655号源深体育中心4号门(近张扬路)"},{"poiid":"B2094757D16DA7F54298","title":"易茶生活","lon":"121.53620823","lat":"31.229561985","category":"66","category_name":"茶艺馆","address":"上海源深路789号"},{"poiid":"B2094655D268A3F4449A","title":"瑞斯玛丽西餐厅","lon":"121.53536","lat":"31.22835","category":"94","category_name":"西餐厅","address":"浦东新区潍坊路328号嘉瑞酒店1楼(近源深路)"},{"poiid":"B2094757D16AA7FB4393","title":"巨龙武术搏击俱乐部(源深店)","lon":"121.53765","lat":"31.22993","category":"500","category_name":"未知分类","address":"上海浦东新区羽山路源深体育6号门  "},{"poiid":"B2094655D36DA0F54298","title":"羽山路桃林路","lon":"121.54221","lat":"31.23201","category":"38","category_name":"公交车站","address":""},{"poiid":"B2094655D265A2F5469A","title":"DAMARCO","lon":"121.54273","lat":"31.23196","category":"94","category_name":"西餐厅","address":"羽山路350"},{"poiid":"B2094655D26FAAFB4693","title":"豆香园(东门)","lon":"121.5416","lat":"31.22792","category":"680","category_name":"楼宇机构","address":""},{"poiid":"B2094654DA69A3F94199","title":"新新美容城","lon":"121.5369","lat":"31.22899","category":"148","category_name":"美容美发店","address":"羽山路18"},{"poiid":"B2094757D16AA0FC4793","title":"桃林路","lon":"121.53951073","lat":"31.233128361","category":"500","category_name":"未知分类","address":"上海张杨路1647弄"},{"poiid":"B2094655D26EA0F84692","title":"城市超市(滨江店)","lon":"121.54353","lat":"31.22918","category":"118","category_name":"超级市场","address":"浦东新区陆家嘴花园石桥路33号"},{"poiid":"B2094750D665A7FB409C","title":"永和新概念","lon":"121.542","lat":"31.2319","category":"68","category_name":"快餐厅","address":"浦东新区羽山路600弄(近陆家嘴花园二期)"},{"poiid":"B2094757D165A3F8439D","title":"源深体育场 乐培儿童创意中心","lon":"121.54063673","lat":"31.231816333","category":"500","category_name":"未知分类","address":"上海市浦东新区张杨路"},{"poiid":"B2094655D268A2FB439B","title":"天鑫大楼","lon":"121.53787","lat":"31.22639","category":"46","category_name":"楼宇","address":"灵山路1号"},{"poiid":"B2094757D064A1FE469C","title":"思明堂","lon":"121.5377979","lat":"31.228290725","category":"500","category_name":"未知分类","address":"上海灵山路566号"},{"poiid":"B2094757D168A4F5439E","title":"奥园盲人保健按摩院(羽山路店)","lon":"121.53683","lat":"31.22874","category":"149","category_name":"洗浴推拿场所","address":"浦东新区羽山路28号(近源深路)"},{"poiid":"B2094750D66CABF54293","title":"visible cafe","lon":"121.539001","lat":"31.233734","category":"260","category_name":"其他","address":"浦东新区张杨路1500弄17号(近桃林路)"},{"poiid":"B2094655D36CA1F94398","title":"灵山路源深路","lon":"121.53808","lat":"31.22611","category":"38","category_name":"公交车站","address":""},{"poiid":"B2094757D16BA4F8459C","title":"775路浦东体育公园站","lon":"121.538332","lat":"31.23251","category":"38","category_name":"公交车站","address":"上海市浦东新区羽山路近源深路东"},{"poiid":"B2094757D16DA2FB489F","title":"竞天台球俱乐部(源深体育中心店)","lon":"121.53621","lat":"31.23113","category":"171","category_name":"台球厅","address":"浦东新区源深路655号东区5楼(近源深体育中心)"},{"poiid":"B2094757D66FA0FC4793","title":"中国银行 羽山路支行","lon":"121.536991538","lat":"31.2293173806","category":"150","category_name":"银行","address":"浦东新区羽山路86-96号(潍坊路羽山路)"},{"poiid":"B2094750DB6DA4FE479D","title":"世博中国馆","lon":"121.5427211216048","lat":"31.23276028942062","category":"250","category_name":"公园户外","address":null},{"poiid":"B2094757D465ABFD419B","title":"甜心皇后咖啡 Sweet Queen","lon":"121.536355054","lat":"31.231988793","category":"247","category_name":"餐饮美食","address":"源深路655号源深加州酒店1楼近张杨路"},{"poiid":"B2094655D36CA2FE409B","title":"证大宽城","lon":"121.53857","lat":"31.23373","category":"46","category_name":"楼宇","address":"桃林路777号"},{"poiid":"B2094751DA68ABFA489C","title":"云鼎臻品海鲜","lon":"121.53635","lat":"31.2285","category":"260","category_name":"其他","address":"浦东新区羽山路2号(源深体育馆对面)"},{"poiid":"B2094757D16FA3F5439E","title":"桃林小区","lon":"121.54473","lat":"31.230835","category":"47","category_name":"住宅区","address":"上海市浦东新区民生路818弄"},{"poiid":"B2094655D264A4F54499","title":"德加置地大厦","lon":"121.536","lat":"31.2322","category":"46","category_name":"楼宇","address":"世纪大道1118号"},{"poiid":"B2094655D264A2FA409D","title":"恒升名邸","lon":"121.5389","lat":"31.23316","category":"47","category_name":"住宅区","address":"上海市浦东新区桃林路777弄"},{"poiid":"B2094654DB65A0FC489F","title":"源深体育发展中心(7号门)","lon":"121.53591","lat":"31.22962","category":"224","category_name":"综合体育馆","address":""},{"poiid":"B2094757D568A5F8459D","title":"浦东民防办公楼","lon":"121.5427219","lat":"31.22594417","category":"46","category_name":"楼宇","address":"合欢路25号"},{"poiid":"B2094750D364A7FB449D","title":"闺蜜美甲沙龙","lon":"121.53905964226","lat":"31.233700325857","category":"148","category_name":"美容美发店","address":"张杨路1500弄25号(桃林路口鄂尔多斯艾力大厦后面商业街)"},{"poiid":"B2094757D66DA1F94693","title":"娇点花园餐厅","lon":"121.53928093","lat":"31.226657223","category":"500","category_name":"未知分类","address":"上海灵山路420号"},{"poiid":"B2094655D265A7F8439E","title":"普罗旺斯的树 L'Arbre de Provence","lon":"121.536603054","lat":"31.231831793","category":"94","category_name":"西餐厅","address":"张杨路1458号源深体育中心3楼近桃林路"},{"poiid":"B2094752D264AAFA4899","title":"浦东国际机场一号航站楼12登机口","lon":"121.53724","lat":"31.227357","category":"500","category_name":"未知分类","address":null},{"poiid":"B2094757D064A1FB4899","title":"林一小区","lon":"121.543081","lat":"31.228198","category":"252","category_name":"楼宇机构","address":"上海灵山路600弄"},{"poiid":"B209475CD76CA2F5459B","title":"Home Thai","lon":"121.538772","lat":"31.226177","category":"500","category_name":"未知分类","address":"上海市 淮海路300号K11购物艺术中心401号铺"},{"poiid":"B2094750D66DA7FE459D","title":"陆家嘴中心绿地","lon":"121.541099","lat":"31.233142","category":"250","category_name":"公园户外","address":null},{"poiid":"B2094654DA69A3F9409F","title":"盛世年华(北门)","lon":"121.53791","lat":"31.22941","category":"656","category_name":"大门","address":"羽山路100弄1-36号"},{"poiid":"B2094654DA69A3F8489B","title":"盛世年华(南门)","lon":"121.5395","lat":"31.22752","category":"656","category_name":"大门","address":"灵山路"},{"poiid":"B2094753DB6BA7FC489D","title":"金茂大厦","lon":"121.543998","lat":"31.227897","category":"252","category_name":"楼宇机构","address":"上海市 陆家嘴环路888号"},{"poiid":"B2094757D16DA7FD4999","title":"潍坊路源深路","lon":"121.536801","lat":"31.227884","category":"500","category_name":"未知分类","address":"上海潍坊路源深路"},{"poiid":"B2094757D16CA2FA4193","title":"浦东新区人民法院诉调中心","lon":"121.541317","lat":"31.225105","category":"500","category_name":"未知分类","address":"上海杨源路218号"},{"poiid":"B2094751D469A3FA499F","title":"香格里拉酒店","lon":"121.53627","lat":"31.231628","category":"500","category_name":"未知分类","address":null},{"poiid":"B2094655D269ABF5469A","title":"村夫烤鱼潍坊路店","lon":"121.53517","lat":"31.22874","category":"68","category_name":"快餐厅","address":"浦东新区潍坊路383号(近桃林路)"},{"poiid":"B2094655D26BA2F94698","title":"桃林路杨源路","lon":"121.54259","lat":"31.22551","category":"38","category_name":"公交车站","address":""},{"poiid":"B2094654DB65A0FC499B","title":"上海市工商行政管理局浦东新区分局检查支队","lon":"121.54298","lat":"31.22669","category":"250","category_name":"公园户外","address":""},{"poiid":"B2094757D16BA5F54593","title":"小心's 小窝","lon":"121.54366573","lat":"31.228752268","category":"500","category_name":"未知分类","address":null},{"poiid":"B2094757D569A6FA449D","title":"好家庭健身器材连锁","lon":"121.53671061","lat":"31.23158447","category":"140","category_name":"体育用品店","address":"中国上海市浦东新区"},{"poiid":"B2094654DB65A0FD479B","title":"上海市台球培训中心","lon":"121.5367","lat":"31.23132","category":"190","category_name":"培训机构","address":"浦东新区源深体育发展中心5层(202-205)"},{"poiid":"B2094654DA69A3F9429E","title":"陆家嘴花园(西门)","lon":"121.5398","lat":"31.23161","category":"656","category_name":"大门","address":"洋泾"},{"poiid":"B2094757D16DABF44792","title":"浦东新区重大工程项目办公室","lon":"121.54305928","lat":"31.227172734","category":"500","category_name":"未知分类","address":"上海杨高中路2980号"},{"poiid":"B2094654DA69A3F94193","title":"浦东体育公园(1号门)","lon":"121.5353","lat":"31.23085","category":"224","category_name":"综合体育馆","address":"源深路655"},{"poiid":"B2094655D268A3F4439E","title":"金博尚品","lon":"121.54019","lat":"31.233955","category":"47","category_name":"住宅区","address":"浦东张杨路1578号(近桃林路)"},{"poiid":"B2094655D268A3F4439F","title":"金博尚品(北门)","lon":"121.53961","lat":"31.2343","category":"47","category_name":"住宅区","address":"张杨路1518号"},{"poiid":"B2094654DA69A3F8449C","title":"陆家嘴花园(南门)","lon":"121.54354","lat":"31.22918","category":"656","category_name":"大门","address":"桃林路815弄1-39号"},{"poiid":"B2094757D064A4FF429F","title":"3TOP","lon":"121.536271388","lat":"31.2308955643","category":"500","category_name":"未知分类","address":"上海新乐路47号"},{"poiid":"B2094654DA69A3F8439E","title":"新天家园(西门)","lon":"121.54235","lat":"31.2282","category":"656","category_name":"大门","address":"桃林路1141弄1-8号"},{"poiid":"B2094757D16FA1F9469B","title":"Bus No.181","lon":"121.54066403","lat":"31.232987658","category":"500","category_name":"未知分类","address":"上海181路公车"},{"poiid":"B2094655D268A2FB439A","title":"中国工商银行(源深路)","lon":"121.53761","lat":"31.22637","category":"150","category_name":"银行","address":""},{"poiid":"B2094654DB65A0FD439B","title":"羽毛球馆","lon":"121.53751","lat":"31.23269","category":"227","category_name":"羽毛球场","address":""},{"poiid":"B2094750DA6DA1FC4193","title":"康骏养生","lon":"121.535629","lat":"31.228717","category":"248","category_name":"生活娱乐","address":"潍坊路328号嘉瑞酒店2楼(近源深路)"},{"poiid":"B2094654DB69A7F84398","title":"天翔公寓","lon":"121.539","lat":"31.23381","category":"47","category_name":"住宅区","address":"闵行区中原路10弄"},{"poiid":"B2094654DA69A3F8469F","title":"进才培训中心","lon":"121.54444","lat":"31.22895","category":"190","category_name":"培训机构","address":"灵山路638"},{"poiid":"B2094654DA69A3F84999","title":"陆家嘴花园(北门)","lon":"121.54206","lat":"31.23171","category":"656","category_name":"大门","address":"羽山路308弄1-50号"},{"poiid":"B2094654DB65A4F9439D","title":"桃林一小区(南门)","lon":"121.54293","lat":"31.2285","category":"656","category_name":"大门","address":"灵山路600弄1-44号"},{"poiid":"B2094750D56EA1FD4399","title":"阿斯顿马丁上海","lon":"121.541526","lat":"31.225078","category":"263","category_name":"公司","address":"杨源路278号"},{"poiid":"B2094654DA69ABF5409F","title":"中国工商银行竹园新村支行","lon":"121.53524","lat":"31.22877","category":"150","category_name":"银行","address":"潍坊路389号"},{"poiid":"B2094655D26EABFB439D","title":"交通银行上海民生路支行(羽山路)","lon":"121.54325","lat":"31.23267","category":"150","category_name":"银行","address":"羽山路373"},{"poiid":"B2094654DB65A6FE4292","title":"上海华夏会计师事务所","lon":"121.5438","lat":"31.227","category":"252","category_name":"楼宇机构","address":"桃林路600弄桃林一小区41号101室"},{"poiid":"B2094751D66CA5FD4598","title":"上海市浦东广播电视台","lon":"121.5435329","lat":"31.2262264","category":"252","category_name":"楼宇机构","address":"上海市浦东新区丁香路716号A座"},{"poiid":"B2094757D66DA7FF499F","title":"伦伦餐厅","lon":"121.53606773","lat":"31.231915336","category":"500","category_name":"未知分类","address":"上海市浦东新区源深路665号源深体育中心内"},{"poiid":"B2094757D06AA6F94698","title":"张杨路金博尚品","lon":"121.539416738","lat":"31.2338023762","category":"500","category_name":"未知分类","address":"上海张杨路1518号"},{"poiid":"B2094757D06BA7FD499A","title":"I love sth","lon":"121.54166693","lat":"31.23397908","category":"500","category_name":"未知分类","address":"上海长乐路248号"},{"poiid":"B2094757D66EA4FF419A","title":"可丽可心","lon":"121.54084873","lat":"31.233975379","category":"500","category_name":"未知分类","address":"上海市浦东新区张杨路1518号"},{"poiid":"B2094655D264A5FB4593","title":"地铁6号线控制中心","lon":"121.54352","lat":"31.23247","category":"251","category_name":"出行住宿","address":"羽山路398号"},{"poiid":"B2094757DA69A2FE429F","title":"阿斯顿中国官方","lon":"121.54223537813","lat":"31.225195837673","category":"639","category_name":"汽车交通类公司","address":"杨源路266号"},{"poiid":"B2094655D26DAAF84598","title":"香榭丽花园(东门)","lon":"121.53649","lat":"31.2275","category":"656","category_name":"大门","address":"源深路836"},{"poiid":"B2094654DA69A3F8449E","title":"新天家园(南门)","lon":"121.54312","lat":"31.22681","category":"656","category_name":"大门","address":"桃林路1141弄"},{"poiid":"B2094655D26DA7F8499A","title":"桃林一小区(东门)","lon":"121.54406","lat":"31.22787","category":"656","category_name":"大门","address":""},{"poiid":"B2094654DB65A4F94293","title":"桃林一小区(南门)","lon":"121.54379","lat":"31.227","category":"656","category_name":"大门","address":"桃林路600弄"},{"poiid":"B2094655D26DA1FF4092","title":"源竹小区(东一门)","lon":"121.53533","lat":"31.22986","category":"656","category_name":"大门","address":""}]