[{"poiid":"B2094757D568A5F8419C","title":"宝钢能源部办公楼","lon":"121.42751","lat":"31.43354","category":"46","category_name":"楼宇","address":"中国上海市宝山区"},{"poiid":"B2094654D468ABFC4498","title":"宝钢码头","lon":"121.43454","lat":"31.45449","category":"34","category_name":"港口码头","address":""},{"poiid":"B2094757D065A3F8499B","title":"宝钢电炉食堂","lon":"121.423689279","lat":"31.4357829957","category":"247","category_name":"餐饮美食","address":"上海宝山区富锦路"},{"poiid":"B2094655D36CA1FC4593","title":"盛桥","lon":"121.41213","lat":"31.43463","category":"38","category_name":"公交车站","address":""},{"poiid":"B2094750D564A3FD4999","title":"宝华盛世花园","lon":"121.413984","lat":"31.451447","category":"47","category_name":"住宅区","address":"宝山区蕰川公路与月川路路口"},{"poiid":"B2094757D16CA5FF479E","title":"能环部能源中心","lon":"121.435973346","lat":"31.4298625839","category":"500","category_name":"未知分类","address":"上海宝钢股份纬一路"},{"poiid":"B2094757D16DABF94893","title":"宝钢自备电厂","lon":"121.446931779","lat":"31.4404581141","category":"500","category_name":"未知分类","address":"上海经四路纬五路"},{"poiid":"B2094757D169A7FB4798","title":"中冶尚园","lon":"121.421515","lat":"31.428762","category":"47","category_name":"住宅区","address":"上海市宝山区申浦路288弄"},{"poiid":"B2094750D56AAAFA439E","title":"中冶祥腾宝月花园","lon":"121.427756","lat":"31.426112","category":"47","category_name":"住宅区","address":"上海市宝山区月浦镇月塘路268弄"},{"poiid":"B2094757D66FA2FD4292","title":"宝钢制造管理部","lon":"121.43745097","lat":"31.428014648","category":"500","category_name":"未知分类","address":"上海宝钢纬一路"},{"poiid":"B2094757D169A3FF4893","title":"宝钢大院 一高炉食堂","lon":"121.443623679","lat":"31.4311096074","category":"500","category_name":"未知分类","address":"上海经四路 纬三路口"},{"poiid":"B2094757D065ABFA459A","title":"月浦九村","lon":"121.43","lat":"31.4229","category":"252","category_name":"楼宇机构","address":"上海宝山区月浦镇德都路四元路"},{"poiid":"B2094654D468ABFD4092","title":"海豹集团","lon":"121.41378","lat":"31.43142","category":"263","category_name":"公司","address":"蕰川路5001"},{"poiid":"B2094757D06AA5FD4993","title":"冷轧厂涂镀分厂","lon":"121.44782767","lat":"31.43338765","category":"263","category_name":"公司","address":"上海市宝山区经四路"}]