[{"poiid":"B2094654DB65A6FA4293","title":"上海市浦东新区公利医院","lon":"121.5468","lat":"31.24182","category":"162","category_name":"医院","address":"浦东新区苗圃路219号(定水路苗圃路)"},{"poiid":"B2094757D06FA5FD449D","title":"北洋泾路地铁站","lon":"121.55226618","lat":"31.239124386","category":"36","category_name":"地铁站","address":"上海轨道交通 六号线 轨交北洋泾路站 6"},{"poiid":"B2094757D06FA4F5419E","title":"浦东人才交流中心","lon":"121.55255","lat":"31.23843","category":"500","category_name":"未知分类","address":"浦东新区张杨路1996号(近巨野路)"},{"poiid":"B2094757D069A6FF499B","title":"苗圃路张扬路","lon":"121.550906","lat":"31.237402","category":"500","category_name":"未知分类","address":"上海苗圃路张扬路"},{"poiid":"B2094757D06AA1FF419E","title":"中星海上景庭","lon":"121.54897","lat":"31.238739","category":"47","category_name":"住宅区","address":"上海市浦东新区杨高中路1708弄"},{"poiid":"B2094757D069A2FC409C","title":"维多利华庭","lon":"121.54835","lat":"31.243132","category":"47","category_name":"住宅区","address":"上海市浦东新区苗圃路218弄"},{"poiid":"B2094654DA68AAFE479E","title":"快客(弘扬沁园南)","lon":"121.55043","lat":"31.23877","category":"117","category_name":"便民商店/便利店","address":"张杨路2049"},{"poiid":"B2094757D16FA3FE489F","title":"张杨路巨野路","lon":"121.54704473","lat":"31.236199427","category":"500","category_name":"未知分类","address":"上海市民生路"},{"poiid":"B2094757D06BA2FF479A","title":"上海汽车进出口有限公司","lon":"121.552408","lat":"31.239503","category":"263","category_name":"公司","address":"张杨路2119号上汽国贸大楼A18室"},{"poiid":"B2094757D06BA0FF489D","title":"中新公寓","lon":"121.55328","lat":"31.238466","category":"47","category_name":"住宅区","address":"上海市普陀区宁夏路335号"},{"poiid":"B2094655D26AA0FA4399","title":"地铁北洋泾路站","lon":"121.55226","lat":"31.23912","category":"36","category_name":"地铁站","address":""},{"poiid":"B2094654DA68AAFE419B","title":"心中家园","lon":"121.54819","lat":"31.240488","category":"47","category_name":"住宅区","address":"苗圃路303弄"},{"poiid":"B2094654DA68AAFE4793","title":"名角女士护肤美体养生馆","lon":"121.55089","lat":"31.23891","category":"148","category_name":"美容美发店","address":"张杨路2063"},{"poiid":"B2094655D36DA7FE409A","title":"张杨路苗圃路","lon":"121.55137","lat":"31.23888","category":"38","category_name":"公交车站","address":""},{"poiid":"B2094757D16EA5FC479A","title":"155苗圃路张扬路","lon":"121.55049973","lat":"31.239283493","category":"38","category_name":"公交车站","address":"上海苗圃路张扬路"},{"poiid":"B2094655D36CA0FC4192","title":"巨野路","lon":"121.54901","lat":"31.23762","category":"38","category_name":"公交车站","address":""},{"poiid":"B2094654DA69A2FB4299","title":"新城名园","lon":"121.55157","lat":"31.238045","category":"47","category_name":"住宅区","address":"上海市浦东新区苗圃路438弄"},{"poiid":"B2094757D16EA7F94798","title":"机灵鬼宠物美容中心","lon":"121.550443168","lat":"31.2383713436","category":"500","category_name":"未知分类","address":"浦东新区张杨路(近苗圃路)"},{"poiid":"B2094654DA68AAFE4892","title":"上汽国贸大楼","lon":"121.55197","lat":"31.23941","category":"46","category_name":"楼宇","address":"张杨路2119"},{"poiid":"B2094655D264A7FD439A","title":"原舍","lon":"121.55145","lat":"31.2384","category":"47","category_name":"住宅区","address":"上海市长宁区延安西路1235弄"},{"poiid":"B2094654DA69A2FA4992","title":"机灵鬼宠物诊疗中心","lon":"121.54985","lat":"31.23764","category":"162","category_name":"医院","address":""},{"poiid":"B2094757D064A5FE4398","title":"新城名庭","lon":"121.5528405","lat":"31.237446338","category":"47","category_name":"住宅区","address":"上海市浦东新区羽山路851号"},{"poiid":"B2094752D66BA1FD4999","title":"世纪大道地铁站","lon":"121.548349","lat":"31.234841","category":"36","category_name":"地铁站","address":"东方路世纪大道"},{"poiid":"B2094654DA69A2FA489B","title":"乔家栅 巨野店","lon":"121.548596054","lat":"31.237229793","category":"68","category_name":"快餐厅","address":"浦东新区巨野路469号(张杨路口)"},{"poiid":"B2094654DA69A2FB429F","title":"金囡幼儿园","lon":"121.55158","lat":"31.23708","category":"57","category_name":"幼儿园","address":"浦东新区苗圃路470号(近羽山路)"},{"poiid":"B2094654DA68AAFE489B","title":"自然美琦晶店(张杨路)","lon":"121.55113","lat":"31.23904","category":"148","category_name":"美容美发店","address":"张杨路2075"},{"poiid":"B2094655D264AAFC4993","title":"唯伊美专业女子瘦身","lon":"121.55118","lat":"31.23909","category":"148","category_name":"美容美发店","address":"张杨路2081"},{"poiid":"B2094655D26BABFB429F","title":"张杨南苑","lon":"121.55281","lat":"31.237694","category":"47","category_name":"住宅区","address":"上海市浦东新区苗圃路466弄(张杨路口)"},{"poiid":"B2094655D264A4FC4992","title":"蟹都汇(张杨路店)","lon":"121.54967","lat":"31.23755","category":"88","category_name":"海鲜酒楼","address":"浦东新区张杨路1902号(近苗圃路)"},{"poiid":"B2094655D36CA3F8439B","title":"薡茶 乳山路店","lon":"121.54793","lat":"31.24209","category":"113","category_name":"冷饮店","address":"浦东新区乳山路209号(近东方路)"},{"poiid":"B2094757D065A7FB489B","title":"羽北小区","lon":"121.54767673","lat":"31.237448453","category":"252","category_name":"楼宇机构","address":"上海市浦东新区巨野路"},{"poiid":"B2094757D068A3FE459C","title":"招商銀行民生支行","lon":"121.54723358","lat":"31.237001419","category":"150","category_name":"银行","address":"上海市浦东新区民生路600号"},{"poiid":"B2094757D569A0FA4798","title":"悦多智能幼儿园(张杨路)","lon":"121.5515161","lat":"31.23833415","category":"57","category_name":"幼儿园","address":"张杨路1960-1962"},{"poiid":"B2094757D064AAFA4299","title":"西安印象 苗圃路店","lon":"121.548066054","lat":"31.242267793","category":"68","category_name":"快餐厅","address":"浦东新区苗圃路248号(近定水路)"},{"poiid":"B2094654DA68AAFE479B","title":"弘扬沁园(西门)","lon":"121.5502","lat":"31.23898","category":"48","category_name":"楼宇大门","address":"苗圃路400弄1-15号"},{"poiid":"B2094757D168A3F94392","title":"双城苑","lon":"121.55000273","lat":"31.238139468","category":"252","category_name":"楼宇机构","address":"上海市浦东新区张杨路1998号(苗圃路口)"},{"poiid":"B2094757D169AAF4429E","title":"上海腾众浦东店","lon":"121.550745638","lat":"31.2391058893","category":"500","category_name":"未知分类","address":"上海张杨路2119号"},{"poiid":"B2094654DA69A2FA4898","title":"龙威名邸","lon":"121.54856","lat":"31.237009","category":"47","category_name":"住宅区","address":"上海市浦东新区巨野路455弄1-2号"},{"poiid":"B2094654DA69A2FA489A","title":"巨东小区","lon":"121.54988","lat":"31.236679","category":"47","category_name":"住宅区","address":"上海巨野路469弄"},{"poiid":"B2094654DA69A2FA479C","title":"上海市浦东新区第二中心小学","lon":"121.55004","lat":"31.23579","category":"56","category_name":"小学","address":"浦东新区巨野路517号(近张杨路)"},{"poiid":"B2094757D065A7FA4293","title":"东方有线浦东分公司","lon":"121.548495","lat":"31.237051","category":"500","category_name":"未知分类","address":"上海张杨路1800号"},{"poiid":"B2094757D66DA4F9469A","title":"香楼","lon":"121.55239273","lat":"31.238342473","category":"247","category_name":"餐饮美食","address":"上海市浦东新区苗圃路472号"},{"poiid":"B2094654DA68AAFE459B","title":"文峰美发美容沈家弄店","lon":"121.54827","lat":"31.24026","category":"148","category_name":"美容美发店","address":"沈家弄路958"},{"poiid":"B2094757D064A7FD4993","title":"Old Trafford","lon":"121.54984373","lat":"31.24008251","category":"500","category_name":"未知分类","address":"Manchester"},{"poiid":"B2094654DA69A2FB4092","title":"上海浦东新区人才市场","lon":"121.55228","lat":"31.2387","category":"252","category_name":"楼宇机构","address":"张杨路1996"},{"poiid":"B2094757D569A2F84398","title":"99旅馆","lon":"121.55322645","lat":"31.23907172","category":"216","category_name":"经济型连锁酒店","address":"张杨路2078"},{"poiid":"B2094654DA69A1FC4693","title":"华阳苑","lon":"121.5545","lat":"31.239582","category":"47","category_name":"住宅区","address":"上海市浦东新区张扬路2100弄"},{"poiid":"B2094757D165A7FF479C","title":"易初莲花","lon":"121.551837738","lat":"31.2341403834","category":"249","category_name":"购物服务","address":"上海市浦东新区杨高中路"},{"poiid":"B2094654DA68AAFE429D","title":"苗圃快客餐馆","lon":"121.54888","lat":"31.24087","category":"257","category_name":"中餐厅","address":"浦东新区苗圃路280号"},{"poiid":"B2094757D168A7FA429E","title":"EF英孚教育青少儿英语(金桥枣庄路中心)","lon":"121.552439738","lat":"31.2383134724","category":"190","category_name":"培训机构","address":"上海浦东博山东路560弄12号(近枣庄路)"},{"poiid":"B2094757D16EA6FD4093","title":"吉的堡少儿英语学校(北洋泾校)","lon":"121.549156724","lat":"31.2409303528","category":"253","category_name":"校园生活","address":"浦东新区博山路252号好又多超市2楼(近崮山路)"},{"poiid":"B2094757D16AA6FF4498","title":"太阳岛","lon":"121.551687738","lat":"31.2375564562","category":"500","category_name":"未知分类","address":"上海沈太路"},{"poiid":"B2094654DA69A2FB409C","title":"上海市人才发展服务中心浦东中心","lon":"121.55229","lat":"31.2387","category":"252","category_name":"楼宇机构","address":"张杨路1996"},{"poiid":"B2094654DA69A2FB409F","title":"中原地产洋泾分行","lon":"121.55171","lat":"31.23844","category":"248","category_name":"生活娱乐","address":"张杨路1972"},{"poiid":"B2094655D36DA0F54193","title":"羽山路苗圃路","lon":"121.55119","lat":"31.2354","category":"38","category_name":"公交车站","address":""},{"poiid":"B2094654DB6BABF4479D","title":"添盛居","lon":"121.54727","lat":"31.23744","category":"66","category_name":"茶艺馆","address":"浦东新区张杨路1731号(近巨野路)"},{"poiid":"B2094757D16FA6F8459C","title":"一品粥坊","lon":"121.54344","lat":"31.23776","category":"72","category_name":"广东菜","address":"浦东新区民生路(近沈家弄路)"},{"poiid":"B2094654DA68AAFE479A","title":"中星海上景庭(东门)","lon":"121.54967","lat":"31.23931","category":"656","category_name":"大门","address":""},{"poiid":"B2094654DA68AAFD489C","title":"好德No.070","lon":"121.54861","lat":"31.24143","category":"117","category_name":"便民商店/便利店","address":"苗圃路266号"},{"poiid":"B2094655D269A4F8499D","title":"上海腾众汽车销售服务有限公司","lon":"121.55218","lat":"31.23952","category":"158","category_name":"汽车销售","address":"浦东新区张杨路2119号(近地铁6号线北洋径路站)"},{"poiid":"B2094757D16DAAFB4899","title":"洋泾派出所","lon":"121.546332","lat":"31.240066","category":"609","category_name":"警察局","address":"上海浦东新区巨野路261号"},{"poiid":"B2094757D069ABFA439D","title":"泾南公园","lon":"121.55389","lat":"31.23549","category":"196","category_name":"公园","address":"浦东新区羽山路850号(南洋泾路羽山路)"},{"poiid":"B2094654DA69A1FC469F","title":"光明便利No.451","lon":"121.55393","lat":"31.23898","category":"117","category_name":"便民商店/便利店","address":"南洋泾路283"},{"poiid":"B2094654DA69A2FB419E","title":"东方爱婴早期教育中心","lon":"121.55256","lat":"31.23881","category":"190","category_name":"培训机构","address":"张杨路2058号2层202室"},{"poiid":"B2094655D36CA0FC419B","title":"巨野路羽山路","lon":"121.54896","lat":"31.23563","category":"38","category_name":"公交车站","address":""},{"poiid":"B2094655D265ABFC4192","title":"金博尚品苑","lon":"121.548","lat":"31.2414","category":"47","category_name":"住宅区","address":"上海市浦东新区张杨路1528弄"},{"poiid":"B2094655D265AAFE4398","title":"哈林食记","lon":"121.54785","lat":"31.24219","category":"257","category_name":"中餐厅","address":"浦东新区苗圃路232号(苗圃路羽山路)"},{"poiid":"B2094655D26FAAFB4593","title":"新城名园(东门)","lon":"121.55195","lat":"31.23833","category":"48","category_name":"楼宇大门","address":""},{"poiid":"B2094655D268A0F4449F","title":"龙威名邸(北门)","lon":"121.54936","lat":"31.23741","category":"48","category_name":"楼宇大门","address":"巨野路455弄"},{"poiid":"B2094655D268A0FF469F","title":"张扬南苑(东门)","lon":"121.55384","lat":"31.23816","category":"47","category_name":"住宅区","address":""},{"poiid":"B2094757D568A6FD419C","title":"上海弘毅医疗(浦东旗舰店)","lon":"121.5540427","lat":"31.23900336","category":"162","category_name":"医院","address":"中国上海市浦东新区南洋泾"},{"poiid":"B2094655D26EAAFB479E","title":"克莉丝汀No.333","lon":"121.54811","lat":"31.24193","category":"112","category_name":"糕饼店","address":"苗圃路254"},{"poiid":"B2094654DA69A1FC479B","title":"南洋苑","lon":"121.55491","lat":"31.238665","category":"47","category_name":"住宅区","address":"上海市浦东新区南洋泾路287弄(近张杨路口)"},{"poiid":"B2094757D16AA4FF4299","title":"博山路苗圃路站","lon":"121.549408","lat":"31.240861","category":"500","category_name":"未知分类","address":"上海沈家弄路苗圃路口"},{"poiid":"B2094753D76EAAF54598","title":"巫山烤全鱼","lon":"121.548011","lat":"31.241807","category":"247","category_name":"餐饮美食","address":"上海市 苗圃路228号"},{"poiid":"B2094654DA68AAFD439D","title":"巨杨小区","lon":"121.54649","lat":"31.238092","category":"47","category_name":"住宅区","address":"沈家弄路901弄1-33号"},{"poiid":"B2094655D26DA7F4419A","title":"申立苑","lon":"121.555","lat":"31.2371","category":"47","category_name":"住宅区","address":"上海市浦东新区灵山路(民生路)729弄1-7号"},{"poiid":"B2094757D569A3F54493","title":"千彩眼镜张扬路店","lon":"121.5528808","lat":"31.23898806","category":"132","category_name":"眼镜店","address":"浦东新区张杨路2068号(近南洋泾路)"},{"poiid":"B2094757D165A2F5469D","title":"Nuonuo Bakery","lon":"121.55002973","lat":"31.235213406","category":"112","category_name":"糕饼店","address":"浦东新区羽山路670号(近巨野路)"},{"poiid":"B2094655D265A7FA409C","title":"洋泾文化广场","lon":"121.55347","lat":"31.24135","category":"202","category_name":"公园广场","address":""},{"poiid":"B2094757D064ABFB439E","title":"东方幼儿园(梅园部)","lon":"121.54574473","lat":"31.238932485","category":"57","category_name":"幼儿园","address":"上海浦东新区商城路1028弄36号"},{"poiid":"B2094753D56DA7F94999","title":"世纪公园一号门","lon":"121.547012","lat":"31.238613","category":"500","category_name":"未知分类","address":"上海市 锦绣路民生蛤"},{"poiid":"B2094757D064A7F94393","title":"中石油加油站","lon":"121.54704013","lat":"31.242306957","category":"154","category_name":"加油加气站","address":"上海苗圃路151号"},{"poiid":"B2094654DA68AAFD419C","title":"张杨路邮政储蓄","lon":"121.54761","lat":"31.23755","category":"150","category_name":"银行","address":"张杨路1735"},{"poiid":"B2094757D065A1FA479B","title":"爱婴室(羽山店)","lon":"121.55364683","lat":"31.238201295","category":"500","category_name":"未知分类","address":"浦东新区南洋泾路393号(近羽山路)"},{"poiid":"B2094654DA68AAFD4293","title":"巨西小区","lon":"121.54596","lat":"31.239244","category":"47","category_name":"住宅区","address":"沈家弄路900弄1-22号"},{"poiid":"B2094654DB6BAAFC459B","title":"双城苑·东苑(西门)","lon":"121.55234","lat":"31.2382","category":"48","category_name":"楼宇大门","address":""},{"poiid":"B2094757D16DAAF94693","title":"沈家弄路","lon":"121.54621967","lat":"31.2393177008","category":"500","category_name":"未知分类","address":"上海沈家弄路900弄"},{"poiid":"B2094655D26DA5FC439C","title":"快客No.5131","lon":"121.54638","lat":"31.23711","category":"117","category_name":"便民商店/便利店","address":""},{"poiid":"B2094757D16DAAFA479A","title":"华氏大药房(巨野店)","lon":"121.54631","lat":"31.23999","category":"162","category_name":"医院","address":"浦东新区巨野路249号(巨野路沈家弄路)"},{"poiid":"B2094757D66CA3F84793","title":"上海卓力雪佛兰","lon":"121.54716973","lat":"31.237080446","category":"500","category_name":"未知分类","address":"上海市浦东新区民生路"},{"poiid":"B2094757D165A0FF449C","title":"金楊夜排檔","lon":"121.54633073","lat":"31.237600457","category":"247","category_name":"餐饮美食","address":"上海金楊路小肥羊對面"},{"poiid":"B2094757D66EA2FC4493","title":"海音琴行(张扬店)","lon":"121.54937","lat":"31.237","category":"260","category_name":"其他","address":"上海浦东新区张杨路1826号(近巨野路)  "},{"poiid":"B2094757D16AA2FD469F","title":"爱乐游正大生活馆","lon":"121.55046673","lat":"31.233765375","category":"500","category_name":"未知分类","address":"上海市浦东新区张杨路"},{"poiid":"B2094757D568A0FB439C","title":"泾南一街坊","lon":"121.5461956","lat":"31.23672833","category":"47","category_name":"住宅区","address":"泾南一街坊位于浦东张杨路1698弄"},{"poiid":"B2094655D26DAAF5419F","title":"泾西绿地","lon":"121.54531","lat":"31.23845","category":"196","category_name":"公园","address":""},{"poiid":"B2094757D16EA1FA439B","title":"民生路羽山路","lon":"121.548331","lat":"31.234406","category":"500","category_name":"未知分类","address":"上海民生路羽山路"},{"poiid":"B2094654DB64A5F84999","title":"上海市浦东新区社会主义学院","lon":"121.54595","lat":"31.24062","category":"52","category_name":"高等院校","address":"巨野路219"},{"poiid":"B2094757D065A0F44193","title":"京东商城(张杨路自提点)","lon":"121.547287881","lat":"31.2373095586","category":"249","category_name":"购物服务","address":"浦东新区张杨路1721号乙室(近东方路)"},{"poiid":"B2094654DA69A2F5499C","title":"永琪美容美发(羽山路)","lon":"121.55506","lat":"31.23663","category":"148","category_name":"美容美发店","address":"羽山路952"},{"poiid":"B2094655D265AAF5479B","title":"海宝汽修","lon":"121.54768","lat":"31.23679","category":"159","category_name":"汽车维修","address":"张杨路1740"},{"poiid":"B2094654DA69A2FB469D","title":"羽山饮食店","lon":"121.54983","lat":"31.23466","category":"68","category_name":"快餐厅","address":"浦东新区羽山路780号"},{"poiid":"B2094757D16BA3FE4192","title":"卓妍专业水疗(浦东店)","lon":"121.54584","lat":"31.24062","category":"148","category_name":"美容美发店","address":"浦东新区巨野路65号商铺"},{"poiid":"B2094654DA69A2FA489C","title":"车居佳汽车快修固特异授权旗舰店","lon":"121.54769","lat":"31.2368","category":"159","category_name":"汽车维修","address":"羽山路1738-1740号"},{"poiid":"B2094654DA69A2FB429C","title":"巨东小区(东门)","lon":"121.55102","lat":"31.23705","category":"656","category_name":"大门","address":"苗圃路463弄1-15号"},{"poiid":"B2094655D26FABFF449B","title":"上海市浦东新区社会主义学院(西门)","lon":"121.54576","lat":"31.24087","category":"52","category_name":"高等院校","address":"巨野路219"},{"poiid":"B2094654DA68AAFD4492","title":"联华(巨野路)","lon":"121.54591","lat":"31.2407","category":"118","category_name":"超级市场","address":"巨野路237"},{"poiid":"B2094757D169A0FA429C","title":"豫云面馆","lon":"121.54721268","lat":"31.242842218","category":"68","category_name":"快餐厅","address":"浦东新区苗圃路166号(沈家弄路栖山路间)"},{"poiid":"B2094654DA68AAFC4892","title":"中星张杨苑","lon":"121.54574","lat":"31.23703","category":"47","category_name":"住宅区","address":"沈家弄路877弄"},{"poiid":"B2094654DA69A2FB4498","title":"羽山综合市场","lon":"121.55075","lat":"31.23497","category":"123","category_name":"家具建材市场","address":"浦东新区羽山路780号(南洋泾路羽山路)"},{"poiid":"B2094757D169A0FB4399","title":"永琪美容美发(苗圃店)","lon":"121.54807","lat":"31.24198","category":"148","category_name":"美容美发店","address":"上海浦东新区苗圃路224号  "},{"poiid":"B2094655D36DA2F94992","title":"洋泾港桥","lon":"121.555","lat":"31.24015","category":"250","category_name":"公园户外","address":""},{"poiid":"B2094757D569A7FE4198","title":"大桶大足浴(巨野路)","lon":"121.54959825","lat":"31.23412679","category":"149","category_name":"洗浴推拿场所","address":"巨野路640"},{"poiid":"B2094752D668A5FD419A","title":"上海海洋水族馆","lon":"121.546154","lat":"31.236673","category":"249","category_name":"购物服务","address":null},{"poiid":"B2094654DA68AAFC439E","title":"克丽缇娜No.28142","lon":"121.54737","lat":"31.2427","category":"148","category_name":"美容美发店","address":"苗圃路198"},{"poiid":"B2094654DA68AAFD499E","title":"海光大楼","lon":"121.55099","lat":"31.243246","category":"47","category_name":"住宅区","address":"北洋泾路601号"},{"poiid":"B2094654DA69A1FC459A","title":"艾玛·贝尼瑜伽美容女子会所","lon":"121.55519","lat":"31.23716","category":"148","category_name":"美容美发店","address":"羽山路963-965"},{"poiid":"B2094757D064A5F8409B","title":"康帝保健会所","lon":"121.5466813","lat":"31.2370274","category":"148","category_name":"美容美发店","address":"张杨路浦东南路上海湾202商铺"},{"poiid":"B2094654DA68AAFE4599","title":"心中家园(南门)","lon":"121.54794","lat":"31.24009","category":"656","category_name":"大门","address":"沈家弄路952"},{"poiid":"B2094757D66CA0F94499","title":"塞上江南(苗圃路店)","lon":"121.5469","lat":"31.24141","category":"500","category_name":"未知分类","address":"上海浦东新区苗圃路192号(公利医院对面)  "},{"poiid":"B2094753D26EA3FB459F","title":"新白鹿","lon":"121.547653","lat":"31.235489","category":"249","category_name":"购物服务","address":"上海市 南京东路东方商厦9楼"},{"poiid":"B2094654DA68AAFD429B","title":"中星海上景庭(西门)","lon":"121.54734","lat":"31.23861","category":"656","category_name":"大门","address":"巨野路371"},{"poiid":"B2094654DB6BAAFC499D","title":"南洋苑(北门)","lon":"121.55429","lat":"31.23895","category":"48","category_name":"楼宇大门","address":"南洋泾路287弄1-27号"},{"poiid":"B2094750DA6BA5F9409D","title":"明悦大酒店","lon":"121.547103","lat":"31.240564","category":"251","category_name":"出行住宿","address":"崮山路500号"},{"poiid":"B2094654DA68AAFD409D","title":"上海百姓家庭装潢公司(张杨路)","lon":"121.5465","lat":"31.23714","category":"263","category_name":"公司","address":"张杨路1719"},{"poiid":"B2094654DA68AAFE429B","title":"西镇小区(西门)","lon":"121.54867","lat":"31.24121","category":"656","category_name":"大门","address":"苗圃路266"},{"poiid":"B2094654DA69A1FC479A","title":"华阳苑(南门)","lon":"121.55432","lat":"31.23913","category":"48","category_name":"楼宇大门","address":"张杨路2100弄1-8号"},{"poiid":"B2094757D66CA0FC429F","title":"源生盲人推拿","lon":"121.55510597","lat":"31.24004429","category":"148","category_name":"美容美发店","address":"浦东新区张杨路2350号(近崮山路)"},{"poiid":"B2094757D568A6FC4992","title":"奇知教育","lon":"121.55466498","lat":"31.23738553","category":"190","category_name":"培训机构","address":"南洋泾路373"},{"poiid":"B2094654DA69A1FC4692","title":"张杨棋牌室","lon":"121.55413","lat":"31.23904","category":"175","category_name":"棋牌室","address":"张杨路2100弄8"},{"poiid":"B2094757D064A3F4479C","title":"美时美分","lon":"121.55426","lat":"31.23615","category":"149","category_name":"洗浴推拿场所","address":"上海浦东新区羽山路招商银行旁(近桃林路)"},{"poiid":"B2094654DA68AAFE419A","title":"心中家园(东门)","lon":"121.54846","lat":"31.24094","category":"656","category_name":"大门","address":"苗圃路303弄"},{"poiid":"B2094757D66CA4FA429A","title":"上海天丰和益汽车服务有限公司","lon":"121.55457353","lat":"31.237006909","category":"500","category_name":"未知分类","address":"上海市羽山路986-988号"},{"poiid":"B2094654DA68AAFD4999","title":"小荧星艺校浦东校","lon":"121.54961","lat":"31.24293","category":"253","category_name":"校园生活","address":"定水路93"},{"poiid":"B2094757D16DA1FA479F","title":"培正逗点亲乐园张扬","lon":"121.552642876","lat":"31.2349517644","category":"500","category_name":"未知分类","address":"上海张杨路苗圃路"},{"poiid":"B2094757D064A4FD419E","title":"浦东新区党校","lon":"121.546053","lat":"31.241228","category":"500","category_name":"未知分类","address":"上海张东路988号"},{"poiid":"B2094654DA68AAFE4592","title":"泾西一村(南门)","lon":"121.54721","lat":"31.23961","category":"656","category_name":"大门","address":""},{"poiid":"B2094655D268A2FB429D","title":"羽北小区(北门)","lon":"121.54718","lat":"31.23666","category":"656","category_name":"大门","address":"张杨路1734弄1-44号"},{"poiid":"B2094654DA68AAFD4598","title":"上海市浦东新区行政学院","lon":"121.54609","lat":"31.24127","category":"253","category_name":"校园生活","address":"巨野路219"},{"poiid":"B2094654DA68AAFC499A","title":"上海大众汽车俱乐部张杨路快修站","lon":"121.54561","lat":"31.23696","category":"159","category_name":"汽车维修","address":""},{"poiid":"B2094654DA69A2FB449E","title":"巨东小区(南门)","lon":"121.55056","lat":"31.2353","category":"656","category_name":"大门","address":"羽山路801弄1-21号"},{"poiid":"B2094757D16BA7FF4992","title":"上海银行洋泾支行","lon":"121.54636173","lat":"31.23588542","category":"150","category_name":"银行","address":"上海沈家弄路1101号"},{"poiid":"B2094654DA68AAFC459B","title":"上海市浦东新区公利医院(东门)","lon":"121.54758","lat":"31.24207","category":"656","category_name":"大门","address":"苗圃路219号"},{"poiid":"B2094757D065ABF94592","title":"可园SPA美疗会所","lon":"121.55001","lat":"31.23365","category":"148","category_name":"美容美发店","address":"浦东新区巨野路646号(近羽山路)"},{"poiid":"B2094654DA68AAFD429C","title":"巨杨小区(北门)(沈家弄路)","lon":"121.54637","lat":"31.23856","category":"656","category_name":"大门","address":"沈家弄路901弄1-33号"},{"poiid":"B2094757D66CA2FE4998","title":"栖山菜市场","lon":"121.54551","lat":"31.24057","category":"249","category_name":"购物服务","address":"上海浦东新区巨野路236号(公利医院对面)  "},{"poiid":"B2094655D26FABFC439F","title":"巨杨小区(南一门)","lon":"121.54697","lat":"31.23756","category":"656","category_name":"大门","address":""},{"poiid":"B2094654DA69A2FA4793","title":"羽北小区(东门)","lon":"121.54862","lat":"31.23585","category":"656","category_name":"大门","address":"巨野路482弄1-36号"},{"poiid":"B2094655D269A4F94099","title":"上海卓力汽车销售服务有限公司","lon":"121.546","lat":"31.23644","category":"158","category_name":"汽车销售","address":"浦东新区张杨路1736号"},{"poiid":"B2094750D26EAAF4409D","title":"可园美容SPA会所","lon":"121.54972","lat":"31.234124","category":"149","category_name":"洗浴推拿场所","address":"浦东新区巨野路646号"},{"poiid":"B2094654DA68AAFD4893","title":"维多利华庭(南门)","lon":"121.54945","lat":"31.2424","category":"656","category_name":"大门","address":"苗圃路218弄"},{"poiid":"B2094750DA6CA6FC429F","title":"大桶大","lon":"121.549705","lat":"31.234067","category":"248","category_name":"生活娱乐","address":"张杨路巨野路"},{"poiid":"B2094751D56FA1FC4993","title":"悦芳庭母乳妈妈会所","lon":"121.5522","lat":"31.234528","category":"248","category_name":"生活娱乐","address":"上海市浦东新区巨野路646号"},{"poiid":"B2094654DA69A2F4439D","title":"泾南公园(北门)","lon":"121.55254","lat":"31.23569","category":"656","category_name":"大门","address":"羽山路850"},{"poiid":"B2094654DA68AAFD4292","title":"巨西小区(南门)","lon":"121.54611","lat":"31.23891","category":"656","category_name":"大门","address":"沈家弄路900弄1-22号"},{"poiid":"B2094655D265AAFE469E","title":"森林湾(西门)","lon":"121.55447","lat":"31.23769","category":"656","category_name":"大门","address":""},{"poiid":"B2094655D26DA1F5469D","title":"泾南公园(西门)","lon":"121.55236","lat":"31.23514","category":"656","category_name":"大门","address":""},{"poiid":"B2094654DA68AAFC449A","title":"维多利华庭(西门)","lon":"121.54766","lat":"31.24244","category":"656","category_name":"大门","address":"苗圃路218弄"},{"poiid":"B2094655D26FABFF449A","title":"巨西小区(东门)","lon":"121.54597","lat":"31.24001","category":"656","category_name":"大门","address":""},{"poiid":"B2094654DA68AAFC439F","title":"皇晨棋牌","lon":"121.54739","lat":"31.24268","category":"175","category_name":"棋牌室","address":""},{"poiid":"B2094654DA68AAFD4493","title":"巨野公寓(东门)","lon":"121.54565","lat":"31.24047","category":"656","category_name":"大门","address":"巨野路246弄"},{"poiid":"B2094655D26DA7FF4599","title":"巨杨小区(北门)","lon":"121.5454","lat":"31.23801","category":"656","category_name":"大门","address":"沈家弄路877弄1-30号"},{"poiid":"B2094655D26FABFC4392","title":"中星张杨苑(北门)","lon":"121.54542","lat":"31.238","category":"656","category_name":"大门","address":""}]