[{"poiid":"B2094757DB68A1FF409C","title":"虹桥火车站","lon":"121.337064","lat":"31.179732","category":"500","category_name":"未知分类","address":"虹桥火车站"},{"poiid":"B2094757D068A0FC479E","title":"虹桥机场2号航站楼停车楼","lon":"121.33460044","lat":"31.1880699682","category":"21","category_name":"飞机场","address":"上海虹桥机场T2"},{"poiid":"B2094750D165A0FB419F","title":"虹桥机场停机坪","lon":"121.337791","lat":"31.175035","category":"251","category_name":"出行住宿","address":null},{"poiid":"B2094757D66EA5FB429B","title":"68号登机口","lon":"121.33451843","lat":"31.18950653","category":"500","category_name":"未知分类","address":"上海虹桥T2航站楼"},{"poiid":"B2094654D56AA1FB4792","title":"东航上海客舱部","lon":"121.34949","lat":"31.18423","category":"263","category_name":"公司","address":"上海迎宾三路"},{"poiid":"B2094757D06BA3F8409A","title":"上海虹桥火车站B14检票口","lon":"121.34360506","lat":"31.182844948","category":"22","category_name":"火车站","address":"上海虹桥火车站"},{"poiid":"B2094654D56AA2FE4898","title":"东航培训中心","lon":"121.35004","lat":"31.18468","category":"190","category_name":"培训机构","address":"上海迎宾三路288号"},{"poiid":"B2094757D065A2F4419C","title":"七莘路沪青平公路","lon":"121.3379139","lat":"31.1714665","category":"500","category_name":"未知分类","address":"上海七莘路沪青平公路"},{"poiid":"B2094757D068A5FD429A","title":"云都温泉商务酒店","lon":"121.35065","lat":"31.17989","category":"76","category_name":"上海菜","address":"闵行区沪青平公路266号(近航华新村)"},{"poiid":"B2094752D268A1F4499E","title":"虹桥机场T2航站楼","lon":"121.338149","lat":"31.178736","category":"252","category_name":"楼宇机构","address":null},{"poiid":"B2094757D068A6FE479A","title":"东航飞行部","lon":"121.348789","lat":"31.182803","category":"248","category_name":"生活娱乐","address":"上海迎宾三路"},{"poiid":"B2094654D56AA7FF449E","title":"上海机场(集团)有限公司虹桥国际机场公司运行保障分公司场务科维修组","lon":"121.33873","lat":"31.18225","category":"263","category_name":"公司","address":"农场路88号"},{"poiid":"B2094757D16FA6FA459B","title":"摆渡车","lon":"121.33079302","lat":"31.1802175526","category":"249","category_name":"购物服务","address":"上海虹桥国际机场2号航站楼"},{"poiid":"B2094757D068A2F44693","title":"上海霍克太平洋公務機基地","lon":"121.34658056","lat":"31.186510725","category":"260","category_name":"其他","address":"上海迎宾七路99号"},{"poiid":"B2094757D66CA0F94793","title":"延安路高架","lon":"121.34329856","lat":"31.170310383","category":"500","category_name":"未知分类","address":"上海市闵行区沪青平公路"},{"poiid":"B2094654D56AA7FF4499","title":"中航驾校桩考仪训练场","lon":"121.33927","lat":"31.18158","category":"192","category_name":"驾校","address":""},{"poiid":"B2094654D56AA7FC469B","title":"蓝菱百货商场","lon":"121.33598","lat":"31.17789","category":"119","category_name":"商场","address":""},{"poiid":"B2094654D56AABF94999","title":"上海机场(集团)有限公司虹桥国际机场公司运行保障分公司场务科","lon":"121.34414","lat":"31.18089","category":"263","category_name":"公司","address":"迎宾八路218"},{"poiid":"B2094757D66EA1F44999","title":"東航上海保障部","lon":"121.33572256","lat":"31.1848496903","category":"500","category_name":"未知分类","address":"上海市闵行区虹翔三路"},{"poiid":"B2094750D268A0F8469C","title":"虹橋機場","lon":"121.331047","lat":"31.189332","category":"627","category_name":"一般地点标志","address":"虹橋機場2號航站樓67號登機口"},{"poiid":"B2094752D56CA7FC4399","title":"上海中航泊悅酒店","lon":"121.336502","lat":"31.181427","category":"251","category_name":"出行住宿","address":"上海市申達三路181號"},{"poiid":"B2094757D06AA4FD4092","title":"一戎衣高尔夫练习场","lon":"121.3468395","lat":"31.176074891","category":"500","category_name":"未知分类","address":"上海沪青平"},{"poiid":"B2094654D56AA1F84292","title":"丹丹饭馆","lon":"121.33776","lat":"31.17624","category":"257","category_name":"中餐厅","address":"吴宝路"},{"poiid":"B2094654D56AA2F8479C","title":"新吴西饭店","lon":"121.33396","lat":"31.18118","category":"257","category_name":"中餐厅","address":"吴翟路"},{"poiid":"B2094752DA6BA6F4439B","title":"上海虹桥国际机场","lon":"121.335579","lat":"31.1762172","category":"500","category_name":"未知分类","address":"上海市 上海虹桥国际机场"},{"poiid":"B2094757D66DA7F94092","title":"武定路延平路公交站","lon":"121.34419856","lat":"31.180349595","category":"38","category_name":"公交车站","address":"上海静安区武定路(近延平路)"},{"poiid":"B2094757D068A1F4429A","title":"中国货运航空","lon":"121.34799636","lat":"31.183208163","category":"500","category_name":"未知分类","address":"上海空港六路199号"},{"poiid":"B2094757D06FABF84298","title":"中国东方航空客运营销委员会","lon":"121.34921206","lat":"31.180138081","category":"500","category_name":"未知分类","address":"上海市闵行区沪青平公路248弄3—5号"},{"poiid":"B2094757D464A0F9409D","title":"华港雅阁酒店申汇轩","lon":"121.34858","lat":"31.18637","category":"76","category_name":"上海菜","address":"长宁区空港一路458号虹桥国际机场内酒店附楼(近迎宾三路)"},{"poiid":"B2094757D06AAAFC4192","title":"上海汇胜汽车贸易有限公司","lon":"121.340602","lat":"31.172315","category":"500","category_name":"未知分类","address":"上海沪青平公路(吴宝路)"},{"poiid":"B2094654D56AA1F8429B","title":"开百广场","lon":"121.33879","lat":"31.17514","category":"119","category_name":"商场","address":"吴宝路"},{"poiid":"B2094654D56AA0FC4199","title":"光华住宅小区","lon":"121.33725","lat":"31.17585","category":"47","category_name":"住宅区","address":""},{"poiid":"B2094757D66FA0FF469A","title":"温虹路","lon":"121.34009956","lat":"31.1847116874","category":"500","category_name":"未知分类","address":"上海市闵行区虹翔三路"},{"poiid":"B2094750D365AAF8449F","title":"海底捞火锅","lon":"121.345092","lat":"31.179214","category":"247","category_name":"餐饮美食","address":"吴中路1100号"},{"poiid":"B2094654D56AA2F4489E","title":"新稻花香饭店","lon":"121.33783","lat":"31.17547","category":"257","category_name":"中餐厅","address":"吴宝路1145号"},{"poiid":"B2094757D56CAAFC4192","title":"巧菜馆农家菜","lon":"121.343773054","lat":"31.175326793","category":"76","category_name":"上海菜","address":"青浦区沪青平公路395号(近航西路)"},{"poiid":"B2094655D264A4F94099","title":"鑫港酒店中餐厅","lon":"121.34587","lat":"31.17646","category":"76","category_name":"上海菜","address":"上海近郊青浦沪青平公路395号  "},{"poiid":"B2094655D36CA7FE4598","title":"沪青平公路航新路","lon":"121.34512","lat":"31.17656","category":"38","category_name":"公交车站","address":""},{"poiid":"B2094654DB65A6FF4592","title":"锦江之星(沪青平公路店)","lon":"121.33852","lat":"31.17165","category":"216","category_name":"经济型连锁酒店","address":"上海市闵行区沪青平公路655号(近七莘路)"},{"poiid":"B2094757DA65A5F5469D","title":"如家快捷酒店（上海虹桥机场沪青平路店）","lon":"121.349535584","lat":"31.17942311","category":"216","category_name":"经济型连锁酒店","address":"上海市闵行区沪青平路273号"},{"poiid":"B2094654DB65A6F84598","title":"上海虹桥国际机场","lon":"121.34635","lat":"31.19389","category":"21","category_name":"飞机场","address":"上海长宁区虹桥路2550号,虹桥机场"},{"poiid":"B2094654DB6AA6F8449F","title":"上海东航商务鑫港酒店","lon":"121.34587","lat":"31.17646","category":"214","category_name":"四星级宾馆","address":"闵行区沪青平公路395号"},{"poiid":"B2094757D06FA7FC459D","title":"永达别克七宝店","lon":"121.34296656","lat":"31.169264361","category":"500","category_name":"未知分类","address":"上海闵行区吴宝路800号"},{"poiid":"B2094654D56AA2F8489A","title":"皖豫酒家家常菜","lon":"121.33269","lat":"31.18305","category":"257","category_name":"中餐厅","address":"吴翟路"},{"poiid":"B2094654D56AABF9499F","title":"上海机场(集团)有限公司虹桥国际机场公司运行保障分公司场务科道面","lon":"121.34414","lat":"31.18089","category":"263","category_name":"公司","address":"迎宾八路218"},{"poiid":"B2094654D56AA2F44893","title":"海华苑住宅区","lon":"121.33837","lat":"31.17468","category":"47","category_name":"住宅区","address":"吴宝路"},{"poiid":"B2094654D56AABF94998","title":"上海机场(集团)有限公司虹桥国际机场公司运行保障分公司灯光科","lon":"121.34424","lat":"31.18094","category":"263","category_name":"公司","address":"迎宾八路208"},{"poiid":"B2094757D16AA1F84099","title":"鲜而纯面馆","lon":"121.33469166","lat":"31.1750531837","category":"247","category_name":"餐饮美食","address":"上海虹桥机场T2航站楼"},{"poiid":"B2094757DB69A6F94498","title":"上海虹桥机场T2航站楼59号登机口","lon":"121.336415","lat":"31.189395","category":"500","category_name":"未知分类","address":"上海虹桥机场T2航站楼"},{"poiid":"B2094757D169A1FE4698","title":"上海大众4S店","lon":"121.34431156","lat":"31.175227487","category":"500","category_name":"未知分类","address":"上海市闵行区沪青平公路455号"},{"poiid":"B2094757DB68A1FF409C","title":"虹桥火车站","lon":"121.337064","lat":"31.179732","category":"500","category_name":"未知分类","address":"虹桥火车站"},{"poiid":"B2094757D068A0FC479E","title":"虹桥机场2号航站楼停车楼","lon":"121.33460044","lat":"31.1880699682","category":"21","category_name":"飞机场","address":"上海虹桥机场T2"},{"poiid":"B2094750D165A0FB419F","title":"虹桥机场停机坪","lon":"121.337791","lat":"31.175035","category":"251","category_name":"出行住宿","address":null},{"poiid":"B2094757D66EA5FB429B","title":"68号登机口","lon":"121.33451843","lat":"31.18950653","category":"500","category_name":"未知分类","address":"上海虹桥T2航站楼"},{"poiid":"B2094654D56AA1FB4792","title":"东航上海客舱部","lon":"121.34949","lat":"31.18423","category":"263","category_name":"公司","address":"上海迎宾三路"},{"poiid":"B2094757D06BA3F8409A","title":"上海虹桥火车站B14检票口","lon":"121.34360506","lat":"31.182844948","category":"22","category_name":"火车站","address":"上海虹桥火车站"},{"poiid":"B2094654D56AA2FE4898","title":"东航培训中心","lon":"121.35004","lat":"31.18468","category":"190","category_name":"培训机构","address":"上海迎宾三路288号"},{"poiid":"B2094757D065A2F4419C","title":"七莘路沪青平公路","lon":"121.3379139","lat":"31.1714665","category":"500","category_name":"未知分类","address":"上海七莘路沪青平公路"},{"poiid":"B2094757D068A5FD429A","title":"云都温泉商务酒店","lon":"121.35065","lat":"31.17989","category":"76","category_name":"上海菜","address":"闵行区沪青平公路266号(近航华新村)"},{"poiid":"B2094752D268A1F4499E","title":"虹桥机场T2航站楼","lon":"121.338149","lat":"31.178736","category":"252","category_name":"楼宇机构","address":null},{"poiid":"B2094757D068A6FE479A","title":"东航飞行部","lon":"121.348789","lat":"31.182803","category":"248","category_name":"生活娱乐","address":"上海迎宾三路"},{"poiid":"B2094654D56AA7FF449E","title":"上海机场(集团)有限公司虹桥国际机场公司运行保障分公司场务科维修组","lon":"121.33873","lat":"31.18225","category":"263","category_name":"公司","address":"农场路88号"},{"poiid":"B2094757D16FA6FA459B","title":"摆渡车","lon":"121.33079302","lat":"31.1802175526","category":"249","category_name":"购物服务","address":"上海虹桥国际机场2号航站楼"},{"poiid":"B2094757D068A2F44693","title":"上海霍克太平洋公務機基地","lon":"121.34658056","lat":"31.186510725","category":"260","category_name":"其他","address":"上海迎宾七路99号"},{"poiid":"B2094757D66CA0F94793","title":"延安路高架","lon":"121.34329856","lat":"31.170310383","category":"500","category_name":"未知分类","address":"上海市闵行区沪青平公路"},{"poiid":"B2094654D56AA7FF4499","title":"中航驾校桩考仪训练场","lon":"121.33927","lat":"31.18158","category":"192","category_name":"驾校","address":""},{"poiid":"B2094654D56AA7FC469B","title":"蓝菱百货商场","lon":"121.33598","lat":"31.17789","category":"119","category_name":"商场","address":""},{"poiid":"B2094654D56AABF94999","title":"上海机场(集团)有限公司虹桥国际机场公司运行保障分公司场务科","lon":"121.34414","lat":"31.18089","category":"263","category_name":"公司","address":"迎宾八路218"},{"poiid":"B2094757D66EA1F44999","title":"東航上海保障部","lon":"121.33572256","lat":"31.1848496903","category":"500","category_name":"未知分类","address":"上海市闵行区虹翔三路"},{"poiid":"B2094750D268A0F8469C","title":"虹橋機場","lon":"121.331047","lat":"31.189332","category":"627","category_name":"一般地点标志","address":"虹橋機場2號航站樓67號登機口"},{"poiid":"B2094752D56CA7FC4399","title":"上海中航泊悅酒店","lon":"121.336502","lat":"31.181427","category":"251","category_name":"出行住宿","address":"上海市申達三路181號"},{"poiid":"B2094757D06AA4FD4092","title":"一戎衣高尔夫练习场","lon":"121.3468395","lat":"31.176074891","category":"500","category_name":"未知分类","address":"上海沪青平"},{"poiid":"B2094654D56AA1F84292","title":"丹丹饭馆","lon":"121.33776","lat":"31.17624","category":"257","category_name":"中餐厅","address":"吴宝路"},{"poiid":"B2094654D56AA2F8479C","title":"新吴西饭店","lon":"121.33396","lat":"31.18118","category":"257","category_name":"中餐厅","address":"吴翟路"},{"poiid":"B2094752DA6BA6F4439B","title":"上海虹桥国际机场","lon":"121.335579","lat":"31.1762172","category":"500","category_name":"未知分类","address":"上海市 上海虹桥国际机场"},{"poiid":"B2094757D66DA7F94092","title":"武定路延平路公交站","lon":"121.34419856","lat":"31.180349595","category":"38","category_name":"公交车站","address":"上海静安区武定路(近延平路)"},{"poiid":"B2094757D068A1F4429A","title":"中国货运航空","lon":"121.34799636","lat":"31.183208163","category":"500","category_name":"未知分类","address":"上海空港六路199号"},{"poiid":"B2094757D06FABF84298","title":"中国东方航空客运营销委员会","lon":"121.34921206","lat":"31.180138081","category":"500","category_name":"未知分类","address":"上海市闵行区沪青平公路248弄3—5号"},{"poiid":"B2094757D464A0F9409D","title":"华港雅阁酒店申汇轩","lon":"121.34858","lat":"31.18637","category":"76","category_name":"上海菜","address":"长宁区空港一路458号虹桥国际机场内酒店附楼(近迎宾三路)"},{"poiid":"B2094757D06AAAFC4192","title":"上海汇胜汽车贸易有限公司","lon":"121.340602","lat":"31.172315","category":"500","category_name":"未知分类","address":"上海沪青平公路(吴宝路)"},{"poiid":"B2094654D56AA1F8429B","title":"开百广场","lon":"121.33879","lat":"31.17514","category":"119","category_name":"商场","address":"吴宝路"},{"poiid":"B2094654D56AA0FC4199","title":"光华住宅小区","lon":"121.33725","lat":"31.17585","category":"47","category_name":"住宅区","address":""},{"poiid":"B2094757D66FA0FF469A","title":"温虹路","lon":"121.34009956","lat":"31.1847116874","category":"500","category_name":"未知分类","address":"上海市闵行区虹翔三路"},{"poiid":"B2094750D365AAF8449F","title":"海底捞火锅","lon":"121.345092","lat":"31.179214","category":"247","category_name":"餐饮美食","address":"吴中路1100号"},{"poiid":"B2094654D56AA2F4489E","title":"新稻花香饭店","lon":"121.33783","lat":"31.17547","category":"257","category_name":"中餐厅","address":"吴宝路1145号"},{"poiid":"B2094757D56CAAFC4192","title":"巧菜馆农家菜","lon":"121.343773054","lat":"31.175326793","category":"76","category_name":"上海菜","address":"青浦区沪青平公路395号(近航西路)"},{"poiid":"B2094655D264A4F94099","title":"鑫港酒店中餐厅","lon":"121.34587","lat":"31.17646","category":"76","category_name":"上海菜","address":"上海近郊青浦沪青平公路395号  "},{"poiid":"B2094655D36CA7FE4598","title":"沪青平公路航新路","lon":"121.34512","lat":"31.17656","category":"38","category_name":"公交车站","address":""},{"poiid":"B2094654DB65A6FF4592","title":"锦江之星(沪青平公路店)","lon":"121.33852","lat":"31.17165","category":"216","category_name":"经济型连锁酒店","address":"上海市闵行区沪青平公路655号(近七莘路)"},{"poiid":"B2094757DA65A5F5469D","title":"如家快捷酒店（上海虹桥机场沪青平路店）","lon":"121.349535584","lat":"31.17942311","category":"216","category_name":"经济型连锁酒店","address":"上海市闵行区沪青平路273号"},{"poiid":"B2094654DB65A6F84598","title":"上海虹桥国际机场","lon":"121.34635","lat":"31.19389","category":"21","category_name":"飞机场","address":"上海长宁区虹桥路2550号,虹桥机场"},{"poiid":"B2094654DB6AA6F8449F","title":"上海东航商务鑫港酒店","lon":"121.34587","lat":"31.17646","category":"214","category_name":"四星级宾馆","address":"闵行区沪青平公路395号"},{"poiid":"B2094757D06FA7FC459D","title":"永达别克七宝店","lon":"121.34296656","lat":"31.169264361","category":"500","category_name":"未知分类","address":"上海闵行区吴宝路800号"},{"poiid":"B2094654D56AA2F8489A","title":"皖豫酒家家常菜","lon":"121.33269","lat":"31.18305","category":"257","category_name":"中餐厅","address":"吴翟路"},{"poiid":"B2094654D56AABF9499F","title":"上海机场(集团)有限公司虹桥国际机场公司运行保障分公司场务科道面","lon":"121.34414","lat":"31.18089","category":"263","category_name":"公司","address":"迎宾八路218"},{"poiid":"B2094654D56AA2F44893","title":"海华苑住宅区","lon":"121.33837","lat":"31.17468","category":"47","category_name":"住宅区","address":"吴宝路"},{"poiid":"B2094654D56AABF94998","title":"上海机场(集团)有限公司虹桥国际机场公司运行保障分公司灯光科","lon":"121.34424","lat":"31.18094","category":"263","category_name":"公司","address":"迎宾八路208"},{"poiid":"B2094757D16AA1F84099","title":"鲜而纯面馆","lon":"121.33469166","lat":"31.1750531837","category":"247","category_name":"餐饮美食","address":"上海虹桥机场T2航站楼"},{"poiid":"B2094757DB69A6F94498","title":"上海虹桥机场T2航站楼59号登机口","lon":"121.336415","lat":"31.189395","category":"500","category_name":"未知分类","address":"上海虹桥机场T2航站楼"},{"poiid":"B2094757D169A1FE4698","title":"上海大众4S店","lon":"121.34431156","lat":"31.175227487","category":"500","category_name":"未知分类","address":"上海市闵行区沪青平公路455号"},{"poiid":"B2094757DB68A1FF409C","title":"虹桥火车站","lon":"121.337064","lat":"31.179732","category":"500","category_name":"未知分类","address":"虹桥火车站"},{"poiid":"B2094757D068A0FC479E","title":"虹桥机场2号航站楼停车楼","lon":"121.33460044","lat":"31.1880699682","category":"21","category_name":"飞机场","address":"上海虹桥机场T2"},{"poiid":"B2094750D165A0FB419F","title":"虹桥机场停机坪","lon":"121.337791","lat":"31.175035","category":"251","category_name":"出行住宿","address":null},{"poiid":"B2094757D66EA5FB429B","title":"68号登机口","lon":"121.33451843","lat":"31.18950653","category":"500","category_name":"未知分类","address":"上海虹桥T2航站楼"},{"poiid":"B2094654D56AA1FB4792","title":"东航上海客舱部","lon":"121.34949","lat":"31.18423","category":"263","category_name":"公司","address":"上海迎宾三路"},{"poiid":"B2094757D06BA3F8409A","title":"上海虹桥火车站B14检票口","lon":"121.34360506","lat":"31.182844948","category":"22","category_name":"火车站","address":"上海虹桥火车站"},{"poiid":"B2094654D56AA2FE4898","title":"东航培训中心","lon":"121.35004","lat":"31.18468","category":"190","category_name":"培训机构","address":"上海迎宾三路288号"},{"poiid":"B2094757D065A2F4419C","title":"七莘路沪青平公路","lon":"121.3379139","lat":"31.1714665","category":"500","category_name":"未知分类","address":"上海七莘路沪青平公路"},{"poiid":"B2094757D068A5FD429A","title":"云都温泉商务酒店","lon":"121.35065","lat":"31.17989","category":"76","category_name":"上海菜","address":"闵行区沪青平公路266号(近航华新村)"},{"poiid":"B2094752D268A1F4499E","title":"虹桥机场T2航站楼","lon":"121.338149","lat":"31.178736","category":"252","category_name":"楼宇机构","address":null},{"poiid":"B2094757D068A6FE479A","title":"东航飞行部","lon":"121.348789","lat":"31.182803","category":"248","category_name":"生活娱乐","address":"上海迎宾三路"},{"poiid":"B2094654D56AA7FF449E","title":"上海机场(集团)有限公司虹桥国际机场公司运行保障分公司场务科维修组","lon":"121.33873","lat":"31.18225","category":"263","category_name":"公司","address":"农场路88号"},{"poiid":"B2094757D16FA6FA459B","title":"摆渡车","lon":"121.33079302","lat":"31.1802175526","category":"249","category_name":"购物服务","address":"上海虹桥国际机场2号航站楼"},{"poiid":"B2094757D068A2F44693","title":"上海霍克太平洋公務機基地","lon":"121.34658056","lat":"31.186510725","category":"260","category_name":"其他","address":"上海迎宾七路99号"},{"poiid":"B2094757D66CA0F94793","title":"延安路高架","lon":"121.34329856","lat":"31.170310383","category":"500","category_name":"未知分类","address":"上海市闵行区沪青平公路"},{"poiid":"B2094654D56AA7FF4499","title":"中航驾校桩考仪训练场","lon":"121.33927","lat":"31.18158","category":"192","category_name":"驾校","address":""},{"poiid":"B2094654D56AA7FC469B","title":"蓝菱百货商场","lon":"121.33598","lat":"31.17789","category":"119","category_name":"商场","address":""},{"poiid":"B2094654D56AABF94999","title":"上海机场(集团)有限公司虹桥国际机场公司运行保障分公司场务科","lon":"121.34414","lat":"31.18089","category":"263","category_name":"公司","address":"迎宾八路218"},{"poiid":"B2094757D66EA1F44999","title":"東航上海保障部","lon":"121.33572256","lat":"31.1848496903","category":"500","category_name":"未知分类","address":"上海市闵行区虹翔三路"},{"poiid":"B2094750D268A0F8469C","title":"虹橋機場","lon":"121.331047","lat":"31.189332","category":"627","category_name":"一般地点标志","address":"虹橋機場2號航站樓67號登機口"},{"poiid":"B2094752D56CA7FC4399","title":"上海中航泊悅酒店","lon":"121.336502","lat":"31.181427","category":"251","category_name":"出行住宿","address":"上海市申達三路181號"},{"poiid":"B2094757D06AA4FD4092","title":"一戎衣高尔夫练习场","lon":"121.3468395","lat":"31.176074891","category":"500","category_name":"未知分类","address":"上海沪青平"},{"poiid":"B2094654D56AA1F84292","title":"丹丹饭馆","lon":"121.33776","lat":"31.17624","category":"257","category_name":"中餐厅","address":"吴宝路"},{"poiid":"B2094654D56AA2F8479C","title":"新吴西饭店","lon":"121.33396","lat":"31.18118","category":"257","category_name":"中餐厅","address":"吴翟路"},{"poiid":"B2094752DA6BA6F4439B","title":"上海虹桥国际机场","lon":"121.335579","lat":"31.1762172","category":"500","category_name":"未知分类","address":"上海市 上海虹桥国际机场"},{"poiid":"B2094757D66DA7F94092","title":"武定路延平路公交站","lon":"121.34419856","lat":"31.180349595","category":"38","category_name":"公交车站","address":"上海静安区武定路(近延平路)"},{"poiid":"B2094757D068A1F4429A","title":"中国货运航空","lon":"121.34799636","lat":"31.183208163","category":"500","category_name":"未知分类","address":"上海空港六路199号"},{"poiid":"B2094757D06FABF84298","title":"中国东方航空客运营销委员会","lon":"121.34921206","lat":"31.180138081","category":"500","category_name":"未知分类","address":"上海市闵行区沪青平公路248弄3—5号"},{"poiid":"B2094757D464A0F9409D","title":"华港雅阁酒店申汇轩","lon":"121.34858","lat":"31.18637","category":"76","category_name":"上海菜","address":"长宁区空港一路458号虹桥国际机场内酒店附楼(近迎宾三路)"},{"poiid":"B2094757D06AAAFC4192","title":"上海汇胜汽车贸易有限公司","lon":"121.340602","lat":"31.172315","category":"500","category_name":"未知分类","address":"上海沪青平公路(吴宝路)"},{"poiid":"B2094654D56AA1F8429B","title":"开百广场","lon":"121.33879","lat":"31.17514","category":"119","category_name":"商场","address":"吴宝路"},{"poiid":"B2094654D56AA0FC4199","title":"光华住宅小区","lon":"121.33725","lat":"31.17585","category":"47","category_name":"住宅区","address":""},{"poiid":"B2094757D66FA0FF469A","title":"温虹路","lon":"121.34009956","lat":"31.1847116874","category":"500","category_name":"未知分类","address":"上海市闵行区虹翔三路"},{"poiid":"B2094750D365AAF8449F","title":"海底捞火锅","lon":"121.345092","lat":"31.179214","category":"247","category_name":"餐饮美食","address":"吴中路1100号"},{"poiid":"B2094654D56AA2F4489E","title":"新稻花香饭店","lon":"121.33783","lat":"31.17547","category":"257","category_name":"中餐厅","address":"吴宝路1145号"},{"poiid":"B2094757D56CAAFC4192","title":"巧菜馆农家菜","lon":"121.343773054","lat":"31.175326793","category":"76","category_name":"上海菜","address":"青浦区沪青平公路395号(近航西路)"},{"poiid":"B2094655D264A4F94099","title":"鑫港酒店中餐厅","lon":"121.34587","lat":"31.17646","category":"76","category_name":"上海菜","address":"上海近郊青浦沪青平公路395号  "},{"poiid":"B2094655D36CA7FE4598","title":"沪青平公路航新路","lon":"121.34512","lat":"31.17656","category":"38","category_name":"公交车站","address":""},{"poiid":"B2094654DB65A6FF4592","title":"锦江之星(沪青平公路店)","lon":"121.33852","lat":"31.17165","category":"216","category_name":"经济型连锁酒店","address":"上海市闵行区沪青平公路655号(近七莘路)"},{"poiid":"B2094757DA65A5F5469D","title":"如家快捷酒店（上海虹桥机场沪青平路店）","lon":"121.349535584","lat":"31.17942311","category":"216","category_name":"经济型连锁酒店","address":"上海市闵行区沪青平路273号"},{"poiid":"B2094654DB65A6F84598","title":"上海虹桥国际机场","lon":"121.34635","lat":"31.19389","category":"21","category_name":"飞机场","address":"上海长宁区虹桥路2550号,虹桥机场"},{"poiid":"B2094654DB6AA6F8449F","title":"上海东航商务鑫港酒店","lon":"121.34587","lat":"31.17646","category":"214","category_name":"四星级宾馆","address":"闵行区沪青平公路395号"},{"poiid":"B2094757D06FA7FC459D","title":"永达别克七宝店","lon":"121.34296656","lat":"31.169264361","category":"500","category_name":"未知分类","address":"上海闵行区吴宝路800号"},{"poiid":"B2094654D56AA2F8489A","title":"皖豫酒家家常菜","lon":"121.33269","lat":"31.18305","category":"257","category_name":"中餐厅","address":"吴翟路"},{"poiid":"B2094654D56AABF9499F","title":"上海机场(集团)有限公司虹桥国际机场公司运行保障分公司场务科道面","lon":"121.34414","lat":"31.18089","category":"263","category_name":"公司","address":"迎宾八路218"},{"poiid":"B2094654D56AA2F44893","title":"海华苑住宅区","lon":"121.33837","lat":"31.17468","category":"47","category_name":"住宅区","address":"吴宝路"},{"poiid":"B2094654D56AABF94998","title":"上海机场(集团)有限公司虹桥国际机场公司运行保障分公司灯光科","lon":"121.34424","lat":"31.18094","category":"263","category_name":"公司","address":"迎宾八路208"},{"poiid":"B2094757D16AA1F84099","title":"鲜而纯面馆","lon":"121.33469166","lat":"31.1750531837","category":"247","category_name":"餐饮美食","address":"上海虹桥机场T2航站楼"},{"poiid":"B2094757DB69A6F94498","title":"上海虹桥机场T2航站楼59号登机口","lon":"121.336415","lat":"31.189395","category":"500","category_name":"未知分类","address":"上海虹桥机场T2航站楼"},{"poiid":"B2094757D169A1FE4698","title":"上海大众4S店","lon":"121.34431156","lat":"31.175227487","category":"500","category_name":"未知分类","address":"上海市闵行区沪青平公路455号"},{"poiid":"B2094757DB68A1FF409C","title":"虹桥火车站","lon":"121.337064","lat":"31.179732","category":"500","category_name":"未知分类","address":"虹桥火车站"},{"poiid":"B2094757D068A0FC479E","title":"虹桥机场2号航站楼停车楼","lon":"121.33460044","lat":"31.1880699682","category":"21","category_name":"飞机场","address":"上海虹桥机场T2"},{"poiid":"B2094750D165A0FB419F","title":"虹桥机场停机坪","lon":"121.337791","lat":"31.175035","category":"251","category_name":"出行住宿","address":null},{"poiid":"B2094757D66EA5FB429B","title":"68号登机口","lon":"121.33451843","lat":"31.18950653","category":"500","category_name":"未知分类","address":"上海虹桥T2航站楼"},{"poiid":"B2094654D56AA1FB4792","title":"东航上海客舱部","lon":"121.34949","lat":"31.18423","category":"263","category_name":"公司","address":"上海迎宾三路"},{"poiid":"B2094757D06BA3F8409A","title":"上海虹桥火车站B14检票口","lon":"121.34360506","lat":"31.182844948","category":"22","category_name":"火车站","address":"上海虹桥火车站"},{"poiid":"B2094654D56AA2FE4898","title":"东航培训中心","lon":"121.35004","lat":"31.18468","category":"190","category_name":"培训机构","address":"上海迎宾三路288号"},{"poiid":"B2094757D065A2F4419C","title":"七莘路沪青平公路","lon":"121.3379139","lat":"31.1714665","category":"500","category_name":"未知分类","address":"上海七莘路沪青平公路"},{"poiid":"B2094757D068A5FD429A","title":"云都温泉商务酒店","lon":"121.35065","lat":"31.17989","category":"76","category_name":"上海菜","address":"闵行区沪青平公路266号(近航华新村)"},{"poiid":"B2094752D268A1F4499E","title":"虹桥机场T2航站楼","lon":"121.338149","lat":"31.178736","category":"252","category_name":"楼宇机构","address":null},{"poiid":"B2094757D068A6FE479A","title":"东航飞行部","lon":"121.348789","lat":"31.182803","category":"248","category_name":"生活娱乐","address":"上海迎宾三路"},{"poiid":"B2094654D56AA7FF449E","title":"上海机场(集团)有限公司虹桥国际机场公司运行保障分公司场务科维修组","lon":"121.33873","lat":"31.18225","category":"263","category_name":"公司","address":"农场路88号"},{"poiid":"B2094757D16FA6FA459B","title":"摆渡车","lon":"121.33079302","lat":"31.1802175526","category":"249","category_name":"购物服务","address":"上海虹桥国际机场2号航站楼"},{"poiid":"B2094757D068A2F44693","title":"上海霍克太平洋公務機基地","lon":"121.34658056","lat":"31.186510725","category":"260","category_name":"其他","address":"上海迎宾七路99号"},{"poiid":"B2094757D66CA0F94793","title":"延安路高架","lon":"121.34329856","lat":"31.170310383","category":"500","category_name":"未知分类","address":"上海市闵行区沪青平公路"},{"poiid":"B2094654D56AA7FF4499","title":"中航驾校桩考仪训练场","lon":"121.33927","lat":"31.18158","category":"192","category_name":"驾校","address":""},{"poiid":"B2094654D56AA7FC469B","title":"蓝菱百货商场","lon":"121.33598","lat":"31.17789","category":"119","category_name":"商场","address":""},{"poiid":"B2094654D56AABF94999","title":"上海机场(集团)有限公司虹桥国际机场公司运行保障分公司场务科","lon":"121.34414","lat":"31.18089","category":"263","category_name":"公司","address":"迎宾八路218"},{"poiid":"B2094757D66EA1F44999","title":"東航上海保障部","lon":"121.33572256","lat":"31.1848496903","category":"500","category_name":"未知分类","address":"上海市闵行区虹翔三路"},{"poiid":"B2094750D268A0F8469C","title":"虹橋機場","lon":"121.331047","lat":"31.189332","category":"627","category_name":"一般地点标志","address":"虹橋機場2號航站樓67號登機口"},{"poiid":"B2094752D56CA7FC4399","title":"上海中航泊悅酒店","lon":"121.336502","lat":"31.181427","category":"251","category_name":"出行住宿","address":"上海市申達三路181號"},{"poiid":"B2094757D06AA4FD4092","title":"一戎衣高尔夫练习场","lon":"121.3468395","lat":"31.176074891","category":"500","category_name":"未知分类","address":"上海沪青平"},{"poiid":"B2094654D56AA1F84292","title":"丹丹饭馆","lon":"121.33776","lat":"31.17624","category":"257","category_name":"中餐厅","address":"吴宝路"},{"poiid":"B2094654D56AA2F8479C","title":"新吴西饭店","lon":"121.33396","lat":"31.18118","category":"257","category_name":"中餐厅","address":"吴翟路"},{"poiid":"B2094752DA6BA6F4439B","title":"上海虹桥国际机场","lon":"121.335579","lat":"31.1762172","category":"500","category_name":"未知分类","address":"上海市 上海虹桥国际机场"},{"poiid":"B2094757D66DA7F94092","title":"武定路延平路公交站","lon":"121.34419856","lat":"31.180349595","category":"38","category_name":"公交车站","address":"上海静安区武定路(近延平路)"},{"poiid":"B2094757D068A1F4429A","title":"中国货运航空","lon":"121.34799636","lat":"31.183208163","category":"500","category_name":"未知分类","address":"上海空港六路199号"},{"poiid":"B2094757D06FABF84298","title":"中国东方航空客运营销委员会","lon":"121.34921206","lat":"31.180138081","category":"500","category_name":"未知分类","address":"上海市闵行区沪青平公路248弄3—5号"},{"poiid":"B2094757D464A0F9409D","title":"华港雅阁酒店申汇轩","lon":"121.34858","lat":"31.18637","category":"76","category_name":"上海菜","address":"长宁区空港一路458号虹桥国际机场内酒店附楼(近迎宾三路)"},{"poiid":"B2094757D06AAAFC4192","title":"上海汇胜汽车贸易有限公司","lon":"121.340602","lat":"31.172315","category":"500","category_name":"未知分类","address":"上海沪青平公路(吴宝路)"},{"poiid":"B2094654D56AA1F8429B","title":"开百广场","lon":"121.33879","lat":"31.17514","category":"119","category_name":"商场","address":"吴宝路"},{"poiid":"B2094654D56AA0FC4199","title":"光华住宅小区","lon":"121.33725","lat":"31.17585","category":"47","category_name":"住宅区","address":""},{"poiid":"B2094757D66FA0FF469A","title":"温虹路","lon":"121.34009956","lat":"31.1847116874","category":"500","category_name":"未知分类","address":"上海市闵行区虹翔三路"},{"poiid":"B2094750D365AAF8449F","title":"海底捞火锅","lon":"121.345092","lat":"31.179214","category":"247","category_name":"餐饮美食","address":"吴中路1100号"},{"poiid":"B2094654D56AA2F4489E","title":"新稻花香饭店","lon":"121.33783","lat":"31.17547","category":"257","category_name":"中餐厅","address":"吴宝路1145号"},{"poiid":"B2094757D56CAAFC4192","title":"巧菜馆农家菜","lon":"121.343773054","lat":"31.175326793","category":"76","category_name":"上海菜","address":"青浦区沪青平公路395号(近航西路)"},{"poiid":"B2094655D264A4F94099","title":"鑫港酒店中餐厅","lon":"121.34587","lat":"31.17646","category":"76","category_name":"上海菜","address":"上海近郊青浦沪青平公路395号  "},{"poiid":"B2094655D36CA7FE4598","title":"沪青平公路航新路","lon":"121.34512","lat":"31.17656","category":"38","category_name":"公交车站","address":""},{"poiid":"B2094654DB65A6FF4592","title":"锦江之星(沪青平公路店)","lon":"121.33852","lat":"31.17165","category":"216","category_name":"经济型连锁酒店","address":"上海市闵行区沪青平公路655号(近七莘路)"},{"poiid":"B2094757DA65A5F5469D","title":"如家快捷酒店（上海虹桥机场沪青平路店）","lon":"121.349535584","lat":"31.17942311","category":"216","category_name":"经济型连锁酒店","address":"上海市闵行区沪青平路273号"},{"poiid":"B2094654DB65A6F84598","title":"上海虹桥国际机场","lon":"121.34635","lat":"31.19389","category":"21","category_name":"飞机场","address":"上海长宁区虹桥路2550号,虹桥机场"},{"poiid":"B2094654DB6AA6F8449F","title":"上海东航商务鑫港酒店","lon":"121.34587","lat":"31.17646","category":"214","category_name":"四星级宾馆","address":"闵行区沪青平公路395号"},{"poiid":"B2094757D06FA7FC459D","title":"永达别克七宝店","lon":"121.34296656","lat":"31.169264361","category":"500","category_name":"未知分类","address":"上海闵行区吴宝路800号"},{"poiid":"B2094654D56AA2F8489A","title":"皖豫酒家家常菜","lon":"121.33269","lat":"31.18305","category":"257","category_name":"中餐厅","address":"吴翟路"},{"poiid":"B2094654D56AABF9499F","title":"上海机场(集团)有限公司虹桥国际机场公司运行保障分公司场务科道面","lon":"121.34414","lat":"31.18089","category":"263","category_name":"公司","address":"迎宾八路218"},{"poiid":"B2094654D56AA2F44893","title":"海华苑住宅区","lon":"121.33837","lat":"31.17468","category":"47","category_name":"住宅区","address":"吴宝路"},{"poiid":"B2094654D56AABF94998","title":"上海机场(集团)有限公司虹桥国际机场公司运行保障分公司灯光科","lon":"121.34424","lat":"31.18094","category":"263","category_name":"公司","address":"迎宾八路208"},{"poiid":"B2094757D16AA1F84099","title":"鲜而纯面馆","lon":"121.33469166","lat":"31.1750531837","category":"247","category_name":"餐饮美食","address":"上海虹桥机场T2航站楼"},{"poiid":"B2094757DB69A6F94498","title":"上海虹桥机场T2航站楼59号登机口","lon":"121.336415","lat":"31.189395","category":"500","category_name":"未知分类","address":"上海虹桥机场T2航站楼"},{"poiid":"B2094757D169A1FE4698","title":"上海大众4S店","lon":"121.34431156","lat":"31.175227487","category":"500","category_name":"未知分类","address":"上海市闵行区沪青平公路455号"}]