[{"poiid":"B2094757D06EAAFB429F","title":"避风塘 大悦城店","lon":"121.472115","lat":"31.242537","category":"72","category_name":"广东菜","address":"闸北区西藏北路166号大悦城8楼(近曲阜路)"},{"poiid":"B2094757DA6FA3FB489B","title":"金逸院线新恒星影城(大悦城店)","lon":"121.472272999999","lat":"31.24237","category":"178","category_name":"电影院","address":"闸北区西藏北路166号大悦城10-11楼(近曲阜路)"},{"poiid":"B2094757D06EAAFA439A","title":"星巴克(大悦城店)","lon":"121.4724976","lat":"31.2424038","category":"65","category_name":"咖啡厅","address":"闸北区西藏北路166号大悦城3楼中厅(近曲阜路)"},{"poiid":"B2094753D76FAAFA449C","title":"上海滩国泰旗舰店","lon":"121.466011","lat":"31.216125","category":"249","category_name":"购物服务","address":"淮海中路868号"},{"poiid":"B209475CD564A7F84292","title":"上海滩新天地店","lon":"121.47463","lat":"31.22164","category":"119","category_name":"商场","address":"\"太仓路181弄新天地北里15号\r\n\""},{"poiid":"B209475CD564A7F8439E","title":"上海滩中信泰富店","lon":"121.45602","lat":"31.22851","category":"119","category_name":"商场","address":"\"南京西路1168号中信泰富广场，店铺号221.\r\n\""},{"poiid":"B209475CD564A7F84392","title":"上海滩浦东香格里拉店","lon":"121.50058","lat":"31.23634","category":"119","category_name":"商场","address":"浦东富成路33号香格里拉酒店内大堂层"},{"poiid":"B2094751DA6DA4FB469F","title":"黄记煌","lon":"121.473479","lat":"31.238534","category":"247","category_name":"餐饮美食","address":"黄浦区南京东路720号第一食品城4楼"},{"poiid":"B2094655D26BA1F54992","title":"峻岭广场","lon":"121.474","lat":"31.2383","category":"252","category_name":"楼宇机构","address":"成都北路500号"},{"poiid":"B2094750D76EAAFA4193","title":"呷哺呷哺(大悦城店)","lon":"121.472","lat":"31.2424","category":"86","category_name":"火锅店","address":"闸北区西藏北路166号大悦城9楼04号商铺"},{"poiid":"B2094757D06FAAFA4899","title":"四行仓库","lon":"121.47187","lat":"31.24012","category":"179","category_name":"音乐厅","address":"闸北区光复路1号(近西藏北路)"},{"poiid":"B2094757D06FA7FF4893","title":"酷圣石(大悦城店)","lon":"121.471918727","lat":"31.2420095845","category":"113","category_name":"冷饮店","address":"闸北区西藏北路166号大悦城B1楼(近曲阜路)"},{"poiid":"B2094757D664A3FD479B","title":"DQ冰雪皇后 大悦城店 Dairy Queen","lon":"121.47227","lat":"31.24237","category":"113","category_name":"冷饮店","address":"闸北区西藏北路166号大悦城"},{"poiid":"B2094757D765A4FF4293","title":"沃歌斯 大悦城店","lon":"121.472273","lat":"31.24237","category":"94","category_name":"西餐厅","address":"闸北区西藏北路166号大悦城1楼(近曲阜路)"},{"poiid":"B2094751D56DA6FF4398","title":"小杨生煎(大悦城店)","lon":"121.4723","lat":"31.24237","category":"68","category_name":"快餐厅","address":"闸北区西藏北路166号大悦城9楼(近曲阜路)"},{"poiid":"B2094757D16EABFA479F","title":"黄埔剧场","lon":"121.475590538","lat":"31.2397237024","category":"248","category_name":"生活娱乐","address":"上海北京东路780号"},{"poiid":"B2094655D265A5FD4192","title":"华盛商务楼","lon":"121.473359","lat":"31.239953","category":"46","category_name":"楼宇","address":"上海市黄浦区成都北路600号"},{"poiid":"B2094757D165ABFF499D","title":"华侨城苏河湾","lon":"121.473006","lat":"31.241215","category":"252","category_name":"楼宇机构","address":"廖廓北路与建宁西路交汇处"},{"poiid":"B2094757D06FA7FC4599","title":"传奇台球(黄浦店)","lon":"121.47326","lat":"31.23912","category":"171","category_name":"台球厅","address":"上海黄浦区西藏中路698号3-4楼(近北京中路)"},{"poiid":"B2094757D068A6FB4498","title":"象屿集团大厦","lon":"121.47164335","lat":"31.239161467","category":"46","category_name":"楼宇","address":"上海市黄浦区西藏中路725弄28号"},{"poiid":"B2094654DA68A3FC489B","title":"金瓯万国大厦","lon":"121.47591985314","lat":"31.240754198427","category":"46","category_name":"楼宇","address":"上海市黄浦区新昌路180号"},{"poiid":"B2094757D064A4F5449A","title":"怡水豪庭","lon":"121.47475","lat":"31.240475","category":"47","category_name":"住宅区","address":"上海市松江区涞坊路599弄"},{"poiid":"B2094750D669A7F44992","title":"新华医院","lon":"121.473866","lat":"31.239307","category":"162","category_name":"医院","address":null},{"poiid":"B2094757DB69A7FC489B","title":"科技京城","lon":"121.472096","lat":"31.240794","category":"263","category_name":"公司","address":"卫清西路139_149号等"},{"poiid":"B2094654DA6FA6FF459C","title":"茂联大厦","lon":"121.47277","lat":"31.24115","category":"46","category_name":"楼宇","address":"昌平区回龙观镇国际信息产业基地高新二街"},{"poiid":"B2094757D06FAAF5479F","title":"美华大厦","lon":"121.47356273","lat":"31.238155469","category":"253","category_name":"校园生活","address":"上海市普陀区中山北路1777号"},{"poiid":"B2094757D06FA7F9439A","title":"索非蜜斯(大悦城店)","lon":"121.47199072","lat":"31.242156584","category":"67","category_name":"甜品店","address":"西藏北路166号大悦城7F08号商铺近开封路"},{"poiid":"B2094757D76AA6F8479A","title":"权味 大悦城店","lon":"121.47227","lat":"31.24237","category":"96","category_name":"韩国料理","address":"闸北区西藏北路166号大悦城9楼(近曲阜路)"},{"poiid":"B2094757DA6EABFC4392","title":"星密码(大悦城店)","lon":"121.472272999999","lat":"31.24237","category":"248","category_name":"生活娱乐","address":"闸北区西藏北路166号大悦城6楼618室(近曲阜路)"},{"poiid":"B2094750D665A2F54298","title":"大阪味锦(西藏北路店)","lon":"121.472","lat":"31.2424","category":"68","category_name":"快餐厅","address":"闸北区西藏北路166号大悦城B1楼(近曲阜路)"},{"poiid":"B2094753DB6BA0FC4993","title":"上海市人民广场","lon":"121.472","lat":"31.241498","category":"500","category_name":"未知分类","address":"上海市 上海市人民广场"},{"poiid":"B2094654DA6FA0FE409C","title":"河畔明珠","lon":"121.47536","lat":"31.240377","category":"47","category_name":"住宅区","address":"上海市黄浦区南苏州路881号"},{"poiid":"B2094757D168A6F9439F","title":"苏州河泥城桥","lon":"121.472391","lat":"31.239494","category":"234","category_name":"海滨浴场","address":"上海西藏中路南苏州路"},{"poiid":"B2094757D169A1FB499A","title":"稳得福(西藏中路店)","lon":"121.47351","lat":"31.23822","category":"68","category_name":"快餐厅","address":"黄浦区西藏中路660号(西藏中路厦门路)"},{"poiid":"B2094757D06FA2FD489C","title":"H&amp;M(大悦城店)","lon":"121.47202472","lat":"31.242213584","category":"141","category_name":"服装鞋帽皮具店","address":"上海闸北区西藏北路180号大悦城1F～3F"},{"poiid":"B2094750D26DA4FD419E","title":"燕云搂","lon":"121.472602189532","lat":"31.23935451376719","category":"247","category_name":"餐饮美食","address":"浙江北路"},{"poiid":"B2094757D06FA4FD429C","title":"Mister Donut 美仕唐纳滋(大悦城店)","lon":"121.47196072","lat":"31.242141584","category":"67","category_name":"甜品店","address":"闸北区西藏北路166号大悦城B1楼(曲阜路口)"},{"poiid":"B2094750D76DA0F94293","title":"丸来玩趣(大悦城店)","lon":"121.472","lat":"31.2425","category":"68","category_name":"快餐厅","address":"闸北区西藏北路166号大悦城B1楼(近曲阜路)"},{"poiid":"B2094757D165ABF94399","title":"金逸国际电影城(新梅店)","lon":"121.47192","lat":"31.24212","category":"178","category_name":"电影院","address":"上海闸北区西藏北路166号新梅天地10楼(近曲阜路 尚未开业)  "},{"poiid":"B2094751D36FA1FC4798","title":"Momi&Toys(西藏北路店)","lon":"121.47227","lat":"31.24237","category":"67","category_name":"甜品店","address":"闸北区西藏北路166号(近曲阜路)"},{"poiid":"B2094753D16EA5F5439D","title":"气味图书馆(大悦城店)","lon":"121.47176","lat":"31.24247","category":"122","category_name":"个人用品/化妆品店","address":"闸北区西藏北路166号大悦城607室(近地铁八号线曲阜路站)"},{"poiid":"B2094757D069A2F44199","title":"西龙传香饭团(大悦城店)","lon":"121.47199698","lat":"31.242324962","category":"68","category_name":"快餐厅","address":"闸北区西藏北路166号大悦城B1楼(近曲阜路)"},{"poiid":"B2094757D068ABFA4893","title":"上海市音乐幼儿园","lon":"121.474718","lat":"31.239423","category":"57","category_name":"幼儿园","address":"黄浦区厦门路180号"},{"poiid":"B2094655D26EA4F8449D","title":"新疆路烧烤","lon":"121.47171","lat":"31.24111","category":"68","category_name":"快餐厅","address":"闸北区西藏北路46路车站附近(近国庆路)"},{"poiid":"B2094752D665A5FE469D","title":"上海外滩","lon":"121.473537","lat":"31.239756","category":"627","category_name":"一般地点标志","address":null},{"poiid":"B2094654DA6FA0FE4893","title":"传奇桌球(西藏中路)","lon":"121.47309","lat":"31.23924","category":"171","category_name":"台球厅","address":"西藏中路698号京晶宾馆"},{"poiid":"B2094751D56CABFA4699","title":"AHA!果留仙(大悦城店)","lon":"121.4723","lat":"31.24237","category":"67","category_name":"甜品店","address":"闸北区西藏北路166号大悦城911号(近曲阜路)"},{"poiid":"B2094654DA6FA0FE4998","title":"京晶宾馆","lon":"121.47309","lat":"31.23924","category":"250","category_name":"公园户外","address":"黄浦区西藏中路(近美欣大厦)"},{"poiid":"B2094752DB6AA6F54292","title":"OCT当代艺术中心","lon":"121.473045","lat":"31.241711","category":"500","category_name":"未知分类","address":"上海市 北苏州路1016号"},{"poiid":"B2094654DB6BA4F54199","title":"永和大王","lon":"121.47358","lat":"31.23848","category":"68","category_name":"快餐厅","address":"西藏中路658"},{"poiid":"B2094757D06EAAFB429F","title":"避风塘 大悦城店","lon":"121.472115","lat":"31.242537","category":"72","category_name":"广东菜","address":"闸北区西藏北路166号大悦城8楼(近曲阜路)"},{"poiid":"B2094757DA6FA3FB489B","title":"金逸院线新恒星影城(大悦城店)","lon":"121.472272999999","lat":"31.24237","category":"178","category_name":"电影院","address":"闸北区西藏北路166号大悦城10-11楼(近曲阜路)"},{"poiid":"B2094757D06EAAFA439A","title":"星巴克(大悦城店)","lon":"121.4724976","lat":"31.2424038","category":"65","category_name":"咖啡厅","address":"闸北区西藏北路166号大悦城3楼中厅(近曲阜路)"},{"poiid":"B2094753D76FAAFA449C","title":"上海滩国泰旗舰店","lon":"121.466011","lat":"31.216125","category":"249","category_name":"购物服务","address":"淮海中路868号"},{"poiid":"B209475CD564A7F84292","title":"上海滩新天地店","lon":"121.47463","lat":"31.22164","category":"119","category_name":"商场","address":"\"太仓路181弄新天地北里15号\r\n\""},{"poiid":"B209475CD564A7F8439E","title":"上海滩中信泰富店","lon":"121.45602","lat":"31.22851","category":"119","category_name":"商场","address":"\"南京西路1168号中信泰富广场，店铺号221.\r\n\""},{"poiid":"B209475CD564A7F84392","title":"上海滩浦东香格里拉店","lon":"121.50058","lat":"31.23634","category":"119","category_name":"商场","address":"浦东富成路33号香格里拉酒店内大堂层"},{"poiid":"B2094751DA6DA4FB469F","title":"黄记煌","lon":"121.473479","lat":"31.238534","category":"247","category_name":"餐饮美食","address":"黄浦区南京东路720号第一食品城4楼"},{"poiid":"B2094655D26BA1F54992","title":"峻岭广场","lon":"121.474","lat":"31.2383","category":"252","category_name":"楼宇机构","address":"成都北路500号"},{"poiid":"B2094750D76EAAFA4193","title":"呷哺呷哺(大悦城店)","lon":"121.472","lat":"31.2424","category":"86","category_name":"火锅店","address":"闸北区西藏北路166号大悦城9楼04号商铺"},{"poiid":"B2094757D06FAAFA4899","title":"四行仓库","lon":"121.47187","lat":"31.24012","category":"179","category_name":"音乐厅","address":"闸北区光复路1号(近西藏北路)"},{"poiid":"B2094757D06FA7FF4893","title":"酷圣石(大悦城店)","lon":"121.471918727","lat":"31.2420095845","category":"113","category_name":"冷饮店","address":"闸北区西藏北路166号大悦城B1楼(近曲阜路)"},{"poiid":"B2094757D664A3FD479B","title":"DQ冰雪皇后 大悦城店 Dairy Queen","lon":"121.47227","lat":"31.24237","category":"113","category_name":"冷饮店","address":"闸北区西藏北路166号大悦城"},{"poiid":"B2094757D765A4FF4293","title":"沃歌斯 大悦城店","lon":"121.472273","lat":"31.24237","category":"94","category_name":"西餐厅","address":"闸北区西藏北路166号大悦城1楼(近曲阜路)"},{"poiid":"B2094751D56DA6FF4398","title":"小杨生煎(大悦城店)","lon":"121.4723","lat":"31.24237","category":"68","category_name":"快餐厅","address":"闸北区西藏北路166号大悦城9楼(近曲阜路)"},{"poiid":"B2094757D16EABFA479F","title":"黄埔剧场","lon":"121.475590538","lat":"31.2397237024","category":"248","category_name":"生活娱乐","address":"上海北京东路780号"},{"poiid":"B2094655D265A5FD4192","title":"华盛商务楼","lon":"121.473359","lat":"31.239953","category":"46","category_name":"楼宇","address":"上海市黄浦区成都北路600号"},{"poiid":"B2094757D165ABFF499D","title":"华侨城苏河湾","lon":"121.473006","lat":"31.241215","category":"252","category_name":"楼宇机构","address":"廖廓北路与建宁西路交汇处"},{"poiid":"B2094757D06FA7FC4599","title":"传奇台球(黄浦店)","lon":"121.47326","lat":"31.23912","category":"171","category_name":"台球厅","address":"上海黄浦区西藏中路698号3-4楼(近北京中路)"},{"poiid":"B2094757D068A6FB4498","title":"象屿集团大厦","lon":"121.47164335","lat":"31.239161467","category":"46","category_name":"楼宇","address":"上海市黄浦区西藏中路725弄28号"},{"poiid":"B2094654DA68A3FC489B","title":"金瓯万国大厦","lon":"121.47591985314","lat":"31.240754198427","category":"46","category_name":"楼宇","address":"上海市黄浦区新昌路180号"},{"poiid":"B2094757D064A4F5449A","title":"怡水豪庭","lon":"121.47475","lat":"31.240475","category":"47","category_name":"住宅区","address":"上海市松江区涞坊路599弄"},{"poiid":"B2094750D669A7F44992","title":"新华医院","lon":"121.473866","lat":"31.239307","category":"162","category_name":"医院","address":null},{"poiid":"B2094757DB69A7FC489B","title":"科技京城","lon":"121.472096","lat":"31.240794","category":"263","category_name":"公司","address":"卫清西路139_149号等"},{"poiid":"B2094654DA6FA6FF459C","title":"茂联大厦","lon":"121.47277","lat":"31.24115","category":"46","category_name":"楼宇","address":"昌平区回龙观镇国际信息产业基地高新二街"},{"poiid":"B2094757D06FAAF5479F","title":"美华大厦","lon":"121.47356273","lat":"31.238155469","category":"253","category_name":"校园生活","address":"上海市普陀区中山北路1777号"},{"poiid":"B2094757D06FA7F9439A","title":"索非蜜斯(大悦城店)","lon":"121.47199072","lat":"31.242156584","category":"67","category_name":"甜品店","address":"西藏北路166号大悦城7F08号商铺近开封路"},{"poiid":"B2094757D76AA6F8479A","title":"权味 大悦城店","lon":"121.47227","lat":"31.24237","category":"96","category_name":"韩国料理","address":"闸北区西藏北路166号大悦城9楼(近曲阜路)"},{"poiid":"B2094757DA6EABFC4392","title":"星密码(大悦城店)","lon":"121.472272999999","lat":"31.24237","category":"248","category_name":"生活娱乐","address":"闸北区西藏北路166号大悦城6楼618室(近曲阜路)"},{"poiid":"B2094750D665A2F54298","title":"大阪味锦(西藏北路店)","lon":"121.472","lat":"31.2424","category":"68","category_name":"快餐厅","address":"闸北区西藏北路166号大悦城B1楼(近曲阜路)"},{"poiid":"B2094753DB6BA0FC4993","title":"上海市人民广场","lon":"121.472","lat":"31.241498","category":"500","category_name":"未知分类","address":"上海市 上海市人民广场"},{"poiid":"B2094654DA6FA0FE409C","title":"河畔明珠","lon":"121.47536","lat":"31.240377","category":"47","category_name":"住宅区","address":"上海市黄浦区南苏州路881号"},{"poiid":"B2094757D168A6F9439F","title":"苏州河泥城桥","lon":"121.472391","lat":"31.239494","category":"234","category_name":"海滨浴场","address":"上海西藏中路南苏州路"},{"poiid":"B2094757D169A1FB499A","title":"稳得福(西藏中路店)","lon":"121.47351","lat":"31.23822","category":"68","category_name":"快餐厅","address":"黄浦区西藏中路660号(西藏中路厦门路)"},{"poiid":"B2094757D06FA2FD489C","title":"H&amp;M(大悦城店)","lon":"121.47202472","lat":"31.242213584","category":"141","category_name":"服装鞋帽皮具店","address":"上海闸北区西藏北路180号大悦城1F～3F"},{"poiid":"B2094750D26DA4FD419E","title":"燕云搂","lon":"121.472602189532","lat":"31.23935451376719","category":"247","category_name":"餐饮美食","address":"浙江北路"},{"poiid":"B2094757D06FA4FD429C","title":"Mister Donut 美仕唐纳滋(大悦城店)","lon":"121.47196072","lat":"31.242141584","category":"67","category_name":"甜品店","address":"闸北区西藏北路166号大悦城B1楼(曲阜路口)"},{"poiid":"B2094750D76DA0F94293","title":"丸来玩趣(大悦城店)","lon":"121.472","lat":"31.2425","category":"68","category_name":"快餐厅","address":"闸北区西藏北路166号大悦城B1楼(近曲阜路)"},{"poiid":"B2094757D165ABF94399","title":"金逸国际电影城(新梅店)","lon":"121.47192","lat":"31.24212","category":"178","category_name":"电影院","address":"上海闸北区西藏北路166号新梅天地10楼(近曲阜路 尚未开业)  "},{"poiid":"B2094751D36FA1FC4798","title":"Momi&Toys(西藏北路店)","lon":"121.47227","lat":"31.24237","category":"67","category_name":"甜品店","address":"闸北区西藏北路166号(近曲阜路)"},{"poiid":"B2094753D16EA5F5439D","title":"气味图书馆(大悦城店)","lon":"121.47176","lat":"31.24247","category":"122","category_name":"个人用品/化妆品店","address":"闸北区西藏北路166号大悦城607室(近地铁八号线曲阜路站)"},{"poiid":"B2094757D069A2F44199","title":"西龙传香饭团(大悦城店)","lon":"121.47199698","lat":"31.242324962","category":"68","category_name":"快餐厅","address":"闸北区西藏北路166号大悦城B1楼(近曲阜路)"},{"poiid":"B2094757D068ABFA4893","title":"上海市音乐幼儿园","lon":"121.474718","lat":"31.239423","category":"57","category_name":"幼儿园","address":"黄浦区厦门路180号"},{"poiid":"B2094655D26EA4F8449D","title":"新疆路烧烤","lon":"121.47171","lat":"31.24111","category":"68","category_name":"快餐厅","address":"闸北区西藏北路46路车站附近(近国庆路)"},{"poiid":"B2094752D665A5FE469D","title":"上海外滩","lon":"121.473537","lat":"31.239756","category":"627","category_name":"一般地点标志","address":null},{"poiid":"B2094654DA6FA0FE4893","title":"传奇桌球(西藏中路)","lon":"121.47309","lat":"31.23924","category":"171","category_name":"台球厅","address":"西藏中路698号京晶宾馆"},{"poiid":"B2094751D56CABFA4699","title":"AHA!果留仙(大悦城店)","lon":"121.4723","lat":"31.24237","category":"67","category_name":"甜品店","address":"闸北区西藏北路166号大悦城911号(近曲阜路)"},{"poiid":"B2094654DA6FA0FE4998","title":"京晶宾馆","lon":"121.47309","lat":"31.23924","category":"250","category_name":"公园户外","address":"黄浦区西藏中路(近美欣大厦)"},{"poiid":"B2094752DB6AA6F54292","title":"OCT当代艺术中心","lon":"121.473045","lat":"31.241711","category":"500","category_name":"未知分类","address":"上海市 北苏州路1016号"},{"poiid":"B2094654DB6BA4F54199","title":"永和大王","lon":"121.47358","lat":"31.23848","category":"68","category_name":"快餐厅","address":"西藏中路658"},{"poiid":"B2094757D06EAAFB429F","title":"避风塘 大悦城店","lon":"121.472115","lat":"31.242537","category":"72","category_name":"广东菜","address":"闸北区西藏北路166号大悦城8楼(近曲阜路)"},{"poiid":"B2094757DA6FA3FB489B","title":"金逸院线新恒星影城(大悦城店)","lon":"121.472272999999","lat":"31.24237","category":"178","category_name":"电影院","address":"闸北区西藏北路166号大悦城10-11楼(近曲阜路)"},{"poiid":"B2094757D06EAAFA439A","title":"星巴克(大悦城店)","lon":"121.4724976","lat":"31.2424038","category":"65","category_name":"咖啡厅","address":"闸北区西藏北路166号大悦城3楼中厅(近曲阜路)"},{"poiid":"B2094753D76FAAFA449C","title":"上海滩国泰旗舰店","lon":"121.466011","lat":"31.216125","category":"249","category_name":"购物服务","address":"淮海中路868号"},{"poiid":"B209475CD564A7F84292","title":"上海滩新天地店","lon":"121.47463","lat":"31.22164","category":"119","category_name":"商场","address":"\"太仓路181弄新天地北里15号\r\n\""},{"poiid":"B209475CD564A7F8439E","title":"上海滩中信泰富店","lon":"121.45602","lat":"31.22851","category":"119","category_name":"商场","address":"\"南京西路1168号中信泰富广场，店铺号221.\r\n\""},{"poiid":"B209475CD564A7F84392","title":"上海滩浦东香格里拉店","lon":"121.50058","lat":"31.23634","category":"119","category_name":"商场","address":"浦东富成路33号香格里拉酒店内大堂层"},{"poiid":"B2094751DA6DA4FB469F","title":"黄记煌","lon":"121.473479","lat":"31.238534","category":"247","category_name":"餐饮美食","address":"黄浦区南京东路720号第一食品城4楼"},{"poiid":"B2094655D26BA1F54992","title":"峻岭广场","lon":"121.474","lat":"31.2383","category":"252","category_name":"楼宇机构","address":"成都北路500号"},{"poiid":"B2094750D76EAAFA4193","title":"呷哺呷哺(大悦城店)","lon":"121.472","lat":"31.2424","category":"86","category_name":"火锅店","address":"闸北区西藏北路166号大悦城9楼04号商铺"},{"poiid":"B2094757D06FAAFA4899","title":"四行仓库","lon":"121.47187","lat":"31.24012","category":"179","category_name":"音乐厅","address":"闸北区光复路1号(近西藏北路)"},{"poiid":"B2094757D06FA7FF4893","title":"酷圣石(大悦城店)","lon":"121.471918727","lat":"31.2420095845","category":"113","category_name":"冷饮店","address":"闸北区西藏北路166号大悦城B1楼(近曲阜路)"},{"poiid":"B2094757D664A3FD479B","title":"DQ冰雪皇后 大悦城店 Dairy Queen","lon":"121.47227","lat":"31.24237","category":"113","category_name":"冷饮店","address":"闸北区西藏北路166号大悦城"},{"poiid":"B2094757D765A4FF4293","title":"沃歌斯 大悦城店","lon":"121.472273","lat":"31.24237","category":"94","category_name":"西餐厅","address":"闸北区西藏北路166号大悦城1楼(近曲阜路)"},{"poiid":"B2094751D56DA6FF4398","title":"小杨生煎(大悦城店)","lon":"121.4723","lat":"31.24237","category":"68","category_name":"快餐厅","address":"闸北区西藏北路166号大悦城9楼(近曲阜路)"},{"poiid":"B2094757D16EABFA479F","title":"黄埔剧场","lon":"121.475590538","lat":"31.2397237024","category":"248","category_name":"生活娱乐","address":"上海北京东路780号"},{"poiid":"B2094655D265A5FD4192","title":"华盛商务楼","lon":"121.473359","lat":"31.239953","category":"46","category_name":"楼宇","address":"上海市黄浦区成都北路600号"},{"poiid":"B2094757D165ABFF499D","title":"华侨城苏河湾","lon":"121.473006","lat":"31.241215","category":"252","category_name":"楼宇机构","address":"廖廓北路与建宁西路交汇处"},{"poiid":"B2094757D06FA7FC4599","title":"传奇台球(黄浦店)","lon":"121.47326","lat":"31.23912","category":"171","category_name":"台球厅","address":"上海黄浦区西藏中路698号3-4楼(近北京中路)"},{"poiid":"B2094757D068A6FB4498","title":"象屿集团大厦","lon":"121.47164335","lat":"31.239161467","category":"46","category_name":"楼宇","address":"上海市黄浦区西藏中路725弄28号"},{"poiid":"B2094654DA68A3FC489B","title":"金瓯万国大厦","lon":"121.47591985314","lat":"31.240754198427","category":"46","category_name":"楼宇","address":"上海市黄浦区新昌路180号"},{"poiid":"B2094757D064A4F5449A","title":"怡水豪庭","lon":"121.47475","lat":"31.240475","category":"47","category_name":"住宅区","address":"上海市松江区涞坊路599弄"},{"poiid":"B2094750D669A7F44992","title":"新华医院","lon":"121.473866","lat":"31.239307","category":"162","category_name":"医院","address":null},{"poiid":"B2094757DB69A7FC489B","title":"科技京城","lon":"121.472096","lat":"31.240794","category":"263","category_name":"公司","address":"卫清西路139_149号等"},{"poiid":"B2094654DA6FA6FF459C","title":"茂联大厦","lon":"121.47277","lat":"31.24115","category":"46","category_name":"楼宇","address":"昌平区回龙观镇国际信息产业基地高新二街"},{"poiid":"B2094757D06FAAF5479F","title":"美华大厦","lon":"121.47356273","lat":"31.238155469","category":"253","category_name":"校园生活","address":"上海市普陀区中山北路1777号"},{"poiid":"B2094757D06FA7F9439A","title":"索非蜜斯(大悦城店)","lon":"121.47199072","lat":"31.242156584","category":"67","category_name":"甜品店","address":"西藏北路166号大悦城7F08号商铺近开封路"},{"poiid":"B2094757D76AA6F8479A","title":"权味 大悦城店","lon":"121.47227","lat":"31.24237","category":"96","category_name":"韩国料理","address":"闸北区西藏北路166号大悦城9楼(近曲阜路)"},{"poiid":"B2094757DA6EABFC4392","title":"星密码(大悦城店)","lon":"121.472272999999","lat":"31.24237","category":"248","category_name":"生活娱乐","address":"闸北区西藏北路166号大悦城6楼618室(近曲阜路)"},{"poiid":"B2094750D665A2F54298","title":"大阪味锦(西藏北路店)","lon":"121.472","lat":"31.2424","category":"68","category_name":"快餐厅","address":"闸北区西藏北路166号大悦城B1楼(近曲阜路)"},{"poiid":"B2094753DB6BA0FC4993","title":"上海市人民广场","lon":"121.472","lat":"31.241498","category":"500","category_name":"未知分类","address":"上海市 上海市人民广场"},{"poiid":"B2094654DA6FA0FE409C","title":"河畔明珠","lon":"121.47536","lat":"31.240377","category":"47","category_name":"住宅区","address":"上海市黄浦区南苏州路881号"},{"poiid":"B2094757D168A6F9439F","title":"苏州河泥城桥","lon":"121.472391","lat":"31.239494","category":"234","category_name":"海滨浴场","address":"上海西藏中路南苏州路"},{"poiid":"B2094757D169A1FB499A","title":"稳得福(西藏中路店)","lon":"121.47351","lat":"31.23822","category":"68","category_name":"快餐厅","address":"黄浦区西藏中路660号(西藏中路厦门路)"},{"poiid":"B2094757D06FA2FD489C","title":"H&amp;M(大悦城店)","lon":"121.47202472","lat":"31.242213584","category":"141","category_name":"服装鞋帽皮具店","address":"上海闸北区西藏北路180号大悦城1F～3F"},{"poiid":"B2094750D26DA4FD419E","title":"燕云搂","lon":"121.472602189532","lat":"31.23935451376719","category":"247","category_name":"餐饮美食","address":"浙江北路"},{"poiid":"B2094757D06FA4FD429C","title":"Mister Donut 美仕唐纳滋(大悦城店)","lon":"121.47196072","lat":"31.242141584","category":"67","category_name":"甜品店","address":"闸北区西藏北路166号大悦城B1楼(曲阜路口)"},{"poiid":"B2094750D76DA0F94293","title":"丸来玩趣(大悦城店)","lon":"121.472","lat":"31.2425","category":"68","category_name":"快餐厅","address":"闸北区西藏北路166号大悦城B1楼(近曲阜路)"},{"poiid":"B2094757D165ABF94399","title":"金逸国际电影城(新梅店)","lon":"121.47192","lat":"31.24212","category":"178","category_name":"电影院","address":"上海闸北区西藏北路166号新梅天地10楼(近曲阜路 尚未开业)  "},{"poiid":"B2094751D36FA1FC4798","title":"Momi&Toys(西藏北路店)","lon":"121.47227","lat":"31.24237","category":"67","category_name":"甜品店","address":"闸北区西藏北路166号(近曲阜路)"},{"poiid":"B2094753D16EA5F5439D","title":"气味图书馆(大悦城店)","lon":"121.47176","lat":"31.24247","category":"122","category_name":"个人用品/化妆品店","address":"闸北区西藏北路166号大悦城607室(近地铁八号线曲阜路站)"},{"poiid":"B2094757D069A2F44199","title":"西龙传香饭团(大悦城店)","lon":"121.47199698","lat":"31.242324962","category":"68","category_name":"快餐厅","address":"闸北区西藏北路166号大悦城B1楼(近曲阜路)"},{"poiid":"B2094757D068ABFA4893","title":"上海市音乐幼儿园","lon":"121.474718","lat":"31.239423","category":"57","category_name":"幼儿园","address":"黄浦区厦门路180号"},{"poiid":"B2094655D26EA4F8449D","title":"新疆路烧烤","lon":"121.47171","lat":"31.24111","category":"68","category_name":"快餐厅","address":"闸北区西藏北路46路车站附近(近国庆路)"},{"poiid":"B2094752D665A5FE469D","title":"上海外滩","lon":"121.473537","lat":"31.239756","category":"627","category_name":"一般地点标志","address":null},{"poiid":"B2094654DA6FA0FE4893","title":"传奇桌球(西藏中路)","lon":"121.47309","lat":"31.23924","category":"171","category_name":"台球厅","address":"西藏中路698号京晶宾馆"},{"poiid":"B2094751D56CABFA4699","title":"AHA!果留仙(大悦城店)","lon":"121.4723","lat":"31.24237","category":"67","category_name":"甜品店","address":"闸北区西藏北路166号大悦城911号(近曲阜路)"},{"poiid":"B2094654DA6FA0FE4998","title":"京晶宾馆","lon":"121.47309","lat":"31.23924","category":"250","category_name":"公园户外","address":"黄浦区西藏中路(近美欣大厦)"},{"poiid":"B2094752DB6AA6F54292","title":"OCT当代艺术中心","lon":"121.473045","lat":"31.241711","category":"500","category_name":"未知分类","address":"上海市 北苏州路1016号"},{"poiid":"B2094654DB6BA4F54199","title":"永和大王","lon":"121.47358","lat":"31.23848","category":"68","category_name":"快餐厅","address":"西藏中路658"}]