[{"poiid":"B2094757D06EAAF54393","title":"虹桥火车站候车大厅","lon":"121.32087","lat":"31.19715","category":"22","category_name":"火车站","address":"上海虹桥火车站"},{"poiid":"B2094655D36CA4FE419E","title":"爱博家园","lon":"121.3085","lat":"31.20903","category":"38","category_name":"公交车站","address":"上海宁虹路"},{"poiid":"B2094757D66FA2FF4892","title":"上海虹桥火车站","lon":"121.32484","lat":"31.20248","category":"22","category_name":"火车站","address":"上海虹桥火车站"},{"poiid":"B2094655D36DA6FD449F","title":"虹桥火车站","lon":"121.32152","lat":"31.19268","category":"38","category_name":"公交车站","address":"闵行区虹桥枢纽申贵路(近地铁10号线虹桥火车站)"},{"poiid":"B2094757D068A0FD409E","title":"虹桥火车站B20检票口","lon":"121.32032156","lat":"31.193636875","category":"22","category_name":"火车站","address":"上海市闵行区七莘路"},{"poiid":"B2094757D06EAAF9429E","title":"虹桥火车站地铁站","lon":"121.321486","lat":"31.192675","category":"36","category_name":"地铁站","address":"上海轨道交通 二号线 十号线 轨交虹桥火车站站 2 10"},{"poiid":"B2094757D16EAAFD4598","title":"costa虹桥火车站","lon":"121.31736956","lat":"31.193946882","category":"65","category_name":"咖啡厅","address":"上海市闵行区苏虹路"},{"poiid":"B2094757D069A7FB469B","title":"上海虹桥金古源豪生大酒店","lon":"121.30384826","lat":"31.200029373","category":"217","category_name":"旅馆招待所","address":"闵行区华翔路1989号(近虹桥机场)"},{"poiid":"B2094757D16AA0F5409A","title":"虹桥火车站到达P9停车场","lon":"121.31151396","lat":"31.2037302886","category":"22","category_name":"火车站","address":"上海虹桥火车站到达P9停车场"},{"poiid":"B2094757D068A4FB409C","title":"小钱龙虾馆","lon":"121.2986","lat":"31.20417","category":"87","category_name":"特色／地方风味餐厅","address":"闵行区诸翟镇纪翟南路(联华路口)"},{"poiid":"B2094757D06FA5FB4992","title":"爱博一村","lon":"121.31182566","lat":"31.204816359","category":"500","category_name":"未知分类","address":"上海闵行区宁虹路1101弄"},{"poiid":"B2094757D06FA2F5479C","title":"麦当劳(虹桥火车站)","lon":"121.32033856","lat":"31.1932958684","category":"68","category_name":"快餐厅","address":"闵行区虹桥火车站候车厅楼上商铺JC-B2幢"},{"poiid":"B2094757D068A1FC4698","title":"爱博五村","lon":"121.30659063","lat":"31.211500932","category":"252","category_name":"楼宇机构","address":"上海市闵行区天山西路申滨路"},{"poiid":"B2094757D06FA1FB4492","title":"爱博家园二村","lon":"121.30612546","lat":"31.211087243","category":"47","category_name":"住宅区","address":"上海宁虹路申滨路"},{"poiid":"B2094757D16CA6F94798","title":"虹桥枢纽长途汽车站","lon":"121.3173604","lat":"31.193627565","category":"35","category_name":"长途汽车站","address":"上海申虹路298号"},{"poiid":"B2094757D068A4F8459F","title":"爱博三村","lon":"121.312302","lat":"31.20901","category":"47","category_name":"住宅区","address":"上海申滨路1058弄"},{"poiid":"B2094757D068A6FA439B","title":"上海虹桥火车站A14号检票口","lon":"121.32109147","lat":"31.1930984443","category":"260","category_name":"其他","address":"上海虹桥火车站"},{"poiid":"B2094751D56DA0FF4093","title":"星巴克(虹桥火车站店)","lon":"121.32214","lat":"31.19468","category":"247","category_name":"餐饮美食","address":"长宁区虹桥火车站B1-19号(近北6出口)"},{"poiid":"B2094757D068A4F9469F","title":"上海香港花园","lon":"121.30042","lat":"31.203123","category":"47","category_name":"住宅区","address":"上海市闵行区北翟路5188号"},{"poiid":"B2094655D265A2FE459E","title":"上海外国语大学闵行实验学校","lon":"121.30887","lat":"31.20327","category":"55","category_name":"中学","address":""},{"poiid":"B2094757D06FA4FB4092","title":"大润发(华漕店)","lon":"121.30579811","lat":"31.203054714","category":"118","category_name":"超级市场","address":"闵行区华漕镇繁兴路399弄2号(保乐路繁兴路)"},{"poiid":"B2094757D168A7FF4892","title":"上海虹桥火车站12号检票口","lon":"121.32102018","lat":"31.193093224","category":"22","category_name":"火车站","address":"上海虹桥火车站(二号线直达)"},{"poiid":"B2094757D168A7FF439D","title":"虹桥西交通中心","lon":"121.31839806","lat":"31.1933658699","category":"500","category_name":"未知分类","address":"上海虹桥枢纽"},{"poiid":"B2094757D16BA4F84098","title":"汉庭快捷酒店虹桥枢纽二店","lon":"121.30279656","lat":"31.208728344","category":"217","category_name":"旅馆招待所","address":"老北翟路4800号(天山西路华翔路口)"},{"poiid":"B2094753DA6FA7F94092","title":"上海虹桥机场T2航站楼","lon":"121.306015","lat":"31.207004","category":"500","category_name":"未知分类","address":"上海市 上海虹桥机场"},{"poiid":"B2094655D36CA7FF449F","title":"红星村","lon":"121.312","lat":"31.2044","category":"38","category_name":"公交车站","address":"华翔路1900弄"},{"poiid":"B2094757D069A1FB429F","title":"COSTA 虹桥枢纽店","lon":"121.32012456","lat":"31.1929008601","category":"500","category_name":"未知分类","address":"闵行区虹桥火车站B1楼35商铺(近十号口)"},{"poiid":"B2094757D568A5FE459E","title":"上海市闵行区华漕爱博幼儿园","lon":"121.31048882","lat":"31.20514323","category":"57","category_name":"幼儿园","address":"中国上海市闵行区"},{"poiid":"B2094757D16BA4F4479C","title":"上海虹桥火车站B16检票口","lon":"121.32082986","lat":"31.1927864577","category":"22","category_name":"火车站","address":"上海市闵行区虹桥火车站"},{"poiid":"B2094750D16AA2FE4198","title":"尚古酒店","lon":"121.3129","lat":"31.20919","category":"76","category_name":"上海菜","address":"闵行区宁虹路1199号(近申滨路)"},{"poiid":"B2094757D06AA7FE479B","title":"虹桥火车站B19检票口","lon":"121.32116335","lat":"31.193026022","category":"22","category_name":"火车站","address":"上海虹桥站"},{"poiid":"B2094757D06AAAF4429D","title":"宁虹路申滨路","lon":"121.308636937","lat":"31.2083389931","category":"500","category_name":"未知分类","address":"上海闵行区宁虹路申滨路"},{"poiid":"B2094751D569A3FA409B","title":"虹桥机场一号航站楼A10登机口","lon":"121.313942","lat":"31.204624","category":"500","category_name":"未知分类","address":null},{"poiid":"B2094757D165A0F8429C","title":"东方既白(虹桥火车站店)","lon":"121.31790256","lat":"31.193736877","category":"68","category_name":"快餐厅","address":"闵行区虹桥火车站B1楼15-16商铺"},{"poiid":"B2094655D264A1FD489F","title":"爱博一村(西门)","lon":"121.30989","lat":"31.20514","category":"47","category_name":"住宅区","address":""},{"poiid":"B2094757D66EAAFA429B","title":"爱博家园食堂","lon":"121.30933006","lat":"31.203938593","category":"247","category_name":"餐饮美食","address":"上海宁虹路1101弄100号"},{"poiid":"B2094750D465A2F9479E","title":"闵行区新虹桥社区卫生服务中心","lon":"121.310379","lat":"31.203531","category":"252","category_name":"楼宇机构","address":"申滨路618号"},{"poiid":"B2094757D06AA3FD479D","title":"大娘水饺 虹桥火车站店","lon":"121.312361","lat":"31.193727","category":"257","category_name":"中餐厅","address":"闵行区虹桥火车站B1楼"},{"poiid":"B2094757D76DA0F4409E","title":"金古源豪生大酒店西餐厅","lon":"121.30403","lat":"31.20054","category":"94","category_name":"西餐厅","address":"华翔路1989号上海虹桥金古源豪生大酒店1楼近兴虹路"},{"poiid":"B2094757D065ABFB409D","title":"永和大王(虹桥高铁出发店)","lon":"121.320344894","lat":"31.1937505447","category":"68","category_name":"快餐厅","address":"长宁区虹桥高铁出发处3楼0-26号"},{"poiid":"B2094655D265A3FB409F","title":"上海市公安局闵行分局交通警察支队七中队","lon":"121.30884","lat":"31.2034","category":"250","category_name":"公园户外","address":""},{"poiid":"B2094757D06FABF8409C","title":"味千拉面(虹桥高铁店)","lon":"121.321520227","lat":"31.1927024055","category":"95","category_name":"日本料理","address":"长宁区虹桥高铁站B1楼"},{"poiid":"B2094757D66DA5FF439D","title":"中环高架","lon":"121.31004656","lat":"31.207013157","category":"500","category_name":"未知分类","address":"上海市闵行区天山西路"},{"poiid":"B2094757D66FA1FA4493","title":"杭州华辰国际饭店","lon":"121.31060056","lat":"31.2062901426","category":"500","category_name":"未知分类","address":"上海杭州平海路25号"},{"poiid":"B2094655D265A3FB409C","title":"爱博二村(3号门)","lon":"121.30737","lat":"31.20524","category":"47","category_name":"住宅区","address":""},{"poiid":"B2094757DA6EAAFB469F","title":"上海虹桥商务区管委会","lon":"121.316084099998","lat":"31.2057881000003","category":"263","category_name":"公司","address":"闵行区申虹路33号"},{"poiid":"B2094654D56AA1F4499E","title":"董记煎饼包子店","lon":"121.31411","lat":"31.20774","category":"257","category_name":"中餐厅","address":"吴翟路"},{"poiid":"B2094750D76DA6FC409C","title":"丽国饭店","lon":"121.31","lat":"31.2101","category":"76","category_name":"上海菜","address":"长宁区申滨路爱博三村会所附近(近宁虹路)"},{"poiid":"B2094757DA6FA3FC4892","title":"真功夫(虹桥火车站店)","lon":"121.320869999999","lat":"31.1971500000001","category":"68","category_name":"快餐厅","address":"普陀区真光路1288号百联购物广场B1楼(近梅川路)"},{"poiid":"B2094757D069A0FF459F","title":"康师傅私房牛肉面 快捷店","lon":"121.31780322","lat":"31.193711177","category":"257","category_name":"中餐厅","address":"闵行区虹桥火车站B1楼B1-13、B1-14商铺"},{"poiid":"B2094757D06EAAF54393","title":"虹桥火车站候车大厅","lon":"121.32087","lat":"31.19715","category":"22","category_name":"火车站","address":"上海虹桥火车站"},{"poiid":"B2094655D36CA4FE419E","title":"爱博家园","lon":"121.3085","lat":"31.20903","category":"38","category_name":"公交车站","address":"上海宁虹路"},{"poiid":"B2094757D66FA2FF4892","title":"上海虹桥火车站","lon":"121.32484","lat":"31.20248","category":"22","category_name":"火车站","address":"上海虹桥火车站"},{"poiid":"B2094655D36DA6FD449F","title":"虹桥火车站","lon":"121.32152","lat":"31.19268","category":"38","category_name":"公交车站","address":"闵行区虹桥枢纽申贵路(近地铁10号线虹桥火车站)"},{"poiid":"B2094757D068A0FD409E","title":"虹桥火车站B20检票口","lon":"121.32032156","lat":"31.193636875","category":"22","category_name":"火车站","address":"上海市闵行区七莘路"},{"poiid":"B2094757D06EAAF9429E","title":"虹桥火车站地铁站","lon":"121.321486","lat":"31.192675","category":"36","category_name":"地铁站","address":"上海轨道交通 二号线 十号线 轨交虹桥火车站站 2 10"},{"poiid":"B2094757D16EAAFD4598","title":"costa虹桥火车站","lon":"121.31736956","lat":"31.193946882","category":"65","category_name":"咖啡厅","address":"上海市闵行区苏虹路"},{"poiid":"B2094757D069A7FB469B","title":"上海虹桥金古源豪生大酒店","lon":"121.30384826","lat":"31.200029373","category":"217","category_name":"旅馆招待所","address":"闵行区华翔路1989号(近虹桥机场)"},{"poiid":"B2094757D16AA0F5409A","title":"虹桥火车站到达P9停车场","lon":"121.31151396","lat":"31.2037302886","category":"22","category_name":"火车站","address":"上海虹桥火车站到达P9停车场"},{"poiid":"B2094757D068A4FB409C","title":"小钱龙虾馆","lon":"121.2986","lat":"31.20417","category":"87","category_name":"特色／地方风味餐厅","address":"闵行区诸翟镇纪翟南路(联华路口)"},{"poiid":"B2094757D06FA5FB4992","title":"爱博一村","lon":"121.31182566","lat":"31.204816359","category":"500","category_name":"未知分类","address":"上海闵行区宁虹路1101弄"},{"poiid":"B2094757D06FA2F5479C","title":"麦当劳(虹桥火车站)","lon":"121.32033856","lat":"31.1932958684","category":"68","category_name":"快餐厅","address":"闵行区虹桥火车站候车厅楼上商铺JC-B2幢"},{"poiid":"B2094757D068A1FC4698","title":"爱博五村","lon":"121.30659063","lat":"31.211500932","category":"252","category_name":"楼宇机构","address":"上海市闵行区天山西路申滨路"},{"poiid":"B2094757D06FA1FB4492","title":"爱博家园二村","lon":"121.30612546","lat":"31.211087243","category":"47","category_name":"住宅区","address":"上海宁虹路申滨路"},{"poiid":"B2094757D16CA6F94798","title":"虹桥枢纽长途汽车站","lon":"121.3173604","lat":"31.193627565","category":"35","category_name":"长途汽车站","address":"上海申虹路298号"},{"poiid":"B2094757D068A4F8459F","title":"爱博三村","lon":"121.312302","lat":"31.20901","category":"47","category_name":"住宅区","address":"上海申滨路1058弄"},{"poiid":"B2094757D068A6FA439B","title":"上海虹桥火车站A14号检票口","lon":"121.32109147","lat":"31.1930984443","category":"260","category_name":"其他","address":"上海虹桥火车站"},{"poiid":"B2094751D56DA0FF4093","title":"星巴克(虹桥火车站店)","lon":"121.32214","lat":"31.19468","category":"247","category_name":"餐饮美食","address":"长宁区虹桥火车站B1-19号(近北6出口)"},{"poiid":"B2094757D068A4F9469F","title":"上海香港花园","lon":"121.30042","lat":"31.203123","category":"47","category_name":"住宅区","address":"上海市闵行区北翟路5188号"},{"poiid":"B2094655D265A2FE459E","title":"上海外国语大学闵行实验学校","lon":"121.30887","lat":"31.20327","category":"55","category_name":"中学","address":""},{"poiid":"B2094757D06FA4FB4092","title":"大润发(华漕店)","lon":"121.30579811","lat":"31.203054714","category":"118","category_name":"超级市场","address":"闵行区华漕镇繁兴路399弄2号(保乐路繁兴路)"},{"poiid":"B2094757D168A7FF4892","title":"上海虹桥火车站12号检票口","lon":"121.32102018","lat":"31.193093224","category":"22","category_name":"火车站","address":"上海虹桥火车站(二号线直达)"},{"poiid":"B2094757D168A7FF439D","title":"虹桥西交通中心","lon":"121.31839806","lat":"31.1933658699","category":"500","category_name":"未知分类","address":"上海虹桥枢纽"},{"poiid":"B2094757D16BA4F84098","title":"汉庭快捷酒店虹桥枢纽二店","lon":"121.30279656","lat":"31.208728344","category":"217","category_name":"旅馆招待所","address":"老北翟路4800号(天山西路华翔路口)"},{"poiid":"B2094753DA6FA7F94092","title":"上海虹桥机场T2航站楼","lon":"121.306015","lat":"31.207004","category":"500","category_name":"未知分类","address":"上海市 上海虹桥机场"},{"poiid":"B2094655D36CA7FF449F","title":"红星村","lon":"121.312","lat":"31.2044","category":"38","category_name":"公交车站","address":"华翔路1900弄"},{"poiid":"B2094757D069A1FB429F","title":"COSTA 虹桥枢纽店","lon":"121.32012456","lat":"31.1929008601","category":"500","category_name":"未知分类","address":"闵行区虹桥火车站B1楼35商铺(近十号口)"},{"poiid":"B2094757D568A5FE459E","title":"上海市闵行区华漕爱博幼儿园","lon":"121.31048882","lat":"31.20514323","category":"57","category_name":"幼儿园","address":"中国上海市闵行区"},{"poiid":"B2094757D16BA4F4479C","title":"上海虹桥火车站B16检票口","lon":"121.32082986","lat":"31.1927864577","category":"22","category_name":"火车站","address":"上海市闵行区虹桥火车站"},{"poiid":"B2094750D16AA2FE4198","title":"尚古酒店","lon":"121.3129","lat":"31.20919","category":"76","category_name":"上海菜","address":"闵行区宁虹路1199号(近申滨路)"},{"poiid":"B2094757D06AA7FE479B","title":"虹桥火车站B19检票口","lon":"121.32116335","lat":"31.193026022","category":"22","category_name":"火车站","address":"上海虹桥站"},{"poiid":"B2094757D06AAAF4429D","title":"宁虹路申滨路","lon":"121.308636937","lat":"31.2083389931","category":"500","category_name":"未知分类","address":"上海闵行区宁虹路申滨路"},{"poiid":"B2094751D569A3FA409B","title":"虹桥机场一号航站楼A10登机口","lon":"121.313942","lat":"31.204624","category":"500","category_name":"未知分类","address":null},{"poiid":"B2094757D165A0F8429C","title":"东方既白(虹桥火车站店)","lon":"121.31790256","lat":"31.193736877","category":"68","category_name":"快餐厅","address":"闵行区虹桥火车站B1楼15-16商铺"},{"poiid":"B2094655D264A1FD489F","title":"爱博一村(西门)","lon":"121.30989","lat":"31.20514","category":"47","category_name":"住宅区","address":""},{"poiid":"B2094757D66EAAFA429B","title":"爱博家园食堂","lon":"121.30933006","lat":"31.203938593","category":"247","category_name":"餐饮美食","address":"上海宁虹路1101弄100号"},{"poiid":"B2094750D465A2F9479E","title":"闵行区新虹桥社区卫生服务中心","lon":"121.310379","lat":"31.203531","category":"252","category_name":"楼宇机构","address":"申滨路618号"},{"poiid":"B2094757D06AA3FD479D","title":"大娘水饺 虹桥火车站店","lon":"121.312361","lat":"31.193727","category":"257","category_name":"中餐厅","address":"闵行区虹桥火车站B1楼"},{"poiid":"B2094757D76DA0F4409E","title":"金古源豪生大酒店西餐厅","lon":"121.30403","lat":"31.20054","category":"94","category_name":"西餐厅","address":"华翔路1989号上海虹桥金古源豪生大酒店1楼近兴虹路"},{"poiid":"B2094757D065ABFB409D","title":"永和大王(虹桥高铁出发店)","lon":"121.320344894","lat":"31.1937505447","category":"68","category_name":"快餐厅","address":"长宁区虹桥高铁出发处3楼0-26号"},{"poiid":"B2094655D265A3FB409F","title":"上海市公安局闵行分局交通警察支队七中队","lon":"121.30884","lat":"31.2034","category":"250","category_name":"公园户外","address":""},{"poiid":"B2094757D06FABF8409C","title":"味千拉面(虹桥高铁店)","lon":"121.321520227","lat":"31.1927024055","category":"95","category_name":"日本料理","address":"长宁区虹桥高铁站B1楼"},{"poiid":"B2094757D66DA5FF439D","title":"中环高架","lon":"121.31004656","lat":"31.207013157","category":"500","category_name":"未知分类","address":"上海市闵行区天山西路"},{"poiid":"B2094757D66FA1FA4493","title":"杭州华辰国际饭店","lon":"121.31060056","lat":"31.2062901426","category":"500","category_name":"未知分类","address":"上海杭州平海路25号"},{"poiid":"B2094655D265A3FB409C","title":"爱博二村(3号门)","lon":"121.30737","lat":"31.20524","category":"47","category_name":"住宅区","address":""},{"poiid":"B2094757DA6EAAFB469F","title":"上海虹桥商务区管委会","lon":"121.316084099998","lat":"31.2057881000003","category":"263","category_name":"公司","address":"闵行区申虹路33号"},{"poiid":"B2094654D56AA1F4499E","title":"董记煎饼包子店","lon":"121.31411","lat":"31.20774","category":"257","category_name":"中餐厅","address":"吴翟路"},{"poiid":"B2094750D76DA6FC409C","title":"丽国饭店","lon":"121.31","lat":"31.2101","category":"76","category_name":"上海菜","address":"长宁区申滨路爱博三村会所附近(近宁虹路)"},{"poiid":"B2094757DA6FA3FC4892","title":"真功夫(虹桥火车站店)","lon":"121.320869999999","lat":"31.1971500000001","category":"68","category_name":"快餐厅","address":"普陀区真光路1288号百联购物广场B1楼(近梅川路)"},{"poiid":"B2094757D069A0FF459F","title":"康师傅私房牛肉面 快捷店","lon":"121.31780322","lat":"31.193711177","category":"257","category_name":"中餐厅","address":"闵行区虹桥火车站B1楼B1-13、B1-14商铺"},{"poiid":"B2094757D06EAAF54393","title":"虹桥火车站候车大厅","lon":"121.32087","lat":"31.19715","category":"22","category_name":"火车站","address":"上海虹桥火车站"},{"poiid":"B2094655D36CA4FE419E","title":"爱博家园","lon":"121.3085","lat":"31.20903","category":"38","category_name":"公交车站","address":"上海宁虹路"},{"poiid":"B2094757D66FA2FF4892","title":"上海虹桥火车站","lon":"121.32484","lat":"31.20248","category":"22","category_name":"火车站","address":"上海虹桥火车站"},{"poiid":"B2094655D36DA6FD449F","title":"虹桥火车站","lon":"121.32152","lat":"31.19268","category":"38","category_name":"公交车站","address":"闵行区虹桥枢纽申贵路(近地铁10号线虹桥火车站)"},{"poiid":"B2094757D068A0FD409E","title":"虹桥火车站B20检票口","lon":"121.32032156","lat":"31.193636875","category":"22","category_name":"火车站","address":"上海市闵行区七莘路"},{"poiid":"B2094757D06EAAF9429E","title":"虹桥火车站地铁站","lon":"121.321486","lat":"31.192675","category":"36","category_name":"地铁站","address":"上海轨道交通 二号线 十号线 轨交虹桥火车站站 2 10"},{"poiid":"B2094757D16EAAFD4598","title":"costa虹桥火车站","lon":"121.31736956","lat":"31.193946882","category":"65","category_name":"咖啡厅","address":"上海市闵行区苏虹路"},{"poiid":"B2094757D069A7FB469B","title":"上海虹桥金古源豪生大酒店","lon":"121.30384826","lat":"31.200029373","category":"217","category_name":"旅馆招待所","address":"闵行区华翔路1989号(近虹桥机场)"},{"poiid":"B2094757D16AA0F5409A","title":"虹桥火车站到达P9停车场","lon":"121.31151396","lat":"31.2037302886","category":"22","category_name":"火车站","address":"上海虹桥火车站到达P9停车场"},{"poiid":"B2094757D068A4FB409C","title":"小钱龙虾馆","lon":"121.2986","lat":"31.20417","category":"87","category_name":"特色／地方风味餐厅","address":"闵行区诸翟镇纪翟南路(联华路口)"},{"poiid":"B2094757D06FA5FB4992","title":"爱博一村","lon":"121.31182566","lat":"31.204816359","category":"500","category_name":"未知分类","address":"上海闵行区宁虹路1101弄"},{"poiid":"B2094757D06FA2F5479C","title":"麦当劳(虹桥火车站)","lon":"121.32033856","lat":"31.1932958684","category":"68","category_name":"快餐厅","address":"闵行区虹桥火车站候车厅楼上商铺JC-B2幢"},{"poiid":"B2094757D068A1FC4698","title":"爱博五村","lon":"121.30659063","lat":"31.211500932","category":"252","category_name":"楼宇机构","address":"上海市闵行区天山西路申滨路"},{"poiid":"B2094757D06FA1FB4492","title":"爱博家园二村","lon":"121.30612546","lat":"31.211087243","category":"47","category_name":"住宅区","address":"上海宁虹路申滨路"},{"poiid":"B2094757D16CA6F94798","title":"虹桥枢纽长途汽车站","lon":"121.3173604","lat":"31.193627565","category":"35","category_name":"长途汽车站","address":"上海申虹路298号"},{"poiid":"B2094757D068A4F8459F","title":"爱博三村","lon":"121.312302","lat":"31.20901","category":"47","category_name":"住宅区","address":"上海申滨路1058弄"},{"poiid":"B2094757D068A6FA439B","title":"上海虹桥火车站A14号检票口","lon":"121.32109147","lat":"31.1930984443","category":"260","category_name":"其他","address":"上海虹桥火车站"},{"poiid":"B2094751D56DA0FF4093","title":"星巴克(虹桥火车站店)","lon":"121.32214","lat":"31.19468","category":"247","category_name":"餐饮美食","address":"长宁区虹桥火车站B1-19号(近北6出口)"},{"poiid":"B2094757D068A4F9469F","title":"上海香港花园","lon":"121.30042","lat":"31.203123","category":"47","category_name":"住宅区","address":"上海市闵行区北翟路5188号"},{"poiid":"B2094655D265A2FE459E","title":"上海外国语大学闵行实验学校","lon":"121.30887","lat":"31.20327","category":"55","category_name":"中学","address":""},{"poiid":"B2094757D06FA4FB4092","title":"大润发(华漕店)","lon":"121.30579811","lat":"31.203054714","category":"118","category_name":"超级市场","address":"闵行区华漕镇繁兴路399弄2号(保乐路繁兴路)"},{"poiid":"B2094757D168A7FF4892","title":"上海虹桥火车站12号检票口","lon":"121.32102018","lat":"31.193093224","category":"22","category_name":"火车站","address":"上海虹桥火车站(二号线直达)"},{"poiid":"B2094757D168A7FF439D","title":"虹桥西交通中心","lon":"121.31839806","lat":"31.1933658699","category":"500","category_name":"未知分类","address":"上海虹桥枢纽"},{"poiid":"B2094757D16BA4F84098","title":"汉庭快捷酒店虹桥枢纽二店","lon":"121.30279656","lat":"31.208728344","category":"217","category_name":"旅馆招待所","address":"老北翟路4800号(天山西路华翔路口)"},{"poiid":"B2094753DA6FA7F94092","title":"上海虹桥机场T2航站楼","lon":"121.306015","lat":"31.207004","category":"500","category_name":"未知分类","address":"上海市 上海虹桥机场"},{"poiid":"B2094655D36CA7FF449F","title":"红星村","lon":"121.312","lat":"31.2044","category":"38","category_name":"公交车站","address":"华翔路1900弄"},{"poiid":"B2094757D069A1FB429F","title":"COSTA 虹桥枢纽店","lon":"121.32012456","lat":"31.1929008601","category":"500","category_name":"未知分类","address":"闵行区虹桥火车站B1楼35商铺(近十号口)"},{"poiid":"B2094757D568A5FE459E","title":"上海市闵行区华漕爱博幼儿园","lon":"121.31048882","lat":"31.20514323","category":"57","category_name":"幼儿园","address":"中国上海市闵行区"},{"poiid":"B2094757D16BA4F4479C","title":"上海虹桥火车站B16检票口","lon":"121.32082986","lat":"31.1927864577","category":"22","category_name":"火车站","address":"上海市闵行区虹桥火车站"},{"poiid":"B2094750D16AA2FE4198","title":"尚古酒店","lon":"121.3129","lat":"31.20919","category":"76","category_name":"上海菜","address":"闵行区宁虹路1199号(近申滨路)"},{"poiid":"B2094757D06AA7FE479B","title":"虹桥火车站B19检票口","lon":"121.32116335","lat":"31.193026022","category":"22","category_name":"火车站","address":"上海虹桥站"},{"poiid":"B2094757D06AAAF4429D","title":"宁虹路申滨路","lon":"121.308636937","lat":"31.2083389931","category":"500","category_name":"未知分类","address":"上海闵行区宁虹路申滨路"},{"poiid":"B2094751D569A3FA409B","title":"虹桥机场一号航站楼A10登机口","lon":"121.313942","lat":"31.204624","category":"500","category_name":"未知分类","address":null},{"poiid":"B2094757D165A0F8429C","title":"东方既白(虹桥火车站店)","lon":"121.31790256","lat":"31.193736877","category":"68","category_name":"快餐厅","address":"闵行区虹桥火车站B1楼15-16商铺"},{"poiid":"B2094655D264A1FD489F","title":"爱博一村(西门)","lon":"121.30989","lat":"31.20514","category":"47","category_name":"住宅区","address":""},{"poiid":"B2094757D66EAAFA429B","title":"爱博家园食堂","lon":"121.30933006","lat":"31.203938593","category":"247","category_name":"餐饮美食","address":"上海宁虹路1101弄100号"},{"poiid":"B2094750D465A2F9479E","title":"闵行区新虹桥社区卫生服务中心","lon":"121.310379","lat":"31.203531","category":"252","category_name":"楼宇机构","address":"申滨路618号"},{"poiid":"B2094757D06AA3FD479D","title":"大娘水饺 虹桥火车站店","lon":"121.312361","lat":"31.193727","category":"257","category_name":"中餐厅","address":"闵行区虹桥火车站B1楼"},{"poiid":"B2094757D76DA0F4409E","title":"金古源豪生大酒店西餐厅","lon":"121.30403","lat":"31.20054","category":"94","category_name":"西餐厅","address":"华翔路1989号上海虹桥金古源豪生大酒店1楼近兴虹路"},{"poiid":"B2094757D065ABFB409D","title":"永和大王(虹桥高铁出发店)","lon":"121.320344894","lat":"31.1937505447","category":"68","category_name":"快餐厅","address":"长宁区虹桥高铁出发处3楼0-26号"},{"poiid":"B2094655D265A3FB409F","title":"上海市公安局闵行分局交通警察支队七中队","lon":"121.30884","lat":"31.2034","category":"250","category_name":"公园户外","address":""},{"poiid":"B2094757D06FABF8409C","title":"味千拉面(虹桥高铁店)","lon":"121.321520227","lat":"31.1927024055","category":"95","category_name":"日本料理","address":"长宁区虹桥高铁站B1楼"},{"poiid":"B2094757D66DA5FF439D","title":"中环高架","lon":"121.31004656","lat":"31.207013157","category":"500","category_name":"未知分类","address":"上海市闵行区天山西路"},{"poiid":"B2094757D66FA1FA4493","title":"杭州华辰国际饭店","lon":"121.31060056","lat":"31.2062901426","category":"500","category_name":"未知分类","address":"上海杭州平海路25号"},{"poiid":"B2094655D265A3FB409C","title":"爱博二村(3号门)","lon":"121.30737","lat":"31.20524","category":"47","category_name":"住宅区","address":""},{"poiid":"B2094757DA6EAAFB469F","title":"上海虹桥商务区管委会","lon":"121.316084099998","lat":"31.2057881000003","category":"263","category_name":"公司","address":"闵行区申虹路33号"},{"poiid":"B2094654D56AA1F4499E","title":"董记煎饼包子店","lon":"121.31411","lat":"31.20774","category":"257","category_name":"中餐厅","address":"吴翟路"},{"poiid":"B2094750D76DA6FC409C","title":"丽国饭店","lon":"121.31","lat":"31.2101","category":"76","category_name":"上海菜","address":"长宁区申滨路爱博三村会所附近(近宁虹路)"},{"poiid":"B2094757DA6FA3FC4892","title":"真功夫(虹桥火车站店)","lon":"121.320869999999","lat":"31.1971500000001","category":"68","category_name":"快餐厅","address":"普陀区真光路1288号百联购物广场B1楼(近梅川路)"},{"poiid":"B2094757D069A0FF459F","title":"康师傅私房牛肉面 快捷店","lon":"121.31780322","lat":"31.193711177","category":"257","category_name":"中餐厅","address":"闵行区虹桥火车站B1楼B1-13、B1-14商铺"},{"poiid":"B2094757D06EAAF54393","title":"虹桥火车站候车大厅","lon":"121.32087","lat":"31.19715","category":"22","category_name":"火车站","address":"上海虹桥火车站"},{"poiid":"B2094655D36CA4FE419E","title":"爱博家园","lon":"121.3085","lat":"31.20903","category":"38","category_name":"公交车站","address":"上海宁虹路"},{"poiid":"B2094757D66FA2FF4892","title":"上海虹桥火车站","lon":"121.32484","lat":"31.20248","category":"22","category_name":"火车站","address":"上海虹桥火车站"},{"poiid":"B2094655D36DA6FD449F","title":"虹桥火车站","lon":"121.32152","lat":"31.19268","category":"38","category_name":"公交车站","address":"闵行区虹桥枢纽申贵路(近地铁10号线虹桥火车站)"},{"poiid":"B2094757D068A0FD409E","title":"虹桥火车站B20检票口","lon":"121.32032156","lat":"31.193636875","category":"22","category_name":"火车站","address":"上海市闵行区七莘路"},{"poiid":"B2094757D06EAAF9429E","title":"虹桥火车站地铁站","lon":"121.321486","lat":"31.192675","category":"36","category_name":"地铁站","address":"上海轨道交通 二号线 十号线 轨交虹桥火车站站 2 10"},{"poiid":"B2094757D16EAAFD4598","title":"costa虹桥火车站","lon":"121.31736956","lat":"31.193946882","category":"65","category_name":"咖啡厅","address":"上海市闵行区苏虹路"},{"poiid":"B2094757D069A7FB469B","title":"上海虹桥金古源豪生大酒店","lon":"121.30384826","lat":"31.200029373","category":"217","category_name":"旅馆招待所","address":"闵行区华翔路1989号(近虹桥机场)"},{"poiid":"B2094757D16AA0F5409A","title":"虹桥火车站到达P9停车场","lon":"121.31151396","lat":"31.2037302886","category":"22","category_name":"火车站","address":"上海虹桥火车站到达P9停车场"},{"poiid":"B2094757D068A4FB409C","title":"小钱龙虾馆","lon":"121.2986","lat":"31.20417","category":"87","category_name":"特色／地方风味餐厅","address":"闵行区诸翟镇纪翟南路(联华路口)"},{"poiid":"B2094757D06FA5FB4992","title":"爱博一村","lon":"121.31182566","lat":"31.204816359","category":"500","category_name":"未知分类","address":"上海闵行区宁虹路1101弄"},{"poiid":"B2094757D06FA2F5479C","title":"麦当劳(虹桥火车站)","lon":"121.32033856","lat":"31.1932958684","category":"68","category_name":"快餐厅","address":"闵行区虹桥火车站候车厅楼上商铺JC-B2幢"},{"poiid":"B2094757D068A1FC4698","title":"爱博五村","lon":"121.30659063","lat":"31.211500932","category":"252","category_name":"楼宇机构","address":"上海市闵行区天山西路申滨路"},{"poiid":"B2094757D06FA1FB4492","title":"爱博家园二村","lon":"121.30612546","lat":"31.211087243","category":"47","category_name":"住宅区","address":"上海宁虹路申滨路"},{"poiid":"B2094757D16CA6F94798","title":"虹桥枢纽长途汽车站","lon":"121.3173604","lat":"31.193627565","category":"35","category_name":"长途汽车站","address":"上海申虹路298号"},{"poiid":"B2094757D068A4F8459F","title":"爱博三村","lon":"121.312302","lat":"31.20901","category":"47","category_name":"住宅区","address":"上海申滨路1058弄"},{"poiid":"B2094757D068A6FA439B","title":"上海虹桥火车站A14号检票口","lon":"121.32109147","lat":"31.1930984443","category":"260","category_name":"其他","address":"上海虹桥火车站"},{"poiid":"B2094751D56DA0FF4093","title":"星巴克(虹桥火车站店)","lon":"121.32214","lat":"31.19468","category":"247","category_name":"餐饮美食","address":"长宁区虹桥火车站B1-19号(近北6出口)"},{"poiid":"B2094757D068A4F9469F","title":"上海香港花园","lon":"121.30042","lat":"31.203123","category":"47","category_name":"住宅区","address":"上海市闵行区北翟路5188号"},{"poiid":"B2094655D265A2FE459E","title":"上海外国语大学闵行实验学校","lon":"121.30887","lat":"31.20327","category":"55","category_name":"中学","address":""},{"poiid":"B2094757D06FA4FB4092","title":"大润发(华漕店)","lon":"121.30579811","lat":"31.203054714","category":"118","category_name":"超级市场","address":"闵行区华漕镇繁兴路399弄2号(保乐路繁兴路)"},{"poiid":"B2094757D168A7FF4892","title":"上海虹桥火车站12号检票口","lon":"121.32102018","lat":"31.193093224","category":"22","category_name":"火车站","address":"上海虹桥火车站(二号线直达)"},{"poiid":"B2094757D168A7FF439D","title":"虹桥西交通中心","lon":"121.31839806","lat":"31.1933658699","category":"500","category_name":"未知分类","address":"上海虹桥枢纽"},{"poiid":"B2094757D16BA4F84098","title":"汉庭快捷酒店虹桥枢纽二店","lon":"121.30279656","lat":"31.208728344","category":"217","category_name":"旅馆招待所","address":"老北翟路4800号(天山西路华翔路口)"},{"poiid":"B2094753DA6FA7F94092","title":"上海虹桥机场T2航站楼","lon":"121.306015","lat":"31.207004","category":"500","category_name":"未知分类","address":"上海市 上海虹桥机场"},{"poiid":"B2094655D36CA7FF449F","title":"红星村","lon":"121.312","lat":"31.2044","category":"38","category_name":"公交车站","address":"华翔路1900弄"},{"poiid":"B2094757D069A1FB429F","title":"COSTA 虹桥枢纽店","lon":"121.32012456","lat":"31.1929008601","category":"500","category_name":"未知分类","address":"闵行区虹桥火车站B1楼35商铺(近十号口)"},{"poiid":"B2094757D568A5FE459E","title":"上海市闵行区华漕爱博幼儿园","lon":"121.31048882","lat":"31.20514323","category":"57","category_name":"幼儿园","address":"中国上海市闵行区"},{"poiid":"B2094757D16BA4F4479C","title":"上海虹桥火车站B16检票口","lon":"121.32082986","lat":"31.1927864577","category":"22","category_name":"火车站","address":"上海市闵行区虹桥火车站"},{"poiid":"B2094750D16AA2FE4198","title":"尚古酒店","lon":"121.3129","lat":"31.20919","category":"76","category_name":"上海菜","address":"闵行区宁虹路1199号(近申滨路)"},{"poiid":"B2094757D06AA7FE479B","title":"虹桥火车站B19检票口","lon":"121.32116335","lat":"31.193026022","category":"22","category_name":"火车站","address":"上海虹桥站"},{"poiid":"B2094757D06AAAF4429D","title":"宁虹路申滨路","lon":"121.308636937","lat":"31.2083389931","category":"500","category_name":"未知分类","address":"上海闵行区宁虹路申滨路"},{"poiid":"B2094751D569A3FA409B","title":"虹桥机场一号航站楼A10登机口","lon":"121.313942","lat":"31.204624","category":"500","category_name":"未知分类","address":null},{"poiid":"B2094757D165A0F8429C","title":"东方既白(虹桥火车站店)","lon":"121.31790256","lat":"31.193736877","category":"68","category_name":"快餐厅","address":"闵行区虹桥火车站B1楼15-16商铺"},{"poiid":"B2094655D264A1FD489F","title":"爱博一村(西门)","lon":"121.30989","lat":"31.20514","category":"47","category_name":"住宅区","address":""},{"poiid":"B2094757D66EAAFA429B","title":"爱博家园食堂","lon":"121.30933006","lat":"31.203938593","category":"247","category_name":"餐饮美食","address":"上海宁虹路1101弄100号"},{"poiid":"B2094750D465A2F9479E","title":"闵行区新虹桥社区卫生服务中心","lon":"121.310379","lat":"31.203531","category":"252","category_name":"楼宇机构","address":"申滨路618号"},{"poiid":"B2094757D06AA3FD479D","title":"大娘水饺 虹桥火车站店","lon":"121.312361","lat":"31.193727","category":"257","category_name":"中餐厅","address":"闵行区虹桥火车站B1楼"},{"poiid":"B2094757D76DA0F4409E","title":"金古源豪生大酒店西餐厅","lon":"121.30403","lat":"31.20054","category":"94","category_name":"西餐厅","address":"华翔路1989号上海虹桥金古源豪生大酒店1楼近兴虹路"},{"poiid":"B2094757D065ABFB409D","title":"永和大王(虹桥高铁出发店)","lon":"121.320344894","lat":"31.1937505447","category":"68","category_name":"快餐厅","address":"长宁区虹桥高铁出发处3楼0-26号"},{"poiid":"B2094655D265A3FB409F","title":"上海市公安局闵行分局交通警察支队七中队","lon":"121.30884","lat":"31.2034","category":"250","category_name":"公园户外","address":""},{"poiid":"B2094757D06FABF8409C","title":"味千拉面(虹桥高铁店)","lon":"121.321520227","lat":"31.1927024055","category":"95","category_name":"日本料理","address":"长宁区虹桥高铁站B1楼"},{"poiid":"B2094757D66DA5FF439D","title":"中环高架","lon":"121.31004656","lat":"31.207013157","category":"500","category_name":"未知分类","address":"上海市闵行区天山西路"},{"poiid":"B2094757D66FA1FA4493","title":"杭州华辰国际饭店","lon":"121.31060056","lat":"31.2062901426","category":"500","category_name":"未知分类","address":"上海杭州平海路25号"},{"poiid":"B2094655D265A3FB409C","title":"爱博二村(3号门)","lon":"121.30737","lat":"31.20524","category":"47","category_name":"住宅区","address":""},{"poiid":"B2094757DA6EAAFB469F","title":"上海虹桥商务区管委会","lon":"121.316084099998","lat":"31.2057881000003","category":"263","category_name":"公司","address":"闵行区申虹路33号"},{"poiid":"B2094654D56AA1F4499E","title":"董记煎饼包子店","lon":"121.31411","lat":"31.20774","category":"257","category_name":"中餐厅","address":"吴翟路"},{"poiid":"B2094750D76DA6FC409C","title":"丽国饭店","lon":"121.31","lat":"31.2101","category":"76","category_name":"上海菜","address":"长宁区申滨路爱博三村会所附近(近宁虹路)"},{"poiid":"B2094757DA6FA3FC4892","title":"真功夫(虹桥火车站店)","lon":"121.320869999999","lat":"31.1971500000001","category":"68","category_name":"快餐厅","address":"普陀区真光路1288号百联购物广场B1楼(近梅川路)"},{"poiid":"B2094757D069A0FF459F","title":"康师傅私房牛肉面 快捷店","lon":"121.31780322","lat":"31.193711177","category":"257","category_name":"中餐厅","address":"闵行区虹桥火车站B1楼B1-13、B1-14商铺"}]