[{"poiid":"B2094757D06FA4FB469C","title":"上海朱家角皇家金煦花园酒店","lon":"121.046175776","lat":"31.1057098282","category":"217","category_name":"旅馆招待所","address":"上海市青浦区朱家角浦祥路79号"},{"poiid":"B2094654DB64A3F44892","title":"上海朱家角古镇旅游区","lon":"121.0539","lat":"31.11422","category":"240","category_name":"国家级景点","address":"青浦朱家角翔宁浜763号"},{"poiid":"B2094757D06FA4F84892","title":"朱家角放生桥","lon":"121.056249","lat":"31.109932","category":"260","category_name":"其他","address":"青浦区朱家角镇漕港河"},{"poiid":"B2094757D66FA6FB409C","title":"东方绿舟体育训练基地","lon":"121.018679","lat":"31.099144","category":"260","category_name":"其他","address":"青浦区沪青平公路7000号东方绿舟内"},{"poiid":"B2094654DA6BA1F54192","title":"上海机场培训中心(虹珠苑)","lon":"121.03344","lat":"31.1057","category":"190","category_name":"培训机构","address":""},{"poiid":"B2094757D06FAAF8409D","title":"酒坛子饭桶","lon":"121.05434","lat":"31.10901","category":"76","category_name":"上海菜","address":"青浦区朱家角古镇泗景园路13号-1(近放生桥北大街)"},{"poiid":"B2094757D06AABF84699","title":"这儿","lon":"121.05384035","lat":"31.1118561871","category":"249","category_name":"购物服务","address":"上海近郊青浦区朱家角镇西井街118号(课植园对面)  "},{"poiid":"B2094757D069A4FC479B","title":"景苑水庄","lon":"121.05346","lat":"31.11489","category":"217","category_name":"旅馆招待所","address":"青浦区朱家角镇西井街300号"},{"poiid":"B2094757D069A0FB4899","title":"快乐饭店","lon":"121.03141","lat":"31.10114","category":"76","category_name":"上海菜","address":"青浦区沪青平公路6666号(近东方绿洲)"},{"poiid":"B2094654DA6BA1F54099","title":"上海市朱家角中学","lon":"121.04293","lat":"31.1024","category":"55","category_name":"中学","address":"青浦区朱家角镇沙家埭路88号(近珠安路)"},{"poiid":"B2094757D068A0FA4998","title":"西井汇","lon":"121.05414","lat":"31.11441","category":"260","category_name":"其他","address":"青浦区朱家角古镇西井街56号(近课植园)"},{"poiid":"B2094757D069A6FE469D","title":"朱家角课植园","lon":"121.05209","lat":"31.11428","category":"260","category_name":"其他","address":"青浦区朱家角镇西井街119号(近涌泉桥)(近涌泉桥)"},{"poiid":"B2094654DA6BA0FC499F","title":"绿都酒家","lon":"121.03313","lat":"31.10035","category":"76","category_name":"上海菜","address":"青浦区沪青平公路6666号(复兴路口)"},{"poiid":"B2094654DA6BA1F5419D","title":"绿舟别墅","lon":"121.02385552261","lat":"31.104551874875","category":"47","category_name":"住宅区","address":"沪青平公路6888号"},{"poiid":"B2094655D26FA3FC479A","title":"淀山湖河鲜馆","lon":"121.03517","lat":"31.09986","category":"76","category_name":"上海菜","address":"青浦区沪青平公路6666号(复兴路口)"},{"poiid":"B2094757D16CA5FD459B","title":"My way","lon":"121.05346854","lat":"31.107005412","category":"65","category_name":"咖啡厅","address":"青浦区古镇西湖街29-31号(近朱家角大清邮局)"},{"poiid":"B2094654DA6BA0FC4999","title":"一品鲜酒家","lon":"121.03337","lat":"31.10036","category":"88","category_name":"海鲜酒楼","address":"青浦区沪青平公路6666号东方绿洲东(复兴路口)"},{"poiid":"B2094757D06AA7F5419F","title":"虹珠苑(上海机场培训中心)","lon":"121.04178819","lat":"31.103758328","category":"47","category_name":"住宅区","address":"青浦区沪青平公路6658号"},{"poiid":"B2094750D664A1FE4398","title":"樟艾居","lon":"121.042","lat":"31.1001","category":"76","category_name":"上海菜","address":"青浦区朱家角镇龙星路666号(近沪青平路)"},{"poiid":"B2094654DA6BA0FC4992","title":"山湾农家乐","lon":"121.03253","lat":"31.10034","category":"257","category_name":"中餐厅","address":"青浦区朱家角沪青平公路6666号(复兴路口)"},{"poiid":"B2094757D464A7FF4998","title":"皇家金熙花园酒店 中餐厅","lon":"121.04493","lat":"31.10606","category":"72","category_name":"广东菜","address":"朱家角浦祥路79号皇家金煦花园酒店内近珠溪路"},{"poiid":"B2094654DA6BA0F4489F","title":"青浦区朱家角人民医院","lon":"121.05648","lat":"31.10909","category":"162","category_name":"医院","address":"青浦区新风路167号"},{"poiid":"B2094654DA6BA0FC499D","title":"小胖子农家菜","lon":"121.03262","lat":"31.10033","category":"257","category_name":"中餐厅","address":"朱家角镇"},{"poiid":"B2094757D168A4F4489C","title":"上海机场活动中心","lon":"121.02843582","lat":"31.107483013","category":"46","category_name":"楼宇","address":"上海青浦区沪青平公路"},{"poiid":"B2094757D06AA4F9459A","title":"胖胖河畔小吃","lon":"121.05576","lat":"31.10933","category":"76","category_name":"上海菜","address":"青浦区朱家角北大街186弄2号(美周弄新风路)"},{"poiid":"B2094654DB69A5FE4899","title":"肯德基 新风路店 KFC","lon":"121.056904054","lat":"31.109279793","category":"68","category_name":"快餐厅","address":"青浦区朱家角镇新风路148号(新溪路口)"},{"poiid":"B2094654DA6BA1F54098","title":"青浦区珠溪小学","lon":"121.04388","lat":"31.10543","category":"56","category_name":"小学","address":""},{"poiid":"B2094750D76DA2F84093","title":"放生桥菜馆","lon":"121.05","lat":"31.1049","category":"76","category_name":"上海菜","address":"青浦区朱家角镇北大街172号(近放生桥)"},{"poiid":"B2094757D164AAF44298","title":"淀山湖饭店","lon":"121.03320254","lat":"31.099858254","category":"247","category_name":"餐饮美食","address":"上海市青浦区沪青平公路"},{"poiid":"B2094757D169ABF4429B","title":"盛永隆","lon":"121.046363","lat":"31.103485","category":"68","category_name":"快餐厅","address":"青浦区朱家角镇北大街260号"},{"poiid":"B2094655D36DA7FA4498","title":"珠溪路沙家埭路","lon":"121.04833","lat":"31.10602","category":"38","category_name":"公交车站","address":""},{"poiid":"B2094757D16EA7FC409F","title":"凹","lon":"121.0564","lat":"31.11056","category":"260","category_name":"其他","address":"青浦区西井街120号(课植园斜对面)"},{"poiid":"B2094757D76EA2FC459F","title":"无二茶乐 朱家角店","lon":"121.052447","lat":"31.107064","category":"66","category_name":"茶艺馆","address":"青浦区朱家角古镇漕河街10号(近大清邮局)"},{"poiid":"B2094757D16CA6FF449D","title":"漕溪人家酒楼","lon":"121.05429","lat":"31.10883","category":"76","category_name":"上海菜","address":"青浦区朱家角北大街242号"},{"poiid":"B2094750D56AA1F9449C","title":"中信泰富朱家角新城翠苑","lon":"121.044574","lat":"31.116259","category":"47","category_name":"住宅区","address":"青浦区朱家角珠溪路张家圩路"},{"poiid":"B2094654DA6BA0FC439D","title":"朱家角工商所","lon":"121.04763","lat":"31.10446","category":"250","category_name":"公园户外","address":""},{"poiid":"B2094757D66CAAFA4799","title":"红心闪闪农家菜","lon":"121.02091654","lat":"31.098394222","category":"247","category_name":"餐饮美食","address":"上海青浦区东方绿洲中心对面"},{"poiid":"B2094655D36CA0FF4293","title":"金家桥","lon":"121.02784","lat":"31.09937","category":"38","category_name":"公交车站","address":""},{"poiid":"B2094757D66DA6FF489E","title":"朱家角古镇停车场","lon":"121.04761604","lat":"31.11232663","category":"500","category_name":"未知分类","address":"上海市青浦区朱家角古镇新风路(近新溪路)"},{"poiid":"B2094750DB68A6FE4299","title":"猫的天空之城概念书店(朱家角店)","lon":"121.051673","lat":"31.108091","category":"125","category_name":"书店","address":"青浦区朱家角古镇漕河街19号"},{"poiid":"B2094655D36DA7FA4393","title":"珠湖路课植园路","lon":"121.04561","lat":"31.11381","category":"38","category_name":"公交车站","address":""},{"poiid":"B2094654DA6BA0FB489A","title":"乐湖新村","lon":"121.05101","lat":"31.10381","category":"47","category_name":"住宅区","address":""},{"poiid":"B2094654DA6BA0FD489D","title":"光明乳业朱家角块配送站","lon":"121.05042","lat":"31.10386","category":"117","category_name":"便民商店/便利店","address":""},{"poiid":"B2094757D065A2F8409B","title":"三阳小楼","lon":"121.056","lat":"31.11032","category":"76","category_name":"上海菜","address":"青浦区朱家角北大街186号(美周弄新风路)"},{"poiid":"B2094757D06AA1F5429B","title":"谭盾水乐堂","lon":"121.0567398","lat":"31.108604431","category":"162","category_name":"医院","address":"上海市青浦区朱家角古镇西井街漕港滩3号"},{"poiid":"B2094757D468AAF44692","title":"渭水园","lon":"121.05731","lat":"31.11401","category":"76","category_name":"上海菜","address":"青浦区朱家角镇北大街182号(近放生桥)"},{"poiid":"B2094654DB64A3F44893","title":"中国移动朱家角营业厅","lon":"121.05213","lat":"31.10502","category":"151","category_name":"电讯营业厅","address":"青浦区朱家角镇祥凝路860号"},{"poiid":"B2094753DA68A6FD479C","title":"中信泰富朱家角锦江酒店","lon":"121.052566","lat":"31.108947","category":"500","category_name":"未知分类","address":"上海市 朱家角镇珠湖路666号"},{"poiid":"B2094752D16BAAF8409B","title":"积木咖啡","lon":"121.054153","lat":"31.108292","category":"247","category_name":"餐饮美食","address":"上海青浦区朱家角古镇漕河街46_48号"},{"poiid":"B2094654DA6BA0FD4792","title":"东湖新村","lon":"121.05208","lat":"31.105131","category":"47","category_name":"住宅区","address":"祥凝浜路864号"},{"poiid":"B2094757D06FA4FB469C","title":"上海朱家角皇家金煦花园酒店","lon":"121.046175776","lat":"31.1057098282","category":"217","category_name":"旅馆招待所","address":"上海市青浦区朱家角浦祥路79号"},{"poiid":"B2094654DB64A3F44892","title":"上海朱家角古镇旅游区","lon":"121.0539","lat":"31.11422","category":"240","category_name":"国家级景点","address":"青浦朱家角翔宁浜763号"},{"poiid":"B2094757D06FA4F84892","title":"朱家角放生桥","lon":"121.056249","lat":"31.109932","category":"260","category_name":"其他","address":"青浦区朱家角镇漕港河"},{"poiid":"B2094757D66FA6FB409C","title":"东方绿舟体育训练基地","lon":"121.018679","lat":"31.099144","category":"260","category_name":"其他","address":"青浦区沪青平公路7000号东方绿舟内"},{"poiid":"B2094654DA6BA1F54192","title":"上海机场培训中心(虹珠苑)","lon":"121.03344","lat":"31.1057","category":"190","category_name":"培训机构","address":""},{"poiid":"B2094757D06FAAF8409D","title":"酒坛子饭桶","lon":"121.05434","lat":"31.10901","category":"76","category_name":"上海菜","address":"青浦区朱家角古镇泗景园路13号-1(近放生桥北大街)"},{"poiid":"B2094757D06AABF84699","title":"这儿","lon":"121.05384035","lat":"31.1118561871","category":"249","category_name":"购物服务","address":"上海近郊青浦区朱家角镇西井街118号(课植园对面)  "},{"poiid":"B2094757D069A4FC479B","title":"景苑水庄","lon":"121.05346","lat":"31.11489","category":"217","category_name":"旅馆招待所","address":"青浦区朱家角镇西井街300号"},{"poiid":"B2094757D069A0FB4899","title":"快乐饭店","lon":"121.03141","lat":"31.10114","category":"76","category_name":"上海菜","address":"青浦区沪青平公路6666号(近东方绿洲)"},{"poiid":"B2094654DA6BA1F54099","title":"上海市朱家角中学","lon":"121.04293","lat":"31.1024","category":"55","category_name":"中学","address":"青浦区朱家角镇沙家埭路88号(近珠安路)"},{"poiid":"B2094757D068A0FA4998","title":"西井汇","lon":"121.05414","lat":"31.11441","category":"260","category_name":"其他","address":"青浦区朱家角古镇西井街56号(近课植园)"},{"poiid":"B2094757D069A6FE469D","title":"朱家角课植园","lon":"121.05209","lat":"31.11428","category":"260","category_name":"其他","address":"青浦区朱家角镇西井街119号(近涌泉桥)(近涌泉桥)"},{"poiid":"B2094654DA6BA0FC499F","title":"绿都酒家","lon":"121.03313","lat":"31.10035","category":"76","category_name":"上海菜","address":"青浦区沪青平公路6666号(复兴路口)"},{"poiid":"B2094654DA6BA1F5419D","title":"绿舟别墅","lon":"121.02385552261","lat":"31.104551874875","category":"47","category_name":"住宅区","address":"沪青平公路6888号"},{"poiid":"B2094655D26FA3FC479A","title":"淀山湖河鲜馆","lon":"121.03517","lat":"31.09986","category":"76","category_name":"上海菜","address":"青浦区沪青平公路6666号(复兴路口)"},{"poiid":"B2094757D16CA5FD459B","title":"My way","lon":"121.05346854","lat":"31.107005412","category":"65","category_name":"咖啡厅","address":"青浦区古镇西湖街29-31号(近朱家角大清邮局)"},{"poiid":"B2094654DA6BA0FC4999","title":"一品鲜酒家","lon":"121.03337","lat":"31.10036","category":"88","category_name":"海鲜酒楼","address":"青浦区沪青平公路6666号东方绿洲东(复兴路口)"},{"poiid":"B2094757D06AA7F5419F","title":"虹珠苑(上海机场培训中心)","lon":"121.04178819","lat":"31.103758328","category":"47","category_name":"住宅区","address":"青浦区沪青平公路6658号"},{"poiid":"B2094750D664A1FE4398","title":"樟艾居","lon":"121.042","lat":"31.1001","category":"76","category_name":"上海菜","address":"青浦区朱家角镇龙星路666号(近沪青平路)"},{"poiid":"B2094654DA6BA0FC4992","title":"山湾农家乐","lon":"121.03253","lat":"31.10034","category":"257","category_name":"中餐厅","address":"青浦区朱家角沪青平公路6666号(复兴路口)"},{"poiid":"B2094757D464A7FF4998","title":"皇家金熙花园酒店 中餐厅","lon":"121.04493","lat":"31.10606","category":"72","category_name":"广东菜","address":"朱家角浦祥路79号皇家金煦花园酒店内近珠溪路"},{"poiid":"B2094654DA6BA0F4489F","title":"青浦区朱家角人民医院","lon":"121.05648","lat":"31.10909","category":"162","category_name":"医院","address":"青浦区新风路167号"},{"poiid":"B2094654DA6BA0FC499D","title":"小胖子农家菜","lon":"121.03262","lat":"31.10033","category":"257","category_name":"中餐厅","address":"朱家角镇"},{"poiid":"B2094757D168A4F4489C","title":"上海机场活动中心","lon":"121.02843582","lat":"31.107483013","category":"46","category_name":"楼宇","address":"上海青浦区沪青平公路"},{"poiid":"B2094757D06AA4F9459A","title":"胖胖河畔小吃","lon":"121.05576","lat":"31.10933","category":"76","category_name":"上海菜","address":"青浦区朱家角北大街186弄2号(美周弄新风路)"},{"poiid":"B2094654DB69A5FE4899","title":"肯德基 新风路店 KFC","lon":"121.056904054","lat":"31.109279793","category":"68","category_name":"快餐厅","address":"青浦区朱家角镇新风路148号(新溪路口)"},{"poiid":"B2094654DA6BA1F54098","title":"青浦区珠溪小学","lon":"121.04388","lat":"31.10543","category":"56","category_name":"小学","address":""},{"poiid":"B2094750D76DA2F84093","title":"放生桥菜馆","lon":"121.05","lat":"31.1049","category":"76","category_name":"上海菜","address":"青浦区朱家角镇北大街172号(近放生桥)"},{"poiid":"B2094757D164AAF44298","title":"淀山湖饭店","lon":"121.03320254","lat":"31.099858254","category":"247","category_name":"餐饮美食","address":"上海市青浦区沪青平公路"},{"poiid":"B2094757D169ABF4429B","title":"盛永隆","lon":"121.046363","lat":"31.103485","category":"68","category_name":"快餐厅","address":"青浦区朱家角镇北大街260号"},{"poiid":"B2094655D36DA7FA4498","title":"珠溪路沙家埭路","lon":"121.04833","lat":"31.10602","category":"38","category_name":"公交车站","address":""},{"poiid":"B2094757D16EA7FC409F","title":"凹","lon":"121.0564","lat":"31.11056","category":"260","category_name":"其他","address":"青浦区西井街120号(课植园斜对面)"},{"poiid":"B2094757D76EA2FC459F","title":"无二茶乐 朱家角店","lon":"121.052447","lat":"31.107064","category":"66","category_name":"茶艺馆","address":"青浦区朱家角古镇漕河街10号(近大清邮局)"},{"poiid":"B2094757D16CA6FF449D","title":"漕溪人家酒楼","lon":"121.05429","lat":"31.10883","category":"76","category_name":"上海菜","address":"青浦区朱家角北大街242号"},{"poiid":"B2094750D56AA1F9449C","title":"中信泰富朱家角新城翠苑","lon":"121.044574","lat":"31.116259","category":"47","category_name":"住宅区","address":"青浦区朱家角珠溪路张家圩路"},{"poiid":"B2094654DA6BA0FC439D","title":"朱家角工商所","lon":"121.04763","lat":"31.10446","category":"250","category_name":"公园户外","address":""},{"poiid":"B2094757D66CAAFA4799","title":"红心闪闪农家菜","lon":"121.02091654","lat":"31.098394222","category":"247","category_name":"餐饮美食","address":"上海青浦区东方绿洲中心对面"},{"poiid":"B2094655D36CA0FF4293","title":"金家桥","lon":"121.02784","lat":"31.09937","category":"38","category_name":"公交车站","address":""},{"poiid":"B2094757D66DA6FF489E","title":"朱家角古镇停车场","lon":"121.04761604","lat":"31.11232663","category":"500","category_name":"未知分类","address":"上海市青浦区朱家角古镇新风路(近新溪路)"},{"poiid":"B2094750DB68A6FE4299","title":"猫的天空之城概念书店(朱家角店)","lon":"121.051673","lat":"31.108091","category":"125","category_name":"书店","address":"青浦区朱家角古镇漕河街19号"},{"poiid":"B2094655D36DA7FA4393","title":"珠湖路课植园路","lon":"121.04561","lat":"31.11381","category":"38","category_name":"公交车站","address":""},{"poiid":"B2094654DA6BA0FB489A","title":"乐湖新村","lon":"121.05101","lat":"31.10381","category":"47","category_name":"住宅区","address":""},{"poiid":"B2094654DA6BA0FD489D","title":"光明乳业朱家角块配送站","lon":"121.05042","lat":"31.10386","category":"117","category_name":"便民商店/便利店","address":""},{"poiid":"B2094757D065A2F8409B","title":"三阳小楼","lon":"121.056","lat":"31.11032","category":"76","category_name":"上海菜","address":"青浦区朱家角北大街186号(美周弄新风路)"},{"poiid":"B2094757D06AA1F5429B","title":"谭盾水乐堂","lon":"121.0567398","lat":"31.108604431","category":"162","category_name":"医院","address":"上海市青浦区朱家角古镇西井街漕港滩3号"},{"poiid":"B2094757D468AAF44692","title":"渭水园","lon":"121.05731","lat":"31.11401","category":"76","category_name":"上海菜","address":"青浦区朱家角镇北大街182号(近放生桥)"},{"poiid":"B2094654DB64A3F44893","title":"中国移动朱家角营业厅","lon":"121.05213","lat":"31.10502","category":"151","category_name":"电讯营业厅","address":"青浦区朱家角镇祥凝路860号"},{"poiid":"B2094753DA68A6FD479C","title":"中信泰富朱家角锦江酒店","lon":"121.052566","lat":"31.108947","category":"500","category_name":"未知分类","address":"上海市 朱家角镇珠湖路666号"},{"poiid":"B2094752D16BAAF8409B","title":"积木咖啡","lon":"121.054153","lat":"31.108292","category":"247","category_name":"餐饮美食","address":"上海青浦区朱家角古镇漕河街46_48号"},{"poiid":"B2094654DA6BA0FD4792","title":"东湖新村","lon":"121.05208","lat":"31.105131","category":"47","category_name":"住宅区","address":"祥凝浜路864号"}]