[{"poiid":"B2094757D06EAAFA419E","title":"Mo-Mo牧场 Mo-Mo-Paradise","lon":"121.4577","lat":"31.22077","category":"268","category_name":"自助","address":"卢湾区陕西南路35号红房子2楼(近长乐路)"},{"poiid":"B2094654D564AAFD4699","title":"花园饭店","lon":"121.45981","lat":"31.21981","category":"213","category_name":"五星级宾馆","address":"卢湾区茂名南路58号(近淮海中路)"},{"poiid":"B2094654DB64A6F9459E","title":"星巴克(红房子店)","lon":"121.457575","lat":"31.220503","category":"65","category_name":"咖啡厅","address":"卢湾区陕西南路37号1-3楼(近长乐路)"},{"poiid":"B2094753D76FAAFA449C","title":"上海滩国泰旗舰店","lon":"121.466011","lat":"31.216125","category":"249","category_name":"购物服务","address":"淮海中路868号"},{"poiid":"B209475CD564A7F84292","title":"上海滩新天地店","lon":"121.47463","lat":"31.22164","category":"119","category_name":"商场","address":"\"太仓路181弄新天地北里15号\r\n\""},{"poiid":"B209475CD564A7F8439E","title":"上海滩中信泰富店","lon":"121.45602","lat":"31.22851","category":"119","category_name":"商场","address":"\"南京西路1168号中信泰富广场，店铺号221.\r\n\""},{"poiid":"B2094655D26AAAFC459F","title":"融合马来西亚餐厅","lon":"121.4594","lat":"31.21736","category":"110","category_name":"其他亚洲菜","address":"卢湾区淮海中路918号百盛购物中心8楼(近陕西南路)"},{"poiid":"B2094757D465A4F9439F","title":"PIER39号码头","lon":"121.458225054","lat":"31.220526793","category":"247","category_name":"餐饮美食","address":"进贤路172号近陕西南路"},{"poiid":"B2094757D464A7FE459F","title":"唐宫1号 锦江迪生店","lon":"121.459768054","lat":"31.220746793","category":"247","category_name":"餐饮美食","address":"卢湾区长乐路400号锦江迪生3-4楼(近茂名南路)"},{"poiid":"B2094757D06FA2FB479C","title":"一哥肥牛火锅海鲜酒家(陕西南路店)","lon":"121.45741","lat":"31.22059","category":"86","category_name":"火锅店","address":"上海卢湾区陕西南路122号2楼(近进贤路)  "},{"poiid":"B2094757D06FA4FC4292","title":"HARA海纳创作怀石料理","lon":"121.45766785","lat":"31.22077119","category":"95","category_name":"日本料理","address":"卢湾区陕西南路35号雅克红房子5楼(近进贤路)"},{"poiid":"B2094757D06FA6FE489E","title":"王品台塑牛排(长乐店)","lon":"121.45989","lat":"31.22049","category":"94","category_name":"西餐厅","address":"卢湾区长乐路400号锦江迪生商厦2楼(近茂名南路)"},{"poiid":"B2094757D06FA1F9419F","title":"滴水洞(茂名南路店)","lon":"121.4601","lat":"31.22061","category":"77","category_name":"湖南菜","address":"卢湾区茂名南路56号2楼(近长乐路)"},{"poiid":"B2094757D06FA2F5499C","title":"玲珑餐厅","lon":"121.45882","lat":"31.21798","category":"76","category_name":"上海菜","address":"卢湾区陕西南路57号(新乐路口)"},{"poiid":"B2094757D06FA6F94492","title":"Osteria","lon":"121.45836","lat":"31.22104","category":"94","category_name":"西餐厅","address":"卢湾区进贤路226号(近陕西南路)"},{"poiid":"B2094757D16EA3FC459B","title":"Bellissimo","lon":"121.458933538","lat":"31.2205624941","category":"94","category_name":"西餐厅","address":"卢湾区长乐路434弄7号1-3楼"},{"poiid":"B2094757D06FA0FC439E","title":"锦江迪生商厦","lon":"121.45968873","lat":"31.221020103","category":"119","category_name":"商场","address":"卢湾区长乐路400号(近茂名南路)"},{"poiid":"B2094655D26AABFB439F","title":"天鹅申阁西菜社","lon":"121.45926","lat":"31.22131","category":"247","category_name":"餐饮美食","address":"进贤路169号"},{"poiid":"B2094757D06FABF8459F","title":"Maison Pourcel","lon":"121.458155","lat":"31.220484","category":"94","category_name":"西餐厅","address":"卢湾区陕西南路35号6,8楼(近长乐路)"},{"poiid":"B2094750D66CABFE4592","title":"兰心大剧院","lon":"121.45774","lat":"31.219259","category":"248","category_name":"生活娱乐","address":"茂名南路57号"},{"poiid":"B2094655D26EABFF449F","title":"红房子法国餐厅","lon":"121.45700161625","lat":"31.220376111781","category":"97","category_name":"法式菜品餐厅","address":"陕西南路35号红房子楼房6-8楼近长乐路"},{"poiid":"B2094654DB64A6FC469F","title":"老夜上海","lon":"121.46046","lat":"31.22045","category":"76","category_name":"上海菜","address":"卢湾区茂名南路59号老锦江饭店北楼11-12楼(近长乐路)"},{"poiid":"B2094757D069A5FA489A","title":"Sugar","lon":"121.45750573","lat":"31.220635095","category":"260","category_name":"其他","address":"卢湾区陕西南路35号6楼(近长乐路)"},{"poiid":"B209475DDA68A2FA429E","title":"万岛日本料理铁板烧（锦江迪生店）","lon":"121.460075","lat":"31.220945","category":"247","category_name":"餐饮美食","address":"上海市 长乐路400号(近茂名南路)"},{"poiid":"B209475DD669A2FA499B","title":"馆子House198","lon":"121.458572","lat":"31.221391","category":"247","category_name":"餐饮美食","address":"上海市 卢湾区进贤路198号"},{"poiid":"B2094750DB6BA0F8489D","title":"徐小猫的店","lon":"121.458412","lat":"31.218978","category":"260","category_name":"其他","address":"卢湾区陕西南路39弄81号1楼(近新乐路)"},{"poiid":"B2094655D26FABFF429A","title":"Garden Books","lon":"121.4574","lat":"31.21998","category":"65","category_name":"咖啡厅","address":"长乐路325"},{"poiid":"B2094655D26AAAFE439D","title":"渝乡人家淮海路百盛店","lon":"121.4594","lat":"31.21736","category":"71","category_name":"四川菜","address":"卢湾区淮海中路918号百盛购物中心8楼(近陕西南路)"},{"poiid":"B2094757D06FA4F44099","title":"台湾小吃鲁肉饭(长乐店)","lon":"121.45939","lat":"31.22003","category":"68","category_name":"快餐厅","address":"卢湾区长乐路203号(近茂名南路)"},{"poiid":"B2094757D064A6FE479B","title":"味里日本料理","lon":"121.45764","lat":"31.22078","category":"95","category_name":"日本料理","address":"卢湾区陕西南路5-7号城市酒店6楼(近巨鹿路)"},{"poiid":"B2094757D068A1FF4293","title":"鸡大牌 陕西南路店","lon":"121.457501","lat":"31.220225","category":"68","category_name":"快餐厅","address":"卢湾区陕西南路162号"},{"poiid":"B2094757D16EA0FB4498","title":"花园饭店33楼欧陆法式餐厅","lon":"121.460312738","lat":"31.2179050375","category":"500","category_name":"未知分类","address":"上海市静安区茂名南路58号"},{"poiid":"B2094654DB64A7F9479B","title":"山里","lon":"121.459704054","lat":"31.220028793","category":"95","category_name":"日本料理","address":"卢湾区茂名南路58号花园饭店2楼(近淮海中路)"},{"poiid":"B2094757DA6FA2FC459A","title":"Lasedia(陕西南路店)","lon":"121.457498500001","lat":"31.2206229","category":"94","category_name":"西餐厅","address":"卢湾区陕西南路148号(近长乐路)"},{"poiid":"B2094750D76DABFD499A","title":"DEREFTER比利时餐厅啤酒吧","lon":"121.459","lat":"31.2214","category":"269","category_name":"烧烤","address":"进贤路181号(近茂名南路)"},{"poiid":"B2094757D06FABFC4092","title":"百盛购物中心超市","lon":"121.459173354","lat":"31.2173432528","category":"118","category_name":"超级市场","address":"卢湾区淮海中路918号百盛购物中心B1楼(近陕西南路)"},{"poiid":"B2094654DB65A2FD409A","title":"玫瑰咖啡厅","lon":"121.459704054","lat":"31.220028793","category":"268","category_name":"自助","address":"卢湾区茂名南路58号花园饭店1楼(近淮海中路)"},{"poiid":"B2094655D26EA5F44193","title":"阿毛饭店(富民店)","lon":"121.45826","lat":"31.21851","category":"76","category_name":"上海菜","address":"卢湾区陕西南路53号(近长乐路)"},{"poiid":"B2094757D068A6FB429E","title":"康骏会馆(长乐店)","lon":"121.459905","lat":"31.220958","category":"500","category_name":"未知分类","address":"卢湾区长乐路400号3楼(长乐路茂名南路)"},{"poiid":"B2094752D46CA3F54893","title":"吉米记车仔面","lon":"121.457565","lat":"31.220595","category":"247","category_name":"餐饮美食","address":null},{"poiid":"B2094750D56EA0F9499E","title":"雅克红房子","lon":"121.457679","lat":"31.220968","category":"247","category_name":"餐饮美食","address":"陕西南路35号"},{"poiid":"B2094757D069A4FC439C","title":"祖冲之路科苑路(张江高科地铁站)站","lon":"121.45736536","lat":"31.220134127","category":"36","category_name":"地铁站","address":"上海祖冲之路(161,188,609,636,778,桥六,桥五,东川,塘川,张江有轨,张江环,张南)"},{"poiid":"B2094751DA64A3FC4392","title":"DAISO大创生活馆","lon":"121.459449","lat":"31.219421","category":"249","category_name":"购物服务","address":"上海市淮海中路900号B1"},{"poiid":"B2094757D168A0F94993","title":"一龙居酒屋","lon":"121.458361038","lat":"31.2203407894","category":"95","category_name":"日本料理","address":"卢湾区长乐路207号"},{"poiid":"B2094757D06AA7FD429C","title":"FC日式造型(锦江迪生店)","lon":"121.459907","lat":"31.220695","category":"260","category_name":"其他","address":"上海卢湾区长乐路400号锦江迪生3楼(近茂名南路)"},{"poiid":"B2094757D06FAAFA4098","title":"乐太郎","lon":"121.45997","lat":"31.22049","category":"95","category_name":"日本料理","address":"卢湾区长乐路398号1楼B1(近茂名南路)"},{"poiid":"B2094654DB64A5F54093","title":"山茶花铁板烧","lon":"121.459704054","lat":"31.220028793","category":"269","category_name":"烧烤","address":"卢湾区茂名南路58号花园饭店33楼(近淮海中路)"},{"poiid":"B2094655D26EA2F84192","title":"福烤锦花","lon":"121.45827","lat":"31.22018","category":"269","category_name":"烧烤","address":"卢湾区长乐路223号(近陕西南路)"},{"poiid":"B2094655D268A6FF469F","title":"南蛮子","lon":"121.45924","lat":"31.22137","category":"83","category_name":"云贵菜","address":"卢湾区进贤路169号56食尚谷E区2楼(近茂名南路)"},{"poiid":"B2094757D66EA2FD489D","title":"松板烤肉","lon":"121.460966738","lat":"31.2190270614","category":"247","category_name":"餐饮美食","address":"上海茂名南路"},{"poiid":"B2094757D06EAAFA419E","title":"Mo-Mo牧场 Mo-Mo-Paradise","lon":"121.4577","lat":"31.22077","category":"268","category_name":"自助","address":"卢湾区陕西南路35号红房子2楼(近长乐路)"},{"poiid":"B2094654D564AAFD4699","title":"花园饭店","lon":"121.45981","lat":"31.21981","category":"213","category_name":"五星级宾馆","address":"卢湾区茂名南路58号(近淮海中路)"},{"poiid":"B2094654DB64A6F9459E","title":"星巴克(红房子店)","lon":"121.457575","lat":"31.220503","category":"65","category_name":"咖啡厅","address":"卢湾区陕西南路37号1-3楼(近长乐路)"},{"poiid":"B2094753D76FAAFA449C","title":"上海滩国泰旗舰店","lon":"121.466011","lat":"31.216125","category":"249","category_name":"购物服务","address":"淮海中路868号"},{"poiid":"B209475CD564A7F84292","title":"上海滩新天地店","lon":"121.47463","lat":"31.22164","category":"119","category_name":"商场","address":"\"太仓路181弄新天地北里15号\r\n\""},{"poiid":"B209475CD564A7F8439E","title":"上海滩中信泰富店","lon":"121.45602","lat":"31.22851","category":"119","category_name":"商场","address":"\"南京西路1168号中信泰富广场，店铺号221.\r\n\""},{"poiid":"B2094655D26AAAFC459F","title":"融合马来西亚餐厅","lon":"121.4594","lat":"31.21736","category":"110","category_name":"其他亚洲菜","address":"卢湾区淮海中路918号百盛购物中心8楼(近陕西南路)"},{"poiid":"B2094757D465A4F9439F","title":"PIER39号码头","lon":"121.458225054","lat":"31.220526793","category":"247","category_name":"餐饮美食","address":"进贤路172号近陕西南路"},{"poiid":"B2094757D464A7FE459F","title":"唐宫1号 锦江迪生店","lon":"121.459768054","lat":"31.220746793","category":"247","category_name":"餐饮美食","address":"卢湾区长乐路400号锦江迪生3-4楼(近茂名南路)"},{"poiid":"B2094757D06FA2FB479C","title":"一哥肥牛火锅海鲜酒家(陕西南路店)","lon":"121.45741","lat":"31.22059","category":"86","category_name":"火锅店","address":"上海卢湾区陕西南路122号2楼(近进贤路)  "},{"poiid":"B2094757D06FA4FC4292","title":"HARA海纳创作怀石料理","lon":"121.45766785","lat":"31.22077119","category":"95","category_name":"日本料理","address":"卢湾区陕西南路35号雅克红房子5楼(近进贤路)"},{"poiid":"B2094757D06FA6FE489E","title":"王品台塑牛排(长乐店)","lon":"121.45989","lat":"31.22049","category":"94","category_name":"西餐厅","address":"卢湾区长乐路400号锦江迪生商厦2楼(近茂名南路)"},{"poiid":"B2094757D06FA1F9419F","title":"滴水洞(茂名南路店)","lon":"121.4601","lat":"31.22061","category":"77","category_name":"湖南菜","address":"卢湾区茂名南路56号2楼(近长乐路)"},{"poiid":"B2094757D06FA2F5499C","title":"玲珑餐厅","lon":"121.45882","lat":"31.21798","category":"76","category_name":"上海菜","address":"卢湾区陕西南路57号(新乐路口)"},{"poiid":"B2094757D06FA6F94492","title":"Osteria","lon":"121.45836","lat":"31.22104","category":"94","category_name":"西餐厅","address":"卢湾区进贤路226号(近陕西南路)"},{"poiid":"B2094757D16EA3FC459B","title":"Bellissimo","lon":"121.458933538","lat":"31.2205624941","category":"94","category_name":"西餐厅","address":"卢湾区长乐路434弄7号1-3楼"},{"poiid":"B2094757D06FA0FC439E","title":"锦江迪生商厦","lon":"121.45968873","lat":"31.221020103","category":"119","category_name":"商场","address":"卢湾区长乐路400号(近茂名南路)"},{"poiid":"B2094655D26AABFB439F","title":"天鹅申阁西菜社","lon":"121.45926","lat":"31.22131","category":"247","category_name":"餐饮美食","address":"进贤路169号"},{"poiid":"B2094757D06FABF8459F","title":"Maison Pourcel","lon":"121.458155","lat":"31.220484","category":"94","category_name":"西餐厅","address":"卢湾区陕西南路35号6,8楼(近长乐路)"},{"poiid":"B2094750D66CABFE4592","title":"兰心大剧院","lon":"121.45774","lat":"31.219259","category":"248","category_name":"生活娱乐","address":"茂名南路57号"},{"poiid":"B2094655D26EABFF449F","title":"红房子法国餐厅","lon":"121.45700161625","lat":"31.220376111781","category":"97","category_name":"法式菜品餐厅","address":"陕西南路35号红房子楼房6-8楼近长乐路"},{"poiid":"B2094654DB64A6FC469F","title":"老夜上海","lon":"121.46046","lat":"31.22045","category":"76","category_name":"上海菜","address":"卢湾区茂名南路59号老锦江饭店北楼11-12楼(近长乐路)"},{"poiid":"B2094757D069A5FA489A","title":"Sugar","lon":"121.45750573","lat":"31.220635095","category":"260","category_name":"其他","address":"卢湾区陕西南路35号6楼(近长乐路)"},{"poiid":"B209475DDA68A2FA429E","title":"万岛日本料理铁板烧（锦江迪生店）","lon":"121.460075","lat":"31.220945","category":"247","category_name":"餐饮美食","address":"上海市 长乐路400号(近茂名南路)"},{"poiid":"B209475DD669A2FA499B","title":"馆子House198","lon":"121.458572","lat":"31.221391","category":"247","category_name":"餐饮美食","address":"上海市 卢湾区进贤路198号"},{"poiid":"B2094750DB6BA0F8489D","title":"徐小猫的店","lon":"121.458412","lat":"31.218978","category":"260","category_name":"其他","address":"卢湾区陕西南路39弄81号1楼(近新乐路)"},{"poiid":"B2094655D26FABFF429A","title":"Garden Books","lon":"121.4574","lat":"31.21998","category":"65","category_name":"咖啡厅","address":"长乐路325"},{"poiid":"B2094655D26AAAFE439D","title":"渝乡人家淮海路百盛店","lon":"121.4594","lat":"31.21736","category":"71","category_name":"四川菜","address":"卢湾区淮海中路918号百盛购物中心8楼(近陕西南路)"},{"poiid":"B2094757D06FA4F44099","title":"台湾小吃鲁肉饭(长乐店)","lon":"121.45939","lat":"31.22003","category":"68","category_name":"快餐厅","address":"卢湾区长乐路203号(近茂名南路)"},{"poiid":"B2094757D064A6FE479B","title":"味里日本料理","lon":"121.45764","lat":"31.22078","category":"95","category_name":"日本料理","address":"卢湾区陕西南路5-7号城市酒店6楼(近巨鹿路)"},{"poiid":"B2094757D068A1FF4293","title":"鸡大牌 陕西南路店","lon":"121.457501","lat":"31.220225","category":"68","category_name":"快餐厅","address":"卢湾区陕西南路162号"},{"poiid":"B2094757D16EA0FB4498","title":"花园饭店33楼欧陆法式餐厅","lon":"121.460312738","lat":"31.2179050375","category":"500","category_name":"未知分类","address":"上海市静安区茂名南路58号"},{"poiid":"B2094654DB64A7F9479B","title":"山里","lon":"121.459704054","lat":"31.220028793","category":"95","category_name":"日本料理","address":"卢湾区茂名南路58号花园饭店2楼(近淮海中路)"},{"poiid":"B2094757DA6FA2FC459A","title":"Lasedia(陕西南路店)","lon":"121.457498500001","lat":"31.2206229","category":"94","category_name":"西餐厅","address":"卢湾区陕西南路148号(近长乐路)"},{"poiid":"B2094750D76DABFD499A","title":"DEREFTER比利时餐厅啤酒吧","lon":"121.459","lat":"31.2214","category":"269","category_name":"烧烤","address":"进贤路181号(近茂名南路)"},{"poiid":"B2094757D06FABFC4092","title":"百盛购物中心超市","lon":"121.459173354","lat":"31.2173432528","category":"118","category_name":"超级市场","address":"卢湾区淮海中路918号百盛购物中心B1楼(近陕西南路)"},{"poiid":"B2094654DB65A2FD409A","title":"玫瑰咖啡厅","lon":"121.459704054","lat":"31.220028793","category":"268","category_name":"自助","address":"卢湾区茂名南路58号花园饭店1楼(近淮海中路)"},{"poiid":"B2094655D26EA5F44193","title":"阿毛饭店(富民店)","lon":"121.45826","lat":"31.21851","category":"76","category_name":"上海菜","address":"卢湾区陕西南路53号(近长乐路)"},{"poiid":"B2094757D068A6FB429E","title":"康骏会馆(长乐店)","lon":"121.459905","lat":"31.220958","category":"500","category_name":"未知分类","address":"卢湾区长乐路400号3楼(长乐路茂名南路)"},{"poiid":"B2094752D46CA3F54893","title":"吉米记车仔面","lon":"121.457565","lat":"31.220595","category":"247","category_name":"餐饮美食","address":null},{"poiid":"B2094750D56EA0F9499E","title":"雅克红房子","lon":"121.457679","lat":"31.220968","category":"247","category_name":"餐饮美食","address":"陕西南路35号"},{"poiid":"B2094757D069A4FC439C","title":"祖冲之路科苑路(张江高科地铁站)站","lon":"121.45736536","lat":"31.220134127","category":"36","category_name":"地铁站","address":"上海祖冲之路(161,188,609,636,778,桥六,桥五,东川,塘川,张江有轨,张江环,张南)"},{"poiid":"B2094751DA64A3FC4392","title":"DAISO大创生活馆","lon":"121.459449","lat":"31.219421","category":"249","category_name":"购物服务","address":"上海市淮海中路900号B1"},{"poiid":"B2094757D168A0F94993","title":"一龙居酒屋","lon":"121.458361038","lat":"31.2203407894","category":"95","category_name":"日本料理","address":"卢湾区长乐路207号"},{"poiid":"B2094757D06AA7FD429C","title":"FC日式造型(锦江迪生店)","lon":"121.459907","lat":"31.220695","category":"260","category_name":"其他","address":"上海卢湾区长乐路400号锦江迪生3楼(近茂名南路)"},{"poiid":"B2094757D06FAAFA4098","title":"乐太郎","lon":"121.45997","lat":"31.22049","category":"95","category_name":"日本料理","address":"卢湾区长乐路398号1楼B1(近茂名南路)"},{"poiid":"B2094654DB64A5F54093","title":"山茶花铁板烧","lon":"121.459704054","lat":"31.220028793","category":"269","category_name":"烧烤","address":"卢湾区茂名南路58号花园饭店33楼(近淮海中路)"},{"poiid":"B2094655D26EA2F84192","title":"福烤锦花","lon":"121.45827","lat":"31.22018","category":"269","category_name":"烧烤","address":"卢湾区长乐路223号(近陕西南路)"},{"poiid":"B2094655D268A6FF469F","title":"南蛮子","lon":"121.45924","lat":"31.22137","category":"83","category_name":"云贵菜","address":"卢湾区进贤路169号56食尚谷E区2楼(近茂名南路)"},{"poiid":"B2094757D66EA2FD489D","title":"松板烤肉","lon":"121.460966738","lat":"31.2190270614","category":"247","category_name":"餐饮美食","address":"上海茂名南路"},{"poiid":"B2094757D06EAAFA419E","title":"Mo-Mo牧场 Mo-Mo-Paradise","lon":"121.4577","lat":"31.22077","category":"268","category_name":"自助","address":"卢湾区陕西南路35号红房子2楼(近长乐路)"},{"poiid":"B2094654D564AAFD4699","title":"花园饭店","lon":"121.45981","lat":"31.21981","category":"213","category_name":"五星级宾馆","address":"卢湾区茂名南路58号(近淮海中路)"},{"poiid":"B2094654DB64A6F9459E","title":"星巴克(红房子店)","lon":"121.457575","lat":"31.220503","category":"65","category_name":"咖啡厅","address":"卢湾区陕西南路37号1-3楼(近长乐路)"},{"poiid":"B2094753D76FAAFA449C","title":"上海滩国泰旗舰店","lon":"121.466011","lat":"31.216125","category":"249","category_name":"购物服务","address":"淮海中路868号"},{"poiid":"B209475CD564A7F84292","title":"上海滩新天地店","lon":"121.47463","lat":"31.22164","category":"119","category_name":"商场","address":"\"太仓路181弄新天地北里15号\r\n\""},{"poiid":"B209475CD564A7F8439E","title":"上海滩中信泰富店","lon":"121.45602","lat":"31.22851","category":"119","category_name":"商场","address":"\"南京西路1168号中信泰富广场，店铺号221.\r\n\""},{"poiid":"B2094655D26AAAFC459F","title":"融合马来西亚餐厅","lon":"121.4594","lat":"31.21736","category":"110","category_name":"其他亚洲菜","address":"卢湾区淮海中路918号百盛购物中心8楼(近陕西南路)"},{"poiid":"B2094757D465A4F9439F","title":"PIER39号码头","lon":"121.458225054","lat":"31.220526793","category":"247","category_name":"餐饮美食","address":"进贤路172号近陕西南路"},{"poiid":"B2094757D464A7FE459F","title":"唐宫1号 锦江迪生店","lon":"121.459768054","lat":"31.220746793","category":"247","category_name":"餐饮美食","address":"卢湾区长乐路400号锦江迪生3-4楼(近茂名南路)"},{"poiid":"B2094757D06FA2FB479C","title":"一哥肥牛火锅海鲜酒家(陕西南路店)","lon":"121.45741","lat":"31.22059","category":"86","category_name":"火锅店","address":"上海卢湾区陕西南路122号2楼(近进贤路)  "},{"poiid":"B2094757D06FA4FC4292","title":"HARA海纳创作怀石料理","lon":"121.45766785","lat":"31.22077119","category":"95","category_name":"日本料理","address":"卢湾区陕西南路35号雅克红房子5楼(近进贤路)"},{"poiid":"B2094757D06FA6FE489E","title":"王品台塑牛排(长乐店)","lon":"121.45989","lat":"31.22049","category":"94","category_name":"西餐厅","address":"卢湾区长乐路400号锦江迪生商厦2楼(近茂名南路)"},{"poiid":"B2094757D06FA1F9419F","title":"滴水洞(茂名南路店)","lon":"121.4601","lat":"31.22061","category":"77","category_name":"湖南菜","address":"卢湾区茂名南路56号2楼(近长乐路)"},{"poiid":"B2094757D06FA2F5499C","title":"玲珑餐厅","lon":"121.45882","lat":"31.21798","category":"76","category_name":"上海菜","address":"卢湾区陕西南路57号(新乐路口)"},{"poiid":"B2094757D06FA6F94492","title":"Osteria","lon":"121.45836","lat":"31.22104","category":"94","category_name":"西餐厅","address":"卢湾区进贤路226号(近陕西南路)"},{"poiid":"B2094757D16EA3FC459B","title":"Bellissimo","lon":"121.458933538","lat":"31.2205624941","category":"94","category_name":"西餐厅","address":"卢湾区长乐路434弄7号1-3楼"},{"poiid":"B2094757D06FA0FC439E","title":"锦江迪生商厦","lon":"121.45968873","lat":"31.221020103","category":"119","category_name":"商场","address":"卢湾区长乐路400号(近茂名南路)"},{"poiid":"B2094655D26AABFB439F","title":"天鹅申阁西菜社","lon":"121.45926","lat":"31.22131","category":"247","category_name":"餐饮美食","address":"进贤路169号"},{"poiid":"B2094757D06FABF8459F","title":"Maison Pourcel","lon":"121.458155","lat":"31.220484","category":"94","category_name":"西餐厅","address":"卢湾区陕西南路35号6,8楼(近长乐路)"},{"poiid":"B2094750D66CABFE4592","title":"兰心大剧院","lon":"121.45774","lat":"31.219259","category":"248","category_name":"生活娱乐","address":"茂名南路57号"},{"poiid":"B2094655D26EABFF449F","title":"红房子法国餐厅","lon":"121.45700161625","lat":"31.220376111781","category":"97","category_name":"法式菜品餐厅","address":"陕西南路35号红房子楼房6-8楼近长乐路"},{"poiid":"B2094654DB64A6FC469F","title":"老夜上海","lon":"121.46046","lat":"31.22045","category":"76","category_name":"上海菜","address":"卢湾区茂名南路59号老锦江饭店北楼11-12楼(近长乐路)"},{"poiid":"B2094757D069A5FA489A","title":"Sugar","lon":"121.45750573","lat":"31.220635095","category":"260","category_name":"其他","address":"卢湾区陕西南路35号6楼(近长乐路)"},{"poiid":"B209475DDA68A2FA429E","title":"万岛日本料理铁板烧（锦江迪生店）","lon":"121.460075","lat":"31.220945","category":"247","category_name":"餐饮美食","address":"上海市 长乐路400号(近茂名南路)"},{"poiid":"B209475DD669A2FA499B","title":"馆子House198","lon":"121.458572","lat":"31.221391","category":"247","category_name":"餐饮美食","address":"上海市 卢湾区进贤路198号"},{"poiid":"B2094750DB6BA0F8489D","title":"徐小猫的店","lon":"121.458412","lat":"31.218978","category":"260","category_name":"其他","address":"卢湾区陕西南路39弄81号1楼(近新乐路)"},{"poiid":"B2094655D26FABFF429A","title":"Garden Books","lon":"121.4574","lat":"31.21998","category":"65","category_name":"咖啡厅","address":"长乐路325"},{"poiid":"B2094655D26AAAFE439D","title":"渝乡人家淮海路百盛店","lon":"121.4594","lat":"31.21736","category":"71","category_name":"四川菜","address":"卢湾区淮海中路918号百盛购物中心8楼(近陕西南路)"},{"poiid":"B2094757D06FA4F44099","title":"台湾小吃鲁肉饭(长乐店)","lon":"121.45939","lat":"31.22003","category":"68","category_name":"快餐厅","address":"卢湾区长乐路203号(近茂名南路)"},{"poiid":"B2094757D064A6FE479B","title":"味里日本料理","lon":"121.45764","lat":"31.22078","category":"95","category_name":"日本料理","address":"卢湾区陕西南路5-7号城市酒店6楼(近巨鹿路)"},{"poiid":"B2094757D068A1FF4293","title":"鸡大牌 陕西南路店","lon":"121.457501","lat":"31.220225","category":"68","category_name":"快餐厅","address":"卢湾区陕西南路162号"},{"poiid":"B2094757D16EA0FB4498","title":"花园饭店33楼欧陆法式餐厅","lon":"121.460312738","lat":"31.2179050375","category":"500","category_name":"未知分类","address":"上海市静安区茂名南路58号"},{"poiid":"B2094654DB64A7F9479B","title":"山里","lon":"121.459704054","lat":"31.220028793","category":"95","category_name":"日本料理","address":"卢湾区茂名南路58号花园饭店2楼(近淮海中路)"},{"poiid":"B2094757DA6FA2FC459A","title":"Lasedia(陕西南路店)","lon":"121.457498500001","lat":"31.2206229","category":"94","category_name":"西餐厅","address":"卢湾区陕西南路148号(近长乐路)"},{"poiid":"B2094750D76DABFD499A","title":"DEREFTER比利时餐厅啤酒吧","lon":"121.459","lat":"31.2214","category":"269","category_name":"烧烤","address":"进贤路181号(近茂名南路)"},{"poiid":"B2094757D06FABFC4092","title":"百盛购物中心超市","lon":"121.459173354","lat":"31.2173432528","category":"118","category_name":"超级市场","address":"卢湾区淮海中路918号百盛购物中心B1楼(近陕西南路)"},{"poiid":"B2094654DB65A2FD409A","title":"玫瑰咖啡厅","lon":"121.459704054","lat":"31.220028793","category":"268","category_name":"自助","address":"卢湾区茂名南路58号花园饭店1楼(近淮海中路)"},{"poiid":"B2094655D26EA5F44193","title":"阿毛饭店(富民店)","lon":"121.45826","lat":"31.21851","category":"76","category_name":"上海菜","address":"卢湾区陕西南路53号(近长乐路)"},{"poiid":"B2094757D068A6FB429E","title":"康骏会馆(长乐店)","lon":"121.459905","lat":"31.220958","category":"500","category_name":"未知分类","address":"卢湾区长乐路400号3楼(长乐路茂名南路)"},{"poiid":"B2094752D46CA3F54893","title":"吉米记车仔面","lon":"121.457565","lat":"31.220595","category":"247","category_name":"餐饮美食","address":null},{"poiid":"B2094750D56EA0F9499E","title":"雅克红房子","lon":"121.457679","lat":"31.220968","category":"247","category_name":"餐饮美食","address":"陕西南路35号"},{"poiid":"B2094757D069A4FC439C","title":"祖冲之路科苑路(张江高科地铁站)站","lon":"121.45736536","lat":"31.220134127","category":"36","category_name":"地铁站","address":"上海祖冲之路(161,188,609,636,778,桥六,桥五,东川,塘川,张江有轨,张江环,张南)"},{"poiid":"B2094751DA64A3FC4392","title":"DAISO大创生活馆","lon":"121.459449","lat":"31.219421","category":"249","category_name":"购物服务","address":"上海市淮海中路900号B1"},{"poiid":"B2094757D168A0F94993","title":"一龙居酒屋","lon":"121.458361038","lat":"31.2203407894","category":"95","category_name":"日本料理","address":"卢湾区长乐路207号"},{"poiid":"B2094757D06AA7FD429C","title":"FC日式造型(锦江迪生店)","lon":"121.459907","lat":"31.220695","category":"260","category_name":"其他","address":"上海卢湾区长乐路400号锦江迪生3楼(近茂名南路)"},{"poiid":"B2094757D06FAAFA4098","title":"乐太郎","lon":"121.45997","lat":"31.22049","category":"95","category_name":"日本料理","address":"卢湾区长乐路398号1楼B1(近茂名南路)"},{"poiid":"B2094654DB64A5F54093","title":"山茶花铁板烧","lon":"121.459704054","lat":"31.220028793","category":"269","category_name":"烧烤","address":"卢湾区茂名南路58号花园饭店33楼(近淮海中路)"},{"poiid":"B2094655D26EA2F84192","title":"福烤锦花","lon":"121.45827","lat":"31.22018","category":"269","category_name":"烧烤","address":"卢湾区长乐路223号(近陕西南路)"},{"poiid":"B2094655D268A6FF469F","title":"南蛮子","lon":"121.45924","lat":"31.22137","category":"83","category_name":"云贵菜","address":"卢湾区进贤路169号56食尚谷E区2楼(近茂名南路)"},{"poiid":"B2094757D66EA2FD489D","title":"松板烤肉","lon":"121.460966738","lat":"31.2190270614","category":"247","category_name":"餐饮美食","address":"上海茂名南路"},{"poiid":"B2094757D06EAAFA419E","title":"Mo-Mo牧场 Mo-Mo-Paradise","lon":"121.4577","lat":"31.22077","category":"268","category_name":"自助","address":"卢湾区陕西南路35号红房子2楼(近长乐路)"},{"poiid":"B2094654D564AAFD4699","title":"花园饭店","lon":"121.45981","lat":"31.21981","category":"213","category_name":"五星级宾馆","address":"卢湾区茂名南路58号(近淮海中路)"},{"poiid":"B2094654DB64A6F9459E","title":"星巴克(红房子店)","lon":"121.457575","lat":"31.220503","category":"65","category_name":"咖啡厅","address":"卢湾区陕西南路37号1-3楼(近长乐路)"},{"poiid":"B2094753D76FAAFA449C","title":"上海滩国泰旗舰店","lon":"121.466011","lat":"31.216125","category":"249","category_name":"购物服务","address":"淮海中路868号"},{"poiid":"B209475CD564A7F84292","title":"上海滩新天地店","lon":"121.47463","lat":"31.22164","category":"119","category_name":"商场","address":"\"太仓路181弄新天地北里15号\r\n\""},{"poiid":"B209475CD564A7F8439E","title":"上海滩中信泰富店","lon":"121.45602","lat":"31.22851","category":"119","category_name":"商场","address":"\"南京西路1168号中信泰富广场，店铺号221.\r\n\""},{"poiid":"B2094655D26AAAFC459F","title":"融合马来西亚餐厅","lon":"121.4594","lat":"31.21736","category":"110","category_name":"其他亚洲菜","address":"卢湾区淮海中路918号百盛购物中心8楼(近陕西南路)"},{"poiid":"B2094757D465A4F9439F","title":"PIER39号码头","lon":"121.458225054","lat":"31.220526793","category":"247","category_name":"餐饮美食","address":"进贤路172号近陕西南路"},{"poiid":"B2094757D464A7FE459F","title":"唐宫1号 锦江迪生店","lon":"121.459768054","lat":"31.220746793","category":"247","category_name":"餐饮美食","address":"卢湾区长乐路400号锦江迪生3-4楼(近茂名南路)"},{"poiid":"B2094757D06FA2FB479C","title":"一哥肥牛火锅海鲜酒家(陕西南路店)","lon":"121.45741","lat":"31.22059","category":"86","category_name":"火锅店","address":"上海卢湾区陕西南路122号2楼(近进贤路)  "},{"poiid":"B2094757D06FA4FC4292","title":"HARA海纳创作怀石料理","lon":"121.45766785","lat":"31.22077119","category":"95","category_name":"日本料理","address":"卢湾区陕西南路35号雅克红房子5楼(近进贤路)"},{"poiid":"B2094757D06FA6FE489E","title":"王品台塑牛排(长乐店)","lon":"121.45989","lat":"31.22049","category":"94","category_name":"西餐厅","address":"卢湾区长乐路400号锦江迪生商厦2楼(近茂名南路)"},{"poiid":"B2094757D06FA1F9419F","title":"滴水洞(茂名南路店)","lon":"121.4601","lat":"31.22061","category":"77","category_name":"湖南菜","address":"卢湾区茂名南路56号2楼(近长乐路)"},{"poiid":"B2094757D06FA2F5499C","title":"玲珑餐厅","lon":"121.45882","lat":"31.21798","category":"76","category_name":"上海菜","address":"卢湾区陕西南路57号(新乐路口)"},{"poiid":"B2094757D06FA6F94492","title":"Osteria","lon":"121.45836","lat":"31.22104","category":"94","category_name":"西餐厅","address":"卢湾区进贤路226号(近陕西南路)"},{"poiid":"B2094757D16EA3FC459B","title":"Bellissimo","lon":"121.458933538","lat":"31.2205624941","category":"94","category_name":"西餐厅","address":"卢湾区长乐路434弄7号1-3楼"},{"poiid":"B2094757D06FA0FC439E","title":"锦江迪生商厦","lon":"121.45968873","lat":"31.221020103","category":"119","category_name":"商场","address":"卢湾区长乐路400号(近茂名南路)"},{"poiid":"B2094655D26AABFB439F","title":"天鹅申阁西菜社","lon":"121.45926","lat":"31.22131","category":"247","category_name":"餐饮美食","address":"进贤路169号"},{"poiid":"B2094757D06FABF8459F","title":"Maison Pourcel","lon":"121.458155","lat":"31.220484","category":"94","category_name":"西餐厅","address":"卢湾区陕西南路35号6,8楼(近长乐路)"},{"poiid":"B2094750D66CABFE4592","title":"兰心大剧院","lon":"121.45774","lat":"31.219259","category":"248","category_name":"生活娱乐","address":"茂名南路57号"},{"poiid":"B2094655D26EABFF449F","title":"红房子法国餐厅","lon":"121.45700161625","lat":"31.220376111781","category":"97","category_name":"法式菜品餐厅","address":"陕西南路35号红房子楼房6-8楼近长乐路"},{"poiid":"B2094654DB64A6FC469F","title":"老夜上海","lon":"121.46046","lat":"31.22045","category":"76","category_name":"上海菜","address":"卢湾区茂名南路59号老锦江饭店北楼11-12楼(近长乐路)"},{"poiid":"B2094757D069A5FA489A","title":"Sugar","lon":"121.45750573","lat":"31.220635095","category":"260","category_name":"其他","address":"卢湾区陕西南路35号6楼(近长乐路)"},{"poiid":"B209475DDA68A2FA429E","title":"万岛日本料理铁板烧（锦江迪生店）","lon":"121.460075","lat":"31.220945","category":"247","category_name":"餐饮美食","address":"上海市 长乐路400号(近茂名南路)"},{"poiid":"B209475DD669A2FA499B","title":"馆子House198","lon":"121.458572","lat":"31.221391","category":"247","category_name":"餐饮美食","address":"上海市 卢湾区进贤路198号"},{"poiid":"B2094750DB6BA0F8489D","title":"徐小猫的店","lon":"121.458412","lat":"31.218978","category":"260","category_name":"其他","address":"卢湾区陕西南路39弄81号1楼(近新乐路)"},{"poiid":"B2094655D26FABFF429A","title":"Garden Books","lon":"121.4574","lat":"31.21998","category":"65","category_name":"咖啡厅","address":"长乐路325"},{"poiid":"B2094655D26AAAFE439D","title":"渝乡人家淮海路百盛店","lon":"121.4594","lat":"31.21736","category":"71","category_name":"四川菜","address":"卢湾区淮海中路918号百盛购物中心8楼(近陕西南路)"},{"poiid":"B2094757D06FA4F44099","title":"台湾小吃鲁肉饭(长乐店)","lon":"121.45939","lat":"31.22003","category":"68","category_name":"快餐厅","address":"卢湾区长乐路203号(近茂名南路)"},{"poiid":"B2094757D064A6FE479B","title":"味里日本料理","lon":"121.45764","lat":"31.22078","category":"95","category_name":"日本料理","address":"卢湾区陕西南路5-7号城市酒店6楼(近巨鹿路)"},{"poiid":"B2094757D068A1FF4293","title":"鸡大牌 陕西南路店","lon":"121.457501","lat":"31.220225","category":"68","category_name":"快餐厅","address":"卢湾区陕西南路162号"},{"poiid":"B2094757D16EA0FB4498","title":"花园饭店33楼欧陆法式餐厅","lon":"121.460312738","lat":"31.2179050375","category":"500","category_name":"未知分类","address":"上海市静安区茂名南路58号"},{"poiid":"B2094654DB64A7F9479B","title":"山里","lon":"121.459704054","lat":"31.220028793","category":"95","category_name":"日本料理","address":"卢湾区茂名南路58号花园饭店2楼(近淮海中路)"},{"poiid":"B2094757DA6FA2FC459A","title":"Lasedia(陕西南路店)","lon":"121.457498500001","lat":"31.2206229","category":"94","category_name":"西餐厅","address":"卢湾区陕西南路148号(近长乐路)"},{"poiid":"B2094750D76DABFD499A","title":"DEREFTER比利时餐厅啤酒吧","lon":"121.459","lat":"31.2214","category":"269","category_name":"烧烤","address":"进贤路181号(近茂名南路)"},{"poiid":"B2094757D06FABFC4092","title":"百盛购物中心超市","lon":"121.459173354","lat":"31.2173432528","category":"118","category_name":"超级市场","address":"卢湾区淮海中路918号百盛购物中心B1楼(近陕西南路)"},{"poiid":"B2094654DB65A2FD409A","title":"玫瑰咖啡厅","lon":"121.459704054","lat":"31.220028793","category":"268","category_name":"自助","address":"卢湾区茂名南路58号花园饭店1楼(近淮海中路)"},{"poiid":"B2094655D26EA5F44193","title":"阿毛饭店(富民店)","lon":"121.45826","lat":"31.21851","category":"76","category_name":"上海菜","address":"卢湾区陕西南路53号(近长乐路)"},{"poiid":"B2094757D068A6FB429E","title":"康骏会馆(长乐店)","lon":"121.459905","lat":"31.220958","category":"500","category_name":"未知分类","address":"卢湾区长乐路400号3楼(长乐路茂名南路)"},{"poiid":"B2094752D46CA3F54893","title":"吉米记车仔面","lon":"121.457565","lat":"31.220595","category":"247","category_name":"餐饮美食","address":null},{"poiid":"B2094750D56EA0F9499E","title":"雅克红房子","lon":"121.457679","lat":"31.220968","category":"247","category_name":"餐饮美食","address":"陕西南路35号"},{"poiid":"B2094757D069A4FC439C","title":"祖冲之路科苑路(张江高科地铁站)站","lon":"121.45736536","lat":"31.220134127","category":"36","category_name":"地铁站","address":"上海祖冲之路(161,188,609,636,778,桥六,桥五,东川,塘川,张江有轨,张江环,张南)"},{"poiid":"B2094751DA64A3FC4392","title":"DAISO大创生活馆","lon":"121.459449","lat":"31.219421","category":"249","category_name":"购物服务","address":"上海市淮海中路900号B1"},{"poiid":"B2094757D168A0F94993","title":"一龙居酒屋","lon":"121.458361038","lat":"31.2203407894","category":"95","category_name":"日本料理","address":"卢湾区长乐路207号"},{"poiid":"B2094757D06AA7FD429C","title":"FC日式造型(锦江迪生店)","lon":"121.459907","lat":"31.220695","category":"260","category_name":"其他","address":"上海卢湾区长乐路400号锦江迪生3楼(近茂名南路)"},{"poiid":"B2094757D06FAAFA4098","title":"乐太郎","lon":"121.45997","lat":"31.22049","category":"95","category_name":"日本料理","address":"卢湾区长乐路398号1楼B1(近茂名南路)"},{"poiid":"B2094654DB64A5F54093","title":"山茶花铁板烧","lon":"121.459704054","lat":"31.220028793","category":"269","category_name":"烧烤","address":"卢湾区茂名南路58号花园饭店33楼(近淮海中路)"},{"poiid":"B2094655D26EA2F84192","title":"福烤锦花","lon":"121.45827","lat":"31.22018","category":"269","category_name":"烧烤","address":"卢湾区长乐路223号(近陕西南路)"},{"poiid":"B2094655D268A6FF469F","title":"南蛮子","lon":"121.45924","lat":"31.22137","category":"83","category_name":"云贵菜","address":"卢湾区进贤路169号56食尚谷E区2楼(近茂名南路)"},{"poiid":"B2094757D66EA2FD489D","title":"松板烤肉","lon":"121.460966738","lat":"31.2190270614","category":"247","category_name":"餐饮美食","address":"上海茂名南路"},{"poiid":"B2094757D06EAAFA419E","title":"Mo-Mo牧场 Mo-Mo-Paradise","lon":"121.4577","lat":"31.22077","category":"268","category_name":"自助","address":"卢湾区陕西南路35号红房子2楼(近长乐路)"},{"poiid":"B2094654D564AAFD4699","title":"花园饭店","lon":"121.45981","lat":"31.21981","category":"213","category_name":"五星级宾馆","address":"卢湾区茂名南路58号(近淮海中路)"},{"poiid":"B2094654DB64A6F9459E","title":"星巴克(红房子店)","lon":"121.457575","lat":"31.220503","category":"65","category_name":"咖啡厅","address":"卢湾区陕西南路37号1-3楼(近长乐路)"},{"poiid":"B2094753D76FAAFA449C","title":"上海滩国泰旗舰店","lon":"121.466011","lat":"31.216125","category":"249","category_name":"购物服务","address":"淮海中路868号"},{"poiid":"B209475CD564A7F84292","title":"上海滩新天地店","lon":"121.47463","lat":"31.22164","category":"119","category_name":"商场","address":"\"太仓路181弄新天地北里15号\r\n\""},{"poiid":"B209475CD564A7F8439E","title":"上海滩中信泰富店","lon":"121.45602","lat":"31.22851","category":"119","category_name":"商场","address":"\"南京西路1168号中信泰富广场，店铺号221.\r\n\""},{"poiid":"B2094655D26AAAFC459F","title":"融合马来西亚餐厅","lon":"121.4594","lat":"31.21736","category":"110","category_name":"其他亚洲菜","address":"卢湾区淮海中路918号百盛购物中心8楼(近陕西南路)"},{"poiid":"B2094757D465A4F9439F","title":"PIER39号码头","lon":"121.458225054","lat":"31.220526793","category":"247","category_name":"餐饮美食","address":"进贤路172号近陕西南路"},{"poiid":"B2094757D464A7FE459F","title":"唐宫1号 锦江迪生店","lon":"121.459768054","lat":"31.220746793","category":"247","category_name":"餐饮美食","address":"卢湾区长乐路400号锦江迪生3-4楼(近茂名南路)"},{"poiid":"B2094757D06FA2FB479C","title":"一哥肥牛火锅海鲜酒家(陕西南路店)","lon":"121.45741","lat":"31.22059","category":"86","category_name":"火锅店","address":"上海卢湾区陕西南路122号2楼(近进贤路)  "},{"poiid":"B2094757D06FA4FC4292","title":"HARA海纳创作怀石料理","lon":"121.45766785","lat":"31.22077119","category":"95","category_name":"日本料理","address":"卢湾区陕西南路35号雅克红房子5楼(近进贤路)"},{"poiid":"B2094757D06FA6FE489E","title":"王品台塑牛排(长乐店)","lon":"121.45989","lat":"31.22049","category":"94","category_name":"西餐厅","address":"卢湾区长乐路400号锦江迪生商厦2楼(近茂名南路)"},{"poiid":"B2094757D06FA1F9419F","title":"滴水洞(茂名南路店)","lon":"121.4601","lat":"31.22061","category":"77","category_name":"湖南菜","address":"卢湾区茂名南路56号2楼(近长乐路)"},{"poiid":"B2094757D06FA2F5499C","title":"玲珑餐厅","lon":"121.45882","lat":"31.21798","category":"76","category_name":"上海菜","address":"卢湾区陕西南路57号(新乐路口)"},{"poiid":"B2094757D06FA6F94492","title":"Osteria","lon":"121.45836","lat":"31.22104","category":"94","category_name":"西餐厅","address":"卢湾区进贤路226号(近陕西南路)"},{"poiid":"B2094757D16EA3FC459B","title":"Bellissimo","lon":"121.458933538","lat":"31.2205624941","category":"94","category_name":"西餐厅","address":"卢湾区长乐路434弄7号1-3楼"},{"poiid":"B2094757D06FA0FC439E","title":"锦江迪生商厦","lon":"121.45968873","lat":"31.221020103","category":"119","category_name":"商场","address":"卢湾区长乐路400号(近茂名南路)"},{"poiid":"B2094655D26AABFB439F","title":"天鹅申阁西菜社","lon":"121.45926","lat":"31.22131","category":"247","category_name":"餐饮美食","address":"进贤路169号"},{"poiid":"B2094757D06FABF8459F","title":"Maison Pourcel","lon":"121.458155","lat":"31.220484","category":"94","category_name":"西餐厅","address":"卢湾区陕西南路35号6,8楼(近长乐路)"},{"poiid":"B2094750D66CABFE4592","title":"兰心大剧院","lon":"121.45774","lat":"31.219259","category":"248","category_name":"生活娱乐","address":"茂名南路57号"},{"poiid":"B2094655D26EABFF449F","title":"红房子法国餐厅","lon":"121.45700161625","lat":"31.220376111781","category":"97","category_name":"法式菜品餐厅","address":"陕西南路35号红房子楼房6-8楼近长乐路"},{"poiid":"B2094654DB64A6FC469F","title":"老夜上海","lon":"121.46046","lat":"31.22045","category":"76","category_name":"上海菜","address":"卢湾区茂名南路59号老锦江饭店北楼11-12楼(近长乐路)"},{"poiid":"B2094757D069A5FA489A","title":"Sugar","lon":"121.45750573","lat":"31.220635095","category":"260","category_name":"其他","address":"卢湾区陕西南路35号6楼(近长乐路)"},{"poiid":"B209475DDA68A2FA429E","title":"万岛日本料理铁板烧（锦江迪生店）","lon":"121.460075","lat":"31.220945","category":"247","category_name":"餐饮美食","address":"上海市 长乐路400号(近茂名南路)"},{"poiid":"B209475DD669A2FA499B","title":"馆子House198","lon":"121.458572","lat":"31.221391","category":"247","category_name":"餐饮美食","address":"上海市 卢湾区进贤路198号"},{"poiid":"B2094750DB6BA0F8489D","title":"徐小猫的店","lon":"121.458412","lat":"31.218978","category":"260","category_name":"其他","address":"卢湾区陕西南路39弄81号1楼(近新乐路)"},{"poiid":"B2094655D26FABFF429A","title":"Garden Books","lon":"121.4574","lat":"31.21998","category":"65","category_name":"咖啡厅","address":"长乐路325"},{"poiid":"B2094655D26AAAFE439D","title":"渝乡人家淮海路百盛店","lon":"121.4594","lat":"31.21736","category":"71","category_name":"四川菜","address":"卢湾区淮海中路918号百盛购物中心8楼(近陕西南路)"},{"poiid":"B2094757D06FA4F44099","title":"台湾小吃鲁肉饭(长乐店)","lon":"121.45939","lat":"31.22003","category":"68","category_name":"快餐厅","address":"卢湾区长乐路203号(近茂名南路)"},{"poiid":"B2094757D064A6FE479B","title":"味里日本料理","lon":"121.45764","lat":"31.22078","category":"95","category_name":"日本料理","address":"卢湾区陕西南路5-7号城市酒店6楼(近巨鹿路)"},{"poiid":"B2094757D068A1FF4293","title":"鸡大牌 陕西南路店","lon":"121.457501","lat":"31.220225","category":"68","category_name":"快餐厅","address":"卢湾区陕西南路162号"},{"poiid":"B2094757D16EA0FB4498","title":"花园饭店33楼欧陆法式餐厅","lon":"121.460312738","lat":"31.2179050375","category":"500","category_name":"未知分类","address":"上海市静安区茂名南路58号"},{"poiid":"B2094654DB64A7F9479B","title":"山里","lon":"121.459704054","lat":"31.220028793","category":"95","category_name":"日本料理","address":"卢湾区茂名南路58号花园饭店2楼(近淮海中路)"},{"poiid":"B2094757DA6FA2FC459A","title":"Lasedia(陕西南路店)","lon":"121.457498500001","lat":"31.2206229","category":"94","category_name":"西餐厅","address":"卢湾区陕西南路148号(近长乐路)"},{"poiid":"B2094750D76DABFD499A","title":"DEREFTER比利时餐厅啤酒吧","lon":"121.459","lat":"31.2214","category":"269","category_name":"烧烤","address":"进贤路181号(近茂名南路)"},{"poiid":"B2094757D06FABFC4092","title":"百盛购物中心超市","lon":"121.459173354","lat":"31.2173432528","category":"118","category_name":"超级市场","address":"卢湾区淮海中路918号百盛购物中心B1楼(近陕西南路)"},{"poiid":"B2094654DB65A2FD409A","title":"玫瑰咖啡厅","lon":"121.459704054","lat":"31.220028793","category":"268","category_name":"自助","address":"卢湾区茂名南路58号花园饭店1楼(近淮海中路)"},{"poiid":"B2094655D26EA5F44193","title":"阿毛饭店(富民店)","lon":"121.45826","lat":"31.21851","category":"76","category_name":"上海菜","address":"卢湾区陕西南路53号(近长乐路)"},{"poiid":"B2094757D068A6FB429E","title":"康骏会馆(长乐店)","lon":"121.459905","lat":"31.220958","category":"500","category_name":"未知分类","address":"卢湾区长乐路400号3楼(长乐路茂名南路)"},{"poiid":"B2094752D46CA3F54893","title":"吉米记车仔面","lon":"121.457565","lat":"31.220595","category":"247","category_name":"餐饮美食","address":null},{"poiid":"B2094750D56EA0F9499E","title":"雅克红房子","lon":"121.457679","lat":"31.220968","category":"247","category_name":"餐饮美食","address":"陕西南路35号"},{"poiid":"B2094757D069A4FC439C","title":"祖冲之路科苑路(张江高科地铁站)站","lon":"121.45736536","lat":"31.220134127","category":"36","category_name":"地铁站","address":"上海祖冲之路(161,188,609,636,778,桥六,桥五,东川,塘川,张江有轨,张江环,张南)"},{"poiid":"B2094751DA64A3FC4392","title":"DAISO大创生活馆","lon":"121.459449","lat":"31.219421","category":"249","category_name":"购物服务","address":"上海市淮海中路900号B1"},{"poiid":"B2094757D168A0F94993","title":"一龙居酒屋","lon":"121.458361038","lat":"31.2203407894","category":"95","category_name":"日本料理","address":"卢湾区长乐路207号"},{"poiid":"B2094757D06AA7FD429C","title":"FC日式造型(锦江迪生店)","lon":"121.459907","lat":"31.220695","category":"260","category_name":"其他","address":"上海卢湾区长乐路400号锦江迪生3楼(近茂名南路)"},{"poiid":"B2094757D06FAAFA4098","title":"乐太郎","lon":"121.45997","lat":"31.22049","category":"95","category_name":"日本料理","address":"卢湾区长乐路398号1楼B1(近茂名南路)"},{"poiid":"B2094654DB64A5F54093","title":"山茶花铁板烧","lon":"121.459704054","lat":"31.220028793","category":"269","category_name":"烧烤","address":"卢湾区茂名南路58号花园饭店33楼(近淮海中路)"},{"poiid":"B2094655D26EA2F84192","title":"福烤锦花","lon":"121.45827","lat":"31.22018","category":"269","category_name":"烧烤","address":"卢湾区长乐路223号(近陕西南路)"},{"poiid":"B2094655D268A6FF469F","title":"南蛮子","lon":"121.45924","lat":"31.22137","category":"83","category_name":"云贵菜","address":"卢湾区进贤路169号56食尚谷E区2楼(近茂名南路)"},{"poiid":"B2094757D66EA2FD489D","title":"松板烤肉","lon":"121.460966738","lat":"31.2190270614","category":"247","category_name":"餐饮美食","address":"上海茂名南路"}]