[{"poiid":"B2094757D06FA2FF4192","title":"小三堂","lon":"121.47002777","lat":"31.2076806496","category":"91","category_name":"台湾菜","address":"卢湾区泰康路25号上海琉璃艺术博物馆1楼(思南路泰康路)"},{"poiid":"B2094757D16CA3FA409F","title":"上海谦刺青","lon":"121.471876238","lat":"31.2107683855","category":"260","category_name":"其他","address":"徐汇区永嘉路527弄4号"},{"poiid":"B2094757D16DA2F4479A","title":"山茶花韩国料理","lon":"121.4702382","lat":"31.207302181","category":"247","category_name":"餐饮美食","address":"上海卢湾徐家汇路618号日月光广场F4"},{"poiid":"B2094753D76FAAFA449C","title":"上海滩国泰旗舰店","lon":"121.466011","lat":"31.216125","category":"249","category_name":"购物服务","address":"淮海中路868号"},{"poiid":"B209475CD564A7F84292","title":"上海滩新天地店","lon":"121.47463","lat":"31.22164","category":"119","category_name":"商场","address":"\"太仓路181弄新天地北里15号\r\n\""},{"poiid":"B209475CD564A7F8439E","title":"上海滩中信泰富店","lon":"121.45602","lat":"31.22851","category":"119","category_name":"商场","address":"\"南京西路1168号中信泰富广场，店铺号221.\r\n\""},{"poiid":"B2094757D06FA0FB439B","title":"白玉兰剧场","lon":"121.47266","lat":"31.20947","category":"179","category_name":"音乐厅","address":"卢湾区重庆南路308号(近建国中路)"},{"poiid":"B2094757D06FA2FE4499","title":"上海琉璃艺术博物馆","lon":"121.47013","lat":"31.20762","category":"182","category_name":"博物馆","address":"卢湾区泰康路25号(田子坊对面)"},{"poiid":"B2094757D66CABFF489E","title":"海底捞火锅","lon":"121.47142473","lat":"31.207495815","category":"247","category_name":"餐饮美食","address":"上海金玉兰广场"},{"poiid":"B2094757D068A3FF469B","title":"Mr.Choi PATISSERIE","lon":"121.47026773","lat":"31.207296811","category":"67","category_name":"甜品店","address":"上海徐家汇路618号日月光中心广场1楼F05室(近瑞金二路)"},{"poiid":"B2094654DB6AA3FC4398","title":"广发银行大厦","lon":"121.47289","lat":"31.20779","category":"46","category_name":"楼宇","address":"卢湾区徐家汇路555号"},{"poiid":"B2094757D06FAAFB489C","title":"思南路","lon":"121.471117","lat":"31.208571","category":"500","category_name":"未知分类","address":"上海思南路"},{"poiid":"B2094751D26BA4FF449D","title":"Besyo","lon":"121.472488","lat":"31.207275","category":"67","category_name":"甜品店","address":"卢湾区思南路111号-1(近泰康路)"},{"poiid":"B2094757D06FA2F9409D","title":"UP\\'s(田子坊店)","lon":"121.469356","lat":"31.20838","category":"94","category_name":"西餐厅","address":"上海卢湾区泰康路210弄7号1室(近思南路)"},{"poiid":"B2094751DA6DABF8419B","title":"米子咖啡MizziCafe","lon":"121.469881","lat":"31.207422","category":"247","category_name":"餐饮美食","address":"上海市徐家汇路618号1F-E-04室"},{"poiid":"B2094757D06FA2FE4198","title":"健康煮(日月光店)","lon":"121.47079246","lat":"31.207681244","category":"86","category_name":"火锅店","address":"卢湾区徐家汇路618号日月光中心广场B2楼F27号商铺(近9号线泰康路出口)"},{"poiid":"B2094757D168A1FE4398","title":"海底撈打浦路店","lon":"121.470297738","lat":"31.2072998116","category":"500","category_name":"未知分类","address":"上海卢湾区瑞金二路"},{"poiid":"B2094655D264A7FD4798","title":"8号桥创意园","lon":"121.47138","lat":"31.21065","category":"263","category_name":"公司","address":"建国中路8号"},{"poiid":"B2094757D56CA0F94999","title":"云朵 THE CLOUDS","lon":"121.469788","lat":"31.2078814","category":"110","category_name":"其他亚洲菜","address":"卢湾区泰康路200号(近思南路)"},{"poiid":"B2094757D06FA0FA429B","title":"南北高架徐家汇路轧道","lon":"121.47258517","lat":"31.209395591","category":"500","category_name":"未知分类","address":"上海南北高架徐家汇路轧道"},{"poiid":"B2094757D068A2FA439E","title":"KAKADU","lon":"121.471380904","lat":"31.2106511616","category":"94","category_name":"西餐厅","address":"卢湾区建国中路8号1104A座(近重庆南路)"},{"poiid":"B2094751D56CA4FB4699","title":"猫屎咖啡(泰康路店)","lon":"121.4696","lat":"31.20782","category":"247","category_name":"餐饮美食","address":"徐汇区泰康路210号"},{"poiid":"B2094655D26AA1FA429E","title":"意大利签证申请中心","lon":"121.47269","lat":"31.20769","category":"247","category_name":"餐饮美食","address":"徐汇区徐家汇路555号广东发展银行大厦3楼(近鲁班路)"},{"poiid":"B2094757D06FA7FC499E","title":"上海壹号美术馆","lon":"121.47197","lat":"31.20997","category":"179","category_name":"音乐厅","address":"卢湾区建国中路1号(近重庆南路)"},{"poiid":"B2094750D565A6FE449A","title":"Acqua Pazza","lon":"121.47149","lat":"31.21056","category":"94","category_name":"西餐厅","address":"卢湾区建国中路6号(近南北高架)"},{"poiid":"B2094757D06AA2FD459C","title":"食其家(日月光中心店)","lon":"121.46846","lat":"31.20648","category":"95","category_name":"日本料理","address":"卢湾区徐家汇路618号日月光中心广场(近瑞金二路)"},{"poiid":"B2094757D165A5F84398","title":"顺丰大酒店","lon":"121.470898738","lat":"31.2072998116","category":"247","category_name":"餐饮美食","address":"上海打浦路1号"},{"poiid":"B2094757D06AABFE499B","title":"汉庭海友客栈新天地店","lon":"121.47331237","lat":"31.209251403","category":"216","category_name":"经济型连锁酒店","address":"卢湾区重庆南路283号(近徐家汇路)"},{"poiid":"B2094655D26AA7FE439A","title":"申普宠物医院徐家汇路店","lon":"121.47192","lat":"31.20703","category":"247","category_name":"餐饮美食","address":"上海卢湾区徐家汇路565号(近打浦路)"},{"poiid":"B2094757D06FA5FA4799","title":"原味坊(八号桥店)","lon":"121.47149658","lat":"31.210737228","category":"67","category_name":"甜品店","address":"上海卢湾区建国中路10号8号楼8101(近重庆南路)"},{"poiid":"B2094757D069A0FE4992","title":"印度签证申请中心","lon":"121.47296","lat":"31.20742","category":"500","category_name":"未知分类","address":"卢湾区徐家汇路555号广东发展银行大厦1楼(近鲁班路)"},{"poiid":"B2094757D069ABFE4498","title":"广东发展银行(上海分行营业部)","lon":"121.47269047","lat":"31.207687226","category":"46","category_name":"楼宇","address":"上海卢湾区徐家汇路555号广发银行大厦1楼(近重庆南路)"},{"poiid":"B2094752D468A0F9439D","title":"香港龍鳳樓","lon":"121.472769","lat":"31.209387","category":"247","category_name":"餐饮美食","address":null},{"poiid":"B2094757D06BA4F9429A","title":"鲁班路徐家汇路","lon":"121.472943962","lat":"31.2082465125","category":"500","category_name":"未知分类","address":"上海鲁班路徐家汇路"},{"poiid":"B2094757D569A0FD439A","title":"汉庭全季酒店(上海新天地店)","lon":"121.47338325","lat":"31.20904243","category":"216","category_name":"经济型连锁酒店","address":"上海市黄浦区重庆南路283号(徐家汇路)"},{"poiid":"B2094757D06FA0FD4692","title":"多金多港式美食餐厅 日月光广场店","lon":"121.46812","lat":"31.20555","category":"72","category_name":"广东菜","address":"卢湾区徐家汇路618号日月光中心广场B2楼(近7-11超市)"},{"poiid":"B2094757D068A5F8439F","title":"中国建设银行(卢湾支行)","lon":"121.47144","lat":"31.20685","category":"150","category_name":"银行","address":"卢湾区徐家汇路530号二楼(思南路泰康路)"},{"poiid":"B2094655D26EA7FD4498","title":"上海电力大楼","lon":"121.47249","lat":"31.2087","category":"46","category_name":"楼宇","address":"广益路与江海东路交汇处(五洲·中华美食城)"},{"poiid":"B2094750DA69A0F54699","title":"澳大利亚签中中心","lon":"121.472793","lat":"31.208116","category":"252","category_name":"楼宇机构","address":"徐家汇路555号广发大厦"},{"poiid":"B2094654DA6EA3F5429A","title":"友谊时代大厦","lon":"121.471","lat":"31.2091","category":"46","category_name":"楼宇","address":"浦东临港新城主城区申港大道200号"},{"poiid":"B2094757D464A0F94999","title":"吴越人家 泰康店","lon":"121.47163531204","lat":"31.20814108047","category":"68","category_name":"快餐厅","address":"卢湾区泰康路5号(近思南路)"},{"poiid":"B2094751D264A5FF4598","title":"顺风大酒店","lon":"121.4695","lat":"31.20923","category":"247","category_name":"餐饮美食","address":null},{"poiid":"B2094757D165ABFB479E","title":"新旺","lon":"121.47008573","lat":"31.207144808","category":"500","category_name":"未知分类","address":"上海市卢湾区瑞金二路"},{"poiid":"B2094757D16FA1FD439F","title":"新西兰签证中心","lon":"121.47273473","lat":"31.207812822","category":"500","category_name":"未知分类","address":"上海市卢湾区徐家汇路555号广发大厦"},{"poiid":"B2094757D06FA7FB479E","title":"上海交通大学医学院新教学楼","lon":"121.47087573","lat":"31.208594739","category":"253","category_name":"校园生活","address":"上海卢湾区重庆南路227号(近思南路)"},{"poiid":"B2094750D76FA0FC419E","title":"MAOLIVEHOUSESHANGHAI","lon":"121.472","lat":"31.2097","category":"269","category_name":"烧烤","address":"重庆南路308号(近建国中路)"},{"poiid":"B2094654DB6BA5FB489E","title":"思南新苑","lon":"121.47042","lat":"31.208597","category":"47","category_name":"住宅区","address":"上海市卢湾区思南路88号"},{"poiid":"B2094757D06FAAFD489F","title":"香啡缤(建国中路店)","lon":"121.4712","lat":"31.21005","category":"260","category_name":"其他","address":"卢湾区建国中路25号9号楼9101A室(近南北高架)"},{"poiid":"B2094757D068AAFA429D","title":"国信商务大厦","lon":"121.47108873","lat":"31.209255853","category":"46","category_name":"楼宇","address":"上海市卢湾区建国中路29号"},{"poiid":"B2094654DA6EA3F44998","title":"上海泰坤堂中医医院","lon":"121.47221","lat":"31.20749","category":"162","category_name":"医院","address":"卢湾区斜徐路553号(近鲁班路)"},{"poiid":"B2094757D06FA2FF4192","title":"小三堂","lon":"121.47002777","lat":"31.2076806496","category":"91","category_name":"台湾菜","address":"卢湾区泰康路25号上海琉璃艺术博物馆1楼(思南路泰康路)"},{"poiid":"B2094757D16CA3FA409F","title":"上海谦刺青","lon":"121.471876238","lat":"31.2107683855","category":"260","category_name":"其他","address":"徐汇区永嘉路527弄4号"},{"poiid":"B2094757D16DA2F4479A","title":"山茶花韩国料理","lon":"121.4702382","lat":"31.207302181","category":"247","category_name":"餐饮美食","address":"上海卢湾徐家汇路618号日月光广场F4"},{"poiid":"B2094753D76FAAFA449C","title":"上海滩国泰旗舰店","lon":"121.466011","lat":"31.216125","category":"249","category_name":"购物服务","address":"淮海中路868号"},{"poiid":"B209475CD564A7F84292","title":"上海滩新天地店","lon":"121.47463","lat":"31.22164","category":"119","category_name":"商场","address":"\"太仓路181弄新天地北里15号\r\n\""},{"poiid":"B209475CD564A7F8439E","title":"上海滩中信泰富店","lon":"121.45602","lat":"31.22851","category":"119","category_name":"商场","address":"\"南京西路1168号中信泰富广场，店铺号221.\r\n\""},{"poiid":"B2094757D06FA0FB439B","title":"白玉兰剧场","lon":"121.47266","lat":"31.20947","category":"179","category_name":"音乐厅","address":"卢湾区重庆南路308号(近建国中路)"},{"poiid":"B2094757D06FA2FE4499","title":"上海琉璃艺术博物馆","lon":"121.47013","lat":"31.20762","category":"182","category_name":"博物馆","address":"卢湾区泰康路25号(田子坊对面)"},{"poiid":"B2094757D66CABFF489E","title":"海底捞火锅","lon":"121.47142473","lat":"31.207495815","category":"247","category_name":"餐饮美食","address":"上海金玉兰广场"},{"poiid":"B2094757D068A3FF469B","title":"Mr.Choi PATISSERIE","lon":"121.47026773","lat":"31.207296811","category":"67","category_name":"甜品店","address":"上海徐家汇路618号日月光中心广场1楼F05室(近瑞金二路)"},{"poiid":"B2094654DB6AA3FC4398","title":"广发银行大厦","lon":"121.47289","lat":"31.20779","category":"46","category_name":"楼宇","address":"卢湾区徐家汇路555号"},{"poiid":"B2094757D06FAAFB489C","title":"思南路","lon":"121.471117","lat":"31.208571","category":"500","category_name":"未知分类","address":"上海思南路"},{"poiid":"B2094751D26BA4FF449D","title":"Besyo","lon":"121.472488","lat":"31.207275","category":"67","category_name":"甜品店","address":"卢湾区思南路111号-1(近泰康路)"},{"poiid":"B2094757D06FA2F9409D","title":"UP\\'s(田子坊店)","lon":"121.469356","lat":"31.20838","category":"94","category_name":"西餐厅","address":"上海卢湾区泰康路210弄7号1室(近思南路)"},{"poiid":"B2094751DA6DABF8419B","title":"米子咖啡MizziCafe","lon":"121.469881","lat":"31.207422","category":"247","category_name":"餐饮美食","address":"上海市徐家汇路618号1F-E-04室"},{"poiid":"B2094757D06FA2FE4198","title":"健康煮(日月光店)","lon":"121.47079246","lat":"31.207681244","category":"86","category_name":"火锅店","address":"卢湾区徐家汇路618号日月光中心广场B2楼F27号商铺(近9号线泰康路出口)"},{"poiid":"B2094757D168A1FE4398","title":"海底撈打浦路店","lon":"121.470297738","lat":"31.2072998116","category":"500","category_name":"未知分类","address":"上海卢湾区瑞金二路"},{"poiid":"B2094655D264A7FD4798","title":"8号桥创意园","lon":"121.47138","lat":"31.21065","category":"263","category_name":"公司","address":"建国中路8号"},{"poiid":"B2094757D56CA0F94999","title":"云朵 THE CLOUDS","lon":"121.469788","lat":"31.2078814","category":"110","category_name":"其他亚洲菜","address":"卢湾区泰康路200号(近思南路)"},{"poiid":"B2094757D06FA0FA429B","title":"南北高架徐家汇路轧道","lon":"121.47258517","lat":"31.209395591","category":"500","category_name":"未知分类","address":"上海南北高架徐家汇路轧道"},{"poiid":"B2094757D068A2FA439E","title":"KAKADU","lon":"121.471380904","lat":"31.2106511616","category":"94","category_name":"西餐厅","address":"卢湾区建国中路8号1104A座(近重庆南路)"},{"poiid":"B2094751D56CA4FB4699","title":"猫屎咖啡(泰康路店)","lon":"121.4696","lat":"31.20782","category":"247","category_name":"餐饮美食","address":"徐汇区泰康路210号"},{"poiid":"B2094655D26AA1FA429E","title":"意大利签证申请中心","lon":"121.47269","lat":"31.20769","category":"247","category_name":"餐饮美食","address":"徐汇区徐家汇路555号广东发展银行大厦3楼(近鲁班路)"},{"poiid":"B2094757D06FA7FC499E","title":"上海壹号美术馆","lon":"121.47197","lat":"31.20997","category":"179","category_name":"音乐厅","address":"卢湾区建国中路1号(近重庆南路)"},{"poiid":"B2094750D565A6FE449A","title":"Acqua Pazza","lon":"121.47149","lat":"31.21056","category":"94","category_name":"西餐厅","address":"卢湾区建国中路6号(近南北高架)"},{"poiid":"B2094757D06AA2FD459C","title":"食其家(日月光中心店)","lon":"121.46846","lat":"31.20648","category":"95","category_name":"日本料理","address":"卢湾区徐家汇路618号日月光中心广场(近瑞金二路)"},{"poiid":"B2094757D165A5F84398","title":"顺丰大酒店","lon":"121.470898738","lat":"31.2072998116","category":"247","category_name":"餐饮美食","address":"上海打浦路1号"},{"poiid":"B2094757D06AABFE499B","title":"汉庭海友客栈新天地店","lon":"121.47331237","lat":"31.209251403","category":"216","category_name":"经济型连锁酒店","address":"卢湾区重庆南路283号(近徐家汇路)"},{"poiid":"B2094655D26AA7FE439A","title":"申普宠物医院徐家汇路店","lon":"121.47192","lat":"31.20703","category":"247","category_name":"餐饮美食","address":"上海卢湾区徐家汇路565号(近打浦路)"},{"poiid":"B2094757D06FA5FA4799","title":"原味坊(八号桥店)","lon":"121.47149658","lat":"31.210737228","category":"67","category_name":"甜品店","address":"上海卢湾区建国中路10号8号楼8101(近重庆南路)"},{"poiid":"B2094757D069A0FE4992","title":"印度签证申请中心","lon":"121.47296","lat":"31.20742","category":"500","category_name":"未知分类","address":"卢湾区徐家汇路555号广东发展银行大厦1楼(近鲁班路)"},{"poiid":"B2094757D069ABFE4498","title":"广东发展银行(上海分行营业部)","lon":"121.47269047","lat":"31.207687226","category":"46","category_name":"楼宇","address":"上海卢湾区徐家汇路555号广发银行大厦1楼(近重庆南路)"},{"poiid":"B2094752D468A0F9439D","title":"香港龍鳳樓","lon":"121.472769","lat":"31.209387","category":"247","category_name":"餐饮美食","address":null},{"poiid":"B2094757D06BA4F9429A","title":"鲁班路徐家汇路","lon":"121.472943962","lat":"31.2082465125","category":"500","category_name":"未知分类","address":"上海鲁班路徐家汇路"},{"poiid":"B2094757D569A0FD439A","title":"汉庭全季酒店(上海新天地店)","lon":"121.47338325","lat":"31.20904243","category":"216","category_name":"经济型连锁酒店","address":"上海市黄浦区重庆南路283号(徐家汇路)"},{"poiid":"B2094757D06FA0FD4692","title":"多金多港式美食餐厅 日月光广场店","lon":"121.46812","lat":"31.20555","category":"72","category_name":"广东菜","address":"卢湾区徐家汇路618号日月光中心广场B2楼(近7-11超市)"},{"poiid":"B2094757D068A5F8439F","title":"中国建设银行(卢湾支行)","lon":"121.47144","lat":"31.20685","category":"150","category_name":"银行","address":"卢湾区徐家汇路530号二楼(思南路泰康路)"},{"poiid":"B2094655D26EA7FD4498","title":"上海电力大楼","lon":"121.47249","lat":"31.2087","category":"46","category_name":"楼宇","address":"广益路与江海东路交汇处(五洲·中华美食城)"},{"poiid":"B2094750DA69A0F54699","title":"澳大利亚签中中心","lon":"121.472793","lat":"31.208116","category":"252","category_name":"楼宇机构","address":"徐家汇路555号广发大厦"},{"poiid":"B2094654DA6EA3F5429A","title":"友谊时代大厦","lon":"121.471","lat":"31.2091","category":"46","category_name":"楼宇","address":"浦东临港新城主城区申港大道200号"},{"poiid":"B2094757D464A0F94999","title":"吴越人家 泰康店","lon":"121.47163531204","lat":"31.20814108047","category":"68","category_name":"快餐厅","address":"卢湾区泰康路5号(近思南路)"},{"poiid":"B2094751D264A5FF4598","title":"顺风大酒店","lon":"121.4695","lat":"31.20923","category":"247","category_name":"餐饮美食","address":null},{"poiid":"B2094757D165ABFB479E","title":"新旺","lon":"121.47008573","lat":"31.207144808","category":"500","category_name":"未知分类","address":"上海市卢湾区瑞金二路"},{"poiid":"B2094757D16FA1FD439F","title":"新西兰签证中心","lon":"121.47273473","lat":"31.207812822","category":"500","category_name":"未知分类","address":"上海市卢湾区徐家汇路555号广发大厦"},{"poiid":"B2094757D06FA7FB479E","title":"上海交通大学医学院新教学楼","lon":"121.47087573","lat":"31.208594739","category":"253","category_name":"校园生活","address":"上海卢湾区重庆南路227号(近思南路)"},{"poiid":"B2094750D76FA0FC419E","title":"MAOLIVEHOUSESHANGHAI","lon":"121.472","lat":"31.2097","category":"269","category_name":"烧烤","address":"重庆南路308号(近建国中路)"},{"poiid":"B2094654DB6BA5FB489E","title":"思南新苑","lon":"121.47042","lat":"31.208597","category":"47","category_name":"住宅区","address":"上海市卢湾区思南路88号"},{"poiid":"B2094757D06FAAFD489F","title":"香啡缤(建国中路店)","lon":"121.4712","lat":"31.21005","category":"260","category_name":"其他","address":"卢湾区建国中路25号9号楼9101A室(近南北高架)"},{"poiid":"B2094757D068AAFA429D","title":"国信商务大厦","lon":"121.47108873","lat":"31.209255853","category":"46","category_name":"楼宇","address":"上海市卢湾区建国中路29号"},{"poiid":"B2094654DA6EA3F44998","title":"上海泰坤堂中医医院","lon":"121.47221","lat":"31.20749","category":"162","category_name":"医院","address":"卢湾区斜徐路553号(近鲁班路)"},{"poiid":"B2094757D06FA2FF4192","title":"小三堂","lon":"121.47002777","lat":"31.2076806496","category":"91","category_name":"台湾菜","address":"卢湾区泰康路25号上海琉璃艺术博物馆1楼(思南路泰康路)"},{"poiid":"B2094757D16CA3FA409F","title":"上海谦刺青","lon":"121.471876238","lat":"31.2107683855","category":"260","category_name":"其他","address":"徐汇区永嘉路527弄4号"},{"poiid":"B2094757D16DA2F4479A","title":"山茶花韩国料理","lon":"121.4702382","lat":"31.207302181","category":"247","category_name":"餐饮美食","address":"上海卢湾徐家汇路618号日月光广场F4"},{"poiid":"B2094753D76FAAFA449C","title":"上海滩国泰旗舰店","lon":"121.466011","lat":"31.216125","category":"249","category_name":"购物服务","address":"淮海中路868号"},{"poiid":"B209475CD564A7F84292","title":"上海滩新天地店","lon":"121.47463","lat":"31.22164","category":"119","category_name":"商场","address":"\"太仓路181弄新天地北里15号\r\n\""},{"poiid":"B209475CD564A7F8439E","title":"上海滩中信泰富店","lon":"121.45602","lat":"31.22851","category":"119","category_name":"商场","address":"\"南京西路1168号中信泰富广场，店铺号221.\r\n\""},{"poiid":"B2094757D06FA0FB439B","title":"白玉兰剧场","lon":"121.47266","lat":"31.20947","category":"179","category_name":"音乐厅","address":"卢湾区重庆南路308号(近建国中路)"},{"poiid":"B2094757D06FA2FE4499","title":"上海琉璃艺术博物馆","lon":"121.47013","lat":"31.20762","category":"182","category_name":"博物馆","address":"卢湾区泰康路25号(田子坊对面)"},{"poiid":"B2094757D66CABFF489E","title":"海底捞火锅","lon":"121.47142473","lat":"31.207495815","category":"247","category_name":"餐饮美食","address":"上海金玉兰广场"},{"poiid":"B2094757D068A3FF469B","title":"Mr.Choi PATISSERIE","lon":"121.47026773","lat":"31.207296811","category":"67","category_name":"甜品店","address":"上海徐家汇路618号日月光中心广场1楼F05室(近瑞金二路)"},{"poiid":"B2094654DB6AA3FC4398","title":"广发银行大厦","lon":"121.47289","lat":"31.20779","category":"46","category_name":"楼宇","address":"卢湾区徐家汇路555号"},{"poiid":"B2094757D06FAAFB489C","title":"思南路","lon":"121.471117","lat":"31.208571","category":"500","category_name":"未知分类","address":"上海思南路"},{"poiid":"B2094751D26BA4FF449D","title":"Besyo","lon":"121.472488","lat":"31.207275","category":"67","category_name":"甜品店","address":"卢湾区思南路111号-1(近泰康路)"},{"poiid":"B2094757D06FA2F9409D","title":"UP\\'s(田子坊店)","lon":"121.469356","lat":"31.20838","category":"94","category_name":"西餐厅","address":"上海卢湾区泰康路210弄7号1室(近思南路)"},{"poiid":"B2094751DA6DABF8419B","title":"米子咖啡MizziCafe","lon":"121.469881","lat":"31.207422","category":"247","category_name":"餐饮美食","address":"上海市徐家汇路618号1F-E-04室"},{"poiid":"B2094757D06FA2FE4198","title":"健康煮(日月光店)","lon":"121.47079246","lat":"31.207681244","category":"86","category_name":"火锅店","address":"卢湾区徐家汇路618号日月光中心广场B2楼F27号商铺(近9号线泰康路出口)"},{"poiid":"B2094757D168A1FE4398","title":"海底撈打浦路店","lon":"121.470297738","lat":"31.2072998116","category":"500","category_name":"未知分类","address":"上海卢湾区瑞金二路"},{"poiid":"B2094655D264A7FD4798","title":"8号桥创意园","lon":"121.47138","lat":"31.21065","category":"263","category_name":"公司","address":"建国中路8号"},{"poiid":"B2094757D56CA0F94999","title":"云朵 THE CLOUDS","lon":"121.469788","lat":"31.2078814","category":"110","category_name":"其他亚洲菜","address":"卢湾区泰康路200号(近思南路)"},{"poiid":"B2094757D06FA0FA429B","title":"南北高架徐家汇路轧道","lon":"121.47258517","lat":"31.209395591","category":"500","category_name":"未知分类","address":"上海南北高架徐家汇路轧道"},{"poiid":"B2094757D068A2FA439E","title":"KAKADU","lon":"121.471380904","lat":"31.2106511616","category":"94","category_name":"西餐厅","address":"卢湾区建国中路8号1104A座(近重庆南路)"},{"poiid":"B2094751D56CA4FB4699","title":"猫屎咖啡(泰康路店)","lon":"121.4696","lat":"31.20782","category":"247","category_name":"餐饮美食","address":"徐汇区泰康路210号"},{"poiid":"B2094655D26AA1FA429E","title":"意大利签证申请中心","lon":"121.47269","lat":"31.20769","category":"247","category_name":"餐饮美食","address":"徐汇区徐家汇路555号广东发展银行大厦3楼(近鲁班路)"},{"poiid":"B2094757D06FA7FC499E","title":"上海壹号美术馆","lon":"121.47197","lat":"31.20997","category":"179","category_name":"音乐厅","address":"卢湾区建国中路1号(近重庆南路)"},{"poiid":"B2094750D565A6FE449A","title":"Acqua Pazza","lon":"121.47149","lat":"31.21056","category":"94","category_name":"西餐厅","address":"卢湾区建国中路6号(近南北高架)"},{"poiid":"B2094757D06AA2FD459C","title":"食其家(日月光中心店)","lon":"121.46846","lat":"31.20648","category":"95","category_name":"日本料理","address":"卢湾区徐家汇路618号日月光中心广场(近瑞金二路)"},{"poiid":"B2094757D165A5F84398","title":"顺丰大酒店","lon":"121.470898738","lat":"31.2072998116","category":"247","category_name":"餐饮美食","address":"上海打浦路1号"},{"poiid":"B2094757D06AABFE499B","title":"汉庭海友客栈新天地店","lon":"121.47331237","lat":"31.209251403","category":"216","category_name":"经济型连锁酒店","address":"卢湾区重庆南路283号(近徐家汇路)"},{"poiid":"B2094655D26AA7FE439A","title":"申普宠物医院徐家汇路店","lon":"121.47192","lat":"31.20703","category":"247","category_name":"餐饮美食","address":"上海卢湾区徐家汇路565号(近打浦路)"},{"poiid":"B2094757D06FA5FA4799","title":"原味坊(八号桥店)","lon":"121.47149658","lat":"31.210737228","category":"67","category_name":"甜品店","address":"上海卢湾区建国中路10号8号楼8101(近重庆南路)"},{"poiid":"B2094757D069A0FE4992","title":"印度签证申请中心","lon":"121.47296","lat":"31.20742","category":"500","category_name":"未知分类","address":"卢湾区徐家汇路555号广东发展银行大厦1楼(近鲁班路)"},{"poiid":"B2094757D069ABFE4498","title":"广东发展银行(上海分行营业部)","lon":"121.47269047","lat":"31.207687226","category":"46","category_name":"楼宇","address":"上海卢湾区徐家汇路555号广发银行大厦1楼(近重庆南路)"},{"poiid":"B2094752D468A0F9439D","title":"香港龍鳳樓","lon":"121.472769","lat":"31.209387","category":"247","category_name":"餐饮美食","address":null},{"poiid":"B2094757D06BA4F9429A","title":"鲁班路徐家汇路","lon":"121.472943962","lat":"31.2082465125","category":"500","category_name":"未知分类","address":"上海鲁班路徐家汇路"},{"poiid":"B2094757D569A0FD439A","title":"汉庭全季酒店(上海新天地店)","lon":"121.47338325","lat":"31.20904243","category":"216","category_name":"经济型连锁酒店","address":"上海市黄浦区重庆南路283号(徐家汇路)"},{"poiid":"B2094757D06FA0FD4692","title":"多金多港式美食餐厅 日月光广场店","lon":"121.46812","lat":"31.20555","category":"72","category_name":"广东菜","address":"卢湾区徐家汇路618号日月光中心广场B2楼(近7-11超市)"},{"poiid":"B2094757D068A5F8439F","title":"中国建设银行(卢湾支行)","lon":"121.47144","lat":"31.20685","category":"150","category_name":"银行","address":"卢湾区徐家汇路530号二楼(思南路泰康路)"},{"poiid":"B2094655D26EA7FD4498","title":"上海电力大楼","lon":"121.47249","lat":"31.2087","category":"46","category_name":"楼宇","address":"广益路与江海东路交汇处(五洲·中华美食城)"},{"poiid":"B2094750DA69A0F54699","title":"澳大利亚签中中心","lon":"121.472793","lat":"31.208116","category":"252","category_name":"楼宇机构","address":"徐家汇路555号广发大厦"},{"poiid":"B2094654DA6EA3F5429A","title":"友谊时代大厦","lon":"121.471","lat":"31.2091","category":"46","category_name":"楼宇","address":"浦东临港新城主城区申港大道200号"},{"poiid":"B2094757D464A0F94999","title":"吴越人家 泰康店","lon":"121.47163531204","lat":"31.20814108047","category":"68","category_name":"快餐厅","address":"卢湾区泰康路5号(近思南路)"},{"poiid":"B2094751D264A5FF4598","title":"顺风大酒店","lon":"121.4695","lat":"31.20923","category":"247","category_name":"餐饮美食","address":null},{"poiid":"B2094757D165ABFB479E","title":"新旺","lon":"121.47008573","lat":"31.207144808","category":"500","category_name":"未知分类","address":"上海市卢湾区瑞金二路"},{"poiid":"B2094757D16FA1FD439F","title":"新西兰签证中心","lon":"121.47273473","lat":"31.207812822","category":"500","category_name":"未知分类","address":"上海市卢湾区徐家汇路555号广发大厦"},{"poiid":"B2094757D06FA7FB479E","title":"上海交通大学医学院新教学楼","lon":"121.47087573","lat":"31.208594739","category":"253","category_name":"校园生活","address":"上海卢湾区重庆南路227号(近思南路)"},{"poiid":"B2094750D76FA0FC419E","title":"MAOLIVEHOUSESHANGHAI","lon":"121.472","lat":"31.2097","category":"269","category_name":"烧烤","address":"重庆南路308号(近建国中路)"},{"poiid":"B2094654DB6BA5FB489E","title":"思南新苑","lon":"121.47042","lat":"31.208597","category":"47","category_name":"住宅区","address":"上海市卢湾区思南路88号"},{"poiid":"B2094757D06FAAFD489F","title":"香啡缤(建国中路店)","lon":"121.4712","lat":"31.21005","category":"260","category_name":"其他","address":"卢湾区建国中路25号9号楼9101A室(近南北高架)"},{"poiid":"B2094757D068AAFA429D","title":"国信商务大厦","lon":"121.47108873","lat":"31.209255853","category":"46","category_name":"楼宇","address":"上海市卢湾区建国中路29号"},{"poiid":"B2094654DA6EA3F44998","title":"上海泰坤堂中医医院","lon":"121.47221","lat":"31.20749","category":"162","category_name":"医院","address":"卢湾区斜徐路553号(近鲁班路)"},{"poiid":"B2094757D06FA2FF4192","title":"小三堂","lon":"121.47002777","lat":"31.2076806496","category":"91","category_name":"台湾菜","address":"卢湾区泰康路25号上海琉璃艺术博物馆1楼(思南路泰康路)"},{"poiid":"B2094757D16CA3FA409F","title":"上海谦刺青","lon":"121.471876238","lat":"31.2107683855","category":"260","category_name":"其他","address":"徐汇区永嘉路527弄4号"},{"poiid":"B2094757D16DA2F4479A","title":"山茶花韩国料理","lon":"121.4702382","lat":"31.207302181","category":"247","category_name":"餐饮美食","address":"上海卢湾徐家汇路618号日月光广场F4"},{"poiid":"B2094753D76FAAFA449C","title":"上海滩国泰旗舰店","lon":"121.466011","lat":"31.216125","category":"249","category_name":"购物服务","address":"淮海中路868号"},{"poiid":"B209475CD564A7F84292","title":"上海滩新天地店","lon":"121.47463","lat":"31.22164","category":"119","category_name":"商场","address":"\"太仓路181弄新天地北里15号\r\n\""},{"poiid":"B209475CD564A7F8439E","title":"上海滩中信泰富店","lon":"121.45602","lat":"31.22851","category":"119","category_name":"商场","address":"\"南京西路1168号中信泰富广场，店铺号221.\r\n\""},{"poiid":"B2094757D06FA0FB439B","title":"白玉兰剧场","lon":"121.47266","lat":"31.20947","category":"179","category_name":"音乐厅","address":"卢湾区重庆南路308号(近建国中路)"},{"poiid":"B2094757D06FA2FE4499","title":"上海琉璃艺术博物馆","lon":"121.47013","lat":"31.20762","category":"182","category_name":"博物馆","address":"卢湾区泰康路25号(田子坊对面)"},{"poiid":"B2094757D66CABFF489E","title":"海底捞火锅","lon":"121.47142473","lat":"31.207495815","category":"247","category_name":"餐饮美食","address":"上海金玉兰广场"},{"poiid":"B2094757D068A3FF469B","title":"Mr.Choi PATISSERIE","lon":"121.47026773","lat":"31.207296811","category":"67","category_name":"甜品店","address":"上海徐家汇路618号日月光中心广场1楼F05室(近瑞金二路)"},{"poiid":"B2094654DB6AA3FC4398","title":"广发银行大厦","lon":"121.47289","lat":"31.20779","category":"46","category_name":"楼宇","address":"卢湾区徐家汇路555号"},{"poiid":"B2094757D06FAAFB489C","title":"思南路","lon":"121.471117","lat":"31.208571","category":"500","category_name":"未知分类","address":"上海思南路"},{"poiid":"B2094751D26BA4FF449D","title":"Besyo","lon":"121.472488","lat":"31.207275","category":"67","category_name":"甜品店","address":"卢湾区思南路111号-1(近泰康路)"},{"poiid":"B2094757D06FA2F9409D","title":"UP\\'s(田子坊店)","lon":"121.469356","lat":"31.20838","category":"94","category_name":"西餐厅","address":"上海卢湾区泰康路210弄7号1室(近思南路)"},{"poiid":"B2094751DA6DABF8419B","title":"米子咖啡MizziCafe","lon":"121.469881","lat":"31.207422","category":"247","category_name":"餐饮美食","address":"上海市徐家汇路618号1F-E-04室"},{"poiid":"B2094757D06FA2FE4198","title":"健康煮(日月光店)","lon":"121.47079246","lat":"31.207681244","category":"86","category_name":"火锅店","address":"卢湾区徐家汇路618号日月光中心广场B2楼F27号商铺(近9号线泰康路出口)"},{"poiid":"B2094757D168A1FE4398","title":"海底撈打浦路店","lon":"121.470297738","lat":"31.2072998116","category":"500","category_name":"未知分类","address":"上海卢湾区瑞金二路"},{"poiid":"B2094655D264A7FD4798","title":"8号桥创意园","lon":"121.47138","lat":"31.21065","category":"263","category_name":"公司","address":"建国中路8号"},{"poiid":"B2094757D56CA0F94999","title":"云朵 THE CLOUDS","lon":"121.469788","lat":"31.2078814","category":"110","category_name":"其他亚洲菜","address":"卢湾区泰康路200号(近思南路)"},{"poiid":"B2094757D06FA0FA429B","title":"南北高架徐家汇路轧道","lon":"121.47258517","lat":"31.209395591","category":"500","category_name":"未知分类","address":"上海南北高架徐家汇路轧道"},{"poiid":"B2094757D068A2FA439E","title":"KAKADU","lon":"121.471380904","lat":"31.2106511616","category":"94","category_name":"西餐厅","address":"卢湾区建国中路8号1104A座(近重庆南路)"},{"poiid":"B2094751D56CA4FB4699","title":"猫屎咖啡(泰康路店)","lon":"121.4696","lat":"31.20782","category":"247","category_name":"餐饮美食","address":"徐汇区泰康路210号"},{"poiid":"B2094655D26AA1FA429E","title":"意大利签证申请中心","lon":"121.47269","lat":"31.20769","category":"247","category_name":"餐饮美食","address":"徐汇区徐家汇路555号广东发展银行大厦3楼(近鲁班路)"},{"poiid":"B2094757D06FA7FC499E","title":"上海壹号美术馆","lon":"121.47197","lat":"31.20997","category":"179","category_name":"音乐厅","address":"卢湾区建国中路1号(近重庆南路)"},{"poiid":"B2094750D565A6FE449A","title":"Acqua Pazza","lon":"121.47149","lat":"31.21056","category":"94","category_name":"西餐厅","address":"卢湾区建国中路6号(近南北高架)"},{"poiid":"B2094757D06AA2FD459C","title":"食其家(日月光中心店)","lon":"121.46846","lat":"31.20648","category":"95","category_name":"日本料理","address":"卢湾区徐家汇路618号日月光中心广场(近瑞金二路)"},{"poiid":"B2094757D165A5F84398","title":"顺丰大酒店","lon":"121.470898738","lat":"31.2072998116","category":"247","category_name":"餐饮美食","address":"上海打浦路1号"},{"poiid":"B2094757D06AABFE499B","title":"汉庭海友客栈新天地店","lon":"121.47331237","lat":"31.209251403","category":"216","category_name":"经济型连锁酒店","address":"卢湾区重庆南路283号(近徐家汇路)"},{"poiid":"B2094655D26AA7FE439A","title":"申普宠物医院徐家汇路店","lon":"121.47192","lat":"31.20703","category":"247","category_name":"餐饮美食","address":"上海卢湾区徐家汇路565号(近打浦路)"},{"poiid":"B2094757D06FA5FA4799","title":"原味坊(八号桥店)","lon":"121.47149658","lat":"31.210737228","category":"67","category_name":"甜品店","address":"上海卢湾区建国中路10号8号楼8101(近重庆南路)"},{"poiid":"B2094757D069A0FE4992","title":"印度签证申请中心","lon":"121.47296","lat":"31.20742","category":"500","category_name":"未知分类","address":"卢湾区徐家汇路555号广东发展银行大厦1楼(近鲁班路)"},{"poiid":"B2094757D069ABFE4498","title":"广东发展银行(上海分行营业部)","lon":"121.47269047","lat":"31.207687226","category":"46","category_name":"楼宇","address":"上海卢湾区徐家汇路555号广发银行大厦1楼(近重庆南路)"},{"poiid":"B2094752D468A0F9439D","title":"香港龍鳳樓","lon":"121.472769","lat":"31.209387","category":"247","category_name":"餐饮美食","address":null},{"poiid":"B2094757D06BA4F9429A","title":"鲁班路徐家汇路","lon":"121.472943962","lat":"31.2082465125","category":"500","category_name":"未知分类","address":"上海鲁班路徐家汇路"},{"poiid":"B2094757D569A0FD439A","title":"汉庭全季酒店(上海新天地店)","lon":"121.47338325","lat":"31.20904243","category":"216","category_name":"经济型连锁酒店","address":"上海市黄浦区重庆南路283号(徐家汇路)"},{"poiid":"B2094757D06FA0FD4692","title":"多金多港式美食餐厅 日月光广场店","lon":"121.46812","lat":"31.20555","category":"72","category_name":"广东菜","address":"卢湾区徐家汇路618号日月光中心广场B2楼(近7-11超市)"},{"poiid":"B2094757D068A5F8439F","title":"中国建设银行(卢湾支行)","lon":"121.47144","lat":"31.20685","category":"150","category_name":"银行","address":"卢湾区徐家汇路530号二楼(思南路泰康路)"},{"poiid":"B2094655D26EA7FD4498","title":"上海电力大楼","lon":"121.47249","lat":"31.2087","category":"46","category_name":"楼宇","address":"广益路与江海东路交汇处(五洲·中华美食城)"},{"poiid":"B2094750DA69A0F54699","title":"澳大利亚签中中心","lon":"121.472793","lat":"31.208116","category":"252","category_name":"楼宇机构","address":"徐家汇路555号广发大厦"},{"poiid":"B2094654DA6EA3F5429A","title":"友谊时代大厦","lon":"121.471","lat":"31.2091","category":"46","category_name":"楼宇","address":"浦东临港新城主城区申港大道200号"},{"poiid":"B2094757D464A0F94999","title":"吴越人家 泰康店","lon":"121.47163531204","lat":"31.20814108047","category":"68","category_name":"快餐厅","address":"卢湾区泰康路5号(近思南路)"},{"poiid":"B2094751D264A5FF4598","title":"顺风大酒店","lon":"121.4695","lat":"31.20923","category":"247","category_name":"餐饮美食","address":null},{"poiid":"B2094757D165ABFB479E","title":"新旺","lon":"121.47008573","lat":"31.207144808","category":"500","category_name":"未知分类","address":"上海市卢湾区瑞金二路"},{"poiid":"B2094757D16FA1FD439F","title":"新西兰签证中心","lon":"121.47273473","lat":"31.207812822","category":"500","category_name":"未知分类","address":"上海市卢湾区徐家汇路555号广发大厦"},{"poiid":"B2094757D06FA7FB479E","title":"上海交通大学医学院新教学楼","lon":"121.47087573","lat":"31.208594739","category":"253","category_name":"校园生活","address":"上海卢湾区重庆南路227号(近思南路)"},{"poiid":"B2094750D76FA0FC419E","title":"MAOLIVEHOUSESHANGHAI","lon":"121.472","lat":"31.2097","category":"269","category_name":"烧烤","address":"重庆南路308号(近建国中路)"},{"poiid":"B2094654DB6BA5FB489E","title":"思南新苑","lon":"121.47042","lat":"31.208597","category":"47","category_name":"住宅区","address":"上海市卢湾区思南路88号"},{"poiid":"B2094757D06FAAFD489F","title":"香啡缤(建国中路店)","lon":"121.4712","lat":"31.21005","category":"260","category_name":"其他","address":"卢湾区建国中路25号9号楼9101A室(近南北高架)"},{"poiid":"B2094757D068AAFA429D","title":"国信商务大厦","lon":"121.47108873","lat":"31.209255853","category":"46","category_name":"楼宇","address":"上海市卢湾区建国中路29号"},{"poiid":"B2094654DA6EA3F44998","title":"上海泰坤堂中医医院","lon":"121.47221","lat":"31.20749","category":"162","category_name":"医院","address":"卢湾区斜徐路553号(近鲁班路)"},{"poiid":"B2094757D06FA2FF4192","title":"小三堂","lon":"121.47002777","lat":"31.2076806496","category":"91","category_name":"台湾菜","address":"卢湾区泰康路25号上海琉璃艺术博物馆1楼(思南路泰康路)"},{"poiid":"B2094757D16CA3FA409F","title":"上海谦刺青","lon":"121.471876238","lat":"31.2107683855","category":"260","category_name":"其他","address":"徐汇区永嘉路527弄4号"},{"poiid":"B2094757D16DA2F4479A","title":"山茶花韩国料理","lon":"121.4702382","lat":"31.207302181","category":"247","category_name":"餐饮美食","address":"上海卢湾徐家汇路618号日月光广场F4"},{"poiid":"B2094753D76FAAFA449C","title":"上海滩国泰旗舰店","lon":"121.466011","lat":"31.216125","category":"249","category_name":"购物服务","address":"淮海中路868号"},{"poiid":"B209475CD564A7F84292","title":"上海滩新天地店","lon":"121.47463","lat":"31.22164","category":"119","category_name":"商场","address":"\"太仓路181弄新天地北里15号\r\n\""},{"poiid":"B209475CD564A7F8439E","title":"上海滩中信泰富店","lon":"121.45602","lat":"31.22851","category":"119","category_name":"商场","address":"\"南京西路1168号中信泰富广场，店铺号221.\r\n\""},{"poiid":"B2094757D06FA0FB439B","title":"白玉兰剧场","lon":"121.47266","lat":"31.20947","category":"179","category_name":"音乐厅","address":"卢湾区重庆南路308号(近建国中路)"},{"poiid":"B2094757D06FA2FE4499","title":"上海琉璃艺术博物馆","lon":"121.47013","lat":"31.20762","category":"182","category_name":"博物馆","address":"卢湾区泰康路25号(田子坊对面)"},{"poiid":"B2094757D66CABFF489E","title":"海底捞火锅","lon":"121.47142473","lat":"31.207495815","category":"247","category_name":"餐饮美食","address":"上海金玉兰广场"},{"poiid":"B2094757D068A3FF469B","title":"Mr.Choi PATISSERIE","lon":"121.47026773","lat":"31.207296811","category":"67","category_name":"甜品店","address":"上海徐家汇路618号日月光中心广场1楼F05室(近瑞金二路)"},{"poiid":"B2094654DB6AA3FC4398","title":"广发银行大厦","lon":"121.47289","lat":"31.20779","category":"46","category_name":"楼宇","address":"卢湾区徐家汇路555号"},{"poiid":"B2094757D06FAAFB489C","title":"思南路","lon":"121.471117","lat":"31.208571","category":"500","category_name":"未知分类","address":"上海思南路"},{"poiid":"B2094751D26BA4FF449D","title":"Besyo","lon":"121.472488","lat":"31.207275","category":"67","category_name":"甜品店","address":"卢湾区思南路111号-1(近泰康路)"},{"poiid":"B2094757D06FA2F9409D","title":"UP\\'s(田子坊店)","lon":"121.469356","lat":"31.20838","category":"94","category_name":"西餐厅","address":"上海卢湾区泰康路210弄7号1室(近思南路)"},{"poiid":"B2094751DA6DABF8419B","title":"米子咖啡MizziCafe","lon":"121.469881","lat":"31.207422","category":"247","category_name":"餐饮美食","address":"上海市徐家汇路618号1F-E-04室"},{"poiid":"B2094757D06FA2FE4198","title":"健康煮(日月光店)","lon":"121.47079246","lat":"31.207681244","category":"86","category_name":"火锅店","address":"卢湾区徐家汇路618号日月光中心广场B2楼F27号商铺(近9号线泰康路出口)"},{"poiid":"B2094757D168A1FE4398","title":"海底撈打浦路店","lon":"121.470297738","lat":"31.2072998116","category":"500","category_name":"未知分类","address":"上海卢湾区瑞金二路"},{"poiid":"B2094655D264A7FD4798","title":"8号桥创意园","lon":"121.47138","lat":"31.21065","category":"263","category_name":"公司","address":"建国中路8号"},{"poiid":"B2094757D56CA0F94999","title":"云朵 THE CLOUDS","lon":"121.469788","lat":"31.2078814","category":"110","category_name":"其他亚洲菜","address":"卢湾区泰康路200号(近思南路)"},{"poiid":"B2094757D06FA0FA429B","title":"南北高架徐家汇路轧道","lon":"121.47258517","lat":"31.209395591","category":"500","category_name":"未知分类","address":"上海南北高架徐家汇路轧道"},{"poiid":"B2094757D068A2FA439E","title":"KAKADU","lon":"121.471380904","lat":"31.2106511616","category":"94","category_name":"西餐厅","address":"卢湾区建国中路8号1104A座(近重庆南路)"},{"poiid":"B2094751D56CA4FB4699","title":"猫屎咖啡(泰康路店)","lon":"121.4696","lat":"31.20782","category":"247","category_name":"餐饮美食","address":"徐汇区泰康路210号"},{"poiid":"B2094655D26AA1FA429E","title":"意大利签证申请中心","lon":"121.47269","lat":"31.20769","category":"247","category_name":"餐饮美食","address":"徐汇区徐家汇路555号广东发展银行大厦3楼(近鲁班路)"},{"poiid":"B2094757D06FA7FC499E","title":"上海壹号美术馆","lon":"121.47197","lat":"31.20997","category":"179","category_name":"音乐厅","address":"卢湾区建国中路1号(近重庆南路)"},{"poiid":"B2094750D565A6FE449A","title":"Acqua Pazza","lon":"121.47149","lat":"31.21056","category":"94","category_name":"西餐厅","address":"卢湾区建国中路6号(近南北高架)"},{"poiid":"B2094757D06AA2FD459C","title":"食其家(日月光中心店)","lon":"121.46846","lat":"31.20648","category":"95","category_name":"日本料理","address":"卢湾区徐家汇路618号日月光中心广场(近瑞金二路)"},{"poiid":"B2094757D165A5F84398","title":"顺丰大酒店","lon":"121.470898738","lat":"31.2072998116","category":"247","category_name":"餐饮美食","address":"上海打浦路1号"},{"poiid":"B2094757D06AABFE499B","title":"汉庭海友客栈新天地店","lon":"121.47331237","lat":"31.209251403","category":"216","category_name":"经济型连锁酒店","address":"卢湾区重庆南路283号(近徐家汇路)"},{"poiid":"B2094655D26AA7FE439A","title":"申普宠物医院徐家汇路店","lon":"121.47192","lat":"31.20703","category":"247","category_name":"餐饮美食","address":"上海卢湾区徐家汇路565号(近打浦路)"},{"poiid":"B2094757D06FA5FA4799","title":"原味坊(八号桥店)","lon":"121.47149658","lat":"31.210737228","category":"67","category_name":"甜品店","address":"上海卢湾区建国中路10号8号楼8101(近重庆南路)"},{"poiid":"B2094757D069A0FE4992","title":"印度签证申请中心","lon":"121.47296","lat":"31.20742","category":"500","category_name":"未知分类","address":"卢湾区徐家汇路555号广东发展银行大厦1楼(近鲁班路)"},{"poiid":"B2094757D069ABFE4498","title":"广东发展银行(上海分行营业部)","lon":"121.47269047","lat":"31.207687226","category":"46","category_name":"楼宇","address":"上海卢湾区徐家汇路555号广发银行大厦1楼(近重庆南路)"},{"poiid":"B2094752D468A0F9439D","title":"香港龍鳳樓","lon":"121.472769","lat":"31.209387","category":"247","category_name":"餐饮美食","address":null},{"poiid":"B2094757D06BA4F9429A","title":"鲁班路徐家汇路","lon":"121.472943962","lat":"31.2082465125","category":"500","category_name":"未知分类","address":"上海鲁班路徐家汇路"},{"poiid":"B2094757D569A0FD439A","title":"汉庭全季酒店(上海新天地店)","lon":"121.47338325","lat":"31.20904243","category":"216","category_name":"经济型连锁酒店","address":"上海市黄浦区重庆南路283号(徐家汇路)"},{"poiid":"B2094757D06FA0FD4692","title":"多金多港式美食餐厅 日月光广场店","lon":"121.46812","lat":"31.20555","category":"72","category_name":"广东菜","address":"卢湾区徐家汇路618号日月光中心广场B2楼(近7-11超市)"},{"poiid":"B2094757D068A5F8439F","title":"中国建设银行(卢湾支行)","lon":"121.47144","lat":"31.20685","category":"150","category_name":"银行","address":"卢湾区徐家汇路530号二楼(思南路泰康路)"},{"poiid":"B2094655D26EA7FD4498","title":"上海电力大楼","lon":"121.47249","lat":"31.2087","category":"46","category_name":"楼宇","address":"广益路与江海东路交汇处(五洲·中华美食城)"},{"poiid":"B2094750DA69A0F54699","title":"澳大利亚签中中心","lon":"121.472793","lat":"31.208116","category":"252","category_name":"楼宇机构","address":"徐家汇路555号广发大厦"},{"poiid":"B2094654DA6EA3F5429A","title":"友谊时代大厦","lon":"121.471","lat":"31.2091","category":"46","category_name":"楼宇","address":"浦东临港新城主城区申港大道200号"},{"poiid":"B2094757D464A0F94999","title":"吴越人家 泰康店","lon":"121.47163531204","lat":"31.20814108047","category":"68","category_name":"快餐厅","address":"卢湾区泰康路5号(近思南路)"},{"poiid":"B2094751D264A5FF4598","title":"顺风大酒店","lon":"121.4695","lat":"31.20923","category":"247","category_name":"餐饮美食","address":null},{"poiid":"B2094757D165ABFB479E","title":"新旺","lon":"121.47008573","lat":"31.207144808","category":"500","category_name":"未知分类","address":"上海市卢湾区瑞金二路"},{"poiid":"B2094757D16FA1FD439F","title":"新西兰签证中心","lon":"121.47273473","lat":"31.207812822","category":"500","category_name":"未知分类","address":"上海市卢湾区徐家汇路555号广发大厦"},{"poiid":"B2094757D06FA7FB479E","title":"上海交通大学医学院新教学楼","lon":"121.47087573","lat":"31.208594739","category":"253","category_name":"校园生活","address":"上海卢湾区重庆南路227号(近思南路)"},{"poiid":"B2094750D76FA0FC419E","title":"MAOLIVEHOUSESHANGHAI","lon":"121.472","lat":"31.2097","category":"269","category_name":"烧烤","address":"重庆南路308号(近建国中路)"},{"poiid":"B2094654DB6BA5FB489E","title":"思南新苑","lon":"121.47042","lat":"31.208597","category":"47","category_name":"住宅区","address":"上海市卢湾区思南路88号"},{"poiid":"B2094757D06FAAFD489F","title":"香啡缤(建国中路店)","lon":"121.4712","lat":"31.21005","category":"260","category_name":"其他","address":"卢湾区建国中路25号9号楼9101A室(近南北高架)"},{"poiid":"B2094757D068AAFA429D","title":"国信商务大厦","lon":"121.47108873","lat":"31.209255853","category":"46","category_name":"楼宇","address":"上海市卢湾区建国中路29号"},{"poiid":"B2094654DA6EA3F44998","title":"上海泰坤堂中医医院","lon":"121.47221","lat":"31.20749","category":"162","category_name":"医院","address":"卢湾区斜徐路553号(近鲁班路)"}]