[{"poiid":"B2094655D26DAAF4429C","title":"上海歌城(西藏中路)","lon":"121.47374","lat":"31.23549","category":"170","category_name":"KTV","address":"西藏中路399号新世界城"},{"poiid":"B2094757D068A4FF429B","title":"上海雅居乐万豪酒店","lon":"121.473508738","lat":"31.2361444261","category":"217","category_name":"旅馆招待所","address":"上海市黄浦区西藏中路555号(近新世界)"},{"poiid":"B2094751DA6DA1F5439F","title":"上海年代秀主题餐厅","lon":"121.473342","lat":"31.235938","category":"76","category_name":"上海菜","address":"黄浦区西藏中路525号雅居乐广场3楼308商铺(近凤阳路预计11月开业)"},{"poiid":"B2094753D76FAAFA449C","title":"上海滩国泰旗舰店","lon":"121.466011","lat":"31.216125","category":"249","category_name":"购物服务","address":"淮海中路868号"},{"poiid":"B209475CD564A7F84292","title":"上海滩新天地店","lon":"121.47463","lat":"31.22164","category":"119","category_name":"商场","address":"\"太仓路181弄新天地北里15号\r\n\""},{"poiid":"B209475CD564A7F8439E","title":"上海滩中信泰富店","lon":"121.45602","lat":"31.22851","category":"119","category_name":"商场","address":"\"南京西路1168号中信泰富广场，店铺号221.\r\n\""},{"poiid":"B209475CD564A7F84392","title":"上海滩浦东香格里拉店","lon":"121.50058","lat":"31.23634","category":"119","category_name":"商场","address":"浦东富成路33号香格里拉酒店内大堂层"},{"poiid":"B2094655D36CA2FC439A","title":"雅居乐国际广场","lon":"121.47251","lat":"31.23629","category":"46","category_name":"楼宇","address":"黄浦区西藏中路525号(近凤阳路)"},{"poiid":"B2094757D06FA3F5489A","title":"南证大厦","lon":"121.473","lat":"31.2374","category":"46","category_name":"楼宇","address":"上海静安区南京西路580号近成都路"},{"poiid":"B2094757D06AA2FA4992","title":"黄河路","lon":"121.470752","lat":"31.236218","category":"500","category_name":"未知分类","address":"上海黄河路北京西路路口"},{"poiid":"B2094757D56CAAFD449F","title":"来福小馆 人民广场店","lon":"121.4737085","lat":"31.2366652","category":"71","category_name":"四川菜","address":"黄浦区西藏中路559号雅居乐国际广场3楼(近凤阳路)"},{"poiid":"B2094757DB69A4F4479D","title":"雅居乐万豪酒店 都会尚膳 Shanghai City Bistro","lon":"121.4737085","lat":"31.2366652","category":"268","category_name":"自助","address":"西藏中路555号雅居乐万豪酒店3楼(近凤阳路)"},{"poiid":"B2094757D068A7F84498","title":"汤姆熊(新世界店)","lon":"121.473908238","lat":"31.2356113148","category":"173","category_name":"游戏厅","address":"黄浦区南京西路2-68号新世界城9楼(近西藏中路)"},{"poiid":"B2094752D265A3FE4892","title":"伊秀手握寿司","lon":"121.471898","lat":"31.236862","category":"247","category_name":"餐饮美食","address":"上海市黄浦区南京东路720号第一食品商厦4楼(近贵州路)"},{"poiid":"B2094757D069A6F8419C","title":"上海广场嘉廷酒店","lon":"121.4709877","lat":"31.2382483","category":"217","category_name":"旅馆招待所","address":"黄浦区新闸路126号(长沙路路口)"},{"poiid":"B2094757D46FABFD409D","title":"丰收日 人民广场店","lon":"121.4737085","lat":"31.2366652","category":"75","category_name":"浙江菜","address":"黄浦区西藏中路555号雅居乐万豪4楼(近凤阳路)"},{"poiid":"B2094757D069ABFA459C","title":"上海歌城新世界店","lon":"121.473934738","lat":"31.2364634329","category":"500","category_name":"未知分类","address":"上海市黄浦区温州路"},{"poiid":"B2094757D068A7FD489E","title":"新开元大酒店","lon":"121.474001738","lat":"31.2362734289","category":"75","category_name":"浙江菜","address":"黄浦区六合路98号3-4楼(近市百一店)"},{"poiid":"B2094757D069A1F94098","title":"上影华威电影城","lon":"121.473907","lat":"31.23492","category":"178","category_name":"电影院","address":"黄浦区南京西路2-68号新世界城11-12楼(近西藏中路)"},{"poiid":"B2094757D165A0FA499A","title":"千彩休闲小火锅","lon":"121.473519738","lat":"31.2350994039","category":"247","category_name":"餐饮美食","address":"上海市黄浦区黄河路"},{"poiid":"B2094751DA6EA7FB499F","title":"七叶和茶","lon":"121.472564","lat":"31.236936","category":"247","category_name":"餐饮美食","address":"黄浦区南京东路720号第一食品商厦3楼(近贵州路)"},{"poiid":"B2094757D06FA4F84298","title":"许留山(新世界店)","lon":"121.47317173","lat":"31.235074403","category":"67","category_name":"甜品店","address":"黄浦区南京西路2-68号新世纪城12楼(近西藏中路)"},{"poiid":"B2094751D56CA3FC489D","title":"悦粤茶餐厅(人民广场店)","lon":"121.47385","lat":"31.23629","category":"72","category_name":"广东菜","address":"黄浦区西藏中路525号雅居乐国际广场4楼(近新世界百货)"},{"poiid":"B2094757DB69AAFD409C","title":"善知鸟日本创作料理","lon":"121.474278","lat":"31.235902","category":"95","category_name":"日本料理","address":"黄浦区西藏中路500号思源商厦6A(近凤阳路)"},{"poiid":"B2094750D669A6F5409F","title":"新世界电影城","lon":"121.471672","lat":"31.236904","category":"178","category_name":"电影院","address":"南京西路2～68号新世界城12楼"},{"poiid":"B2094757D16DA5FD439B","title":"布丁酒店","lon":"121.47150373","lat":"31.238774482","category":"217","category_name":"旅馆招待所","address":"上海市黄浦区西藏中路725弄41号（新闸路126号）"},{"poiid":"B2094752D46CA1F5409A","title":"三宝粥铺","lon":"121.474482","lat":"31.235848","category":"247","category_name":"餐饮美食","address":"第一百货8楼"},{"poiid":"B2094750D66BAAF54298","title":"猫屎咖啡(雅居乐国际广场店)","lon":"121.474","lat":"31.2358","category":"260","category_name":"其他","address":"黄浦区西藏中路525号雅居乐国际广场1楼"},{"poiid":"B2094751DA6DA4FB469F","title":"黄记煌","lon":"121.473479","lat":"31.238534","category":"247","category_name":"餐饮美食","address":"黄浦区南京东路720号第一食品城4楼"},{"poiid":"B2094750DA65A4FE449F","title":"五木铁板烧","lon":"121.473594","lat":"31.236803","category":"269","category_name":"烧烤","address":"黄浦区西藏中路500号思源商厦4楼"},{"poiid":"B2094655D26BA1F54992","title":"峻岭广场","lon":"121.474","lat":"31.2383","category":"252","category_name":"楼宇机构","address":"成都北路500号"},{"poiid":"B2094751D469A1FD459A","title":"利苒西班牙餐厅","lon":"121.47333","lat":"31.2368","category":"94","category_name":"西餐厅","address":"黄浦区西藏中路559号雅居乐国际广场3楼(近新世界)"},{"poiid":"B2094750DA64A7F4499B","title":"偶吧私房蔡音乐餐厅 Oh Bar","lon":"121.473838","lat":"31.23718","category":"248","category_name":"生活娱乐","address":"黄浦区六合路158号"},{"poiid":"B2094757D56CA0F4469B","title":"燕云楼 南京店","lon":"121.47063371349","lat":"31.236846725643","category":"247","category_name":"餐饮美食","address":"南京东路755号8-9楼"},{"poiid":"B2094750D669A3F54492","title":"稻庭","lon":"121.47425","lat":"31.236448","category":"95","category_name":"日本料理","address":"黄浦区西藏中路525号雅居乐国际广场3楼(近凤阳路)"},{"poiid":"B2094757D069A2FE489F","title":"肯德基(第一百货店)","lon":"121.47395573","lat":"31.235828419","category":"68","category_name":"快餐厅","address":"黄浦区西藏中路462号市百一店1楼(长沙路凤阳路)"},{"poiid":"B2094750D26AAAF94692","title":"日月光广场","lon":"121.471481","lat":"31.238767","category":"500","category_name":"未知分类","address":null},{"poiid":"B2094752D069A0FF4993","title":"耶里夏丽新疆餐厅（南京东路店）","lon":"121.471674","lat":"31.23686","category":"247","category_name":"餐饮美食","address":"南京东路819号百联世茂国际广场7楼"},{"poiid":"B2094654DA6FAAF5429E","title":"上海市格致初级中学","lon":"121.47212","lat":"31.23566","category":"55","category_name":"中学","address":"黄浦区长沙路35号(近北京西路)"},{"poiid":"B209475CD26EA7FF489C","title":"田子坊","lon":"121.474563","lat":"31.235965","category":"500","category_name":"未知分类","address":"上海市 上海卢湾区泰康路"},{"poiid":"B2094753D66BABF9469C","title":"年代秀饭堂","lon":"121.474029","lat":"31.236221","category":"247","category_name":"餐饮美食","address":"上海市 雅居乐国际广场3楼"},{"poiid":"B2094654DA68A3FA4799","title":"新加坡泰国村鱼翅 黄浦店","lon":"121.47261142731","lat":"31.236839052649","category":"72","category_name":"广东菜","address":"黄浦区北京西路61号新金桥广场(近西藏中路)"},{"poiid":"B2094750DB6CA4FA419B","title":"上海市，黄浦区，南京路步行街","lon":"121.4748171","lat":"31.2371356","category":"500","category_name":"未知分类","address":null},{"poiid":"B2094757D06FA7FC4599","title":"传奇台球(黄浦店)","lon":"121.47326","lat":"31.23912","category":"171","category_name":"台球厅","address":"上海黄浦区西藏中路698号3-4楼(近北京中路)"},{"poiid":"B2094655D26DA3FF409E","title":"上海馨乐庭金桥服务公寓","lon":"121.47241","lat":"31.23686","category":"250","category_name":"公园户外","address":"黄浦区北京西路55号(牯岭路西藏中路)"},{"poiid":"B2094655D26DA1F8459F","title":"思源商厦","lon":"121.47442","lat":"31.23627","category":"119","category_name":"商场","address":"黄浦区西藏中路500号近凤阳路口"},{"poiid":"B2094757D06FA2F5469A","title":"花袭人红楼干锅(市一百店)","lon":"121.47399822","lat":"31.235566588","category":"71","category_name":"四川菜","address":"黄浦区南京东路830号第一百货新楼1楼(南京东路西藏中路)"},{"poiid":"B2094750D665AAF9449F","title":"汤经面道(西藏中路店)","lon":"121.474","lat":"31.2358","category":"68","category_name":"快餐厅","address":"黄浦区西藏中路559号雅居乐国际广场2楼214室(近南京东路)"},{"poiid":"B2094757DB69A4F44792","title":"雅居乐万豪酒店 中餐厅 Man Ho","lon":"121.4737085","lat":"31.2366652","category":"247","category_name":"餐饮美食","address":"黄浦区西藏中路555号雅居乐万豪4楼(近人民广场)"},{"poiid":"B2094655D36CA5F54298","title":"北京东路","lon":"121.47413","lat":"31.2357","category":"38","category_name":"公交车站","address":""},{"poiid":"B2094655D26DAAF4429C","title":"上海歌城(西藏中路)","lon":"121.47374","lat":"31.23549","category":"170","category_name":"KTV","address":"西藏中路399号新世界城"},{"poiid":"B2094757D068A4FF429B","title":"上海雅居乐万豪酒店","lon":"121.473508738","lat":"31.2361444261","category":"217","category_name":"旅馆招待所","address":"上海市黄浦区西藏中路555号(近新世界)"},{"poiid":"B2094751DA6DA1F5439F","title":"上海年代秀主题餐厅","lon":"121.473342","lat":"31.235938","category":"76","category_name":"上海菜","address":"黄浦区西藏中路525号雅居乐广场3楼308商铺(近凤阳路预计11月开业)"},{"poiid":"B2094753D76FAAFA449C","title":"上海滩国泰旗舰店","lon":"121.466011","lat":"31.216125","category":"249","category_name":"购物服务","address":"淮海中路868号"},{"poiid":"B209475CD564A7F84292","title":"上海滩新天地店","lon":"121.47463","lat":"31.22164","category":"119","category_name":"商场","address":"\"太仓路181弄新天地北里15号\r\n\""},{"poiid":"B209475CD564A7F8439E","title":"上海滩中信泰富店","lon":"121.45602","lat":"31.22851","category":"119","category_name":"商场","address":"\"南京西路1168号中信泰富广场，店铺号221.\r\n\""},{"poiid":"B209475CD564A7F84392","title":"上海滩浦东香格里拉店","lon":"121.50058","lat":"31.23634","category":"119","category_name":"商场","address":"浦东富成路33号香格里拉酒店内大堂层"},{"poiid":"B2094655D36CA2FC439A","title":"雅居乐国际广场","lon":"121.47251","lat":"31.23629","category":"46","category_name":"楼宇","address":"黄浦区西藏中路525号(近凤阳路)"},{"poiid":"B2094757D06FA3F5489A","title":"南证大厦","lon":"121.473","lat":"31.2374","category":"46","category_name":"楼宇","address":"上海静安区南京西路580号近成都路"},{"poiid":"B2094757D06AA2FA4992","title":"黄河路","lon":"121.470752","lat":"31.236218","category":"500","category_name":"未知分类","address":"上海黄河路北京西路路口"},{"poiid":"B2094757D56CAAFD449F","title":"来福小馆 人民广场店","lon":"121.4737085","lat":"31.2366652","category":"71","category_name":"四川菜","address":"黄浦区西藏中路559号雅居乐国际广场3楼(近凤阳路)"},{"poiid":"B2094757DB69A4F4479D","title":"雅居乐万豪酒店 都会尚膳 Shanghai City Bistro","lon":"121.4737085","lat":"31.2366652","category":"268","category_name":"自助","address":"西藏中路555号雅居乐万豪酒店3楼(近凤阳路)"},{"poiid":"B2094757D068A7F84498","title":"汤姆熊(新世界店)","lon":"121.473908238","lat":"31.2356113148","category":"173","category_name":"游戏厅","address":"黄浦区南京西路2-68号新世界城9楼(近西藏中路)"},{"poiid":"B2094752D265A3FE4892","title":"伊秀手握寿司","lon":"121.471898","lat":"31.236862","category":"247","category_name":"餐饮美食","address":"上海市黄浦区南京东路720号第一食品商厦4楼(近贵州路)"},{"poiid":"B2094757D069A6F8419C","title":"上海广场嘉廷酒店","lon":"121.4709877","lat":"31.2382483","category":"217","category_name":"旅馆招待所","address":"黄浦区新闸路126号(长沙路路口)"},{"poiid":"B2094757D46FABFD409D","title":"丰收日 人民广场店","lon":"121.4737085","lat":"31.2366652","category":"75","category_name":"浙江菜","address":"黄浦区西藏中路555号雅居乐万豪4楼(近凤阳路)"},{"poiid":"B2094757D069ABFA459C","title":"上海歌城新世界店","lon":"121.473934738","lat":"31.2364634329","category":"500","category_name":"未知分类","address":"上海市黄浦区温州路"},{"poiid":"B2094757D068A7FD489E","title":"新开元大酒店","lon":"121.474001738","lat":"31.2362734289","category":"75","category_name":"浙江菜","address":"黄浦区六合路98号3-4楼(近市百一店)"},{"poiid":"B2094757D069A1F94098","title":"上影华威电影城","lon":"121.473907","lat":"31.23492","category":"178","category_name":"电影院","address":"黄浦区南京西路2-68号新世界城11-12楼(近西藏中路)"},{"poiid":"B2094757D165A0FA499A","title":"千彩休闲小火锅","lon":"121.473519738","lat":"31.2350994039","category":"247","category_name":"餐饮美食","address":"上海市黄浦区黄河路"},{"poiid":"B2094751DA6EA7FB499F","title":"七叶和茶","lon":"121.472564","lat":"31.236936","category":"247","category_name":"餐饮美食","address":"黄浦区南京东路720号第一食品商厦3楼(近贵州路)"},{"poiid":"B2094757D06FA4F84298","title":"许留山(新世界店)","lon":"121.47317173","lat":"31.235074403","category":"67","category_name":"甜品店","address":"黄浦区南京西路2-68号新世纪城12楼(近西藏中路)"},{"poiid":"B2094751D56CA3FC489D","title":"悦粤茶餐厅(人民广场店)","lon":"121.47385","lat":"31.23629","category":"72","category_name":"广东菜","address":"黄浦区西藏中路525号雅居乐国际广场4楼(近新世界百货)"},{"poiid":"B2094757DB69AAFD409C","title":"善知鸟日本创作料理","lon":"121.474278","lat":"31.235902","category":"95","category_name":"日本料理","address":"黄浦区西藏中路500号思源商厦6A(近凤阳路)"},{"poiid":"B2094750D669A6F5409F","title":"新世界电影城","lon":"121.471672","lat":"31.236904","category":"178","category_name":"电影院","address":"南京西路2～68号新世界城12楼"},{"poiid":"B2094757D16DA5FD439B","title":"布丁酒店","lon":"121.47150373","lat":"31.238774482","category":"217","category_name":"旅馆招待所","address":"上海市黄浦区西藏中路725弄41号（新闸路126号）"},{"poiid":"B2094752D46CA1F5409A","title":"三宝粥铺","lon":"121.474482","lat":"31.235848","category":"247","category_name":"餐饮美食","address":"第一百货8楼"},{"poiid":"B2094750D66BAAF54298","title":"猫屎咖啡(雅居乐国际广场店)","lon":"121.474","lat":"31.2358","category":"260","category_name":"其他","address":"黄浦区西藏中路525号雅居乐国际广场1楼"},{"poiid":"B2094751DA6DA4FB469F","title":"黄记煌","lon":"121.473479","lat":"31.238534","category":"247","category_name":"餐饮美食","address":"黄浦区南京东路720号第一食品城4楼"},{"poiid":"B2094750DA65A4FE449F","title":"五木铁板烧","lon":"121.473594","lat":"31.236803","category":"269","category_name":"烧烤","address":"黄浦区西藏中路500号思源商厦4楼"},{"poiid":"B2094655D26BA1F54992","title":"峻岭广场","lon":"121.474","lat":"31.2383","category":"252","category_name":"楼宇机构","address":"成都北路500号"},{"poiid":"B2094751D469A1FD459A","title":"利苒西班牙餐厅","lon":"121.47333","lat":"31.2368","category":"94","category_name":"西餐厅","address":"黄浦区西藏中路559号雅居乐国际广场3楼(近新世界)"},{"poiid":"B2094750DA64A7F4499B","title":"偶吧私房蔡音乐餐厅 Oh Bar","lon":"121.473838","lat":"31.23718","category":"248","category_name":"生活娱乐","address":"黄浦区六合路158号"},{"poiid":"B2094757D56CA0F4469B","title":"燕云楼 南京店","lon":"121.47063371349","lat":"31.236846725643","category":"247","category_name":"餐饮美食","address":"南京东路755号8-9楼"},{"poiid":"B2094750D669A3F54492","title":"稻庭","lon":"121.47425","lat":"31.236448","category":"95","category_name":"日本料理","address":"黄浦区西藏中路525号雅居乐国际广场3楼(近凤阳路)"},{"poiid":"B2094757D069A2FE489F","title":"肯德基(第一百货店)","lon":"121.47395573","lat":"31.235828419","category":"68","category_name":"快餐厅","address":"黄浦区西藏中路462号市百一店1楼(长沙路凤阳路)"},{"poiid":"B2094750D26AAAF94692","title":"日月光广场","lon":"121.471481","lat":"31.238767","category":"500","category_name":"未知分类","address":null},{"poiid":"B2094752D069A0FF4993","title":"耶里夏丽新疆餐厅（南京东路店）","lon":"121.471674","lat":"31.23686","category":"247","category_name":"餐饮美食","address":"南京东路819号百联世茂国际广场7楼"},{"poiid":"B2094654DA6FAAF5429E","title":"上海市格致初级中学","lon":"121.47212","lat":"31.23566","category":"55","category_name":"中学","address":"黄浦区长沙路35号(近北京西路)"},{"poiid":"B209475CD26EA7FF489C","title":"田子坊","lon":"121.474563","lat":"31.235965","category":"500","category_name":"未知分类","address":"上海市 上海卢湾区泰康路"},{"poiid":"B2094753D66BABF9469C","title":"年代秀饭堂","lon":"121.474029","lat":"31.236221","category":"247","category_name":"餐饮美食","address":"上海市 雅居乐国际广场3楼"},{"poiid":"B2094654DA68A3FA4799","title":"新加坡泰国村鱼翅 黄浦店","lon":"121.47261142731","lat":"31.236839052649","category":"72","category_name":"广东菜","address":"黄浦区北京西路61号新金桥广场(近西藏中路)"},{"poiid":"B2094750DB6CA4FA419B","title":"上海市，黄浦区，南京路步行街","lon":"121.4748171","lat":"31.2371356","category":"500","category_name":"未知分类","address":null},{"poiid":"B2094757D06FA7FC4599","title":"传奇台球(黄浦店)","lon":"121.47326","lat":"31.23912","category":"171","category_name":"台球厅","address":"上海黄浦区西藏中路698号3-4楼(近北京中路)"},{"poiid":"B2094655D26DA3FF409E","title":"上海馨乐庭金桥服务公寓","lon":"121.47241","lat":"31.23686","category":"250","category_name":"公园户外","address":"黄浦区北京西路55号(牯岭路西藏中路)"},{"poiid":"B2094655D26DA1F8459F","title":"思源商厦","lon":"121.47442","lat":"31.23627","category":"119","category_name":"商场","address":"黄浦区西藏中路500号近凤阳路口"},{"poiid":"B2094757D06FA2F5469A","title":"花袭人红楼干锅(市一百店)","lon":"121.47399822","lat":"31.235566588","category":"71","category_name":"四川菜","address":"黄浦区南京东路830号第一百货新楼1楼(南京东路西藏中路)"},{"poiid":"B2094750D665AAF9449F","title":"汤经面道(西藏中路店)","lon":"121.474","lat":"31.2358","category":"68","category_name":"快餐厅","address":"黄浦区西藏中路559号雅居乐国际广场2楼214室(近南京东路)"},{"poiid":"B2094757DB69A4F44792","title":"雅居乐万豪酒店 中餐厅 Man Ho","lon":"121.4737085","lat":"31.2366652","category":"247","category_name":"餐饮美食","address":"黄浦区西藏中路555号雅居乐万豪4楼(近人民广场)"},{"poiid":"B2094655D36CA5F54298","title":"北京东路","lon":"121.47413","lat":"31.2357","category":"38","category_name":"公交车站","address":""},{"poiid":"B2094655D26DAAF4429C","title":"上海歌城(西藏中路)","lon":"121.47374","lat":"31.23549","category":"170","category_name":"KTV","address":"西藏中路399号新世界城"},{"poiid":"B2094757D068A4FF429B","title":"上海雅居乐万豪酒店","lon":"121.473508738","lat":"31.2361444261","category":"217","category_name":"旅馆招待所","address":"上海市黄浦区西藏中路555号(近新世界)"},{"poiid":"B2094751DA6DA1F5439F","title":"上海年代秀主题餐厅","lon":"121.473342","lat":"31.235938","category":"76","category_name":"上海菜","address":"黄浦区西藏中路525号雅居乐广场3楼308商铺(近凤阳路预计11月开业)"},{"poiid":"B2094753D76FAAFA449C","title":"上海滩国泰旗舰店","lon":"121.466011","lat":"31.216125","category":"249","category_name":"购物服务","address":"淮海中路868号"},{"poiid":"B209475CD564A7F84292","title":"上海滩新天地店","lon":"121.47463","lat":"31.22164","category":"119","category_name":"商场","address":"\"太仓路181弄新天地北里15号\r\n\""},{"poiid":"B209475CD564A7F8439E","title":"上海滩中信泰富店","lon":"121.45602","lat":"31.22851","category":"119","category_name":"商场","address":"\"南京西路1168号中信泰富广场，店铺号221.\r\n\""},{"poiid":"B209475CD564A7F84392","title":"上海滩浦东香格里拉店","lon":"121.50058","lat":"31.23634","category":"119","category_name":"商场","address":"浦东富成路33号香格里拉酒店内大堂层"},{"poiid":"B2094655D36CA2FC439A","title":"雅居乐国际广场","lon":"121.47251","lat":"31.23629","category":"46","category_name":"楼宇","address":"黄浦区西藏中路525号(近凤阳路)"},{"poiid":"B2094757D06FA3F5489A","title":"南证大厦","lon":"121.473","lat":"31.2374","category":"46","category_name":"楼宇","address":"上海静安区南京西路580号近成都路"},{"poiid":"B2094757D06AA2FA4992","title":"黄河路","lon":"121.470752","lat":"31.236218","category":"500","category_name":"未知分类","address":"上海黄河路北京西路路口"},{"poiid":"B2094757D56CAAFD449F","title":"来福小馆 人民广场店","lon":"121.4737085","lat":"31.2366652","category":"71","category_name":"四川菜","address":"黄浦区西藏中路559号雅居乐国际广场3楼(近凤阳路)"},{"poiid":"B2094757DB69A4F4479D","title":"雅居乐万豪酒店 都会尚膳 Shanghai City Bistro","lon":"121.4737085","lat":"31.2366652","category":"268","category_name":"自助","address":"西藏中路555号雅居乐万豪酒店3楼(近凤阳路)"},{"poiid":"B2094757D068A7F84498","title":"汤姆熊(新世界店)","lon":"121.473908238","lat":"31.2356113148","category":"173","category_name":"游戏厅","address":"黄浦区南京西路2-68号新世界城9楼(近西藏中路)"},{"poiid":"B2094752D265A3FE4892","title":"伊秀手握寿司","lon":"121.471898","lat":"31.236862","category":"247","category_name":"餐饮美食","address":"上海市黄浦区南京东路720号第一食品商厦4楼(近贵州路)"},{"poiid":"B2094757D069A6F8419C","title":"上海广场嘉廷酒店","lon":"121.4709877","lat":"31.2382483","category":"217","category_name":"旅馆招待所","address":"黄浦区新闸路126号(长沙路路口)"},{"poiid":"B2094757D46FABFD409D","title":"丰收日 人民广场店","lon":"121.4737085","lat":"31.2366652","category":"75","category_name":"浙江菜","address":"黄浦区西藏中路555号雅居乐万豪4楼(近凤阳路)"},{"poiid":"B2094757D069ABFA459C","title":"上海歌城新世界店","lon":"121.473934738","lat":"31.2364634329","category":"500","category_name":"未知分类","address":"上海市黄浦区温州路"},{"poiid":"B2094757D068A7FD489E","title":"新开元大酒店","lon":"121.474001738","lat":"31.2362734289","category":"75","category_name":"浙江菜","address":"黄浦区六合路98号3-4楼(近市百一店)"},{"poiid":"B2094757D069A1F94098","title":"上影华威电影城","lon":"121.473907","lat":"31.23492","category":"178","category_name":"电影院","address":"黄浦区南京西路2-68号新世界城11-12楼(近西藏中路)"},{"poiid":"B2094757D165A0FA499A","title":"千彩休闲小火锅","lon":"121.473519738","lat":"31.2350994039","category":"247","category_name":"餐饮美食","address":"上海市黄浦区黄河路"},{"poiid":"B2094751DA6EA7FB499F","title":"七叶和茶","lon":"121.472564","lat":"31.236936","category":"247","category_name":"餐饮美食","address":"黄浦区南京东路720号第一食品商厦3楼(近贵州路)"},{"poiid":"B2094757D06FA4F84298","title":"许留山(新世界店)","lon":"121.47317173","lat":"31.235074403","category":"67","category_name":"甜品店","address":"黄浦区南京西路2-68号新世纪城12楼(近西藏中路)"},{"poiid":"B2094751D56CA3FC489D","title":"悦粤茶餐厅(人民广场店)","lon":"121.47385","lat":"31.23629","category":"72","category_name":"广东菜","address":"黄浦区西藏中路525号雅居乐国际广场4楼(近新世界百货)"},{"poiid":"B2094757DB69AAFD409C","title":"善知鸟日本创作料理","lon":"121.474278","lat":"31.235902","category":"95","category_name":"日本料理","address":"黄浦区西藏中路500号思源商厦6A(近凤阳路)"},{"poiid":"B2094750D669A6F5409F","title":"新世界电影城","lon":"121.471672","lat":"31.236904","category":"178","category_name":"电影院","address":"南京西路2～68号新世界城12楼"},{"poiid":"B2094757D16DA5FD439B","title":"布丁酒店","lon":"121.47150373","lat":"31.238774482","category":"217","category_name":"旅馆招待所","address":"上海市黄浦区西藏中路725弄41号（新闸路126号）"},{"poiid":"B2094752D46CA1F5409A","title":"三宝粥铺","lon":"121.474482","lat":"31.235848","category":"247","category_name":"餐饮美食","address":"第一百货8楼"},{"poiid":"B2094750D66BAAF54298","title":"猫屎咖啡(雅居乐国际广场店)","lon":"121.474","lat":"31.2358","category":"260","category_name":"其他","address":"黄浦区西藏中路525号雅居乐国际广场1楼"},{"poiid":"B2094751DA6DA4FB469F","title":"黄记煌","lon":"121.473479","lat":"31.238534","category":"247","category_name":"餐饮美食","address":"黄浦区南京东路720号第一食品城4楼"},{"poiid":"B2094750DA65A4FE449F","title":"五木铁板烧","lon":"121.473594","lat":"31.236803","category":"269","category_name":"烧烤","address":"黄浦区西藏中路500号思源商厦4楼"},{"poiid":"B2094655D26BA1F54992","title":"峻岭广场","lon":"121.474","lat":"31.2383","category":"252","category_name":"楼宇机构","address":"成都北路500号"},{"poiid":"B2094751D469A1FD459A","title":"利苒西班牙餐厅","lon":"121.47333","lat":"31.2368","category":"94","category_name":"西餐厅","address":"黄浦区西藏中路559号雅居乐国际广场3楼(近新世界)"},{"poiid":"B2094750DA64A7F4499B","title":"偶吧私房蔡音乐餐厅 Oh Bar","lon":"121.473838","lat":"31.23718","category":"248","category_name":"生活娱乐","address":"黄浦区六合路158号"},{"poiid":"B2094757D56CA0F4469B","title":"燕云楼 南京店","lon":"121.47063371349","lat":"31.236846725643","category":"247","category_name":"餐饮美食","address":"南京东路755号8-9楼"},{"poiid":"B2094750D669A3F54492","title":"稻庭","lon":"121.47425","lat":"31.236448","category":"95","category_name":"日本料理","address":"黄浦区西藏中路525号雅居乐国际广场3楼(近凤阳路)"},{"poiid":"B2094757D069A2FE489F","title":"肯德基(第一百货店)","lon":"121.47395573","lat":"31.235828419","category":"68","category_name":"快餐厅","address":"黄浦区西藏中路462号市百一店1楼(长沙路凤阳路)"},{"poiid":"B2094750D26AAAF94692","title":"日月光广场","lon":"121.471481","lat":"31.238767","category":"500","category_name":"未知分类","address":null},{"poiid":"B2094752D069A0FF4993","title":"耶里夏丽新疆餐厅（南京东路店）","lon":"121.471674","lat":"31.23686","category":"247","category_name":"餐饮美食","address":"南京东路819号百联世茂国际广场7楼"},{"poiid":"B2094654DA6FAAF5429E","title":"上海市格致初级中学","lon":"121.47212","lat":"31.23566","category":"55","category_name":"中学","address":"黄浦区长沙路35号(近北京西路)"},{"poiid":"B209475CD26EA7FF489C","title":"田子坊","lon":"121.474563","lat":"31.235965","category":"500","category_name":"未知分类","address":"上海市 上海卢湾区泰康路"},{"poiid":"B2094753D66BABF9469C","title":"年代秀饭堂","lon":"121.474029","lat":"31.236221","category":"247","category_name":"餐饮美食","address":"上海市 雅居乐国际广场3楼"},{"poiid":"B2094654DA68A3FA4799","title":"新加坡泰国村鱼翅 黄浦店","lon":"121.47261142731","lat":"31.236839052649","category":"72","category_name":"广东菜","address":"黄浦区北京西路61号新金桥广场(近西藏中路)"},{"poiid":"B2094750DB6CA4FA419B","title":"上海市，黄浦区，南京路步行街","lon":"121.4748171","lat":"31.2371356","category":"500","category_name":"未知分类","address":null},{"poiid":"B2094757D06FA7FC4599","title":"传奇台球(黄浦店)","lon":"121.47326","lat":"31.23912","category":"171","category_name":"台球厅","address":"上海黄浦区西藏中路698号3-4楼(近北京中路)"},{"poiid":"B2094655D26DA3FF409E","title":"上海馨乐庭金桥服务公寓","lon":"121.47241","lat":"31.23686","category":"250","category_name":"公园户外","address":"黄浦区北京西路55号(牯岭路西藏中路)"},{"poiid":"B2094655D26DA1F8459F","title":"思源商厦","lon":"121.47442","lat":"31.23627","category":"119","category_name":"商场","address":"黄浦区西藏中路500号近凤阳路口"},{"poiid":"B2094757D06FA2F5469A","title":"花袭人红楼干锅(市一百店)","lon":"121.47399822","lat":"31.235566588","category":"71","category_name":"四川菜","address":"黄浦区南京东路830号第一百货新楼1楼(南京东路西藏中路)"},{"poiid":"B2094750D665AAF9449F","title":"汤经面道(西藏中路店)","lon":"121.474","lat":"31.2358","category":"68","category_name":"快餐厅","address":"黄浦区西藏中路559号雅居乐国际广场2楼214室(近南京东路)"},{"poiid":"B2094757DB69A4F44792","title":"雅居乐万豪酒店 中餐厅 Man Ho","lon":"121.4737085","lat":"31.2366652","category":"247","category_name":"餐饮美食","address":"黄浦区西藏中路555号雅居乐万豪4楼(近人民广场)"},{"poiid":"B2094655D36CA5F54298","title":"北京东路","lon":"121.47413","lat":"31.2357","category":"38","category_name":"公交车站","address":""},{"poiid":"B2094655D26DAAF4429C","title":"上海歌城(西藏中路)","lon":"121.47374","lat":"31.23549","category":"170","category_name":"KTV","address":"西藏中路399号新世界城"},{"poiid":"B2094757D068A4FF429B","title":"上海雅居乐万豪酒店","lon":"121.473508738","lat":"31.2361444261","category":"217","category_name":"旅馆招待所","address":"上海市黄浦区西藏中路555号(近新世界)"},{"poiid":"B2094751DA6DA1F5439F","title":"上海年代秀主题餐厅","lon":"121.473342","lat":"31.235938","category":"76","category_name":"上海菜","address":"黄浦区西藏中路525号雅居乐广场3楼308商铺(近凤阳路预计11月开业)"},{"poiid":"B2094753D76FAAFA449C","title":"上海滩国泰旗舰店","lon":"121.466011","lat":"31.216125","category":"249","category_name":"购物服务","address":"淮海中路868号"},{"poiid":"B209475CD564A7F84292","title":"上海滩新天地店","lon":"121.47463","lat":"31.22164","category":"119","category_name":"商场","address":"\"太仓路181弄新天地北里15号\r\n\""},{"poiid":"B209475CD564A7F8439E","title":"上海滩中信泰富店","lon":"121.45602","lat":"31.22851","category":"119","category_name":"商场","address":"\"南京西路1168号中信泰富广场，店铺号221.\r\n\""},{"poiid":"B209475CD564A7F84392","title":"上海滩浦东香格里拉店","lon":"121.50058","lat":"31.23634","category":"119","category_name":"商场","address":"浦东富成路33号香格里拉酒店内大堂层"},{"poiid":"B2094655D36CA2FC439A","title":"雅居乐国际广场","lon":"121.47251","lat":"31.23629","category":"46","category_name":"楼宇","address":"黄浦区西藏中路525号(近凤阳路)"},{"poiid":"B2094757D06FA3F5489A","title":"南证大厦","lon":"121.473","lat":"31.2374","category":"46","category_name":"楼宇","address":"上海静安区南京西路580号近成都路"},{"poiid":"B2094757D06AA2FA4992","title":"黄河路","lon":"121.470752","lat":"31.236218","category":"500","category_name":"未知分类","address":"上海黄河路北京西路路口"},{"poiid":"B2094757D56CAAFD449F","title":"来福小馆 人民广场店","lon":"121.4737085","lat":"31.2366652","category":"71","category_name":"四川菜","address":"黄浦区西藏中路559号雅居乐国际广场3楼(近凤阳路)"},{"poiid":"B2094757DB69A4F4479D","title":"雅居乐万豪酒店 都会尚膳 Shanghai City Bistro","lon":"121.4737085","lat":"31.2366652","category":"268","category_name":"自助","address":"西藏中路555号雅居乐万豪酒店3楼(近凤阳路)"},{"poiid":"B2094757D068A7F84498","title":"汤姆熊(新世界店)","lon":"121.473908238","lat":"31.2356113148","category":"173","category_name":"游戏厅","address":"黄浦区南京西路2-68号新世界城9楼(近西藏中路)"},{"poiid":"B2094752D265A3FE4892","title":"伊秀手握寿司","lon":"121.471898","lat":"31.236862","category":"247","category_name":"餐饮美食","address":"上海市黄浦区南京东路720号第一食品商厦4楼(近贵州路)"},{"poiid":"B2094757D069A6F8419C","title":"上海广场嘉廷酒店","lon":"121.4709877","lat":"31.2382483","category":"217","category_name":"旅馆招待所","address":"黄浦区新闸路126号(长沙路路口)"},{"poiid":"B2094757D46FABFD409D","title":"丰收日 人民广场店","lon":"121.4737085","lat":"31.2366652","category":"75","category_name":"浙江菜","address":"黄浦区西藏中路555号雅居乐万豪4楼(近凤阳路)"},{"poiid":"B2094757D069ABFA459C","title":"上海歌城新世界店","lon":"121.473934738","lat":"31.2364634329","category":"500","category_name":"未知分类","address":"上海市黄浦区温州路"},{"poiid":"B2094757D068A7FD489E","title":"新开元大酒店","lon":"121.474001738","lat":"31.2362734289","category":"75","category_name":"浙江菜","address":"黄浦区六合路98号3-4楼(近市百一店)"},{"poiid":"B2094757D069A1F94098","title":"上影华威电影城","lon":"121.473907","lat":"31.23492","category":"178","category_name":"电影院","address":"黄浦区南京西路2-68号新世界城11-12楼(近西藏中路)"},{"poiid":"B2094757D165A0FA499A","title":"千彩休闲小火锅","lon":"121.473519738","lat":"31.2350994039","category":"247","category_name":"餐饮美食","address":"上海市黄浦区黄河路"},{"poiid":"B2094751DA6EA7FB499F","title":"七叶和茶","lon":"121.472564","lat":"31.236936","category":"247","category_name":"餐饮美食","address":"黄浦区南京东路720号第一食品商厦3楼(近贵州路)"},{"poiid":"B2094757D06FA4F84298","title":"许留山(新世界店)","lon":"121.47317173","lat":"31.235074403","category":"67","category_name":"甜品店","address":"黄浦区南京西路2-68号新世纪城12楼(近西藏中路)"},{"poiid":"B2094751D56CA3FC489D","title":"悦粤茶餐厅(人民广场店)","lon":"121.47385","lat":"31.23629","category":"72","category_name":"广东菜","address":"黄浦区西藏中路525号雅居乐国际广场4楼(近新世界百货)"},{"poiid":"B2094757DB69AAFD409C","title":"善知鸟日本创作料理","lon":"121.474278","lat":"31.235902","category":"95","category_name":"日本料理","address":"黄浦区西藏中路500号思源商厦6A(近凤阳路)"},{"poiid":"B2094750D669A6F5409F","title":"新世界电影城","lon":"121.471672","lat":"31.236904","category":"178","category_name":"电影院","address":"南京西路2～68号新世界城12楼"},{"poiid":"B2094757D16DA5FD439B","title":"布丁酒店","lon":"121.47150373","lat":"31.238774482","category":"217","category_name":"旅馆招待所","address":"上海市黄浦区西藏中路725弄41号（新闸路126号）"},{"poiid":"B2094752D46CA1F5409A","title":"三宝粥铺","lon":"121.474482","lat":"31.235848","category":"247","category_name":"餐饮美食","address":"第一百货8楼"},{"poiid":"B2094750D66BAAF54298","title":"猫屎咖啡(雅居乐国际广场店)","lon":"121.474","lat":"31.2358","category":"260","category_name":"其他","address":"黄浦区西藏中路525号雅居乐国际广场1楼"},{"poiid":"B2094751DA6DA4FB469F","title":"黄记煌","lon":"121.473479","lat":"31.238534","category":"247","category_name":"餐饮美食","address":"黄浦区南京东路720号第一食品城4楼"},{"poiid":"B2094750DA65A4FE449F","title":"五木铁板烧","lon":"121.473594","lat":"31.236803","category":"269","category_name":"烧烤","address":"黄浦区西藏中路500号思源商厦4楼"},{"poiid":"B2094655D26BA1F54992","title":"峻岭广场","lon":"121.474","lat":"31.2383","category":"252","category_name":"楼宇机构","address":"成都北路500号"},{"poiid":"B2094751D469A1FD459A","title":"利苒西班牙餐厅","lon":"121.47333","lat":"31.2368","category":"94","category_name":"西餐厅","address":"黄浦区西藏中路559号雅居乐国际广场3楼(近新世界)"},{"poiid":"B2094750DA64A7F4499B","title":"偶吧私房蔡音乐餐厅 Oh Bar","lon":"121.473838","lat":"31.23718","category":"248","category_name":"生活娱乐","address":"黄浦区六合路158号"},{"poiid":"B2094757D56CA0F4469B","title":"燕云楼 南京店","lon":"121.47063371349","lat":"31.236846725643","category":"247","category_name":"餐饮美食","address":"南京东路755号8-9楼"},{"poiid":"B2094750D669A3F54492","title":"稻庭","lon":"121.47425","lat":"31.236448","category":"95","category_name":"日本料理","address":"黄浦区西藏中路525号雅居乐国际广场3楼(近凤阳路)"},{"poiid":"B2094757D069A2FE489F","title":"肯德基(第一百货店)","lon":"121.47395573","lat":"31.235828419","category":"68","category_name":"快餐厅","address":"黄浦区西藏中路462号市百一店1楼(长沙路凤阳路)"},{"poiid":"B2094750D26AAAF94692","title":"日月光广场","lon":"121.471481","lat":"31.238767","category":"500","category_name":"未知分类","address":null},{"poiid":"B2094752D069A0FF4993","title":"耶里夏丽新疆餐厅（南京东路店）","lon":"121.471674","lat":"31.23686","category":"247","category_name":"餐饮美食","address":"南京东路819号百联世茂国际广场7楼"},{"poiid":"B2094654DA6FAAF5429E","title":"上海市格致初级中学","lon":"121.47212","lat":"31.23566","category":"55","category_name":"中学","address":"黄浦区长沙路35号(近北京西路)"},{"poiid":"B209475CD26EA7FF489C","title":"田子坊","lon":"121.474563","lat":"31.235965","category":"500","category_name":"未知分类","address":"上海市 上海卢湾区泰康路"},{"poiid":"B2094753D66BABF9469C","title":"年代秀饭堂","lon":"121.474029","lat":"31.236221","category":"247","category_name":"餐饮美食","address":"上海市 雅居乐国际广场3楼"},{"poiid":"B2094654DA68A3FA4799","title":"新加坡泰国村鱼翅 黄浦店","lon":"121.47261142731","lat":"31.236839052649","category":"72","category_name":"广东菜","address":"黄浦区北京西路61号新金桥广场(近西藏中路)"},{"poiid":"B2094750DB6CA4FA419B","title":"上海市，黄浦区，南京路步行街","lon":"121.4748171","lat":"31.2371356","category":"500","category_name":"未知分类","address":null},{"poiid":"B2094757D06FA7FC4599","title":"传奇台球(黄浦店)","lon":"121.47326","lat":"31.23912","category":"171","category_name":"台球厅","address":"上海黄浦区西藏中路698号3-4楼(近北京中路)"},{"poiid":"B2094655D26DA3FF409E","title":"上海馨乐庭金桥服务公寓","lon":"121.47241","lat":"31.23686","category":"250","category_name":"公园户外","address":"黄浦区北京西路55号(牯岭路西藏中路)"},{"poiid":"B2094655D26DA1F8459F","title":"思源商厦","lon":"121.47442","lat":"31.23627","category":"119","category_name":"商场","address":"黄浦区西藏中路500号近凤阳路口"},{"poiid":"B2094757D06FA2F5469A","title":"花袭人红楼干锅(市一百店)","lon":"121.47399822","lat":"31.235566588","category":"71","category_name":"四川菜","address":"黄浦区南京东路830号第一百货新楼1楼(南京东路西藏中路)"},{"poiid":"B2094750D665AAF9449F","title":"汤经面道(西藏中路店)","lon":"121.474","lat":"31.2358","category":"68","category_name":"快餐厅","address":"黄浦区西藏中路559号雅居乐国际广场2楼214室(近南京东路)"},{"poiid":"B2094757DB69A4F44792","title":"雅居乐万豪酒店 中餐厅 Man Ho","lon":"121.4737085","lat":"31.2366652","category":"247","category_name":"餐饮美食","address":"黄浦区西藏中路555号雅居乐万豪4楼(近人民广场)"},{"poiid":"B2094655D36CA5F54298","title":"北京东路","lon":"121.47413","lat":"31.2357","category":"38","category_name":"公交车站","address":""},{"poiid":"B2094655D26DAAF4429C","title":"上海歌城(西藏中路)","lon":"121.47374","lat":"31.23549","category":"170","category_name":"KTV","address":"西藏中路399号新世界城"},{"poiid":"B2094757D068A4FF429B","title":"上海雅居乐万豪酒店","lon":"121.473508738","lat":"31.2361444261","category":"217","category_name":"旅馆招待所","address":"上海市黄浦区西藏中路555号(近新世界)"},{"poiid":"B2094751DA6DA1F5439F","title":"上海年代秀主题餐厅","lon":"121.473342","lat":"31.235938","category":"76","category_name":"上海菜","address":"黄浦区西藏中路525号雅居乐广场3楼308商铺(近凤阳路预计11月开业)"},{"poiid":"B2094753D76FAAFA449C","title":"上海滩国泰旗舰店","lon":"121.466011","lat":"31.216125","category":"249","category_name":"购物服务","address":"淮海中路868号"},{"poiid":"B209475CD564A7F84292","title":"上海滩新天地店","lon":"121.47463","lat":"31.22164","category":"119","category_name":"商场","address":"\"太仓路181弄新天地北里15号\r\n\""},{"poiid":"B209475CD564A7F8439E","title":"上海滩中信泰富店","lon":"121.45602","lat":"31.22851","category":"119","category_name":"商场","address":"\"南京西路1168号中信泰富广场，店铺号221.\r\n\""},{"poiid":"B209475CD564A7F84392","title":"上海滩浦东香格里拉店","lon":"121.50058","lat":"31.23634","category":"119","category_name":"商场","address":"浦东富成路33号香格里拉酒店内大堂层"},{"poiid":"B2094655D36CA2FC439A","title":"雅居乐国际广场","lon":"121.47251","lat":"31.23629","category":"46","category_name":"楼宇","address":"黄浦区西藏中路525号(近凤阳路)"},{"poiid":"B2094757D06FA3F5489A","title":"南证大厦","lon":"121.473","lat":"31.2374","category":"46","category_name":"楼宇","address":"上海静安区南京西路580号近成都路"},{"poiid":"B2094757D06AA2FA4992","title":"黄河路","lon":"121.470752","lat":"31.236218","category":"500","category_name":"未知分类","address":"上海黄河路北京西路路口"},{"poiid":"B2094757D56CAAFD449F","title":"来福小馆 人民广场店","lon":"121.4737085","lat":"31.2366652","category":"71","category_name":"四川菜","address":"黄浦区西藏中路559号雅居乐国际广场3楼(近凤阳路)"},{"poiid":"B2094757DB69A4F4479D","title":"雅居乐万豪酒店 都会尚膳 Shanghai City Bistro","lon":"121.4737085","lat":"31.2366652","category":"268","category_name":"自助","address":"西藏中路555号雅居乐万豪酒店3楼(近凤阳路)"},{"poiid":"B2094757D068A7F84498","title":"汤姆熊(新世界店)","lon":"121.473908238","lat":"31.2356113148","category":"173","category_name":"游戏厅","address":"黄浦区南京西路2-68号新世界城9楼(近西藏中路)"},{"poiid":"B2094752D265A3FE4892","title":"伊秀手握寿司","lon":"121.471898","lat":"31.236862","category":"247","category_name":"餐饮美食","address":"上海市黄浦区南京东路720号第一食品商厦4楼(近贵州路)"},{"poiid":"B2094757D069A6F8419C","title":"上海广场嘉廷酒店","lon":"121.4709877","lat":"31.2382483","category":"217","category_name":"旅馆招待所","address":"黄浦区新闸路126号(长沙路路口)"},{"poiid":"B2094757D46FABFD409D","title":"丰收日 人民广场店","lon":"121.4737085","lat":"31.2366652","category":"75","category_name":"浙江菜","address":"黄浦区西藏中路555号雅居乐万豪4楼(近凤阳路)"},{"poiid":"B2094757D069ABFA459C","title":"上海歌城新世界店","lon":"121.473934738","lat":"31.2364634329","category":"500","category_name":"未知分类","address":"上海市黄浦区温州路"},{"poiid":"B2094757D068A7FD489E","title":"新开元大酒店","lon":"121.474001738","lat":"31.2362734289","category":"75","category_name":"浙江菜","address":"黄浦区六合路98号3-4楼(近市百一店)"},{"poiid":"B2094757D069A1F94098","title":"上影华威电影城","lon":"121.473907","lat":"31.23492","category":"178","category_name":"电影院","address":"黄浦区南京西路2-68号新世界城11-12楼(近西藏中路)"},{"poiid":"B2094757D165A0FA499A","title":"千彩休闲小火锅","lon":"121.473519738","lat":"31.2350994039","category":"247","category_name":"餐饮美食","address":"上海市黄浦区黄河路"},{"poiid":"B2094751DA6EA7FB499F","title":"七叶和茶","lon":"121.472564","lat":"31.236936","category":"247","category_name":"餐饮美食","address":"黄浦区南京东路720号第一食品商厦3楼(近贵州路)"},{"poiid":"B2094757D06FA4F84298","title":"许留山(新世界店)","lon":"121.47317173","lat":"31.235074403","category":"67","category_name":"甜品店","address":"黄浦区南京西路2-68号新世纪城12楼(近西藏中路)"},{"poiid":"B2094751D56CA3FC489D","title":"悦粤茶餐厅(人民广场店)","lon":"121.47385","lat":"31.23629","category":"72","category_name":"广东菜","address":"黄浦区西藏中路525号雅居乐国际广场4楼(近新世界百货)"},{"poiid":"B2094757DB69AAFD409C","title":"善知鸟日本创作料理","lon":"121.474278","lat":"31.235902","category":"95","category_name":"日本料理","address":"黄浦区西藏中路500号思源商厦6A(近凤阳路)"},{"poiid":"B2094750D669A6F5409F","title":"新世界电影城","lon":"121.471672","lat":"31.236904","category":"178","category_name":"电影院","address":"南京西路2～68号新世界城12楼"},{"poiid":"B2094757D16DA5FD439B","title":"布丁酒店","lon":"121.47150373","lat":"31.238774482","category":"217","category_name":"旅馆招待所","address":"上海市黄浦区西藏中路725弄41号（新闸路126号）"},{"poiid":"B2094752D46CA1F5409A","title":"三宝粥铺","lon":"121.474482","lat":"31.235848","category":"247","category_name":"餐饮美食","address":"第一百货8楼"},{"poiid":"B2094750D66BAAF54298","title":"猫屎咖啡(雅居乐国际广场店)","lon":"121.474","lat":"31.2358","category":"260","category_name":"其他","address":"黄浦区西藏中路525号雅居乐国际广场1楼"},{"poiid":"B2094751DA6DA4FB469F","title":"黄记煌","lon":"121.473479","lat":"31.238534","category":"247","category_name":"餐饮美食","address":"黄浦区南京东路720号第一食品城4楼"},{"poiid":"B2094750DA65A4FE449F","title":"五木铁板烧","lon":"121.473594","lat":"31.236803","category":"269","category_name":"烧烤","address":"黄浦区西藏中路500号思源商厦4楼"},{"poiid":"B2094655D26BA1F54992","title":"峻岭广场","lon":"121.474","lat":"31.2383","category":"252","category_name":"楼宇机构","address":"成都北路500号"},{"poiid":"B2094751D469A1FD459A","title":"利苒西班牙餐厅","lon":"121.47333","lat":"31.2368","category":"94","category_name":"西餐厅","address":"黄浦区西藏中路559号雅居乐国际广场3楼(近新世界)"},{"poiid":"B2094750DA64A7F4499B","title":"偶吧私房蔡音乐餐厅 Oh Bar","lon":"121.473838","lat":"31.23718","category":"248","category_name":"生活娱乐","address":"黄浦区六合路158号"},{"poiid":"B2094757D56CA0F4469B","title":"燕云楼 南京店","lon":"121.47063371349","lat":"31.236846725643","category":"247","category_name":"餐饮美食","address":"南京东路755号8-9楼"},{"poiid":"B2094750D669A3F54492","title":"稻庭","lon":"121.47425","lat":"31.236448","category":"95","category_name":"日本料理","address":"黄浦区西藏中路525号雅居乐国际广场3楼(近凤阳路)"},{"poiid":"B2094757D069A2FE489F","title":"肯德基(第一百货店)","lon":"121.47395573","lat":"31.235828419","category":"68","category_name":"快餐厅","address":"黄浦区西藏中路462号市百一店1楼(长沙路凤阳路)"},{"poiid":"B2094750D26AAAF94692","title":"日月光广场","lon":"121.471481","lat":"31.238767","category":"500","category_name":"未知分类","address":null},{"poiid":"B2094752D069A0FF4993","title":"耶里夏丽新疆餐厅（南京东路店）","lon":"121.471674","lat":"31.23686","category":"247","category_name":"餐饮美食","address":"南京东路819号百联世茂国际广场7楼"},{"poiid":"B2094654DA6FAAF5429E","title":"上海市格致初级中学","lon":"121.47212","lat":"31.23566","category":"55","category_name":"中学","address":"黄浦区长沙路35号(近北京西路)"},{"poiid":"B209475CD26EA7FF489C","title":"田子坊","lon":"121.474563","lat":"31.235965","category":"500","category_name":"未知分类","address":"上海市 上海卢湾区泰康路"},{"poiid":"B2094753D66BABF9469C","title":"年代秀饭堂","lon":"121.474029","lat":"31.236221","category":"247","category_name":"餐饮美食","address":"上海市 雅居乐国际广场3楼"},{"poiid":"B2094654DA68A3FA4799","title":"新加坡泰国村鱼翅 黄浦店","lon":"121.47261142731","lat":"31.236839052649","category":"72","category_name":"广东菜","address":"黄浦区北京西路61号新金桥广场(近西藏中路)"},{"poiid":"B2094750DB6CA4FA419B","title":"上海市，黄浦区，南京路步行街","lon":"121.4748171","lat":"31.2371356","category":"500","category_name":"未知分类","address":null},{"poiid":"B2094757D06FA7FC4599","title":"传奇台球(黄浦店)","lon":"121.47326","lat":"31.23912","category":"171","category_name":"台球厅","address":"上海黄浦区西藏中路698号3-4楼(近北京中路)"},{"poiid":"B2094655D26DA3FF409E","title":"上海馨乐庭金桥服务公寓","lon":"121.47241","lat":"31.23686","category":"250","category_name":"公园户外","address":"黄浦区北京西路55号(牯岭路西藏中路)"},{"poiid":"B2094655D26DA1F8459F","title":"思源商厦","lon":"121.47442","lat":"31.23627","category":"119","category_name":"商场","address":"黄浦区西藏中路500号近凤阳路口"},{"poiid":"B2094757D06FA2F5469A","title":"花袭人红楼干锅(市一百店)","lon":"121.47399822","lat":"31.235566588","category":"71","category_name":"四川菜","address":"黄浦区南京东路830号第一百货新楼1楼(南京东路西藏中路)"},{"poiid":"B2094750D665AAF9449F","title":"汤经面道(西藏中路店)","lon":"121.474","lat":"31.2358","category":"68","category_name":"快餐厅","address":"黄浦区西藏中路559号雅居乐国际广场2楼214室(近南京东路)"},{"poiid":"B2094757DB69A4F44792","title":"雅居乐万豪酒店 中餐厅 Man Ho","lon":"121.4737085","lat":"31.2366652","category":"247","category_name":"餐饮美食","address":"黄浦区西藏中路555号雅居乐万豪4楼(近人民广场)"},{"poiid":"B2094655D36CA5F54298","title":"北京东路","lon":"121.47413","lat":"31.2357","category":"38","category_name":"公交车站","address":""}]