[{"poiid":"B2094654DB65A5F84793","title":"育音堂","lon":"121.41618","lat":"31.20858","category":"248","category_name":"生活娱乐","address":"长宁区凯旋路851号(凯旋路延安西路)"},{"poiid":"B2094757D06EAAF84593","title":"延安西路地铁站","lon":"121.417123","lat":"31.210023","category":"36","category_name":"地铁站","address":"上海轨道交通 三号线 四号线 轨交延安西路站 轻轨 3 4"},{"poiid":"B2094757D064A3FA4798","title":"法华镇路","lon":"121.420724586","lat":"31.2067729723","category":"250","category_name":"公园户外","address":"上海市长宁区法华镇路"},{"poiid":"B2094757D06BA1FB4698","title":"延安西路","lon":"121.418230986","lat":"31.2073979131","category":"500","category_name":"未知分类","address":"上海市长宁区中山西路"},{"poiid":"B2094757D06FA6FE419E","title":"延安路高架 凯旋路口","lon":"121.4167824","lat":"31.208085769","category":"500","category_name":"未知分类","address":"上海延安西路凯旋路"},{"poiid":"B2094757D06FA2F5469F","title":"新华路","lon":"121.418994","lat":"31.205353","category":"260","category_name":"其他","address":"上海长宁区新华路"},{"poiid":"B2094750D165A5FD4292","title":"上海新天地","lon":"121.4207","lat":"31.209089","category":"500","category_name":"未知分类","address":"卢湾区马当路99号"},{"poiid":"B2094750DA68A5F44898","title":"80后","lon":"121.419776","lat":"31.20656","category":"76","category_name":"上海菜","address":"长宁区杨宅路55号(近新华路)"},{"poiid":"B2094757D06FABF9449D","title":"億方砂锅粥(延安西路店)","lon":"121.41938","lat":"31.20801","category":"72","category_name":"广东菜","address":"长宁区延安西路1590号(近法华镇路)"},{"poiid":"B2094757D06FA7FE429B","title":"呷哺呷哺(延安西路餐厅)","lon":"121.417244","lat":"31.210322","category":"86","category_name":"火锅店","address":"长宁区轨道交通三号线延安西路站1楼3-108商铺(近凯旋路)"},{"poiid":"B2094757D068A2FC429F","title":"邱记潮汕砂锅粥","lon":"121.42002","lat":"31.20663","category":"72","category_name":"广东菜","address":"长宁区杨宅路51号(西法华市场对面)"},{"poiid":"B2094757D16EA2F8409F","title":"日本领事馆","lon":"121.41750036","lat":"31.208487673","category":"500","category_name":"未知分类","address":"上海万山路"},{"poiid":"B2094655D264A7FC499E","title":"北京同仁堂老字号延安西路店","lon":"121.41816","lat":"31.20816","category":"255","category_name":"专卖店","address":"长宁区延安西路1672号(近凯旋路)"},{"poiid":"B2094654D565A6FA449E","title":"凯桥绿地","lon":"121.41822","lat":"31.21026","category":"196","category_name":"公园","address":"长宁区延安西路凯旋路口(法华镇路延安西路)"},{"poiid":"B2094654D564A5FD4993","title":"虹桥银城大厦","lon":"121.42","lat":"31.2073","category":"46","category_name":"楼宇","address":"上海长宁区中山西路933号(近安顺路)"},{"poiid":"B2094654D564A7FA469A","title":"增泽世贸大楼","lon":"121.42021","lat":"31.2084","category":"46","category_name":"楼宇","address":"南开滨海高新技术产业开发区华苑产业区兰苑路2号西侧(海泰大厦对面)"},{"poiid":"B2094750D76DAAFB479B","title":"粉家柳州螺蛳粉","lon":"121.419","lat":"31.2062","category":"68","category_name":"快餐厅","address":"长宁区杨宅路83号(近新华路)"},{"poiid":"B2094655D268A0FD4599","title":"真功夫 延安西路店","lon":"121.416143054","lat":"31.208666793","category":"68","category_name":"快餐厅","address":"凯旋路812号地铁三,四号线延安西路站站厅一楼"},{"poiid":"B2094757D16EA4FD499F","title":"大风车私家菜馆(绿洲大厦店)","lon":"121.415989986","lat":"31.2079916961","category":"76","category_name":"上海菜","address":"上海长宁区中山西路555号绿洲大厦2楼，62861737，人均:60元"},{"poiid":"B2094655D26BABF8409D","title":"有马","lon":"121.41913","lat":"31.20827","category":"95","category_name":"日本料理","address":"长宁区延安西路1616号(近凯旋路)"},{"poiid":"B2094757D068A6FC409C","title":"红宝石(新华路店)","lon":"121.420175932","lat":"31.2051427339","category":"67","category_name":"甜品店","address":"长宁区新华路660号万宝国际商务中心1楼"},{"poiid":"B2094757D06AABFA4698","title":"东湖名苑","lon":"121.41886","lat":"31.207798","category":"47","category_name":"住宅区","address":"上海市长宁区法华镇路881弄"},{"poiid":"B2094654D564A7F9479D","title":"奶茶新语 延安西路店","lon":"121.416177054","lat":"31.207714793","category":"113","category_name":"冷饮店","address":"长宁区延安西路1626号(近凯旋路)"},{"poiid":"B2094757D069A6F84092","title":"杆动力桌球馆","lon":"121.42049","lat":"31.20818","category":"171","category_name":"台球厅","address":"长宁区延安西路1590号(近种德桥路)"},{"poiid":"B2094757DB68A5F4439C","title":"云之缘 Lotus Eatery","lon":"121.41898","lat":"31.205733","category":"83","category_name":"云贵菜","address":"长宁区杨宅路85号(新华路和法华镇路之间)"},{"poiid":"B2094654DB69A6F84792","title":"白金汉广场","lon":"121.4205","lat":"31.20869","category":"46","category_name":"楼宇","address":"浦东区崂山东路410号"},{"poiid":"B2094655D26AA0F54599","title":"CuePowerClub","lon":"121.41971","lat":"31.20843","category":"247","category_name":"餐饮美食","address":"长宁区延安西路1590号(近种德桥路)"},{"poiid":"B2094654D564A3FD499C","title":"云都虹桥大厦","lon":"121.419","lat":"31.2068","category":"46","category_name":"楼宇","address":"上海中山西路930号"},{"poiid":"B2094655D269ABFD429C","title":"船老大KTV","lon":"121.41971","lat":"31.20843","category":"247","category_name":"餐饮美食","address":"长宁区延安西路1590号(法华镇路延安西路)"},{"poiid":"B2094654D564A7F9489A","title":"罗森(增泽世贸大楼西)","lon":"121.41862","lat":"31.20804","category":"117","category_name":"便民商店/便利店","address":"延安西路1628"},{"poiid":"B2094654D564A7FA4092","title":"好德No.3032","lon":"121.41938","lat":"31.20765","category":"117","category_name":"便民商店/便利店","address":"法华镇路885"},{"poiid":"B2094750DB68A1F94492","title":"纽斯","lon":"121.419067","lat":"31.207475","category":"248","category_name":"生活娱乐","address":"天山西路"},{"poiid":"B2094654DB65A7FA429A","title":"汉庭酒店(延安西路店)","lon":"121.41951","lat":"31.20924","category":"216","category_name":"经济型连锁酒店","address":"长宁区延安西路1599号"},{"poiid":"B2094757D465A4FA429A","title":"新加坡万宝泰国鱼翅","lon":"121.419610054","lat":"31.205157793","category":"247","category_name":"餐饮美食","address":"长宁区新华路660号万宝大酒店2楼(近定西路)"},{"poiid":"B2094757D16FABF9499A","title":"Marine Ford海贼王周边专卖店","lon":"121.41964388","lat":"31.208633058","category":"500","category_name":"未知分类","address":"上海市长宁区延安西路1525号"},{"poiid":"B2094757D16AA2FE4592","title":"紡三醫院","lon":"121.42014568","lat":"31.208474575","category":"162","category_name":"医院","address":"上海延安西路定西路"},{"poiid":"B2094654D564A7F9489D","title":"光明乳业法镇块配送奶站","lon":"121.41847","lat":"31.2078","category":"117","category_name":"便民商店/便利店","address":""},{"poiid":"B2094757D66CA1FC4393","title":"友力大厦","lon":"121.42089","lat":"31.208444","category":"252","category_name":"楼宇机构","address":"长宁区延安西路1566号龙峰大厦2楼(延安西路种德桥路)"},{"poiid":"B2094655D26CABFE439E","title":"汉庭连锁酒店·虹桥开发区店","lon":"121.41951","lat":"31.20925","category":"216","category_name":"经济型连锁酒店","address":"延安西路1599-2"},{"poiid":"B2094757D16DA5FF449A","title":"罗森便利(延安西路店)","lon":"121.4185245","lat":"31.208220588","category":"117","category_name":"便民商店/便利店","address":"上海长宁区延安西路1628号"},{"poiid":"B2094757D568A4FB439D","title":"LAPIS CASA","lon":"121.4191661","lat":"31.20826306","category":"249","category_name":"购物服务","address":"延安西路1612号"},{"poiid":"B2094757D069ABFA409A","title":"大旗快印(凯旋路店)","lon":"121.41756","lat":"31.20729","category":"633","category_name":"商务服务类公司","address":"长宁区凯旋路1010号(近延安西路地铁站)"},{"poiid":"B2094655D26AA0F94198","title":"地铁延安西路站","lon":"121.41714","lat":"31.21002","category":"36","category_name":"地铁站","address":""},{"poiid":"B2094655D265ABF5449B","title":"JJ877","lon":"121.41965","lat":"31.20749","category":"172","category_name":"酒吧","address":"法华镇路877"},{"poiid":"B2094654D564A7FA4692","title":"鹿岛(上海)工程有限公司","lon":"121.41897","lat":"31.20824","category":"263","category_name":"公司","address":"延安西路1620"},{"poiid":"B2094757D065A1F8459D","title":"华清池","lon":"121.41880273","lat":"31.207106105","category":"196","category_name":"公园","address":"上海放松身心圣地"},{"poiid":"B2094757D065A4FA4992","title":"凯旋路","lon":"121.41802208","lat":"31.208513506","category":"500","category_name":"未知分类","address":"上海凯旋路1010号"},{"poiid":"B2094750D164A3F4479A","title":"7天连锁酒店上海延安西路地铁站店","lon":"121.4201","lat":"31.2066","category":"216","category_name":"经济型连锁酒店","address":"上海长宁区杨宅路20号"},{"poiid":"B2094757D068A1FC4592","title":"CoCo都可茶饮(龙之梦店)","lon":"121.41904903","lat":"31.210319948","category":"113","category_name":"冷饮店","address":"上海市长宁区长宁路1018号龙之梦购物中心B2楼"},{"poiid":"B2094654DB65A4F9499A","title":"新游子老鸭粉丝汤&南京特色汤包","lon":"121.42053","lat":"31.20696","category":"68","category_name":"快餐厅","address":"长宁区法华镇路810号(近延安西路)"},{"poiid":"B2094654DB65A5F84793","title":"育音堂","lon":"121.41618","lat":"31.20858","category":"248","category_name":"生活娱乐","address":"长宁区凯旋路851号(凯旋路延安西路)"},{"poiid":"B2094757D06EAAF84593","title":"延安西路地铁站","lon":"121.417123","lat":"31.210023","category":"36","category_name":"地铁站","address":"上海轨道交通 三号线 四号线 轨交延安西路站 轻轨 3 4"},{"poiid":"B2094757D064A3FA4798","title":"法华镇路","lon":"121.420724586","lat":"31.2067729723","category":"250","category_name":"公园户外","address":"上海市长宁区法华镇路"},{"poiid":"B2094757D06BA1FB4698","title":"延安西路","lon":"121.418230986","lat":"31.2073979131","category":"500","category_name":"未知分类","address":"上海市长宁区中山西路"},{"poiid":"B2094757D06FA6FE419E","title":"延安路高架 凯旋路口","lon":"121.4167824","lat":"31.208085769","category":"500","category_name":"未知分类","address":"上海延安西路凯旋路"},{"poiid":"B2094757D06FA2F5469F","title":"新华路","lon":"121.418994","lat":"31.205353","category":"260","category_name":"其他","address":"上海长宁区新华路"},{"poiid":"B2094750D165A5FD4292","title":"上海新天地","lon":"121.4207","lat":"31.209089","category":"500","category_name":"未知分类","address":"卢湾区马当路99号"},{"poiid":"B2094750DA68A5F44898","title":"80后","lon":"121.419776","lat":"31.20656","category":"76","category_name":"上海菜","address":"长宁区杨宅路55号(近新华路)"},{"poiid":"B2094757D06FABF9449D","title":"億方砂锅粥(延安西路店)","lon":"121.41938","lat":"31.20801","category":"72","category_name":"广东菜","address":"长宁区延安西路1590号(近法华镇路)"},{"poiid":"B2094757D06FA7FE429B","title":"呷哺呷哺(延安西路餐厅)","lon":"121.417244","lat":"31.210322","category":"86","category_name":"火锅店","address":"长宁区轨道交通三号线延安西路站1楼3-108商铺(近凯旋路)"},{"poiid":"B2094757D068A2FC429F","title":"邱记潮汕砂锅粥","lon":"121.42002","lat":"31.20663","category":"72","category_name":"广东菜","address":"长宁区杨宅路51号(西法华市场对面)"},{"poiid":"B2094757D16EA2F8409F","title":"日本领事馆","lon":"121.41750036","lat":"31.208487673","category":"500","category_name":"未知分类","address":"上海万山路"},{"poiid":"B2094655D264A7FC499E","title":"北京同仁堂老字号延安西路店","lon":"121.41816","lat":"31.20816","category":"255","category_name":"专卖店","address":"长宁区延安西路1672号(近凯旋路)"},{"poiid":"B2094654D565A6FA449E","title":"凯桥绿地","lon":"121.41822","lat":"31.21026","category":"196","category_name":"公园","address":"长宁区延安西路凯旋路口(法华镇路延安西路)"},{"poiid":"B2094654D564A5FD4993","title":"虹桥银城大厦","lon":"121.42","lat":"31.2073","category":"46","category_name":"楼宇","address":"上海长宁区中山西路933号(近安顺路)"},{"poiid":"B2094654D564A7FA469A","title":"增泽世贸大楼","lon":"121.42021","lat":"31.2084","category":"46","category_name":"楼宇","address":"南开滨海高新技术产业开发区华苑产业区兰苑路2号西侧(海泰大厦对面)"},{"poiid":"B2094750D76DAAFB479B","title":"粉家柳州螺蛳粉","lon":"121.419","lat":"31.2062","category":"68","category_name":"快餐厅","address":"长宁区杨宅路83号(近新华路)"},{"poiid":"B2094655D268A0FD4599","title":"真功夫 延安西路店","lon":"121.416143054","lat":"31.208666793","category":"68","category_name":"快餐厅","address":"凯旋路812号地铁三,四号线延安西路站站厅一楼"},{"poiid":"B2094757D16EA4FD499F","title":"大风车私家菜馆(绿洲大厦店)","lon":"121.415989986","lat":"31.2079916961","category":"76","category_name":"上海菜","address":"上海长宁区中山西路555号绿洲大厦2楼，62861737，人均:60元"},{"poiid":"B2094655D26BABF8409D","title":"有马","lon":"121.41913","lat":"31.20827","category":"95","category_name":"日本料理","address":"长宁区延安西路1616号(近凯旋路)"},{"poiid":"B2094757D068A6FC409C","title":"红宝石(新华路店)","lon":"121.420175932","lat":"31.2051427339","category":"67","category_name":"甜品店","address":"长宁区新华路660号万宝国际商务中心1楼"},{"poiid":"B2094757D06AABFA4698","title":"东湖名苑","lon":"121.41886","lat":"31.207798","category":"47","category_name":"住宅区","address":"上海市长宁区法华镇路881弄"},{"poiid":"B2094654D564A7F9479D","title":"奶茶新语 延安西路店","lon":"121.416177054","lat":"31.207714793","category":"113","category_name":"冷饮店","address":"长宁区延安西路1626号(近凯旋路)"},{"poiid":"B2094757D069A6F84092","title":"杆动力桌球馆","lon":"121.42049","lat":"31.20818","category":"171","category_name":"台球厅","address":"长宁区延安西路1590号(近种德桥路)"},{"poiid":"B2094757DB68A5F4439C","title":"云之缘 Lotus Eatery","lon":"121.41898","lat":"31.205733","category":"83","category_name":"云贵菜","address":"长宁区杨宅路85号(新华路和法华镇路之间)"},{"poiid":"B2094654DB69A6F84792","title":"白金汉广场","lon":"121.4205","lat":"31.20869","category":"46","category_name":"楼宇","address":"浦东区崂山东路410号"},{"poiid":"B2094655D26AA0F54599","title":"CuePowerClub","lon":"121.41971","lat":"31.20843","category":"247","category_name":"餐饮美食","address":"长宁区延安西路1590号(近种德桥路)"},{"poiid":"B2094654D564A3FD499C","title":"云都虹桥大厦","lon":"121.419","lat":"31.2068","category":"46","category_name":"楼宇","address":"上海中山西路930号"},{"poiid":"B2094655D269ABFD429C","title":"船老大KTV","lon":"121.41971","lat":"31.20843","category":"247","category_name":"餐饮美食","address":"长宁区延安西路1590号(法华镇路延安西路)"},{"poiid":"B2094654D564A7F9489A","title":"罗森(增泽世贸大楼西)","lon":"121.41862","lat":"31.20804","category":"117","category_name":"便民商店/便利店","address":"延安西路1628"},{"poiid":"B2094654D564A7FA4092","title":"好德No.3032","lon":"121.41938","lat":"31.20765","category":"117","category_name":"便民商店/便利店","address":"法华镇路885"},{"poiid":"B2094750DB68A1F94492","title":"纽斯","lon":"121.419067","lat":"31.207475","category":"248","category_name":"生活娱乐","address":"天山西路"},{"poiid":"B2094654DB65A7FA429A","title":"汉庭酒店(延安西路店)","lon":"121.41951","lat":"31.20924","category":"216","category_name":"经济型连锁酒店","address":"长宁区延安西路1599号"},{"poiid":"B2094757D465A4FA429A","title":"新加坡万宝泰国鱼翅","lon":"121.419610054","lat":"31.205157793","category":"247","category_name":"餐饮美食","address":"长宁区新华路660号万宝大酒店2楼(近定西路)"},{"poiid":"B2094757D16FABF9499A","title":"Marine Ford海贼王周边专卖店","lon":"121.41964388","lat":"31.208633058","category":"500","category_name":"未知分类","address":"上海市长宁区延安西路1525号"},{"poiid":"B2094757D16AA2FE4592","title":"紡三醫院","lon":"121.42014568","lat":"31.208474575","category":"162","category_name":"医院","address":"上海延安西路定西路"},{"poiid":"B2094654D564A7F9489D","title":"光明乳业法镇块配送奶站","lon":"121.41847","lat":"31.2078","category":"117","category_name":"便民商店/便利店","address":""},{"poiid":"B2094757D66CA1FC4393","title":"友力大厦","lon":"121.42089","lat":"31.208444","category":"252","category_name":"楼宇机构","address":"长宁区延安西路1566号龙峰大厦2楼(延安西路种德桥路)"},{"poiid":"B2094655D26CABFE439E","title":"汉庭连锁酒店·虹桥开发区店","lon":"121.41951","lat":"31.20925","category":"216","category_name":"经济型连锁酒店","address":"延安西路1599-2"},{"poiid":"B2094757D16DA5FF449A","title":"罗森便利(延安西路店)","lon":"121.4185245","lat":"31.208220588","category":"117","category_name":"便民商店/便利店","address":"上海长宁区延安西路1628号"},{"poiid":"B2094757D568A4FB439D","title":"LAPIS CASA","lon":"121.4191661","lat":"31.20826306","category":"249","category_name":"购物服务","address":"延安西路1612号"},{"poiid":"B2094757D069ABFA409A","title":"大旗快印(凯旋路店)","lon":"121.41756","lat":"31.20729","category":"633","category_name":"商务服务类公司","address":"长宁区凯旋路1010号(近延安西路地铁站)"},{"poiid":"B2094655D26AA0F94198","title":"地铁延安西路站","lon":"121.41714","lat":"31.21002","category":"36","category_name":"地铁站","address":""},{"poiid":"B2094655D265ABF5449B","title":"JJ877","lon":"121.41965","lat":"31.20749","category":"172","category_name":"酒吧","address":"法华镇路877"},{"poiid":"B2094654D564A7FA4692","title":"鹿岛(上海)工程有限公司","lon":"121.41897","lat":"31.20824","category":"263","category_name":"公司","address":"延安西路1620"},{"poiid":"B2094757D065A1F8459D","title":"华清池","lon":"121.41880273","lat":"31.207106105","category":"196","category_name":"公园","address":"上海放松身心圣地"},{"poiid":"B2094757D065A4FA4992","title":"凯旋路","lon":"121.41802208","lat":"31.208513506","category":"500","category_name":"未知分类","address":"上海凯旋路1010号"},{"poiid":"B2094750D164A3F4479A","title":"7天连锁酒店上海延安西路地铁站店","lon":"121.4201","lat":"31.2066","category":"216","category_name":"经济型连锁酒店","address":"上海长宁区杨宅路20号"},{"poiid":"B2094757D068A1FC4592","title":"CoCo都可茶饮(龙之梦店)","lon":"121.41904903","lat":"31.210319948","category":"113","category_name":"冷饮店","address":"上海市长宁区长宁路1018号龙之梦购物中心B2楼"},{"poiid":"B2094654DB65A4F9499A","title":"新游子老鸭粉丝汤&南京特色汤包","lon":"121.42053","lat":"31.20696","category":"68","category_name":"快餐厅","address":"长宁区法华镇路810号(近延安西路)"},{"poiid":"B2094654DB65A5F84793","title":"育音堂","lon":"121.41618","lat":"31.20858","category":"248","category_name":"生活娱乐","address":"长宁区凯旋路851号(凯旋路延安西路)"},{"poiid":"B2094757D06EAAF84593","title":"延安西路地铁站","lon":"121.417123","lat":"31.210023","category":"36","category_name":"地铁站","address":"上海轨道交通 三号线 四号线 轨交延安西路站 轻轨 3 4"},{"poiid":"B2094757D064A3FA4798","title":"法华镇路","lon":"121.420724586","lat":"31.2067729723","category":"250","category_name":"公园户外","address":"上海市长宁区法华镇路"},{"poiid":"B2094757D06BA1FB4698","title":"延安西路","lon":"121.418230986","lat":"31.2073979131","category":"500","category_name":"未知分类","address":"上海市长宁区中山西路"},{"poiid":"B2094757D06FA6FE419E","title":"延安路高架 凯旋路口","lon":"121.4167824","lat":"31.208085769","category":"500","category_name":"未知分类","address":"上海延安西路凯旋路"},{"poiid":"B2094757D06FA2F5469F","title":"新华路","lon":"121.418994","lat":"31.205353","category":"260","category_name":"其他","address":"上海长宁区新华路"},{"poiid":"B2094750D165A5FD4292","title":"上海新天地","lon":"121.4207","lat":"31.209089","category":"500","category_name":"未知分类","address":"卢湾区马当路99号"},{"poiid":"B2094750DA68A5F44898","title":"80后","lon":"121.419776","lat":"31.20656","category":"76","category_name":"上海菜","address":"长宁区杨宅路55号(近新华路)"},{"poiid":"B2094757D06FABF9449D","title":"億方砂锅粥(延安西路店)","lon":"121.41938","lat":"31.20801","category":"72","category_name":"广东菜","address":"长宁区延安西路1590号(近法华镇路)"},{"poiid":"B2094757D06FA7FE429B","title":"呷哺呷哺(延安西路餐厅)","lon":"121.417244","lat":"31.210322","category":"86","category_name":"火锅店","address":"长宁区轨道交通三号线延安西路站1楼3-108商铺(近凯旋路)"},{"poiid":"B2094757D068A2FC429F","title":"邱记潮汕砂锅粥","lon":"121.42002","lat":"31.20663","category":"72","category_name":"广东菜","address":"长宁区杨宅路51号(西法华市场对面)"},{"poiid":"B2094757D16EA2F8409F","title":"日本领事馆","lon":"121.41750036","lat":"31.208487673","category":"500","category_name":"未知分类","address":"上海万山路"},{"poiid":"B2094655D264A7FC499E","title":"北京同仁堂老字号延安西路店","lon":"121.41816","lat":"31.20816","category":"255","category_name":"专卖店","address":"长宁区延安西路1672号(近凯旋路)"},{"poiid":"B2094654D565A6FA449E","title":"凯桥绿地","lon":"121.41822","lat":"31.21026","category":"196","category_name":"公园","address":"长宁区延安西路凯旋路口(法华镇路延安西路)"},{"poiid":"B2094654D564A5FD4993","title":"虹桥银城大厦","lon":"121.42","lat":"31.2073","category":"46","category_name":"楼宇","address":"上海长宁区中山西路933号(近安顺路)"},{"poiid":"B2094654D564A7FA469A","title":"增泽世贸大楼","lon":"121.42021","lat":"31.2084","category":"46","category_name":"楼宇","address":"南开滨海高新技术产业开发区华苑产业区兰苑路2号西侧(海泰大厦对面)"},{"poiid":"B2094750D76DAAFB479B","title":"粉家柳州螺蛳粉","lon":"121.419","lat":"31.2062","category":"68","category_name":"快餐厅","address":"长宁区杨宅路83号(近新华路)"},{"poiid":"B2094655D268A0FD4599","title":"真功夫 延安西路店","lon":"121.416143054","lat":"31.208666793","category":"68","category_name":"快餐厅","address":"凯旋路812号地铁三,四号线延安西路站站厅一楼"},{"poiid":"B2094757D16EA4FD499F","title":"大风车私家菜馆(绿洲大厦店)","lon":"121.415989986","lat":"31.2079916961","category":"76","category_name":"上海菜","address":"上海长宁区中山西路555号绿洲大厦2楼，62861737，人均:60元"},{"poiid":"B2094655D26BABF8409D","title":"有马","lon":"121.41913","lat":"31.20827","category":"95","category_name":"日本料理","address":"长宁区延安西路1616号(近凯旋路)"},{"poiid":"B2094757D068A6FC409C","title":"红宝石(新华路店)","lon":"121.420175932","lat":"31.2051427339","category":"67","category_name":"甜品店","address":"长宁区新华路660号万宝国际商务中心1楼"},{"poiid":"B2094757D06AABFA4698","title":"东湖名苑","lon":"121.41886","lat":"31.207798","category":"47","category_name":"住宅区","address":"上海市长宁区法华镇路881弄"},{"poiid":"B2094654D564A7F9479D","title":"奶茶新语 延安西路店","lon":"121.416177054","lat":"31.207714793","category":"113","category_name":"冷饮店","address":"长宁区延安西路1626号(近凯旋路)"},{"poiid":"B2094757D069A6F84092","title":"杆动力桌球馆","lon":"121.42049","lat":"31.20818","category":"171","category_name":"台球厅","address":"长宁区延安西路1590号(近种德桥路)"},{"poiid":"B2094757DB68A5F4439C","title":"云之缘 Lotus Eatery","lon":"121.41898","lat":"31.205733","category":"83","category_name":"云贵菜","address":"长宁区杨宅路85号(新华路和法华镇路之间)"},{"poiid":"B2094654DB69A6F84792","title":"白金汉广场","lon":"121.4205","lat":"31.20869","category":"46","category_name":"楼宇","address":"浦东区崂山东路410号"},{"poiid":"B2094655D26AA0F54599","title":"CuePowerClub","lon":"121.41971","lat":"31.20843","category":"247","category_name":"餐饮美食","address":"长宁区延安西路1590号(近种德桥路)"},{"poiid":"B2094654D564A3FD499C","title":"云都虹桥大厦","lon":"121.419","lat":"31.2068","category":"46","category_name":"楼宇","address":"上海中山西路930号"},{"poiid":"B2094655D269ABFD429C","title":"船老大KTV","lon":"121.41971","lat":"31.20843","category":"247","category_name":"餐饮美食","address":"长宁区延安西路1590号(法华镇路延安西路)"},{"poiid":"B2094654D564A7F9489A","title":"罗森(增泽世贸大楼西)","lon":"121.41862","lat":"31.20804","category":"117","category_name":"便民商店/便利店","address":"延安西路1628"},{"poiid":"B2094654D564A7FA4092","title":"好德No.3032","lon":"121.41938","lat":"31.20765","category":"117","category_name":"便民商店/便利店","address":"法华镇路885"},{"poiid":"B2094750DB68A1F94492","title":"纽斯","lon":"121.419067","lat":"31.207475","category":"248","category_name":"生活娱乐","address":"天山西路"},{"poiid":"B2094654DB65A7FA429A","title":"汉庭酒店(延安西路店)","lon":"121.41951","lat":"31.20924","category":"216","category_name":"经济型连锁酒店","address":"长宁区延安西路1599号"},{"poiid":"B2094757D465A4FA429A","title":"新加坡万宝泰国鱼翅","lon":"121.419610054","lat":"31.205157793","category":"247","category_name":"餐饮美食","address":"长宁区新华路660号万宝大酒店2楼(近定西路)"},{"poiid":"B2094757D16FABF9499A","title":"Marine Ford海贼王周边专卖店","lon":"121.41964388","lat":"31.208633058","category":"500","category_name":"未知分类","address":"上海市长宁区延安西路1525号"},{"poiid":"B2094757D16AA2FE4592","title":"紡三醫院","lon":"121.42014568","lat":"31.208474575","category":"162","category_name":"医院","address":"上海延安西路定西路"},{"poiid":"B2094654D564A7F9489D","title":"光明乳业法镇块配送奶站","lon":"121.41847","lat":"31.2078","category":"117","category_name":"便民商店/便利店","address":""},{"poiid":"B2094757D66CA1FC4393","title":"友力大厦","lon":"121.42089","lat":"31.208444","category":"252","category_name":"楼宇机构","address":"长宁区延安西路1566号龙峰大厦2楼(延安西路种德桥路)"},{"poiid":"B2094655D26CABFE439E","title":"汉庭连锁酒店·虹桥开发区店","lon":"121.41951","lat":"31.20925","category":"216","category_name":"经济型连锁酒店","address":"延安西路1599-2"},{"poiid":"B2094757D16DA5FF449A","title":"罗森便利(延安西路店)","lon":"121.4185245","lat":"31.208220588","category":"117","category_name":"便民商店/便利店","address":"上海长宁区延安西路1628号"},{"poiid":"B2094757D568A4FB439D","title":"LAPIS CASA","lon":"121.4191661","lat":"31.20826306","category":"249","category_name":"购物服务","address":"延安西路1612号"},{"poiid":"B2094757D069ABFA409A","title":"大旗快印(凯旋路店)","lon":"121.41756","lat":"31.20729","category":"633","category_name":"商务服务类公司","address":"长宁区凯旋路1010号(近延安西路地铁站)"},{"poiid":"B2094655D26AA0F94198","title":"地铁延安西路站","lon":"121.41714","lat":"31.21002","category":"36","category_name":"地铁站","address":""},{"poiid":"B2094655D265ABF5449B","title":"JJ877","lon":"121.41965","lat":"31.20749","category":"172","category_name":"酒吧","address":"法华镇路877"},{"poiid":"B2094654D564A7FA4692","title":"鹿岛(上海)工程有限公司","lon":"121.41897","lat":"31.20824","category":"263","category_name":"公司","address":"延安西路1620"},{"poiid":"B2094757D065A1F8459D","title":"华清池","lon":"121.41880273","lat":"31.207106105","category":"196","category_name":"公园","address":"上海放松身心圣地"},{"poiid":"B2094757D065A4FA4992","title":"凯旋路","lon":"121.41802208","lat":"31.208513506","category":"500","category_name":"未知分类","address":"上海凯旋路1010号"},{"poiid":"B2094750D164A3F4479A","title":"7天连锁酒店上海延安西路地铁站店","lon":"121.4201","lat":"31.2066","category":"216","category_name":"经济型连锁酒店","address":"上海长宁区杨宅路20号"},{"poiid":"B2094757D068A1FC4592","title":"CoCo都可茶饮(龙之梦店)","lon":"121.41904903","lat":"31.210319948","category":"113","category_name":"冷饮店","address":"上海市长宁区长宁路1018号龙之梦购物中心B2楼"},{"poiid":"B2094654DB65A4F9499A","title":"新游子老鸭粉丝汤&南京特色汤包","lon":"121.42053","lat":"31.20696","category":"68","category_name":"快餐厅","address":"长宁区法华镇路810号(近延安西路)"},{"poiid":"B2094654DB65A5F84793","title":"育音堂","lon":"121.41618","lat":"31.20858","category":"248","category_name":"生活娱乐","address":"长宁区凯旋路851号(凯旋路延安西路)"},{"poiid":"B2094757D06EAAF84593","title":"延安西路地铁站","lon":"121.417123","lat":"31.210023","category":"36","category_name":"地铁站","address":"上海轨道交通 三号线 四号线 轨交延安西路站 轻轨 3 4"},{"poiid":"B2094757D064A3FA4798","title":"法华镇路","lon":"121.420724586","lat":"31.2067729723","category":"250","category_name":"公园户外","address":"上海市长宁区法华镇路"},{"poiid":"B2094757D06BA1FB4698","title":"延安西路","lon":"121.418230986","lat":"31.2073979131","category":"500","category_name":"未知分类","address":"上海市长宁区中山西路"},{"poiid":"B2094757D06FA6FE419E","title":"延安路高架 凯旋路口","lon":"121.4167824","lat":"31.208085769","category":"500","category_name":"未知分类","address":"上海延安西路凯旋路"},{"poiid":"B2094757D06FA2F5469F","title":"新华路","lon":"121.418994","lat":"31.205353","category":"260","category_name":"其他","address":"上海长宁区新华路"},{"poiid":"B2094750D165A5FD4292","title":"上海新天地","lon":"121.4207","lat":"31.209089","category":"500","category_name":"未知分类","address":"卢湾区马当路99号"},{"poiid":"B2094750DA68A5F44898","title":"80后","lon":"121.419776","lat":"31.20656","category":"76","category_name":"上海菜","address":"长宁区杨宅路55号(近新华路)"},{"poiid":"B2094757D06FABF9449D","title":"億方砂锅粥(延安西路店)","lon":"121.41938","lat":"31.20801","category":"72","category_name":"广东菜","address":"长宁区延安西路1590号(近法华镇路)"},{"poiid":"B2094757D06FA7FE429B","title":"呷哺呷哺(延安西路餐厅)","lon":"121.417244","lat":"31.210322","category":"86","category_name":"火锅店","address":"长宁区轨道交通三号线延安西路站1楼3-108商铺(近凯旋路)"},{"poiid":"B2094757D068A2FC429F","title":"邱记潮汕砂锅粥","lon":"121.42002","lat":"31.20663","category":"72","category_name":"广东菜","address":"长宁区杨宅路51号(西法华市场对面)"},{"poiid":"B2094757D16EA2F8409F","title":"日本领事馆","lon":"121.41750036","lat":"31.208487673","category":"500","category_name":"未知分类","address":"上海万山路"},{"poiid":"B2094655D264A7FC499E","title":"北京同仁堂老字号延安西路店","lon":"121.41816","lat":"31.20816","category":"255","category_name":"专卖店","address":"长宁区延安西路1672号(近凯旋路)"},{"poiid":"B2094654D565A6FA449E","title":"凯桥绿地","lon":"121.41822","lat":"31.21026","category":"196","category_name":"公园","address":"长宁区延安西路凯旋路口(法华镇路延安西路)"},{"poiid":"B2094654D564A5FD4993","title":"虹桥银城大厦","lon":"121.42","lat":"31.2073","category":"46","category_name":"楼宇","address":"上海长宁区中山西路933号(近安顺路)"},{"poiid":"B2094654D564A7FA469A","title":"增泽世贸大楼","lon":"121.42021","lat":"31.2084","category":"46","category_name":"楼宇","address":"南开滨海高新技术产业开发区华苑产业区兰苑路2号西侧(海泰大厦对面)"},{"poiid":"B2094750D76DAAFB479B","title":"粉家柳州螺蛳粉","lon":"121.419","lat":"31.2062","category":"68","category_name":"快餐厅","address":"长宁区杨宅路83号(近新华路)"},{"poiid":"B2094655D268A0FD4599","title":"真功夫 延安西路店","lon":"121.416143054","lat":"31.208666793","category":"68","category_name":"快餐厅","address":"凯旋路812号地铁三,四号线延安西路站站厅一楼"},{"poiid":"B2094757D16EA4FD499F","title":"大风车私家菜馆(绿洲大厦店)","lon":"121.415989986","lat":"31.2079916961","category":"76","category_name":"上海菜","address":"上海长宁区中山西路555号绿洲大厦2楼，62861737，人均:60元"},{"poiid":"B2094655D26BABF8409D","title":"有马","lon":"121.41913","lat":"31.20827","category":"95","category_name":"日本料理","address":"长宁区延安西路1616号(近凯旋路)"},{"poiid":"B2094757D068A6FC409C","title":"红宝石(新华路店)","lon":"121.420175932","lat":"31.2051427339","category":"67","category_name":"甜品店","address":"长宁区新华路660号万宝国际商务中心1楼"},{"poiid":"B2094757D06AABFA4698","title":"东湖名苑","lon":"121.41886","lat":"31.207798","category":"47","category_name":"住宅区","address":"上海市长宁区法华镇路881弄"},{"poiid":"B2094654D564A7F9479D","title":"奶茶新语 延安西路店","lon":"121.416177054","lat":"31.207714793","category":"113","category_name":"冷饮店","address":"长宁区延安西路1626号(近凯旋路)"},{"poiid":"B2094757D069A6F84092","title":"杆动力桌球馆","lon":"121.42049","lat":"31.20818","category":"171","category_name":"台球厅","address":"长宁区延安西路1590号(近种德桥路)"},{"poiid":"B2094757DB68A5F4439C","title":"云之缘 Lotus Eatery","lon":"121.41898","lat":"31.205733","category":"83","category_name":"云贵菜","address":"长宁区杨宅路85号(新华路和法华镇路之间)"},{"poiid":"B2094654DB69A6F84792","title":"白金汉广场","lon":"121.4205","lat":"31.20869","category":"46","category_name":"楼宇","address":"浦东区崂山东路410号"},{"poiid":"B2094655D26AA0F54599","title":"CuePowerClub","lon":"121.41971","lat":"31.20843","category":"247","category_name":"餐饮美食","address":"长宁区延安西路1590号(近种德桥路)"},{"poiid":"B2094654D564A3FD499C","title":"云都虹桥大厦","lon":"121.419","lat":"31.2068","category":"46","category_name":"楼宇","address":"上海中山西路930号"},{"poiid":"B2094655D269ABFD429C","title":"船老大KTV","lon":"121.41971","lat":"31.20843","category":"247","category_name":"餐饮美食","address":"长宁区延安西路1590号(法华镇路延安西路)"},{"poiid":"B2094654D564A7F9489A","title":"罗森(增泽世贸大楼西)","lon":"121.41862","lat":"31.20804","category":"117","category_name":"便民商店/便利店","address":"延安西路1628"},{"poiid":"B2094654D564A7FA4092","title":"好德No.3032","lon":"121.41938","lat":"31.20765","category":"117","category_name":"便民商店/便利店","address":"法华镇路885"},{"poiid":"B2094750DB68A1F94492","title":"纽斯","lon":"121.419067","lat":"31.207475","category":"248","category_name":"生活娱乐","address":"天山西路"},{"poiid":"B2094654DB65A7FA429A","title":"汉庭酒店(延安西路店)","lon":"121.41951","lat":"31.20924","category":"216","category_name":"经济型连锁酒店","address":"长宁区延安西路1599号"},{"poiid":"B2094757D465A4FA429A","title":"新加坡万宝泰国鱼翅","lon":"121.419610054","lat":"31.205157793","category":"247","category_name":"餐饮美食","address":"长宁区新华路660号万宝大酒店2楼(近定西路)"},{"poiid":"B2094757D16FABF9499A","title":"Marine Ford海贼王周边专卖店","lon":"121.41964388","lat":"31.208633058","category":"500","category_name":"未知分类","address":"上海市长宁区延安西路1525号"},{"poiid":"B2094757D16AA2FE4592","title":"紡三醫院","lon":"121.42014568","lat":"31.208474575","category":"162","category_name":"医院","address":"上海延安西路定西路"},{"poiid":"B2094654D564A7F9489D","title":"光明乳业法镇块配送奶站","lon":"121.41847","lat":"31.2078","category":"117","category_name":"便民商店/便利店","address":""},{"poiid":"B2094757D66CA1FC4393","title":"友力大厦","lon":"121.42089","lat":"31.208444","category":"252","category_name":"楼宇机构","address":"长宁区延安西路1566号龙峰大厦2楼(延安西路种德桥路)"},{"poiid":"B2094655D26CABFE439E","title":"汉庭连锁酒店·虹桥开发区店","lon":"121.41951","lat":"31.20925","category":"216","category_name":"经济型连锁酒店","address":"延安西路1599-2"},{"poiid":"B2094757D16DA5FF449A","title":"罗森便利(延安西路店)","lon":"121.4185245","lat":"31.208220588","category":"117","category_name":"便民商店/便利店","address":"上海长宁区延安西路1628号"},{"poiid":"B2094757D568A4FB439D","title":"LAPIS CASA","lon":"121.4191661","lat":"31.20826306","category":"249","category_name":"购物服务","address":"延安西路1612号"},{"poiid":"B2094757D069ABFA409A","title":"大旗快印(凯旋路店)","lon":"121.41756","lat":"31.20729","category":"633","category_name":"商务服务类公司","address":"长宁区凯旋路1010号(近延安西路地铁站)"},{"poiid":"B2094655D26AA0F94198","title":"地铁延安西路站","lon":"121.41714","lat":"31.21002","category":"36","category_name":"地铁站","address":""},{"poiid":"B2094655D265ABF5449B","title":"JJ877","lon":"121.41965","lat":"31.20749","category":"172","category_name":"酒吧","address":"法华镇路877"},{"poiid":"B2094654D564A7FA4692","title":"鹿岛(上海)工程有限公司","lon":"121.41897","lat":"31.20824","category":"263","category_name":"公司","address":"延安西路1620"},{"poiid":"B2094757D065A1F8459D","title":"华清池","lon":"121.41880273","lat":"31.207106105","category":"196","category_name":"公园","address":"上海放松身心圣地"},{"poiid":"B2094757D065A4FA4992","title":"凯旋路","lon":"121.41802208","lat":"31.208513506","category":"500","category_name":"未知分类","address":"上海凯旋路1010号"},{"poiid":"B2094750D164A3F4479A","title":"7天连锁酒店上海延安西路地铁站店","lon":"121.4201","lat":"31.2066","category":"216","category_name":"经济型连锁酒店","address":"上海长宁区杨宅路20号"},{"poiid":"B2094757D068A1FC4592","title":"CoCo都可茶饮(龙之梦店)","lon":"121.41904903","lat":"31.210319948","category":"113","category_name":"冷饮店","address":"上海市长宁区长宁路1018号龙之梦购物中心B2楼"},{"poiid":"B2094654DB65A4F9499A","title":"新游子老鸭粉丝汤&南京特色汤包","lon":"121.42053","lat":"31.20696","category":"68","category_name":"快餐厅","address":"长宁区法华镇路810号(近延安西路)"}]