[{"poiid":"B2094757D06FA7F8489F","title":"滨江森林公园","lon":"121.52494953","lat":"31.38177031","category":"196","category_name":"公园","address":"上海凌桥"},{"poiid":"B2094757D06FA3F5409B","title":"上海公安高等专科学校","lon":"121.51755523","lat":"31.377981185","category":"671","category_name":"高校中心点","address":"浦东新区凌桥崇景路100号(三岔港)"},{"poiid":"B2094655D36CA1F9449D","title":"凌桥","lon":"121.54346","lat":"31.36538","category":"38","category_name":"公交车站","address":""},{"poiid":"B2094655D26BA2FB4198","title":"随塘公路","lon":"121.53459","lat":"31.37935","category":"38","category_name":"公交车站","address":""},{"poiid":"B2094654D46BA3FF4093","title":"东港丽景苑","lon":"121.54063","lat":"31.368195","category":"47","category_name":"住宅区","address":"浦东凌环路51弄外高桥"},{"poiid":"B2094654D46BA3FA4393","title":"高桥镇炮台浜村卫生室","lon":"121.53878","lat":"31.37887","category":"162","category_name":"医院","address":""},{"poiid":"B2094757D66DA2F4459C","title":"炮台浜村","lon":"121.53889613","lat":"31.378874383","category":"500","category_name":"未知分类","address":"上海浦东新区凌桥镇随塘公路炮台浜村"},{"poiid":"B2094757D568A5FB499D","title":"蓼风阁餐厅","lon":"121.5277931","lat":"31.37944389","category":"68","category_name":"快餐厅","address":"浦东新区高桥镇凌桥高沙滩3号滨江森林公园内"},{"poiid":"B2094655D26EA7FC4598","title":"滨海餐饮服务社","lon":"121.52779","lat":"31.37944","category":"76","category_name":"上海菜","address":"浦东新区高桥镇凌桥高沙滩3号滨江森林公园对面"},{"poiid":"B2094757D068AAFF4798","title":"滨江森林公园真人CS野战场","lon":"121.526492","lat":"31.381339","category":"173","category_name":"游戏厅","address":"浦东新区高桥镇凌桥高沙滩3号(近公安高等专科学校)"},{"poiid":"B2094757D065A1FB4792","title":"中凌东港苑","lon":"121.54386","lat":"31.367647","category":"47","category_name":"住宅区","address":"上海市浦东新区凌环路179弄"},{"poiid":"B2094750D16BA1F9469B","title":"吴松炮台湾湿地森林公园","lon":"121.530395","lat":"31.37572","category":"250","category_name":"公园户外","address":null},{"poiid":"B2094750DB68AAF5479B","title":"滨江森林公园","lon":"121.52848","lat":"31.381502","category":"500","category_name":"未知分类","address":null},{"poiid":"B2094655D36DA1FE4493","title":"横浜桥","lon":"121.52994","lat":"31.3737","category":"250","category_name":"公园户外","address":""},{"poiid":"B2094655D36CA5FB4399","title":"仓房浜","lon":"121.53263","lat":"31.37054","category":"38","category_name":"公交车站","address":""},{"poiid":"B2094654D46BA3F5459E","title":"理想美发(草高公路)","lon":"121.52569","lat":"31.37613","category":"148","category_name":"美容美发店","address":""},{"poiid":"B2094757D16AA5FE459F","title":"凌桥淡水鱼垂钓中心","lon":"121.529573118","lat":"31.3724314116","category":"500","category_name":"未知分类","address":"上海浦东新区高桥镇凌桥村"},{"poiid":"B2094655D26BA2FD4098","title":"吴家湾","lon":"121.52617","lat":"31.37276","category":"38","category_name":"公交车站","address":""},{"poiid":"B2094655D36CA6FD4492","title":"公安学校","lon":"121.52206","lat":"31.37863","category":"38","category_name":"公交车站","address":""},{"poiid":"B2094757D66CA2FD4992","title":"上海公安高等专科学校培训二部","lon":"121.52522193","lat":"31.374314956","category":"500","category_name":"未知分类","address":"上海崇景路100号"},{"poiid":"B2094654D46BA3FA4499","title":"伟伟综合商店(顾家圩村治安岗西)","lon":"121.54853","lat":"31.37852","category":"117","category_name":"便民商店/便利店","address":""},{"poiid":"B2094654D46BA3F5429A","title":"高桥镇龙叶村","lon":"121.5256","lat":"31.372372","category":"47","category_name":"住宅区","address":"江东路628号"},{"poiid":"B2094654D46BA3F9489B","title":"上海市凌桥中学","lon":"121.54367","lat":"31.36546","category":"55","category_name":"中学","address":"浦东新区高桥镇江东路1375号"},{"poiid":"B2094654D46BA3FA4198","title":"怡静园","lon":"121.53798","lat":"31.36677","category":"47","category_name":"住宅区","address":"江东路1075弄1-30号"},{"poiid":"B2094757D66FA1FE4198","title":"沿塘路码头","lon":"121.55193083","lat":"31.377810728","category":"500","category_name":"未知分类","address":"上海市浦东新区随塘路"},{"poiid":"B2094654D46BA3FA479C","title":"上海华英仓储有限公司综合办公楼及仓库","lon":"121.53318","lat":"31.36981","category":"263","category_name":"公司","address":"江东路866"},{"poiid":"B2094757D064A7FE4699","title":"凌桥幼儿园","lon":"121.544335","lat":"31.3663743","category":"57","category_name":"幼儿园","address":"浦东新区凌桥镇凌高路128号"},{"poiid":"B2094654D46BA3F9499D","title":"全福酒家","lon":"121.54208","lat":"31.36585","category":"76","category_name":"上海菜","address":"浦东新区江东路1257号(近西凌江路)"},{"poiid":"B2094654D46BA3FA449E","title":"海兵商店","lon":"121.55171","lat":"31.37724","category":"117","category_name":"便民商店/便利店","address":""},{"poiid":"B2094654D46BA3FA4093","title":"锦福苑","lon":"121.54026","lat":"31.365746","category":"47","category_name":"住宅区","address":"江东路1217弄"},{"poiid":"B2094757D065A5F84793","title":"外环张扬北路出口","lon":"121.55092978","lat":"31.371305324","category":"500","category_name":"未知分类","address":"上海外环张扬北路出口"},{"poiid":"B2094655D26EAAFD489F","title":"凌翼酒楼","lon":"121.54321","lat":"31.36523","category":"70","category_name":"综合酒楼","address":"浦东新区江东路1380弄2号近浦东北路"},{"poiid":"B2094655D36CA6F4469F","title":"丁浜","lon":"121.51854","lat":"31.37379","category":"38","category_name":"公交车站","address":""},{"poiid":"B2094757D16BA4FC4693","title":"上海公安高等专科学校干训楼","lon":"121.51928483","lat":"31.379726768","category":"500","category_name":"未知分类","address":"上海市浦东新区崇景路100号"},{"poiid":"B2094757D16EA0FD479F","title":"迪亚天天N.5955","lon":"121.53723144","lat":"31.367059707","category":"249","category_name":"购物服务","address":"上海浦东凌桥店"},{"poiid":"B2094757D065A0F94999","title":"上海公安高等专科学校锦英体育馆","lon":"121.51877393","lat":"31.378613445","category":"500","category_name":"未知分类","address":"上海市浦东新区崇景路100号校园内"},{"poiid":"B2094654D46BA3F8429D","title":"凌桥新村","lon":"121.54406","lat":"31.36364","category":"47","category_name":"住宅区","address":"江东路1380弄"},{"poiid":"B2094654D46BA3F54799","title":"凌翼大楼","lon":"121.54348","lat":"31.36493","category":"46","category_name":"楼宇","address":"高桥镇"},{"poiid":"B2094654D46BA3F8429B","title":"凯旋楼","lon":"121.54297","lat":"31.3642","category":"46","category_name":"楼宇","address":"影前路32弄49、55、61、65号"},{"poiid":"B2094654D46BA3F5459A","title":"中国海警","lon":"121.54149","lat":"31.36626","category":"248","category_name":"生活娱乐","address":""},{"poiid":"B2094654D46BA3F5479C","title":"凌桥二村","lon":"121.54149","lat":"31.363422","category":"47","category_name":"住宅区","address":"凌海路80号"},{"poiid":"B2094654D46BA3F8429A","title":"上海市浦东新区凌桥中心小学","lon":"121.54237","lat":"31.3645","category":"56","category_name":"小学","address":"浦东新区江东路1380弄78号"},{"poiid":"B2094654D46BA3FF4198","title":"凌桥影剧院","lon":"121.543481","lat":"31.364498","category":"178","category_name":"电影院","address":"江东路1380弄195"},{"poiid":"B2094757D16CA0FA4099","title":"上海公安高等专科学校泅渡馆","lon":"121.517552","lat":"31.377982","category":"500","category_name":"未知分类","address":"上海崇景路100号"},{"poiid":"B2094757D064A5FA429F","title":"公专12号楼","lon":"121.518244231","lat":"31.3781669358","category":"252","category_name":"楼宇机构","address":"上海崇景路100号"},{"poiid":"B2094654D46BA3F94999","title":"金翼小区","lon":"121.54451","lat":"31.364471","category":"47","category_name":"住宅区","address":"江东路1400弄18号"},{"poiid":"B2094757D16EA6FA429A","title":"漠河路篮球场","lon":"121.53073783","lat":"31.36482546","category":"220","category_name":"运动场所","address":"上海漠河路"},{"poiid":"B2094654D46BA3F44699","title":"浦东高桥工业小区","lon":"121.54205","lat":"31.362417","category":"47","category_name":"住宅区","address":"陵桥镇西45号"},{"poiid":"B2094654D46BA3FE489D","title":"凌桥派出所","lon":"121.54305","lat":"31.36454","category":"609","category_name":"警察局","address":"浦东新区江东路1380弄50号"},{"poiid":"B2094654D46BA3FE499D","title":"中国农业银行外高桥凌桥支行","lon":"121.54319","lat":"31.36468","category":"150","category_name":"银行","address":"江东路1380弄20号"},{"poiid":"B2094757D06FA7F8489F","title":"滨江森林公园","lon":"121.52494953","lat":"31.38177031","category":"196","category_name":"公园","address":"上海凌桥"},{"poiid":"B2094757D06FA3F5409B","title":"上海公安高等专科学校","lon":"121.51755523","lat":"31.377981185","category":"671","category_name":"高校中心点","address":"浦东新区凌桥崇景路100号(三岔港)"},{"poiid":"B2094655D36CA1F9449D","title":"凌桥","lon":"121.54346","lat":"31.36538","category":"38","category_name":"公交车站","address":""},{"poiid":"B2094655D26BA2FB4198","title":"随塘公路","lon":"121.53459","lat":"31.37935","category":"38","category_name":"公交车站","address":""},{"poiid":"B2094654D46BA3FF4093","title":"东港丽景苑","lon":"121.54063","lat":"31.368195","category":"47","category_name":"住宅区","address":"浦东凌环路51弄外高桥"},{"poiid":"B2094654D46BA3FA4393","title":"高桥镇炮台浜村卫生室","lon":"121.53878","lat":"31.37887","category":"162","category_name":"医院","address":""},{"poiid":"B2094757D66DA2F4459C","title":"炮台浜村","lon":"121.53889613","lat":"31.378874383","category":"500","category_name":"未知分类","address":"上海浦东新区凌桥镇随塘公路炮台浜村"},{"poiid":"B2094757D568A5FB499D","title":"蓼风阁餐厅","lon":"121.5277931","lat":"31.37944389","category":"68","category_name":"快餐厅","address":"浦东新区高桥镇凌桥高沙滩3号滨江森林公园内"},{"poiid":"B2094655D26EA7FC4598","title":"滨海餐饮服务社","lon":"121.52779","lat":"31.37944","category":"76","category_name":"上海菜","address":"浦东新区高桥镇凌桥高沙滩3号滨江森林公园对面"},{"poiid":"B2094757D068AAFF4798","title":"滨江森林公园真人CS野战场","lon":"121.526492","lat":"31.381339","category":"173","category_name":"游戏厅","address":"浦东新区高桥镇凌桥高沙滩3号(近公安高等专科学校)"},{"poiid":"B2094757D065A1FB4792","title":"中凌东港苑","lon":"121.54386","lat":"31.367647","category":"47","category_name":"住宅区","address":"上海市浦东新区凌环路179弄"},{"poiid":"B2094750D16BA1F9469B","title":"吴松炮台湾湿地森林公园","lon":"121.530395","lat":"31.37572","category":"250","category_name":"公园户外","address":null},{"poiid":"B2094750DB68AAF5479B","title":"滨江森林公园","lon":"121.52848","lat":"31.381502","category":"500","category_name":"未知分类","address":null},{"poiid":"B2094655D36DA1FE4493","title":"横浜桥","lon":"121.52994","lat":"31.3737","category":"250","category_name":"公园户外","address":""},{"poiid":"B2094655D36CA5FB4399","title":"仓房浜","lon":"121.53263","lat":"31.37054","category":"38","category_name":"公交车站","address":""},{"poiid":"B2094654D46BA3F5459E","title":"理想美发(草高公路)","lon":"121.52569","lat":"31.37613","category":"148","category_name":"美容美发店","address":""},{"poiid":"B2094757D16AA5FE459F","title":"凌桥淡水鱼垂钓中心","lon":"121.529573118","lat":"31.3724314116","category":"500","category_name":"未知分类","address":"上海浦东新区高桥镇凌桥村"},{"poiid":"B2094655D26BA2FD4098","title":"吴家湾","lon":"121.52617","lat":"31.37276","category":"38","category_name":"公交车站","address":""},{"poiid":"B2094655D36CA6FD4492","title":"公安学校","lon":"121.52206","lat":"31.37863","category":"38","category_name":"公交车站","address":""},{"poiid":"B2094757D66CA2FD4992","title":"上海公安高等专科学校培训二部","lon":"121.52522193","lat":"31.374314956","category":"500","category_name":"未知分类","address":"上海崇景路100号"},{"poiid":"B2094654D46BA3FA4499","title":"伟伟综合商店(顾家圩村治安岗西)","lon":"121.54853","lat":"31.37852","category":"117","category_name":"便民商店/便利店","address":""},{"poiid":"B2094654D46BA3F5429A","title":"高桥镇龙叶村","lon":"121.5256","lat":"31.372372","category":"47","category_name":"住宅区","address":"江东路628号"},{"poiid":"B2094654D46BA3F9489B","title":"上海市凌桥中学","lon":"121.54367","lat":"31.36546","category":"55","category_name":"中学","address":"浦东新区高桥镇江东路1375号"},{"poiid":"B2094654D46BA3FA4198","title":"怡静园","lon":"121.53798","lat":"31.36677","category":"47","category_name":"住宅区","address":"江东路1075弄1-30号"},{"poiid":"B2094757D66FA1FE4198","title":"沿塘路码头","lon":"121.55193083","lat":"31.377810728","category":"500","category_name":"未知分类","address":"上海市浦东新区随塘路"},{"poiid":"B2094654D46BA3FA479C","title":"上海华英仓储有限公司综合办公楼及仓库","lon":"121.53318","lat":"31.36981","category":"263","category_name":"公司","address":"江东路866"},{"poiid":"B2094757D064A7FE4699","title":"凌桥幼儿园","lon":"121.544335","lat":"31.3663743","category":"57","category_name":"幼儿园","address":"浦东新区凌桥镇凌高路128号"},{"poiid":"B2094654D46BA3F9499D","title":"全福酒家","lon":"121.54208","lat":"31.36585","category":"76","category_name":"上海菜","address":"浦东新区江东路1257号(近西凌江路)"},{"poiid":"B2094654D46BA3FA449E","title":"海兵商店","lon":"121.55171","lat":"31.37724","category":"117","category_name":"便民商店/便利店","address":""},{"poiid":"B2094654D46BA3FA4093","title":"锦福苑","lon":"121.54026","lat":"31.365746","category":"47","category_name":"住宅区","address":"江东路1217弄"},{"poiid":"B2094757D065A5F84793","title":"外环张扬北路出口","lon":"121.55092978","lat":"31.371305324","category":"500","category_name":"未知分类","address":"上海外环张扬北路出口"},{"poiid":"B2094655D26EAAFD489F","title":"凌翼酒楼","lon":"121.54321","lat":"31.36523","category":"70","category_name":"综合酒楼","address":"浦东新区江东路1380弄2号近浦东北路"},{"poiid":"B2094655D36CA6F4469F","title":"丁浜","lon":"121.51854","lat":"31.37379","category":"38","category_name":"公交车站","address":""},{"poiid":"B2094757D16BA4FC4693","title":"上海公安高等专科学校干训楼","lon":"121.51928483","lat":"31.379726768","category":"500","category_name":"未知分类","address":"上海市浦东新区崇景路100号"},{"poiid":"B2094757D16EA0FD479F","title":"迪亚天天N.5955","lon":"121.53723144","lat":"31.367059707","category":"249","category_name":"购物服务","address":"上海浦东凌桥店"},{"poiid":"B2094757D065A0F94999","title":"上海公安高等专科学校锦英体育馆","lon":"121.51877393","lat":"31.378613445","category":"500","category_name":"未知分类","address":"上海市浦东新区崇景路100号校园内"},{"poiid":"B2094654D46BA3F8429D","title":"凌桥新村","lon":"121.54406","lat":"31.36364","category":"47","category_name":"住宅区","address":"江东路1380弄"},{"poiid":"B2094654D46BA3F54799","title":"凌翼大楼","lon":"121.54348","lat":"31.36493","category":"46","category_name":"楼宇","address":"高桥镇"},{"poiid":"B2094654D46BA3F8429B","title":"凯旋楼","lon":"121.54297","lat":"31.3642","category":"46","category_name":"楼宇","address":"影前路32弄49、55、61、65号"},{"poiid":"B2094654D46BA3F5459A","title":"中国海警","lon":"121.54149","lat":"31.36626","category":"248","category_name":"生活娱乐","address":""},{"poiid":"B2094654D46BA3F5479C","title":"凌桥二村","lon":"121.54149","lat":"31.363422","category":"47","category_name":"住宅区","address":"凌海路80号"},{"poiid":"B2094654D46BA3F8429A","title":"上海市浦东新区凌桥中心小学","lon":"121.54237","lat":"31.3645","category":"56","category_name":"小学","address":"浦东新区江东路1380弄78号"},{"poiid":"B2094654D46BA3FF4198","title":"凌桥影剧院","lon":"121.543481","lat":"31.364498","category":"178","category_name":"电影院","address":"江东路1380弄195"},{"poiid":"B2094757D16CA0FA4099","title":"上海公安高等专科学校泅渡馆","lon":"121.517552","lat":"31.377982","category":"500","category_name":"未知分类","address":"上海崇景路100号"},{"poiid":"B2094757D064A5FA429F","title":"公专12号楼","lon":"121.518244231","lat":"31.3781669358","category":"252","category_name":"楼宇机构","address":"上海崇景路100号"},{"poiid":"B2094654D46BA3F94999","title":"金翼小区","lon":"121.54451","lat":"31.364471","category":"47","category_name":"住宅区","address":"江东路1400弄18号"},{"poiid":"B2094757D16EA6FA429A","title":"漠河路篮球场","lon":"121.53073783","lat":"31.36482546","category":"220","category_name":"运动场所","address":"上海漠河路"},{"poiid":"B2094654D46BA3F44699","title":"浦东高桥工业小区","lon":"121.54205","lat":"31.362417","category":"47","category_name":"住宅区","address":"陵桥镇西45号"},{"poiid":"B2094654D46BA3FE489D","title":"凌桥派出所","lon":"121.54305","lat":"31.36454","category":"609","category_name":"警察局","address":"浦东新区江东路1380弄50号"},{"poiid":"B2094654D46BA3FE499D","title":"中国农业银行外高桥凌桥支行","lon":"121.54319","lat":"31.36468","category":"150","category_name":"银行","address":"江东路1380弄20号"}]