[{"poiid":"B2094757D16CA3FB4692","title":"930私房菜(欧阳路店)","lon":"121.489328103","lat":"31.2680273722","category":"76","category_name":"上海菜","address":"虹口区欧阳路196号1号楼3楼(近四达路)"},{"poiid":"B2094757D06FA3FB419C","title":"玛格萝妮比萨屋(物华店)","lon":"121.49097189","lat":"31.26244171","category":"94","category_name":"西餐厅","address":"上海虹口区四平路188号(近物华路)"},{"poiid":"B2094757D069A3FB4798","title":"四平路临平北路","lon":"121.4908431","lat":"31.264171","category":"260","category_name":"其他","address":"上海虹口区四平路临平北路"},{"poiid":"B209475CD769A7F94093","title":"王子公主奇遇记主题KTV","lon":"121.488833","lat":"31.261971","category":"170","category_name":"KTV","address":"上海市虹口区四平路257号1-3楼(近溧阳路)"},{"poiid":"B2094654DB6AAAF84898","title":"美林阁 四平路店 MeiLinGe","lon":"121.489139054","lat":"31.262070793","category":"76","category_name":"上海菜","address":"虹口区四平路257号虹口世纪酒店1-2楼(近溧阳路)"},{"poiid":"B2094751D56CABF8409A","title":"上海大饭堂(四平路店)","lon":"121.49058","lat":"31.26357","category":"76","category_name":"上海菜","address":"虹口区四平路216号新能源大厦内(近临平北路)"},{"poiid":"B2094757D06FABFD459D","title":"荣欣大厦","lon":"121.490138","lat":"31.26684","category":"252","category_name":"楼宇机构","address":"上海市四川北路1851号"},{"poiid":"B2094757D16EA1F4449B","title":"法兰桥创意园区","lon":"121.488876103","lat":"31.2667803462","category":"119","category_name":"商场","address":"上海虹口区欧阳路196号"},{"poiid":"B2094655D26DA4FB449A","title":"溧阳华府","lon":"121.48854","lat":"31.26298","category":"47","category_name":"住宅区","address":"上海市虹口区宝安路1号"},{"poiid":"B2094757D06FA5FF4893","title":"溧园咖啡","lon":"121.487339","lat":"31.262971","category":"260","category_name":"其他","address":"虹口区溧阳路1208弄5号老洋房花园内(四川北路四平路间)"},{"poiid":"B2094655D26FA6FB4098","title":"上海虹口世纪大酒店(东门)","lon":"121.4895","lat":"31.26183","category":"214","category_name":"四星级宾馆","address":"上海市虹口区溧阳路1111号（近四平路）"},{"poiid":"B2094654DB6BA3F84993","title":"致真酒家 虹口店 Sincere Restaurant","lon":"121.490685054","lat":"31.263551793","category":"76","category_name":"上海菜","address":"虹口区四平路208号(近物华路)"},{"poiid":"B2094757D069A2F84693","title":"巴黎贝甜(欧阳店)","lon":"121.48845857","lat":"31.266445989","category":"67","category_name":"甜品店","address":"虹口区欧阳路198号(近吉祥路)"},{"poiid":"B2094655D26AAAFD4492","title":"上海莫泰168连锁酒店四平路店","lon":"121.49122","lat":"31.26606","category":"250","category_name":"公园户外","address":"上海市虹口区四平路333号（近四达路）"},{"poiid":"B2094757D06FABF9409F","title":"虹口区青少年活动中心","lon":"121.48973131","lat":"31.265364815","category":"260","category_name":"其他","address":"虹口区欧阳路67号(近四平路)"},{"poiid":"B2094757D16DA5FE419A","title":"四平路","lon":"121.4897721","lat":"31.261685239","category":"500","category_name":"未知分类","address":"上海四平路"},{"poiid":"B2094757D06BAAF4409F","title":"巨麦KTV","lon":"121.4916901","lat":"31.264270293","category":"170","category_name":"KTV","address":"虹口区物华路300号(近四平路)"},{"poiid":"B2094757D069A7FF4293","title":"一兆韦德(溧阳华府店)","lon":"121.490071","lat":"31.26333","category":"500","category_name":"未知分类","address":"虹口区宝安支路46号(近溧阳路)"},{"poiid":"B2094757D16EA2FF469B","title":"8号线曲阳路站","lon":"121.489662103","lat":"31.264428297","category":"500","category_name":"未知分类","address":"上海曲阳路大连路"},{"poiid":"B2094757D169A5FF439E","title":"知茵坊","lon":"121.4891937","lat":"31.266933649","category":"76","category_name":"上海菜","address":"虹口区欧阳路196弄22-23号"},{"poiid":"B2094654D56DABF5469E","title":"盛泰国际大厦","lon":"121.49125","lat":"31.26289","category":"46","category_name":"楼宇","address":"上海市虹口区四平路200号"},{"poiid":"B2094757D66CABFC479D","title":"浦东国际机场T2停车场","lon":"121.489784103","lat":"31.2642642936","category":"21","category_name":"飞机场","address":"上海浦东"},{"poiid":"B2094655D269AAF4409F","title":"锦江之星海伦路店","lon":"121.49014","lat":"31.26358","category":"247","category_name":"餐饮美食","address":"虹口区四平路285号(近物华路)"},{"poiid":"B2094654D56CA0F44299","title":"美玫美发","lon":"121.48892","lat":"31.26576","category":"148","category_name":"美容美发店","address":"欧阳路88"},{"poiid":"B2094757D06AA0FF479C","title":"85度C(欧阳店)","lon":"121.489107","lat":"31.2660613","category":"112","category_name":"糕饼店","address":"虹口区欧阳路196号1号楼1楼4-20室(近吉祥路)"},{"poiid":"B2094654D56CA0F4419E","title":"新文苑","lon":"121.48899","lat":"31.265003","category":"47","category_name":"住宅区","address":"上海市虹口区欧阳路18号(近四平路)"},{"poiid":"B2094757D66AA5FD4793","title":"次郎日式快餐 四平店","lon":"121.49134445846","lat":"31.265653123995","category":"68","category_name":"快餐厅","address":"虹口区四平路170号(近溧阳路)"},{"poiid":"B2094655D269AAF4429D","title":"如家快捷酒店欧阳路店","lon":"121.48817","lat":"31.26579","category":"247","category_name":"餐饮美食","address":"上海市虹口区吉祥路69号(近欧阳路)"},{"poiid":"B2094655D26DA5FB469E","title":"好德便利No.261","lon":"121.48945","lat":"31.26476","category":"117","category_name":"便民商店/便利店","address":"欧阳路12"},{"poiid":"B2094757D068A6FF4392","title":"锦鑫桌球俱乐部","lon":"121.49018","lat":"31.26254","category":"171","category_name":"台球厅","address":"虹口区四平路277号2楼(近物华路)"},{"poiid":"B2094751DB65A2FF469A","title":"真蕊手工面食","lon":"121.48867","lat":"31.26452","category":"68","category_name":"快餐厅","address":"虹口区宝安支路20号"},{"poiid":"B2094757D468A4F8449A","title":"海尚香","lon":"121.488248","lat":"31.267171","category":"76","category_name":"上海菜","address":"虹口区欧阳路196号法兰桥创意园(近四平路)"},{"poiid":"B2094757D06AAAF54798","title":"欧洲花园","lon":"121.492105","lat":"31.26443","category":"47","category_name":"住宅区","address":"上海临平北路89弄"},{"poiid":"B2094654D56CA0F4489F","title":"吉祥苑","lon":"121.48873","lat":"31.265705","category":"47","category_name":"住宅区","address":"上海市虹口区欧阳路90号(吉祥路口"},{"poiid":"B2094757D06FA6F84899","title":"四平路临平北路公交车站","lon":"121.49063873","lat":"31.264434814","category":"38","category_name":"公交车站","address":"上海四平路311号"},{"poiid":"B2094757D06BA2F44292","title":"家纺大厦","lon":"121.490373703","lat":"31.2634898774","category":"46","category_name":"楼宇","address":"上海虹口区四平路210号"},{"poiid":"B2094654D56CA0F4429A","title":"佐登妮丝美容生活馆四平店","lon":"121.48908","lat":"31.26547","category":"148","category_name":"美容美发店","address":"欧阳路76"},{"poiid":"B2094654D56DAAFC409E","title":"轻工国际大厦","lon":"121.49073","lat":"31.26304","category":"46","category_name":"楼宇","address":"昌平区回龙观镇国际信息产业基地高新二街"},{"poiid":"B2094757D06AAAFB4198","title":"精武大厦","lon":"121.49","lat":"31.2634","category":"252","category_name":"楼宇机构","address":"卫清西路139_149号等"},{"poiid":"B2094654D56CA0F4419D","title":"上海虹口区志汇鸿食品店","lon":"121.48911","lat":"31.26543","category":"117","category_name":"便民商店/便利店","address":""},{"poiid":"B2094654D56DAAFC4298","title":"虹诚大厦","lon":"121.49148","lat":"31.263783","category":"47","category_name":"住宅区","address":"上海虹诚大厦位于虹口临平北路88号"},{"poiid":"B2094757D069A0F4429B","title":"新能源大厦〔四平路临平北路〕","lon":"121.4907","lat":"31.263794","category":"500","category_name":"未知分类","address":"上海四平路216"},{"poiid":"B2094654D56CA0F4429E","title":"华氏大药房欧阳路药房","lon":"121.48889","lat":"31.26581","category":"162","category_name":"医院","address":"欧阳路90"},{"poiid":"B2094654D56CA0F4489C","title":"可颂坊 四平路店 Croissants de France","lon":"121.491196054","lat":"31.265359793","category":"67","category_name":"甜品店","address":"四平路311号近欧阳路"},{"poiid":"B2094654D56CA7FC4792","title":"恒盛里(东门)","lon":"121.48775","lat":"31.26475","category":"47","category_name":"住宅区","address":"宝安路160弄1-59号"},{"poiid":"B2094655D26CA1FA409F","title":"虹临嘉园","lon":"121.48936","lat":"31.263929","category":"47","category_name":"住宅区","address":"上海市虹口区四平路283号"},{"poiid":"B2094655D269AAF4469B","title":"姬莲娜","lon":"121.49047","lat":"31.26478","category":"247","category_name":"餐饮美食","address":"虹口区四平路311号恒城花苑甲座405(近临平路)"},{"poiid":"B2094655D26DA6FA469E","title":"新能源大厦","lon":"121.49106","lat":"31.26382","category":"46","category_name":"楼宇","address":""},{"poiid":"B2094655D26DAAFB409F","title":"虹临花园","lon":"121.49","lat":"31.263592","category":"47","category_name":"住宅区","address":"四平路283号"},{"poiid":"B2094757D069A3FB459D","title":"一品干锅蛙","lon":"121.48837","lat":"31.26689","category":"71","category_name":"四川菜","address":"虹口区欧阳路196号法兰桥创意园1号楼2楼(近四达路)"},{"poiid":"B2094757D16CA3FB4692","title":"930私房菜(欧阳路店)","lon":"121.489328103","lat":"31.2680273722","category":"76","category_name":"上海菜","address":"虹口区欧阳路196号1号楼3楼(近四达路)"},{"poiid":"B2094757D06FA3FB419C","title":"玛格萝妮比萨屋(物华店)","lon":"121.49097189","lat":"31.26244171","category":"94","category_name":"西餐厅","address":"上海虹口区四平路188号(近物华路)"},{"poiid":"B2094757D069A3FB4798","title":"四平路临平北路","lon":"121.4908431","lat":"31.264171","category":"260","category_name":"其他","address":"上海虹口区四平路临平北路"},{"poiid":"B209475CD769A7F94093","title":"王子公主奇遇记主题KTV","lon":"121.488833","lat":"31.261971","category":"170","category_name":"KTV","address":"上海市虹口区四平路257号1-3楼(近溧阳路)"},{"poiid":"B2094654DB6AAAF84898","title":"美林阁 四平路店 MeiLinGe","lon":"121.489139054","lat":"31.262070793","category":"76","category_name":"上海菜","address":"虹口区四平路257号虹口世纪酒店1-2楼(近溧阳路)"},{"poiid":"B2094751D56CABF8409A","title":"上海大饭堂(四平路店)","lon":"121.49058","lat":"31.26357","category":"76","category_name":"上海菜","address":"虹口区四平路216号新能源大厦内(近临平北路)"},{"poiid":"B2094757D06FABFD459D","title":"荣欣大厦","lon":"121.490138","lat":"31.26684","category":"252","category_name":"楼宇机构","address":"上海市四川北路1851号"},{"poiid":"B2094757D16EA1F4449B","title":"法兰桥创意园区","lon":"121.488876103","lat":"31.2667803462","category":"119","category_name":"商场","address":"上海虹口区欧阳路196号"},{"poiid":"B2094655D26DA4FB449A","title":"溧阳华府","lon":"121.48854","lat":"31.26298","category":"47","category_name":"住宅区","address":"上海市虹口区宝安路1号"},{"poiid":"B2094757D06FA5FF4893","title":"溧园咖啡","lon":"121.487339","lat":"31.262971","category":"260","category_name":"其他","address":"虹口区溧阳路1208弄5号老洋房花园内(四川北路四平路间)"},{"poiid":"B2094655D26FA6FB4098","title":"上海虹口世纪大酒店(东门)","lon":"121.4895","lat":"31.26183","category":"214","category_name":"四星级宾馆","address":"上海市虹口区溧阳路1111号（近四平路）"},{"poiid":"B2094654DB6BA3F84993","title":"致真酒家 虹口店 Sincere Restaurant","lon":"121.490685054","lat":"31.263551793","category":"76","category_name":"上海菜","address":"虹口区四平路208号(近物华路)"},{"poiid":"B2094757D069A2F84693","title":"巴黎贝甜(欧阳店)","lon":"121.48845857","lat":"31.266445989","category":"67","category_name":"甜品店","address":"虹口区欧阳路198号(近吉祥路)"},{"poiid":"B2094655D26AAAFD4492","title":"上海莫泰168连锁酒店四平路店","lon":"121.49122","lat":"31.26606","category":"250","category_name":"公园户外","address":"上海市虹口区四平路333号（近四达路）"},{"poiid":"B2094757D06FABF9409F","title":"虹口区青少年活动中心","lon":"121.48973131","lat":"31.265364815","category":"260","category_name":"其他","address":"虹口区欧阳路67号(近四平路)"},{"poiid":"B2094757D16DA5FE419A","title":"四平路","lon":"121.4897721","lat":"31.261685239","category":"500","category_name":"未知分类","address":"上海四平路"},{"poiid":"B2094757D06BAAF4409F","title":"巨麦KTV","lon":"121.4916901","lat":"31.264270293","category":"170","category_name":"KTV","address":"虹口区物华路300号(近四平路)"},{"poiid":"B2094757D069A7FF4293","title":"一兆韦德(溧阳华府店)","lon":"121.490071","lat":"31.26333","category":"500","category_name":"未知分类","address":"虹口区宝安支路46号(近溧阳路)"},{"poiid":"B2094757D16EA2FF469B","title":"8号线曲阳路站","lon":"121.489662103","lat":"31.264428297","category":"500","category_name":"未知分类","address":"上海曲阳路大连路"},{"poiid":"B2094757D169A5FF439E","title":"知茵坊","lon":"121.4891937","lat":"31.266933649","category":"76","category_name":"上海菜","address":"虹口区欧阳路196弄22-23号"},{"poiid":"B2094654D56DABF5469E","title":"盛泰国际大厦","lon":"121.49125","lat":"31.26289","category":"46","category_name":"楼宇","address":"上海市虹口区四平路200号"},{"poiid":"B2094757D66CABFC479D","title":"浦东国际机场T2停车场","lon":"121.489784103","lat":"31.2642642936","category":"21","category_name":"飞机场","address":"上海浦东"},{"poiid":"B2094655D269AAF4409F","title":"锦江之星海伦路店","lon":"121.49014","lat":"31.26358","category":"247","category_name":"餐饮美食","address":"虹口区四平路285号(近物华路)"},{"poiid":"B2094654D56CA0F44299","title":"美玫美发","lon":"121.48892","lat":"31.26576","category":"148","category_name":"美容美发店","address":"欧阳路88"},{"poiid":"B2094757D06AA0FF479C","title":"85度C(欧阳店)","lon":"121.489107","lat":"31.2660613","category":"112","category_name":"糕饼店","address":"虹口区欧阳路196号1号楼1楼4-20室(近吉祥路)"},{"poiid":"B2094654D56CA0F4419E","title":"新文苑","lon":"121.48899","lat":"31.265003","category":"47","category_name":"住宅区","address":"上海市虹口区欧阳路18号(近四平路)"},{"poiid":"B2094757D66AA5FD4793","title":"次郎日式快餐 四平店","lon":"121.49134445846","lat":"31.265653123995","category":"68","category_name":"快餐厅","address":"虹口区四平路170号(近溧阳路)"},{"poiid":"B2094655D269AAF4429D","title":"如家快捷酒店欧阳路店","lon":"121.48817","lat":"31.26579","category":"247","category_name":"餐饮美食","address":"上海市虹口区吉祥路69号(近欧阳路)"},{"poiid":"B2094655D26DA5FB469E","title":"好德便利No.261","lon":"121.48945","lat":"31.26476","category":"117","category_name":"便民商店/便利店","address":"欧阳路12"},{"poiid":"B2094757D068A6FF4392","title":"锦鑫桌球俱乐部","lon":"121.49018","lat":"31.26254","category":"171","category_name":"台球厅","address":"虹口区四平路277号2楼(近物华路)"},{"poiid":"B2094751DB65A2FF469A","title":"真蕊手工面食","lon":"121.48867","lat":"31.26452","category":"68","category_name":"快餐厅","address":"虹口区宝安支路20号"},{"poiid":"B2094757D468A4F8449A","title":"海尚香","lon":"121.488248","lat":"31.267171","category":"76","category_name":"上海菜","address":"虹口区欧阳路196号法兰桥创意园(近四平路)"},{"poiid":"B2094757D06AAAF54798","title":"欧洲花园","lon":"121.492105","lat":"31.26443","category":"47","category_name":"住宅区","address":"上海临平北路89弄"},{"poiid":"B2094654D56CA0F4489F","title":"吉祥苑","lon":"121.48873","lat":"31.265705","category":"47","category_name":"住宅区","address":"上海市虹口区欧阳路90号(吉祥路口"},{"poiid":"B2094757D06FA6F84899","title":"四平路临平北路公交车站","lon":"121.49063873","lat":"31.264434814","category":"38","category_name":"公交车站","address":"上海四平路311号"},{"poiid":"B2094757D06BA2F44292","title":"家纺大厦","lon":"121.490373703","lat":"31.2634898774","category":"46","category_name":"楼宇","address":"上海虹口区四平路210号"},{"poiid":"B2094654D56CA0F4429A","title":"佐登妮丝美容生活馆四平店","lon":"121.48908","lat":"31.26547","category":"148","category_name":"美容美发店","address":"欧阳路76"},{"poiid":"B2094654D56DAAFC409E","title":"轻工国际大厦","lon":"121.49073","lat":"31.26304","category":"46","category_name":"楼宇","address":"昌平区回龙观镇国际信息产业基地高新二街"},{"poiid":"B2094757D06AAAFB4198","title":"精武大厦","lon":"121.49","lat":"31.2634","category":"252","category_name":"楼宇机构","address":"卫清西路139_149号等"},{"poiid":"B2094654D56CA0F4419D","title":"上海虹口区志汇鸿食品店","lon":"121.48911","lat":"31.26543","category":"117","category_name":"便民商店/便利店","address":""},{"poiid":"B2094654D56DAAFC4298","title":"虹诚大厦","lon":"121.49148","lat":"31.263783","category":"47","category_name":"住宅区","address":"上海虹诚大厦位于虹口临平北路88号"},{"poiid":"B2094757D069A0F4429B","title":"新能源大厦〔四平路临平北路〕","lon":"121.4907","lat":"31.263794","category":"500","category_name":"未知分类","address":"上海四平路216"},{"poiid":"B2094654D56CA0F4429E","title":"华氏大药房欧阳路药房","lon":"121.48889","lat":"31.26581","category":"162","category_name":"医院","address":"欧阳路90"},{"poiid":"B2094654D56CA0F4489C","title":"可颂坊 四平路店 Croissants de France","lon":"121.491196054","lat":"31.265359793","category":"67","category_name":"甜品店","address":"四平路311号近欧阳路"},{"poiid":"B2094654D56CA7FC4792","title":"恒盛里(东门)","lon":"121.48775","lat":"31.26475","category":"47","category_name":"住宅区","address":"宝安路160弄1-59号"},{"poiid":"B2094655D26CA1FA409F","title":"虹临嘉园","lon":"121.48936","lat":"31.263929","category":"47","category_name":"住宅区","address":"上海市虹口区四平路283号"},{"poiid":"B2094655D269AAF4469B","title":"姬莲娜","lon":"121.49047","lat":"31.26478","category":"247","category_name":"餐饮美食","address":"虹口区四平路311号恒城花苑甲座405(近临平路)"},{"poiid":"B2094655D26DA6FA469E","title":"新能源大厦","lon":"121.49106","lat":"31.26382","category":"46","category_name":"楼宇","address":""},{"poiid":"B2094655D26DAAFB409F","title":"虹临花园","lon":"121.49","lat":"31.263592","category":"47","category_name":"住宅区","address":"四平路283号"},{"poiid":"B2094757D069A3FB459D","title":"一品干锅蛙","lon":"121.48837","lat":"31.26689","category":"71","category_name":"四川菜","address":"虹口区欧阳路196号法兰桥创意园1号楼2楼(近四达路)"},{"poiid":"B2094757D16CA3FB4692","title":"930私房菜(欧阳路店)","lon":"121.489328103","lat":"31.2680273722","category":"76","category_name":"上海菜","address":"虹口区欧阳路196号1号楼3楼(近四达路)"},{"poiid":"B2094757D06FA3FB419C","title":"玛格萝妮比萨屋(物华店)","lon":"121.49097189","lat":"31.26244171","category":"94","category_name":"西餐厅","address":"上海虹口区四平路188号(近物华路)"},{"poiid":"B2094757D069A3FB4798","title":"四平路临平北路","lon":"121.4908431","lat":"31.264171","category":"260","category_name":"其他","address":"上海虹口区四平路临平北路"},{"poiid":"B209475CD769A7F94093","title":"王子公主奇遇记主题KTV","lon":"121.488833","lat":"31.261971","category":"170","category_name":"KTV","address":"上海市虹口区四平路257号1-3楼(近溧阳路)"},{"poiid":"B2094654DB6AAAF84898","title":"美林阁 四平路店 MeiLinGe","lon":"121.489139054","lat":"31.262070793","category":"76","category_name":"上海菜","address":"虹口区四平路257号虹口世纪酒店1-2楼(近溧阳路)"},{"poiid":"B2094751D56CABF8409A","title":"上海大饭堂(四平路店)","lon":"121.49058","lat":"31.26357","category":"76","category_name":"上海菜","address":"虹口区四平路216号新能源大厦内(近临平北路)"},{"poiid":"B2094757D06FABFD459D","title":"荣欣大厦","lon":"121.490138","lat":"31.26684","category":"252","category_name":"楼宇机构","address":"上海市四川北路1851号"},{"poiid":"B2094757D16EA1F4449B","title":"法兰桥创意园区","lon":"121.488876103","lat":"31.2667803462","category":"119","category_name":"商场","address":"上海虹口区欧阳路196号"},{"poiid":"B2094655D26DA4FB449A","title":"溧阳华府","lon":"121.48854","lat":"31.26298","category":"47","category_name":"住宅区","address":"上海市虹口区宝安路1号"},{"poiid":"B2094757D06FA5FF4893","title":"溧园咖啡","lon":"121.487339","lat":"31.262971","category":"260","category_name":"其他","address":"虹口区溧阳路1208弄5号老洋房花园内(四川北路四平路间)"},{"poiid":"B2094655D26FA6FB4098","title":"上海虹口世纪大酒店(东门)","lon":"121.4895","lat":"31.26183","category":"214","category_name":"四星级宾馆","address":"上海市虹口区溧阳路1111号（近四平路）"},{"poiid":"B2094654DB6BA3F84993","title":"致真酒家 虹口店 Sincere Restaurant","lon":"121.490685054","lat":"31.263551793","category":"76","category_name":"上海菜","address":"虹口区四平路208号(近物华路)"},{"poiid":"B2094757D069A2F84693","title":"巴黎贝甜(欧阳店)","lon":"121.48845857","lat":"31.266445989","category":"67","category_name":"甜品店","address":"虹口区欧阳路198号(近吉祥路)"},{"poiid":"B2094655D26AAAFD4492","title":"上海莫泰168连锁酒店四平路店","lon":"121.49122","lat":"31.26606","category":"250","category_name":"公园户外","address":"上海市虹口区四平路333号（近四达路）"},{"poiid":"B2094757D06FABF9409F","title":"虹口区青少年活动中心","lon":"121.48973131","lat":"31.265364815","category":"260","category_name":"其他","address":"虹口区欧阳路67号(近四平路)"},{"poiid":"B2094757D16DA5FE419A","title":"四平路","lon":"121.4897721","lat":"31.261685239","category":"500","category_name":"未知分类","address":"上海四平路"},{"poiid":"B2094757D06BAAF4409F","title":"巨麦KTV","lon":"121.4916901","lat":"31.264270293","category":"170","category_name":"KTV","address":"虹口区物华路300号(近四平路)"},{"poiid":"B2094757D069A7FF4293","title":"一兆韦德(溧阳华府店)","lon":"121.490071","lat":"31.26333","category":"500","category_name":"未知分类","address":"虹口区宝安支路46号(近溧阳路)"},{"poiid":"B2094757D16EA2FF469B","title":"8号线曲阳路站","lon":"121.489662103","lat":"31.264428297","category":"500","category_name":"未知分类","address":"上海曲阳路大连路"},{"poiid":"B2094757D169A5FF439E","title":"知茵坊","lon":"121.4891937","lat":"31.266933649","category":"76","category_name":"上海菜","address":"虹口区欧阳路196弄22-23号"},{"poiid":"B2094654D56DABF5469E","title":"盛泰国际大厦","lon":"121.49125","lat":"31.26289","category":"46","category_name":"楼宇","address":"上海市虹口区四平路200号"},{"poiid":"B2094757D66CABFC479D","title":"浦东国际机场T2停车场","lon":"121.489784103","lat":"31.2642642936","category":"21","category_name":"飞机场","address":"上海浦东"},{"poiid":"B2094655D269AAF4409F","title":"锦江之星海伦路店","lon":"121.49014","lat":"31.26358","category":"247","category_name":"餐饮美食","address":"虹口区四平路285号(近物华路)"},{"poiid":"B2094654D56CA0F44299","title":"美玫美发","lon":"121.48892","lat":"31.26576","category":"148","category_name":"美容美发店","address":"欧阳路88"},{"poiid":"B2094757D06AA0FF479C","title":"85度C(欧阳店)","lon":"121.489107","lat":"31.2660613","category":"112","category_name":"糕饼店","address":"虹口区欧阳路196号1号楼1楼4-20室(近吉祥路)"},{"poiid":"B2094654D56CA0F4419E","title":"新文苑","lon":"121.48899","lat":"31.265003","category":"47","category_name":"住宅区","address":"上海市虹口区欧阳路18号(近四平路)"},{"poiid":"B2094757D66AA5FD4793","title":"次郎日式快餐 四平店","lon":"121.49134445846","lat":"31.265653123995","category":"68","category_name":"快餐厅","address":"虹口区四平路170号(近溧阳路)"},{"poiid":"B2094655D269AAF4429D","title":"如家快捷酒店欧阳路店","lon":"121.48817","lat":"31.26579","category":"247","category_name":"餐饮美食","address":"上海市虹口区吉祥路69号(近欧阳路)"},{"poiid":"B2094655D26DA5FB469E","title":"好德便利No.261","lon":"121.48945","lat":"31.26476","category":"117","category_name":"便民商店/便利店","address":"欧阳路12"},{"poiid":"B2094757D068A6FF4392","title":"锦鑫桌球俱乐部","lon":"121.49018","lat":"31.26254","category":"171","category_name":"台球厅","address":"虹口区四平路277号2楼(近物华路)"},{"poiid":"B2094751DB65A2FF469A","title":"真蕊手工面食","lon":"121.48867","lat":"31.26452","category":"68","category_name":"快餐厅","address":"虹口区宝安支路20号"},{"poiid":"B2094757D468A4F8449A","title":"海尚香","lon":"121.488248","lat":"31.267171","category":"76","category_name":"上海菜","address":"虹口区欧阳路196号法兰桥创意园(近四平路)"},{"poiid":"B2094757D06AAAF54798","title":"欧洲花园","lon":"121.492105","lat":"31.26443","category":"47","category_name":"住宅区","address":"上海临平北路89弄"},{"poiid":"B2094654D56CA0F4489F","title":"吉祥苑","lon":"121.48873","lat":"31.265705","category":"47","category_name":"住宅区","address":"上海市虹口区欧阳路90号(吉祥路口"},{"poiid":"B2094757D06FA6F84899","title":"四平路临平北路公交车站","lon":"121.49063873","lat":"31.264434814","category":"38","category_name":"公交车站","address":"上海四平路311号"},{"poiid":"B2094757D06BA2F44292","title":"家纺大厦","lon":"121.490373703","lat":"31.2634898774","category":"46","category_name":"楼宇","address":"上海虹口区四平路210号"},{"poiid":"B2094654D56CA0F4429A","title":"佐登妮丝美容生活馆四平店","lon":"121.48908","lat":"31.26547","category":"148","category_name":"美容美发店","address":"欧阳路76"},{"poiid":"B2094654D56DAAFC409E","title":"轻工国际大厦","lon":"121.49073","lat":"31.26304","category":"46","category_name":"楼宇","address":"昌平区回龙观镇国际信息产业基地高新二街"},{"poiid":"B2094757D06AAAFB4198","title":"精武大厦","lon":"121.49","lat":"31.2634","category":"252","category_name":"楼宇机构","address":"卫清西路139_149号等"},{"poiid":"B2094654D56CA0F4419D","title":"上海虹口区志汇鸿食品店","lon":"121.48911","lat":"31.26543","category":"117","category_name":"便民商店/便利店","address":""},{"poiid":"B2094654D56DAAFC4298","title":"虹诚大厦","lon":"121.49148","lat":"31.263783","category":"47","category_name":"住宅区","address":"上海虹诚大厦位于虹口临平北路88号"},{"poiid":"B2094757D069A0F4429B","title":"新能源大厦〔四平路临平北路〕","lon":"121.4907","lat":"31.263794","category":"500","category_name":"未知分类","address":"上海四平路216"},{"poiid":"B2094654D56CA0F4429E","title":"华氏大药房欧阳路药房","lon":"121.48889","lat":"31.26581","category":"162","category_name":"医院","address":"欧阳路90"},{"poiid":"B2094654D56CA0F4489C","title":"可颂坊 四平路店 Croissants de France","lon":"121.491196054","lat":"31.265359793","category":"67","category_name":"甜品店","address":"四平路311号近欧阳路"},{"poiid":"B2094654D56CA7FC4792","title":"恒盛里(东门)","lon":"121.48775","lat":"31.26475","category":"47","category_name":"住宅区","address":"宝安路160弄1-59号"},{"poiid":"B2094655D26CA1FA409F","title":"虹临嘉园","lon":"121.48936","lat":"31.263929","category":"47","category_name":"住宅区","address":"上海市虹口区四平路283号"},{"poiid":"B2094655D269AAF4469B","title":"姬莲娜","lon":"121.49047","lat":"31.26478","category":"247","category_name":"餐饮美食","address":"虹口区四平路311号恒城花苑甲座405(近临平路)"},{"poiid":"B2094655D26DA6FA469E","title":"新能源大厦","lon":"121.49106","lat":"31.26382","category":"46","category_name":"楼宇","address":""},{"poiid":"B2094655D26DAAFB409F","title":"虹临花园","lon":"121.49","lat":"31.263592","category":"47","category_name":"住宅区","address":"四平路283号"},{"poiid":"B2094757D069A3FB459D","title":"一品干锅蛙","lon":"121.48837","lat":"31.26689","category":"71","category_name":"四川菜","address":"虹口区欧阳路196号法兰桥创意园1号楼2楼(近四达路)"},{"poiid":"B2094757D16CA3FB4692","title":"930私房菜(欧阳路店)","lon":"121.489328103","lat":"31.2680273722","category":"76","category_name":"上海菜","address":"虹口区欧阳路196号1号楼3楼(近四达路)"},{"poiid":"B2094757D06FA3FB419C","title":"玛格萝妮比萨屋(物华店)","lon":"121.49097189","lat":"31.26244171","category":"94","category_name":"西餐厅","address":"上海虹口区四平路188号(近物华路)"},{"poiid":"B2094757D069A3FB4798","title":"四平路临平北路","lon":"121.4908431","lat":"31.264171","category":"260","category_name":"其他","address":"上海虹口区四平路临平北路"},{"poiid":"B209475CD769A7F94093","title":"王子公主奇遇记主题KTV","lon":"121.488833","lat":"31.261971","category":"170","category_name":"KTV","address":"上海市虹口区四平路257号1-3楼(近溧阳路)"},{"poiid":"B2094654DB6AAAF84898","title":"美林阁 四平路店 MeiLinGe","lon":"121.489139054","lat":"31.262070793","category":"76","category_name":"上海菜","address":"虹口区四平路257号虹口世纪酒店1-2楼(近溧阳路)"},{"poiid":"B2094751D56CABF8409A","title":"上海大饭堂(四平路店)","lon":"121.49058","lat":"31.26357","category":"76","category_name":"上海菜","address":"虹口区四平路216号新能源大厦内(近临平北路)"},{"poiid":"B2094757D06FABFD459D","title":"荣欣大厦","lon":"121.490138","lat":"31.26684","category":"252","category_name":"楼宇机构","address":"上海市四川北路1851号"},{"poiid":"B2094757D16EA1F4449B","title":"法兰桥创意园区","lon":"121.488876103","lat":"31.2667803462","category":"119","category_name":"商场","address":"上海虹口区欧阳路196号"},{"poiid":"B2094655D26DA4FB449A","title":"溧阳华府","lon":"121.48854","lat":"31.26298","category":"47","category_name":"住宅区","address":"上海市虹口区宝安路1号"},{"poiid":"B2094757D06FA5FF4893","title":"溧园咖啡","lon":"121.487339","lat":"31.262971","category":"260","category_name":"其他","address":"虹口区溧阳路1208弄5号老洋房花园内(四川北路四平路间)"},{"poiid":"B2094655D26FA6FB4098","title":"上海虹口世纪大酒店(东门)","lon":"121.4895","lat":"31.26183","category":"214","category_name":"四星级宾馆","address":"上海市虹口区溧阳路1111号（近四平路）"},{"poiid":"B2094654DB6BA3F84993","title":"致真酒家 虹口店 Sincere Restaurant","lon":"121.490685054","lat":"31.263551793","category":"76","category_name":"上海菜","address":"虹口区四平路208号(近物华路)"},{"poiid":"B2094757D069A2F84693","title":"巴黎贝甜(欧阳店)","lon":"121.48845857","lat":"31.266445989","category":"67","category_name":"甜品店","address":"虹口区欧阳路198号(近吉祥路)"},{"poiid":"B2094655D26AAAFD4492","title":"上海莫泰168连锁酒店四平路店","lon":"121.49122","lat":"31.26606","category":"250","category_name":"公园户外","address":"上海市虹口区四平路333号（近四达路）"},{"poiid":"B2094757D06FABF9409F","title":"虹口区青少年活动中心","lon":"121.48973131","lat":"31.265364815","category":"260","category_name":"其他","address":"虹口区欧阳路67号(近四平路)"},{"poiid":"B2094757D16DA5FE419A","title":"四平路","lon":"121.4897721","lat":"31.261685239","category":"500","category_name":"未知分类","address":"上海四平路"},{"poiid":"B2094757D06BAAF4409F","title":"巨麦KTV","lon":"121.4916901","lat":"31.264270293","category":"170","category_name":"KTV","address":"虹口区物华路300号(近四平路)"},{"poiid":"B2094757D069A7FF4293","title":"一兆韦德(溧阳华府店)","lon":"121.490071","lat":"31.26333","category":"500","category_name":"未知分类","address":"虹口区宝安支路46号(近溧阳路)"},{"poiid":"B2094757D16EA2FF469B","title":"8号线曲阳路站","lon":"121.489662103","lat":"31.264428297","category":"500","category_name":"未知分类","address":"上海曲阳路大连路"},{"poiid":"B2094757D169A5FF439E","title":"知茵坊","lon":"121.4891937","lat":"31.266933649","category":"76","category_name":"上海菜","address":"虹口区欧阳路196弄22-23号"},{"poiid":"B2094654D56DABF5469E","title":"盛泰国际大厦","lon":"121.49125","lat":"31.26289","category":"46","category_name":"楼宇","address":"上海市虹口区四平路200号"},{"poiid":"B2094757D66CABFC479D","title":"浦东国际机场T2停车场","lon":"121.489784103","lat":"31.2642642936","category":"21","category_name":"飞机场","address":"上海浦东"},{"poiid":"B2094655D269AAF4409F","title":"锦江之星海伦路店","lon":"121.49014","lat":"31.26358","category":"247","category_name":"餐饮美食","address":"虹口区四平路285号(近物华路)"},{"poiid":"B2094654D56CA0F44299","title":"美玫美发","lon":"121.48892","lat":"31.26576","category":"148","category_name":"美容美发店","address":"欧阳路88"},{"poiid":"B2094757D06AA0FF479C","title":"85度C(欧阳店)","lon":"121.489107","lat":"31.2660613","category":"112","category_name":"糕饼店","address":"虹口区欧阳路196号1号楼1楼4-20室(近吉祥路)"},{"poiid":"B2094654D56CA0F4419E","title":"新文苑","lon":"121.48899","lat":"31.265003","category":"47","category_name":"住宅区","address":"上海市虹口区欧阳路18号(近四平路)"},{"poiid":"B2094757D66AA5FD4793","title":"次郎日式快餐 四平店","lon":"121.49134445846","lat":"31.265653123995","category":"68","category_name":"快餐厅","address":"虹口区四平路170号(近溧阳路)"},{"poiid":"B2094655D269AAF4429D","title":"如家快捷酒店欧阳路店","lon":"121.48817","lat":"31.26579","category":"247","category_name":"餐饮美食","address":"上海市虹口区吉祥路69号(近欧阳路)"},{"poiid":"B2094655D26DA5FB469E","title":"好德便利No.261","lon":"121.48945","lat":"31.26476","category":"117","category_name":"便民商店/便利店","address":"欧阳路12"},{"poiid":"B2094757D068A6FF4392","title":"锦鑫桌球俱乐部","lon":"121.49018","lat":"31.26254","category":"171","category_name":"台球厅","address":"虹口区四平路277号2楼(近物华路)"},{"poiid":"B2094751DB65A2FF469A","title":"真蕊手工面食","lon":"121.48867","lat":"31.26452","category":"68","category_name":"快餐厅","address":"虹口区宝安支路20号"},{"poiid":"B2094757D468A4F8449A","title":"海尚香","lon":"121.488248","lat":"31.267171","category":"76","category_name":"上海菜","address":"虹口区欧阳路196号法兰桥创意园(近四平路)"},{"poiid":"B2094757D06AAAF54798","title":"欧洲花园","lon":"121.492105","lat":"31.26443","category":"47","category_name":"住宅区","address":"上海临平北路89弄"},{"poiid":"B2094654D56CA0F4489F","title":"吉祥苑","lon":"121.48873","lat":"31.265705","category":"47","category_name":"住宅区","address":"上海市虹口区欧阳路90号(吉祥路口"},{"poiid":"B2094757D06FA6F84899","title":"四平路临平北路公交车站","lon":"121.49063873","lat":"31.264434814","category":"38","category_name":"公交车站","address":"上海四平路311号"},{"poiid":"B2094757D06BA2F44292","title":"家纺大厦","lon":"121.490373703","lat":"31.2634898774","category":"46","category_name":"楼宇","address":"上海虹口区四平路210号"},{"poiid":"B2094654D56CA0F4429A","title":"佐登妮丝美容生活馆四平店","lon":"121.48908","lat":"31.26547","category":"148","category_name":"美容美发店","address":"欧阳路76"},{"poiid":"B2094654D56DAAFC409E","title":"轻工国际大厦","lon":"121.49073","lat":"31.26304","category":"46","category_name":"楼宇","address":"昌平区回龙观镇国际信息产业基地高新二街"},{"poiid":"B2094757D06AAAFB4198","title":"精武大厦","lon":"121.49","lat":"31.2634","category":"252","category_name":"楼宇机构","address":"卫清西路139_149号等"},{"poiid":"B2094654D56CA0F4419D","title":"上海虹口区志汇鸿食品店","lon":"121.48911","lat":"31.26543","category":"117","category_name":"便民商店/便利店","address":""},{"poiid":"B2094654D56DAAFC4298","title":"虹诚大厦","lon":"121.49148","lat":"31.263783","category":"47","category_name":"住宅区","address":"上海虹诚大厦位于虹口临平北路88号"},{"poiid":"B2094757D069A0F4429B","title":"新能源大厦〔四平路临平北路〕","lon":"121.4907","lat":"31.263794","category":"500","category_name":"未知分类","address":"上海四平路216"},{"poiid":"B2094654D56CA0F4429E","title":"华氏大药房欧阳路药房","lon":"121.48889","lat":"31.26581","category":"162","category_name":"医院","address":"欧阳路90"},{"poiid":"B2094654D56CA0F4489C","title":"可颂坊 四平路店 Croissants de France","lon":"121.491196054","lat":"31.265359793","category":"67","category_name":"甜品店","address":"四平路311号近欧阳路"},{"poiid":"B2094654D56CA7FC4792","title":"恒盛里(东门)","lon":"121.48775","lat":"31.26475","category":"47","category_name":"住宅区","address":"宝安路160弄1-59号"},{"poiid":"B2094655D26CA1FA409F","title":"虹临嘉园","lon":"121.48936","lat":"31.263929","category":"47","category_name":"住宅区","address":"上海市虹口区四平路283号"},{"poiid":"B2094655D269AAF4469B","title":"姬莲娜","lon":"121.49047","lat":"31.26478","category":"247","category_name":"餐饮美食","address":"虹口区四平路311号恒城花苑甲座405(近临平路)"},{"poiid":"B2094655D26DA6FA469E","title":"新能源大厦","lon":"121.49106","lat":"31.26382","category":"46","category_name":"楼宇","address":""},{"poiid":"B2094655D26DAAFB409F","title":"虹临花园","lon":"121.49","lat":"31.263592","category":"47","category_name":"住宅区","address":"四平路283号"},{"poiid":"B2094757D069A3FB459D","title":"一品干锅蛙","lon":"121.48837","lat":"31.26689","category":"71","category_name":"四川菜","address":"虹口区欧阳路196号法兰桥创意园1号楼2楼(近四达路)"}]