[{"poiid":"B2094757D068A0FF4392","title":"洛克公园","lon":"121.42853895","lat":"31.2575828228","category":"196","category_name":"公园","address":"上海市普陀区华池路"},{"poiid":"B2094757D06BA1F4409E","title":"地铁七号线镇坪路站","lon":"121.42894045","lat":"31.252435924","category":"36","category_name":"地铁站","address":"上海市轨道交通七号线镇坪路站"},{"poiid":"B2094757D06FA7FC4093","title":"四如春食府","lon":"121.42770262","lat":"31.252188997","category":"68","category_name":"快餐厅","address":"普陀区石泉路72号(近镇坪路)"},{"poiid":"B2094654D465A1FE4192","title":"忘不了烧烤","lon":"121.42914","lat":"31.2564","category":"68","category_name":"快餐厅","address":"普陀区华池路42号(近光新路)"},{"poiid":"B2094757D16DAAFF499F","title":"洛克篮球公园","lon":"121.42898395","lat":"31.256074794","category":"196","category_name":"公园","address":"上海市普陀区华池路58号"},{"poiid":"B2094757D16CABF8429F","title":"老郎面馆","lon":"121.42794795","lat":"31.2515217071","category":"68","category_name":"快餐厅","address":"普陀区石泉路98号(镇坪路口)"},{"poiid":"B2094757D56CA0FD419F","title":"麦当劳 光新路店 McDonald's","lon":"121.43300037162","lat":"31.249799643716","category":"247","category_name":"餐饮美食","address":"光新路117号近内环高架桥"},{"poiid":"B2094757D06AA5F8489E","title":"蔡先生苏州汤包馆","lon":"121.42738425","lat":"31.2544841637","category":"68","category_name":"快餐厅","address":"普陀区华池路174号(近旬阳路)"},{"poiid":"B2094757D069A3FE459F","title":"北海中学(管弄路分校)","lon":"121.42628","lat":"31.25782","category":"55","category_name":"中学","address":"普陀区管弄路51号(近华池路)"},{"poiid":"B2094757D068ABFF489A","title":"岳阳飘湘楼 镇坪店","lon":"121.42779252056","lat":"31.251348612392","category":"77","category_name":"湖南菜","address":"普陀区镇坪路9号2楼(石泉路口)"},{"poiid":"B2094655D36DA7FF4193","title":"镇坪路石泉路","lon":"121.42837","lat":"31.25068","category":"38","category_name":"公交车站","address":""},{"poiid":"B2094757D06FAAF54299","title":"肯德基 KFC (管弄店)","lon":"121.424475","lat":"31.254758","category":"68","category_name":"快餐厅","address":"普陀区管弄路290号(近华池路)"},{"poiid":"B2094757D068ABFF439B","title":"振鼎鸡 华池路店","lon":"121.425563054","lat":"31.254958793","category":"68","category_name":"快餐厅","address":"普陀区华池路160号(近管弄路)"},{"poiid":"B2094757D66FA2FB449A","title":"光新乐购","lon":"121.42667495","lat":"31.2529767349","category":"500","category_name":"未知分类","address":"上海中山北路光新路"},{"poiid":"B2094654D465A1FF4298","title":"管弄三街坊","lon":"121.42304","lat":"31.254726","category":"47","category_name":"住宅区","address":"管弄路311弄"},{"poiid":"B2094655D26EA5FE439B","title":"豫香斋羊肉馆","lon":"121.42701","lat":"31.2535","category":"86","category_name":"火锅店","address":"普陀区宁强路76号(近旬阳路)"},{"poiid":"B2094757D16CAAFD4699","title":"重庆谢记麻辣烫","lon":"121.42696","lat":"31.25574","category":"68","category_name":"快餐厅","address":"普陀区华池路128号(近汉阴路)"},{"poiid":"B2094757D06BA0F5449F","title":"上海大饭堂","lon":"121.42591195","lat":"31.2532347398","category":"247","category_name":"餐饮美食","address":"上海宜川路310号2楼"},{"poiid":"B2094654D56AAAFE4098","title":"宁泉新苑","lon":"121.423867","lat":"31.253388","category":"47","category_name":"住宅区","address":"上海市普陀区石泉路450弄"},{"poiid":"B2094655D26AA2FA4392","title":"阿婆烧烤摊","lon":"121.43008","lat":"31.25279","category":"68","category_name":"快餐厅","address":"普陀区石泉路(近光新路)"},{"poiid":"B2094655D26DA5F4419C","title":"华池路铁路新村","lon":"121.42633","lat":"31.25391","category":"47","category_name":"住宅区","address":"宁强路100弄8-12号"},{"poiid":"B2094757D069A4FD4593","title":"阿郎龙虾(华池路店)","lon":"121.43001","lat":"31.25613","category":"68","category_name":"快餐厅","address":"普陀区华池路18号(近光新路)"},{"poiid":"B2094757D465A4FE449B","title":"无锡小笼馆","lon":"121.42531","lat":"31.25479","category":"68","category_name":"快餐厅","address":"普陀区华池路138号沪鸣家常菜旁(近汉阴路)"},{"poiid":"B2094757D065A6FB419C","title":"铁路新村","lon":"121.42544679","lat":"31.253632477","category":"252","category_name":"楼宇机构","address":"上海普陀区华池路铁路新村"},{"poiid":"B2094654D465A1FE4998","title":"管弄一、二街坊","lon":"121.42562","lat":"31.25607","category":"47","category_name":"住宅区","address":"管弄路226弄1-3"},{"poiid":"B2094654D465A1FD449E","title":"上海市民办华光高级中学","lon":"121.42575","lat":"31.25434","category":"55","category_name":"中学","address":"上海市枫桥路６９号"},{"poiid":"B2094751D364AAF5489B","title":"新九龙塘","lon":"121.426361","lat":"31.255737","category":"247","category_name":"餐饮美食","address":"铜川路920号"},{"poiid":"B2094654D464A0FE419C","title":"信仪新村","lon":"121.429","lat":"31.2551","category":"47","category_name":"住宅区","address":"上海石泉路227弄"},{"poiid":"B2094654DB6AA3FB439A","title":"凯司令西点房 华池路店","lon":"121.428487054","lat":"31.256206793","category":"67","category_name":"甜品店","address":"普陀区华池路112号(近石泉路)"},{"poiid":"B2094757D068A3FD409C","title":"金汇商业广场(普陀店)","lon":"121.428622","lat":"31.256581","category":"119","category_name":"商场","address":"上海普陀区华池路58弄新体育广场"},{"poiid":"B2094751D56BA4F94493","title":"火锅传奇","lon":"121.424801","lat":"31.254289","category":"247","category_name":"餐饮美食","address":"镇坪路"},{"poiid":"B2094757D16EAAF8439B","title":"华池路重庆麻辣汤","lon":"121.42493","lat":"31.25425","category":"68","category_name":"快餐厅","address":"普陀区华池路农工商对面(旬阳路口)"},{"poiid":"B2094655D26DA5FB489C","title":"沪鸣家常菜河海鲜","lon":"121.42675","lat":"31.25576","category":"71","category_name":"四川菜","address":"普陀区华池路146号(近管弄路)"},{"poiid":"B2094655D26DA4FB499B","title":"华池路铁路新村(南门)","lon":"121.42665","lat":"31.25329","category":"47","category_name":"住宅区","address":"宁强路100弄8-12号"},{"poiid":"B2094654D465A1FD459C","title":"川味麻辣烫华池店","lon":"121.42588","lat":"31.25497","category":"68","category_name":"快餐厅","address":"普陀区华池路187号(近农工商)"},{"poiid":"B2094654D465A2FB499F","title":"曹杨工业公司创业新天地嘉琛园区","lon":"121.42763","lat":"31.25349","category":"45","category_name":"产业园区","address":"宁强路25号4层"},{"poiid":"B2094654D465A2F44898","title":"克莉丝汀 石泉路店","lon":"121.42912","lat":"31.25256","category":"112","category_name":"糕饼店","address":"普陀区石泉路60号(近旬阳路)"},{"poiid":"B2094757D16BA0F9449D","title":"宁波奉化溪口文昌阁","lon":"121.42648795","lat":"31.254525764","category":"500","category_name":"未知分类","address":"宁波奉化溪口文昌阁"},{"poiid":"B2094654DB65A7F94498","title":"百味林 管弄路店 Buy Well","lon":"121.423578054","lat":"31.253903793","category":"68","category_name":"快餐厅","address":"普陀区管弄路280号农工商内(近华池路)"},{"poiid":"B209475CD465ABFE4299","title":"上海欢乐谷","lon":"121.427185","lat":"31.255416","category":"500","category_name":"未知分类","address":"上海市 松江区林湖路888号"},{"poiid":"B2094654DB65A2FE4893","title":"上海宜川购物","lon":"121.42821","lat":"31.25406","category":"119","category_name":"商场","address":""},{"poiid":"B2094654D465A2FB489E","title":"良友(宁强路)","lon":"121.42813","lat":"31.25402","category":"117","category_name":"便民商店/便利店","address":""},{"poiid":"B2094757D568A7F4469E","title":"旬阳新村","lon":"121.42411","lat":"31.253138","category":"47","category_name":"住宅区","address":"旬阳新村457-464号"},{"poiid":"B2094757D66DA7FA4093","title":"浙江杭州雷锋塔","lon":"121.42586695","lat":"31.2537261492","category":"250","category_name":"公园户外","address":"浙江杭州净寺"},{"poiid":"B2094655D26FA7F5469E","title":"石泉一村","lon":"121.42794","lat":"31.25229","category":"47","category_name":"住宅区","address":"上海石泉一村"},{"poiid":"B2094757D16DA5FF429F","title":"The Palms of Boracay","lon":"121.426685278","lat":"31.2532113372","category":"500","category_name":"未知分类","address":"菲律宾 长滩岛"},{"poiid":"B2094757D064A5FE4199","title":"胖子烧烤","lon":"121.425612","lat":"31.254815","category":"247","category_name":"餐饮美食","address":"上海普陀区华池路"},{"poiid":"B2094655D36CA7FD429E","title":"华池路洵阳路","lon":"121.42687","lat":"31.2557","category":"38","category_name":"公交车站","address":""},{"poiid":"B2094654D465A1FE4399","title":"香汇狂剪二分店","lon":"121.4266","lat":"31.25571","category":"148","category_name":"美容美发店","address":"普陀区华池路148号(近岚皋路)"},{"poiid":"B2094751D56BA4FF4493","title":"818广场","lon":"121.425285","lat":"31.255156","category":"247","category_name":"餐饮美食","address":"南京西路"},{"poiid":"B2094757D068A0FF4392","title":"洛克公园","lon":"121.42853895","lat":"31.2575828228","category":"196","category_name":"公园","address":"上海市普陀区华池路"},{"poiid":"B2094757D06BA1F4409E","title":"地铁七号线镇坪路站","lon":"121.42894045","lat":"31.252435924","category":"36","category_name":"地铁站","address":"上海市轨道交通七号线镇坪路站"},{"poiid":"B2094757D06FA7FC4093","title":"四如春食府","lon":"121.42770262","lat":"31.252188997","category":"68","category_name":"快餐厅","address":"普陀区石泉路72号(近镇坪路)"},{"poiid":"B2094654D465A1FE4192","title":"忘不了烧烤","lon":"121.42914","lat":"31.2564","category":"68","category_name":"快餐厅","address":"普陀区华池路42号(近光新路)"},{"poiid":"B2094757D16DAAFF499F","title":"洛克篮球公园","lon":"121.42898395","lat":"31.256074794","category":"196","category_name":"公园","address":"上海市普陀区华池路58号"},{"poiid":"B2094757D16CABF8429F","title":"老郎面馆","lon":"121.42794795","lat":"31.2515217071","category":"68","category_name":"快餐厅","address":"普陀区石泉路98号(镇坪路口)"},{"poiid":"B2094757D56CA0FD419F","title":"麦当劳 光新路店 McDonald's","lon":"121.43300037162","lat":"31.249799643716","category":"247","category_name":"餐饮美食","address":"光新路117号近内环高架桥"},{"poiid":"B2094757D06AA5F8489E","title":"蔡先生苏州汤包馆","lon":"121.42738425","lat":"31.2544841637","category":"68","category_name":"快餐厅","address":"普陀区华池路174号(近旬阳路)"},{"poiid":"B2094757D069A3FE459F","title":"北海中学(管弄路分校)","lon":"121.42628","lat":"31.25782","category":"55","category_name":"中学","address":"普陀区管弄路51号(近华池路)"},{"poiid":"B2094757D068ABFF489A","title":"岳阳飘湘楼 镇坪店","lon":"121.42779252056","lat":"31.251348612392","category":"77","category_name":"湖南菜","address":"普陀区镇坪路9号2楼(石泉路口)"},{"poiid":"B2094655D36DA7FF4193","title":"镇坪路石泉路","lon":"121.42837","lat":"31.25068","category":"38","category_name":"公交车站","address":""},{"poiid":"B2094757D06FAAF54299","title":"肯德基 KFC (管弄店)","lon":"121.424475","lat":"31.254758","category":"68","category_name":"快餐厅","address":"普陀区管弄路290号(近华池路)"},{"poiid":"B2094757D068ABFF439B","title":"振鼎鸡 华池路店","lon":"121.425563054","lat":"31.254958793","category":"68","category_name":"快餐厅","address":"普陀区华池路160号(近管弄路)"},{"poiid":"B2094757D66FA2FB449A","title":"光新乐购","lon":"121.42667495","lat":"31.2529767349","category":"500","category_name":"未知分类","address":"上海中山北路光新路"},{"poiid":"B2094654D465A1FF4298","title":"管弄三街坊","lon":"121.42304","lat":"31.254726","category":"47","category_name":"住宅区","address":"管弄路311弄"},{"poiid":"B2094655D26EA5FE439B","title":"豫香斋羊肉馆","lon":"121.42701","lat":"31.2535","category":"86","category_name":"火锅店","address":"普陀区宁强路76号(近旬阳路)"},{"poiid":"B2094757D16CAAFD4699","title":"重庆谢记麻辣烫","lon":"121.42696","lat":"31.25574","category":"68","category_name":"快餐厅","address":"普陀区华池路128号(近汉阴路)"},{"poiid":"B2094757D06BA0F5449F","title":"上海大饭堂","lon":"121.42591195","lat":"31.2532347398","category":"247","category_name":"餐饮美食","address":"上海宜川路310号2楼"},{"poiid":"B2094654D56AAAFE4098","title":"宁泉新苑","lon":"121.423867","lat":"31.253388","category":"47","category_name":"住宅区","address":"上海市普陀区石泉路450弄"},{"poiid":"B2094655D26AA2FA4392","title":"阿婆烧烤摊","lon":"121.43008","lat":"31.25279","category":"68","category_name":"快餐厅","address":"普陀区石泉路(近光新路)"},{"poiid":"B2094655D26DA5F4419C","title":"华池路铁路新村","lon":"121.42633","lat":"31.25391","category":"47","category_name":"住宅区","address":"宁强路100弄8-12号"},{"poiid":"B2094757D069A4FD4593","title":"阿郎龙虾(华池路店)","lon":"121.43001","lat":"31.25613","category":"68","category_name":"快餐厅","address":"普陀区华池路18号(近光新路)"},{"poiid":"B2094757D465A4FE449B","title":"无锡小笼馆","lon":"121.42531","lat":"31.25479","category":"68","category_name":"快餐厅","address":"普陀区华池路138号沪鸣家常菜旁(近汉阴路)"},{"poiid":"B2094757D065A6FB419C","title":"铁路新村","lon":"121.42544679","lat":"31.253632477","category":"252","category_name":"楼宇机构","address":"上海普陀区华池路铁路新村"},{"poiid":"B2094654D465A1FE4998","title":"管弄一、二街坊","lon":"121.42562","lat":"31.25607","category":"47","category_name":"住宅区","address":"管弄路226弄1-3"},{"poiid":"B2094654D465A1FD449E","title":"上海市民办华光高级中学","lon":"121.42575","lat":"31.25434","category":"55","category_name":"中学","address":"上海市枫桥路６９号"},{"poiid":"B2094751D364AAF5489B","title":"新九龙塘","lon":"121.426361","lat":"31.255737","category":"247","category_name":"餐饮美食","address":"铜川路920号"},{"poiid":"B2094654D464A0FE419C","title":"信仪新村","lon":"121.429","lat":"31.2551","category":"47","category_name":"住宅区","address":"上海石泉路227弄"},{"poiid":"B2094654DB6AA3FB439A","title":"凯司令西点房 华池路店","lon":"121.428487054","lat":"31.256206793","category":"67","category_name":"甜品店","address":"普陀区华池路112号(近石泉路)"},{"poiid":"B2094757D068A3FD409C","title":"金汇商业广场(普陀店)","lon":"121.428622","lat":"31.256581","category":"119","category_name":"商场","address":"上海普陀区华池路58弄新体育广场"},{"poiid":"B2094751D56BA4F94493","title":"火锅传奇","lon":"121.424801","lat":"31.254289","category":"247","category_name":"餐饮美食","address":"镇坪路"},{"poiid":"B2094757D16EAAF8439B","title":"华池路重庆麻辣汤","lon":"121.42493","lat":"31.25425","category":"68","category_name":"快餐厅","address":"普陀区华池路农工商对面(旬阳路口)"},{"poiid":"B2094655D26DA5FB489C","title":"沪鸣家常菜河海鲜","lon":"121.42675","lat":"31.25576","category":"71","category_name":"四川菜","address":"普陀区华池路146号(近管弄路)"},{"poiid":"B2094655D26DA4FB499B","title":"华池路铁路新村(南门)","lon":"121.42665","lat":"31.25329","category":"47","category_name":"住宅区","address":"宁强路100弄8-12号"},{"poiid":"B2094654D465A1FD459C","title":"川味麻辣烫华池店","lon":"121.42588","lat":"31.25497","category":"68","category_name":"快餐厅","address":"普陀区华池路187号(近农工商)"},{"poiid":"B2094654D465A2FB499F","title":"曹杨工业公司创业新天地嘉琛园区","lon":"121.42763","lat":"31.25349","category":"45","category_name":"产业园区","address":"宁强路25号4层"},{"poiid":"B2094654D465A2F44898","title":"克莉丝汀 石泉路店","lon":"121.42912","lat":"31.25256","category":"112","category_name":"糕饼店","address":"普陀区石泉路60号(近旬阳路)"},{"poiid":"B2094757D16BA0F9449D","title":"宁波奉化溪口文昌阁","lon":"121.42648795","lat":"31.254525764","category":"500","category_name":"未知分类","address":"宁波奉化溪口文昌阁"},{"poiid":"B2094654DB65A7F94498","title":"百味林 管弄路店 Buy Well","lon":"121.423578054","lat":"31.253903793","category":"68","category_name":"快餐厅","address":"普陀区管弄路280号农工商内(近华池路)"},{"poiid":"B209475CD465ABFE4299","title":"上海欢乐谷","lon":"121.427185","lat":"31.255416","category":"500","category_name":"未知分类","address":"上海市 松江区林湖路888号"},{"poiid":"B2094654DB65A2FE4893","title":"上海宜川购物","lon":"121.42821","lat":"31.25406","category":"119","category_name":"商场","address":""},{"poiid":"B2094654D465A2FB489E","title":"良友(宁强路)","lon":"121.42813","lat":"31.25402","category":"117","category_name":"便民商店/便利店","address":""},{"poiid":"B2094757D568A7F4469E","title":"旬阳新村","lon":"121.42411","lat":"31.253138","category":"47","category_name":"住宅区","address":"旬阳新村457-464号"},{"poiid":"B2094757D66DA7FA4093","title":"浙江杭州雷锋塔","lon":"121.42586695","lat":"31.2537261492","category":"250","category_name":"公园户外","address":"浙江杭州净寺"},{"poiid":"B2094655D26FA7F5469E","title":"石泉一村","lon":"121.42794","lat":"31.25229","category":"47","category_name":"住宅区","address":"上海石泉一村"},{"poiid":"B2094757D16DA5FF429F","title":"The Palms of Boracay","lon":"121.426685278","lat":"31.2532113372","category":"500","category_name":"未知分类","address":"菲律宾 长滩岛"},{"poiid":"B2094757D064A5FE4199","title":"胖子烧烤","lon":"121.425612","lat":"31.254815","category":"247","category_name":"餐饮美食","address":"上海普陀区华池路"},{"poiid":"B2094655D36CA7FD429E","title":"华池路洵阳路","lon":"121.42687","lat":"31.2557","category":"38","category_name":"公交车站","address":""},{"poiid":"B2094654D465A1FE4399","title":"香汇狂剪二分店","lon":"121.4266","lat":"31.25571","category":"148","category_name":"美容美发店","address":"普陀区华池路148号(近岚皋路)"},{"poiid":"B2094751D56BA4FF4493","title":"818广场","lon":"121.425285","lat":"31.255156","category":"247","category_name":"餐饮美食","address":"南京西路"},{"poiid":"B2094757D068A0FF4392","title":"洛克公园","lon":"121.42853895","lat":"31.2575828228","category":"196","category_name":"公园","address":"上海市普陀区华池路"},{"poiid":"B2094757D06BA1F4409E","title":"地铁七号线镇坪路站","lon":"121.42894045","lat":"31.252435924","category":"36","category_name":"地铁站","address":"上海市轨道交通七号线镇坪路站"},{"poiid":"B2094757D06FA7FC4093","title":"四如春食府","lon":"121.42770262","lat":"31.252188997","category":"68","category_name":"快餐厅","address":"普陀区石泉路72号(近镇坪路)"},{"poiid":"B2094654D465A1FE4192","title":"忘不了烧烤","lon":"121.42914","lat":"31.2564","category":"68","category_name":"快餐厅","address":"普陀区华池路42号(近光新路)"},{"poiid":"B2094757D16DAAFF499F","title":"洛克篮球公园","lon":"121.42898395","lat":"31.256074794","category":"196","category_name":"公园","address":"上海市普陀区华池路58号"},{"poiid":"B2094757D16CABF8429F","title":"老郎面馆","lon":"121.42794795","lat":"31.2515217071","category":"68","category_name":"快餐厅","address":"普陀区石泉路98号(镇坪路口)"},{"poiid":"B2094757D56CA0FD419F","title":"麦当劳 光新路店 McDonald's","lon":"121.43300037162","lat":"31.249799643716","category":"247","category_name":"餐饮美食","address":"光新路117号近内环高架桥"},{"poiid":"B2094757D06AA5F8489E","title":"蔡先生苏州汤包馆","lon":"121.42738425","lat":"31.2544841637","category":"68","category_name":"快餐厅","address":"普陀区华池路174号(近旬阳路)"},{"poiid":"B2094757D069A3FE459F","title":"北海中学(管弄路分校)","lon":"121.42628","lat":"31.25782","category":"55","category_name":"中学","address":"普陀区管弄路51号(近华池路)"},{"poiid":"B2094757D068ABFF489A","title":"岳阳飘湘楼 镇坪店","lon":"121.42779252056","lat":"31.251348612392","category":"77","category_name":"湖南菜","address":"普陀区镇坪路9号2楼(石泉路口)"},{"poiid":"B2094655D36DA7FF4193","title":"镇坪路石泉路","lon":"121.42837","lat":"31.25068","category":"38","category_name":"公交车站","address":""},{"poiid":"B2094757D06FAAF54299","title":"肯德基 KFC (管弄店)","lon":"121.424475","lat":"31.254758","category":"68","category_name":"快餐厅","address":"普陀区管弄路290号(近华池路)"},{"poiid":"B2094757D068ABFF439B","title":"振鼎鸡 华池路店","lon":"121.425563054","lat":"31.254958793","category":"68","category_name":"快餐厅","address":"普陀区华池路160号(近管弄路)"},{"poiid":"B2094757D66FA2FB449A","title":"光新乐购","lon":"121.42667495","lat":"31.2529767349","category":"500","category_name":"未知分类","address":"上海中山北路光新路"},{"poiid":"B2094654D465A1FF4298","title":"管弄三街坊","lon":"121.42304","lat":"31.254726","category":"47","category_name":"住宅区","address":"管弄路311弄"},{"poiid":"B2094655D26EA5FE439B","title":"豫香斋羊肉馆","lon":"121.42701","lat":"31.2535","category":"86","category_name":"火锅店","address":"普陀区宁强路76号(近旬阳路)"},{"poiid":"B2094757D16CAAFD4699","title":"重庆谢记麻辣烫","lon":"121.42696","lat":"31.25574","category":"68","category_name":"快餐厅","address":"普陀区华池路128号(近汉阴路)"},{"poiid":"B2094757D06BA0F5449F","title":"上海大饭堂","lon":"121.42591195","lat":"31.2532347398","category":"247","category_name":"餐饮美食","address":"上海宜川路310号2楼"},{"poiid":"B2094654D56AAAFE4098","title":"宁泉新苑","lon":"121.423867","lat":"31.253388","category":"47","category_name":"住宅区","address":"上海市普陀区石泉路450弄"},{"poiid":"B2094655D26AA2FA4392","title":"阿婆烧烤摊","lon":"121.43008","lat":"31.25279","category":"68","category_name":"快餐厅","address":"普陀区石泉路(近光新路)"},{"poiid":"B2094655D26DA5F4419C","title":"华池路铁路新村","lon":"121.42633","lat":"31.25391","category":"47","category_name":"住宅区","address":"宁强路100弄8-12号"},{"poiid":"B2094757D069A4FD4593","title":"阿郎龙虾(华池路店)","lon":"121.43001","lat":"31.25613","category":"68","category_name":"快餐厅","address":"普陀区华池路18号(近光新路)"},{"poiid":"B2094757D465A4FE449B","title":"无锡小笼馆","lon":"121.42531","lat":"31.25479","category":"68","category_name":"快餐厅","address":"普陀区华池路138号沪鸣家常菜旁(近汉阴路)"},{"poiid":"B2094757D065A6FB419C","title":"铁路新村","lon":"121.42544679","lat":"31.253632477","category":"252","category_name":"楼宇机构","address":"上海普陀区华池路铁路新村"},{"poiid":"B2094654D465A1FE4998","title":"管弄一、二街坊","lon":"121.42562","lat":"31.25607","category":"47","category_name":"住宅区","address":"管弄路226弄1-3"},{"poiid":"B2094654D465A1FD449E","title":"上海市民办华光高级中学","lon":"121.42575","lat":"31.25434","category":"55","category_name":"中学","address":"上海市枫桥路６９号"},{"poiid":"B2094751D364AAF5489B","title":"新九龙塘","lon":"121.426361","lat":"31.255737","category":"247","category_name":"餐饮美食","address":"铜川路920号"},{"poiid":"B2094654D464A0FE419C","title":"信仪新村","lon":"121.429","lat":"31.2551","category":"47","category_name":"住宅区","address":"上海石泉路227弄"},{"poiid":"B2094654DB6AA3FB439A","title":"凯司令西点房 华池路店","lon":"121.428487054","lat":"31.256206793","category":"67","category_name":"甜品店","address":"普陀区华池路112号(近石泉路)"},{"poiid":"B2094757D068A3FD409C","title":"金汇商业广场(普陀店)","lon":"121.428622","lat":"31.256581","category":"119","category_name":"商场","address":"上海普陀区华池路58弄新体育广场"},{"poiid":"B2094751D56BA4F94493","title":"火锅传奇","lon":"121.424801","lat":"31.254289","category":"247","category_name":"餐饮美食","address":"镇坪路"},{"poiid":"B2094757D16EAAF8439B","title":"华池路重庆麻辣汤","lon":"121.42493","lat":"31.25425","category":"68","category_name":"快餐厅","address":"普陀区华池路农工商对面(旬阳路口)"},{"poiid":"B2094655D26DA5FB489C","title":"沪鸣家常菜河海鲜","lon":"121.42675","lat":"31.25576","category":"71","category_name":"四川菜","address":"普陀区华池路146号(近管弄路)"},{"poiid":"B2094655D26DA4FB499B","title":"华池路铁路新村(南门)","lon":"121.42665","lat":"31.25329","category":"47","category_name":"住宅区","address":"宁强路100弄8-12号"},{"poiid":"B2094654D465A1FD459C","title":"川味麻辣烫华池店","lon":"121.42588","lat":"31.25497","category":"68","category_name":"快餐厅","address":"普陀区华池路187号(近农工商)"},{"poiid":"B2094654D465A2FB499F","title":"曹杨工业公司创业新天地嘉琛园区","lon":"121.42763","lat":"31.25349","category":"45","category_name":"产业园区","address":"宁强路25号4层"},{"poiid":"B2094654D465A2F44898","title":"克莉丝汀 石泉路店","lon":"121.42912","lat":"31.25256","category":"112","category_name":"糕饼店","address":"普陀区石泉路60号(近旬阳路)"},{"poiid":"B2094757D16BA0F9449D","title":"宁波奉化溪口文昌阁","lon":"121.42648795","lat":"31.254525764","category":"500","category_name":"未知分类","address":"宁波奉化溪口文昌阁"},{"poiid":"B2094654DB65A7F94498","title":"百味林 管弄路店 Buy Well","lon":"121.423578054","lat":"31.253903793","category":"68","category_name":"快餐厅","address":"普陀区管弄路280号农工商内(近华池路)"},{"poiid":"B209475CD465ABFE4299","title":"上海欢乐谷","lon":"121.427185","lat":"31.255416","category":"500","category_name":"未知分类","address":"上海市 松江区林湖路888号"},{"poiid":"B2094654DB65A2FE4893","title":"上海宜川购物","lon":"121.42821","lat":"31.25406","category":"119","category_name":"商场","address":""},{"poiid":"B2094654D465A2FB489E","title":"良友(宁强路)","lon":"121.42813","lat":"31.25402","category":"117","category_name":"便民商店/便利店","address":""},{"poiid":"B2094757D568A7F4469E","title":"旬阳新村","lon":"121.42411","lat":"31.253138","category":"47","category_name":"住宅区","address":"旬阳新村457-464号"},{"poiid":"B2094757D66DA7FA4093","title":"浙江杭州雷锋塔","lon":"121.42586695","lat":"31.2537261492","category":"250","category_name":"公园户外","address":"浙江杭州净寺"},{"poiid":"B2094655D26FA7F5469E","title":"石泉一村","lon":"121.42794","lat":"31.25229","category":"47","category_name":"住宅区","address":"上海石泉一村"},{"poiid":"B2094757D16DA5FF429F","title":"The Palms of Boracay","lon":"121.426685278","lat":"31.2532113372","category":"500","category_name":"未知分类","address":"菲律宾 长滩岛"},{"poiid":"B2094757D064A5FE4199","title":"胖子烧烤","lon":"121.425612","lat":"31.254815","category":"247","category_name":"餐饮美食","address":"上海普陀区华池路"},{"poiid":"B2094655D36CA7FD429E","title":"华池路洵阳路","lon":"121.42687","lat":"31.2557","category":"38","category_name":"公交车站","address":""},{"poiid":"B2094654D465A1FE4399","title":"香汇狂剪二分店","lon":"121.4266","lat":"31.25571","category":"148","category_name":"美容美发店","address":"普陀区华池路148号(近岚皋路)"},{"poiid":"B2094751D56BA4FF4493","title":"818广场","lon":"121.425285","lat":"31.255156","category":"247","category_name":"餐饮美食","address":"南京西路"},{"poiid":"B2094757D068A0FF4392","title":"洛克公园","lon":"121.42853895","lat":"31.2575828228","category":"196","category_name":"公园","address":"上海市普陀区华池路"},{"poiid":"B2094757D06BA1F4409E","title":"地铁七号线镇坪路站","lon":"121.42894045","lat":"31.252435924","category":"36","category_name":"地铁站","address":"上海市轨道交通七号线镇坪路站"},{"poiid":"B2094757D06FA7FC4093","title":"四如春食府","lon":"121.42770262","lat":"31.252188997","category":"68","category_name":"快餐厅","address":"普陀区石泉路72号(近镇坪路)"},{"poiid":"B2094654D465A1FE4192","title":"忘不了烧烤","lon":"121.42914","lat":"31.2564","category":"68","category_name":"快餐厅","address":"普陀区华池路42号(近光新路)"},{"poiid":"B2094757D16DAAFF499F","title":"洛克篮球公园","lon":"121.42898395","lat":"31.256074794","category":"196","category_name":"公园","address":"上海市普陀区华池路58号"},{"poiid":"B2094757D16CABF8429F","title":"老郎面馆","lon":"121.42794795","lat":"31.2515217071","category":"68","category_name":"快餐厅","address":"普陀区石泉路98号(镇坪路口)"},{"poiid":"B2094757D56CA0FD419F","title":"麦当劳 光新路店 McDonald's","lon":"121.43300037162","lat":"31.249799643716","category":"247","category_name":"餐饮美食","address":"光新路117号近内环高架桥"},{"poiid":"B2094757D06AA5F8489E","title":"蔡先生苏州汤包馆","lon":"121.42738425","lat":"31.2544841637","category":"68","category_name":"快餐厅","address":"普陀区华池路174号(近旬阳路)"},{"poiid":"B2094757D069A3FE459F","title":"北海中学(管弄路分校)","lon":"121.42628","lat":"31.25782","category":"55","category_name":"中学","address":"普陀区管弄路51号(近华池路)"},{"poiid":"B2094757D068ABFF489A","title":"岳阳飘湘楼 镇坪店","lon":"121.42779252056","lat":"31.251348612392","category":"77","category_name":"湖南菜","address":"普陀区镇坪路9号2楼(石泉路口)"},{"poiid":"B2094655D36DA7FF4193","title":"镇坪路石泉路","lon":"121.42837","lat":"31.25068","category":"38","category_name":"公交车站","address":""},{"poiid":"B2094757D06FAAF54299","title":"肯德基 KFC (管弄店)","lon":"121.424475","lat":"31.254758","category":"68","category_name":"快餐厅","address":"普陀区管弄路290号(近华池路)"},{"poiid":"B2094757D068ABFF439B","title":"振鼎鸡 华池路店","lon":"121.425563054","lat":"31.254958793","category":"68","category_name":"快餐厅","address":"普陀区华池路160号(近管弄路)"},{"poiid":"B2094757D66FA2FB449A","title":"光新乐购","lon":"121.42667495","lat":"31.2529767349","category":"500","category_name":"未知分类","address":"上海中山北路光新路"},{"poiid":"B2094654D465A1FF4298","title":"管弄三街坊","lon":"121.42304","lat":"31.254726","category":"47","category_name":"住宅区","address":"管弄路311弄"},{"poiid":"B2094655D26EA5FE439B","title":"豫香斋羊肉馆","lon":"121.42701","lat":"31.2535","category":"86","category_name":"火锅店","address":"普陀区宁强路76号(近旬阳路)"},{"poiid":"B2094757D16CAAFD4699","title":"重庆谢记麻辣烫","lon":"121.42696","lat":"31.25574","category":"68","category_name":"快餐厅","address":"普陀区华池路128号(近汉阴路)"},{"poiid":"B2094757D06BA0F5449F","title":"上海大饭堂","lon":"121.42591195","lat":"31.2532347398","category":"247","category_name":"餐饮美食","address":"上海宜川路310号2楼"},{"poiid":"B2094654D56AAAFE4098","title":"宁泉新苑","lon":"121.423867","lat":"31.253388","category":"47","category_name":"住宅区","address":"上海市普陀区石泉路450弄"},{"poiid":"B2094655D26AA2FA4392","title":"阿婆烧烤摊","lon":"121.43008","lat":"31.25279","category":"68","category_name":"快餐厅","address":"普陀区石泉路(近光新路)"},{"poiid":"B2094655D26DA5F4419C","title":"华池路铁路新村","lon":"121.42633","lat":"31.25391","category":"47","category_name":"住宅区","address":"宁强路100弄8-12号"},{"poiid":"B2094757D069A4FD4593","title":"阿郎龙虾(华池路店)","lon":"121.43001","lat":"31.25613","category":"68","category_name":"快餐厅","address":"普陀区华池路18号(近光新路)"},{"poiid":"B2094757D465A4FE449B","title":"无锡小笼馆","lon":"121.42531","lat":"31.25479","category":"68","category_name":"快餐厅","address":"普陀区华池路138号沪鸣家常菜旁(近汉阴路)"},{"poiid":"B2094757D065A6FB419C","title":"铁路新村","lon":"121.42544679","lat":"31.253632477","category":"252","category_name":"楼宇机构","address":"上海普陀区华池路铁路新村"},{"poiid":"B2094654D465A1FE4998","title":"管弄一、二街坊","lon":"121.42562","lat":"31.25607","category":"47","category_name":"住宅区","address":"管弄路226弄1-3"},{"poiid":"B2094654D465A1FD449E","title":"上海市民办华光高级中学","lon":"121.42575","lat":"31.25434","category":"55","category_name":"中学","address":"上海市枫桥路６９号"},{"poiid":"B2094751D364AAF5489B","title":"新九龙塘","lon":"121.426361","lat":"31.255737","category":"247","category_name":"餐饮美食","address":"铜川路920号"},{"poiid":"B2094654D464A0FE419C","title":"信仪新村","lon":"121.429","lat":"31.2551","category":"47","category_name":"住宅区","address":"上海石泉路227弄"},{"poiid":"B2094654DB6AA3FB439A","title":"凯司令西点房 华池路店","lon":"121.428487054","lat":"31.256206793","category":"67","category_name":"甜品店","address":"普陀区华池路112号(近石泉路)"},{"poiid":"B2094757D068A3FD409C","title":"金汇商业广场(普陀店)","lon":"121.428622","lat":"31.256581","category":"119","category_name":"商场","address":"上海普陀区华池路58弄新体育广场"},{"poiid":"B2094751D56BA4F94493","title":"火锅传奇","lon":"121.424801","lat":"31.254289","category":"247","category_name":"餐饮美食","address":"镇坪路"},{"poiid":"B2094757D16EAAF8439B","title":"华池路重庆麻辣汤","lon":"121.42493","lat":"31.25425","category":"68","category_name":"快餐厅","address":"普陀区华池路农工商对面(旬阳路口)"},{"poiid":"B2094655D26DA5FB489C","title":"沪鸣家常菜河海鲜","lon":"121.42675","lat":"31.25576","category":"71","category_name":"四川菜","address":"普陀区华池路146号(近管弄路)"},{"poiid":"B2094655D26DA4FB499B","title":"华池路铁路新村(南门)","lon":"121.42665","lat":"31.25329","category":"47","category_name":"住宅区","address":"宁强路100弄8-12号"},{"poiid":"B2094654D465A1FD459C","title":"川味麻辣烫华池店","lon":"121.42588","lat":"31.25497","category":"68","category_name":"快餐厅","address":"普陀区华池路187号(近农工商)"},{"poiid":"B2094654D465A2FB499F","title":"曹杨工业公司创业新天地嘉琛园区","lon":"121.42763","lat":"31.25349","category":"45","category_name":"产业园区","address":"宁强路25号4层"},{"poiid":"B2094654D465A2F44898","title":"克莉丝汀 石泉路店","lon":"121.42912","lat":"31.25256","category":"112","category_name":"糕饼店","address":"普陀区石泉路60号(近旬阳路)"},{"poiid":"B2094757D16BA0F9449D","title":"宁波奉化溪口文昌阁","lon":"121.42648795","lat":"31.254525764","category":"500","category_name":"未知分类","address":"宁波奉化溪口文昌阁"},{"poiid":"B2094654DB65A7F94498","title":"百味林 管弄路店 Buy Well","lon":"121.423578054","lat":"31.253903793","category":"68","category_name":"快餐厅","address":"普陀区管弄路280号农工商内(近华池路)"},{"poiid":"B209475CD465ABFE4299","title":"上海欢乐谷","lon":"121.427185","lat":"31.255416","category":"500","category_name":"未知分类","address":"上海市 松江区林湖路888号"},{"poiid":"B2094654DB65A2FE4893","title":"上海宜川购物","lon":"121.42821","lat":"31.25406","category":"119","category_name":"商场","address":""},{"poiid":"B2094654D465A2FB489E","title":"良友(宁强路)","lon":"121.42813","lat":"31.25402","category":"117","category_name":"便民商店/便利店","address":""},{"poiid":"B2094757D568A7F4469E","title":"旬阳新村","lon":"121.42411","lat":"31.253138","category":"47","category_name":"住宅区","address":"旬阳新村457-464号"},{"poiid":"B2094757D66DA7FA4093","title":"浙江杭州雷锋塔","lon":"121.42586695","lat":"31.2537261492","category":"250","category_name":"公园户外","address":"浙江杭州净寺"},{"poiid":"B2094655D26FA7F5469E","title":"石泉一村","lon":"121.42794","lat":"31.25229","category":"47","category_name":"住宅区","address":"上海石泉一村"},{"poiid":"B2094757D16DA5FF429F","title":"The Palms of Boracay","lon":"121.426685278","lat":"31.2532113372","category":"500","category_name":"未知分类","address":"菲律宾 长滩岛"},{"poiid":"B2094757D064A5FE4199","title":"胖子烧烤","lon":"121.425612","lat":"31.254815","category":"247","category_name":"餐饮美食","address":"上海普陀区华池路"},{"poiid":"B2094655D36CA7FD429E","title":"华池路洵阳路","lon":"121.42687","lat":"31.2557","category":"38","category_name":"公交车站","address":""},{"poiid":"B2094654D465A1FE4399","title":"香汇狂剪二分店","lon":"121.4266","lat":"31.25571","category":"148","category_name":"美容美发店","address":"普陀区华池路148号(近岚皋路)"},{"poiid":"B2094751D56BA4FF4493","title":"818广场","lon":"121.425285","lat":"31.255156","category":"247","category_name":"餐饮美食","address":"南京西路"}]