[{"poiid":"B2094654DB6DAAFE489B","title":"松江体育馆","lon":"121.23225","lat":"31.01583","category":"224","category_name":"综合体育馆","address":"松江区九峰路2号(九峰路乐都路)"},{"poiid":"B2094654DB64A0FD439D","title":"易初莲花购物中心","lon":"121.24114","lat":"31.01773","category":"118","category_name":"超级市场","address":"松江区松江荣乐中路8号"},{"poiid":"B2094757D06BA5FB4499","title":"小南国(松江店)","lon":"121.236183219","lat":"31.0092310628","category":"500","category_name":"未知分类","address":"上海市松江区松江长桥街平高"},{"poiid":"B2094757D068A7FD4099","title":"卜蜂莲花(松江岳阳店)","lon":"121.24351","lat":"31.01668","category":"118","category_name":"超级市场","address":"松江区荣乐中路8号"},{"poiid":"B2094655D268A5F94598","title":"乐都大厦","lon":"121.2334","lat":"31.01309","category":"46","category_name":"楼宇","address":"乐都路251号"},{"poiid":"B2094654DB6EA3F54292","title":"樟馨家园","lon":"121.23857","lat":"31.011311","category":"47","category_name":"住宅区","address":"上海市松江区松乐路88弄"},{"poiid":"B2094654DB6EA2FD459D","title":"通波小区(荣乐中路)","lon":"121.23902","lat":"31.01689","category":"47","category_name":"住宅区","address":"荣乐中路32弄"},{"poiid":"B2094757D06AA4FE469B","title":"肯德基 KFC (方舟店)","lon":"121.240858","lat":"31.017601","category":"500","category_name":"未知分类","address":"松江区荣乐中路8号"},{"poiid":"B2094757D165AAFF4693","title":"乐都路","lon":"121.23887486","lat":"31.013645639","category":"500","category_name":"未知分类","address":"上海乐都路"},{"poiid":"B2094655D26FABF5499F","title":"小忠羊肉庄","lon":"121.23796","lat":"31.01413","category":"86","category_name":"火锅店","address":"松江区乐都路102弄13号"},{"poiid":"B2094655D36CA1F84092","title":"龙潭苑","lon":"121.239","lat":"31.0157","category":"38","category_name":"公交车站","address":"中山二路182弄"},{"poiid":"B2094757D069A4FD4092","title":"凤凰小区","lon":"121.23508","lat":"31.012119","category":"47","category_name":"住宅区","address":"上海松江区谷阳北路"},{"poiid":"B2094654DB6EA2F4469B","title":"高乐小区","lon":"121.23349","lat":"31.018749","category":"47","category_name":"住宅区","address":"谷阳北路525弄"},{"poiid":"B2094655D26FA2FA449B","title":"如家快捷酒店","lon":"121.23883","lat":"31.01902","category":"216","category_name":"经济型连锁酒店","address":"松江区荣乐中路12弄方中广场282号(近沪松路)"},{"poiid":"B2094654DB6EA3F4439F","title":"阿平形象公社·松江店","lon":"121.23788","lat":"31.01391","category":"148","category_name":"美容美发店","address":""},{"poiid":"B2094750DA6EA2FC449F","title":"炫音KTV上海平高店","lon":"121.235061","lat":"31.008541","category":"500","category_name":"未知分类","address":"松江区中山中路71号平高世贸中心4楼A号座(近沃尔玛购物广场)"},{"poiid":"B2094655D26FAAFC4892","title":"通波小区(南门)","lon":"121.23829","lat":"31.01469","category":"47","category_name":"住宅区","address":""},{"poiid":"B2094654DB6EA1F8429A","title":"迪欧咖啡 松江店 DIO CAFE","lon":"121.24261775159","lat":"31.017687596121","category":"65","category_name":"咖啡厅","address":"松江区荣乐中路2弄110号(荣乐东路荣乐中路)"},{"poiid":"B2094757D16EA4F5479B","title":"呷哺呷哺(松江卜蜂莲花荣乐餐厅)","lon":"121.241108053","lat":"31.017171277","category":"86","category_name":"火锅店","address":"松江区荣乐中路8号卜蜂莲花2A-04室"},{"poiid":"B2094757D66DA7F44499","title":"新石器盘古烤肉","lon":"121.240959767","lat":"31.0177071289","category":"96","category_name":"韩国料理","address":"上海松江区荣乐中路"},{"poiid":"B2094751D56CA0FF4992","title":"竹筷子农家菜(乐都路店)","lon":"121.24085","lat":"31.01372","category":"87","category_name":"特色／地方风味餐厅","address":"松江区乐都路9弄(近袜子弄)"},{"poiid":"B2094655D26DA6FD4498","title":"花园浜小区","lon":"121.243","lat":"31.0153","category":"47","category_name":"住宅区","address":"仓汇路400弄"},{"poiid":"B2094654DB64A0FC4498","title":"好德","lon":"121.23767","lat":"31.0139","category":"117","category_name":"便民商店/便利店","address":"乐都路126"},{"poiid":"B2094757D66FA6FE439B","title":"DQ&lt;松江平高店&gt;","lon":"121.235201467","lat":"31.0084459256","category":"113","category_name":"冷饮店","address":"上海松江平高贸易中心"},{"poiid":"B2094654DB64A0FD439C","title":"方舟园三村","lon":"121.23726","lat":"31.018473","category":"47","category_name":"住宅区","address":"上海市松江区荣乐中路30弄"},{"poiid":"B2094654DB6EA3F54099","title":"谷北小区","lon":"121.23733","lat":"31.012812","category":"47","category_name":"住宅区","address":"谷阳北路98号"},{"poiid":"B2094654DB6EA3F4439E","title":"乐都路118弄小区","lon":"121.2378","lat":"31.0143","category":"47","category_name":"住宅区","address":"乐都路118弄"},{"poiid":"B2094654DB69A4FB429C","title":"重庆鸡公煲(方舟店)","lon":"121.24043","lat":"31.01787","category":"71","category_name":"四川菜","address":"松江区荣乐中路12弄29号(近卜蜂莲花)"},{"poiid":"B2094654DB6EA3F4499D","title":"张泽羊肉庄(乐都路)","lon":"121.23781","lat":"31.01353","category":"257","category_name":"中餐厅","address":"乐都路127号"},{"poiid":"B2094655D26FA3FF4693","title":"巴比馒头(乐都路店)","lon":"121.23781","lat":"31.01352","category":"87","category_name":"特色／地方风味餐厅","address":"松江区乐都路127号"},{"poiid":"B2094655D26FABF54999","title":"乐都路118弄小区(南门)","lon":"121.2378","lat":"31.01391","category":"47","category_name":"住宅区","address":"乐都路118弄"},{"poiid":"B2094655D264A2F54698","title":"月夏香樟林","lon":"121.23857","lat":"31.01131","category":"47","category_name":"住宅区","address":"上海市松江区松乐路88弄"},{"poiid":"B2094757D664A1F8489E","title":"七欣天迷宗蟹 松江店","lon":"121.243638054","lat":"31.013775793","category":"86","category_name":"火锅店","address":"松江区环城东路980号(近沪松路)"},{"poiid":"B2094655D26FAAFD409E","title":"快客(乐都路)","lon":"121.23764","lat":"31.01321","category":"117","category_name":"便民商店/便利店","address":"乐都路143弄9"},{"poiid":"B2094655D268A1FE479B","title":"馨与歆足浴乐都分部","lon":"121.23869","lat":"31.01396","category":"149","category_name":"洗浴推拿场所","address":""},{"poiid":"B2094655D36CA6FC409E","title":"谷阳北路","lon":"121.23672","lat":"31.01712","category":"38","category_name":"公交车站","address":""},{"poiid":"B2094757D16DA3FE4298","title":"盛南易初莲花松江店(岳阳店)","lon":"121.23796209","lat":"31.017222512","category":"118","category_name":"超级市场","address":"上海松江区荣乐中路28号"},{"poiid":"B2094757D465A6FB4193","title":"秦庄 荣乐中路店","lon":"121.239281054","lat":"31.017588793","category":"247","category_name":"餐饮美食","address":"松江区荣乐中路12弄方中广场37号(近沪松路)"},{"poiid":"B2094750D664A5FC4099","title":"张记烧烤","lon":"121.236","lat":"31.0173","category":"68","category_name":"快餐厅","address":"松江区谷阳北路188号(近中山二路)"},{"poiid":"B2094655D26FABFB479C","title":"快客No.5233","lon":"121.24032","lat":"31.01315","category":"117","category_name":"便民商店/便利店","address":""},{"poiid":"B2094654DB6EA2FE409F","title":"上海大江商厦","lon":"121.23656","lat":"31.01652","category":"46","category_name":"楼宇","address":"松江区谷阳北路166号7楼"},{"poiid":"B2094757D16DA6FA449F","title":"民生银行(松江支行)","lon":"121.235957","lat":"31.014068","category":"150","category_name":"银行","address":"上海市松江区谷阳北路277号"},{"poiid":"B2094655D26FABF5499A","title":"谷阳北路158弄小区","lon":"121.23725","lat":"31.01622","category":"47","category_name":"住宅区","address":"谷阳北路158弄"},{"poiid":"B2094654DB6EA1FF4993","title":"上岛咖啡方舟店","lon":"121.23876","lat":"31.01847","category":"65","category_name":"咖啡厅","address":"松江区荣乐中路30弄27-29号(近沪松路)"},{"poiid":"B2094757D66DA7F8449A","title":"來伊份(松江樂都路店)","lon":"121.238992467","lat":"31.0136191391","category":"500","category_name":"未知分类","address":"上海樂都路 谷陽路口"},{"poiid":"B2094654DB6EA2FE409E","title":"可的NO.722","lon":"121.23638","lat":"31.01609","category":"117","category_name":"便民商店/便利店","address":"谷阳北路156"},{"poiid":"B2094655D36CA2FA409C","title":"荣乐路谷阳北路","lon":"121.23713","lat":"31.01716","category":"38","category_name":"公交车站","address":""},{"poiid":"B2094655D36CA7F5499B","title":"谷阳路","lon":"121.23759","lat":"31.01704","category":"38","category_name":"公交车站","address":""},{"poiid":"B2094655D265A6F44298","title":"华亭大都会","lon":"121.23899","lat":"31.01712","category":"47","category_name":"住宅区","address":"华亭大都会位于松江荣乐中路18弄"},{"poiid":"B2094655D268A6F9489C","title":"北内路绿地","lon":"121.24162","lat":"31.01296","category":"196","category_name":"公园","address":""},{"poiid":"B2094654DB6DAAFE489B","title":"松江体育馆","lon":"121.23225","lat":"31.01583","category":"224","category_name":"综合体育馆","address":"松江区九峰路2号(九峰路乐都路)"},{"poiid":"B2094654DB64A0FD439D","title":"易初莲花购物中心","lon":"121.24114","lat":"31.01773","category":"118","category_name":"超级市场","address":"松江区松江荣乐中路8号"},{"poiid":"B2094757D06BA5FB4499","title":"小南国(松江店)","lon":"121.236183219","lat":"31.0092310628","category":"500","category_name":"未知分类","address":"上海市松江区松江长桥街平高"},{"poiid":"B2094757D068A7FD4099","title":"卜蜂莲花(松江岳阳店)","lon":"121.24351","lat":"31.01668","category":"118","category_name":"超级市场","address":"松江区荣乐中路8号"},{"poiid":"B2094655D268A5F94598","title":"乐都大厦","lon":"121.2334","lat":"31.01309","category":"46","category_name":"楼宇","address":"乐都路251号"},{"poiid":"B2094654DB6EA3F54292","title":"樟馨家园","lon":"121.23857","lat":"31.011311","category":"47","category_name":"住宅区","address":"上海市松江区松乐路88弄"},{"poiid":"B2094654DB6EA2FD459D","title":"通波小区(荣乐中路)","lon":"121.23902","lat":"31.01689","category":"47","category_name":"住宅区","address":"荣乐中路32弄"},{"poiid":"B2094757D06AA4FE469B","title":"肯德基 KFC (方舟店)","lon":"121.240858","lat":"31.017601","category":"500","category_name":"未知分类","address":"松江区荣乐中路8号"},{"poiid":"B2094757D165AAFF4693","title":"乐都路","lon":"121.23887486","lat":"31.013645639","category":"500","category_name":"未知分类","address":"上海乐都路"},{"poiid":"B2094655D26FABF5499F","title":"小忠羊肉庄","lon":"121.23796","lat":"31.01413","category":"86","category_name":"火锅店","address":"松江区乐都路102弄13号"},{"poiid":"B2094655D36CA1F84092","title":"龙潭苑","lon":"121.239","lat":"31.0157","category":"38","category_name":"公交车站","address":"中山二路182弄"},{"poiid":"B2094757D069A4FD4092","title":"凤凰小区","lon":"121.23508","lat":"31.012119","category":"47","category_name":"住宅区","address":"上海松江区谷阳北路"},{"poiid":"B2094654DB6EA2F4469B","title":"高乐小区","lon":"121.23349","lat":"31.018749","category":"47","category_name":"住宅区","address":"谷阳北路525弄"},{"poiid":"B2094655D26FA2FA449B","title":"如家快捷酒店","lon":"121.23883","lat":"31.01902","category":"216","category_name":"经济型连锁酒店","address":"松江区荣乐中路12弄方中广场282号(近沪松路)"},{"poiid":"B2094654DB6EA3F4439F","title":"阿平形象公社·松江店","lon":"121.23788","lat":"31.01391","category":"148","category_name":"美容美发店","address":""},{"poiid":"B2094750DA6EA2FC449F","title":"炫音KTV上海平高店","lon":"121.235061","lat":"31.008541","category":"500","category_name":"未知分类","address":"松江区中山中路71号平高世贸中心4楼A号座(近沃尔玛购物广场)"},{"poiid":"B2094655D26FAAFC4892","title":"通波小区(南门)","lon":"121.23829","lat":"31.01469","category":"47","category_name":"住宅区","address":""},{"poiid":"B2094654DB6EA1F8429A","title":"迪欧咖啡 松江店 DIO CAFE","lon":"121.24261775159","lat":"31.017687596121","category":"65","category_name":"咖啡厅","address":"松江区荣乐中路2弄110号(荣乐东路荣乐中路)"},{"poiid":"B2094757D16EA4F5479B","title":"呷哺呷哺(松江卜蜂莲花荣乐餐厅)","lon":"121.241108053","lat":"31.017171277","category":"86","category_name":"火锅店","address":"松江区荣乐中路8号卜蜂莲花2A-04室"},{"poiid":"B2094757D66DA7F44499","title":"新石器盘古烤肉","lon":"121.240959767","lat":"31.0177071289","category":"96","category_name":"韩国料理","address":"上海松江区荣乐中路"},{"poiid":"B2094751D56CA0FF4992","title":"竹筷子农家菜(乐都路店)","lon":"121.24085","lat":"31.01372","category":"87","category_name":"特色／地方风味餐厅","address":"松江区乐都路9弄(近袜子弄)"},{"poiid":"B2094655D26DA6FD4498","title":"花园浜小区","lon":"121.243","lat":"31.0153","category":"47","category_name":"住宅区","address":"仓汇路400弄"},{"poiid":"B2094654DB64A0FC4498","title":"好德","lon":"121.23767","lat":"31.0139","category":"117","category_name":"便民商店/便利店","address":"乐都路126"},{"poiid":"B2094757D66FA6FE439B","title":"DQ&lt;松江平高店&gt;","lon":"121.235201467","lat":"31.0084459256","category":"113","category_name":"冷饮店","address":"上海松江平高贸易中心"},{"poiid":"B2094654DB64A0FD439C","title":"方舟园三村","lon":"121.23726","lat":"31.018473","category":"47","category_name":"住宅区","address":"上海市松江区荣乐中路30弄"},{"poiid":"B2094654DB6EA3F54099","title":"谷北小区","lon":"121.23733","lat":"31.012812","category":"47","category_name":"住宅区","address":"谷阳北路98号"},{"poiid":"B2094654DB6EA3F4439E","title":"乐都路118弄小区","lon":"121.2378","lat":"31.0143","category":"47","category_name":"住宅区","address":"乐都路118弄"},{"poiid":"B2094654DB69A4FB429C","title":"重庆鸡公煲(方舟店)","lon":"121.24043","lat":"31.01787","category":"71","category_name":"四川菜","address":"松江区荣乐中路12弄29号(近卜蜂莲花)"},{"poiid":"B2094654DB6EA3F4499D","title":"张泽羊肉庄(乐都路)","lon":"121.23781","lat":"31.01353","category":"257","category_name":"中餐厅","address":"乐都路127号"},{"poiid":"B2094655D26FA3FF4693","title":"巴比馒头(乐都路店)","lon":"121.23781","lat":"31.01352","category":"87","category_name":"特色／地方风味餐厅","address":"松江区乐都路127号"},{"poiid":"B2094655D26FABF54999","title":"乐都路118弄小区(南门)","lon":"121.2378","lat":"31.01391","category":"47","category_name":"住宅区","address":"乐都路118弄"},{"poiid":"B2094655D264A2F54698","title":"月夏香樟林","lon":"121.23857","lat":"31.01131","category":"47","category_name":"住宅区","address":"上海市松江区松乐路88弄"},{"poiid":"B2094757D664A1F8489E","title":"七欣天迷宗蟹 松江店","lon":"121.243638054","lat":"31.013775793","category":"86","category_name":"火锅店","address":"松江区环城东路980号(近沪松路)"},{"poiid":"B2094655D26FAAFD409E","title":"快客(乐都路)","lon":"121.23764","lat":"31.01321","category":"117","category_name":"便民商店/便利店","address":"乐都路143弄9"},{"poiid":"B2094655D268A1FE479B","title":"馨与歆足浴乐都分部","lon":"121.23869","lat":"31.01396","category":"149","category_name":"洗浴推拿场所","address":""},{"poiid":"B2094655D36CA6FC409E","title":"谷阳北路","lon":"121.23672","lat":"31.01712","category":"38","category_name":"公交车站","address":""},{"poiid":"B2094757D16DA3FE4298","title":"盛南易初莲花松江店(岳阳店)","lon":"121.23796209","lat":"31.017222512","category":"118","category_name":"超级市场","address":"上海松江区荣乐中路28号"},{"poiid":"B2094757D465A6FB4193","title":"秦庄 荣乐中路店","lon":"121.239281054","lat":"31.017588793","category":"247","category_name":"餐饮美食","address":"松江区荣乐中路12弄方中广场37号(近沪松路)"},{"poiid":"B2094750D664A5FC4099","title":"张记烧烤","lon":"121.236","lat":"31.0173","category":"68","category_name":"快餐厅","address":"松江区谷阳北路188号(近中山二路)"},{"poiid":"B2094655D26FABFB479C","title":"快客No.5233","lon":"121.24032","lat":"31.01315","category":"117","category_name":"便民商店/便利店","address":""},{"poiid":"B2094654DB6EA2FE409F","title":"上海大江商厦","lon":"121.23656","lat":"31.01652","category":"46","category_name":"楼宇","address":"松江区谷阳北路166号7楼"},{"poiid":"B2094757D16DA6FA449F","title":"民生银行(松江支行)","lon":"121.235957","lat":"31.014068","category":"150","category_name":"银行","address":"上海市松江区谷阳北路277号"},{"poiid":"B2094655D26FABF5499A","title":"谷阳北路158弄小区","lon":"121.23725","lat":"31.01622","category":"47","category_name":"住宅区","address":"谷阳北路158弄"},{"poiid":"B2094654DB6EA1FF4993","title":"上岛咖啡方舟店","lon":"121.23876","lat":"31.01847","category":"65","category_name":"咖啡厅","address":"松江区荣乐中路30弄27-29号(近沪松路)"},{"poiid":"B2094757D66DA7F8449A","title":"來伊份(松江樂都路店)","lon":"121.238992467","lat":"31.0136191391","category":"500","category_name":"未知分类","address":"上海樂都路 谷陽路口"},{"poiid":"B2094654DB6EA2FE409E","title":"可的NO.722","lon":"121.23638","lat":"31.01609","category":"117","category_name":"便民商店/便利店","address":"谷阳北路156"},{"poiid":"B2094655D36CA2FA409C","title":"荣乐路谷阳北路","lon":"121.23713","lat":"31.01716","category":"38","category_name":"公交车站","address":""},{"poiid":"B2094655D36CA7F5499B","title":"谷阳路","lon":"121.23759","lat":"31.01704","category":"38","category_name":"公交车站","address":""},{"poiid":"B2094655D265A6F44298","title":"华亭大都会","lon":"121.23899","lat":"31.01712","category":"47","category_name":"住宅区","address":"华亭大都会位于松江荣乐中路18弄"},{"poiid":"B2094655D268A6F9489C","title":"北内路绿地","lon":"121.24162","lat":"31.01296","category":"196","category_name":"公园","address":""},{"poiid":"B2094654DB6DAAFE489B","title":"松江体育馆","lon":"121.23225","lat":"31.01583","category":"224","category_name":"综合体育馆","address":"松江区九峰路2号(九峰路乐都路)"},{"poiid":"B2094654DB64A0FD439D","title":"易初莲花购物中心","lon":"121.24114","lat":"31.01773","category":"118","category_name":"超级市场","address":"松江区松江荣乐中路8号"},{"poiid":"B2094757D06BA5FB4499","title":"小南国(松江店)","lon":"121.236183219","lat":"31.0092310628","category":"500","category_name":"未知分类","address":"上海市松江区松江长桥街平高"},{"poiid":"B2094757D068A7FD4099","title":"卜蜂莲花(松江岳阳店)","lon":"121.24351","lat":"31.01668","category":"118","category_name":"超级市场","address":"松江区荣乐中路8号"},{"poiid":"B2094655D268A5F94598","title":"乐都大厦","lon":"121.2334","lat":"31.01309","category":"46","category_name":"楼宇","address":"乐都路251号"},{"poiid":"B2094654DB6EA3F54292","title":"樟馨家园","lon":"121.23857","lat":"31.011311","category":"47","category_name":"住宅区","address":"上海市松江区松乐路88弄"},{"poiid":"B2094654DB6EA2FD459D","title":"通波小区(荣乐中路)","lon":"121.23902","lat":"31.01689","category":"47","category_name":"住宅区","address":"荣乐中路32弄"},{"poiid":"B2094757D06AA4FE469B","title":"肯德基 KFC (方舟店)","lon":"121.240858","lat":"31.017601","category":"500","category_name":"未知分类","address":"松江区荣乐中路8号"},{"poiid":"B2094757D165AAFF4693","title":"乐都路","lon":"121.23887486","lat":"31.013645639","category":"500","category_name":"未知分类","address":"上海乐都路"},{"poiid":"B2094655D26FABF5499F","title":"小忠羊肉庄","lon":"121.23796","lat":"31.01413","category":"86","category_name":"火锅店","address":"松江区乐都路102弄13号"},{"poiid":"B2094655D36CA1F84092","title":"龙潭苑","lon":"121.239","lat":"31.0157","category":"38","category_name":"公交车站","address":"中山二路182弄"},{"poiid":"B2094757D069A4FD4092","title":"凤凰小区","lon":"121.23508","lat":"31.012119","category":"47","category_name":"住宅区","address":"上海松江区谷阳北路"},{"poiid":"B2094654DB6EA2F4469B","title":"高乐小区","lon":"121.23349","lat":"31.018749","category":"47","category_name":"住宅区","address":"谷阳北路525弄"},{"poiid":"B2094655D26FA2FA449B","title":"如家快捷酒店","lon":"121.23883","lat":"31.01902","category":"216","category_name":"经济型连锁酒店","address":"松江区荣乐中路12弄方中广场282号(近沪松路)"},{"poiid":"B2094654DB6EA3F4439F","title":"阿平形象公社·松江店","lon":"121.23788","lat":"31.01391","category":"148","category_name":"美容美发店","address":""},{"poiid":"B2094750DA6EA2FC449F","title":"炫音KTV上海平高店","lon":"121.235061","lat":"31.008541","category":"500","category_name":"未知分类","address":"松江区中山中路71号平高世贸中心4楼A号座(近沃尔玛购物广场)"},{"poiid":"B2094655D26FAAFC4892","title":"通波小区(南门)","lon":"121.23829","lat":"31.01469","category":"47","category_name":"住宅区","address":""},{"poiid":"B2094654DB6EA1F8429A","title":"迪欧咖啡 松江店 DIO CAFE","lon":"121.24261775159","lat":"31.017687596121","category":"65","category_name":"咖啡厅","address":"松江区荣乐中路2弄110号(荣乐东路荣乐中路)"},{"poiid":"B2094757D16EA4F5479B","title":"呷哺呷哺(松江卜蜂莲花荣乐餐厅)","lon":"121.241108053","lat":"31.017171277","category":"86","category_name":"火锅店","address":"松江区荣乐中路8号卜蜂莲花2A-04室"},{"poiid":"B2094757D66DA7F44499","title":"新石器盘古烤肉","lon":"121.240959767","lat":"31.0177071289","category":"96","category_name":"韩国料理","address":"上海松江区荣乐中路"},{"poiid":"B2094751D56CA0FF4992","title":"竹筷子农家菜(乐都路店)","lon":"121.24085","lat":"31.01372","category":"87","category_name":"特色／地方风味餐厅","address":"松江区乐都路9弄(近袜子弄)"},{"poiid":"B2094655D26DA6FD4498","title":"花园浜小区","lon":"121.243","lat":"31.0153","category":"47","category_name":"住宅区","address":"仓汇路400弄"},{"poiid":"B2094654DB64A0FC4498","title":"好德","lon":"121.23767","lat":"31.0139","category":"117","category_name":"便民商店/便利店","address":"乐都路126"},{"poiid":"B2094757D66FA6FE439B","title":"DQ&lt;松江平高店&gt;","lon":"121.235201467","lat":"31.0084459256","category":"113","category_name":"冷饮店","address":"上海松江平高贸易中心"},{"poiid":"B2094654DB64A0FD439C","title":"方舟园三村","lon":"121.23726","lat":"31.018473","category":"47","category_name":"住宅区","address":"上海市松江区荣乐中路30弄"},{"poiid":"B2094654DB6EA3F54099","title":"谷北小区","lon":"121.23733","lat":"31.012812","category":"47","category_name":"住宅区","address":"谷阳北路98号"},{"poiid":"B2094654DB6EA3F4439E","title":"乐都路118弄小区","lon":"121.2378","lat":"31.0143","category":"47","category_name":"住宅区","address":"乐都路118弄"},{"poiid":"B2094654DB69A4FB429C","title":"重庆鸡公煲(方舟店)","lon":"121.24043","lat":"31.01787","category":"71","category_name":"四川菜","address":"松江区荣乐中路12弄29号(近卜蜂莲花)"},{"poiid":"B2094654DB6EA3F4499D","title":"张泽羊肉庄(乐都路)","lon":"121.23781","lat":"31.01353","category":"257","category_name":"中餐厅","address":"乐都路127号"},{"poiid":"B2094655D26FA3FF4693","title":"巴比馒头(乐都路店)","lon":"121.23781","lat":"31.01352","category":"87","category_name":"特色／地方风味餐厅","address":"松江区乐都路127号"},{"poiid":"B2094655D26FABF54999","title":"乐都路118弄小区(南门)","lon":"121.2378","lat":"31.01391","category":"47","category_name":"住宅区","address":"乐都路118弄"},{"poiid":"B2094655D264A2F54698","title":"月夏香樟林","lon":"121.23857","lat":"31.01131","category":"47","category_name":"住宅区","address":"上海市松江区松乐路88弄"},{"poiid":"B2094757D664A1F8489E","title":"七欣天迷宗蟹 松江店","lon":"121.243638054","lat":"31.013775793","category":"86","category_name":"火锅店","address":"松江区环城东路980号(近沪松路)"},{"poiid":"B2094655D26FAAFD409E","title":"快客(乐都路)","lon":"121.23764","lat":"31.01321","category":"117","category_name":"便民商店/便利店","address":"乐都路143弄9"},{"poiid":"B2094655D268A1FE479B","title":"馨与歆足浴乐都分部","lon":"121.23869","lat":"31.01396","category":"149","category_name":"洗浴推拿场所","address":""},{"poiid":"B2094655D36CA6FC409E","title":"谷阳北路","lon":"121.23672","lat":"31.01712","category":"38","category_name":"公交车站","address":""},{"poiid":"B2094757D16DA3FE4298","title":"盛南易初莲花松江店(岳阳店)","lon":"121.23796209","lat":"31.017222512","category":"118","category_name":"超级市场","address":"上海松江区荣乐中路28号"},{"poiid":"B2094757D465A6FB4193","title":"秦庄 荣乐中路店","lon":"121.239281054","lat":"31.017588793","category":"247","category_name":"餐饮美食","address":"松江区荣乐中路12弄方中广场37号(近沪松路)"},{"poiid":"B2094750D664A5FC4099","title":"张记烧烤","lon":"121.236","lat":"31.0173","category":"68","category_name":"快餐厅","address":"松江区谷阳北路188号(近中山二路)"},{"poiid":"B2094655D26FABFB479C","title":"快客No.5233","lon":"121.24032","lat":"31.01315","category":"117","category_name":"便民商店/便利店","address":""},{"poiid":"B2094654DB6EA2FE409F","title":"上海大江商厦","lon":"121.23656","lat":"31.01652","category":"46","category_name":"楼宇","address":"松江区谷阳北路166号7楼"},{"poiid":"B2094757D16DA6FA449F","title":"民生银行(松江支行)","lon":"121.235957","lat":"31.014068","category":"150","category_name":"银行","address":"上海市松江区谷阳北路277号"},{"poiid":"B2094655D26FABF5499A","title":"谷阳北路158弄小区","lon":"121.23725","lat":"31.01622","category":"47","category_name":"住宅区","address":"谷阳北路158弄"},{"poiid":"B2094654DB6EA1FF4993","title":"上岛咖啡方舟店","lon":"121.23876","lat":"31.01847","category":"65","category_name":"咖啡厅","address":"松江区荣乐中路30弄27-29号(近沪松路)"},{"poiid":"B2094757D66DA7F8449A","title":"來伊份(松江樂都路店)","lon":"121.238992467","lat":"31.0136191391","category":"500","category_name":"未知分类","address":"上海樂都路 谷陽路口"},{"poiid":"B2094654DB6EA2FE409E","title":"可的NO.722","lon":"121.23638","lat":"31.01609","category":"117","category_name":"便民商店/便利店","address":"谷阳北路156"},{"poiid":"B2094655D36CA2FA409C","title":"荣乐路谷阳北路","lon":"121.23713","lat":"31.01716","category":"38","category_name":"公交车站","address":""},{"poiid":"B2094655D36CA7F5499B","title":"谷阳路","lon":"121.23759","lat":"31.01704","category":"38","category_name":"公交车站","address":""},{"poiid":"B2094655D265A6F44298","title":"华亭大都会","lon":"121.23899","lat":"31.01712","category":"47","category_name":"住宅区","address":"华亭大都会位于松江荣乐中路18弄"},{"poiid":"B2094655D268A6F9489C","title":"北内路绿地","lon":"121.24162","lat":"31.01296","category":"196","category_name":"公园","address":""},{"poiid":"B2094654DB6DAAFE489B","title":"松江体育馆","lon":"121.23225","lat":"31.01583","category":"224","category_name":"综合体育馆","address":"松江区九峰路2号(九峰路乐都路)"},{"poiid":"B2094654DB64A0FD439D","title":"易初莲花购物中心","lon":"121.24114","lat":"31.01773","category":"118","category_name":"超级市场","address":"松江区松江荣乐中路8号"},{"poiid":"B2094757D06BA5FB4499","title":"小南国(松江店)","lon":"121.236183219","lat":"31.0092310628","category":"500","category_name":"未知分类","address":"上海市松江区松江长桥街平高"},{"poiid":"B2094757D068A7FD4099","title":"卜蜂莲花(松江岳阳店)","lon":"121.24351","lat":"31.01668","category":"118","category_name":"超级市场","address":"松江区荣乐中路8号"},{"poiid":"B2094655D268A5F94598","title":"乐都大厦","lon":"121.2334","lat":"31.01309","category":"46","category_name":"楼宇","address":"乐都路251号"},{"poiid":"B2094654DB6EA3F54292","title":"樟馨家园","lon":"121.23857","lat":"31.011311","category":"47","category_name":"住宅区","address":"上海市松江区松乐路88弄"},{"poiid":"B2094654DB6EA2FD459D","title":"通波小区(荣乐中路)","lon":"121.23902","lat":"31.01689","category":"47","category_name":"住宅区","address":"荣乐中路32弄"},{"poiid":"B2094757D06AA4FE469B","title":"肯德基 KFC (方舟店)","lon":"121.240858","lat":"31.017601","category":"500","category_name":"未知分类","address":"松江区荣乐中路8号"},{"poiid":"B2094757D165AAFF4693","title":"乐都路","lon":"121.23887486","lat":"31.013645639","category":"500","category_name":"未知分类","address":"上海乐都路"},{"poiid":"B2094655D26FABF5499F","title":"小忠羊肉庄","lon":"121.23796","lat":"31.01413","category":"86","category_name":"火锅店","address":"松江区乐都路102弄13号"},{"poiid":"B2094655D36CA1F84092","title":"龙潭苑","lon":"121.239","lat":"31.0157","category":"38","category_name":"公交车站","address":"中山二路182弄"},{"poiid":"B2094757D069A4FD4092","title":"凤凰小区","lon":"121.23508","lat":"31.012119","category":"47","category_name":"住宅区","address":"上海松江区谷阳北路"},{"poiid":"B2094654DB6EA2F4469B","title":"高乐小区","lon":"121.23349","lat":"31.018749","category":"47","category_name":"住宅区","address":"谷阳北路525弄"},{"poiid":"B2094655D26FA2FA449B","title":"如家快捷酒店","lon":"121.23883","lat":"31.01902","category":"216","category_name":"经济型连锁酒店","address":"松江区荣乐中路12弄方中广场282号(近沪松路)"},{"poiid":"B2094654DB6EA3F4439F","title":"阿平形象公社·松江店","lon":"121.23788","lat":"31.01391","category":"148","category_name":"美容美发店","address":""},{"poiid":"B2094750DA6EA2FC449F","title":"炫音KTV上海平高店","lon":"121.235061","lat":"31.008541","category":"500","category_name":"未知分类","address":"松江区中山中路71号平高世贸中心4楼A号座(近沃尔玛购物广场)"},{"poiid":"B2094655D26FAAFC4892","title":"通波小区(南门)","lon":"121.23829","lat":"31.01469","category":"47","category_name":"住宅区","address":""},{"poiid":"B2094654DB6EA1F8429A","title":"迪欧咖啡 松江店 DIO CAFE","lon":"121.24261775159","lat":"31.017687596121","category":"65","category_name":"咖啡厅","address":"松江区荣乐中路2弄110号(荣乐东路荣乐中路)"},{"poiid":"B2094757D16EA4F5479B","title":"呷哺呷哺(松江卜蜂莲花荣乐餐厅)","lon":"121.241108053","lat":"31.017171277","category":"86","category_name":"火锅店","address":"松江区荣乐中路8号卜蜂莲花2A-04室"},{"poiid":"B2094757D66DA7F44499","title":"新石器盘古烤肉","lon":"121.240959767","lat":"31.0177071289","category":"96","category_name":"韩国料理","address":"上海松江区荣乐中路"},{"poiid":"B2094751D56CA0FF4992","title":"竹筷子农家菜(乐都路店)","lon":"121.24085","lat":"31.01372","category":"87","category_name":"特色／地方风味餐厅","address":"松江区乐都路9弄(近袜子弄)"},{"poiid":"B2094655D26DA6FD4498","title":"花园浜小区","lon":"121.243","lat":"31.0153","category":"47","category_name":"住宅区","address":"仓汇路400弄"},{"poiid":"B2094654DB64A0FC4498","title":"好德","lon":"121.23767","lat":"31.0139","category":"117","category_name":"便民商店/便利店","address":"乐都路126"},{"poiid":"B2094757D66FA6FE439B","title":"DQ&lt;松江平高店&gt;","lon":"121.235201467","lat":"31.0084459256","category":"113","category_name":"冷饮店","address":"上海松江平高贸易中心"},{"poiid":"B2094654DB64A0FD439C","title":"方舟园三村","lon":"121.23726","lat":"31.018473","category":"47","category_name":"住宅区","address":"上海市松江区荣乐中路30弄"},{"poiid":"B2094654DB6EA3F54099","title":"谷北小区","lon":"121.23733","lat":"31.012812","category":"47","category_name":"住宅区","address":"谷阳北路98号"},{"poiid":"B2094654DB6EA3F4439E","title":"乐都路118弄小区","lon":"121.2378","lat":"31.0143","category":"47","category_name":"住宅区","address":"乐都路118弄"},{"poiid":"B2094654DB69A4FB429C","title":"重庆鸡公煲(方舟店)","lon":"121.24043","lat":"31.01787","category":"71","category_name":"四川菜","address":"松江区荣乐中路12弄29号(近卜蜂莲花)"},{"poiid":"B2094654DB6EA3F4499D","title":"张泽羊肉庄(乐都路)","lon":"121.23781","lat":"31.01353","category":"257","category_name":"中餐厅","address":"乐都路127号"},{"poiid":"B2094655D26FA3FF4693","title":"巴比馒头(乐都路店)","lon":"121.23781","lat":"31.01352","category":"87","category_name":"特色／地方风味餐厅","address":"松江区乐都路127号"},{"poiid":"B2094655D26FABF54999","title":"乐都路118弄小区(南门)","lon":"121.2378","lat":"31.01391","category":"47","category_name":"住宅区","address":"乐都路118弄"},{"poiid":"B2094655D264A2F54698","title":"月夏香樟林","lon":"121.23857","lat":"31.01131","category":"47","category_name":"住宅区","address":"上海市松江区松乐路88弄"},{"poiid":"B2094757D664A1F8489E","title":"七欣天迷宗蟹 松江店","lon":"121.243638054","lat":"31.013775793","category":"86","category_name":"火锅店","address":"松江区环城东路980号(近沪松路)"},{"poiid":"B2094655D26FAAFD409E","title":"快客(乐都路)","lon":"121.23764","lat":"31.01321","category":"117","category_name":"便民商店/便利店","address":"乐都路143弄9"},{"poiid":"B2094655D268A1FE479B","title":"馨与歆足浴乐都分部","lon":"121.23869","lat":"31.01396","category":"149","category_name":"洗浴推拿场所","address":""},{"poiid":"B2094655D36CA6FC409E","title":"谷阳北路","lon":"121.23672","lat":"31.01712","category":"38","category_name":"公交车站","address":""},{"poiid":"B2094757D16DA3FE4298","title":"盛南易初莲花松江店(岳阳店)","lon":"121.23796209","lat":"31.017222512","category":"118","category_name":"超级市场","address":"上海松江区荣乐中路28号"},{"poiid":"B2094757D465A6FB4193","title":"秦庄 荣乐中路店","lon":"121.239281054","lat":"31.017588793","category":"247","category_name":"餐饮美食","address":"松江区荣乐中路12弄方中广场37号(近沪松路)"},{"poiid":"B2094750D664A5FC4099","title":"张记烧烤","lon":"121.236","lat":"31.0173","category":"68","category_name":"快餐厅","address":"松江区谷阳北路188号(近中山二路)"},{"poiid":"B2094655D26FABFB479C","title":"快客No.5233","lon":"121.24032","lat":"31.01315","category":"117","category_name":"便民商店/便利店","address":""},{"poiid":"B2094654DB6EA2FE409F","title":"上海大江商厦","lon":"121.23656","lat":"31.01652","category":"46","category_name":"楼宇","address":"松江区谷阳北路166号7楼"},{"poiid":"B2094757D16DA6FA449F","title":"民生银行(松江支行)","lon":"121.235957","lat":"31.014068","category":"150","category_name":"银行","address":"上海市松江区谷阳北路277号"},{"poiid":"B2094655D26FABF5499A","title":"谷阳北路158弄小区","lon":"121.23725","lat":"31.01622","category":"47","category_name":"住宅区","address":"谷阳北路158弄"},{"poiid":"B2094654DB6EA1FF4993","title":"上岛咖啡方舟店","lon":"121.23876","lat":"31.01847","category":"65","category_name":"咖啡厅","address":"松江区荣乐中路30弄27-29号(近沪松路)"},{"poiid":"B2094757D66DA7F8449A","title":"來伊份(松江樂都路店)","lon":"121.238992467","lat":"31.0136191391","category":"500","category_name":"未知分类","address":"上海樂都路 谷陽路口"},{"poiid":"B2094654DB6EA2FE409E","title":"可的NO.722","lon":"121.23638","lat":"31.01609","category":"117","category_name":"便民商店/便利店","address":"谷阳北路156"},{"poiid":"B2094655D36CA2FA409C","title":"荣乐路谷阳北路","lon":"121.23713","lat":"31.01716","category":"38","category_name":"公交车站","address":""},{"poiid":"B2094655D36CA7F5499B","title":"谷阳路","lon":"121.23759","lat":"31.01704","category":"38","category_name":"公交车站","address":""},{"poiid":"B2094655D265A6F44298","title":"华亭大都会","lon":"121.23899","lat":"31.01712","category":"47","category_name":"住宅区","address":"华亭大都会位于松江荣乐中路18弄"},{"poiid":"B2094655D268A6F9489C","title":"北内路绿地","lon":"121.24162","lat":"31.01296","category":"196","category_name":"公园","address":""}]