[{"poiid":"B2094757D06FA3FF499E","title":"曲阳路800号上海商务中心","lon":"121.491356","lat":"31.2865155564","category":"46","category_name":"楼宇","address":"上海曲阳路800号"},{"poiid":"B2094654D56DA0FA4798","title":"上海商务中心(伊敏河路)","lon":"121.49298","lat":"31.28647","category":"119","category_name":"商场","address":"杨浦曲阳路800-1"},{"poiid":"B2094757D064A3FA4698","title":"拉菲酒窖餐厅","lon":"121.492033103","lat":"31.2857107418","category":"72","category_name":"广东菜","address":"虹口区曲阳路666号"},{"poiid":"B2094757D06FA5F8489E","title":"盛鸿楼","lon":"121.49638175","lat":"31.287764874","category":"76","category_name":"上海菜","address":"虹口区中山北二路1800号(近曲阳商务中心)"},{"poiid":"B2094654DB6BA3FE449A","title":"岳阳医院(三号门)","lon":"121.48986","lat":"31.28835","category":"162","category_name":"医院","address":"虹口区甘河路110号"},{"poiid":"B2094757D068A2FD419A","title":"艾尼巴亿","lon":"121.49073","lat":"31.28714","category":"90","category_name":"清真餐馆","address":"虹口区曲阳路759号天山宾馆1楼(近中山北二路)"},{"poiid":"B2094757D06FA2F4409C","title":"易买得(曲阳店)","lon":"121.49134485","lat":"31.285770526","category":"118","category_name":"超级市场","address":"虹口区曲阳路800号上海商务中心内(近中山北二路)"},{"poiid":"B2094757D06FA1FB459F","title":"85度C(曲阳店)","lon":"121.49135","lat":"31.29053","category":"67","category_name":"甜品店","address":"虹口区曲阳路930号大柏树930创意园A幢101-201室(近腾克路)"},{"poiid":"B2094750D365A0FD419A","title":"虹口区婚姻登记中心","lon":"121.495216","lat":"31.288152","category":"248","category_name":"生活娱乐","address":"巴林路76号"},{"poiid":"B2094757D068A7F4449D","title":"竹家庄避风塘","lon":"121.49183672","lat":"31.290959271","category":"72","category_name":"广东菜","address":"虹口区曲阳路930号(近腾克路)"},{"poiid":"B2094757D069A7FD449B","title":"阿拉对面炭烤鱼","lon":"121.492078403","lat":"31.2886284028","category":"257","category_name":"中餐厅","address":"虹口区曲阳路789号(近腾克路)"},{"poiid":"B2094655D269AAF44092","title":"丝绸之路大饭店","lon":"121.49057","lat":"31.28855","category":"247","category_name":"餐饮美食","address":"虹口区曲阳路777号(近中山北二路)"},{"poiid":"B2094757D06AA6FF4692","title":"和平眼科医院","lon":"121.49337","lat":"31.28735","category":"162","category_name":"医院","address":"虹口区伊敏河路61号(近中山北二路)"},{"poiid":"B2094757D66AABFC4392","title":"阿凡提餐厅 虹口店","lon":"121.49020998538","lat":"31.28792419407","category":"84","category_name":"西北菜","address":"虹口区曲阳路775号天山宾馆B1楼(近中山北二路)"},{"poiid":"B2094757D06FA4F5489E","title":"捞王猪肚鸡(曲阳店)","lon":"121.49391088","lat":"31.288647664","category":"86","category_name":"火锅店","address":"虹口区伊敏河路76号"},{"poiid":"B2094757D068A7F44092","title":"味千拉面(大柏树店)","lon":"121.49148","lat":"31.2905","category":"95","category_name":"日本料理","address":"虹口区曲阳路930号大柏树930创意园内(近腾克路)"},{"poiid":"B2094757D068A2FF429A","title":"EZ time女仆执事咖啡店","lon":"121.49119459","lat":"31.288734891","category":"65","category_name":"咖啡厅","address":"上海曲阳路838号-3"},{"poiid":"B2094655D265A0FF409C","title":"优豪创展中心","lon":"121.494","lat":"31.2878","category":"46","category_name":"楼宇","address":"昌平区回龙观镇国际信息产业基地高新二街"},{"poiid":"B2094654D56DA0F44993","title":"上海和平眼科医院","lon":"121.4931","lat":"31.28758","category":"162","category_name":"医院","address":"虹口区伊敏河路61号和平眼科医院内"},{"poiid":"B2094757D068A6FF4993","title":"红宝石(伊敏河路店)","lon":"121.49382","lat":"31.28874","category":"67","category_name":"甜品店","address":"虹口区伊敏河路85号(近曲阳商务中心)"},{"poiid":"B2094757D06BA1FE419F","title":"蜀国川菜(虹口店)","lon":"121.49366","lat":"31.28623","category":"71","category_name":"四川菜","address":"虹口区伊敏河路32号(近中山北二路)"},{"poiid":"B2094757D069A1FC499A","title":"中国移动(曲阳路营业厅)","lon":"121.490539551","lat":"31.2866725922","category":"151","category_name":"电讯营业厅","address":"上海虹口区曲阳路721号"},{"poiid":"B2094655D36CA2F9409E","title":"曲阳路中山北二路","lon":"121.49078","lat":"31.28541","category":"38","category_name":"公交车站","address":""},{"poiid":"B2094750D76DABF84698","title":"吉祥馄饨(伊敏河路店)","lon":"121.493","lat":"31.287","category":"68","category_name":"快餐厅","address":"虹口区伊敏河路66号(近巴林路)"},{"poiid":"B2094655D26DA5FD4198","title":"复城国际住宅区","lon":"121.49311","lat":"31.28938","category":"47","category_name":"住宅区","address":"伊敏河路99弄"},{"poiid":"B2094655D26CA1F44493","title":"上海商务中心商务大厦(东二门)","lon":"121.49307","lat":"31.28732","category":"46","category_name":"楼宇","address":""},{"poiid":"B2094655D36CA2FD499B","title":"曲阳路820弄小区","lon":"121.49235","lat":"31.28806","category":"47","category_name":"住宅区","address":"曲阳路820弄1-59号"},{"poiid":"B2094654D56DA0FA479A","title":"上海商务中心家电城","lon":"121.49224","lat":"31.28646","category":"138","category_name":"家电电子卖场","address":"虹口区曲阳路800号(近中山北二路)"},{"poiid":"B2094757D068A2FA459D","title":"工商银行(虹口支行)","lon":"121.492248","lat":"31.286457","category":"150","category_name":"银行","address":"上海虹口区曲阳路800号商务中心内"},{"poiid":"B2094655D36DA0FA439A","title":"伊敏河路巴林路","lon":"121.49328","lat":"31.28757","category":"38","category_name":"公交车站","address":""},{"poiid":"B2094654DB6AA3F5419C","title":"小杨生煎 曲阳路店","lon":"121.491071054","lat":"31.287132793","category":"247","category_name":"餐饮美食","address":"虹口区曲阳路810号(近中山北二路)"},{"poiid":"B2094655D26CA1F44492","title":"上海商务中心商务大厦(东一门)","lon":"121.49304","lat":"31.2868","category":"46","category_name":"楼宇","address":""},{"poiid":"B2094757D064A3FF429B","title":"123路终点站","lon":"121.49377387","lat":"31.286794614","category":"38","category_name":"公交车站","address":"上海巴林路伊敏河路"},{"poiid":"B2094757D16DABF4459A","title":"曲阳街道社区卫生服务中心","lon":"121.49486","lat":"31.28798","category":"162","category_name":"医院","address":"虹口区巴林路78号(近辉河路)"},{"poiid":"B2094655D36DA0FA4293","title":"伊敏河路","lon":"121.49334","lat":"31.28682","category":"38","category_name":"公交车站","address":""},{"poiid":"B2094750D665A7FA4593","title":"永和大王(易买得店)","lon":"121.491","lat":"31.2865","category":"68","category_name":"快餐厅","address":"虹口区曲阳路800号易买得内"},{"poiid":"B2094757D069A0FC449E","title":"吉盛伟邦(虹口店)","lon":"121.491561865","lat":"31.2864359407","category":"123","category_name":"家具建材市场","address":"虹口区曲阳路800号上海商务中心内(近中山北二路)"},{"poiid":"B2094655D26DA5F4429D","title":"上海商务中心商务大厦(西二门)","lon":"121.49118","lat":"31.28731","category":"46","category_name":"楼宇","address":"曲阳路806弄"},{"poiid":"B2094654D56DA0F9499E","title":"避风塘(天山宾馆东南)","lon":"121.49143","lat":"31.28757","category":"113","category_name":"冷饮店","address":"曲阳路800号乙D座"},{"poiid":"B2094757D06AA3FC4993","title":"东北人家","lon":"121.49083","lat":"31.28566","category":"82","category_name":"东北菜","address":"虹口区密云路536号(近赤峰路)"},{"poiid":"B2094757D168A0FD489E","title":"阿凡提大饭店","lon":"121.492341903","lat":"31.2888055065","category":"247","category_name":"餐饮美食","address":"上海东体育会路1099号"},{"poiid":"B2094757D06BA1FA4992","title":"巴林小区","lon":"121.49617","lat":"31.287172","category":"47","category_name":"住宅区","address":"巴林路61弄1-25号"},{"poiid":"B2094654D56DA0F5419D","title":"来伊份No.236","lon":"121.49341","lat":"31.287","category":"117","category_name":"便民商店/便利店","address":"伊敏河路64-66"},{"poiid":"B2094654D56DA0FA4699","title":"过街楼","lon":"121.49134","lat":"31.28703","category":"46","category_name":"楼宇","address":"曲阳路800号"},{"poiid":"B209475DD068A2FB4699","title":"东方明珠","lon":"121.491241","lat":"31.288419","category":"500","category_name":"未知分类","address":"上海市 外滩"},{"poiid":"B2094757D064A7F4489F","title":"亲亲天使婴儿游泳馆(曲阳店)","lon":"121.4929666","lat":"31.287138771","category":"500","category_name":"未知分类","address":"虹口区曲阳路900弄复城国际3号107室"},{"poiid":"B2094757D065AAFB429D","title":"銅鑼灣軒尼詩道","lon":"121.4931101","lat":"31.287159772","category":"252","category_name":"楼宇机构","address":"香港銅鑼灣軒尼詩道"},{"poiid":"B2094655D265A7FD4292","title":"曲阳路820弄小区(东一门)","lon":"121.49313","lat":"31.28809","category":"47","category_name":"住宅区","address":"曲阳路820弄1-59号"},{"poiid":"B2094655D26CA1F4449C","title":"上海商务中心商务大厦(西一门)","lon":"121.49115","lat":"31.2868","category":"46","category_name":"楼宇","address":""},{"poiid":"B2094757DA64A1F54199","title":"上海商务大厦","lon":"121.491709","lat":"31.28695","category":"252","category_name":"楼宇机构","address":"曲阳路800号"},{"poiid":"B2094757D06FA3FF499E","title":"曲阳路800号上海商务中心","lon":"121.491356","lat":"31.2865155564","category":"46","category_name":"楼宇","address":"上海曲阳路800号"},{"poiid":"B2094654D56DA0FA4798","title":"上海商务中心(伊敏河路)","lon":"121.49298","lat":"31.28647","category":"119","category_name":"商场","address":"杨浦曲阳路800-1"},{"poiid":"B2094757D064A3FA4698","title":"拉菲酒窖餐厅","lon":"121.492033103","lat":"31.2857107418","category":"72","category_name":"广东菜","address":"虹口区曲阳路666号"},{"poiid":"B2094757D06FA5F8489E","title":"盛鸿楼","lon":"121.49638175","lat":"31.287764874","category":"76","category_name":"上海菜","address":"虹口区中山北二路1800号(近曲阳商务中心)"},{"poiid":"B2094654DB6BA3FE449A","title":"岳阳医院(三号门)","lon":"121.48986","lat":"31.28835","category":"162","category_name":"医院","address":"虹口区甘河路110号"},{"poiid":"B2094757D068A2FD419A","title":"艾尼巴亿","lon":"121.49073","lat":"31.28714","category":"90","category_name":"清真餐馆","address":"虹口区曲阳路759号天山宾馆1楼(近中山北二路)"},{"poiid":"B2094757D06FA2F4409C","title":"易买得(曲阳店)","lon":"121.49134485","lat":"31.285770526","category":"118","category_name":"超级市场","address":"虹口区曲阳路800号上海商务中心内(近中山北二路)"},{"poiid":"B2094757D06FA1FB459F","title":"85度C(曲阳店)","lon":"121.49135","lat":"31.29053","category":"67","category_name":"甜品店","address":"虹口区曲阳路930号大柏树930创意园A幢101-201室(近腾克路)"},{"poiid":"B2094750D365A0FD419A","title":"虹口区婚姻登记中心","lon":"121.495216","lat":"31.288152","category":"248","category_name":"生活娱乐","address":"巴林路76号"},{"poiid":"B2094757D068A7F4449D","title":"竹家庄避风塘","lon":"121.49183672","lat":"31.290959271","category":"72","category_name":"广东菜","address":"虹口区曲阳路930号(近腾克路)"},{"poiid":"B2094757D069A7FD449B","title":"阿拉对面炭烤鱼","lon":"121.492078403","lat":"31.2886284028","category":"257","category_name":"中餐厅","address":"虹口区曲阳路789号(近腾克路)"},{"poiid":"B2094655D269AAF44092","title":"丝绸之路大饭店","lon":"121.49057","lat":"31.28855","category":"247","category_name":"餐饮美食","address":"虹口区曲阳路777号(近中山北二路)"},{"poiid":"B2094757D06AA6FF4692","title":"和平眼科医院","lon":"121.49337","lat":"31.28735","category":"162","category_name":"医院","address":"虹口区伊敏河路61号(近中山北二路)"},{"poiid":"B2094757D66AABFC4392","title":"阿凡提餐厅 虹口店","lon":"121.49020998538","lat":"31.28792419407","category":"84","category_name":"西北菜","address":"虹口区曲阳路775号天山宾馆B1楼(近中山北二路)"},{"poiid":"B2094757D06FA4F5489E","title":"捞王猪肚鸡(曲阳店)","lon":"121.49391088","lat":"31.288647664","category":"86","category_name":"火锅店","address":"虹口区伊敏河路76号"},{"poiid":"B2094757D068A7F44092","title":"味千拉面(大柏树店)","lon":"121.49148","lat":"31.2905","category":"95","category_name":"日本料理","address":"虹口区曲阳路930号大柏树930创意园内(近腾克路)"},{"poiid":"B2094757D068A2FF429A","title":"EZ time女仆执事咖啡店","lon":"121.49119459","lat":"31.288734891","category":"65","category_name":"咖啡厅","address":"上海曲阳路838号-3"},{"poiid":"B2094655D265A0FF409C","title":"优豪创展中心","lon":"121.494","lat":"31.2878","category":"46","category_name":"楼宇","address":"昌平区回龙观镇国际信息产业基地高新二街"},{"poiid":"B2094654D56DA0F44993","title":"上海和平眼科医院","lon":"121.4931","lat":"31.28758","category":"162","category_name":"医院","address":"虹口区伊敏河路61号和平眼科医院内"},{"poiid":"B2094757D068A6FF4993","title":"红宝石(伊敏河路店)","lon":"121.49382","lat":"31.28874","category":"67","category_name":"甜品店","address":"虹口区伊敏河路85号(近曲阳商务中心)"},{"poiid":"B2094757D06BA1FE419F","title":"蜀国川菜(虹口店)","lon":"121.49366","lat":"31.28623","category":"71","category_name":"四川菜","address":"虹口区伊敏河路32号(近中山北二路)"},{"poiid":"B2094757D069A1FC499A","title":"中国移动(曲阳路营业厅)","lon":"121.490539551","lat":"31.2866725922","category":"151","category_name":"电讯营业厅","address":"上海虹口区曲阳路721号"},{"poiid":"B2094655D36CA2F9409E","title":"曲阳路中山北二路","lon":"121.49078","lat":"31.28541","category":"38","category_name":"公交车站","address":""},{"poiid":"B2094750D76DABF84698","title":"吉祥馄饨(伊敏河路店)","lon":"121.493","lat":"31.287","category":"68","category_name":"快餐厅","address":"虹口区伊敏河路66号(近巴林路)"},{"poiid":"B2094655D26DA5FD4198","title":"复城国际住宅区","lon":"121.49311","lat":"31.28938","category":"47","category_name":"住宅区","address":"伊敏河路99弄"},{"poiid":"B2094655D26CA1F44493","title":"上海商务中心商务大厦(东二门)","lon":"121.49307","lat":"31.28732","category":"46","category_name":"楼宇","address":""},{"poiid":"B2094655D36CA2FD499B","title":"曲阳路820弄小区","lon":"121.49235","lat":"31.28806","category":"47","category_name":"住宅区","address":"曲阳路820弄1-59号"},{"poiid":"B2094654D56DA0FA479A","title":"上海商务中心家电城","lon":"121.49224","lat":"31.28646","category":"138","category_name":"家电电子卖场","address":"虹口区曲阳路800号(近中山北二路)"},{"poiid":"B2094757D068A2FA459D","title":"工商银行(虹口支行)","lon":"121.492248","lat":"31.286457","category":"150","category_name":"银行","address":"上海虹口区曲阳路800号商务中心内"},{"poiid":"B2094655D36DA0FA439A","title":"伊敏河路巴林路","lon":"121.49328","lat":"31.28757","category":"38","category_name":"公交车站","address":""},{"poiid":"B2094654DB6AA3F5419C","title":"小杨生煎 曲阳路店","lon":"121.491071054","lat":"31.287132793","category":"247","category_name":"餐饮美食","address":"虹口区曲阳路810号(近中山北二路)"},{"poiid":"B2094655D26CA1F44492","title":"上海商务中心商务大厦(东一门)","lon":"121.49304","lat":"31.2868","category":"46","category_name":"楼宇","address":""},{"poiid":"B2094757D064A3FF429B","title":"123路终点站","lon":"121.49377387","lat":"31.286794614","category":"38","category_name":"公交车站","address":"上海巴林路伊敏河路"},{"poiid":"B2094757D16DABF4459A","title":"曲阳街道社区卫生服务中心","lon":"121.49486","lat":"31.28798","category":"162","category_name":"医院","address":"虹口区巴林路78号(近辉河路)"},{"poiid":"B2094655D36DA0FA4293","title":"伊敏河路","lon":"121.49334","lat":"31.28682","category":"38","category_name":"公交车站","address":""},{"poiid":"B2094750D665A7FA4593","title":"永和大王(易买得店)","lon":"121.491","lat":"31.2865","category":"68","category_name":"快餐厅","address":"虹口区曲阳路800号易买得内"},{"poiid":"B2094757D069A0FC449E","title":"吉盛伟邦(虹口店)","lon":"121.491561865","lat":"31.2864359407","category":"123","category_name":"家具建材市场","address":"虹口区曲阳路800号上海商务中心内(近中山北二路)"},{"poiid":"B2094655D26DA5F4429D","title":"上海商务中心商务大厦(西二门)","lon":"121.49118","lat":"31.28731","category":"46","category_name":"楼宇","address":"曲阳路806弄"},{"poiid":"B2094654D56DA0F9499E","title":"避风塘(天山宾馆东南)","lon":"121.49143","lat":"31.28757","category":"113","category_name":"冷饮店","address":"曲阳路800号乙D座"},{"poiid":"B2094757D06AA3FC4993","title":"东北人家","lon":"121.49083","lat":"31.28566","category":"82","category_name":"东北菜","address":"虹口区密云路536号(近赤峰路)"},{"poiid":"B2094757D168A0FD489E","title":"阿凡提大饭店","lon":"121.492341903","lat":"31.2888055065","category":"247","category_name":"餐饮美食","address":"上海东体育会路1099号"},{"poiid":"B2094757D06BA1FA4992","title":"巴林小区","lon":"121.49617","lat":"31.287172","category":"47","category_name":"住宅区","address":"巴林路61弄1-25号"},{"poiid":"B2094654D56DA0F5419D","title":"来伊份No.236","lon":"121.49341","lat":"31.287","category":"117","category_name":"便民商店/便利店","address":"伊敏河路64-66"},{"poiid":"B2094654D56DA0FA4699","title":"过街楼","lon":"121.49134","lat":"31.28703","category":"46","category_name":"楼宇","address":"曲阳路800号"},{"poiid":"B209475DD068A2FB4699","title":"东方明珠","lon":"121.491241","lat":"31.288419","category":"500","category_name":"未知分类","address":"上海市 外滩"},{"poiid":"B2094757D064A7F4489F","title":"亲亲天使婴儿游泳馆(曲阳店)","lon":"121.4929666","lat":"31.287138771","category":"500","category_name":"未知分类","address":"虹口区曲阳路900弄复城国际3号107室"},{"poiid":"B2094757D065AAFB429D","title":"銅鑼灣軒尼詩道","lon":"121.4931101","lat":"31.287159772","category":"252","category_name":"楼宇机构","address":"香港銅鑼灣軒尼詩道"},{"poiid":"B2094655D265A7FD4292","title":"曲阳路820弄小区(东一门)","lon":"121.49313","lat":"31.28809","category":"47","category_name":"住宅区","address":"曲阳路820弄1-59号"},{"poiid":"B2094655D26CA1F4449C","title":"上海商务中心商务大厦(西一门)","lon":"121.49115","lat":"31.2868","category":"46","category_name":"楼宇","address":""},{"poiid":"B2094757DA64A1F54199","title":"上海商务大厦","lon":"121.491709","lat":"31.28695","category":"252","category_name":"楼宇机构","address":"曲阳路800号"},{"poiid":"B2094757D06FA3FF499E","title":"曲阳路800号上海商务中心","lon":"121.491356","lat":"31.2865155564","category":"46","category_name":"楼宇","address":"上海曲阳路800号"},{"poiid":"B2094654D56DA0FA4798","title":"上海商务中心(伊敏河路)","lon":"121.49298","lat":"31.28647","category":"119","category_name":"商场","address":"杨浦曲阳路800-1"},{"poiid":"B2094757D064A3FA4698","title":"拉菲酒窖餐厅","lon":"121.492033103","lat":"31.2857107418","category":"72","category_name":"广东菜","address":"虹口区曲阳路666号"},{"poiid":"B2094757D06FA5F8489E","title":"盛鸿楼","lon":"121.49638175","lat":"31.287764874","category":"76","category_name":"上海菜","address":"虹口区中山北二路1800号(近曲阳商务中心)"},{"poiid":"B2094654DB6BA3FE449A","title":"岳阳医院(三号门)","lon":"121.48986","lat":"31.28835","category":"162","category_name":"医院","address":"虹口区甘河路110号"},{"poiid":"B2094757D068A2FD419A","title":"艾尼巴亿","lon":"121.49073","lat":"31.28714","category":"90","category_name":"清真餐馆","address":"虹口区曲阳路759号天山宾馆1楼(近中山北二路)"},{"poiid":"B2094757D06FA2F4409C","title":"易买得(曲阳店)","lon":"121.49134485","lat":"31.285770526","category":"118","category_name":"超级市场","address":"虹口区曲阳路800号上海商务中心内(近中山北二路)"},{"poiid":"B2094757D06FA1FB459F","title":"85度C(曲阳店)","lon":"121.49135","lat":"31.29053","category":"67","category_name":"甜品店","address":"虹口区曲阳路930号大柏树930创意园A幢101-201室(近腾克路)"},{"poiid":"B2094750D365A0FD419A","title":"虹口区婚姻登记中心","lon":"121.495216","lat":"31.288152","category":"248","category_name":"生活娱乐","address":"巴林路76号"},{"poiid":"B2094757D068A7F4449D","title":"竹家庄避风塘","lon":"121.49183672","lat":"31.290959271","category":"72","category_name":"广东菜","address":"虹口区曲阳路930号(近腾克路)"},{"poiid":"B2094757D069A7FD449B","title":"阿拉对面炭烤鱼","lon":"121.492078403","lat":"31.2886284028","category":"257","category_name":"中餐厅","address":"虹口区曲阳路789号(近腾克路)"},{"poiid":"B2094655D269AAF44092","title":"丝绸之路大饭店","lon":"121.49057","lat":"31.28855","category":"247","category_name":"餐饮美食","address":"虹口区曲阳路777号(近中山北二路)"},{"poiid":"B2094757D06AA6FF4692","title":"和平眼科医院","lon":"121.49337","lat":"31.28735","category":"162","category_name":"医院","address":"虹口区伊敏河路61号(近中山北二路)"},{"poiid":"B2094757D66AABFC4392","title":"阿凡提餐厅 虹口店","lon":"121.49020998538","lat":"31.28792419407","category":"84","category_name":"西北菜","address":"虹口区曲阳路775号天山宾馆B1楼(近中山北二路)"},{"poiid":"B2094757D06FA4F5489E","title":"捞王猪肚鸡(曲阳店)","lon":"121.49391088","lat":"31.288647664","category":"86","category_name":"火锅店","address":"虹口区伊敏河路76号"},{"poiid":"B2094757D068A7F44092","title":"味千拉面(大柏树店)","lon":"121.49148","lat":"31.2905","category":"95","category_name":"日本料理","address":"虹口区曲阳路930号大柏树930创意园内(近腾克路)"},{"poiid":"B2094757D068A2FF429A","title":"EZ time女仆执事咖啡店","lon":"121.49119459","lat":"31.288734891","category":"65","category_name":"咖啡厅","address":"上海曲阳路838号-3"},{"poiid":"B2094655D265A0FF409C","title":"优豪创展中心","lon":"121.494","lat":"31.2878","category":"46","category_name":"楼宇","address":"昌平区回龙观镇国际信息产业基地高新二街"},{"poiid":"B2094654D56DA0F44993","title":"上海和平眼科医院","lon":"121.4931","lat":"31.28758","category":"162","category_name":"医院","address":"虹口区伊敏河路61号和平眼科医院内"},{"poiid":"B2094757D068A6FF4993","title":"红宝石(伊敏河路店)","lon":"121.49382","lat":"31.28874","category":"67","category_name":"甜品店","address":"虹口区伊敏河路85号(近曲阳商务中心)"},{"poiid":"B2094757D06BA1FE419F","title":"蜀国川菜(虹口店)","lon":"121.49366","lat":"31.28623","category":"71","category_name":"四川菜","address":"虹口区伊敏河路32号(近中山北二路)"},{"poiid":"B2094757D069A1FC499A","title":"中国移动(曲阳路营业厅)","lon":"121.490539551","lat":"31.2866725922","category":"151","category_name":"电讯营业厅","address":"上海虹口区曲阳路721号"},{"poiid":"B2094655D36CA2F9409E","title":"曲阳路中山北二路","lon":"121.49078","lat":"31.28541","category":"38","category_name":"公交车站","address":""},{"poiid":"B2094750D76DABF84698","title":"吉祥馄饨(伊敏河路店)","lon":"121.493","lat":"31.287","category":"68","category_name":"快餐厅","address":"虹口区伊敏河路66号(近巴林路)"},{"poiid":"B2094655D26DA5FD4198","title":"复城国际住宅区","lon":"121.49311","lat":"31.28938","category":"47","category_name":"住宅区","address":"伊敏河路99弄"},{"poiid":"B2094655D26CA1F44493","title":"上海商务中心商务大厦(东二门)","lon":"121.49307","lat":"31.28732","category":"46","category_name":"楼宇","address":""},{"poiid":"B2094655D36CA2FD499B","title":"曲阳路820弄小区","lon":"121.49235","lat":"31.28806","category":"47","category_name":"住宅区","address":"曲阳路820弄1-59号"},{"poiid":"B2094654D56DA0FA479A","title":"上海商务中心家电城","lon":"121.49224","lat":"31.28646","category":"138","category_name":"家电电子卖场","address":"虹口区曲阳路800号(近中山北二路)"},{"poiid":"B2094757D068A2FA459D","title":"工商银行(虹口支行)","lon":"121.492248","lat":"31.286457","category":"150","category_name":"银行","address":"上海虹口区曲阳路800号商务中心内"},{"poiid":"B2094655D36DA0FA439A","title":"伊敏河路巴林路","lon":"121.49328","lat":"31.28757","category":"38","category_name":"公交车站","address":""},{"poiid":"B2094654DB6AA3F5419C","title":"小杨生煎 曲阳路店","lon":"121.491071054","lat":"31.287132793","category":"247","category_name":"餐饮美食","address":"虹口区曲阳路810号(近中山北二路)"},{"poiid":"B2094655D26CA1F44492","title":"上海商务中心商务大厦(东一门)","lon":"121.49304","lat":"31.2868","category":"46","category_name":"楼宇","address":""},{"poiid":"B2094757D064A3FF429B","title":"123路终点站","lon":"121.49377387","lat":"31.286794614","category":"38","category_name":"公交车站","address":"上海巴林路伊敏河路"},{"poiid":"B2094757D16DABF4459A","title":"曲阳街道社区卫生服务中心","lon":"121.49486","lat":"31.28798","category":"162","category_name":"医院","address":"虹口区巴林路78号(近辉河路)"},{"poiid":"B2094655D36DA0FA4293","title":"伊敏河路","lon":"121.49334","lat":"31.28682","category":"38","category_name":"公交车站","address":""},{"poiid":"B2094750D665A7FA4593","title":"永和大王(易买得店)","lon":"121.491","lat":"31.2865","category":"68","category_name":"快餐厅","address":"虹口区曲阳路800号易买得内"},{"poiid":"B2094757D069A0FC449E","title":"吉盛伟邦(虹口店)","lon":"121.491561865","lat":"31.2864359407","category":"123","category_name":"家具建材市场","address":"虹口区曲阳路800号上海商务中心内(近中山北二路)"},{"poiid":"B2094655D26DA5F4429D","title":"上海商务中心商务大厦(西二门)","lon":"121.49118","lat":"31.28731","category":"46","category_name":"楼宇","address":"曲阳路806弄"},{"poiid":"B2094654D56DA0F9499E","title":"避风塘(天山宾馆东南)","lon":"121.49143","lat":"31.28757","category":"113","category_name":"冷饮店","address":"曲阳路800号乙D座"},{"poiid":"B2094757D06AA3FC4993","title":"东北人家","lon":"121.49083","lat":"31.28566","category":"82","category_name":"东北菜","address":"虹口区密云路536号(近赤峰路)"},{"poiid":"B2094757D168A0FD489E","title":"阿凡提大饭店","lon":"121.492341903","lat":"31.2888055065","category":"247","category_name":"餐饮美食","address":"上海东体育会路1099号"},{"poiid":"B2094757D06BA1FA4992","title":"巴林小区","lon":"121.49617","lat":"31.287172","category":"47","category_name":"住宅区","address":"巴林路61弄1-25号"},{"poiid":"B2094654D56DA0F5419D","title":"来伊份No.236","lon":"121.49341","lat":"31.287","category":"117","category_name":"便民商店/便利店","address":"伊敏河路64-66"},{"poiid":"B2094654D56DA0FA4699","title":"过街楼","lon":"121.49134","lat":"31.28703","category":"46","category_name":"楼宇","address":"曲阳路800号"},{"poiid":"B209475DD068A2FB4699","title":"东方明珠","lon":"121.491241","lat":"31.288419","category":"500","category_name":"未知分类","address":"上海市 外滩"},{"poiid":"B2094757D064A7F4489F","title":"亲亲天使婴儿游泳馆(曲阳店)","lon":"121.4929666","lat":"31.287138771","category":"500","category_name":"未知分类","address":"虹口区曲阳路900弄复城国际3号107室"},{"poiid":"B2094757D065AAFB429D","title":"銅鑼灣軒尼詩道","lon":"121.4931101","lat":"31.287159772","category":"252","category_name":"楼宇机构","address":"香港銅鑼灣軒尼詩道"},{"poiid":"B2094655D265A7FD4292","title":"曲阳路820弄小区(东一门)","lon":"121.49313","lat":"31.28809","category":"47","category_name":"住宅区","address":"曲阳路820弄1-59号"},{"poiid":"B2094655D26CA1F4449C","title":"上海商务中心商务大厦(西一门)","lon":"121.49115","lat":"31.2868","category":"46","category_name":"楼宇","address":""},{"poiid":"B2094757DA64A1F54199","title":"上海商务大厦","lon":"121.491709","lat":"31.28695","category":"252","category_name":"楼宇机构","address":"曲阳路800号"},{"poiid":"B2094757D06FA3FF499E","title":"曲阳路800号上海商务中心","lon":"121.491356","lat":"31.2865155564","category":"46","category_name":"楼宇","address":"上海曲阳路800号"},{"poiid":"B2094654D56DA0FA4798","title":"上海商务中心(伊敏河路)","lon":"121.49298","lat":"31.28647","category":"119","category_name":"商场","address":"杨浦曲阳路800-1"},{"poiid":"B2094757D064A3FA4698","title":"拉菲酒窖餐厅","lon":"121.492033103","lat":"31.2857107418","category":"72","category_name":"广东菜","address":"虹口区曲阳路666号"},{"poiid":"B2094757D06FA5F8489E","title":"盛鸿楼","lon":"121.49638175","lat":"31.287764874","category":"76","category_name":"上海菜","address":"虹口区中山北二路1800号(近曲阳商务中心)"},{"poiid":"B2094654DB6BA3FE449A","title":"岳阳医院(三号门)","lon":"121.48986","lat":"31.28835","category":"162","category_name":"医院","address":"虹口区甘河路110号"},{"poiid":"B2094757D068A2FD419A","title":"艾尼巴亿","lon":"121.49073","lat":"31.28714","category":"90","category_name":"清真餐馆","address":"虹口区曲阳路759号天山宾馆1楼(近中山北二路)"},{"poiid":"B2094757D06FA2F4409C","title":"易买得(曲阳店)","lon":"121.49134485","lat":"31.285770526","category":"118","category_name":"超级市场","address":"虹口区曲阳路800号上海商务中心内(近中山北二路)"},{"poiid":"B2094757D06FA1FB459F","title":"85度C(曲阳店)","lon":"121.49135","lat":"31.29053","category":"67","category_name":"甜品店","address":"虹口区曲阳路930号大柏树930创意园A幢101-201室(近腾克路)"},{"poiid":"B2094750D365A0FD419A","title":"虹口区婚姻登记中心","lon":"121.495216","lat":"31.288152","category":"248","category_name":"生活娱乐","address":"巴林路76号"},{"poiid":"B2094757D068A7F4449D","title":"竹家庄避风塘","lon":"121.49183672","lat":"31.290959271","category":"72","category_name":"广东菜","address":"虹口区曲阳路930号(近腾克路)"},{"poiid":"B2094757D069A7FD449B","title":"阿拉对面炭烤鱼","lon":"121.492078403","lat":"31.2886284028","category":"257","category_name":"中餐厅","address":"虹口区曲阳路789号(近腾克路)"},{"poiid":"B2094655D269AAF44092","title":"丝绸之路大饭店","lon":"121.49057","lat":"31.28855","category":"247","category_name":"餐饮美食","address":"虹口区曲阳路777号(近中山北二路)"},{"poiid":"B2094757D06AA6FF4692","title":"和平眼科医院","lon":"121.49337","lat":"31.28735","category":"162","category_name":"医院","address":"虹口区伊敏河路61号(近中山北二路)"},{"poiid":"B2094757D66AABFC4392","title":"阿凡提餐厅 虹口店","lon":"121.49020998538","lat":"31.28792419407","category":"84","category_name":"西北菜","address":"虹口区曲阳路775号天山宾馆B1楼(近中山北二路)"},{"poiid":"B2094757D06FA4F5489E","title":"捞王猪肚鸡(曲阳店)","lon":"121.49391088","lat":"31.288647664","category":"86","category_name":"火锅店","address":"虹口区伊敏河路76号"},{"poiid":"B2094757D068A7F44092","title":"味千拉面(大柏树店)","lon":"121.49148","lat":"31.2905","category":"95","category_name":"日本料理","address":"虹口区曲阳路930号大柏树930创意园内(近腾克路)"},{"poiid":"B2094757D068A2FF429A","title":"EZ time女仆执事咖啡店","lon":"121.49119459","lat":"31.288734891","category":"65","category_name":"咖啡厅","address":"上海曲阳路838号-3"},{"poiid":"B2094655D265A0FF409C","title":"优豪创展中心","lon":"121.494","lat":"31.2878","category":"46","category_name":"楼宇","address":"昌平区回龙观镇国际信息产业基地高新二街"},{"poiid":"B2094654D56DA0F44993","title":"上海和平眼科医院","lon":"121.4931","lat":"31.28758","category":"162","category_name":"医院","address":"虹口区伊敏河路61号和平眼科医院内"},{"poiid":"B2094757D068A6FF4993","title":"红宝石(伊敏河路店)","lon":"121.49382","lat":"31.28874","category":"67","category_name":"甜品店","address":"虹口区伊敏河路85号(近曲阳商务中心)"},{"poiid":"B2094757D06BA1FE419F","title":"蜀国川菜(虹口店)","lon":"121.49366","lat":"31.28623","category":"71","category_name":"四川菜","address":"虹口区伊敏河路32号(近中山北二路)"},{"poiid":"B2094757D069A1FC499A","title":"中国移动(曲阳路营业厅)","lon":"121.490539551","lat":"31.2866725922","category":"151","category_name":"电讯营业厅","address":"上海虹口区曲阳路721号"},{"poiid":"B2094655D36CA2F9409E","title":"曲阳路中山北二路","lon":"121.49078","lat":"31.28541","category":"38","category_name":"公交车站","address":""},{"poiid":"B2094750D76DABF84698","title":"吉祥馄饨(伊敏河路店)","lon":"121.493","lat":"31.287","category":"68","category_name":"快餐厅","address":"虹口区伊敏河路66号(近巴林路)"},{"poiid":"B2094655D26DA5FD4198","title":"复城国际住宅区","lon":"121.49311","lat":"31.28938","category":"47","category_name":"住宅区","address":"伊敏河路99弄"},{"poiid":"B2094655D26CA1F44493","title":"上海商务中心商务大厦(东二门)","lon":"121.49307","lat":"31.28732","category":"46","category_name":"楼宇","address":""},{"poiid":"B2094655D36CA2FD499B","title":"曲阳路820弄小区","lon":"121.49235","lat":"31.28806","category":"47","category_name":"住宅区","address":"曲阳路820弄1-59号"},{"poiid":"B2094654D56DA0FA479A","title":"上海商务中心家电城","lon":"121.49224","lat":"31.28646","category":"138","category_name":"家电电子卖场","address":"虹口区曲阳路800号(近中山北二路)"},{"poiid":"B2094757D068A2FA459D","title":"工商银行(虹口支行)","lon":"121.492248","lat":"31.286457","category":"150","category_name":"银行","address":"上海虹口区曲阳路800号商务中心内"},{"poiid":"B2094655D36DA0FA439A","title":"伊敏河路巴林路","lon":"121.49328","lat":"31.28757","category":"38","category_name":"公交车站","address":""},{"poiid":"B2094654DB6AA3F5419C","title":"小杨生煎 曲阳路店","lon":"121.491071054","lat":"31.287132793","category":"247","category_name":"餐饮美食","address":"虹口区曲阳路810号(近中山北二路)"},{"poiid":"B2094655D26CA1F44492","title":"上海商务中心商务大厦(东一门)","lon":"121.49304","lat":"31.2868","category":"46","category_name":"楼宇","address":""},{"poiid":"B2094757D064A3FF429B","title":"123路终点站","lon":"121.49377387","lat":"31.286794614","category":"38","category_name":"公交车站","address":"上海巴林路伊敏河路"},{"poiid":"B2094757D16DABF4459A","title":"曲阳街道社区卫生服务中心","lon":"121.49486","lat":"31.28798","category":"162","category_name":"医院","address":"虹口区巴林路78号(近辉河路)"},{"poiid":"B2094655D36DA0FA4293","title":"伊敏河路","lon":"121.49334","lat":"31.28682","category":"38","category_name":"公交车站","address":""},{"poiid":"B2094750D665A7FA4593","title":"永和大王(易买得店)","lon":"121.491","lat":"31.2865","category":"68","category_name":"快餐厅","address":"虹口区曲阳路800号易买得内"},{"poiid":"B2094757D069A0FC449E","title":"吉盛伟邦(虹口店)","lon":"121.491561865","lat":"31.2864359407","category":"123","category_name":"家具建材市场","address":"虹口区曲阳路800号上海商务中心内(近中山北二路)"},{"poiid":"B2094655D26DA5F4429D","title":"上海商务中心商务大厦(西二门)","lon":"121.49118","lat":"31.28731","category":"46","category_name":"楼宇","address":"曲阳路806弄"},{"poiid":"B2094654D56DA0F9499E","title":"避风塘(天山宾馆东南)","lon":"121.49143","lat":"31.28757","category":"113","category_name":"冷饮店","address":"曲阳路800号乙D座"},{"poiid":"B2094757D06AA3FC4993","title":"东北人家","lon":"121.49083","lat":"31.28566","category":"82","category_name":"东北菜","address":"虹口区密云路536号(近赤峰路)"},{"poiid":"B2094757D168A0FD489E","title":"阿凡提大饭店","lon":"121.492341903","lat":"31.2888055065","category":"247","category_name":"餐饮美食","address":"上海东体育会路1099号"},{"poiid":"B2094757D06BA1FA4992","title":"巴林小区","lon":"121.49617","lat":"31.287172","category":"47","category_name":"住宅区","address":"巴林路61弄1-25号"},{"poiid":"B2094654D56DA0F5419D","title":"来伊份No.236","lon":"121.49341","lat":"31.287","category":"117","category_name":"便民商店/便利店","address":"伊敏河路64-66"},{"poiid":"B2094654D56DA0FA4699","title":"过街楼","lon":"121.49134","lat":"31.28703","category":"46","category_name":"楼宇","address":"曲阳路800号"},{"poiid":"B209475DD068A2FB4699","title":"东方明珠","lon":"121.491241","lat":"31.288419","category":"500","category_name":"未知分类","address":"上海市 外滩"},{"poiid":"B2094757D064A7F4489F","title":"亲亲天使婴儿游泳馆(曲阳店)","lon":"121.4929666","lat":"31.287138771","category":"500","category_name":"未知分类","address":"虹口区曲阳路900弄复城国际3号107室"},{"poiid":"B2094757D065AAFB429D","title":"銅鑼灣軒尼詩道","lon":"121.4931101","lat":"31.287159772","category":"252","category_name":"楼宇机构","address":"香港銅鑼灣軒尼詩道"},{"poiid":"B2094655D265A7FD4292","title":"曲阳路820弄小区(东一门)","lon":"121.49313","lat":"31.28809","category":"47","category_name":"住宅区","address":"曲阳路820弄1-59号"},{"poiid":"B2094655D26CA1F4449C","title":"上海商务中心商务大厦(西一门)","lon":"121.49115","lat":"31.2868","category":"46","category_name":"楼宇","address":""},{"poiid":"B2094757DA64A1F54199","title":"上海商务大厦","lon":"121.491709","lat":"31.28695","category":"252","category_name":"楼宇机构","address":"曲阳路800号"}]