[{"poiid":"B2094654D468A5FC419F","title":"上海市崇明岛八一路步行街","lon":"121.39627","lat":"31.62607","category":"116","category_name":"特色商业街","address":""},{"poiid":"B2094757D064A4FC499E","title":"崇明岛","lon":"121.395029773","lat":"31.6211386151","category":"500","category_name":"未知分类","address":"上海市崇明县，长江入海口"},{"poiid":"B2094757D069A4F4499F","title":"新华医院(崇明分院)","lon":"121.39975485","lat":"31.617747801","category":"162","category_name":"医院","address":"近郊崇明县南门港街25号"},{"poiid":"B2094757D06BA4F8469C","title":"新崇大酒店","lon":"121.428308773","lat":"31.6310526006","category":"217","category_name":"旅馆招待所","address":"上海鼓浪屿路"},{"poiid":"B2094757D068AAF9429A","title":"崇明新城公园","lon":"121.422427178","lat":"31.6203458314","category":"196","category_name":"公园","address":"近郊崇明县崇明大道(近江帆路)"},{"poiid":"B2094752D265A6FF469F","title":"星巴克","lon":"121.399594","lat":"31.621763","category":"247","category_name":"餐饮美食","address":"近郊崇明县城桥镇八一路206号(近富民路)"},{"poiid":"B2094757D068AAF5439E","title":"上海瀛通大酒店","lon":"121.39709519","lat":"31.626996549","category":"213","category_name":"五星级宾馆","address":"上海崇明县北门路190号"},{"poiid":"B2094757D069AAFE479D","title":"鼓浪屿路","lon":"121.415303","lat":"31.624593","category":"148","category_name":"美容美发店","address":"上海市崇明县城桥镇鼓浪屿路"},{"poiid":"B2094757D069A2F4449E","title":"天鹤大酒店","lon":"121.395997","lat":"31.619362","category":"215","category_name":"三星级宾馆","address":"近郊崇明县南门路178号(近西门路)"},{"poiid":"B2094757D064AAFB479B","title":"麦盛莉酒楼(崇明店)","lon":"121.40300887","lat":"31.624452777","category":"76","category_name":"上海菜","address":"上海近郊崇明县东门路268号(近一江山路)  "},{"poiid":"B2094752D26EA5FF4892","title":"八一广场","lon":"121.395859","lat":"31.620726","category":"247","category_name":"餐饮美食","address":"八一路192"},{"poiid":"B2094757D06AA3F94493","title":"锦绣宾馆","lon":"121.399420773","lat":"31.6221266336","category":"217","category_name":"旅馆招待所","address":"上海市崇明县新崇南路"},{"poiid":"B2094757D068A4F8449D","title":"肯德基 KFC (崇明店)","lon":"121.395886","lat":"31.619948","category":"68","category_name":"快餐厅","address":"近郊崇明城桥镇八一路118号(富民街新崇南路)"},{"poiid":"B2094654D468A5FC469F","title":"上海市崇明中学","lon":"121.41484","lat":"31.63996","category":"55","category_name":"中学","address":"近郊崇明县东引路"},{"poiid":"B2094654D468A7F4409F","title":"一只菜","lon":"121.400824054","lat":"31.619583793","category":"76","category_name":"上海菜","address":"上海近郊崇明区城桥东门路119号(近新崇南路)  "},{"poiid":"B2094654D468A7FF4993","title":"瀛洲公园","lon":"121.40169","lat":"31.61769","category":"196","category_name":"公园","address":"近郊崇明城桥镇鳌山路1号(崇明东门路崇明南门路)"},{"poiid":"B2094655D264A0F84393","title":"达安御廷","lon":"121.41489","lat":"31.628813","category":"47","category_name":"住宅区","address":"崇明城桥镇玉环路128号"},{"poiid":"B2094757D66BA3F94998","title":"恒瑞饭店","lon":"121.4125258","lat":"31.6248958","category":"76","category_name":"上海菜","address":"近郊崇明一江山路(东引路口)"},{"poiid":"B2094654DB65A6F54298","title":"肯德基(北门路店)","lon":"121.39693","lat":"31.62637","category":"68","category_name":"快餐厅","address":"近郊崇明城桥镇八一路(崇明电影院旁)"},{"poiid":"B2094757D568ABF9479F","title":"南门景观大堤","lon":"121.40000515","lat":"31.61587755","category":"250","category_name":"公园户外","address":"中国上海市崇明县东门路"},{"poiid":"B2094757D064A5FD4293","title":"绿色时代生态大酒店","lon":"121.40224786","lat":"31.620648793","category":"76","category_name":"上海菜","address":"近郊崇明学宫路38号(东门路口)"},{"poiid":"B2094757DB6CA3FF4293","title":"上海紫京大酒店","lon":"121.409869194","lat":"31.621073084","category":"215","category_name":"三星级宾馆","address":"上海市崇明县寒山寺路88号,t"},{"poiid":"B2094757D169A0FF439F","title":"湄洲新村","lon":"121.415","lat":"31.6267","category":"47","category_name":"住宅区","address":"上海崇明县城桥镇湄洲新村"},{"poiid":"B2094654D468A6FA4798","title":"上海市扬子中学","lon":"121.40152","lat":"31.62665","category":"55","category_name":"中学","address":"近郊崇明县城桥镇北门路58号(崇明北门路崇明西门路)"},{"poiid":"B2094654D468A7F8409A","title":"崇明影剧院","lon":"121.39693","lat":"31.62637","category":"178","category_name":"电影院","address":"近郊崇明县城桥镇八一路488号(近北门路)"},{"poiid":"B2094654D468A7FA4798","title":"崇明县东门中学","lon":"121.41004","lat":"31.62606","category":"55","category_name":"中学","address":"湄洲路388号"},{"poiid":"B2094757D16AA1FC499B","title":"崇明县青少年活动中心","lon":"121.415665813","lat":"31.6233728169","category":"500","category_name":"未知分类","address":"近郊崇明城桥镇湄洲路228弄8号"},{"poiid":"B2094654D468A5FC4693","title":"江山新村","lon":"121.40771","lat":"31.627924","category":"47","category_name":"住宅区","address":"江山新村"},{"poiid":"B2094757D164A3FF4299","title":"崇明体育馆","lon":"121.400255189","lat":"31.6266484615","category":"500","category_name":"未知分类","address":"上海崇明县北门路"},{"poiid":"B2094654D468A6FB459D","title":"华湄大楼","lon":"121.40888","lat":"31.62156","category":"46","category_name":"楼宇","address":""},{"poiid":"B2094654DB6AA6FF4493","title":"上海顺利大酒店","lon":"121.39971","lat":"31.62037","category":"215","category_name":"三星级宾馆","address":"近郊崇明县新崇南路38号(近锦绣宾馆)"},{"poiid":"B2094654D468A6FA4692","title":"上海盛源幼儿园","lon":"121.40979","lat":"31.62267","category":"57","category_name":"幼儿园","address":"湄洲路280"},{"poiid":"B2094654D468A7FF4992","title":"学宫新村","lon":"121.40978225465","lat":"31.626444790019","category":"47","category_name":"住宅区","address":"学宫新村"},{"poiid":"B2094654D468A7FF479D","title":"上海电视大学崇明分校","lon":"121.40451","lat":"31.63202","category":"52","category_name":"高等院校","address":"近郊崇明东门路557号(崇明北门路一江山路)"},{"poiid":"B2094757D66DA2FB439A","title":"江山羊蝎子火锅店","lon":"121.4095","lat":"31.62517","category":"86","category_name":"火锅店","address":"近郊崇明县东引路18号(近一江山路)"},{"poiid":"B2094757D16BA0F4459C","title":"崇明县新城会议中心","lon":"121.427037473","lat":"31.6246731213","category":"500","category_name":"未知分类","address":"上海翠竹路"},{"poiid":"B2094654D468A7F84093","title":"寿安寺","lon":"121.42176","lat":"31.61457","category":"244","category_name":"寺庙道观","address":"崇明县城桥镇鳌山村涛声路1188号"},{"poiid":"B2094757D66DA5F54992","title":"紫晶商务酒店","lon":"121.41015877","lat":"31.620807609","category":"500","category_name":"未知分类","address":"近郊寒山寺路88号"},{"poiid":"B2094757D065A1F9419D","title":"八一路","lon":"121.406987273","lat":"31.6288652597","category":"500","category_name":"未知分类","address":"上海崇明商业街"},{"poiid":"B2094757D66EA5FC4792","title":"绝对好迪","lon":"121.401529773","lat":"31.6234996593","category":"170","category_name":"KTV","address":"上海近郊崇明县南门东门  "},{"poiid":"B2094654D468A7FF4892","title":"寒山寺","lon":"121.40216","lat":"31.62354","category":"244","category_name":"寺庙道观","address":"东门路187号"},{"poiid":"B2094757D164A0FD459C","title":"玉环新村","lon":"121.40881","lat":"31.629862","category":"47","category_name":"住宅区","address":"上海市崇明县玉环路"},{"poiid":"B2094655D26EA1F5499F","title":"东门新村(崇明·东门路)","lon":"121.40525","lat":"31.63073","category":"47","category_name":"住宅区","address":""},{"poiid":"B2094654D468A5FE499D","title":"天赐商务酒店","lon":"121.40845","lat":"31.62549","category":"250","category_name":"公园户外","address":"近郊崇明县江山路508号"},{"poiid":"B2094757D568A2F54392","title":"绿岛阳光苑(西门)","lon":"121.4129758","lat":"31.62596083","category":"48","category_name":"楼宇大门","address":"中国上海市崇明县"},{"poiid":"B2094654D468A5FC479A","title":"天赐景城","lon":"121.419","lat":"31.6346","category":"47","category_name":"住宅区","address":"上海崇明县玉环路98弄"},{"poiid":"B2094757D16DA7FE4492","title":"崇明县中心医院","lon":"121.400120739","lat":"31.618085368","category":"162","category_name":"医院","address":"近郊崇明县南门路25号(永乐家电旁)"},{"poiid":"B2094757D665A1F4499F","title":"诺欧咖啡","lon":"121.4101751","lat":"31.6285583","category":"260","category_name":"其他","address":"近郊崇明县城桥镇玉环路68号"},{"poiid":"B2094757D06BAAFE439A","title":"杰杰斯酒吧","lon":"121.400012773","lat":"31.6268097212","category":"172","category_name":"酒吧","address":"近郊崇明县城桥镇北门路98号华君商务宾馆2楼(近八一路)"},{"poiid":"B2094757D065A1FC4598","title":"老板娘大酒店(崇明店)","lon":"121.39662785","lat":"31.61854281","category":"75","category_name":"浙江菜","address":"近郊崇明县城桥镇南门路166号(八一路崇明南门路)"},{"poiid":"B2094654D468A5FC419F","title":"上海市崇明岛八一路步行街","lon":"121.39627","lat":"31.62607","category":"116","category_name":"特色商业街","address":""},{"poiid":"B2094757D064A4FC499E","title":"崇明岛","lon":"121.395029773","lat":"31.6211386151","category":"500","category_name":"未知分类","address":"上海市崇明县，长江入海口"},{"poiid":"B2094757D069A4F4499F","title":"新华医院(崇明分院)","lon":"121.39975485","lat":"31.617747801","category":"162","category_name":"医院","address":"近郊崇明县南门港街25号"},{"poiid":"B2094757D06BA4F8469C","title":"新崇大酒店","lon":"121.428308773","lat":"31.6310526006","category":"217","category_name":"旅馆招待所","address":"上海鼓浪屿路"},{"poiid":"B2094757D068AAF9429A","title":"崇明新城公园","lon":"121.422427178","lat":"31.6203458314","category":"196","category_name":"公园","address":"近郊崇明县崇明大道(近江帆路)"},{"poiid":"B2094752D265A6FF469F","title":"星巴克","lon":"121.399594","lat":"31.621763","category":"247","category_name":"餐饮美食","address":"近郊崇明县城桥镇八一路206号(近富民路)"},{"poiid":"B2094757D068AAF5439E","title":"上海瀛通大酒店","lon":"121.39709519","lat":"31.626996549","category":"213","category_name":"五星级宾馆","address":"上海崇明县北门路190号"},{"poiid":"B2094757D069AAFE479D","title":"鼓浪屿路","lon":"121.415303","lat":"31.624593","category":"148","category_name":"美容美发店","address":"上海市崇明县城桥镇鼓浪屿路"},{"poiid":"B2094757D069A2F4449E","title":"天鹤大酒店","lon":"121.395997","lat":"31.619362","category":"215","category_name":"三星级宾馆","address":"近郊崇明县南门路178号(近西门路)"},{"poiid":"B2094757D064AAFB479B","title":"麦盛莉酒楼(崇明店)","lon":"121.40300887","lat":"31.624452777","category":"76","category_name":"上海菜","address":"上海近郊崇明县东门路268号(近一江山路)  "},{"poiid":"B2094752D26EA5FF4892","title":"八一广场","lon":"121.395859","lat":"31.620726","category":"247","category_name":"餐饮美食","address":"八一路192"},{"poiid":"B2094757D06AA3F94493","title":"锦绣宾馆","lon":"121.399420773","lat":"31.6221266336","category":"217","category_name":"旅馆招待所","address":"上海市崇明县新崇南路"},{"poiid":"B2094757D068A4F8449D","title":"肯德基 KFC (崇明店)","lon":"121.395886","lat":"31.619948","category":"68","category_name":"快餐厅","address":"近郊崇明城桥镇八一路118号(富民街新崇南路)"},{"poiid":"B2094654D468A5FC469F","title":"上海市崇明中学","lon":"121.41484","lat":"31.63996","category":"55","category_name":"中学","address":"近郊崇明县东引路"},{"poiid":"B2094654D468A7F4409F","title":"一只菜","lon":"121.400824054","lat":"31.619583793","category":"76","category_name":"上海菜","address":"上海近郊崇明区城桥东门路119号(近新崇南路)  "},{"poiid":"B2094654D468A7FF4993","title":"瀛洲公园","lon":"121.40169","lat":"31.61769","category":"196","category_name":"公园","address":"近郊崇明城桥镇鳌山路1号(崇明东门路崇明南门路)"},{"poiid":"B2094655D264A0F84393","title":"达安御廷","lon":"121.41489","lat":"31.628813","category":"47","category_name":"住宅区","address":"崇明城桥镇玉环路128号"},{"poiid":"B2094757D66BA3F94998","title":"恒瑞饭店","lon":"121.4125258","lat":"31.6248958","category":"76","category_name":"上海菜","address":"近郊崇明一江山路(东引路口)"},{"poiid":"B2094654DB65A6F54298","title":"肯德基(北门路店)","lon":"121.39693","lat":"31.62637","category":"68","category_name":"快餐厅","address":"近郊崇明城桥镇八一路(崇明电影院旁)"},{"poiid":"B2094757D568ABF9479F","title":"南门景观大堤","lon":"121.40000515","lat":"31.61587755","category":"250","category_name":"公园户外","address":"中国上海市崇明县东门路"},{"poiid":"B2094757D064A5FD4293","title":"绿色时代生态大酒店","lon":"121.40224786","lat":"31.620648793","category":"76","category_name":"上海菜","address":"近郊崇明学宫路38号(东门路口)"},{"poiid":"B2094757DB6CA3FF4293","title":"上海紫京大酒店","lon":"121.409869194","lat":"31.621073084","category":"215","category_name":"三星级宾馆","address":"上海市崇明县寒山寺路88号,t"},{"poiid":"B2094757D169A0FF439F","title":"湄洲新村","lon":"121.415","lat":"31.6267","category":"47","category_name":"住宅区","address":"上海崇明县城桥镇湄洲新村"},{"poiid":"B2094654D468A6FA4798","title":"上海市扬子中学","lon":"121.40152","lat":"31.62665","category":"55","category_name":"中学","address":"近郊崇明县城桥镇北门路58号(崇明北门路崇明西门路)"},{"poiid":"B2094654D468A7F8409A","title":"崇明影剧院","lon":"121.39693","lat":"31.62637","category":"178","category_name":"电影院","address":"近郊崇明县城桥镇八一路488号(近北门路)"},{"poiid":"B2094654D468A7FA4798","title":"崇明县东门中学","lon":"121.41004","lat":"31.62606","category":"55","category_name":"中学","address":"湄洲路388号"},{"poiid":"B2094757D16AA1FC499B","title":"崇明县青少年活动中心","lon":"121.415665813","lat":"31.6233728169","category":"500","category_name":"未知分类","address":"近郊崇明城桥镇湄洲路228弄8号"},{"poiid":"B2094654D468A5FC4693","title":"江山新村","lon":"121.40771","lat":"31.627924","category":"47","category_name":"住宅区","address":"江山新村"},{"poiid":"B2094757D164A3FF4299","title":"崇明体育馆","lon":"121.400255189","lat":"31.6266484615","category":"500","category_name":"未知分类","address":"上海崇明县北门路"},{"poiid":"B2094654D468A6FB459D","title":"华湄大楼","lon":"121.40888","lat":"31.62156","category":"46","category_name":"楼宇","address":""},{"poiid":"B2094654DB6AA6FF4493","title":"上海顺利大酒店","lon":"121.39971","lat":"31.62037","category":"215","category_name":"三星级宾馆","address":"近郊崇明县新崇南路38号(近锦绣宾馆)"},{"poiid":"B2094654D468A6FA4692","title":"上海盛源幼儿园","lon":"121.40979","lat":"31.62267","category":"57","category_name":"幼儿园","address":"湄洲路280"},{"poiid":"B2094654D468A7FF4992","title":"学宫新村","lon":"121.40978225465","lat":"31.626444790019","category":"47","category_name":"住宅区","address":"学宫新村"},{"poiid":"B2094654D468A7FF479D","title":"上海电视大学崇明分校","lon":"121.40451","lat":"31.63202","category":"52","category_name":"高等院校","address":"近郊崇明东门路557号(崇明北门路一江山路)"},{"poiid":"B2094757D66DA2FB439A","title":"江山羊蝎子火锅店","lon":"121.4095","lat":"31.62517","category":"86","category_name":"火锅店","address":"近郊崇明县东引路18号(近一江山路)"},{"poiid":"B2094757D16BA0F4459C","title":"崇明县新城会议中心","lon":"121.427037473","lat":"31.6246731213","category":"500","category_name":"未知分类","address":"上海翠竹路"},{"poiid":"B2094654D468A7F84093","title":"寿安寺","lon":"121.42176","lat":"31.61457","category":"244","category_name":"寺庙道观","address":"崇明县城桥镇鳌山村涛声路1188号"},{"poiid":"B2094757D66DA5F54992","title":"紫晶商务酒店","lon":"121.41015877","lat":"31.620807609","category":"500","category_name":"未知分类","address":"近郊寒山寺路88号"},{"poiid":"B2094757D065A1F9419D","title":"八一路","lon":"121.406987273","lat":"31.6288652597","category":"500","category_name":"未知分类","address":"上海崇明商业街"},{"poiid":"B2094757D66EA5FC4792","title":"绝对好迪","lon":"121.401529773","lat":"31.6234996593","category":"170","category_name":"KTV","address":"上海近郊崇明县南门东门  "},{"poiid":"B2094654D468A7FF4892","title":"寒山寺","lon":"121.40216","lat":"31.62354","category":"244","category_name":"寺庙道观","address":"东门路187号"},{"poiid":"B2094757D164A0FD459C","title":"玉环新村","lon":"121.40881","lat":"31.629862","category":"47","category_name":"住宅区","address":"上海市崇明县玉环路"},{"poiid":"B2094655D26EA1F5499F","title":"东门新村(崇明·东门路)","lon":"121.40525","lat":"31.63073","category":"47","category_name":"住宅区","address":""},{"poiid":"B2094654D468A5FE499D","title":"天赐商务酒店","lon":"121.40845","lat":"31.62549","category":"250","category_name":"公园户外","address":"近郊崇明县江山路508号"},{"poiid":"B2094757D568A2F54392","title":"绿岛阳光苑(西门)","lon":"121.4129758","lat":"31.62596083","category":"48","category_name":"楼宇大门","address":"中国上海市崇明县"},{"poiid":"B2094654D468A5FC479A","title":"天赐景城","lon":"121.419","lat":"31.6346","category":"47","category_name":"住宅区","address":"上海崇明县玉环路98弄"},{"poiid":"B2094757D16DA7FE4492","title":"崇明县中心医院","lon":"121.400120739","lat":"31.618085368","category":"162","category_name":"医院","address":"近郊崇明县南门路25号(永乐家电旁)"},{"poiid":"B2094757D665A1F4499F","title":"诺欧咖啡","lon":"121.4101751","lat":"31.6285583","category":"260","category_name":"其他","address":"近郊崇明县城桥镇玉环路68号"},{"poiid":"B2094757D06BAAFE439A","title":"杰杰斯酒吧","lon":"121.400012773","lat":"31.6268097212","category":"172","category_name":"酒吧","address":"近郊崇明县城桥镇北门路98号华君商务宾馆2楼(近八一路)"},{"poiid":"B2094757D065A1FC4598","title":"老板娘大酒店(崇明店)","lon":"121.39662785","lat":"31.61854281","category":"75","category_name":"浙江菜","address":"近郊崇明县城桥镇南门路166号(八一路崇明南门路)"},{"poiid":"B2094654D468A5FC419F","title":"上海市崇明岛八一路步行街","lon":"121.39627","lat":"31.62607","category":"116","category_name":"特色商业街","address":""},{"poiid":"B2094757D064A4FC499E","title":"崇明岛","lon":"121.395029773","lat":"31.6211386151","category":"500","category_name":"未知分类","address":"上海市崇明县，长江入海口"},{"poiid":"B2094757D069A4F4499F","title":"新华医院(崇明分院)","lon":"121.39975485","lat":"31.617747801","category":"162","category_name":"医院","address":"近郊崇明县南门港街25号"},{"poiid":"B2094757D06BA4F8469C","title":"新崇大酒店","lon":"121.428308773","lat":"31.6310526006","category":"217","category_name":"旅馆招待所","address":"上海鼓浪屿路"},{"poiid":"B2094757D068AAF9429A","title":"崇明新城公园","lon":"121.422427178","lat":"31.6203458314","category":"196","category_name":"公园","address":"近郊崇明县崇明大道(近江帆路)"},{"poiid":"B2094752D265A6FF469F","title":"星巴克","lon":"121.399594","lat":"31.621763","category":"247","category_name":"餐饮美食","address":"近郊崇明县城桥镇八一路206号(近富民路)"},{"poiid":"B2094757D068AAF5439E","title":"上海瀛通大酒店","lon":"121.39709519","lat":"31.626996549","category":"213","category_name":"五星级宾馆","address":"上海崇明县北门路190号"},{"poiid":"B2094757D069AAFE479D","title":"鼓浪屿路","lon":"121.415303","lat":"31.624593","category":"148","category_name":"美容美发店","address":"上海市崇明县城桥镇鼓浪屿路"},{"poiid":"B2094757D069A2F4449E","title":"天鹤大酒店","lon":"121.395997","lat":"31.619362","category":"215","category_name":"三星级宾馆","address":"近郊崇明县南门路178号(近西门路)"},{"poiid":"B2094757D064AAFB479B","title":"麦盛莉酒楼(崇明店)","lon":"121.40300887","lat":"31.624452777","category":"76","category_name":"上海菜","address":"上海近郊崇明县东门路268号(近一江山路)  "},{"poiid":"B2094752D26EA5FF4892","title":"八一广场","lon":"121.395859","lat":"31.620726","category":"247","category_name":"餐饮美食","address":"八一路192"},{"poiid":"B2094757D06AA3F94493","title":"锦绣宾馆","lon":"121.399420773","lat":"31.6221266336","category":"217","category_name":"旅馆招待所","address":"上海市崇明县新崇南路"},{"poiid":"B2094757D068A4F8449D","title":"肯德基 KFC (崇明店)","lon":"121.395886","lat":"31.619948","category":"68","category_name":"快餐厅","address":"近郊崇明城桥镇八一路118号(富民街新崇南路)"},{"poiid":"B2094654D468A5FC469F","title":"上海市崇明中学","lon":"121.41484","lat":"31.63996","category":"55","category_name":"中学","address":"近郊崇明县东引路"},{"poiid":"B2094654D468A7F4409F","title":"一只菜","lon":"121.400824054","lat":"31.619583793","category":"76","category_name":"上海菜","address":"上海近郊崇明区城桥东门路119号(近新崇南路)  "},{"poiid":"B2094654D468A7FF4993","title":"瀛洲公园","lon":"121.40169","lat":"31.61769","category":"196","category_name":"公园","address":"近郊崇明城桥镇鳌山路1号(崇明东门路崇明南门路)"},{"poiid":"B2094655D264A0F84393","title":"达安御廷","lon":"121.41489","lat":"31.628813","category":"47","category_name":"住宅区","address":"崇明城桥镇玉环路128号"},{"poiid":"B2094757D66BA3F94998","title":"恒瑞饭店","lon":"121.4125258","lat":"31.6248958","category":"76","category_name":"上海菜","address":"近郊崇明一江山路(东引路口)"},{"poiid":"B2094654DB65A6F54298","title":"肯德基(北门路店)","lon":"121.39693","lat":"31.62637","category":"68","category_name":"快餐厅","address":"近郊崇明城桥镇八一路(崇明电影院旁)"},{"poiid":"B2094757D568ABF9479F","title":"南门景观大堤","lon":"121.40000515","lat":"31.61587755","category":"250","category_name":"公园户外","address":"中国上海市崇明县东门路"},{"poiid":"B2094757D064A5FD4293","title":"绿色时代生态大酒店","lon":"121.40224786","lat":"31.620648793","category":"76","category_name":"上海菜","address":"近郊崇明学宫路38号(东门路口)"},{"poiid":"B2094757DB6CA3FF4293","title":"上海紫京大酒店","lon":"121.409869194","lat":"31.621073084","category":"215","category_name":"三星级宾馆","address":"上海市崇明县寒山寺路88号,t"},{"poiid":"B2094757D169A0FF439F","title":"湄洲新村","lon":"121.415","lat":"31.6267","category":"47","category_name":"住宅区","address":"上海崇明县城桥镇湄洲新村"},{"poiid":"B2094654D468A6FA4798","title":"上海市扬子中学","lon":"121.40152","lat":"31.62665","category":"55","category_name":"中学","address":"近郊崇明县城桥镇北门路58号(崇明北门路崇明西门路)"},{"poiid":"B2094654D468A7F8409A","title":"崇明影剧院","lon":"121.39693","lat":"31.62637","category":"178","category_name":"电影院","address":"近郊崇明县城桥镇八一路488号(近北门路)"},{"poiid":"B2094654D468A7FA4798","title":"崇明县东门中学","lon":"121.41004","lat":"31.62606","category":"55","category_name":"中学","address":"湄洲路388号"},{"poiid":"B2094757D16AA1FC499B","title":"崇明县青少年活动中心","lon":"121.415665813","lat":"31.6233728169","category":"500","category_name":"未知分类","address":"近郊崇明城桥镇湄洲路228弄8号"},{"poiid":"B2094654D468A5FC4693","title":"江山新村","lon":"121.40771","lat":"31.627924","category":"47","category_name":"住宅区","address":"江山新村"},{"poiid":"B2094757D164A3FF4299","title":"崇明体育馆","lon":"121.400255189","lat":"31.6266484615","category":"500","category_name":"未知分类","address":"上海崇明县北门路"},{"poiid":"B2094654D468A6FB459D","title":"华湄大楼","lon":"121.40888","lat":"31.62156","category":"46","category_name":"楼宇","address":""},{"poiid":"B2094654DB6AA6FF4493","title":"上海顺利大酒店","lon":"121.39971","lat":"31.62037","category":"215","category_name":"三星级宾馆","address":"近郊崇明县新崇南路38号(近锦绣宾馆)"},{"poiid":"B2094654D468A6FA4692","title":"上海盛源幼儿园","lon":"121.40979","lat":"31.62267","category":"57","category_name":"幼儿园","address":"湄洲路280"},{"poiid":"B2094654D468A7FF4992","title":"学宫新村","lon":"121.40978225465","lat":"31.626444790019","category":"47","category_name":"住宅区","address":"学宫新村"},{"poiid":"B2094654D468A7FF479D","title":"上海电视大学崇明分校","lon":"121.40451","lat":"31.63202","category":"52","category_name":"高等院校","address":"近郊崇明东门路557号(崇明北门路一江山路)"},{"poiid":"B2094757D66DA2FB439A","title":"江山羊蝎子火锅店","lon":"121.4095","lat":"31.62517","category":"86","category_name":"火锅店","address":"近郊崇明县东引路18号(近一江山路)"},{"poiid":"B2094757D16BA0F4459C","title":"崇明县新城会议中心","lon":"121.427037473","lat":"31.6246731213","category":"500","category_name":"未知分类","address":"上海翠竹路"},{"poiid":"B2094654D468A7F84093","title":"寿安寺","lon":"121.42176","lat":"31.61457","category":"244","category_name":"寺庙道观","address":"崇明县城桥镇鳌山村涛声路1188号"},{"poiid":"B2094757D66DA5F54992","title":"紫晶商务酒店","lon":"121.41015877","lat":"31.620807609","category":"500","category_name":"未知分类","address":"近郊寒山寺路88号"},{"poiid":"B2094757D065A1F9419D","title":"八一路","lon":"121.406987273","lat":"31.6288652597","category":"500","category_name":"未知分类","address":"上海崇明商业街"},{"poiid":"B2094757D66EA5FC4792","title":"绝对好迪","lon":"121.401529773","lat":"31.6234996593","category":"170","category_name":"KTV","address":"上海近郊崇明县南门东门  "},{"poiid":"B2094654D468A7FF4892","title":"寒山寺","lon":"121.40216","lat":"31.62354","category":"244","category_name":"寺庙道观","address":"东门路187号"},{"poiid":"B2094757D164A0FD459C","title":"玉环新村","lon":"121.40881","lat":"31.629862","category":"47","category_name":"住宅区","address":"上海市崇明县玉环路"},{"poiid":"B2094655D26EA1F5499F","title":"东门新村(崇明·东门路)","lon":"121.40525","lat":"31.63073","category":"47","category_name":"住宅区","address":""},{"poiid":"B2094654D468A5FE499D","title":"天赐商务酒店","lon":"121.40845","lat":"31.62549","category":"250","category_name":"公园户外","address":"近郊崇明县江山路508号"},{"poiid":"B2094757D568A2F54392","title":"绿岛阳光苑(西门)","lon":"121.4129758","lat":"31.62596083","category":"48","category_name":"楼宇大门","address":"中国上海市崇明县"},{"poiid":"B2094654D468A5FC479A","title":"天赐景城","lon":"121.419","lat":"31.6346","category":"47","category_name":"住宅区","address":"上海崇明县玉环路98弄"},{"poiid":"B2094757D16DA7FE4492","title":"崇明县中心医院","lon":"121.400120739","lat":"31.618085368","category":"162","category_name":"医院","address":"近郊崇明县南门路25号(永乐家电旁)"},{"poiid":"B2094757D665A1F4499F","title":"诺欧咖啡","lon":"121.4101751","lat":"31.6285583","category":"260","category_name":"其他","address":"近郊崇明县城桥镇玉环路68号"},{"poiid":"B2094757D06BAAFE439A","title":"杰杰斯酒吧","lon":"121.400012773","lat":"31.6268097212","category":"172","category_name":"酒吧","address":"近郊崇明县城桥镇北门路98号华君商务宾馆2楼(近八一路)"},{"poiid":"B2094757D065A1FC4598","title":"老板娘大酒店(崇明店)","lon":"121.39662785","lat":"31.61854281","category":"75","category_name":"浙江菜","address":"近郊崇明县城桥镇南门路166号(八一路崇明南门路)"},{"poiid":"B2094654D468A5FC419F","title":"上海市崇明岛八一路步行街","lon":"121.39627","lat":"31.62607","category":"116","category_name":"特色商业街","address":""},{"poiid":"B2094757D064A4FC499E","title":"崇明岛","lon":"121.395029773","lat":"31.6211386151","category":"500","category_name":"未知分类","address":"上海市崇明县，长江入海口"},{"poiid":"B2094757D069A4F4499F","title":"新华医院(崇明分院)","lon":"121.39975485","lat":"31.617747801","category":"162","category_name":"医院","address":"近郊崇明县南门港街25号"},{"poiid":"B2094757D06BA4F8469C","title":"新崇大酒店","lon":"121.428308773","lat":"31.6310526006","category":"217","category_name":"旅馆招待所","address":"上海鼓浪屿路"},{"poiid":"B2094757D068AAF9429A","title":"崇明新城公园","lon":"121.422427178","lat":"31.6203458314","category":"196","category_name":"公园","address":"近郊崇明县崇明大道(近江帆路)"},{"poiid":"B2094752D265A6FF469F","title":"星巴克","lon":"121.399594","lat":"31.621763","category":"247","category_name":"餐饮美食","address":"近郊崇明县城桥镇八一路206号(近富民路)"},{"poiid":"B2094757D068AAF5439E","title":"上海瀛通大酒店","lon":"121.39709519","lat":"31.626996549","category":"213","category_name":"五星级宾馆","address":"上海崇明县北门路190号"},{"poiid":"B2094757D069AAFE479D","title":"鼓浪屿路","lon":"121.415303","lat":"31.624593","category":"148","category_name":"美容美发店","address":"上海市崇明县城桥镇鼓浪屿路"},{"poiid":"B2094757D069A2F4449E","title":"天鹤大酒店","lon":"121.395997","lat":"31.619362","category":"215","category_name":"三星级宾馆","address":"近郊崇明县南门路178号(近西门路)"},{"poiid":"B2094757D064AAFB479B","title":"麦盛莉酒楼(崇明店)","lon":"121.40300887","lat":"31.624452777","category":"76","category_name":"上海菜","address":"上海近郊崇明县东门路268号(近一江山路)  "},{"poiid":"B2094752D26EA5FF4892","title":"八一广场","lon":"121.395859","lat":"31.620726","category":"247","category_name":"餐饮美食","address":"八一路192"},{"poiid":"B2094757D06AA3F94493","title":"锦绣宾馆","lon":"121.399420773","lat":"31.6221266336","category":"217","category_name":"旅馆招待所","address":"上海市崇明县新崇南路"},{"poiid":"B2094757D068A4F8449D","title":"肯德基 KFC (崇明店)","lon":"121.395886","lat":"31.619948","category":"68","category_name":"快餐厅","address":"近郊崇明城桥镇八一路118号(富民街新崇南路)"},{"poiid":"B2094654D468A5FC469F","title":"上海市崇明中学","lon":"121.41484","lat":"31.63996","category":"55","category_name":"中学","address":"近郊崇明县东引路"},{"poiid":"B2094654D468A7F4409F","title":"一只菜","lon":"121.400824054","lat":"31.619583793","category":"76","category_name":"上海菜","address":"上海近郊崇明区城桥东门路119号(近新崇南路)  "},{"poiid":"B2094654D468A7FF4993","title":"瀛洲公园","lon":"121.40169","lat":"31.61769","category":"196","category_name":"公园","address":"近郊崇明城桥镇鳌山路1号(崇明东门路崇明南门路)"},{"poiid":"B2094655D264A0F84393","title":"达安御廷","lon":"121.41489","lat":"31.628813","category":"47","category_name":"住宅区","address":"崇明城桥镇玉环路128号"},{"poiid":"B2094757D66BA3F94998","title":"恒瑞饭店","lon":"121.4125258","lat":"31.6248958","category":"76","category_name":"上海菜","address":"近郊崇明一江山路(东引路口)"},{"poiid":"B2094654DB65A6F54298","title":"肯德基(北门路店)","lon":"121.39693","lat":"31.62637","category":"68","category_name":"快餐厅","address":"近郊崇明城桥镇八一路(崇明电影院旁)"},{"poiid":"B2094757D568ABF9479F","title":"南门景观大堤","lon":"121.40000515","lat":"31.61587755","category":"250","category_name":"公园户外","address":"中国上海市崇明县东门路"},{"poiid":"B2094757D064A5FD4293","title":"绿色时代生态大酒店","lon":"121.40224786","lat":"31.620648793","category":"76","category_name":"上海菜","address":"近郊崇明学宫路38号(东门路口)"},{"poiid":"B2094757DB6CA3FF4293","title":"上海紫京大酒店","lon":"121.409869194","lat":"31.621073084","category":"215","category_name":"三星级宾馆","address":"上海市崇明县寒山寺路88号,t"},{"poiid":"B2094757D169A0FF439F","title":"湄洲新村","lon":"121.415","lat":"31.6267","category":"47","category_name":"住宅区","address":"上海崇明县城桥镇湄洲新村"},{"poiid":"B2094654D468A6FA4798","title":"上海市扬子中学","lon":"121.40152","lat":"31.62665","category":"55","category_name":"中学","address":"近郊崇明县城桥镇北门路58号(崇明北门路崇明西门路)"},{"poiid":"B2094654D468A7F8409A","title":"崇明影剧院","lon":"121.39693","lat":"31.62637","category":"178","category_name":"电影院","address":"近郊崇明县城桥镇八一路488号(近北门路)"},{"poiid":"B2094654D468A7FA4798","title":"崇明县东门中学","lon":"121.41004","lat":"31.62606","category":"55","category_name":"中学","address":"湄洲路388号"},{"poiid":"B2094757D16AA1FC499B","title":"崇明县青少年活动中心","lon":"121.415665813","lat":"31.6233728169","category":"500","category_name":"未知分类","address":"近郊崇明城桥镇湄洲路228弄8号"},{"poiid":"B2094654D468A5FC4693","title":"江山新村","lon":"121.40771","lat":"31.627924","category":"47","category_name":"住宅区","address":"江山新村"},{"poiid":"B2094757D164A3FF4299","title":"崇明体育馆","lon":"121.400255189","lat":"31.6266484615","category":"500","category_name":"未知分类","address":"上海崇明县北门路"},{"poiid":"B2094654D468A6FB459D","title":"华湄大楼","lon":"121.40888","lat":"31.62156","category":"46","category_name":"楼宇","address":""},{"poiid":"B2094654DB6AA6FF4493","title":"上海顺利大酒店","lon":"121.39971","lat":"31.62037","category":"215","category_name":"三星级宾馆","address":"近郊崇明县新崇南路38号(近锦绣宾馆)"},{"poiid":"B2094654D468A6FA4692","title":"上海盛源幼儿园","lon":"121.40979","lat":"31.62267","category":"57","category_name":"幼儿园","address":"湄洲路280"},{"poiid":"B2094654D468A7FF4992","title":"学宫新村","lon":"121.40978225465","lat":"31.626444790019","category":"47","category_name":"住宅区","address":"学宫新村"},{"poiid":"B2094654D468A7FF479D","title":"上海电视大学崇明分校","lon":"121.40451","lat":"31.63202","category":"52","category_name":"高等院校","address":"近郊崇明东门路557号(崇明北门路一江山路)"},{"poiid":"B2094757D66DA2FB439A","title":"江山羊蝎子火锅店","lon":"121.4095","lat":"31.62517","category":"86","category_name":"火锅店","address":"近郊崇明县东引路18号(近一江山路)"},{"poiid":"B2094757D16BA0F4459C","title":"崇明县新城会议中心","lon":"121.427037473","lat":"31.6246731213","category":"500","category_name":"未知分类","address":"上海翠竹路"},{"poiid":"B2094654D468A7F84093","title":"寿安寺","lon":"121.42176","lat":"31.61457","category":"244","category_name":"寺庙道观","address":"崇明县城桥镇鳌山村涛声路1188号"},{"poiid":"B2094757D66DA5F54992","title":"紫晶商务酒店","lon":"121.41015877","lat":"31.620807609","category":"500","category_name":"未知分类","address":"近郊寒山寺路88号"},{"poiid":"B2094757D065A1F9419D","title":"八一路","lon":"121.406987273","lat":"31.6288652597","category":"500","category_name":"未知分类","address":"上海崇明商业街"},{"poiid":"B2094757D66EA5FC4792","title":"绝对好迪","lon":"121.401529773","lat":"31.6234996593","category":"170","category_name":"KTV","address":"上海近郊崇明县南门东门  "},{"poiid":"B2094654D468A7FF4892","title":"寒山寺","lon":"121.40216","lat":"31.62354","category":"244","category_name":"寺庙道观","address":"东门路187号"},{"poiid":"B2094757D164A0FD459C","title":"玉环新村","lon":"121.40881","lat":"31.629862","category":"47","category_name":"住宅区","address":"上海市崇明县玉环路"},{"poiid":"B2094655D26EA1F5499F","title":"东门新村(崇明·东门路)","lon":"121.40525","lat":"31.63073","category":"47","category_name":"住宅区","address":""},{"poiid":"B2094654D468A5FE499D","title":"天赐商务酒店","lon":"121.40845","lat":"31.62549","category":"250","category_name":"公园户外","address":"近郊崇明县江山路508号"},{"poiid":"B2094757D568A2F54392","title":"绿岛阳光苑(西门)","lon":"121.4129758","lat":"31.62596083","category":"48","category_name":"楼宇大门","address":"中国上海市崇明县"},{"poiid":"B2094654D468A5FC479A","title":"天赐景城","lon":"121.419","lat":"31.6346","category":"47","category_name":"住宅区","address":"上海崇明县玉环路98弄"},{"poiid":"B2094757D16DA7FE4492","title":"崇明县中心医院","lon":"121.400120739","lat":"31.618085368","category":"162","category_name":"医院","address":"近郊崇明县南门路25号(永乐家电旁)"},{"poiid":"B2094757D665A1F4499F","title":"诺欧咖啡","lon":"121.4101751","lat":"31.6285583","category":"260","category_name":"其他","address":"近郊崇明县城桥镇玉环路68号"},{"poiid":"B2094757D06BAAFE439A","title":"杰杰斯酒吧","lon":"121.400012773","lat":"31.6268097212","category":"172","category_name":"酒吧","address":"近郊崇明县城桥镇北门路98号华君商务宾馆2楼(近八一路)"},{"poiid":"B2094757D065A1FC4598","title":"老板娘大酒店(崇明店)","lon":"121.39662785","lat":"31.61854281","category":"75","category_name":"浙江菜","address":"近郊崇明县城桥镇南门路166号(八一路崇明南门路)"}]