[{"poiid":"B2094757D06FA2FF4793","title":"崇明东平国家森林公园","lon":"121.48099265","lat":"31.675899162","category":"240","category_name":"国家级景点","address":"上海市崇明县501 County Rd"},{"poiid":"B2094757D568AAFE469F","title":"东平国家森林公园烧烤","lon":"121.48329","lat":"31.68793","category":"68","category_name":"快餐厅","address":"近郊崇明县北沿公路(建设路蟠龙路间)"},{"poiid":"B2094654D468A7FF4392","title":"怡沁园度假村","lon":"121.48361","lat":"31.67355","category":"207","category_name":"度假疗养场所","address":"近郊怡沁东路(崇明东平国家森林公园)"},{"poiid":"B2094654D468A7FE4898","title":"根宝足球基地","lon":"121.48516","lat":"31.6711","category":"230","category_name":"足球场","address":""},{"poiid":"B2094654D468A7FF4393","title":"上海宝岛度假村","lon":"121.47978","lat":"31.67344","category":"207","category_name":"度假疗养场所","address":"上海市崇明县东平国家森林公园南侧(大门正对面)"},{"poiid":"B2094757D16DA2F8449A","title":"龙群度假村","lon":"121.48606365","lat":"31.671018061","category":"500","category_name":"未知分类","address":"上海市崇明县东平国家森林公园南侧（根宝足球基地对面）"},{"poiid":"B2094654D468A7FF449B","title":"上海东平森林高尔夫俱乐部","lon":"121.48287","lat":"31.68472","category":"206","category_name":"高尔夫相关","address":"崇明森林旅游园区国家森林公园"},{"poiid":"B2094654DB6AA6F8409A","title":"上海滨江度假中心","lon":"121.48452","lat":"31.6731","category":"250","category_name":"公园户外","address":"近郊崇明北沿公路2079号(近东平国家森林公园)"},{"poiid":"B2094757D065A3FB479D","title":"紫海鹭缘","lon":"121.49504089","lat":"31.678144455","category":"500","category_name":"未知分类","address":"厦门北沿公路1022"},{"poiid":"B2094750D665A0FD439A","title":"十碗头","lon":"121.481","lat":"31.6768","category":"76","category_name":"上海菜","address":"近郊崇明县东平国家森林公园旁"},{"poiid":"B2094757D065A0F8409F","title":"外婆农家乐","lon":"121.462485403","lat":"31.6792779821","category":"247","category_name":"餐饮美食","address":"近郊崇明建设公路3425号(近森林公园)"},{"poiid":"B2094757D16BA1FF4492","title":"东平度假村","lon":"121.47255825","lat":"31.682161891","category":"500","category_name":"未知分类","address":"上海崇明县东风公路555号"},{"poiid":"B2094757D06AA7FF479E","title":"怡沁园度假村娱乐中心","lon":"121.47952065","lat":"31.669908039","category":"500","category_name":"未知分类","address":"上海市崇明县虹富路"},{"poiid":"B2094654DB6AA3FF499A","title":"宝岛度假村御花园中餐厅","lon":"121.48141","lat":"31.6768","category":"247","category_name":"餐饮美食","address":"近郊崇明县北沿公路(近东平国家森林公园南侧)"},{"poiid":"B2094750DA64A4F9459A","title":"崇明人家","lon":"121.467475","lat":"31.685295","category":"251","category_name":"出行住宿","address":"森林公园附近"},{"poiid":"B2094757D16BA4FC4992","title":"申农酒家","lon":"121.48133465","lat":"31.676218169","category":"247","category_name":"餐饮美食","address":"上海市崇明县501 County Rd"},{"poiid":"B2094757D16AAAF8419C","title":"嘉和苑度假村","lon":"121.48564605","lat":"31.66998684","category":"500","category_name":"未知分类","address":"崇明东平国家森林公园南侧(近根宝足球基地)"},{"poiid":"B2094757D06BAAFA419D","title":"根宝足球基地宾馆","lon":"121.485780653","lat":"31.6745086338","category":"217","category_name":"旅馆招待所","address":"上海近郊崇明东平国家森林公园南首  "},{"poiid":"B2094757D568A6FE4893","title":"上海德丽苑度假村","lon":"121.480955","lat":"31.676478","category":"207","category_name":"度假疗养场所","address":"崇明国家森林公园东首(崇明东风农场东侧、北沿公路2038号)"},{"poiid":"B2094654D468A7FF429D","title":"怡心苑度假村","lon":"121.48232","lat":"31.67545","category":"207","category_name":"度假疗养场所","address":""},{"poiid":"B2094750D76FA7FA439E","title":"望湖酒家","lon":"121.481","lat":"31.6768","category":"260","category_name":"其他","address":"近郊崇明东平森林公园里"},{"poiid":"B2094654D468A7FF419A","title":"月亮湖度假村","lon":"121.45975","lat":"31.69121","category":"207","category_name":"度假疗养场所","address":"近郊崇明建设镇效东村红梅12队(近建设路)"},{"poiid":"B2094654D468A7FF449A","title":"东平国家森林公园售票处","lon":"121.48119","lat":"31.67642","category":"33","category_name":"公园景点售票处","address":""},{"poiid":"B2094750D164A6FD4899","title":"上海金子湾农庄(江南三民文化村)","lon":"121.492556333542","lat":"31.6984043081132","category":"214","category_name":"四星级宾馆","address":"上海市崇明县林风公路2201号"},{"poiid":"B2094757D164AAF9469E","title":"杨浦区人民法院","lon":"121.481666453","lat":"31.675245049","category":"608","category_name":"法院","address":"上海市河间路29号"},{"poiid":"B2094757D16BA5FA4898","title":"上海地铁月亮湖度假村","lon":"121.485823653","lat":"31.6745031337","category":"260","category_name":"其他","address":"上海市崇明县建设公路北沿公路向西300米处"}]