[{"poiid":"B2094654D468A5FC419F","title":"上海市崇明岛八一路步行街","lon":"121.39627","lat":"31.62607","category":"116","category_name":"特色商业街","address":""},{"poiid":"B2094757D064A4FC499E","title":"崇明岛","lon":"121.395029773","lat":"31.6211386151","category":"500","category_name":"未知分类","address":"上海市崇明县，长江入海口"},{"poiid":"B2094757D069A4F4499F","title":"新华医院(崇明分院)","lon":"121.39975485","lat":"31.617747801","category":"162","category_name":"医院","address":"近郊崇明县南门港街25号"},{"poiid":"B2094757D06BA4F8469C","title":"新崇大酒店","lon":"121.428308773","lat":"31.6310526006","category":"217","category_name":"旅馆招待所","address":"上海鼓浪屿路"},{"poiid":"B2094757D068AAF9429A","title":"崇明新城公园","lon":"121.422427178","lat":"31.6203458314","category":"196","category_name":"公园","address":"近郊崇明县崇明大道(近江帆路)"},{"poiid":"B2094752D265A6FF469F","title":"星巴克","lon":"121.399594","lat":"31.621763","category":"247","category_name":"餐饮美食","address":"近郊崇明县城桥镇八一路206号(近富民路)"},{"poiid":"B2094757D068AAF5439E","title":"上海瀛通大酒店","lon":"121.39709519","lat":"31.626996549","category":"213","category_name":"五星级宾馆","address":"上海崇明县北门路190号"},{"poiid":"B2094757D069AAFE479D","title":"鼓浪屿路","lon":"121.415303","lat":"31.624593","category":"148","category_name":"美容美发店","address":"上海市崇明县城桥镇鼓浪屿路"},{"poiid":"B2094757D069A2F4449E","title":"天鹤大酒店","lon":"121.395997","lat":"31.619362","category":"215","category_name":"三星级宾馆","address":"近郊崇明县南门路178号(近西门路)"},{"poiid":"B2094757D064AAFB479B","title":"麦盛莉酒楼(崇明店)","lon":"121.40300887","lat":"31.624452777","category":"76","category_name":"上海菜","address":"上海近郊崇明县东门路268号(近一江山路)  "},{"poiid":"B2094752D26EA5FF4892","title":"八一广场","lon":"121.395859","lat":"31.620726","category":"247","category_name":"餐饮美食","address":"八一路192"},{"poiid":"B2094757D06AA3F94493","title":"锦绣宾馆","lon":"121.399420773","lat":"31.6221266336","category":"217","category_name":"旅馆招待所","address":"上海市崇明县新崇南路"},{"poiid":"B2094757D068A4F8449D","title":"肯德基 KFC (崇明店)","lon":"121.395886","lat":"31.619948","category":"68","category_name":"快餐厅","address":"近郊崇明城桥镇八一路118号(富民街新崇南路)"},{"poiid":"B2094654D468A5FC469F","title":"上海市崇明中学","lon":"121.41484","lat":"31.63996","category":"55","category_name":"中学","address":"近郊崇明县东引路"},{"poiid":"B2094654D468A7F4409F","title":"一只菜","lon":"121.400824054","lat":"31.619583793","category":"76","category_name":"上海菜","address":"上海近郊崇明区城桥东门路119号(近新崇南路)  "},{"poiid":"B2094654D468A7FF4993","title":"瀛洲公园","lon":"121.40169","lat":"31.61769","category":"196","category_name":"公园","address":"近郊崇明城桥镇鳌山路1号(崇明东门路崇明南门路)"},{"poiid":"B2094655D264A0F84393","title":"达安御廷","lon":"121.41489","lat":"31.628813","category":"47","category_name":"住宅区","address":"崇明城桥镇玉环路128号"},{"poiid":"B2094757D66BA3F94998","title":"恒瑞饭店","lon":"121.4125258","lat":"31.6248958","category":"76","category_name":"上海菜","address":"近郊崇明一江山路(东引路口)"},{"poiid":"B2094654DB65A6F54298","title":"肯德基(北门路店)","lon":"121.39693","lat":"31.62637","category":"68","category_name":"快餐厅","address":"近郊崇明城桥镇八一路(崇明电影院旁)"},{"poiid":"B2094757D568ABF9479F","title":"南门景观大堤","lon":"121.40000515","lat":"31.61587755","category":"250","category_name":"公园户外","address":"中国上海市崇明县东门路"},{"poiid":"B2094757D064A5FD4293","title":"绿色时代生态大酒店","lon":"121.40224786","lat":"31.620648793","category":"76","category_name":"上海菜","address":"近郊崇明学宫路38号(东门路口)"},{"poiid":"B2094757DB6CA3FF4293","title":"上海紫京大酒店","lon":"121.409869194","lat":"31.621073084","category":"215","category_name":"三星级宾馆","address":"上海市崇明县寒山寺路88号,t"},{"poiid":"B2094757D169A0FF439F","title":"湄洲新村","lon":"121.415","lat":"31.6267","category":"47","category_name":"住宅区","address":"上海崇明县城桥镇湄洲新村"},{"poiid":"B2094654D468A6FA4798","title":"上海市扬子中学","lon":"121.40152","lat":"31.62665","category":"55","category_name":"中学","address":"近郊崇明县城桥镇北门路58号(崇明北门路崇明西门路)"},{"poiid":"B2094654D468A7F8409A","title":"崇明影剧院","lon":"121.39693","lat":"31.62637","category":"178","category_name":"电影院","address":"近郊崇明县城桥镇八一路488号(近北门路)"},{"poiid":"B2094654D468A7FA4798","title":"崇明县东门中学","lon":"121.41004","lat":"31.62606","category":"55","category_name":"中学","address":"湄洲路388号"},{"poiid":"B2094757D16AA1FC499B","title":"崇明县青少年活动中心","lon":"121.415665813","lat":"31.6233728169","category":"500","category_name":"未知分类","address":"近郊崇明城桥镇湄洲路228弄8号"},{"poiid":"B2094654D468A5FC4693","title":"江山新村","lon":"121.40771","lat":"31.627924","category":"47","category_name":"住宅区","address":"江山新村"},{"poiid":"B2094757D164A3FF4299","title":"崇明体育馆","lon":"121.400255189","lat":"31.6266484615","category":"500","category_name":"未知分类","address":"上海崇明县北门路"},{"poiid":"B2094654D468A6FB459D","title":"华湄大楼","lon":"121.40888","lat":"31.62156","category":"46","category_name":"楼宇","address":""},{"poiid":"B2094654DB6AA6FF4493","title":"上海顺利大酒店","lon":"121.39971","lat":"31.62037","category":"215","category_name":"三星级宾馆","address":"近郊崇明县新崇南路38号(近锦绣宾馆)"},{"poiid":"B2094654D468A6FA4692","title":"上海盛源幼儿园","lon":"121.40979","lat":"31.62267","category":"57","category_name":"幼儿园","address":"湄洲路280"},{"poiid":"B2094654D468A7FF4992","title":"学宫新村","lon":"121.40978225465","lat":"31.626444790019","category":"47","category_name":"住宅区","address":"学宫新村"},{"poiid":"B2094654D468A7FF479D","title":"上海电视大学崇明分校","lon":"121.40451","lat":"31.63202","category":"52","category_name":"高等院校","address":"近郊崇明东门路557号(崇明北门路一江山路)"},{"poiid":"B2094757D66DA2FB439A","title":"江山羊蝎子火锅店","lon":"121.4095","lat":"31.62517","category":"86","category_name":"火锅店","address":"近郊崇明县东引路18号(近一江山路)"},{"poiid":"B2094757D16BA0F4459C","title":"崇明县新城会议中心","lon":"121.427037473","lat":"31.6246731213","category":"500","category_name":"未知分类","address":"上海翠竹路"},{"poiid":"B2094654D468A7F84093","title":"寿安寺","lon":"121.42176","lat":"31.61457","category":"244","category_name":"寺庙道观","address":"崇明县城桥镇鳌山村涛声路1188号"},{"poiid":"B2094757D66DA5F54992","title":"紫晶商务酒店","lon":"121.41015877","lat":"31.620807609","category":"500","category_name":"未知分类","address":"近郊寒山寺路88号"},{"poiid":"B2094757D065A1F9419D","title":"八一路","lon":"121.406987273","lat":"31.6288652597","category":"500","category_name":"未知分类","address":"上海崇明商业街"},{"poiid":"B2094757D66EA5FC4792","title":"绝对好迪","lon":"121.401529773","lat":"31.6234996593","category":"170","category_name":"KTV","address":"上海近郊崇明县南门东门  "},{"poiid":"B2094654D468A7FF4892","title":"寒山寺","lon":"121.40216","lat":"31.62354","category":"244","category_name":"寺庙道观","address":"东门路187号"},{"poiid":"B2094757D164A0FD459C","title":"玉环新村","lon":"121.40881","lat":"31.629862","category":"47","category_name":"住宅区","address":"上海市崇明县玉环路"},{"poiid":"B2094655D26EA1F5499F","title":"东门新村(崇明·东门路)","lon":"121.40525","lat":"31.63073","category":"47","category_name":"住宅区","address":""},{"poiid":"B2094654D468A5FE499D","title":"天赐商务酒店","lon":"121.40845","lat":"31.62549","category":"250","category_name":"公园户外","address":"近郊崇明县江山路508号"},{"poiid":"B2094757D568A2F54392","title":"绿岛阳光苑(西门)","lon":"121.4129758","lat":"31.62596083","category":"48","category_name":"楼宇大门","address":"中国上海市崇明县"},{"poiid":"B2094654D468A5FC479A","title":"天赐景城","lon":"121.419","lat":"31.6346","category":"47","category_name":"住宅区","address":"上海崇明县玉环路98弄"},{"poiid":"B2094757D16DA7FE4492","title":"崇明县中心医院","lon":"121.400120739","lat":"31.618085368","category":"162","category_name":"医院","address":"近郊崇明县南门路25号(永乐家电旁)"},{"poiid":"B2094757D665A1F4499F","title":"诺欧咖啡","lon":"121.4101751","lat":"31.6285583","category":"260","category_name":"其他","address":"近郊崇明县城桥镇玉环路68号"},{"poiid":"B2094757D06BAAFE439A","title":"杰杰斯酒吧","lon":"121.400012773","lat":"31.6268097212","category":"172","category_name":"酒吧","address":"近郊崇明县城桥镇北门路98号华君商务宾馆2楼(近八一路)"},{"poiid":"B2094757D065A1FC4598","title":"老板娘大酒店(崇明店)","lon":"121.39662785","lat":"31.61854281","category":"75","category_name":"浙江菜","address":"近郊崇明县城桥镇南门路166号(八一路崇明南门路)"},{"poiid":"B2094757D165AAFC459A","title":"东门中学","lon":"121.41152477","lat":"31.62943027","category":"55","category_name":"中学","address":"近郊崇明县城桥镇湄洲路388号(湄洲路一江山路)"},{"poiid":"B2094757D169A2FB409B","title":"陆港小镇","lon":"121.40377","lat":"31.62579","category":"76","category_name":"上海菜","address":"近郊崇明城桥镇东门路143号(崇明北门路一江山路)"},{"poiid":"B2094654D468A6FC499B","title":"宝岛世纪园","lon":"121.39674","lat":"31.628719","category":"47","category_name":"住宅区","address":"八一路599号"},{"poiid":"B2094654D468A6F5409E","title":"浪漫满屋(湄洲路)","lon":"121.40943","lat":"31.6263","category":"248","category_name":"生活娱乐","address":""},{"poiid":"B2094757D66EA0FE4593","title":"伊诺咖啡","lon":"121.40323777","lat":"31.624855325","category":"65","category_name":"咖啡厅","address":"近郊崇明县一江山路46号(近湄洲路)"},{"poiid":"B2094655D36CA6FA4992","title":"东门路玉环路","lon":"121.40492","lat":"31.62928","category":"38","category_name":"公交车站","address":""},{"poiid":"B2094655D26AA3F9429E","title":"莫泰168八一路店","lon":"121.39659","lat":"31.62372","category":"247","category_name":"餐饮美食","address":"上海近郊崇明城桥镇八一路338号  "},{"poiid":"B2094654D468A6FC459A","title":"澹园","lon":"121.4032","lat":"31.62553","category":"196","category_name":"公园","address":""},{"poiid":"B2094654D468A7FA479F","title":"崇明县疾病预防控制中心","lon":"121.40448","lat":"31.62553","category":"162","category_name":"医院","address":"崇明县一江山路567"},{"poiid":"B2094655D36CA6FB409A","title":"东门路寒山寺路","lon":"121.40268","lat":"31.62387","category":"38","category_name":"公交车站","address":""},{"poiid":"B2094655D36CA6FA4993","title":"东门路北门路","lon":"121.40404","lat":"31.62633","category":"38","category_name":"公交车站","address":""},{"poiid":"B2094757D064A1F5459F","title":"崇明县城桥镇职业介绍所","lon":"121.406612773","lat":"31.6208516098","category":"500","category_name":"未知分类","address":"上海市崇明县城桥镇东门路178号"},{"poiid":"B2094757D165A5FE469C","title":"北门居委会","lon":"121.405994773","lat":"31.6235626605","category":"500","category_name":"未知分类","address":"上海崇明城桥镇酱园弄6号"},{"poiid":"B2094654D468A7FA4692","title":"崇明现代农业园区","lon":"121.40367","lat":"31.62368","category":"45","category_name":"产业园区","address":"寒山寺路358号"},{"poiid":"B2094757D168A1F8499C","title":"学宫路","lon":"121.40210786","lat":"31.620377794","category":"47","category_name":"住宅区","address":"上海东门路"},{"poiid":"B2094757DA65A5F54999","title":"锦江之星（上海崇明城桥店）","lon":"121.406103373","lat":"31.632309649","category":"216","category_name":"经济型连锁酒店","address":"近郊崇明县城桥镇东门路562号(近电视大学)"},{"poiid":"B2094757D064A6FD4693","title":"来吧小镇","lon":"121.396990054","lat":"31.623899793","category":"68","category_name":"快餐厅","address":"近郊崇明县城桥镇八一路471号(近影剧院)"},{"poiid":"B2094654D468A5FC4992","title":"崇明县教师进修学校","lon":"121.40068","lat":"31.62468","category":"53","category_name":"成人教育","address":""},{"poiid":"B2094654D468A7FF489E","title":"崇明县人民体育场","lon":"121.39998","lat":"31.62689","category":"224","category_name":"综合体育馆","address":"北门路6号"},{"poiid":"B2094654D468A6F5419A","title":"崇明县红十字会","lon":"121.40481","lat":"31.62605","category":"250","category_name":"公园户外","address":"城桥镇一江山路616号"},{"poiid":"B2094654D468A7FF479C","title":"崇明县博物馆","lon":"121.40175","lat":"31.61871","category":"182","category_name":"博物馆","address":"近郊崇明县鳌山路696号(近南门码头)"},{"poiid":"B2094654D468A6F5449D","title":"崇明司法大楼","lon":"121.40128","lat":"31.6223","category":"46","category_name":"楼宇","address":""},{"poiid":"B2094654DB6AA6F94693","title":"上岛咖啡(八一路店)","lon":"121.3969","lat":"31.62585","category":"260","category_name":"其他","address":"近郊崇明县城桥镇八一路487号2楼(近新崇北路)"},{"poiid":"B2094757D465A1FF459E","title":"锦绣宾馆餐厅","lon":"121.399527054","lat":"31.620261793","category":"76","category_name":"上海菜","address":"近郊崇明县城内新崇南路4号(近朝阳门)"},{"poiid":"B2094654D468A7FA489D","title":"华联超市NO.1467","lon":"121.40576","lat":"31.62915","category":"118","category_name":"超级市场","address":"城桥镇"},{"poiid":"B2094757D66CA7FD449E","title":"城桥镇社区服务卫生中心","lon":"121.4138791","lat":"31.6318055","category":"162","category_name":"医院","address":"上海花鸟路309号"},{"poiid":"B2094655D36CA5FE479F","title":"崇明东门","lon":"121.40174","lat":"31.6222","category":"38","category_name":"公交车站","address":""},{"poiid":"B2094757D16DA1FF4993","title":"迪欧咖啡 崇明八一店 DIO CAFE","lon":"121.39661239429","lat":"31.624734805345","category":"260","category_name":"其他","address":"近郊崇明县城桥镇八一路308号(八一路新崇北路)"},{"poiid":"B2094751D569AAFF459C","title":"崇明图书馆","lon":"121.42865","lat":"31.619141","category":"500","category_name":"未知分类","address":null},{"poiid":"B2094757D66DA5FE479D","title":"崇明县水务局","lon":"121.404343473","lat":"31.620757708","category":"500","category_name":"未知分类","address":"上海崇明县东门路197号"},{"poiid":"B2094654D468A7FF489F","title":"崇明学宫","lon":"121.40167","lat":"31.61871","category":"250","category_name":"公园户外","address":"鳌山路696号"},{"poiid":"B2094757D169A5FE449D","title":"上海市工商行政管理局崇明分局","lon":"121.404802305","lat":"31.6287682084","category":"500","category_name":"未知分类","address":"上海祟明县东门路"},{"poiid":"B2094654D468A7F84092","title":"金鳌山公园","lon":"121.4209","lat":"31.61519","category":"196","category_name":"公园","address":"近郊崇明县城桥镇鳌山路东首"},{"poiid":"B2094757D165A4F84299","title":"釜山料理","lon":"121.39616597","lat":"31.619519184","category":"96","category_name":"韩国料理","address":"近郊崇明南门八一路36号"},{"poiid":"B2094757D66DA1FB439F","title":"崇明县人民政府","lon":"121.399358673","lat":"31.6250123876","category":"500","category_name":"未知分类","address":"上海崇明县城桥镇人民路"},{"poiid":"B2094757D465ABFF4999","title":"颐景茶道 崇明店","lon":"121.405072054","lat":"31.630023793","category":"260","category_name":"其他","address":"近郊崇明县东门路421号(近工商银行)"},{"poiid":"B2094654D468A7FA489C","title":"崇明县价格认证中心","lon":"121.40531","lat":"31.62919","category":"250","category_name":"公园户外","address":""},{"poiid":"B2094757D168ABF9429B","title":"金月湾","lon":"121.399740773","lat":"31.6312088035","category":"500","category_name":"未知分类","address":"上海市崇明区城桥镇西门路501弄"},{"poiid":"B2094655D26BAAF54293","title":"花鸟路丁家河桥","lon":"121.41616","lat":"31.63176","category":"250","category_name":"公园户外","address":""},{"poiid":"B2094655D36CA5FE479C","title":"崇明电大","lon":"121.40508","lat":"31.63148","category":"38","category_name":"公交车站","address":""},{"poiid":"B2094654D468A7FB439F","title":"又一餐早点房","lon":"121.40086","lat":"31.62235","category":"257","category_name":"中餐厅","address":"近郊崇明县人民路(近东门路)"},{"poiid":"B2094757DA64A3F4499D","title":"嘉年花苑商业","lon":"121.402013","lat":"31.62932","category":"252","category_name":"楼宇机构","address":"体育路58弄"},{"poiid":"B2094757D16BA0F9459C","title":"49天","lon":"121.40327991","lat":"31.624886695","category":"500","category_name":"未知分类","address":"上海韓劇"},{"poiid":"B2094750D665ABF94998","title":"恒悦轩精致香港粤菜(崇明店)","lon":"121.428","lat":"31.6226","category":"72","category_name":"广东菜","address":"近郊崇明县江帆路新城公园内"},{"poiid":"B2094752D46AA2F8489B","title":"中国农业银行人民路支行","lon":"121.404639","lat":"31.628462","category":"150","category_name":"银行","address":"上海市崇明区人民路58号"},{"poiid":"B2094654D468A7FF4793","title":"崇明县公安局交通警察大队","lon":"121.40486","lat":"31.6309","category":"250","category_name":"公园户外","address":""},{"poiid":"B2094757D568ABF94493","title":"上岛咖啡(崇明店总工会店)","lon":"121.39902534","lat":"31.61941542","category":"260","category_name":"其他","address":"近郊崇明县城桥镇朝阳门路17号总工会大楼2楼(中心医院对面)"},{"poiid":"B2094757D168ABFD479D","title":"崇明县总工会大楼","lon":"121.399225773","lat":"31.6197005883","category":"252","category_name":"楼宇机构","address":"上海南门路118号"},{"poiid":"B2094654D468A6FE489D","title":"外经大楼","lon":"121.40017","lat":"31.62029","category":"46","category_name":"楼宇","address":"新崇南路28号"},{"poiid":"B2094654D468A5FE4693","title":"城隍庙小吃世界 新崇南路店","lon":"121.396356054","lat":"31.620203793","category":"68","category_name":"快餐厅","address":"近郊崇明县新崇南路203号(富民街新崇南路)"},{"poiid":"B2094654D468A6FF469C","title":"崇明印刷厂","lon":"121.40339","lat":"31.62467","category":"263","category_name":"公司","address":"东门路246号"},{"poiid":"B2094654D468A6FE4892","title":"沁园村小区","lon":"121.40034","lat":"31.620975","category":"47","category_name":"住宅区","address":"新崇东路58弄"},{"poiid":"B2094654D468A6FE469B","title":"小八路面菜馆","lon":"121.39741","lat":"31.61993","category":"76","category_name":"上海菜","address":"近郊崇明新崇南路145号(近八一路)"},{"poiid":"B2094654D468A6FE489F","title":"夏记火锅","lon":"121.396505054","lat":"31.620264793","category":"86","category_name":"火锅店","address":"近郊崇明县新崇南路201号(近八一路)"},{"poiid":"B2094654D468A7FA4492","title":"崇明县公安局","lon":"121.39989","lat":"31.62245","category":"609","category_name":"警察局","address":"人民路28"},{"poiid":"B2094757D66CA4F94898","title":"鳌山瞑园","lon":"121.403909","lat":"31.616372","category":"500","category_name":"未知分类","address":"上海鳌山路"},{"poiid":"B2094750D768A6FF419C","title":"馨忆坊","lon":"121.395","lat":"31.6268","category":"76","category_name":"上海菜","address":"近郊崇明城桥镇北门路178号(近新崇北路)"},{"poiid":"B2094654D468A6FE4198","title":"上海交通大学医学院附属仁济医院崇明分院","lon":"121.39958","lat":"31.61833","category":"162","category_name":"医院","address":"城桥镇南门港街25号"},{"poiid":"B2094757D568A1FC4592","title":"崇明县苗圃","lon":"121.41132704","lat":"31.61534722","category":"260","category_name":"其他","address":"中国上海市崇明县南门路"},{"poiid":"B2094757D569A1FD419B","title":"东门果林场","lon":"121.41132514","lat":"31.61534207","category":"260","category_name":"其他","address":"中国上海市崇明县南门路"},{"poiid":"B2094757D164A5F4499C","title":"丰溢坊(崇明店)","lon":"121.39971","lat":"31.62037","category":"76","category_name":"上海菜","address":"近郊崇明县新崇南路38号(朝阳门路新崇南路)"},{"poiid":"B2094654D468A5FD4798","title":"体育馆KTV娱乐总汇","lon":"121.40003","lat":"31.62647","category":"170","category_name":"KTV","address":""},{"poiid":"B2094752D56AA1F54898","title":"恒悦轩岛中岛会所","lon":"121.422763","lat":"31.621097","category":"251","category_name":"出行住宿","address":"上海市崇明县江帆路379号"},{"poiid":"B2094654D468A7F84193","title":"崇明县人民法院","lon":"121.4007","lat":"31.62201","category":"608","category_name":"法院","address":"崇明县人民路25"},{"poiid":"B2094654D468A5FE4899","title":"崇明县游泳池","lon":"121.39966","lat":"31.62643","category":"231","category_name":"游泳馆","address":""},{"poiid":"B2094654D468A7F44192","title":"百爱口腔门诊部","lon":"121.39964","lat":"31.61884","category":"162","category_name":"医院","address":""},{"poiid":"B2094751DA6FA1FA429C","title":"崇明县图书馆","lon":"121.409322","lat":"31.635654","category":"181","category_name":"图书馆","address":"崇明县崇明大道7897号"},{"poiid":"B2094654D468A7FB479C","title":"崇明县行政管理干部学校","lon":"121.40451","lat":"31.63201","category":"54","category_name":"职业技术学校","address":"东门路"},{"poiid":"B2094750D56EA1F44999","title":"崇明检察院","lon":"121.400566","lat":"31.622205","category":"608","category_name":"法院","address":"人民路27号"},{"poiid":"B2094654D468A7FA439C","title":"崇明信息大楼","lon":"121.39785","lat":"31.619","category":"46","category_name":"楼宇","address":"城桥镇"},{"poiid":"B2094654D468A6F9419B","title":"上海市崇明县百货有限公司第一百货商场","lon":"121.39561","lat":"31.62078","category":"119","category_name":"商场","address":""},{"poiid":"B2094757D064A4F54593","title":"外婆桥","lon":"121.40107089","lat":"31.629477797","category":"47","category_name":"住宅区","address":"上海崇明县城桥镇"},{"poiid":"B2094655D26BAAF54099","title":"鳌山河桥","lon":"121.42781","lat":"31.6215","category":"250","category_name":"公园户外","address":""},{"poiid":"B2094654D468A6FD459E","title":"中国农业银行崇明县支行营业部","lon":"121.39948","lat":"31.6225","category":"150","category_name":"银行","address":"人民路32"},{"poiid":"B2094654D468A7FF4792","title":"崇明电视台","lon":"121.40179","lat":"31.63092","category":"59","category_name":"电视台","address":""},{"poiid":"B2094654D468A5FC4892","title":"上海第二医科大学附属仁济医院崇明分院","lon":"121.40016","lat":"31.61665","category":"162","category_name":"医院","address":"东门路1"},{"poiid":"B2094654D468A7F84099","title":"育林中学","lon":"121.40833","lat":"31.63582","category":"55","category_name":"中学","address":"近郊崇明县城桥镇育林桥路363号"},{"poiid":"B2094757D168A3FC419C","title":"小绍兴(崇明店)","lon":"121.395078773","lat":"31.618940074","category":"68","category_name":"快餐厅","address":"近郊崇明县新崇南路178号(富民街新崇南路)"},{"poiid":"B2094654D468A5FD4998","title":"中国农业银行崇明县支行","lon":"121.39942","lat":"31.62251","category":"150","category_name":"银行","address":"人民路38"},{"poiid":"B2094654D468A7FA429A","title":"中国平安(崇明县劳动和社会保障局南)","lon":"121.40213","lat":"31.62244","category":"219","category_name":"其他","address":""},{"poiid":"B2094757D465ABFF499F","title":"歌顿咖啡 崇明店","lon":"121.399991054","lat":"31.620238793","category":"260","category_name":"其他","address":"近郊崇明县新崇南路8号(近东门路)"},{"poiid":"B2094757D16FA3FD4793","title":"皇都娱乐","lon":"121.399408897","lat":"31.6320168021","category":"248","category_name":"生活娱乐","address":"上海崇明八一路中津桥路"},{"poiid":"B2094655D26FA6FB4393","title":"苏宁电器(崇明八一路店)","lon":"121.39569","lat":"31.62006","category":"138","category_name":"家电电子卖场","address":"崇明县八一路128号"},{"poiid":"B2094655D26EA7FD489F","title":"上海市崇明县地方税务局","lon":"121.39793","lat":"31.62274","category":"250","category_name":"公园户外","address":"崇明县城桥镇人民路60号3号楼105室"},{"poiid":"B2094654D468A5FC469C","title":"青梅花园","lon":"121.41723","lat":"31.63509","category":"47","category_name":"住宅区","address":""},{"poiid":"B2094654D468A7FB449C","title":"永乐生活电器崇明店","lon":"121.39788","lat":"31.61858","category":"138","category_name":"家电电子卖场","address":"南门路137"},{"poiid":"B2094654D468A7FB4298","title":"新华书店(八一路)","lon":"121.3968","lat":"31.62504","category":"125","category_name":"书店","address":"近郊崇明城桥镇八一路458号(八一路新崇北路)"},{"poiid":"B2094757D66BA2F9459F","title":"洞庭湘菜馆","lon":"121.395891054","lat":"31.627008793","category":"77","category_name":"湖南菜","address":"近郊城桥镇北门路301号(崇明北门路崇明西门路)"},{"poiid":"B2094655D36CA1FB4693","title":"利民路育麟桥路","lon":"121.40488","lat":"31.6359","category":"38","category_name":"公交车站","address":""},{"poiid":"B2094757D165A1FA419C","title":"憬恒棋牌台球俱乐部","lon":"121.40095577","lat":"31.629163765","category":"171","category_name":"台球厅","address":"近郊崇明县八一路600号(近凯歌大酒店)"},{"poiid":"B2094654D468A7FF489B","title":"崇明县城桥镇南门汽车站","lon":"121.39524","lat":"31.61885","category":"35","category_name":"长途汽车站","address":""},{"poiid":"B2094654D468A5FD449F","title":"上海信欣精品商厦","lon":"121.39653","lat":"31.62336","category":"119","category_name":"商场","address":"八一路328"},{"poiid":"B2094750D664A6FE4693","title":"老西门随便小吃","lon":"121.3954","lat":"31.62035","category":"68","category_name":"快餐厅","address":"近郊崇明南门港(近八一路步行街)"},{"poiid":"B2094757D16FA6FD4893","title":"崇明凯歌大酒店","lon":"121.397627","lat":"31.627992","category":"217","category_name":"旅馆招待所","address":"近郊崇明县八一路602号(近体育路)"},{"poiid":"B2094655D265ABFE439E","title":"飞利浦永乐上海崇明店","lon":"121.39796","lat":"31.61858","category":"138","category_name":"家电电子卖场","address":"城桥南门路113-137号"},{"poiid":"B2094654D468A7F8429B","title":"上海市崇明县国家税务局","lon":"121.39793","lat":"31.62274","category":"250","category_name":"公园户外","address":"人民路60"},{"poiid":"B2094654D468A5FE489D","title":"乐岛宾馆","lon":"121.39818","lat":"31.61985","category":"250","category_name":"公园户外","address":"近郊崇明县新崇南路38号"},{"poiid":"B2094757D568A1FD429A","title":"崇明县城桥镇图书馆","lon":"121.39808919","lat":"31.62760661","category":"181","category_name":"图书馆","address":"中国上海市崇明县星火路"},{"poiid":"B2094654D468A7F4499C","title":"崇明县培林学校","lon":"121.40941","lat":"31.63603","category":"54","category_name":"职业技术学校","address":""},{"poiid":"B2094654DB6AA6F9449B","title":"中国太平洋财产保险股份有限公司","lon":"121.40477","lat":"31.63046","category":"219","category_name":"其他","address":"东门路43"},{"poiid":"B2094654D468A7F54499","title":"上海城桥经济开发区","lon":"121.4038","lat":"31.63457","category":"45","category_name":"产业园区","address":""},{"poiid":"B2094654D468A5FD4493","title":"中国移动通信南门营业厅","lon":"121.39674","lat":"31.62461","category":"151","category_name":"电讯营业厅","address":"崇明县南门八一路392号"},{"poiid":"B2094757D66FA3FF4092","title":"老农民羊肉馆","lon":"121.425716673","lat":"31.6308545969","category":"500","category_name":"未知分类","address":"上海近郊崇明县城桥镇团城公路(近东三江口桥西首)  "},{"poiid":"B2094757D165A1FB4099","title":"萍乡电影院","lon":"121.3969345","lat":"31.626373291","category":"178","category_name":"电影院","address":"萍乡八一路（电影院）"},{"poiid":"B2094654D468A5FE4192","title":"伟达百货","lon":"121.39607","lat":"31.62312","category":"119","category_name":"商场","address":"八一路303-323号"},{"poiid":"B2094654D468A7FB459A","title":"物华假日酒店","lon":"121.39705","lat":"31.62037","category":"250","category_name":"公园户外","address":"近郊崇明县城桥镇新崇南路178号(近南门港码头)"},{"poiid":"B2094757D66FA0FB489A","title":"来吧面道","lon":"121.39678187","lat":"31.626047809","category":"247","category_name":"餐饮美食","address":"上海北门路八一路路口"},{"poiid":"B2094654D468A7FB4698","title":"崇明县城桥镇卫生院城内门诊部","lon":"121.39763","lat":"31.62799","category":"162","category_name":"医院","address":"八一路592"},{"poiid":"B2094654DB6AA1FB409C","title":"崇明新城.明珠花苑一期","lon":"121.40569","lat":"31.63703","category":"47","category_name":"住宅区","address":"崇明县城桥镇育麟桥路188弄"},{"poiid":"B2094757D66DA5FA479D","title":"华联超市(西门店)","lon":"121.39982186","lat":"31.632763912","category":"118","category_name":"超级市场","address":"近郊崇明县西门路2030号"},{"poiid":"B2094654D468A5FE429B","title":"明饰商业街","lon":"121.39575","lat":"31.62148","category":"116","category_name":"特色商业街","address":""},{"poiid":"B2094654D468A5FD4198","title":"上海云雁商城","lon":"121.39586","lat":"31.61977","category":"119","category_name":"商场","address":""},{"poiid":"B2094654DB69A5FB409C","title":"中国联通(八一路营业厅)","lon":"121.39701","lat":"31.6277","category":"151","category_name":"电讯营业厅","address":"崇明县八一路519号-521号"},{"poiid":"B2094655D36CA6FA479C","title":"东三江口","lon":"121.42231","lat":"31.63585","category":"38","category_name":"公交车站","address":""},{"poiid":"B2094654D468A7F8419E","title":"鳌山暝园","lon":"121.42449","lat":"31.61169","category":"250","category_name":"公园户外","address":"城桥镇鳌山村"},{"poiid":"B2094654D468A5FD4093","title":"上海市电信有限公司崇明电信局","lon":"121.39836","lat":"31.61895","category":"263","category_name":"公司","address":"南门路128"},{"poiid":"B2094654D468A5FD489F","title":"良友水果店","lon":"121.39557","lat":"31.62263","category":"117","category_name":"便民商店/便利店","address":""},{"poiid":"B2094654D468A7F94992","title":"中国电信信息服务中心","lon":"121.39573","lat":"31.625","category":"151","category_name":"电讯营业厅","address":""},{"poiid":"B2094654D468A7F8429F","title":"中国工商银行上海市崇明支行","lon":"121.39702","lat":"31.61908","category":"150","category_name":"银行","address":"南门路158"},{"poiid":"B2094654D468A6F84598","title":"发裁轩","lon":"121.39801","lat":"31.62978","category":"148","category_name":"美容美发店","address":"近郊崇明八一路679号(近体育路)"},{"poiid":"B2094654D468A7F84992","title":"新华书店(中津桥路)","lon":"121.40052","lat":"31.6327","category":"125","category_name":"书店","address":""},{"poiid":"B2094655D26BA7FE4198","title":"飞利浦苏宁上海崇明八一路店","lon":"121.3959","lat":"31.61995","category":"138","category_name":"家电电子卖场","address":"南门镇八一路118号"},{"poiid":"B2094757D16FA1FE469E","title":"崇明县规划展示馆","lon":"121.397775","lat":"31.619035","category":"500","category_name":"未知分类","address":"崇明县城桥镇崇明大道7918号"},{"poiid":"B2094757D16EABF84992","title":"Motel168(崇明店)","lon":"121.39659","lat":"31.623727","category":"217","category_name":"旅馆招待所","address":"上海市崇明县八一路338号"},{"poiid":"B2094654D468A7F9499A","title":"上海市崇明电力公司","lon":"121.39609","lat":"31.62647","category":"263","category_name":"公司","address":"北门路235"},{"poiid":"B2094654D468A6F44793","title":"中国银行上海市崇明支行","lon":"121.40672","lat":"31.63552","category":"150","category_name":"银行","address":"近郊城桥镇育麟桥路385号"},{"poiid":"B2094757D16FA4FC499A","title":"solonglong公馆","lon":"121.397322006","lat":"31.6250207924","category":"500","category_name":"未知分类","address":null},{"poiid":"B2094654D468A7F8499D","title":"崇明县医药公司","lon":"121.40006","lat":"31.63296","category":"162","category_name":"医院","address":""},{"poiid":"B2094654D468A6FD469C","title":"上海博士少年儿童美术图书馆","lon":"121.39577","lat":"31.62298","category":"181","category_name":"图书馆","address":""},{"poiid":"B2094757D66CAAF9439C","title":"UES休闲餐厅","lon":"121.39673877","lat":"31.623978668","category":"500","category_name":"未知分类","address":"上海市崇明县八一路"},{"poiid":"B2094654D468A7F4429B","title":"恒富宾馆","lon":"121.3964","lat":"31.61925","category":"250","category_name":"公园户外","address":"近郊崇明县城桥镇南门路166号(崇明南门路崇明西门路)"},{"poiid":"B2094654D468A5FC4299","title":"上海证券报股民学校(川心街)","lon":"121.39825","lat":"31.62723","category":"253","category_name":"校园生活","address":""},{"poiid":"B2094654D468A7F4499F","title":"崇明县特殊教育中心","lon":"121.40941","lat":"31.63603","category":"253","category_name":"校园生活","address":""},{"poiid":"B2094654D468A7F84292","title":"中国建设银行上海市崇明县支行","lon":"121.39636","lat":"31.62491","category":"150","category_name":"银行","address":"八一路387"},{"poiid":"B2094654D468A7F5499B","title":"新星饮食","lon":"121.39529","lat":"31.62657","category":"257","category_name":"中餐厅","address":"近郊崇明县北门路253号(近八一路)"},{"poiid":"B2094757D16BA4F54498","title":"京都拉面崇明店","lon":"121.396664872","lat":"31.6235498103","category":"500","category_name":"未知分类","address":"上海崇明八一路102号"},{"poiid":"B2094757D164A1FC479F","title":"城桥综治中心","lon":"121.404540373","lat":"31.6342595606","category":"252","category_name":"楼宇机构","address":"上海川心街4号"},{"poiid":"B2094757D16AA5FC4592","title":"崇明","lon":"121.398481","lat":"31.630948","category":"500","category_name":"未知分类","address":"上海城桥镇八一路726号"},{"poiid":"B2094655D26BAAF5439D","title":"油车湾桥","lon":"121.41092","lat":"31.6379","category":"250","category_name":"公园户外","address":""},{"poiid":"B2094654DB6AA6FE4698","title":"城桥派出所","lon":"121.4022","lat":"31.63345","category":"609","category_name":"警察局","address":"崇明县城桥镇中津桥路19号"},{"poiid":"B2094654D468A5FC409C","title":"奥康(八一路)","lon":"121.39568","lat":"31.6211","category":"141","category_name":"服装鞋帽皮具店","address":""},{"poiid":"B2094757D16BA7FC489B","title":"江南三民文化村","lon":"121.403187","lat":"31.634206","category":"500","category_name":"未知分类","address":"上海崇明林风公路2201号"},{"poiid":"B2094654DB69A6FA4998","title":"佰草集(崇明南门店)","lon":"121.39605","lat":"31.62252","category":"255","category_name":"专卖店","address":"崇明县南门新崇中路58号"},{"poiid":"B2094654D468A7FA439F","title":"真爱婚纱摄影名店崇明店","lon":"121.39736","lat":"31.61862","category":"248","category_name":"生活娱乐","address":""},{"poiid":"B2094757D165A4FF459C","title":"无双网吧门口烧烤","lon":"121.39499488","lat":"31.626801815","category":"500","category_name":"未知分类","address":"上海崇明南门无双网吧门口"},{"poiid":"B2094757D168AAFB439E","title":"长江农场","lon":"121.395924","lat":"31.620115","category":"500","category_name":"未知分类","address":"上海崇明县"},{"poiid":"B2094654D468A7FF4899","title":"上海市邮政局崇明县局","lon":"121.39627","lat":"31.6244","category":"248","category_name":"生活娱乐","address":"八一路365"},{"poiid":"B2094654DB69A6FE4398","title":"中国邮政(中国邮政南门邮政支局)","lon":"121.3962","lat":"31.62416","category":"248","category_name":"生活娱乐","address":"崇明县人民路与步行街交叉口北行150米"},{"poiid":"B2094757D16BA7FC4498","title":"围城宾馆","lon":"121.39585343","lat":"31.619046576","category":"217","category_name":"旅馆招待所","address":"近郊崇明县南门路45号"},{"poiid":"B2094757D16AA6FB4992","title":"舞林大会","lon":"121.39607921","lat":"31.628060674","category":"500","category_name":"未知分类","address":"上海番茄台"}]