[{"poiid":"B2094751D26BA1FF409B","title":"东方医院南院","lon":"121.5057716","lat":"31.1514706","category":"500","category_name":"未知分类","address":"浦东新区云台路1800号"},{"poiid":"B2094757D06FA2FF4899","title":"卜蜂莲花(上南路店)","lon":"121.50367","lat":"31.15501","category":"118","category_name":"超级市场","address":"浦东新区上南路3521号宝丰综合市场内(近高青路)"},{"poiid":"B2094757D06FA2FF4992","title":"上南路地铁站","lon":"121.50706092","lat":"31.148490295","category":"36","category_name":"地铁站","address":"上海轨道交通 六号线 轨交上南路站 6"},{"poiid":"B2094757D068A7FD4192","title":"瀚城国际","lon":"121.50944614","lat":"31.154728049","category":"46","category_name":"楼宇","address":"上海云台路1000号"},{"poiid":"B2094757D06FA7F8419F","title":"华夏西路地铁站","lon":"121.51434569","lat":"31.1498461","category":"36","category_name":"地铁站","address":"上海轨道交通 六号线 轨交华夏西路站 6"},{"poiid":"B2094757D068A5F4409A","title":"绿茵苑浦东","lon":"121.508","lat":"31.1566","category":"47","category_name":"住宅区","address":"上海杨南路694弄"},{"poiid":"B2094757D06FA5FB439D","title":"恒大翰城瀚林苑","lon":"121.506578","lat":"31.149811","category":"47","category_name":"住宅区","address":"上海上南路3899弄"},{"poiid":"B2094757D16AA2FC4593","title":"东旺名苑","lon":"121.50302","lat":"31.156832","category":"47","category_name":"住宅区","address":"上海海阳路860弄"},{"poiid":"B2094655D36CA2F54192","title":"上南路杨南路","lon":"121.50548","lat":"31.15076","category":"38","category_name":"公交车站","address":"上海上南路3881弄"},{"poiid":"B2094757D66DA4FC439A","title":"大桶大足浴","lon":"121.506003738","lat":"31.1548136946","category":"500","category_name":"未知分类","address":"浦东新区高青路(近上南路)"},{"poiid":"B2094757D068A6FD429D","title":"肯德基 KFC (莲花店)","lon":"121.50285","lat":"31.154613","category":"68","category_name":"快餐厅","address":"浦东新区上南路3521号宝丰综合市场内"},{"poiid":"B2094655D36CA2F5409D","title":"上南路华夏西路","lon":"121.50525","lat":"31.15118","category":"38","category_name":"公交车站","address":""},{"poiid":"B2094655D26DA0FA4198","title":"恒大翰城瀚锦苑","lon":"121.51128","lat":"31.15137","category":"47","category_name":"住宅区","address":"恒大翰城(瀚锦苑)位于浦东上南路3895号"},{"poiid":"B2094654DB64A1FB439F","title":"日月新苑","lon":"121.50489","lat":"31.149723","category":"47","category_name":"住宅区","address":"上海市浦东新区上南路路3881弄"},{"poiid":"B2094757D069A2FF429F","title":"吉利名苑","lon":"121.5072","lat":"31.159323","category":"47","category_name":"住宅区","address":"上海市浦东新区海阳路1125号"},{"poiid":"B2094654DB64A6FB4199","title":"汉庭快捷(上南店)","lon":"121.50659","lat":"31.15104","category":"216","category_name":"经济型连锁酒店","address":"浦东新区上南路3855号(近杨南路)"},{"poiid":"B2094757D06BAAF8419A","title":"源城锦苑","lon":"121.50514766817","lat":"31.155441094145","category":"47","category_name":"住宅区","address":"上海市浦东新区灵岩南路769弄"},{"poiid":"B2094654DA65AAF4449B","title":"万丰大酒店","lon":"121.50187292992","lat":"31.154883465271","category":"70","category_name":"综合酒楼","address":"上南路3719号近杨南路"},{"poiid":"B2094750D76EA4F84198","title":"明府其食","lon":"121.506","lat":"31.1493","category":"76","category_name":"上海菜","address":"浦东新区上南路3886号(华夏西路口)"},{"poiid":"B2094757D66DABFC459F","title":"四海游龙(上南店)","lon":"121.507228738","lat":"31.1540536785","category":"68","category_name":"快餐厅","address":"浦东新区上南路3521号4栋13单元(近易初莲花)"},{"poiid":"B2094757D464A7FE4093","title":"鼎鸿海鲜馆","lon":"121.50554","lat":"31.15232","category":"260","category_name":"其他","address":"浦东新区杨南路923-927号(近家得利超市)"},{"poiid":"B2094654DB6DA7FA4593","title":"黄金湾渔村","lon":"121.5058172","lat":"31.1503678","category":"76","category_name":"上海菜","address":"浦东新区上南路3871-3873号(近杨南路)"},{"poiid":"B2094750D66FA7FA499C","title":"呷浦呷浦","lon":"121.509048","lat":"31.155586","category":"247","category_name":"餐饮美食","address":"昌里路"},{"poiid":"B2094752D765A6F94292","title":"东方医院","lon":"121.510637","lat":"31.151509","category":"162","category_name":"医院","address":"上海市浦东新区云台路1800号"},{"poiid":"B2094655D264A2FE4693","title":"好又多","lon":"121.50806","lat":"31.15492","category":"118","category_name":"超级市场","address":"洪山路1621临"},{"poiid":"B2094757D16BABF8449F","title":"联丰小学","lon":"121.508494","lat":"31.154115","category":"56","category_name":"小学","address":"上海洪山路1659号"},{"poiid":"B2094654DB6DA7FF469C","title":"都林嘉苑北园","lon":"121.51045","lat":"31.15361","category":"47","category_name":"住宅区","address":"杨南路1139弄1-20号"},{"poiid":"B2094757D16EAAF8409E","title":"中环","lon":"121.50605873","lat":"31.155739714","category":"500","category_name":"未知分类","address":"上海上中路隧道方向"},{"poiid":"B2094655D268A0FD479D","title":"上浦路565弄小区","lon":"121.508","lat":"31.1529","category":"47","category_name":"住宅区","address":"上浦路565弄1-23号"},{"poiid":"B2094655D26DA6FC4993","title":"都林嘉苑南园(杨南路)","lon":"121.51071","lat":"31.15243","category":"47","category_name":"住宅区","address":"杨南路1168弄1-31号"},{"poiid":"B2094654DB6DA7FF459F","title":"恒大瀚城翰林苑(北门)","lon":"121.50849","lat":"31.15243","category":"47","category_name":"住宅区","address":"上南路3899弄"},{"poiid":"B2094654DB65A6F5439F","title":"联丰新苑东门","lon":"121.50783","lat":"31.15451","category":"47","category_name":"住宅区","address":"上南路3651弄50-64号"},{"poiid":"B2094655D26BA5F84993","title":"恒宇小区(东门)","lon":"121.50819","lat":"31.15385","category":"47","category_name":"住宅区","address":"洪山路1658弄1-20号"},{"poiid":"B2094655D265A2FF4798","title":"恒宇小区","lon":"121.50765","lat":"31.153706","category":"47","category_name":"住宅区","address":"洪山路1658弄1-20号"},{"poiid":"B2094654DB6DA7FF479F","title":"三林社区卫生服务中心翰城服务站","lon":"121.50907","lat":"31.15307","category":"162","category_name":"医院","address":"东明路"},{"poiid":"B2094654DB64A1FA499F","title":"联丰新苑(北门)","lon":"121.50705","lat":"31.15477","category":"47","category_name":"住宅区","address":"上南路3651弄50-64号"},{"poiid":"B2094655D264A1FE449D","title":"都林嘉园","lon":"121.50749","lat":"31.15279","category":"47","category_name":"住宅区","address":"都林嘉园位于浦东浦东新区上南路3759弄1号"},{"poiid":"B2094753D76CA2FA4899","title":"上海东方体育中心","lon":"121.50756","lat":"31.153347","category":"500","category_name":"未知分类","address":"上海市 高青路"},{"poiid":"B2094655D36DA7FC4693","title":"云台路杨南路","lon":"121.51147","lat":"31.15434","category":"38","category_name":"公交车站","address":""},{"poiid":"B2094654DB6DA7FF469B","title":"快客No.6375","lon":"121.50942","lat":"31.15254","category":"117","category_name":"便民商店/便利店","address":"杨南路1116"},{"poiid":"B2094750D76FA2F54093","title":"韩福烧烤","lon":"121.503","lat":"31.1547","category":"96","category_name":"韩国料理","address":"浦东新区上南路3521号D栋宝丰生活广场1楼11-12号(近高清路)"},{"poiid":"B2094654DB6CA0FD499B","title":"源城锦翠苑","lon":"121.50390175708","lat":"31.156903327341","category":"47","category_name":"住宅区","address":"灵岩南路499弄1-62号"},{"poiid":"B2094654DB6DA7F4489D","title":"尚武楼","lon":"121.50572","lat":"31.14958","category":"46","category_name":"楼宇","address":"上海浦东新区上南路3886号"},{"poiid":"B2094654DB6DA7FF439F","title":"联丰苑","lon":"121.50687","lat":"31.153183","category":"47","category_name":"住宅区","address":"杨南路1015弄1-16号"},{"poiid":"B2094752D265A5FE489A","title":"上海市同济大学附属东方医院（）","lon":"121.508923","lat":"31.154978","category":"627","category_name":"一般地点标志","address":null},{"poiid":"B2094654DB6DA7FF419A","title":"宝银商务楼","lon":"121.50602","lat":"31.15431","category":"46","category_name":"楼宇","address":"上南路3651弄18号"},{"poiid":"B2094757D169A5FD489C","title":"长乐面馆","lon":"121.50873076","lat":"31.152136727","category":"247","category_name":"餐饮美食","address":"上海杨南路891号"},{"poiid":"B2094655D268A0FA459A","title":"上浦路505弄小区","lon":"121.50582579833","lat":"31.153300850034","category":"47","category_name":"住宅区","address":"上浦路505弄1-20号"},{"poiid":"B2094757D16AA2F8409B","title":"980路杨南路洪山路站","lon":"121.509507611","lat":"31.1529640805","category":"500","category_name":"未知分类","address":"上海浦东新区洪山路近杨南路西侧"},{"poiid":"B2094655D26FA2F94499","title":"上海如日商务园","lon":"121.50713","lat":"31.15111","category":"45","category_name":"产业园区","address":"上南路3855号"},{"poiid":"B2094654DB6DA7FF419B","title":"联丰新苑","lon":"121.50667","lat":"31.154043","category":"47","category_name":"住宅区","address":"洪山路1658弄1-20号"},{"poiid":"B2094757D168A3F9469C","title":"小红楼","lon":"121.50734650114","lat":"31.157019000286","category":"77","category_name":"湖南菜","address":"上海浦东新区杨南路717号(近上南路)  "},{"poiid":"B2094757D76AA2FA499F","title":"武汉炸酱面大王","lon":"121.50523","lat":"31.152176","category":"68","category_name":"快餐厅","address":"浦东新区杨南路883号(近家得利超市)"},{"poiid":"B2094750DA65A5FF4398","title":"金谊广场","lon":"121.503639","lat":"31.156888","category":"248","category_name":"生活娱乐","address":"永泰路"},{"poiid":"B2094757D16CA0F5489F","title":"联丰桌球","lon":"121.50577673","lat":"31.156544731","category":"248","category_name":"生活娱乐","address":"上海高青路(近上南路)"},{"poiid":"B2094654DB6DA7FA459D","title":"上南玲珑苑","lon":"121.50729","lat":"31.150827","category":"47","category_name":"住宅区","address":"上南路3881弄1-22号"},{"poiid":"B2094750D26EA4FD479E","title":"斐生大酒店 上南路店","lon":"121.50443267822","lat":"31.152368545532","category":"247","category_name":"餐饮美食","address":"上南路3719号近杨南路"},{"poiid":"B2094655D26FA7FA4993","title":"联丰苑(南门)","lon":"121.50674","lat":"31.15252","category":"47","category_name":"住宅区","address":"杨南路1015弄1-16号"},{"poiid":"B2094751D56EA0FB4598","title":"大鼓米线(上南路店)","lon":"121.50273","lat":"31.15476","category":"68","category_name":"快餐厅","address":"浦东新区上南路3521号卜蜂莲花1楼(近肯德基)"},{"poiid":"B2094655D26FA1F84993","title":"苏州藏书羊肉馆(上海斯米克焊材有限公司西)","lon":"121.50473","lat":"31.15219","category":"257","category_name":"中餐厅","address":"浦东新区杨南路(近上南路)"},{"poiid":"B2094757D069A4F4409A","title":"杨南新村","lon":"121.50421","lat":"31.150818","category":"500","category_name":"未知分类","address":"上海杨南路826弄"},{"poiid":"B2094752DB69A6FD479C","title":"上海东方医院南院","lon":"121.510877","lat":"31.15064","category":"500","category_name":"未知分类","address":"上海市 上南路"},{"poiid":"B2094757D06AAAFC489C","title":"杨南路海鲜排挡","lon":"121.50371","lat":"31.15145","category":"88","category_name":"海鲜酒楼","address":"上海浦东新区杨南路(近上南路)"},{"poiid":"B2094655D268A3F84993","title":"浦东新区国家税务局第十六税务所(上海如日商务园东北)","lon":"121.50791","lat":"31.15147","category":"250","category_name":"公园户外","address":""},{"poiid":"B2094750D269A3FF439C","title":"牛百碗 海阳路店","lon":"121.506","lat":"31.15076","category":"68","category_name":"快餐厅","address":"浦东新区上南路3855号如日商务园11幢1楼102铺"},{"poiid":"B2094757D568ABFA4993","title":"叠翠上南","lon":"121.507495","lat":"31.158292","category":"47","category_name":"住宅区","address":"上海市浦东新区杨南路79弄"},{"poiid":"B2094655D268A3F9409B","title":"上南路3827弄小区","lon":"121.511201","lat":"31.157555","category":"47","category_name":"住宅区","address":"上南路3827弄1-15号"},{"poiid":"B2094654DB6AA7FA4599","title":"大娘水饺(上南店)","lon":"121.50267","lat":"31.15472","category":"68","category_name":"快餐厅","address":"浦东新区上南路3521号卜峰莲花1楼(近海阳路)"},{"poiid":"B2094655D26AA2FE429E","title":"老妈饭店","lon":"121.50542","lat":"31.15188","category":"247","category_name":"餐饮美食","address":"浦东新区上南路3787号家得利超市旁(杨南路口)"},{"poiid":"B2094757D16CA4F84592","title":"海阳路烧烤","lon":"121.50513","lat":"31.15797","category":"68","category_name":"快餐厅","address":"浦东新区海阳路(近782终点站)"},{"poiid":"B2094655D26EA6FE479A","title":"联合西点之比萨工坊(洪山路店)","lon":"121.51033","lat":"31.1512","category":"247","category_name":"餐饮美食","address":"浦东新区洪山路1889弄24号翰锦苑会所102室"},{"poiid":"B2094655D268A2FF449C","title":"上南路3984弄小区","lon":"121.512906","lat":"31.153969","category":"47","category_name":"住宅区","address":"上南路3984弄1-8号"},{"poiid":"B2094655D268A7F9499E","title":"凌兆路555弄","lon":"121.5084683587","lat":"31.150237073966","category":"47","category_name":"住宅区","address":"凌兆路555弄1-20号"},{"poiid":"B2094654DB69A5F94092","title":"文峰美容美发(杨南路店)","lon":"121.50487","lat":"31.1524","category":"148","category_name":"美容美发店","address":"浦东新区杨南路847号(近上南路口)"},{"poiid":"B2094757D065AAFC4492","title":"易初莲花上南店","lon":"121.50320646","lat":"31.1528814907","category":"500","category_name":"未知分类","address":"上海上南路"},{"poiid":"B2094757D16EA5FA4298","title":"海阳路 云台路","lon":"121.508873","lat":"31.157658","category":"500","category_name":"未知分类","address":"上海海阳路云台路口"},{"poiid":"B2094655D26FABFC489A","title":"都林嘉苑北园(南门)","lon":"121.51102","lat":"31.15348","category":"48","category_name":"楼宇大门","address":"杨南路1139弄1-20号"},{"poiid":"B2094757D16DA3F54293","title":"鼎鸿海鲜","lon":"121.505056738","lat":"31.1518786322","category":"247","category_name":"餐饮美食","address":"上海杨南路923号"},{"poiid":"B2094757D16EA2FF429F","title":"包旺锅贴","lon":"121.50364683","lat":"31.151889432","category":"68","category_name":"快餐厅","address":"浦东新区上南路3787号(近昌里路)"},{"poiid":"B2094757D16AA3F9469A","title":"联丰小区","lon":"121.506298","lat":"31.151592","category":"47","category_name":"住宅区","address":"上海上南路3827弄"},{"poiid":"B2094655D268A6FD429B","title":"俪金生活广场","lon":"121.50407","lat":"31.15538","category":"119","category_name":"商场","address":"浦东新区上南路3521号宝丰综合市场内(近恒大桥)"},{"poiid":"B2094654DB6AA7F54798","title":"吉野家  上南店","lon":"121.50331","lat":"31.15529","category":"68","category_name":"快餐厅","address":"浦东新区上南路3521号卜蜂莲花1楼(近海阳路)"},{"poiid":"B2094654DB65AAF44399","title":"纯翠上南","lon":"121.50765608781","lat":"31.158671939999","category":"47","category_name":"住宅区","address":"上海市浦东新区上南路3775号"},{"poiid":"B2094654DB6DA7FF449C","title":"良友金伴No.208","lon":"121.50502","lat":"31.15225","category":"117","category_name":"便民商店/便利店","address":""},{"poiid":"B2094757D56DA3FD429C","title":"黄金弯川菜馆","lon":"121.503539054","lat":"31.151362793","category":"71","category_name":"四川菜","address":"浦东新区上南路3856号"},{"poiid":"B2094654DB65AAFA409B","title":"济阳人家","lon":"121.50571","lat":"31.15144","category":"47","category_name":"住宅区","address":"济阳人家位于浦东上南路3819号"},{"poiid":"B2094654DB6DA7FF489D","title":"香樟园1065弄小区","lon":"121.50621","lat":"31.15919","category":"47","category_name":"住宅区","address":"海阳路1-28号"},{"poiid":"B2094654DB64A1FB429B","title":"家得利(上南店)","lon":"121.50537","lat":"31.15165","category":"118","category_name":"超级市场","address":"浦东新区上南路3787号"},{"poiid":"B2094654DB64A1FA4993","title":"都林嘉苑南园","lon":"121.510075","lat":"31.15268","category":"48","category_name":"楼宇大门","address":"杨南路1168弄1-31号"},{"poiid":"B2094757D465A0FB449F","title":"舟山海鲜","lon":"121.504389054","lat":"31.152524793","category":"88","category_name":"海鲜酒楼","address":"浦东新区杨南路(近上南路)"},{"poiid":"B2094655D268A6FC469B","title":"凌兆路530弄","lon":"121.50733104851","lat":"31.149922667071","category":"47","category_name":"住宅区","address":"凌兆路530弄79"},{"poiid":"B2094655D268A7FD4292","title":"凌兆路521弄小区","lon":"121.507","lat":"31.1499","category":"47","category_name":"住宅区","address":"凌兆路521弄1-34号"},{"poiid":"B2094655D269A4F4479E","title":"重庆周氏麻辣烫上南路店","lon":"121.50238","lat":"31.15513","category":"68","category_name":"快餐厅","address":"浦东新区上南路3521号宝丰综合市场23号(近易初莲花)"},{"poiid":"B2094757D065ABFF4799","title":"上海市恒宇幼儿园","lon":"121.505036738","lat":"31.1546556913","category":"500","category_name":"未知分类","address":"浦东新区杨南路1039号"},{"poiid":"B2094654DB65A6F94798","title":"上南山水苑","lon":"121.50477","lat":"31.15894","category":"47","category_name":"住宅区","address":"上海市浦东新区上南路3345号"},{"poiid":"B2094757D16AA5FD489F","title":"黄兴阁海鲜","lon":"121.50473373","lat":"31.151838631","category":"500","category_name":"未知分类","address":"上海市浦东新区杨南路913号"},{"poiid":"B2094654DB6DA0F5469F","title":"桃李家园","lon":"121.50695","lat":"31.16067","category":"47","category_name":"住宅区","address":"上南路3339弄62-118号"},{"poiid":"B2094757D16DA6FE4198","title":"双秀南园","lon":"121.511","lat":"31.1576","category":"252","category_name":"楼宇机构","address":"上海浦东区上南路6869弄"},{"poiid":"B2094655D26DA6FD419E","title":"翰城国际(西门)","lon":"121.50785","lat":"31.15522","category":"656","category_name":"大门","address":"云台路1000弄"},{"poiid":"B2094655D26FA7F4489F","title":"上海如日商务园(西门)","lon":"121.50601","lat":"31.15073","category":"45","category_name":"产业园区","address":"上南路3855号"},{"poiid":"B2094655D36DA7F84098","title":"中林","lon":"121.50528","lat":"31.151","category":"38","category_name":"公交车站","address":""},{"poiid":"B2094757D46FA3FF429B","title":"克莉丝汀 杨南路店 Christine","lon":"121.50164","lat":"31.15139","category":"112","category_name":"糕饼店","address":"浦东新区杨南路741号(近杨南支路)"},{"poiid":"B2094655D26DA6FD4199","title":"翰城国际(东门)","lon":"121.51123","lat":"31.15419","category":"656","category_name":"大门","address":"云台路1000弄1-39号"},{"poiid":"B2094655D26AA5FC489F","title":"新疆伊德回民餐厅","lon":"121.50238","lat":"31.15513","category":"90","category_name":"清真餐馆","address":"浦东新区上南路3521号宝丰综合市场11号(近浦东南路)"},{"poiid":"B2094757D065A0FF459C","title":"尚东国际","lon":"121.512734","lat":"31.160524","category":"252","category_name":"楼宇机构","address":"上海海阳路1333弄"},{"poiid":"B2094655D268A6FD4192","title":"宝丰KTV","lon":"121.50431","lat":"31.15621","category":"170","category_name":"KTV","address":""},{"poiid":"B2094655D36DA6FD4599","title":"华夏西路","lon":"121.51406","lat":"31.15075","category":"38","category_name":"公交车站","address":""},{"poiid":"B2094654DA65AAF44898","title":"宝联宾馆","lon":"121.50244","lat":"31.15511","category":"250","category_name":"公园户外","address":"浦东新区上南路3521号宝丰综合市场内(近高青路)"},{"poiid":"B2094757D16CA5FB459D","title":"黄兴阁","lon":"121.507435054","lat":"31.152916793","category":"260","category_name":"其他","address":"浦东新区杨南路919-923号(家得利超市斜对面)"},{"poiid":"B2094757D068A5F84199","title":"纯翠苑","lon":"121.50252","lat":"31.152216","category":"47","category_name":"住宅区","address":"上海杨南路797弄"},{"poiid":"B2094655D26FA7F4459E","title":"纯翠苑(南门)","lon":"121.50271","lat":"31.1516","category":"656","category_name":"大门","address":"杨南路797弄"},{"poiid":"B2094654DB6DA7FF499A","title":"快客No.6855(海阳路)","lon":"121.50472","lat":"31.15804","category":"117","category_name":"便民商店/便利店","address":"海阳路980号"},{"poiid":"B2094655D26EA2FF469E","title":"上南玲珑苑(西门)","lon":"121.50623","lat":"31.15024","category":"47","category_name":"住宅区","address":"上南路3881弄1-22号"},{"poiid":"B2094654DA65AAF4469A","title":"宝丰商务楼","lon":"121.50266","lat":"31.15477","category":"46","category_name":"楼宇","address":"上南路3521"},{"poiid":"B2094750D76EA3FA4392","title":"清风人家(上南店)","lon":"121.503","lat":"31.1547","category":"260","category_name":"其他","address":"浦东新区上南路3521号宝丰生活广场3楼(近高青路)"},{"poiid":"B2094757D06BA4FF4499","title":"新时代小学(浦三校区)","lon":"121.506219088","lat":"31.1503332494","category":"56","category_name":"小学","address":"上海浦三路2859号"},{"poiid":"B2094655D26FABFC4792","title":"都林嘉苑南园(北门)","lon":"121.51058","lat":"31.15307","category":"656","category_name":"大门","address":"杨南路1168弄1-31号"},{"poiid":"B2094655D26DA6FD4099","title":"香樟园1065弄小区(南门)","lon":"121.50608","lat":"31.15868","category":"47","category_name":"住宅区","address":"海阳路1-28号"},{"poiid":"B2094654DA65AAF5419B","title":"上海宝丰服饰城(1号门)","lon":"121.5038","lat":"31.15443","category":"141","category_name":"服装鞋帽皮具店","address":"上南路3521号"},{"poiid":"B2094757D06AABFB499D","title":"维也纳国际酒店","lon":"121.50598","lat":"31.14932","category":"217","category_name":"旅馆招待所","address":"浦东新区上南路3039号(上南路杨思路)"},{"poiid":"B2094757D16DA1FC479D","title":"Setsuna’s Home","lon":"121.505099158","lat":"31.1523898331","category":"500","category_name":"未知分类","address":null},{"poiid":"B2094655D26AA0FA429C","title":"地铁上南路站","lon":"121.50709","lat":"31.14848","category":"36","category_name":"地铁站","address":""},{"poiid":"B2094655D36DA6FE449D","title":"上南路","lon":"121.50709","lat":"31.14848","category":"38","category_name":"公交车站","address":""},{"poiid":"B2094757D16FA7F54599","title":"中国工商银行（三林路支行）","lon":"121.504489","lat":"31.151959","category":"150","category_name":"银行","address":"浦东新区三林路818号近上南路(近上南路)"},{"poiid":"B2094757D16CA1F5489D","title":"EIKIの妈妈家","lon":"121.50515173","lat":"31.150281598","category":"247","category_name":"餐饮美食","address":"上海凌兆路711弄18号"},{"poiid":"B2094654DB6DA7FF459D","title":"瀚锦苑(西门)","lon":"121.51081","lat":"31.1509","category":"656","category_name":"大门","address":"洪山路1889弄"},{"poiid":"B2094757D66CAAF4449A","title":"上南路3651弄","lon":"121.50376303","lat":"31.154174781","category":"252","category_name":"楼宇机构","address":"上海上南路3651弄"},{"poiid":"B2094655D26DA6FD429B","title":"恒大翰城瀚林苑(东门)","lon":"121.50953","lat":"31.15172","category":"656","category_name":"大门","address":"上南路3899弄132"},{"poiid":"B2094654DA65AAF4489B","title":"中国建设银行上海市杨思支行","lon":"121.50263","lat":"31.15465","category":"150","category_name":"银行","address":"浦东新区上南路3521号宝丰综合市场内(近浦东南路)"},{"poiid":"B2094655D26DA5FF499D","title":"恒大翰城瀚锦苑(西门)","lon":"121.51044","lat":"31.15107","category":"48","category_name":"楼宇大门","address":"洪山路1889弄"},{"poiid":"B2094751D26CA1FF4093","title":"迪士尼英语","lon":"121.503952","lat":"31.156194","category":"253","category_name":"校园生活","address":"金谊广场3楼"},{"poiid":"B2094655D268A3F9409E","title":"上南路3827弄小区(北门)","lon":"121.50736","lat":"31.15231","category":"656","category_name":"大门","address":"上南路3827弄"},{"poiid":"B2094654DB6DA7FA469C","title":"源盛网吧","lon":"121.50585","lat":"31.15105","category":"176","category_name":"网吧","address":"上南路3835-3841号"},{"poiid":"B2094654DB6DA0F5479B","title":"杨思医院杨东社区卫生服务站","lon":"121.50738","lat":"31.16045","category":"162","category_name":"医院","address":"三林镇"},{"poiid":"B2094757D064A4F94698","title":"上南春天苑","lon":"121.50412","lat":"31.15089","category":"252","category_name":"楼宇机构","address":"上海市浦东新区上南路4265弄"},{"poiid":"B2094757D169ABFF459D","title":"上海银行华夏西路支行","lon":"121.506469738","lat":"31.1501395952","category":"150","category_name":"银行","address":"上海市浦东新区上南路3895号"},{"poiid":"B2094757D16DA6FA4493","title":"上南路杨南路号如日商务","lon":"121.50601196","lat":"31.150733947","category":"500","category_name":"未知分类","address":"上海上南路3855号"},{"poiid":"B2094654DB6DA7F44893","title":"浦东新区武术协会","lon":"121.50571","lat":"31.14958","category":"250","category_name":"公园户外","address":"上南路3886号尚武楼"},{"poiid":"B2094757D16EA1F44293","title":"中国石化加油站(联明路站)","lon":"121.51334245","lat":"31.14992746","category":"154","category_name":"加油加气站","address":"上海浦东新区联明路88号"},{"poiid":"B2094654DB64A1FA479D","title":"好德便利No.840","lon":"121.50674","lat":"31.16023","category":"117","category_name":"便民商店/便利店","address":"上南路3339弄84号101室"},{"poiid":"B2094654DB6CA0FD4399","title":"永盛美容美发中心","lon":"121.50344","lat":"31.15178","category":"148","category_name":"美容美发店","address":""},{"poiid":"B2094654DB6DA0F5459C","title":"联丰二期(南门)","lon":"121.50553","lat":"31.15986","category":"47","category_name":"住宅区","address":"上南路3339弄44-60号"},{"poiid":"B2094654DB6DA0F5459D","title":"联丰二期","lon":"121.50572","lat":"31.16044","category":"47","category_name":"住宅区","address":"上南路3339弄44-60号"},{"poiid":"B2094655D26DA6FD419F","title":"瀚锦苑(东门)","lon":"121.51222","lat":"31.15171","category":"656","category_name":"大门","address":"洪山路1889弄"},{"poiid":"B2094654DB6DA0F54698","title":"永旭堂大药房(上浜路)","lon":"121.50668","lat":"31.16022","category":"162","category_name":"医院","address":"浦东新区上南路3339弄84号(海阳路上南路)"},{"poiid":"B2094655D268A6FD419E","title":"飞旺花苑二期","lon":"121.50302","lat":"31.15735","category":"47","category_name":"住宅区","address":""},{"poiid":"B2094757D16FA7FC469B","title":"上南路三林路","lon":"121.50708643","lat":"31.148724365","category":"500","category_name":"未知分类","address":"上海某小区"},{"poiid":"B2094655D36CA2FE4592","title":"埔东新区三林镇01街坊三期","lon":"121.51244","lat":"31.15981","category":"47","category_name":"住宅区","address":""},{"poiid":"B2094757D16DABF54692","title":"三林功能区公安处","lon":"121.503169238","lat":"31.1554316278","category":"500","category_name":"未知分类","address":"上海长清路2311号"},{"poiid":"B2094757D16AA7F4439C","title":"新爱婴","lon":"121.5113332","lat":"31.149781102","category":"500","category_name":"未知分类","address":"上海巴黎春天(成山店)"},{"poiid":"B2094757D069A4FB4293","title":"盛南易初莲花(上南店)","lon":"121.50331821","lat":"31.155285395","category":"500","category_name":"未知分类","address":"上海上南路3521号"},{"poiid":"B2094655D268A6FD419F","title":"飞旺花苑二期(北门)","lon":"121.50283","lat":"31.15761","category":"47","category_name":"住宅区","address":""},{"poiid":"B2094751D26CA4FF429A","title":"衣加","lon":"121.503501","lat":"31.151615","category":"500","category_name":"未知分类","address":"杨南路827号"},{"poiid":"B2094655D268A3F94098","title":"上南路3827弄小区(西门)","lon":"121.50582","lat":"31.15139","category":"656","category_name":"大门","address":"上南路3827弄1-15号"},{"poiid":"B2094655D268A2FF449F","title":"上南路3984弄小区(东门)","lon":"121.50625","lat":"31.1481","category":"47","category_name":"住宅区","address":"上南路3984弄1-8号"},{"poiid":"B2094751D264A0FD4899","title":"spt汽車性能提升中心","lon":"121.50485318042604","lat":"31.158454136165055","category":"263","category_name":"公司","address":"大桶浦东新区海阳路1163-1165号"},{"poiid":"B2094654DB64A1FB409B","title":"香樟苑(西门)","lon":"121.50661","lat":"31.15718","category":"656","category_name":"大门","address":"海阳路1080弄44"},{"poiid":"B2094757D16DABFC4292","title":"山水苑(一期)","lon":"121.503321","lat":"31.1586","category":"500","category_name":"未知分类","address":"上海海阳路905弄"},{"poiid":"B2094654DB6DA7FA4498","title":"上海良兆南北货食品批发市场","lon":"121.50941","lat":"31.14754","category":"123","category_name":"家具建材市场","address":"上南路4085"},{"poiid":"B2094655D268A6FD469D","title":"吉利名苑(南门)","lon":"121.50719","lat":"31.15892","category":"48","category_name":"楼宇大门","address":""},{"poiid":"B2094655D26AABFA489D","title":"三林武术院","lon":"121.50571","lat":"31.14959","category":"149","category_name":"洗浴推拿场所","address":"浦东新区上南路3886号尚武楼北4楼"},{"poiid":"B2094757D66FA2FE419C","title":"东方学堂","lon":"121.506842738","lat":"31.1489222694","category":"190","category_name":"培训机构","address":"浦东新区三林路842号(近上南路)"},{"poiid":"B2094757D168A6FD4998","title":"S.s's home","lon":"121.50680283","lat":"31.159926903","category":"500","category_name":"未知分类","address":"上海上南路3339弄"},{"poiid":"B2094757D16BA3F8489C","title":"978灵岩南路凌兆路车站","lon":"121.50236973","lat":"31.154230382","category":"500","category_name":"未知分类","address":"上海灵岩南路凌兆路"},{"poiid":"B2094750D76FA2FE429C","title":"象山海鲜楼","lon":"121.50669","lat":"31.15907","category":"260","category_name":"其他","address":"浦东新区板泉路999号(近上南路)"},{"poiid":"B2094655D265A2F84299","title":"上南春天苑(北门)","lon":"121.5038","lat":"31.15142","category":"48","category_name":"楼宇大门","address":""},{"poiid":"B2094655D26FAAFC489B","title":"杨南新村(东门)","lon":"121.50479","lat":"31.15115","category":"656","category_name":"大门","address":"杨南路826弄1-46号"},{"poiid":"B2094655D26DA6FD429D","title":"香樟苑(北门)","lon":"121.50653","lat":"31.15845","category":"656","category_name":"大门","address":"海阳路1080弄1-91号"},{"poiid":"B2094757D164A1FE419B","title":"斯尔丽","lon":"121.50440373","lat":"31.149586583","category":"500","category_name":"未知分类","address":"上海凌兆路上南路"},{"poiid":"B2094655D26DA6FD4198","title":"上南山水苑(北门)","lon":"121.50512","lat":"31.15818","category":"656","category_name":"大门","address":"海阳路1000弄1-14号"},{"poiid":"B2094654DB64ABFE469D","title":"中国建设银行上海杨思支行24小时自助银行","lon":"121.50261","lat":"31.15468","category":"152","category_name":"ATM","address":"上南路3521"},{"poiid":"B2094655D26FA7F8419B","title":"杨南新村(北门)","lon":"121.50389","lat":"31.15147","category":"656","category_name":"大门","address":"杨南路826弄1-46、828弄1-8号"},{"poiid":"B2094655D26FA7F84793","title":"恒大翰城瀚林苑(西门)","lon":"121.50647","lat":"31.14994","category":"656","category_name":"大门","address":"上南路3899弄1-133号"},{"poiid":"B2094655D26FABF5489B","title":"纯翠苑(东门)","lon":"121.50267","lat":"31.15273","category":"656","category_name":"大门","address":"杨南路797弄"},{"poiid":"B2094654DB65A6F94793","title":"日月新苑(正门)","lon":"121.50563","lat":"31.1498","category":"656","category_name":"大门","address":"上南路3880弄"},{"poiid":"B2094655D26DA6FC4299","title":"上南山水苑(西门)","lon":"121.50418","lat":"31.15894","category":"656","category_name":"大门","address":"海阳路1001弄1-22号"},{"poiid":"B2094654DB6DA0F5469E","title":"桃李家园(南门)","lon":"121.50691","lat":"31.1603","category":"656","category_name":"大门","address":"上南路339弄62-118号"},{"poiid":"B2094655D26DA6FC4298","title":"上南山水苑(东门)","lon":"121.50384","lat":"31.15886","category":"656","category_name":"大门","address":"海阳路905弄1-19号"},{"poiid":"B2094655D26FABFC489E","title":"尚东国际名园Ⅱ(南门)","lon":"121.51273","lat":"31.16052","category":"656","category_name":"大门","address":"海阳路1333弄"}]