[{"poiid":"B2094655D26FA0FB449C","title":"共青国家森林公园","lon":"121.55085","lat":"31.32009","category":"240","category_name":"国家级景点","address":"军工路2000号"},{"poiid":"B2094757D068A0FD4693","title":"烧烤","lon":"121.545813","lat":"31.321156","category":"247","category_name":"餐饮美食","address":"上海共青森林公园"},{"poiid":"B2094757D06FA5FE499A","title":"东方国际水产中心","lon":"121.54228","lat":"31.33226","category":"249","category_name":"购物服务","address":"杨浦区军工路2866号(近浚浦局路)"},{"poiid":"B2094750D768ABFF499C","title":"共青森林公园烧烤区","lon":"121.546","lat":"31.3206","category":"68","category_name":"快餐厅","address":"杨浦区军工路2000号共青森林公园内"},{"poiid":"B2094654DB65A6FE409E","title":"上海城市管理学院(一号路)","lon":"121.55381","lat":"31.32524","category":"52","category_name":"高等院校","address":"军工路2360"},{"poiid":"B2094655D36DA0FB4098","title":"殷行路包头路","lon":"121.53734","lat":"31.3283","category":"38","category_name":"公交车站","address":""},{"poiid":"B2094757D068A4FE419D","title":"龙阳海鲜酒家","lon":"121.5551583","lat":"31.327923639","category":"88","category_name":"海鲜酒楼","address":"杨浦区军工路2600号水产批发市场内(近港水路)"},{"poiid":"B2094757D06FA1FD4799","title":"上海城市管理职业技术学院","lon":"121.54669","lat":"31.32383","category":"671","category_name":"高校中心点","address":"杨浦区军工路2360号(近森林公园)"},{"poiid":"B2094757D469A1FC489E","title":"东方国际海鲜城","lon":"121.545044054","lat":"31.328603793","category":"88","category_name":"海鲜酒楼","address":"杨浦区军工路2855号(殷行路口)"},{"poiid":"B2094757D06FA3FB449A","title":"城市名园","lon":"121.5383","lat":"31.330715","category":"47","category_name":"住宅区","address":"上海市金山区朱泾镇亭枫公路4089号"},{"poiid":"B2094757D665A1F94292","title":"荣锦记","lon":"121.54256","lat":"31.33215","category":"260","category_name":"其他","address":"杨浦区军工路2866号水产中心美食广场5-7号(近共青森林公园)"},{"poiid":"B2094655D36CA4FC469B","title":"包头路开鲁路","lon":"121.53845","lat":"31.32399","category":"38","category_name":"公交车站","address":""},{"poiid":"B2094757D06BABFC449F","title":"和记渔村 军工路店","lon":"121.54169","lat":"31.33249","category":"76","category_name":"上海菜","address":"杨浦区军工路2866号美食广场1号"},{"poiid":"B2094757D06AA7FE4492","title":"上海汽车商用车有限公司","lon":"121.5484938","lat":"31.326864672","category":"500","category_name":"未知分类","address":"上海军工路2500号"},{"poiid":"B2094757D069A2FC459B","title":"繁江酒楼(包头路店)","lon":"121.53788","lat":"31.33031","category":"76","category_name":"上海菜","address":"杨浦区包头路1135号(近国伟路)"},{"poiid":"B2094757D068A0FC4992","title":"市光一村","lon":"121.542811","lat":"31.322146","category":"47","category_name":"住宅区","address":"上海国和路包头路"},{"poiid":"B2094654D56FA0FA4092","title":"开鲁路31弄小区","lon":"121.548","lat":"31.3309","category":"47","category_name":"住宅区","address":"开鲁路31弄"},{"poiid":"B2094654D56FA0F94899","title":"殷行一村小区","lon":"121.54174","lat":"31.32747","category":"47","category_name":"住宅区","address":"上海市杨浦区开鲁路白城路"},{"poiid":"B2094654DB6AA6FE429F","title":"共青森林度假村","lon":"121.54578","lat":"31.32221","category":"207","category_name":"度假疗养场所","address":"杨浦区军工路2180号"},{"poiid":"B2094757D66EA4FC4298","title":"共青森林公园海盗船","lon":"121.5472672","lat":"31.320308965","category":"500","category_name":"未知分类","address":"上海军工路"},{"poiid":"B2094757D169A2FC4993","title":"上海汽车商用车技术中心","lon":"121.5471139","lat":"31.325946583","category":"500","category_name":"未知分类","address":"上海杨浦区军工路2500号"},{"poiid":"B2094654D56FA0FA419A","title":"工农四村","lon":"121.54053","lat":"31.324175","category":"47","category_name":"住宅区","address":"工农四村1-82号,105-121号,125-127号,130-133号,141-175号"},{"poiid":"B2094757D06AA5FD439C","title":"上海柴油机股份有限公司","lon":"121.544636","lat":"31.329626","category":"263","category_name":"公司","address":"上海市军工路2636号"},{"poiid":"B2094655D26FA0F54799","title":"开鲁路286弄","lon":"121.54453448497","lat":"31.331151779077","category":"47","category_name":"住宅区","address":"开鲁路286弄"},{"poiid":"B2094757D06FAAF9499D","title":"殷行二村","lon":"121.546","lat":"31.3339","category":"252","category_name":"楼宇机构","address":"上海包头路开鲁路"},{"poiid":"B2094757D06BA4FE489C","title":"殷行路250弄","lon":"121.541962303","lat":"31.3280365273","category":"252","category_name":"楼宇机构","address":"上海市杨浦区殷行路"},{"poiid":"B2094752D46AA1FC429F","title":"市光加油站","lon":"121.544656","lat":"31.327913","category":"153","category_name":"加油站","address":"上海市杨浦区市光路1200号(包头路口)"},{"poiid":"B2094654D568A2F84499","title":"上柴动力","lon":"121.54527","lat":"31.32973","category":"248","category_name":"生活娱乐","address":"军工路"},{"poiid":"B2094757D66AA5FD4098","title":"温岭石塘人家","lon":"121.54271","lat":"31.33072","category":"260","category_name":"其他","address":"军工路2866号东方国际水产中心海鲜城20号"},{"poiid":"B2094757D068A2F9439B","title":"殷行社区卫生服务中心","lon":"121.537663","lat":"31.327707","category":"162","category_name":"医院","address":"上海杨浦区包头路959号"},{"poiid":"B2094654D46BA3FE499A","title":"水产大楼","lon":"121.54235","lat":"31.332","category":"46","category_name":"楼宇","address":"军工路2850号"},{"poiid":"B2094757D66CA1FD4993","title":"morton's","lon":"121.545294","lat":"31.332942","category":"500","category_name":"未知分类","address":"上海IFC 4F"},{"poiid":"B2094655D26FA1F84892","title":"上海汽车集团股份有限公司商用车技术中心","lon":"121.54815","lat":"31.32703","category":"263","category_name":"公司","address":"军工路2500号"},{"poiid":"B2094757D068ABFB4598","title":"开鲁路白城路(公交537终)","lon":"121.542961","lat":"31.324811","category":"38","category_name":"公交车站","address":"上海杨浦区白城路开鲁路"},{"poiid":"B2094757D66CA7F44193","title":"温岭人家海鲜酒家","lon":"121.542867103","lat":"31.3348657703","category":"76","category_name":"上海菜","address":"杨浦区军工路2866号2楼"},{"poiid":"B2094654DB65A6FB449A","title":"上海内燃机研究所","lon":"121.54817","lat":"31.32703","category":"191","category_name":"科研机构","address":"军工路2500号"},{"poiid":"B2094655D265A7FB449D","title":"星悦苑","lon":"121.546505","lat":"31.325107","category":"47","category_name":"住宅区","address":"上海市杨浦区市光三村214-226号"},{"poiid":"B2094655D26CA6FD439E","title":"星源花苑","lon":"121.54223","lat":"31.323984","category":"47","category_name":"住宅区","address":"上海市杨浦区市光路750号"},{"poiid":"B2094757D165A2FF4198","title":"上海城市管理职业技术学院图书馆","lon":"121.552574103","lat":"31.3261675882","category":"181","category_name":"图书馆","address":"上海市杨浦区军工路2360号 (近共青森林公园)"},{"poiid":"B2094757D165AAFB4093","title":"上海石油公司物流中心","lon":"121.546669","lat":"31.32653","category":"500","category_name":"未知分类","address":"上海杨浦区军工路2488号"},{"poiid":"B2094757D16EABF4419F","title":"泰阁苑鱼翅酒楼","lon":"121.54672","lat":"31.32307","category":"72","category_name":"广东菜","address":"杨浦区军工路1978号(共青森林公园西大门)"},{"poiid":"B2094757D465A0F4429C","title":"老同兴苏州汤包馆","lon":"121.53836","lat":"31.32658","category":"68","category_name":"快餐厅","address":"杨浦区包头路978号(近殷行路)"},{"poiid":"B2094757D16DA7F8489B","title":"福昌溶潮粤海鲜酒楼","lon":"121.54161834","lat":"31.332691192","category":"72","category_name":"广东菜","address":"杨浦区军工路2866号东方海鲜美食2楼(近殷行路)"},{"poiid":"B2094757D068A6F84599","title":"工农公园","lon":"121.53789","lat":"31.32574","category":"196","category_name":"公园","address":"杨浦区包头路929号(近殷行路)"},{"poiid":"B2094757D064A6F5429B","title":"军工路水产批发市场","lon":"121.542672","lat":"31.333451372","category":"500","category_name":"未知分类","address":"上海杨浦区军工路"},{"poiid":"B2094757D66EA5F54092","title":"金龙新村","lon":"121.54373671984","lat":"31.334932558568","category":"252","category_name":"楼宇机构","address":"上海杨浦区殷行路430弄"},{"poiid":"B2094757D06FA5FB459B","title":"殷行路310弄","lon":"121.539127","lat":"31.32899","category":"252","category_name":"楼宇机构","address":"杨浦区殷行路310弄"},{"poiid":"B2094757D069A1FF459E","title":"上海城市管理学院第一食堂","lon":"121.55423","lat":"31.32519","category":"68","category_name":"快餐厅","address":"杨浦区军工路2360号城市管理学院内(近森林公园)"},{"poiid":"B2094654DB69A7F8429D","title":"上海港国际货运有限公司共青码头","lon":"121.5553","lat":"31.32986","category":"34","category_name":"港口码头","address":"杨浦区军工路"},{"poiid":"B2094654D568A2F8419A","title":"顺达小区","lon":"121.54127","lat":"31.32937","category":"47","category_name":"住宅区","address":"殷行路250"},{"poiid":"B2094655D26FA0FB449C","title":"共青国家森林公园","lon":"121.55085","lat":"31.32009","category":"240","category_name":"国家级景点","address":"军工路2000号"},{"poiid":"B2094757D068A0FD4693","title":"烧烤","lon":"121.545813","lat":"31.321156","category":"247","category_name":"餐饮美食","address":"上海共青森林公园"},{"poiid":"B2094757D06FA5FE499A","title":"东方国际水产中心","lon":"121.54228","lat":"31.33226","category":"249","category_name":"购物服务","address":"杨浦区军工路2866号(近浚浦局路)"},{"poiid":"B2094750D768ABFF499C","title":"共青森林公园烧烤区","lon":"121.546","lat":"31.3206","category":"68","category_name":"快餐厅","address":"杨浦区军工路2000号共青森林公园内"},{"poiid":"B2094654DB65A6FE409E","title":"上海城市管理学院(一号路)","lon":"121.55381","lat":"31.32524","category":"52","category_name":"高等院校","address":"军工路2360"},{"poiid":"B2094655D36DA0FB4098","title":"殷行路包头路","lon":"121.53734","lat":"31.3283","category":"38","category_name":"公交车站","address":""},{"poiid":"B2094757D068A4FE419D","title":"龙阳海鲜酒家","lon":"121.5551583","lat":"31.327923639","category":"88","category_name":"海鲜酒楼","address":"杨浦区军工路2600号水产批发市场内(近港水路)"},{"poiid":"B2094757D06FA1FD4799","title":"上海城市管理职业技术学院","lon":"121.54669","lat":"31.32383","category":"671","category_name":"高校中心点","address":"杨浦区军工路2360号(近森林公园)"},{"poiid":"B2094757D469A1FC489E","title":"东方国际海鲜城","lon":"121.545044054","lat":"31.328603793","category":"88","category_name":"海鲜酒楼","address":"杨浦区军工路2855号(殷行路口)"},{"poiid":"B2094757D06FA3FB449A","title":"城市名园","lon":"121.5383","lat":"31.330715","category":"47","category_name":"住宅区","address":"上海市金山区朱泾镇亭枫公路4089号"},{"poiid":"B2094757D665A1F94292","title":"荣锦记","lon":"121.54256","lat":"31.33215","category":"260","category_name":"其他","address":"杨浦区军工路2866号水产中心美食广场5-7号(近共青森林公园)"},{"poiid":"B2094655D36CA4FC469B","title":"包头路开鲁路","lon":"121.53845","lat":"31.32399","category":"38","category_name":"公交车站","address":""},{"poiid":"B2094757D06BABFC449F","title":"和记渔村 军工路店","lon":"121.54169","lat":"31.33249","category":"76","category_name":"上海菜","address":"杨浦区军工路2866号美食广场1号"},{"poiid":"B2094757D06AA7FE4492","title":"上海汽车商用车有限公司","lon":"121.5484938","lat":"31.326864672","category":"500","category_name":"未知分类","address":"上海军工路2500号"},{"poiid":"B2094757D069A2FC459B","title":"繁江酒楼(包头路店)","lon":"121.53788","lat":"31.33031","category":"76","category_name":"上海菜","address":"杨浦区包头路1135号(近国伟路)"},{"poiid":"B2094757D068A0FC4992","title":"市光一村","lon":"121.542811","lat":"31.322146","category":"47","category_name":"住宅区","address":"上海国和路包头路"},{"poiid":"B2094654D56FA0FA4092","title":"开鲁路31弄小区","lon":"121.548","lat":"31.3309","category":"47","category_name":"住宅区","address":"开鲁路31弄"},{"poiid":"B2094654D56FA0F94899","title":"殷行一村小区","lon":"121.54174","lat":"31.32747","category":"47","category_name":"住宅区","address":"上海市杨浦区开鲁路白城路"},{"poiid":"B2094654DB6AA6FE429F","title":"共青森林度假村","lon":"121.54578","lat":"31.32221","category":"207","category_name":"度假疗养场所","address":"杨浦区军工路2180号"},{"poiid":"B2094757D66EA4FC4298","title":"共青森林公园海盗船","lon":"121.5472672","lat":"31.320308965","category":"500","category_name":"未知分类","address":"上海军工路"},{"poiid":"B2094757D169A2FC4993","title":"上海汽车商用车技术中心","lon":"121.5471139","lat":"31.325946583","category":"500","category_name":"未知分类","address":"上海杨浦区军工路2500号"},{"poiid":"B2094654D56FA0FA419A","title":"工农四村","lon":"121.54053","lat":"31.324175","category":"47","category_name":"住宅区","address":"工农四村1-82号,105-121号,125-127号,130-133号,141-175号"},{"poiid":"B2094757D06AA5FD439C","title":"上海柴油机股份有限公司","lon":"121.544636","lat":"31.329626","category":"263","category_name":"公司","address":"上海市军工路2636号"},{"poiid":"B2094655D26FA0F54799","title":"开鲁路286弄","lon":"121.54453448497","lat":"31.331151779077","category":"47","category_name":"住宅区","address":"开鲁路286弄"},{"poiid":"B2094757D06FAAF9499D","title":"殷行二村","lon":"121.546","lat":"31.3339","category":"252","category_name":"楼宇机构","address":"上海包头路开鲁路"},{"poiid":"B2094757D06BA4FE489C","title":"殷行路250弄","lon":"121.541962303","lat":"31.3280365273","category":"252","category_name":"楼宇机构","address":"上海市杨浦区殷行路"},{"poiid":"B2094752D46AA1FC429F","title":"市光加油站","lon":"121.544656","lat":"31.327913","category":"153","category_name":"加油站","address":"上海市杨浦区市光路1200号(包头路口)"},{"poiid":"B2094654D568A2F84499","title":"上柴动力","lon":"121.54527","lat":"31.32973","category":"248","category_name":"生活娱乐","address":"军工路"},{"poiid":"B2094757D66AA5FD4098","title":"温岭石塘人家","lon":"121.54271","lat":"31.33072","category":"260","category_name":"其他","address":"军工路2866号东方国际水产中心海鲜城20号"},{"poiid":"B2094757D068A2F9439B","title":"殷行社区卫生服务中心","lon":"121.537663","lat":"31.327707","category":"162","category_name":"医院","address":"上海杨浦区包头路959号"},{"poiid":"B2094654D46BA3FE499A","title":"水产大楼","lon":"121.54235","lat":"31.332","category":"46","category_name":"楼宇","address":"军工路2850号"},{"poiid":"B2094757D66CA1FD4993","title":"morton's","lon":"121.545294","lat":"31.332942","category":"500","category_name":"未知分类","address":"上海IFC 4F"},{"poiid":"B2094655D26FA1F84892","title":"上海汽车集团股份有限公司商用车技术中心","lon":"121.54815","lat":"31.32703","category":"263","category_name":"公司","address":"军工路2500号"},{"poiid":"B2094757D068ABFB4598","title":"开鲁路白城路(公交537终)","lon":"121.542961","lat":"31.324811","category":"38","category_name":"公交车站","address":"上海杨浦区白城路开鲁路"},{"poiid":"B2094757D66CA7F44193","title":"温岭人家海鲜酒家","lon":"121.542867103","lat":"31.3348657703","category":"76","category_name":"上海菜","address":"杨浦区军工路2866号2楼"},{"poiid":"B2094654DB65A6FB449A","title":"上海内燃机研究所","lon":"121.54817","lat":"31.32703","category":"191","category_name":"科研机构","address":"军工路2500号"},{"poiid":"B2094655D265A7FB449D","title":"星悦苑","lon":"121.546505","lat":"31.325107","category":"47","category_name":"住宅区","address":"上海市杨浦区市光三村214-226号"},{"poiid":"B2094655D26CA6FD439E","title":"星源花苑","lon":"121.54223","lat":"31.323984","category":"47","category_name":"住宅区","address":"上海市杨浦区市光路750号"},{"poiid":"B2094757D165A2FF4198","title":"上海城市管理职业技术学院图书馆","lon":"121.552574103","lat":"31.3261675882","category":"181","category_name":"图书馆","address":"上海市杨浦区军工路2360号 (近共青森林公园)"},{"poiid":"B2094757D165AAFB4093","title":"上海石油公司物流中心","lon":"121.546669","lat":"31.32653","category":"500","category_name":"未知分类","address":"上海杨浦区军工路2488号"},{"poiid":"B2094757D16EABF4419F","title":"泰阁苑鱼翅酒楼","lon":"121.54672","lat":"31.32307","category":"72","category_name":"广东菜","address":"杨浦区军工路1978号(共青森林公园西大门)"},{"poiid":"B2094757D465A0F4429C","title":"老同兴苏州汤包馆","lon":"121.53836","lat":"31.32658","category":"68","category_name":"快餐厅","address":"杨浦区包头路978号(近殷行路)"},{"poiid":"B2094757D16DA7F8489B","title":"福昌溶潮粤海鲜酒楼","lon":"121.54161834","lat":"31.332691192","category":"72","category_name":"广东菜","address":"杨浦区军工路2866号东方海鲜美食2楼(近殷行路)"},{"poiid":"B2094757D068A6F84599","title":"工农公园","lon":"121.53789","lat":"31.32574","category":"196","category_name":"公园","address":"杨浦区包头路929号(近殷行路)"},{"poiid":"B2094757D064A6F5429B","title":"军工路水产批发市场","lon":"121.542672","lat":"31.333451372","category":"500","category_name":"未知分类","address":"上海杨浦区军工路"},{"poiid":"B2094757D66EA5F54092","title":"金龙新村","lon":"121.54373671984","lat":"31.334932558568","category":"252","category_name":"楼宇机构","address":"上海杨浦区殷行路430弄"},{"poiid":"B2094757D06FA5FB459B","title":"殷行路310弄","lon":"121.539127","lat":"31.32899","category":"252","category_name":"楼宇机构","address":"杨浦区殷行路310弄"},{"poiid":"B2094757D069A1FF459E","title":"上海城市管理学院第一食堂","lon":"121.55423","lat":"31.32519","category":"68","category_name":"快餐厅","address":"杨浦区军工路2360号城市管理学院内(近森林公园)"},{"poiid":"B2094654DB69A7F8429D","title":"上海港国际货运有限公司共青码头","lon":"121.5553","lat":"31.32986","category":"34","category_name":"港口码头","address":"杨浦区军工路"},{"poiid":"B2094654D568A2F8419A","title":"顺达小区","lon":"121.54127","lat":"31.32937","category":"47","category_name":"住宅区","address":"殷行路250"},{"poiid":"B2094655D26FA0FB449C","title":"共青国家森林公园","lon":"121.55085","lat":"31.32009","category":"240","category_name":"国家级景点","address":"军工路2000号"},{"poiid":"B2094757D068A0FD4693","title":"烧烤","lon":"121.545813","lat":"31.321156","category":"247","category_name":"餐饮美食","address":"上海共青森林公园"},{"poiid":"B2094757D06FA5FE499A","title":"东方国际水产中心","lon":"121.54228","lat":"31.33226","category":"249","category_name":"购物服务","address":"杨浦区军工路2866号(近浚浦局路)"},{"poiid":"B2094750D768ABFF499C","title":"共青森林公园烧烤区","lon":"121.546","lat":"31.3206","category":"68","category_name":"快餐厅","address":"杨浦区军工路2000号共青森林公园内"},{"poiid":"B2094654DB65A6FE409E","title":"上海城市管理学院(一号路)","lon":"121.55381","lat":"31.32524","category":"52","category_name":"高等院校","address":"军工路2360"},{"poiid":"B2094655D36DA0FB4098","title":"殷行路包头路","lon":"121.53734","lat":"31.3283","category":"38","category_name":"公交车站","address":""},{"poiid":"B2094757D068A4FE419D","title":"龙阳海鲜酒家","lon":"121.5551583","lat":"31.327923639","category":"88","category_name":"海鲜酒楼","address":"杨浦区军工路2600号水产批发市场内(近港水路)"},{"poiid":"B2094757D06FA1FD4799","title":"上海城市管理职业技术学院","lon":"121.54669","lat":"31.32383","category":"671","category_name":"高校中心点","address":"杨浦区军工路2360号(近森林公园)"},{"poiid":"B2094757D469A1FC489E","title":"东方国际海鲜城","lon":"121.545044054","lat":"31.328603793","category":"88","category_name":"海鲜酒楼","address":"杨浦区军工路2855号(殷行路口)"},{"poiid":"B2094757D06FA3FB449A","title":"城市名园","lon":"121.5383","lat":"31.330715","category":"47","category_name":"住宅区","address":"上海市金山区朱泾镇亭枫公路4089号"},{"poiid":"B2094757D665A1F94292","title":"荣锦记","lon":"121.54256","lat":"31.33215","category":"260","category_name":"其他","address":"杨浦区军工路2866号水产中心美食广场5-7号(近共青森林公园)"},{"poiid":"B2094655D36CA4FC469B","title":"包头路开鲁路","lon":"121.53845","lat":"31.32399","category":"38","category_name":"公交车站","address":""},{"poiid":"B2094757D06BABFC449F","title":"和记渔村 军工路店","lon":"121.54169","lat":"31.33249","category":"76","category_name":"上海菜","address":"杨浦区军工路2866号美食广场1号"},{"poiid":"B2094757D06AA7FE4492","title":"上海汽车商用车有限公司","lon":"121.5484938","lat":"31.326864672","category":"500","category_name":"未知分类","address":"上海军工路2500号"},{"poiid":"B2094757D069A2FC459B","title":"繁江酒楼(包头路店)","lon":"121.53788","lat":"31.33031","category":"76","category_name":"上海菜","address":"杨浦区包头路1135号(近国伟路)"},{"poiid":"B2094757D068A0FC4992","title":"市光一村","lon":"121.542811","lat":"31.322146","category":"47","category_name":"住宅区","address":"上海国和路包头路"},{"poiid":"B2094654D56FA0FA4092","title":"开鲁路31弄小区","lon":"121.548","lat":"31.3309","category":"47","category_name":"住宅区","address":"开鲁路31弄"},{"poiid":"B2094654D56FA0F94899","title":"殷行一村小区","lon":"121.54174","lat":"31.32747","category":"47","category_name":"住宅区","address":"上海市杨浦区开鲁路白城路"},{"poiid":"B2094654DB6AA6FE429F","title":"共青森林度假村","lon":"121.54578","lat":"31.32221","category":"207","category_name":"度假疗养场所","address":"杨浦区军工路2180号"},{"poiid":"B2094757D66EA4FC4298","title":"共青森林公园海盗船","lon":"121.5472672","lat":"31.320308965","category":"500","category_name":"未知分类","address":"上海军工路"},{"poiid":"B2094757D169A2FC4993","title":"上海汽车商用车技术中心","lon":"121.5471139","lat":"31.325946583","category":"500","category_name":"未知分类","address":"上海杨浦区军工路2500号"},{"poiid":"B2094654D56FA0FA419A","title":"工农四村","lon":"121.54053","lat":"31.324175","category":"47","category_name":"住宅区","address":"工农四村1-82号,105-121号,125-127号,130-133号,141-175号"},{"poiid":"B2094757D06AA5FD439C","title":"上海柴油机股份有限公司","lon":"121.544636","lat":"31.329626","category":"263","category_name":"公司","address":"上海市军工路2636号"},{"poiid":"B2094655D26FA0F54799","title":"开鲁路286弄","lon":"121.54453448497","lat":"31.331151779077","category":"47","category_name":"住宅区","address":"开鲁路286弄"},{"poiid":"B2094757D06FAAF9499D","title":"殷行二村","lon":"121.546","lat":"31.3339","category":"252","category_name":"楼宇机构","address":"上海包头路开鲁路"},{"poiid":"B2094757D06BA4FE489C","title":"殷行路250弄","lon":"121.541962303","lat":"31.3280365273","category":"252","category_name":"楼宇机构","address":"上海市杨浦区殷行路"},{"poiid":"B2094752D46AA1FC429F","title":"市光加油站","lon":"121.544656","lat":"31.327913","category":"153","category_name":"加油站","address":"上海市杨浦区市光路1200号(包头路口)"},{"poiid":"B2094654D568A2F84499","title":"上柴动力","lon":"121.54527","lat":"31.32973","category":"248","category_name":"生活娱乐","address":"军工路"},{"poiid":"B2094757D66AA5FD4098","title":"温岭石塘人家","lon":"121.54271","lat":"31.33072","category":"260","category_name":"其他","address":"军工路2866号东方国际水产中心海鲜城20号"},{"poiid":"B2094757D068A2F9439B","title":"殷行社区卫生服务中心","lon":"121.537663","lat":"31.327707","category":"162","category_name":"医院","address":"上海杨浦区包头路959号"},{"poiid":"B2094654D46BA3FE499A","title":"水产大楼","lon":"121.54235","lat":"31.332","category":"46","category_name":"楼宇","address":"军工路2850号"},{"poiid":"B2094757D66CA1FD4993","title":"morton's","lon":"121.545294","lat":"31.332942","category":"500","category_name":"未知分类","address":"上海IFC 4F"},{"poiid":"B2094655D26FA1F84892","title":"上海汽车集团股份有限公司商用车技术中心","lon":"121.54815","lat":"31.32703","category":"263","category_name":"公司","address":"军工路2500号"},{"poiid":"B2094757D068ABFB4598","title":"开鲁路白城路(公交537终)","lon":"121.542961","lat":"31.324811","category":"38","category_name":"公交车站","address":"上海杨浦区白城路开鲁路"},{"poiid":"B2094757D66CA7F44193","title":"温岭人家海鲜酒家","lon":"121.542867103","lat":"31.3348657703","category":"76","category_name":"上海菜","address":"杨浦区军工路2866号2楼"},{"poiid":"B2094654DB65A6FB449A","title":"上海内燃机研究所","lon":"121.54817","lat":"31.32703","category":"191","category_name":"科研机构","address":"军工路2500号"},{"poiid":"B2094655D265A7FB449D","title":"星悦苑","lon":"121.546505","lat":"31.325107","category":"47","category_name":"住宅区","address":"上海市杨浦区市光三村214-226号"},{"poiid":"B2094655D26CA6FD439E","title":"星源花苑","lon":"121.54223","lat":"31.323984","category":"47","category_name":"住宅区","address":"上海市杨浦区市光路750号"},{"poiid":"B2094757D165A2FF4198","title":"上海城市管理职业技术学院图书馆","lon":"121.552574103","lat":"31.3261675882","category":"181","category_name":"图书馆","address":"上海市杨浦区军工路2360号 (近共青森林公园)"},{"poiid":"B2094757D165AAFB4093","title":"上海石油公司物流中心","lon":"121.546669","lat":"31.32653","category":"500","category_name":"未知分类","address":"上海杨浦区军工路2488号"},{"poiid":"B2094757D16EABF4419F","title":"泰阁苑鱼翅酒楼","lon":"121.54672","lat":"31.32307","category":"72","category_name":"广东菜","address":"杨浦区军工路1978号(共青森林公园西大门)"},{"poiid":"B2094757D465A0F4429C","title":"老同兴苏州汤包馆","lon":"121.53836","lat":"31.32658","category":"68","category_name":"快餐厅","address":"杨浦区包头路978号(近殷行路)"},{"poiid":"B2094757D16DA7F8489B","title":"福昌溶潮粤海鲜酒楼","lon":"121.54161834","lat":"31.332691192","category":"72","category_name":"广东菜","address":"杨浦区军工路2866号东方海鲜美食2楼(近殷行路)"},{"poiid":"B2094757D068A6F84599","title":"工农公园","lon":"121.53789","lat":"31.32574","category":"196","category_name":"公园","address":"杨浦区包头路929号(近殷行路)"},{"poiid":"B2094757D064A6F5429B","title":"军工路水产批发市场","lon":"121.542672","lat":"31.333451372","category":"500","category_name":"未知分类","address":"上海杨浦区军工路"},{"poiid":"B2094757D66EA5F54092","title":"金龙新村","lon":"121.54373671984","lat":"31.334932558568","category":"252","category_name":"楼宇机构","address":"上海杨浦区殷行路430弄"},{"poiid":"B2094757D06FA5FB459B","title":"殷行路310弄","lon":"121.539127","lat":"31.32899","category":"252","category_name":"楼宇机构","address":"杨浦区殷行路310弄"},{"poiid":"B2094757D069A1FF459E","title":"上海城市管理学院第一食堂","lon":"121.55423","lat":"31.32519","category":"68","category_name":"快餐厅","address":"杨浦区军工路2360号城市管理学院内(近森林公园)"},{"poiid":"B2094654DB69A7F8429D","title":"上海港国际货运有限公司共青码头","lon":"121.5553","lat":"31.32986","category":"34","category_name":"港口码头","address":"杨浦区军工路"},{"poiid":"B2094654D568A2F8419A","title":"顺达小区","lon":"121.54127","lat":"31.32937","category":"47","category_name":"住宅区","address":"殷行路250"},{"poiid":"B2094655D26FA0FB449C","title":"共青国家森林公园","lon":"121.55085","lat":"31.32009","category":"240","category_name":"国家级景点","address":"军工路2000号"},{"poiid":"B2094757D068A0FD4693","title":"烧烤","lon":"121.545813","lat":"31.321156","category":"247","category_name":"餐饮美食","address":"上海共青森林公园"},{"poiid":"B2094757D06FA5FE499A","title":"东方国际水产中心","lon":"121.54228","lat":"31.33226","category":"249","category_name":"购物服务","address":"杨浦区军工路2866号(近浚浦局路)"},{"poiid":"B2094750D768ABFF499C","title":"共青森林公园烧烤区","lon":"121.546","lat":"31.3206","category":"68","category_name":"快餐厅","address":"杨浦区军工路2000号共青森林公园内"},{"poiid":"B2094654DB65A6FE409E","title":"上海城市管理学院(一号路)","lon":"121.55381","lat":"31.32524","category":"52","category_name":"高等院校","address":"军工路2360"},{"poiid":"B2094655D36DA0FB4098","title":"殷行路包头路","lon":"121.53734","lat":"31.3283","category":"38","category_name":"公交车站","address":""},{"poiid":"B2094757D068A4FE419D","title":"龙阳海鲜酒家","lon":"121.5551583","lat":"31.327923639","category":"88","category_name":"海鲜酒楼","address":"杨浦区军工路2600号水产批发市场内(近港水路)"},{"poiid":"B2094757D06FA1FD4799","title":"上海城市管理职业技术学院","lon":"121.54669","lat":"31.32383","category":"671","category_name":"高校中心点","address":"杨浦区军工路2360号(近森林公园)"},{"poiid":"B2094757D469A1FC489E","title":"东方国际海鲜城","lon":"121.545044054","lat":"31.328603793","category":"88","category_name":"海鲜酒楼","address":"杨浦区军工路2855号(殷行路口)"},{"poiid":"B2094757D06FA3FB449A","title":"城市名园","lon":"121.5383","lat":"31.330715","category":"47","category_name":"住宅区","address":"上海市金山区朱泾镇亭枫公路4089号"},{"poiid":"B2094757D665A1F94292","title":"荣锦记","lon":"121.54256","lat":"31.33215","category":"260","category_name":"其他","address":"杨浦区军工路2866号水产中心美食广场5-7号(近共青森林公园)"},{"poiid":"B2094655D36CA4FC469B","title":"包头路开鲁路","lon":"121.53845","lat":"31.32399","category":"38","category_name":"公交车站","address":""},{"poiid":"B2094757D06BABFC449F","title":"和记渔村 军工路店","lon":"121.54169","lat":"31.33249","category":"76","category_name":"上海菜","address":"杨浦区军工路2866号美食广场1号"},{"poiid":"B2094757D06AA7FE4492","title":"上海汽车商用车有限公司","lon":"121.5484938","lat":"31.326864672","category":"500","category_name":"未知分类","address":"上海军工路2500号"},{"poiid":"B2094757D069A2FC459B","title":"繁江酒楼(包头路店)","lon":"121.53788","lat":"31.33031","category":"76","category_name":"上海菜","address":"杨浦区包头路1135号(近国伟路)"},{"poiid":"B2094757D068A0FC4992","title":"市光一村","lon":"121.542811","lat":"31.322146","category":"47","category_name":"住宅区","address":"上海国和路包头路"},{"poiid":"B2094654D56FA0FA4092","title":"开鲁路31弄小区","lon":"121.548","lat":"31.3309","category":"47","category_name":"住宅区","address":"开鲁路31弄"},{"poiid":"B2094654D56FA0F94899","title":"殷行一村小区","lon":"121.54174","lat":"31.32747","category":"47","category_name":"住宅区","address":"上海市杨浦区开鲁路白城路"},{"poiid":"B2094654DB6AA6FE429F","title":"共青森林度假村","lon":"121.54578","lat":"31.32221","category":"207","category_name":"度假疗养场所","address":"杨浦区军工路2180号"},{"poiid":"B2094757D66EA4FC4298","title":"共青森林公园海盗船","lon":"121.5472672","lat":"31.320308965","category":"500","category_name":"未知分类","address":"上海军工路"},{"poiid":"B2094757D169A2FC4993","title":"上海汽车商用车技术中心","lon":"121.5471139","lat":"31.325946583","category":"500","category_name":"未知分类","address":"上海杨浦区军工路2500号"},{"poiid":"B2094654D56FA0FA419A","title":"工农四村","lon":"121.54053","lat":"31.324175","category":"47","category_name":"住宅区","address":"工农四村1-82号,105-121号,125-127号,130-133号,141-175号"},{"poiid":"B2094757D06AA5FD439C","title":"上海柴油机股份有限公司","lon":"121.544636","lat":"31.329626","category":"263","category_name":"公司","address":"上海市军工路2636号"},{"poiid":"B2094655D26FA0F54799","title":"开鲁路286弄","lon":"121.54453448497","lat":"31.331151779077","category":"47","category_name":"住宅区","address":"开鲁路286弄"},{"poiid":"B2094757D06FAAF9499D","title":"殷行二村","lon":"121.546","lat":"31.3339","category":"252","category_name":"楼宇机构","address":"上海包头路开鲁路"},{"poiid":"B2094757D06BA4FE489C","title":"殷行路250弄","lon":"121.541962303","lat":"31.3280365273","category":"252","category_name":"楼宇机构","address":"上海市杨浦区殷行路"},{"poiid":"B2094752D46AA1FC429F","title":"市光加油站","lon":"121.544656","lat":"31.327913","category":"153","category_name":"加油站","address":"上海市杨浦区市光路1200号(包头路口)"},{"poiid":"B2094654D568A2F84499","title":"上柴动力","lon":"121.54527","lat":"31.32973","category":"248","category_name":"生活娱乐","address":"军工路"},{"poiid":"B2094757D66AA5FD4098","title":"温岭石塘人家","lon":"121.54271","lat":"31.33072","category":"260","category_name":"其他","address":"军工路2866号东方国际水产中心海鲜城20号"},{"poiid":"B2094757D068A2F9439B","title":"殷行社区卫生服务中心","lon":"121.537663","lat":"31.327707","category":"162","category_name":"医院","address":"上海杨浦区包头路959号"},{"poiid":"B2094654D46BA3FE499A","title":"水产大楼","lon":"121.54235","lat":"31.332","category":"46","category_name":"楼宇","address":"军工路2850号"},{"poiid":"B2094757D66CA1FD4993","title":"morton's","lon":"121.545294","lat":"31.332942","category":"500","category_name":"未知分类","address":"上海IFC 4F"},{"poiid":"B2094655D26FA1F84892","title":"上海汽车集团股份有限公司商用车技术中心","lon":"121.54815","lat":"31.32703","category":"263","category_name":"公司","address":"军工路2500号"},{"poiid":"B2094757D068ABFB4598","title":"开鲁路白城路(公交537终)","lon":"121.542961","lat":"31.324811","category":"38","category_name":"公交车站","address":"上海杨浦区白城路开鲁路"},{"poiid":"B2094757D66CA7F44193","title":"温岭人家海鲜酒家","lon":"121.542867103","lat":"31.3348657703","category":"76","category_name":"上海菜","address":"杨浦区军工路2866号2楼"},{"poiid":"B2094654DB65A6FB449A","title":"上海内燃机研究所","lon":"121.54817","lat":"31.32703","category":"191","category_name":"科研机构","address":"军工路2500号"},{"poiid":"B2094655D265A7FB449D","title":"星悦苑","lon":"121.546505","lat":"31.325107","category":"47","category_name":"住宅区","address":"上海市杨浦区市光三村214-226号"},{"poiid":"B2094655D26CA6FD439E","title":"星源花苑","lon":"121.54223","lat":"31.323984","category":"47","category_name":"住宅区","address":"上海市杨浦区市光路750号"},{"poiid":"B2094757D165A2FF4198","title":"上海城市管理职业技术学院图书馆","lon":"121.552574103","lat":"31.3261675882","category":"181","category_name":"图书馆","address":"上海市杨浦区军工路2360号 (近共青森林公园)"},{"poiid":"B2094757D165AAFB4093","title":"上海石油公司物流中心","lon":"121.546669","lat":"31.32653","category":"500","category_name":"未知分类","address":"上海杨浦区军工路2488号"},{"poiid":"B2094757D16EABF4419F","title":"泰阁苑鱼翅酒楼","lon":"121.54672","lat":"31.32307","category":"72","category_name":"广东菜","address":"杨浦区军工路1978号(共青森林公园西大门)"},{"poiid":"B2094757D465A0F4429C","title":"老同兴苏州汤包馆","lon":"121.53836","lat":"31.32658","category":"68","category_name":"快餐厅","address":"杨浦区包头路978号(近殷行路)"},{"poiid":"B2094757D16DA7F8489B","title":"福昌溶潮粤海鲜酒楼","lon":"121.54161834","lat":"31.332691192","category":"72","category_name":"广东菜","address":"杨浦区军工路2866号东方海鲜美食2楼(近殷行路)"},{"poiid":"B2094757D068A6F84599","title":"工农公园","lon":"121.53789","lat":"31.32574","category":"196","category_name":"公园","address":"杨浦区包头路929号(近殷行路)"},{"poiid":"B2094757D064A6F5429B","title":"军工路水产批发市场","lon":"121.542672","lat":"31.333451372","category":"500","category_name":"未知分类","address":"上海杨浦区军工路"},{"poiid":"B2094757D66EA5F54092","title":"金龙新村","lon":"121.54373671984","lat":"31.334932558568","category":"252","category_name":"楼宇机构","address":"上海杨浦区殷行路430弄"},{"poiid":"B2094757D06FA5FB459B","title":"殷行路310弄","lon":"121.539127","lat":"31.32899","category":"252","category_name":"楼宇机构","address":"杨浦区殷行路310弄"},{"poiid":"B2094757D069A1FF459E","title":"上海城市管理学院第一食堂","lon":"121.55423","lat":"31.32519","category":"68","category_name":"快餐厅","address":"杨浦区军工路2360号城市管理学院内(近森林公园)"},{"poiid":"B2094654DB69A7F8429D","title":"上海港国际货运有限公司共青码头","lon":"121.5553","lat":"31.32986","category":"34","category_name":"港口码头","address":"杨浦区军工路"},{"poiid":"B2094654D568A2F8419A","title":"顺达小区","lon":"121.54127","lat":"31.32937","category":"47","category_name":"住宅区","address":"殷行路250"}]