[{"poiid":"B2094757D06EABF54999","title":"秘密花园","lon":"121.4254","lat":"31.20498","category":"47","category_name":"住宅区","address":"长宁区延安西路1742号(近凯旋路)"},{"poiid":"B2094757D06FA3FB4599","title":"五观堂素食","lon":"121.42627","lat":"31.20313","category":"89","category_name":"中式素餐馆","address":"长宁区新华路349号(近定西路)"},{"poiid":"B2094757D06FA0FD479D","title":"中国人民解放军第四五五医院(总院)","lon":"121.4279118882938","lat":"31.200720631212796","category":"162","category_name":"医院","address":"上海长宁区淮海西路338号(近番禺路)"},{"poiid":"B2094757D06FA0FB4498","title":"上海交通大学安泰经济与管理学院","lon":"121.4250955","lat":"31.205555045","category":"260","category_name":"其他","address":"长宁区法华镇路535号上海交通大学内(近定西路)"},{"poiid":"B2094757D06FA2F8479C","title":"Cotton's(新华路店)","lon":"121.4277083","lat":"31.202930121","category":"260","category_name":"其他","address":"长宁区新华路294号(近香花桥路)"},{"poiid":"B2094757D068A3FB489C","title":"雕刻时光咖啡馆(红坊店)","lon":"121.425078586","lat":"31.1992688256","category":"260","category_name":"其他","address":"长宁区淮海西路570号B111"},{"poiid":"B2094757D06EAAFA419C","title":"星巴克(上海影城店)","lon":"121.429277","lat":"31.2021766","category":"260","category_name":"其他","address":"长宁区新华路160号上海影城1楼001号(番禺路口)"},{"poiid":"B2094757D06FA6F94193","title":"金锚传菜","lon":"121.42316","lat":"31.20379","category":"76","category_name":"上海菜","address":"长宁区新华路543号新华大厦1楼(近定西路口)"},{"poiid":"B2094757D06FAAFC4592","title":"蝶翠轩(新华店)","lon":"121.426340611","lat":"31.2035536554","category":"76","category_name":"上海菜","address":"长宁区新华路336号(近番禺路上海影城)"},{"poiid":"B2094750DA6EA1FA499C","title":"On Stage","lon":"121.424015","lat":"31.199642","category":"172","category_name":"酒吧","address":"长宁区淮海西路570号红坊艺术文化社区A2(近虹桥路)"},{"poiid":"B2094757D06FA7F54592","title":"四季亭(新华店)","lon":"121.42557","lat":"31.20336","category":"95","category_name":"日本料理","address":"长宁区新华路369号(近定西路)"},{"poiid":"B2094751D26DAAFB449D","title":"Las Tapas","lon":"121.42482","lat":"31.199341","category":"94","category_name":"西餐厅","address":"长宁区淮海西路570号第59幢C6(近凯旋路)"},{"poiid":"B2094654DA6DA2FF4298","title":"三湘大厦","lon":"121.425","lat":"31.2002","category":"250","category_name":"公园户外","address":"上海市中山西路1243号(近虹桥路)"},{"poiid":"B2094757D068A0FA419A","title":"定西路安顺路","lon":"121.422481","lat":"31.201977","category":"500","category_name":"未知分类","address":"上海定西路安顺路口"},{"poiid":"B2094750D66FA3FD489A","title":"星巴克","lon":"121.42322","lat":"31.2039","category":"260","category_name":"其他","address":"长宁区定西路475号(近新华路)"},{"poiid":"B2094757DB6CA2FC469D","title":"wagas","lon":"121.4253502298639","lat":"31.20229575437234","category":"500","category_name":"未知分类","address":"番禺路483號"},{"poiid":"B2094750D76CA3FA4599","title":"沃歌斯(番禺路店)","lon":"121.429","lat":"31.204","category":"94","category_name":"西餐厅","address":"长宁区番禺路483号1楼(近法华镇路)"},{"poiid":"B2094757D16BA4FD4693","title":"新华路香花桥路","lon":"121.42446158","lat":"31.202785894","category":"500","category_name":"未知分类","address":"上海市长宁区新华路"},{"poiid":"B2094757D064A3FB4599","title":"新华路定西路","lon":"121.4243402","lat":"31.203689512","category":"500","category_name":"未知分类","address":"上海定西路420弄"},{"poiid":"B2094654DB69AAF5449B","title":"上海交大安泰管理学院","lon":"121.42535","lat":"31.20503","category":"52","category_name":"高等院校","address":"上海市长宁区法华镇路535号"},{"poiid":"B2094654DB6AA7FA479A","title":"香啡缤 红坊店 Coffee Bean&Tea Leaf","lon":"121.423160054","lat":"31.197249793","category":"260","category_name":"其他","address":"长宁区淮海西路570号红坊创意园区B112室(近虹桥路)"},{"poiid":"B2094757D068A7FB449A","title":"秋霞阁","lon":"121.42341","lat":"31.20437","category":"68","category_name":"快餐厅","address":"长宁区定西路591号(新华路口)"},{"poiid":"B2094757D065A2FC4499","title":"干叶子茶料理","lon":"121.425673529","lat":"31.2033053162","category":"89","category_name":"中式素餐馆","address":"长宁区新华路359号(定西路口)"},{"poiid":"B2094757D065A0FD479C","title":"德林酸菜鱼","lon":"121.42313742","lat":"31.202297864","category":"247","category_name":"餐饮美食","address":"上海安顺路"},{"poiid":"B2094654D564A5FF469D","title":"虹桥荣广大厦","lon":"121.424","lat":"31.2038","category":"46","category_name":"楼宇","address":"上海市长宁区长顺路11号"},{"poiid":"B2094757D068A5F9469F","title":"翠薇轩","lon":"121.423208","lat":"31.203222","category":"72","category_name":"广东菜","address":"长宁区定西路430号(近新华路)"},{"poiid":"B2094757D065A5FC489D","title":"瓷园会所","lon":"121.42345","lat":"31.20422","category":"72","category_name":"广东菜","address":"长宁区定西路566号(近新华路)"},{"poiid":"B2094757D16FABF84298","title":"老上海弄堂菜馆","lon":"121.42867075","lat":"31.202453967","category":"76","category_name":"上海菜","address":"长宁区新华路160号上海影城2号门3楼(近番禺路)"},{"poiid":"B2094655D26FA5FF459E","title":"淮海花园","lon":"121.428537","lat":"31.200028","category":"47","category_name":"住宅区","address":"淮海西路288弄1-5号"},{"poiid":"B2094750D665A2FC409C","title":"比比叩自助烤肉","lon":"121.42196","lat":"31.20177","category":"68","category_name":"快餐厅","address":"长宁区安顺路88号(定西路口)"},{"poiid":"B2094757D16AABFC4392","title":"恋恋仙草","lon":"121.425591586","lat":"31.2035189087","category":"113","category_name":"冷饮店","address":"长宁区新华路372号(近香花桥路)"},{"poiid":"B2094757D16DA0F4429F","title":"水瓶座塔罗占卜屋","lon":"121.424972586","lat":"31.2039329168","category":"247","category_name":"餐饮美食","address":"上海市长宁区新华路"},{"poiid":"B2094757D069A5FA439F","title":"法华镇路","lon":"121.425354","lat":"31.205027","category":"627","category_name":"一般地点标志","address":"上海法华镇路"},{"poiid":"B2094654D564A6F84593","title":"凯利大厦","lon":"121.42693","lat":"31.19923","category":"46","category_name":"楼宇","address":"上海市奉贤区南奉公路8515,8519号"},{"poiid":"B2094750D664AAFB429D","title":"御封会","lon":"121.429","lat":"31.2024","category":"72","category_name":"广东菜","address":"长宁区新华路185弄1号"},{"poiid":"B2094757D068A0F8479E","title":"The Coffee Bean(红坊店)","lon":"121.42402358","lat":"31.200390847","category":"65","category_name":"咖啡厅","address":"上海红坊b 112"},{"poiid":"B2094654D564A7F5489A","title":"上海民族乐团","lon":"121.42624","lat":"31.20355","category":"189","category_name":"文艺团体","address":"长宁区新华路336号(近香花桥路)"},{"poiid":"B2094655D268A1FA4798","title":"上海外滩花园酒店","lon":"121.42877","lat":"31.20218","category":"70","category_name":"综合酒楼","address":"长宁区新华路179号(近番禺路)"},{"poiid":"B2094757D069ABFE4693","title":"南京汤包","lon":"121.424183054","lat":"31.205100793","category":"68","category_name":"快餐厅","address":"长宁区法华镇路504号(近香花桥路)"},{"poiid":"B2094654D564A7F4439B","title":"新华路派出所","lon":"121.42625","lat":"31.2053","category":"609","category_name":"警察局","address":"法华镇路475"},{"poiid":"B2094654D564A6FA409F","title":"东华大学国家大学科技园(北门)","lon":"121.42552","lat":"31.20315","category":"45","category_name":"产业园区","address":"新华路365弄5"},{"poiid":"B2094750D26FA7FF489E","title":"上海影城 3号厅","lon":"121.429595","lat":"31.202293","category":"178","category_name":"电影院","address":"新华路番禺路"},{"poiid":"B2094655D36DA0FC4898","title":"新华路番禺路","lon":"121.42946","lat":"31.20211","category":"38","category_name":"公交车站","address":""},{"poiid":"B2094757D16EA2F8459A","title":"食流林","lon":"121.42549","lat":"31.20368","category":"68","category_name":"快餐厅","address":"长宁区香花桥路41号(近法华镇路交大)"},{"poiid":"B2094750D364A4FF4593","title":"Adams亚当鸡尾酒吧","lon":"121.42383679488","lat":"31.204192113813","category":"172","category_name":"酒吧","address":"长宁区新华路448-5号(近定西路)"},{"poiid":"B2094654DB6BA7F44692","title":"新华别墅(北门)","lon":"121.42633","lat":"31.20308","category":"47","category_name":"住宅区","address":"新华路329弄15-71号"},{"poiid":"B2094751D46BA5FD4799","title":"上海455医院","lon":"121.42790613619","lat":"31.200037414344","category":"162","category_name":"医院","address":"淮海西路338弄"},{"poiid":"B2094655D36DA1F44692","title":"香花桥","lon":"121.42538","lat":"31.20355","category":"38","category_name":"公交车站","address":""},{"poiid":"B2094751D465AAFD4992","title":"Sofa Coffee","lon":"121.4254","lat":"31.20473","category":"247","category_name":"餐饮美食","address":"长宁区香花桥路14号(近法华镇路)"},{"poiid":"B2094757D064A1FE459F","title":"重庆周氏麻辣烫(香花桥路店)","lon":"121.42373","lat":"31.20372","category":"68","category_name":"快餐厅","address":"长宁区香花桥路29号(近新华路)"},{"poiid":"B2094757D06FA6FF4898","title":"Rice Bar","lon":"121.42450046","lat":"31.205134464","category":"260","category_name":"其他","address":"长宁区法华镇路532号(近定西路)"},{"poiid":"B2094757D568ABFB4398","title":"天力公园","lon":"121.42633","lat":"31.20308389","category":"196","category_name":"公园","address":"长宁区新华路329弄30号(香花桥路新华路)"},{"poiid":"B2094757D069A1FF429C","title":"MOB(新华路店)","lon":"121.42336","lat":"31.20403","category":"221","category_name":"健身中心","address":"上海长宁区新华路519号3楼(近定西路)"},{"poiid":"B2094654D564A7F54698","title":"中国银行上海市新华路支行","lon":"121.42405","lat":"31.20414","category":"150","category_name":"银行","address":"新华路434"},{"poiid":"B2094654DB65AAF84292","title":"上海长新中学","lon":"121.42633","lat":"31.20308","category":"55","category_name":"中学","address":"长宁区新华路329弄43号"},{"poiid":"B2094654D564A7F54392","title":"交通大学(南门)(法华镇路)","lon":"121.42527","lat":"31.20505","category":"52","category_name":"高等院校","address":"法华镇路535"},{"poiid":"B2094654D564A6FA409E","title":"新华社区图书阅览室","lon":"121.42537","lat":"31.20309","category":"181","category_name":"图书馆","address":"新华路365弄1"},{"poiid":"B2094757D06BA2FF469C","title":"宝来纳","lon":"121.42708558","lat":"31.199893837","category":"249","category_name":"购物服务","address":"上海汾阳路150号"},{"poiid":"B2094654DB6BA7F4469D","title":"新华别墅(北2门)","lon":"121.42817","lat":"31.2024","category":"47","category_name":"住宅区","address":"新华路211弄1-32号"},{"poiid":"B2094654D564A5F8489A","title":"南洋虹桥公寓","lon":"121.426","lat":"31.203","category":"47","category_name":"住宅区","address":"虹桥路953弄8-10号"},{"poiid":"B2094654DB65A4F84499","title":"复旦初级中学(北门)","lon":"121.42803","lat":"31.20221","category":"678","category_name":"学校大门","address":"新华路211弄1-32号"},{"poiid":"B2094655D265A4FA4499","title":"新华名门","lon":"121.42579","lat":"31.200275","category":"47","category_name":"住宅区","address":"新华名门位于长宁新华路211弄41号"},{"poiid":"B2094654D564A6FA459F","title":"新华名苑办公楼","lon":"121.42329","lat":"31.20319","category":"46","category_name":"楼宇","address":"上海市长宁区定西路420号"},{"poiid":"B2094654DB6BA4FC499E","title":"长宁锦城公寓","lon":"121.424","lat":"31.2009","category":"47","category_name":"住宅区","address":"中山西路1221,1231"},{"poiid":"B2094654D564A7F44498","title":"喜士多便利连锁(富泰阁东南)","lon":"121.42653","lat":"31.20455","category":"117","category_name":"便民商店/便利店","address":"法华镇路455-5"},{"poiid":"B2094750D26DA6FB499C","title":"和平饭店","lon":"121.4238404","lat":"31.2027836","category":"247","category_name":"餐饮美食","address":null},{"poiid":"B2094654DA6DA2FF429D","title":"科美商务中心","lon":"121.425","lat":"31.2005","category":"46","category_name":"楼宇","address":"中山西路1245弄2-3"},{"poiid":"B2094757D06BAAFD4693","title":"朋朋宠物会所","lon":"121.424804","lat":"31.20491","category":"500","category_name":"未知分类","address":"上海法华镇路526号"},{"poiid":"B2094757D06BA0F84798","title":"传奇台球(法华镇店)","lon":"121.42618","lat":"31.2041","category":"171","category_name":"台球厅","address":"上海长宁区法华镇路457号2楼(近番禺路)"},{"poiid":"B2094654D564A6FA409B","title":"新华社区文化活动中心","lon":"121.42568","lat":"31.20316","category":"248","category_name":"生活娱乐","address":"新华路359"},{"poiid":"B2094753D164A0FB499F","title":"上海解放军455医院","lon":"121.427829","lat":"31.20101","category":"162","category_name":"医院","address":"长宁区淮海西路338号"},{"poiid":"B2094654D564A7F44392","title":"富泰阁","lon":"121.42612","lat":"31.204731","category":"46","category_name":"楼宇","address":"法华镇路483弄1号"},{"poiid":"B2094654D564A7F5479D","title":"联华(新华路)","lon":"121.42541","lat":"31.20366","category":"118","category_name":"超级市场","address":"新华路372"},{"poiid":"B2094654D564A7F54799","title":"可的(香花桥路)","lon":"121.42517","lat":"31.20404","category":"117","category_name":"便民商店/便利店","address":"香花桥路31"},{"poiid":"B2094750D665A0FA4098","title":"水瓶座塔罗星座女仆咖啡屋","lon":"121.425","lat":"31.2039","category":"260","category_name":"其他","address":"长宁区新华路406号(近香花桥路)"},{"poiid":"B2094654DB6BA7F4419A","title":"马哥孛罗(新华二店)","lon":"121.4292","lat":"31.2024","category":"65","category_name":"咖啡厅","address":"长宁区新华路186号(近上海影城)"},{"poiid":"B2094750D569A5FD4598","title":"香榭苑","lon":"121.42456","lat":"31.204508","category":"47","category_name":"住宅区","address":"上海市长宁区香花桥路38弄"},{"poiid":"B2094757D16AA7FE429E","title":"上海水角石文化传播有限公司","lon":"121.425857","lat":"31.2045812","category":"46","category_name":"楼宇","address":"上海长宁区法华镇路525号D座409室(近香花桥路)"},{"poiid":"B2094757D16CA7F44193","title":"沙发咖啡酒吧","lon":"121.42523","lat":"31.20403","category":"260","category_name":"其他","address":"长宁区香花桥路41号(近新华路)"},{"poiid":"B2094654DB6BA7F4409E","title":"新华街道社区卫生服务中心","lon":"121.4263","lat":"31.20425","category":"162","category_name":"医院","address":"长宁区法华镇路455号"},{"poiid":"B2094654D564A6FA419A","title":"新华书店(新华路)","lon":"121.42479","lat":"31.2036","category":"125","category_name":"书店","address":"新华路419"},{"poiid":"B2094757D469A5FF429F","title":"港式茶餐厅","lon":"121.42814","lat":"31.19955","category":"257","category_name":"中餐厅","address":"淮海西路338-1号近四五五医院近番禺路"},{"poiid":"B2094654D564A6FA4092","title":"文缘村(北门)","lon":"121.42489","lat":"31.20353","category":"47","category_name":"住宅区","address":"新华路413弄2-10号"},{"poiid":"B2094654DB65A1FE4193","title":"克丽缇娜No.30674","lon":"121.42653","lat":"31.20478","category":"148","category_name":"美容美发店","address":"法华镇路455-10"},{"poiid":"B2094654D564A7F54793","title":"上海轻音乐团","lon":"121.42625","lat":"31.20355","category":"189","category_name":"文艺团体","address":"长宁区新华路336号3楼指挥部"},{"poiid":"B2094654D564A7F44593","title":"沙发咖啡吧","lon":"121.4253","lat":"31.20439","category":"65","category_name":"咖啡厅","address":""},{"poiid":"B2094655D26FA6F4409A","title":"假日苑","lon":"121.42815","lat":"31.204239","category":"47","category_name":"住宅区","address":"法华镇路381弄1-11"},{"poiid":"B2094757D16DA3FC4892","title":"尚盈创意产业园","lon":"121.425976526","lat":"31.2028895091","category":"500","category_name":"未知分类","address":"上海新华路345号"},{"poiid":"B2094757D16FA7FE469E","title":"suho造型中心","lon":"121.42286757","lat":"31.203609299","category":"148","category_name":"美容美发店","address":"上海新华路465号"},{"poiid":"B2094654DB65A2FC4493","title":"梅安小区","lon":"121.42407","lat":"31.2031","category":"47","category_name":"住宅区","address":"新华路445弄1-117号"},{"poiid":"B2094757D06AA7F8489C","title":"中国工商银行(新华路支行)","lon":"121.42332","lat":"31.20406","category":"150","category_name":"银行","address":"长宁区新华路506号近定西路(定西路新华路)"},{"poiid":"B2094655D268A4F9479F","title":"香花桥小区(西门)","lon":"121.42522","lat":"31.20409","category":"47","category_name":"住宅区","address":""},{"poiid":"B2094654D564A7F44398","title":"海富公寓(西门)","lon":"121.42662","lat":"31.20525","category":"48","category_name":"楼宇大门","address":"法华镇路457弄3-12号"},{"poiid":"B2094655D268A1FD4499","title":"传奇桌球(海富公寓1号楼东)","lon":"121.42652","lat":"31.20466","category":"171","category_name":"台球厅","address":"法华镇路455-8识别2层"},{"poiid":"B2094655D26CA1FE459C","title":"梅安小区(北门)","lon":"121.42404","lat":"31.20357","category":"47","category_name":"住宅区","address":"新华路445弄1-117号"},{"poiid":"B2094757D16BA2FA459B","title":"光大银行(新华支行)","lon":"121.424086","lat":"31.203107","category":"150","category_name":"银行","address":"上海长宁区新华路445弄1号"},{"poiid":"B2094654DB6BA7F44092","title":"花之林人文茶馆 新华路店","lon":"121.42465906655","lat":"31.203825452901","category":"260","category_name":"其他","address":"长宁区新华路412号(近香花桥路)"},{"poiid":"B2094757D16DAAF5429E","title":"文缘村","lon":"121.42466","lat":"31.203136","category":"500","category_name":"未知分类","address":"上海市长宁区新华路393弄"},{"poiid":"B2094757D66CA3F8469A","title":"魔都摄影","lon":"121.426407","lat":"31.203001","category":"500","category_name":"未知分类","address":"上海虹桥路953弄10号902"},{"poiid":"B2094654D564A6F84198","title":"假日苑(南门)","lon":"121.42803","lat":"31.20398","category":"47","category_name":"住宅区","address":"法华镇路381弄1-11"},{"poiid":"B2094757D66DA3F5499D","title":"毛家菜馆","lon":"121.42718505","lat":"31.199625015","category":"247","category_name":"餐饮美食","address":"上海安顺路"},{"poiid":"B2094654D564A6FF4993","title":"卡伦时尚造型","lon":"121.42808","lat":"31.20375","category":"148","category_name":"美容美发店","address":"长宁区法华镇路348号(近番禺路)"},{"poiid":"B2094654D564A7F5469D","title":"风华美容厅","lon":"121.42436","lat":"31.20404","category":"148","category_name":"美容美发店","address":"长宁区新华路426号"},{"poiid":"B2094654DB64AAF5419E","title":"海富公寓1号楼","lon":"121.42612","lat":"31.20472","category":"47","category_name":"住宅区","address":"法华镇路483弄1号"},{"poiid":"B2094757D16EA2F94699","title":"Sofa bar","lon":"121.42508558","lat":"31.204769933","category":"500","category_name":"未知分类","address":"上海市长宁区香花桥路41号"},{"poiid":"B2094654DB65A2FD4598","title":"晶采名人","lon":"121.42922","lat":"31.20329","category":"47","category_name":"住宅区","address":"法华镇路310"},{"poiid":"B2094757D168ABF8409A","title":"一休居酒屋","lon":"121.423820496","lat":"31.199464798","category":"247","category_name":"餐饮美食","address":"上海凯旋路近"},{"poiid":"B2094757D06BABF9489B","title":"联想阳光服务(上海服务一部)","lon":"121.42793","lat":"31.2036","category":"500","category_name":"未知分类","address":"长宁区法华镇路358号(近番禹路)"},{"poiid":"B2094757D06FAAFA469D","title":"左家宅社区卫生服务站","lon":"121.423029","lat":"31.200986","category":"162","category_name":"医院","address":"上海安顺路79号二楼"},{"poiid":"B2094757D065A2F84393","title":"红坊D栋","lon":"121.42455773","lat":"31.19971554","category":"500","category_name":"未知分类","address":"上海淮海西路570号"},{"poiid":"B2094655D26EA4FD4499","title":"和亭料理","lon":"121.4296","lat":"31.20191","category":"95","category_name":"日本料理","address":"长宁区新华路121号"},{"poiid":"B209475DDB6CA1FC4192","title":"猫咪帝国","lon":"121.426628","lat":"31.205043","category":"248","category_name":"生活娱乐","address":"上海市 上海市长宁区法华镇路457弄3号107"},{"poiid":"B2094757D66DA3F9449A","title":"新华社区体育中心","lon":"121.42290473","lat":"31.2009320585","category":"500","category_name":"未知分类","address":"上海安顺路79号"},{"poiid":"B2094654D564A6FA469D","title":"文苑小区(东门)","lon":"121.42263","lat":"31.20254","category":"47","category_name":"住宅区","address":"定西路399弄1-19号"},{"poiid":"B2094757D064A4F94399","title":"康骏保健中心(安顺店)","lon":"121.42288","lat":"31.20087","category":"149","category_name":"洗浴推拿场所","address":"上海长宁区安顺路83号(近定西路)"},{"poiid":"B2094655D26FA5FA489D","title":"中银小区(南门)","lon":"121.42717","lat":"31.19956","category":"47","category_name":"住宅区","address":"淮海西路346弄5"},{"poiid":"B2094655D26FA6F4409B","title":"百花村","lon":"121.42398","lat":"31.204826","category":"47","category_name":"住宅区","address":"定西路630弄"},{"poiid":"B2094654D564A6FA459A","title":"纤研舍专业美颜中心","lon":"121.42317","lat":"31.20347","category":"148","category_name":"美容美发店","address":"长宁区定西路436号(近新华路)"},{"poiid":"B2094757D064A3FA4793","title":"海玛仕","lon":"121.42340708","lat":"31.200818022","category":"500","category_name":"未知分类","address":"上海天钥桥路323号腾飞大厦4楼"},{"poiid":"B2094757D569A2F8409F","title":"斯尔丽(新华路)","lon":"121.42452772","lat":"31.20400201","category":"141","category_name":"服装鞋帽皮具店","address":"长宁区新华路416号(近香花桥路)"},{"poiid":"B2094753DB6AAAFC4893","title":"佘山","lon":"121.424491","lat":"31.204044","category":"500","category_name":"未知分类","address":"上海市 佘山"},{"poiid":"B2094757D66CA4F54599","title":"指爱美甲","lon":"121.426365586","lat":"31.2046059299","category":"148","category_name":"美容美发店","address":"上海法华镇路海富公寓裙房"},{"poiid":"B2094757D16DA1FB499C","title":"Suho造型","lon":"121.42396008","lat":"31.20414542","category":"148","category_name":"美容美发店","address":"长宁区定西路465号(近新华路口)"},{"poiid":"B2094757D16BA0FF4992","title":"香花桥小区","lon":"121.42569267","lat":"31.20388999","category":"252","category_name":"楼宇机构","address":"上海新华路370号"},{"poiid":"B2094757D16BA3F5479A","title":"富士通笔记本电脑维修站","lon":"121.427901","lat":"31.203811","category":"500","category_name":"未知分类","address":"上海南丹路398号"},{"poiid":"B2094757D064A6F9449C","title":"维成良子足浴","lon":"121.42688758","lat":"31.204272923","category":"149","category_name":"洗浴推拿场所","address":"上海法华镇路455—10"},{"poiid":"B2094757D16EA0F4419D","title":"红坊大草坪","lon":"121.42364258","lat":"31.199636832","category":"500","category_name":"未知分类","address":"上海市长宁区凯旋路"},{"poiid":"B2094752D268A7FE479B","title":"上海市徐汇区","lon":"121.423552","lat":"31.203675","category":"500","category_name":"未知分类","address":null},{"poiid":"B2094757D16BA2F4459B","title":"新华街道社区事务受理中心","lon":"121.425608","lat":"31.204845","category":"500","category_name":"未知分类","address":"上海长宁区法华镇路521号"},{"poiid":"B2094757D16DA7FB479D","title":"曼都发型(法华店)","lon":"121.42679","lat":"31.20433","category":"148","category_name":"美容美发店","address":"上海长宁区法华镇路455号(近番禺路)  "},{"poiid":"B2094757D16CA1FA449B","title":"309美甲","lon":"121.42934123","lat":"31.203512268","category":"148","category_name":"美容美发店","address":"上海法华镇路309号"},{"poiid":"B2094757D66CA4FE419A","title":"胡姬港湾莱佛士俱乐部","lon":"121.427144586","lat":"31.1999488389","category":"500","category_name":"未知分类","address":"上海淮海西路570号红坊H101"},{"poiid":"B2094654D564A6F9439E","title":"千岛湖","lon":"121.42527","lat":"31.19992","category":"255","category_name":"专卖店","address":""},{"poiid":"B2094757D064AAF94992","title":"人民卫生服务点","lon":"121.426620686","lat":"31.2042145223","category":"500","category_name":"未知分类","address":"上海法华镇路458号(托老所内)"},{"poiid":"B2094757D464A0F84792","title":"马哥孛罗咖啡厅","lon":"121.428811054","lat":"31.202350793","category":"260","category_name":"其他","address":"长宁区新华路186号(近上海影城)"},{"poiid":"B2094757D16CA7FF4598","title":"Muya","lon":"121.42306698","lat":"31.203935321","category":"260","category_name":"其他","address":"长宁区定西路447号(近新华路)"},{"poiid":"B2094753D765A4FC439A","title":"上海国际体操中心","lon":"121.425346","lat":"31.20573","category":"500","category_name":"未知分类","address":"上海市 长宁区武夷路777号"},{"poiid":"B2094757D169A7F44398","title":"新华街道","lon":"121.425445","lat":"31.204926","category":"500","category_name":"未知分类","address":"地处上海西南，长宁区东南部，与徐汇区接壤，东沿江苏路、兴国路，南临淮海西路，西至凯旋路，北接延安西路"},{"poiid":"B2094757D16FA3F84192","title":"抹の家","lon":"121.426895586","lat":"31.1997848357","category":"500","category_name":"未知分类","address":null},{"poiid":"B2094654D564A7F54393","title":"朋朋宠物之家","lon":"121.42479","lat":"31.20491","category":"129","category_name":"宠物用品店","address":"法华镇路526"},{"poiid":"B2094757D66FA6FC4192","title":"渣打银行","lon":"121.42712558","lat":"31.199928838","category":"150","category_name":"银行","address":"上海市卢湾区淮海中路1045号"},{"poiid":"B2094757D06FA5FA4392","title":"BARFino酒仙居","lon":"121.423943613","lat":"31.2040327284","category":"260","category_name":"其他","address":"长宁区新华路448弄5号(近定西路)"},{"poiid":"B2094757D06BA3FF479F","title":"海富公寓","lon":"121.4272","lat":"31.205187","category":"252","category_name":"楼宇机构","address":"上海法华镇路457号"},{"poiid":"B2094654D564A6F84098","title":"新华社区文化活动中心(法华镇路)","lon":"121.42691","lat":"31.20436","category":"248","category_name":"生活娱乐","address":"法华镇路453"},{"poiid":"B2094757D065ABFA449B","title":"罗森便利(虹桥路站店)","lon":"121.42480425","lat":"31.199638166","category":"249","category_name":"购物服务","address":"上海凯旋路1541号"},{"poiid":"B2094757D16EA7F9409B","title":"轨道交通剑川路基地","lon":"121.428310586","lat":"31.2039373169","category":"500","category_name":"未知分类","address":"上海剑川路"},{"poiid":"B2094750D26AA6F9429B","title":"Adam\\'s bar","lon":"121.42398","lat":"31.20425","category":"248","category_name":"生活娱乐","address":null},{"poiid":"B2094654D564A7F4469A","title":"香榭苑(东门)","lon":"121.42501","lat":"31.20438","category":"48","category_name":"楼宇大门","address":"香花桥路38弄1-9号"},{"poiid":"B2094757D568A6FE499D","title":"城市超市咖啡","lon":"121.4293211","lat":"31.202455","category":"260","category_name":"其他","address":"长宁区新华路160号上海影城B1楼(番禺路新华路)"},{"poiid":"B2094757D06BAAF8479C","title":"新华街道社区卫生服务中心分部","lon":"121.426592","lat":"31.205067","category":"500","category_name":"未知分类","address":"上海法华镇路455弄11号"},{"poiid":"B2094757D164A0FE4399","title":"延安中路茂名南路","lon":"121.42393668","lat":"31.20462843","category":"500","category_name":"未知分类","address":"上海茂名南路延安中路"},{"poiid":"B2094757D16DA6F54099","title":"Soho區","lon":"121.42284828","lat":"31.203587107","category":"500","category_name":"未知分类","address":"上海新華路539號"},{"poiid":"B2094757D165A7FC409F","title":"911区间车","lon":"121.429463","lat":"31.202117","category":"500","category_name":"未知分类","address":"上海新华路番禺路站"},{"poiid":"B2094757D66CA1F4489D","title":"新华路地道","lon":"121.42674848","lat":"31.20515519","category":"500","category_name":"未知分类","address":"上海新华路中山西路至凯旋路间"},{"poiid":"B2094757D16CA6F54699","title":"巴渝辰足部保健","lon":"121.42255","lat":"31.20149","category":"149","category_name":"洗浴推拿场所","address":"长宁区定西路385号美伊广场2楼(安顺路口)"},{"poiid":"B2094757D168A2FD489C","title":"长宁区新华街道梅安居委会","lon":"121.422916","lat":"31.201578","category":"500","category_name":"未知分类","address":"上海定西路420弄5号101室"},{"poiid":"B2094655D26BA4F8449F","title":"中国工商银行长宁支行","lon":"121.42694","lat":"31.19923","category":"150","category_name":"银行","address":"淮海西路432号凯利大厦1层"},{"poiid":"B2094757D16AA6FC439F","title":"美心茶餐厅","lon":"121.42854008","lat":"31.199969239","category":"500","category_name":"未知分类","address":"上海淮海西路"},{"poiid":"B2094757D16BABFC4193","title":"同步音乐SYNC","lon":"121.428937586","lat":"31.2043799255","category":"500","category_name":"未知分类","address":"上海市长宁区番禺路300号汉森商务楼6楼"},{"poiid":"B2094757D164AAFD489E","title":"INS","lon":"121.42695458","lat":"31.199745834","category":"249","category_name":"购物服务","address":"上海市淮海西路番愚路"},{"poiid":"B2094757D06BA7FC499C","title":"堕翼圣殿","lon":"121.42276","lat":"31.20227","category":"500","category_name":"未知分类","address":"上海定西路399弄"},{"poiid":"B2094757D16AAAFC479A","title":"天意云数字快印中心","lon":"121.425331","lat":"31.205023","category":"500","category_name":"未知分类","address":"上海延安西路1620号2楼"},{"poiid":"B2094757D569A2FB419F","title":"阿曼尼上海影城店","lon":"121.4293211","lat":"31.202455","category":"260","category_name":"其他","address":"长宁区新华路160号上海影城B1楼(番禺路口)"},{"poiid":"B2094757D169ABFE459F","title":"法華鎮路381弄","lon":"121.428153","lat":"31.204239","category":"252","category_name":"楼宇机构","address":"上海法華鎮路假日苑"},{"poiid":"B2094757D165ABFD429B","title":"Phatmedia","lon":"121.425388586","lat":"31.2050639389","category":"500","category_name":"未知分类","address":"上海法华镇路525号"},{"poiid":"B2094757D66DA4FE4699","title":"上海交大徐汇校区海洋工程国家重点实验室船模拖曳水池","lon":"121.424906","lat":"31.205314","category":"500","category_name":"未知分类","address":"上海交大徐汇校区"},{"poiid":"B2094655D265A7FB479D","title":"DesireBar","lon":"121.42453","lat":"31.20512","category":"172","category_name":"酒吧","address":"法华镇路532"},{"poiid":"B2094757D06AA2FC4492","title":"长宁区文苑小区","lon":"121.422483608","lat":"31.2024537328","category":"252","category_name":"楼宇机构","address":"上海定西路399弄"},{"poiid":"B2094654D564A6F94498","title":"中国工商银行上海市番禺路支行","lon":"121.42693","lat":"31.19913","category":"150","category_name":"银行","address":"淮海西路432-1识别"},{"poiid":"B2094757D16DA4F54498","title":"依康国际能量调养中心","lon":"121.42929658","lat":"31.2031159","category":"500","category_name":"未知分类","address":"长宁区幸福路42号(近法华镇路)"},{"poiid":"B2094757D569A3FB419A","title":"圣菱画廊","lon":"121.42404053","lat":"31.19969184","category":"188","category_name":"文化宫","address":"长宁区淮海西路570号红坊创意园区G102室(近虹桥路)"},{"poiid":"B2094757D168A3F84792","title":"上海红坊68幢一楼男厕所","lon":"121.42396458","lat":"31.19952083","category":"500","category_name":"未知分类","address":null},{"poiid":"B2094654D564A7F5469E","title":"蒙娜丽莎婚纱摄影","lon":"121.42409","lat":"31.20413","category":"248","category_name":"生活娱乐","address":"新华路430"},{"poiid":"B2094750D669A6F94598","title":"上海艺博画廊 Shanghai Yibo Gallery","lon":"121.424949","lat":"31.19911","category":"248","category_name":"生活娱乐","address":"长宁区淮海西路570号B107-108"},{"poiid":"B2094655D268A1FD449E","title":"法华525创意树林(南门)","lon":"121.42543","lat":"31.20491","category":"48","category_name":"楼宇大门","address":"法华镇路525号"},{"poiid":"B2094757D16DA7FD449C","title":"火车票代售点(新华路店)","lon":"121.42511","lat":"31.20331","category":"251","category_name":"出行住宿","address":"长宁区新华路417号‎(香花桥路新华路)"},{"poiid":"B2094655D268A4FB4999","title":"海富公寓1号楼(东门)","lon":"121.42623","lat":"31.20482","category":"48","category_name":"楼宇大门","address":"法华镇路483弄1号"},{"poiid":"B2094654D564A6F4409C","title":"新华公寓(北门)","lon":"121.423","lat":"31.20096","category":"48","category_name":"楼宇大门","address":"安顺路77弄1-14号"},{"poiid":"B2094757DB6DA3FC409E","title":"上海彩翼儿童美术馆","lon":"121.42475","lat":"31.199087","category":"627","category_name":"一般地点标志","address":"长宁区淮海西路570号红坊创意园区B幢104室(近安顺路)"},{"poiid":"B2094655D268A6FE439B","title":"晶采名人(北门)","lon":"121.42941","lat":"31.2034","category":"48","category_name":"楼宇大门","address":"法华镇路310"},{"poiid":"B2094655D264A1F44693","title":"新华名门(北门)","lon":"121.42602","lat":"31.2006","category":"656","category_name":"大门","address":"新华路329弄49-71号"},{"poiid":"B2094654DB6BA7F4409B","title":"番禺大厦(西门)","lon":"121.42662","lat":"31.20581","category":"48","category_name":"楼宇大门","address":""},{"poiid":"B2094654D564A6F94598","title":"淮海花园(西南门)","lon":"121.42859","lat":"31.19996","category":"656","category_name":"大门","address":"淮海西路288弄1-5号"},{"poiid":"B2094654D564A6FA4493","title":"新华名苑(西门)","lon":"121.42337","lat":"31.20363","category":"656","category_name":"大门","address":"定西路438"},{"poiid":"B2094655D265A6FD449F","title":"新华名门(西门)","lon":"121.4256","lat":"31.19992","category":"656","category_name":"大门","address":"新华路329弄49-71号"},{"poiid":"B2094655D268A4FC439B","title":"新华名苑(北门)","lon":"121.42368","lat":"31.20399","category":"656","category_name":"大门","address":"新华路465号"},{"poiid":"B2094654DB65A6FA499F","title":"淮海世纪花苑(西门)","lon":"121.4261","lat":"31.1995","category":"656","category_name":"大门","address":"淮海西路358弄1-5号"},{"poiid":"B2094655D26FA7FF429F","title":"新华御庭(东门)","lon":"121.42278","lat":"31.20307","category":"656","category_name":"大门","address":"新华路539"},{"poiid":"B2094654D564A7F5449B","title":"百花村(南门)","lon":"121.42434","lat":"31.20522","category":"656","category_name":"大门","address":"法华镇路588弄"}]