[{"poiid":"B2094757D06FA5FD479B","title":"莘庄公园","lon":"121.373303237","lat":"31.1020471815","category":"196","category_name":"公园","address":"上海市闵行区莘浜路421号"},{"poiid":"B2094757D168A1FD4092","title":"莘松路西环路","lon":"121.367515257","lat":"31.103149725","category":"500","category_name":"未知分类","address":"上海莘松路西环路"},{"poiid":"B2094654DA65A3FD479B","title":"蜀香村川菜 莘庄店","lon":"121.37300644648","lat":"31.105044614193","category":"71","category_name":"四川菜","address":"闵行区莘西路299号(莘松路口)"},{"poiid":"B2094757D66CA5F8479D","title":"莘松路智慧园","lon":"121.37286485","lat":"31.10539497","category":"252","category_name":"楼宇机构","address":"上海莘松路380号"},{"poiid":"B2094757D06BA5F84393","title":"闵行区社会保险基金管理中心","lon":"121.37354545","lat":"31.106541692","category":"500","category_name":"未知分类","address":"上海闵行区莘松路385号"},{"poiid":"B2094655D26BA3FD4998","title":"小肥羊 莘庄店","lon":"121.369995054","lat":"31.106995793","category":"86","category_name":"火锅店","address":"闵行区莘谭路423号(莘西路西环路间)"},{"poiid":"B2094751D468A4FD4298","title":"饗enjoy","lon":"121.372954","lat":"31.105127","category":"247","category_name":"餐饮美食","address":"闵行区莘西路299号(近莘松路)"},{"poiid":"B2094757D068A5FB479F","title":"中国工商银行(莘庄支行)","lon":"121.373527","lat":"31.106697","category":"150","category_name":"银行","address":"闵行区莘松路288号(近莘西路)"},{"poiid":"B2094757D66CAAFA4199","title":"青春农庄","lon":"121.366871757","lat":"31.0982198263","category":"87","category_name":"特色／地方风味餐厅","address":"闵行区中春路4755弄98号(近青春路)"},{"poiid":"B2094757D568A5F9449C","title":"恒泰生活广场","lon":"121.364","lat":"31.1058","category":"201","category_name":"城市广场","address":"莘松路1000号"},{"poiid":"B2094757D068AAF44599","title":"公园天下","lon":"121.372984","lat":"31.100528","category":"196","category_name":"公园","address":"闵行区西园路128弄(近莘庄公园)"},{"poiid":"B2094654DA64AAFA419B","title":"莘松四村","lon":"121.36943","lat":"31.105217","category":"47","category_name":"住宅区","address":"莘松路470弄"},{"poiid":"B2094654DB64A2FD429F","title":"锦江之星(莘松路店)","lon":"121.36436","lat":"31.10051","category":"216","category_name":"经济型连锁酒店","address":"上海市闵行区莘松路855号(乐购超市旁)"},{"poiid":"B2094757D068A5F8429D","title":"招商银行(上海闵行支行)","lon":"121.3721297","lat":"31.1053146","category":"150","category_name":"银行","address":"闵行区莘松路365号(莘松路莘西路)"},{"poiid":"B2094757D66BA5FD479F","title":"齐珍辉盱眙龙虾城 莘潭路店","lon":"121.37221","lat":"31.10834","category":"68","category_name":"快餐厅","address":"闵行区莘庄镇莘谭路311号(近莘松路)"},{"poiid":"B2094655D36DA1FB4498","title":"西环路莘谭路","lon":"121.36771","lat":"31.10517","category":"38","category_name":"公交车站","address":""},{"poiid":"B2094655D36DA1FB4393","title":"西环路","lon":"121.3666","lat":"31.10742","category":"38","category_name":"公交车站","address":""},{"poiid":"B2094757D06FAAFF409F","title":"团结花苑","lon":"121.37217","lat":"31.104425","category":"47","category_name":"住宅区","address":"上海闵行区莘建路375弄"},{"poiid":"B2094655D36DA1FB449B","title":"西环路莘潭路","lon":"121.36762","lat":"31.10498","category":"38","category_name":"公交车站","address":""},{"poiid":"B2094757D16DA0FE459A","title":"松江大学城天鑫电影院","lon":"121.367897","lat":"31.103651","category":"178","category_name":"电影院","address":"上海松江大学城3期"},{"poiid":"B2094757D16CA2FC489A","title":"闵行区规划局","lon":"121.369078","lat":"31.10361","category":"500","category_name":"未知分类","address":"上海闵行区莘松路555号"},{"poiid":"B2094655D36DA7FB499D","title":"莘松新村","lon":"121.36888","lat":"31.10381","category":"38","category_name":"公交车站","address":""},{"poiid":"B2094757D16DAAF9469F","title":"莘松幼儿园","lon":"121.369220857","lat":"31.1051134643","category":"57","category_name":"幼儿园","address":"上海市闵行区莘松四村"},{"poiid":"B2094757D16BA6F5419F","title":"酩悦炭烧火锅","lon":"121.367945457","lat":"31.1030222225","category":"247","category_name":"餐饮美食","address":"上海闵行区龙之梦"},{"poiid":"B2094757D06BAAF5479F","title":"棒约翰比萨(莘松店)","lon":"121.3632","lat":"31.10044","category":"94","category_name":"西餐厅","address":"闵行区莘松路855号乐购莘松店内(莘松地道旁)"},{"poiid":"B2094757D068A7F5459B","title":"乐购莘松店","lon":"121.36471455","lat":"31.099643024","category":"500","category_name":"未知分类","address":"上海莘松路958弄"},{"poiid":"B2094757D46BA4F9409F","title":"城隍庙小吃世界 西环路店","lon":"121.366426054","lat":"31.106103793","category":"68","category_name":"快餐厅","address":"闵行区西环路281号农工商超市1楼(莘谭路西环路)"},{"poiid":"B2094654DA64A2F8489D","title":"柳明公寓","lon":"121.36754","lat":"31.10251","category":"47","category_name":"住宅区","address":"莘松路577弄"},{"poiid":"B2094654DA65A3FD459D","title":"小桥流水 莘庄店","lon":"121.37211204282","lat":"31.105556136737","category":"47","category_name":"住宅区","address":"闵行区莘松路355号(近莘西路)"},{"poiid":"B2094757D06AA0F5439A","title":"特力屋(莘松店)","lon":"121.368","lat":"31.10279","category":"123","category_name":"家具建材市场","address":"上海闵行区莘松路855号1楼(百饰得乐购旁)"},{"poiid":"B2094654DA64A2FB469F","title":"君妮宠物","lon":"121.368","lat":"31.10275","category":"117","category_name":"便民商店/便利店","address":""},{"poiid":"B2094654DA65A3FD439C","title":"闵富花苑","lon":"121.37078","lat":"31.103664","category":"47","category_name":"住宅区","address":"莘松路475弄"},{"poiid":"B2094654DA64A2F8459D","title":"上海师资培训中心实验基地附属中学","lon":"121.36827","lat":"31.10134","category":"55","category_name":"中学","address":"闵行区中春路4949号(近莘松路)"},{"poiid":"B2094655D36DA7F4419F","title":"莘庄电影院","lon":"121.37358","lat":"31.10653","category":"178","category_name":"电影院","address":""},{"poiid":"B2094654DA64AAFF489C","title":"莘松中学","lon":"121.36809","lat":"31.1092","category":"55","category_name":"中学","address":"闵行区莘沥路480号"},{"poiid":"B2094757D169A0FD449E","title":"攀宇健身","lon":"121.368961687","lat":"31.104747197","category":"220","category_name":"运动场所","address":"上海绿洲长岛"},{"poiid":"B2094654DA65A3FD449F","title":"名角女士SPA生活馆","lon":"121.37067","lat":"31.10451","category":"148","category_name":"美容美发店","address":"莘松路457号"},{"poiid":"B2094654DB64A2FD4093","title":"永琪美容美发(西环店)","lon":"121.36692","lat":"31.10612","category":"148","category_name":"美容美发店","address":"闵行区西环路281号(近莘潭路)"},{"poiid":"B2094757D06BAAFD4493","title":"166莘庄终点站","lon":"121.36859552","lat":"31.104782791","category":"500","category_name":"未知分类","address":"上海西环路，莘松路"},{"poiid":"B2094654DB69A6F9419A","title":"万宇漓水花苑","lon":"121.36596","lat":"31.10274","category":"47","category_name":"住宅区","address":"松江区莘松路"},{"poiid":"B2094757DA65A5F5429D","title":"莫泰168（上海闵行莘沥路店）","lon":"121.36554569","lat":"31.107399805","category":"216","category_name":"经济型连锁酒店","address":"闵行区莘沥路550号(近莘庄镇)"},{"poiid":"B2094654DA65A3FD4398","title":"梅园邨","lon":"121.3711","lat":"31.10342","category":"47","category_name":"住宅区","address":"莘浜路508弄"},{"poiid":"B2094655D268A0F9499C","title":"三琳花园(北门)","lon":"121.37146","lat":"31.10491","category":"47","category_name":"住宅区","address":"莘松路415弄1-3号"},{"poiid":"B2094757D66AA5FD4993","title":"小丁香","lon":"121.374194054","lat":"31.105971793","category":"76","category_name":"上海菜","address":"闵行区莘建支路58号(永乐旁)"},{"poiid":"B2094654DA65A3FC4293","title":"快客(莘谭路)","lon":"121.36898","lat":"31.10628","category":"117","category_name":"便民商店/便利店","address":"莘谭路449-451"},{"poiid":"B2094655D36DA7F4409A","title":"莘西路莘浜路","lon":"121.37408","lat":"31.10404","category":"38","category_name":"公交车站","address":""},{"poiid":"B2094654DB64A2FD409C","title":"农工商超市","lon":"121.36673","lat":"31.10639","category":"118","category_name":"超级市场","address":"莘庄镇"},{"poiid":"B2094655D36DA7FB489D","title":"莘沥路外环路","lon":"121.36373","lat":"31.10653","category":"38","category_name":"公交车站","address":""},{"poiid":"B2094654DA65A3FD449B","title":"圆缘园(莘松路)","lon":"121.37001","lat":"31.10412","category":"260","category_name":"其他","address":"闵行区莘庄镇莘松路483号(莘松四村对面)"},{"poiid":"B2094655D264A2F5479C","title":"闵行第一图书馆","lon":"121.37135","lat":"31.10539","category":"181","category_name":"图书馆","address":"莘松路404号"},{"poiid":"B2094757D164A1FA4098","title":"莘庄商务楼莘松分部","lon":"121.368695","lat":"31.101668","category":"500","category_name":"未知分类","address":"上海闵行区中春路4999号"},{"poiid":"B2094757D064A1FA419F","title":"莘松路莘西路车站","lon":"121.3728537","lat":"31.105998","category":"38","category_name":"公交车站","address":"上海闵行区莘松路莘西路口"},{"poiid":"B2094654DA64A2F8439E","title":"碧春园","lon":"121.36901","lat":"31.100262","category":"47","category_name":"住宅区","address":"中春路4915弄"},{"poiid":"B2094655D26FA3F44699","title":"柳明公寓(北门)","lon":"121.36749","lat":"31.10274","category":"48","category_name":"楼宇大门","address":"莘松路577弄"},{"poiid":"B2094757D568A4FB439F","title":"居易莘庄团结花苑","lon":"121.3721769","lat":"31.10442889","category":"47","category_name":"住宅区","address":"居易莘庄――团结花苑位于闵行莘建路376弄16号"},{"poiid":"B2094654DA65A3FC479F","title":"莘松五村","lon":"121.36835","lat":"31.107389","category":"47","category_name":"住宅区","address":"莘沥路499弄"},{"poiid":"B2094757D16CA2F5419D","title":"民生银行上海闵行支行","lon":"121.371606","lat":"31.105014","category":"500","category_name":"未知分类","address":"上海莘松路405号…"},{"poiid":"B2094655D26FABFD459C","title":"兴中公寓","lon":"121.3713","lat":"31.105682","category":"47","category_name":"住宅区","address":"莘松路404弄"},{"poiid":"B2094655D268A4FE489A","title":"莘庄耶稣堂(西门)","lon":"121.37072","lat":"31.10154","category":"680","category_name":"楼宇机构","address":""},{"poiid":"B2094654DA65A3FC449F","title":"皇英超越形象设计","lon":"121.36887","lat":"31.10668","category":"148","category_name":"美容美发店","address":""},{"poiid":"B2094757D06AA7F4439B","title":"梅园村","lon":"121.371105","lat":"31.103424","category":"500","category_name":"未知分类","address":"上海闵行区莘浜路508弄"},{"poiid":"B2094750DA68A5FC459D","title":"莘屋米香","lon":"121.372985","lat":"31.105966","category":"260","category_name":"其他","address":"闵行区莘松路359号(近莘西路)"},{"poiid":"B2094757D569A3FD4499","title":"闵行影剧院","lon":"121.3722294","lat":"31.10618806","category":"178","category_name":"电影院","address":"莘松路348号"},{"poiid":"B2094654DA64A2F84698","title":"环绿公寓","lon":"121.3651","lat":"31.10635","category":"47","category_name":"住宅区","address":"莘沥路563弄"},{"poiid":"B2094757D664A7FC4193","title":"马哥孛罗 莘庄店 Marco Polo","lon":"121.373095054","lat":"31.106478793","category":"112","category_name":"糕饼店","address":"闵行区莘松路195号世纪联华1楼大门口(近莘庄中心医院)"},{"poiid":"B2094655D26FA3F4469E","title":"碧春园(东门)","lon":"121.3692","lat":"31.1003","category":"47","category_name":"住宅区","address":"中春路4915弄1-29号"},{"poiid":"B2094655D268A1F84499","title":"闵富花苑(北二门)","lon":"121.36939","lat":"31.10355","category":"656","category_name":"大门","address":""},{"poiid":"B2094752D165A1F9469E","title":"同济大学沪西校区","lon":"121.366737","lat":"31.106378","category":"500","category_name":"未知分类","address":null},{"poiid":"B2094654DA65A3FD4092","title":"鑫鸿公寓","lon":"121.37103","lat":"31.106533","category":"47","category_name":"住宅区","address":"莘西路403弄45支弄"},{"poiid":"B2094655D268A0FD449E","title":"团结花园(南门)","lon":"121.37253","lat":"31.1032","category":"47","category_name":"住宅区","address":"莘建路375弄"},{"poiid":"B2094757D66DA7F4419D","title":"永琪美发","lon":"121.366797157","lat":"31.1059287807","category":"148","category_name":"美容美发店","address":"上海闵行西环路281号"},{"poiid":"B2094757D66BA0FD469F","title":"江北晟鲁菜","lon":"121.371769","lat":"31.108217","category":"73","category_name":"山东菜","address":"闵行区莘潭路(近莘西路)"},{"poiid":"B2094655D26FABF5449A","title":"莘松四村(南二门)","lon":"121.3696","lat":"31.10442","category":"656","category_name":"大门","address":"莘松路470弄"},{"poiid":"B2094757D16BA5FE4293","title":"莘松六村","lon":"121.36848","lat":"31.10676","category":"252","category_name":"楼宇机构","address":"上海市闵行区莘庄镇莘松六村"},{"poiid":"B2094655D36DA7FB499C","title":"莘松路莘西路","lon":"121.37331","lat":"31.10642","category":"38","category_name":"公交车站","address":""},{"poiid":"B2094654DA64A2FA4698","title":"闵行区莘庄镇党员服务中心","lon":"121.36653","lat":"31.10532","category":"248","category_name":"生活娱乐","address":"闵行区莘谭路550（乙）"},{"poiid":"B2094654DA65A3FC4799","title":"舒馨夜总会KTV","lon":"121.36685","lat":"31.10765","category":"170","category_name":"KTV","address":""},{"poiid":"B2094757D069AAFB4392","title":"莘松三村","lon":"121.37094","lat":"31.108677","category":"252","category_name":"楼宇机构","address":"上海闵行区莘沥路"},{"poiid":"B2094757D66CABF5459C","title":"莘谭路农贸市场","lon":"121.36801","lat":"31.10526","category":"260","category_name":"其他","address":"闵行区莘谭路(近中春路)"},{"poiid":"B2094757D66DABFC4893","title":"兰菲尔美容SPA生活馆(莘松店)","lon":"121.36931","lat":"31.10651","category":"148","category_name":"美容美发店","address":"闵行区莘松路1062号巴比伦广场旁(近上海康城)"},{"poiid":"B2094654DA64A1FD459B","title":"中脉科技(西环路)","lon":"121.36633","lat":"31.10731","category":"162","category_name":"医院","address":""},{"poiid":"B2094654DA64AAF5449B","title":"莘虹烧烤店莘庄店","lon":"121.37128","lat":"31.1077","category":"247","category_name":"餐饮美食","address":"莘谭路395"},{"poiid":"B2094757D66CA6FB489F","title":"新丁香海鲜大酒店","lon":"121.364154857","lat":"31.1009933818","category":"88","category_name":"海鲜酒楼","address":"上海市闵行区莘松路"},{"poiid":"B2094757D66DA4FA489F","title":"莘潭路菜场","lon":"121.36969285","lat":"31.106233486","category":"249","category_name":"购物服务","address":"上海市闵行区西环路"},{"poiid":"B2094753D168A4F54299","title":"唛动歌城(莘庄店)","lon":"121.36658","lat":"31.10772","category":"170","category_name":"KTV","address":"闵行区西环路381号3楼"},{"poiid":"B2094655D268A4F8449B","title":"莘松二村(北门)","lon":"121.37091","lat":"31.10722","category":"47","category_name":"住宅区","address":"莘谭路411弄"},{"poiid":"B2094654DA64AAFA4199","title":"捷安特(莘松路)","lon":"121.37126","lat":"31.10534","category":"133","category_name":"自行车专卖店","address":"莘松路410-412"},{"poiid":"B2094757D568ABF9459F","title":"雅曼妮美容美发养生会馆(莘庄店)","lon":"121.37260091","lat":"31.10560683","category":"148","category_name":"美容美发店","address":"莘松路357"},{"poiid":"B2094757D064ABF84599","title":"闵行区招标投标中心","lon":"121.37293302","lat":"31.107380999","category":"500","category_name":"未知分类","address":"上海莘西路406号"},{"poiid":"B2094654DA64AAFF419E","title":"阿贵湘菜馆","lon":"121.3747","lat":"31.10465","category":"77","category_name":"湖南菜","address":"闵行区莘建路(近沪闵路)"},{"poiid":"B2094654DA65A3FD459B","title":"中国民生银行上海闵行支行","lon":"121.37165","lat":"31.10504","category":"150","category_name":"银行","address":"闵行区莘庄莘松路405号"},{"poiid":"B2094757D168A6FD419C","title":"伶达港骨头皇火锅","lon":"121.37300485","lat":"31.105188465","category":"247","category_name":"餐饮美食","address":"上海市闵行区莘松路359号"},{"poiid":"B2094757D16EABFF419C","title":"华筵饭店","lon":"121.36703552","lat":"31.108816205","category":"247","category_name":"餐饮美食","address":"上海西环路"},{"poiid":"B2094757D66DA1FB429D","title":"味之都(莘庄店)","lon":"121.37045","lat":"31.09791","category":"68","category_name":"快餐厅","address":"闵行区西环路281号莘庄农工商1楼(莘谭路口)"},{"poiid":"B2094757D568A5F54399","title":"巴黎三城(农工商莘庄店)","lon":"121.36673","lat":"31.106479","category":"132","category_name":"眼镜店","address":"西环路281号农工商1层"},{"poiid":"B2094654DA65A3FC489F","title":"闵行区莘松第二幼儿园","lon":"121.36852","lat":"31.10802","category":"57","category_name":"幼儿园","address":"闵行区莘松五村48号"},{"poiid":"B2094654DA64A2F8449E","title":"中国人寿保险公司上海市闵行支公司","lon":"121.36589","lat":"31.10495","category":"219","category_name":"其他","address":"莘谭路580"},{"poiid":"B2094752D065A2FC4298","title":"莘松派出所","lon":"121.366278","lat":"31.105227","category":"609","category_name":"警察局","address":"上海市 莘谭路558号"},{"poiid":"B2094654DA64AAFA419D","title":"上海图书馆莘庄书库","lon":"121.37262","lat":"31.10671","category":"181","category_name":"图书馆","address":"莘西路402号"},{"poiid":"B2094757D16CA6FE429D","title":"艾泽拉斯","lon":"121.37217185","lat":"31.103982441","category":"607","category_name":"一般景点","address":"上海闵行区莘建路276弄15号1206"},{"poiid":"B2094757D569A3FC419B","title":"N子星专业儿童摄影写真","lon":"121.36912462","lat":"31.10683757","category":"611","category_name":"照相馆","address":"莘谭路440"},{"poiid":"B2094757D16DA6F4499B","title":"华尔街英语(莘庄分校)","lon":"121.373074857","lat":"31.1076385149","category":"253","category_name":"校园生活","address":"闵行区都市路5001号仲盛世界商城内(近莘庄地铁南广场)"},{"poiid":"B2094757D66DAAF54699","title":"teenie weenie 凯德龙之梦店","lon":"121.371626257","lat":"31.1072112064","category":"500","category_name":"未知分类","address":"上海凯德龙之梦一楼"},{"poiid":"B2094654DA64AAFF469D","title":"快客(莘松七村西)","lon":"121.36721","lat":"31.10831","category":"117","category_name":"便民商店/便利店","address":"莘沥路518号"},{"poiid":"B2094654DA64AAF5459A","title":"闵行区科技馆","lon":"121.37287","lat":"31.10645","category":"186","category_name":"科技馆","address":"兰坪路160号"},{"poiid":"B2094654DA64AAFF4693","title":"莘松七村","lon":"121.36723","lat":"31.109158","category":"47","category_name":"住宅区","address":"上海莘沥路512弄"},{"poiid":"B2094757D06AABFC4793","title":"闵行区司法局","lon":"121.371273","lat":"31.108157","category":"500","category_name":"未知分类","address":"上海市闵行区莘谭路384号"},{"poiid":"B2094757D16CAAFA4793","title":"九宇宾馆","lon":"121.37302","lat":"31.10544","category":"217","category_name":"旅馆招待所","address":"闵行区莘西路299号(莘松路口)"},{"poiid":"B2094654DA64AAF5449D","title":"阿二楼麻辣烫馆","lon":"121.37146","lat":"31.10783","category":"257","category_name":"中餐厅","address":"闵行区莘潭路(近莘西路)"},{"poiid":"B2094655D26EABFE409B","title":"上海市食品药品监督管理局闵行分局","lon":"121.37347","lat":"31.10445","category":"250","category_name":"公园户外","address":"莘建路300号"},{"poiid":"B2094757D66DA2FF4693","title":"莘庄消防队","lon":"121.36376325","lat":"31.102957421","category":"500","category_name":"未知分类","address":"上海莘松路585号"},{"poiid":"B2094654DA64A2F8499C","title":"青春小区","lon":"121.36912","lat":"31.099077","category":"47","category_name":"住宅区","address":"中春路4869弄"},{"poiid":"B2094655D26FA2F9439F","title":"上海市闵行区食品药品监督所","lon":"121.37348","lat":"31.10445","category":"250","category_name":"公园户外","address":"莘建路300号"},{"poiid":"B2094752D669A7F84592","title":"上海市普陀区","lon":"121.373077","lat":"31.103182","category":"500","category_name":"未知分类","address":"真南路"},{"poiid":"B2094757D66EA1F5489B","title":"莘庄2路康城(北大门)终点站","lon":"121.36393915","lat":"31.102794817","category":"500","category_name":"未知分类","address":"上海市闵行区康城北门"},{"poiid":"B2094757D168A2FB459C","title":"莘浜路","lon":"121.373478057","lat":"31.1042673474","category":"500","category_name":"未知分类","address":"上海市闵行区莘浜路285弄"},{"poiid":"B2094655D268A3F4449C","title":"城市广场","lon":"121.3741","lat":"31.10526","category":"201","category_name":"城市广场","address":""},{"poiid":"B2094655D268A4F5419C","title":"莘松七村(南门)","lon":"121.36728","lat":"31.10834","category":"47","category_name":"住宅区","address":"莘沥路512弄"},{"poiid":"B2094655D268A1F84493","title":"莘松四村(北二门)","lon":"121.36835","lat":"31.10585","category":"656","category_name":"大门","address":"莘松路470弄"},{"poiid":"B2094654DA65A3FD429C","title":"闵行城投公司接待室","lon":"121.37235","lat":"31.10315","category":"263","category_name":"公司","address":"莘浜路464"},{"poiid":"B2094654DA64AAFF489A","title":"顶尖创意设计烫染店","lon":"121.36779","lat":"31.10866","category":"148","category_name":"美容美发店","address":""},{"poiid":"B2094655D268A4FF459D","title":"莘建新村","lon":"121.37377","lat":"31.10585","category":"47","category_name":"住宅区","address":""},{"poiid":"B2094654DA65A3FD429E","title":"上海闵行城市建设投资开发有限公司","lon":"121.37265","lat":"31.10283","category":"263","category_name":"公司","address":"莘浜路427"},{"poiid":"B2094654DA64AAFC409A","title":"海星集团莘庄超市","lon":"121.37438","lat":"31.1039","category":"118","category_name":"超级市场","address":"莘庄镇"},{"poiid":"B2094757D16BA4FD449E","title":"闵行区科学技术委员会","lon":"121.372582367","lat":"31.1063734896","category":"500","category_name":"未知分类","address":"上海莘西路"},{"poiid":"B2094655D268A4F84498","title":"莘松四村(北门)","lon":"121.36871","lat":"31.10604","category":"656","category_name":"大门","address":"莘松路470弄"},{"poiid":"B2094654DA64AAFD4393","title":"闵行区特种设备监督检验所","lon":"121.37339","lat":"31.10609","category":"250","category_name":"公园户外","address":"莘松路325"},{"poiid":"B2094655D268A1F84598","title":"莘松六村(南一门)","lon":"121.36817","lat":"31.10625","category":"656","category_name":"大门","address":""},{"poiid":"B2094654DA65A3FE459F","title":"快客NO.6366","lon":"121.37326","lat":"31.09953","category":"117","category_name":"便民商店/便利店","address":"西园路128弄10"},{"poiid":"B2094655D26EA2FA429C","title":"梅园邨(南门)","lon":"121.37128","lat":"31.10281","category":"656","category_name":"大门","address":"莘浜路508弄"},{"poiid":"B2094654DB65ABFA4298","title":"华栋渔具水族馆","lon":"121.37201","lat":"31.1089","category":"199","category_name":"水族馆","address":"莘松三村43号"},{"poiid":"B2094654DA64A2F8489E","title":"莘松水果店","lon":"121.36299","lat":"31.10119","category":"117","category_name":"便民商店/便利店","address":""},{"poiid":"B2094655D268A4FE489B","title":"莘庄公园(西门)","lon":"121.37081","lat":"31.10131","category":"656","category_name":"大门","address":""},{"poiid":"B2094655D26FABFD459D","title":"兴中公寓(南二门)","lon":"121.37098","lat":"31.10519","category":"656","category_name":"大门","address":"莘松路404弄"},{"poiid":"B2094654DA64A2F8479D","title":"莘裕菜市场","lon":"121.36547","lat":"31.10936","category":"117","category_name":"便民商店/便利店","address":"闵行区西环路387号"},{"poiid":"B2094757D169A5FA4399","title":"鑫龙小厨","lon":"121.371876857","lat":"31.1089560413","category":"247","category_name":"餐饮美食","address":"上海闵行莘庄莘谭路355号"},{"poiid":"B2094757D165ABF84093","title":"闵行区红十字会","lon":"121.371101379","lat":"31.1079463959","category":"500","category_name":"未知分类","address":"上海莘潭路408号"},{"poiid":"B2094757D66DA4FD4592","title":"EcoG溢柯花园生活中心","lon":"121.36436","lat":"31.09917","category":"249","category_name":"购物服务","address":"上海闵行区莘松路855号2幢2楼(莘松地道旁)  "},{"poiid":"B2094654DA64A2F84893","title":"永乐生活电器(浅水湾花园东)","lon":"121.36419","lat":"31.09886","category":"138","category_name":"家电电子卖场","address":""},{"poiid":"B2094655D268A2F54793","title":"莘松五村(南门)","lon":"121.36872","lat":"31.10658","category":"656","category_name":"大门","address":""},{"poiid":"B2094655D268A2F54792","title":"莘松六村(南二门)","lon":"121.36872","lat":"31.10659","category":"656","category_name":"大门","address":""},{"poiid":"B2094757D16BA2F5419D","title":"闵行区质量技术监督局","lon":"121.373853","lat":"31.106364","category":"500","category_name":"未知分类","address":"上海莘松路303号"},{"poiid":"B2094655D26FA4F54892","title":"莘松八村(南门)","lon":"121.36961","lat":"31.10968","category":"47","category_name":"住宅区","address":"莘沥路366弄"},{"poiid":"B2094757D06BA6FA4793","title":"屈臣氏(莘庄龙之梦店)","lon":"121.36862965","lat":"31.109595354","category":"500","category_name":"未知分类","address":"闵行区沪闵路6088号莘庄凯德龙之梦购物中心内(近莘建路)"},{"poiid":"B2094757D568A4F5489D","title":"海湾园(莘庄店)","lon":"121.3667768","lat":"31.10806614","category":"249","category_name":"购物服务","address":"莘沥路530"},{"poiid":"B2094654DA64A2F8459C","title":"莘松建材市场","lon":"121.36287","lat":"31.10118","category":"123","category_name":"家具建材市场","address":"闵行区莘松路地铁一号线莘庄站(莘松路莘西路)"},{"poiid":"B2094655D268A1F84492","title":"莘松六村(西门)","lon":"121.36707","lat":"31.10706","category":"656","category_name":"大门","address":""},{"poiid":"B2094757D16EA3FF4398","title":"莘庄耶稣堂","lon":"121.37434387","lat":"31.104017257","category":"260","category_name":"其他","address":"上海莘庄西园路128弄公园天下"},{"poiid":"B2094655D268A2F5489B","title":"莘松六村(南三门)","lon":"121.36916","lat":"31.10686","category":"656","category_name":"大门","address":""},{"poiid":"B2094655D268A4F5419A","title":"兴中公寓(南门)","lon":"121.37149","lat":"31.10547","category":"656","category_name":"大门","address":"莘松路404弄"},{"poiid":"B2094654DB64A2FF459D","title":"中国平安人寿保险(莘松路)","lon":"121.37267","lat":"31.10564","category":"219","category_name":"其他","address":"莘庄镇"},{"poiid":"B2094655D268A4FE4898","title":"莘纪苑(北门)","lon":"121.37091","lat":"31.10061","category":"656","category_name":"大门","address":"西园路128弄45"},{"poiid":"B2094757D568ABF94399","title":"皮尼时尚百货(莘庄店)","lon":"121.37215196","lat":"31.10868137","category":"141","category_name":"服装鞋帽皮具店","address":"莘谭路338"},{"poiid":"B2094654DA65A3FD469F","title":"上海证券有限责任公司","lon":"121.37297","lat":"31.10543","category":"219","category_name":"其他","address":"莘西路319"},{"poiid":"B2094757D66DA6FD479A","title":"天鹅轩","lon":"121.36538385","lat":"31.09890781","category":"500","category_name":"未知分类","address":"上海动物园"},{"poiid":"B2094757D165A0F8459E","title":"莘松菜场","lon":"121.372029","lat":"31.108148","category":"249","category_name":"购物服务","address":"上海莘谭路"},{"poiid":"B2094757D66CAAF8419F","title":"锦江乐园云霄飞车","lon":"121.37325485","lat":"31.107658515","category":"500","category_name":"未知分类","address":"上海锦江乐园"},{"poiid":"B2094654DB69AAF8469D","title":"莘庄镇派出所","lon":"121.37262","lat":"31.1084","category":"609","category_name":"警察局","address":"上海市闵行区莘庄镇莘松一村12号"},{"poiid":"B2094655D268A4F8449A","title":"鑫鸿公寓(东门)","lon":"121.3713","lat":"31.1067","category":"656","category_name":"大门","address":"莘西路403弄45支弄"},{"poiid":"B2094757D66CABF54299","title":"联华快客便利(金园店)","lon":"121.37353","lat":"31.10014","category":"249","category_name":"购物服务","address":"静安区西园路128弄10号"},{"poiid":"B2094757D165ABFA429F","title":"豆芽&amp;菜之家","lon":"121.37424474","lat":"31.106320488","category":"500","category_name":"未知分类","address":"上海世纪名门1号"},{"poiid":"B2094757D66CA7F5479C","title":"英之杰 雷克萨斯 Lexus Customer Assist","lon":"121.373150497","lat":"31.1076196345","category":"500","category_name":"未知分类","address":"上海市杨浦区市光路405号"},{"poiid":"B2094655D268A2F5479D","title":"鑫鸿公寓(南门)","lon":"121.37139","lat":"31.10665","category":"656","category_name":"大门","address":""},{"poiid":"B2094655D268A4FE4793","title":"莘庄公园(北二门)","lon":"121.3732","lat":"31.10297","category":"656","category_name":"大门","address":"莘浜路421"},{"poiid":"B2094655D268A1F8449C","title":"莘松五村(北四门)","lon":"121.36717","lat":"31.10788","category":"656","category_name":"大门","address":"莘沥路499弄"},{"poiid":"B2094655D268A1F84393","title":"莘松三村(南门)","lon":"121.3707","lat":"31.10779","category":"656","category_name":"大门","address":"莘沥路363弄"},{"poiid":"B2094654DB6AA2FC419C","title":"中国邮政(莘松新村邮政所)","lon":"121.37182","lat":"31.10848","category":"248","category_name":"生活娱乐","address":"闵行区莘谭路350号"},{"poiid":"B2094655D268A1F8449F","title":"莘松五村(北三门)","lon":"121.3678","lat":"31.10822","category":"656","category_name":"大门","address":"莘沥路499弄、501弄"},{"poiid":"B2094757D16BA7FC4192","title":"松江五厍休闲观光园","lon":"121.371627357","lat":"31.0992998479","category":"260","category_name":"其他","address":"上海近郊松江区  "},{"poiid":"B2094655D26FA4F5489C","title":"莘松五村(北二门)","lon":"121.36837","lat":"31.10855","category":"656","category_name":"大门","address":""},{"poiid":"B2094655D268A1F54198","title":"莘松五村(北一门)","lon":"121.36865","lat":"31.10872","category":"656","category_name":"大门","address":""},{"poiid":"B2094655D26FABF4439C","title":"莘松三村(北三门)","lon":"121.36988","lat":"31.10951","category":"656","category_name":"大门","address":""},{"poiid":"B2094757D569A1FF479E","title":"普陀绿地快捷假日酒店","lon":"121.3714258","lat":"31.109095","category":"251","category_name":"出行住宿","address":"光复西路834号"},{"poiid":"B2094655D268A2F5479C","title":"莘松一村(北二门)","lon":"121.37211","lat":"31.10817","category":"656","category_name":"大门","address":""},{"poiid":"B2094655D26FABF44398","title":"莘松三村(北二门)","lon":"121.37026","lat":"31.10957","category":"656","category_name":"大门","address":"莘沥路363弄"},{"poiid":"B2094655D268A1F8449B","title":"莘松三村(南二门)","lon":"121.37162","lat":"31.10898","category":"656","category_name":"大门","address":""},{"poiid":"B2094655D26FA3F5479F","title":"莘松三村(西北门)","lon":"121.3702","lat":"31.1096","category":"656","category_name":"大门","address":"莘沥路363弄"},{"poiid":"B2094655D26FABF4439A","title":"莘松一村(北门)","lon":"121.37249","lat":"31.10842","category":"656","category_name":"大门","address":""}]