[{"poiid":"B2094654DA6FAAF5479E","title":"上海长征医院","lon":"121.46721","lat":"31.23279","category":"162","category_name":"医院","address":"黄浦区凤阳路415号(近成都北路)"},{"poiid":"B2094655D26CAAFF4992","title":"静安别墅","lon":"121.464","lat":"31.2349","category":"47","category_name":"住宅区","address":"静安区南京西路1025弄静安别墅81号(近茂名北路)"},{"poiid":"B2094757D06FA3F4449B","title":"泰廊","lon":"121.46409","lat":"31.2338","category":"99","category_name":"泰国／越南菜品餐厅","address":"静安区大田路127号(近北京西路)"},{"poiid":"B2094753D76FAAFA449C","title":"上海滩国泰旗舰店","lon":"121.466011","lat":"31.216125","category":"249","category_name":"购物服务","address":"淮海中路868号"},{"poiid":"B209475CD564A7F84292","title":"上海滩新天地店","lon":"121.47463","lat":"31.22164","category":"119","category_name":"商场","address":"\"太仓路181弄新天地北里15号\r\n\""},{"poiid":"B209475CD564A7F8439E","title":"上海滩中信泰富店","lon":"121.45602","lat":"31.22851","category":"119","category_name":"商场","address":"\"南京西路1168号中信泰富广场，店铺号221.\r\n\""},{"poiid":"B2094757D06FAAFD409D","title":"中创大厦","lon":"121.467","lat":"31.2364","category":"46","category_name":"楼宇","address":"上海静安区南京西路819号"},{"poiid":"B2094757D069A5FD439F","title":"新闸路成都北路","lon":"121.464829","lat":"31.237632","category":"500","category_name":"未知分类","address":"上海新闸路成都北路"},{"poiid":"B2094751DA69A6FB499A","title":"王品  仙乐斯广场","lon":"121.465452","lat":"31.233329","category":"247","category_name":"餐饮美食","address":"南京西路338号"},{"poiid":"B2094757D06FA2F54492","title":"沪上一家辣肉面馆(成都北路店)","lon":"121.46618","lat":"31.23239","category":"68","category_name":"快餐厅","address":"黄浦区凤阳路535号(近成都北路)"},{"poiid":"B2094750DB6CA1F8439B","title":"人民公园","lon":"121.466559","lat":"31.233402","category":"196","category_name":"公园","address":"黄浦区南京西路75号人民公园内(近黄陂北路)"},{"poiid":"B2094757D069A2FD489B","title":"北京西路 成都北路 路口","lon":"121.46540683","lat":"31.236365878","category":"500","category_name":"未知分类","address":"上海北京西路 成都北路 路口"},{"poiid":"B2094751D468A4F5469C","title":"小杨生煎黄河路店","lon":"121.4675955718996","lat":"31.23632675273554","category":"247","category_name":"餐饮美食","address":"黄浦区黄河路97号1-3楼(近凤阳路)"},{"poiid":"B2094757DB68A5FF449C","title":"上海 来福士","lon":"121.4678278181757","lat":"31.23394058782101","category":"247","category_name":"餐饮美食","address":"人民广场"},{"poiid":"B2094757DA6EAAFD429A","title":"御景轩凯宾斯基酒店","lon":"121.465211999998","lat":"31.2323450000001","category":"251","category_name":"出行住宿","address":"静安区凤阳路601号"},{"poiid":"B2094654DB65A2FC409D","title":"静安新时代大厦","lon":"121.467","lat":"31.2366","category":"46","category_name":"楼宇","address":"南京西路881号(吴江路188)"},{"poiid":"B2094751D56FA4F4419B","title":"木有鸭梨餐吧","lon":"121.4664323","lat":"31.2333259","category":"247","category_name":"餐饮美食","address":"南京西路456号4楼"},{"poiid":"B2094752D069A5FA4393","title":"上海国际时尚中心","lon":"121.465475","lat":"31.233833","category":"249","category_name":"购物服务","address":"上海市杨树浦路2866号"},{"poiid":"B2094654DA6FAAF5489C","title":"中华保险华盛大厦","lon":"121.46685","lat":"31.23415","category":"46","category_name":"楼宇","address":"成都北路600"},{"poiid":"B2094757D06FA0FA4992","title":"上海壹街区","lon":"121.465136","lat":"31.232562","category":"47","category_name":"住宅区","address":"静安区凤阳路588弄"},{"poiid":"B2094757D16FAAFA429B","title":"长征医院住院部","lon":"121.466941738","lat":"31.2327763544","category":"162","category_name":"医院","address":"上海凤阳路415号"},{"poiid":"B2094654DA6CA1FF409D","title":"泰兴大楼","lon":"121.4651741425","lat":"31.236332098585","category":"46","category_name":"楼宇","address":"南京西路934号"},{"poiid":"B2094757D66CA0FF4199","title":"成都北路","lon":"121.465531738","lat":"31.2359084211","category":"500","category_name":"未知分类","address":"上海市黄浦区"},{"poiid":"B2094757D065A7F44593","title":"日月光中心 OLIVE DES OLIVE","lon":"121.46757623","lat":"31.232956358","category":"500","category_name":"未知分类","address":"上海打浦桥"},{"poiid":"B2094757DA68A1F84099","title":"Starbucks","lon":"121.4661986","lat":"31.2337571","category":"247","category_name":"餐饮美食","address":"People square"},{"poiid":"B2094752DA65A2FD439E","title":"上海明天广场JW万豪酒店","lon":"121.46729","lat":"31.233113","category":"500","category_name":"未知分类","address":"上海市 南京西路399号"},{"poiid":"B2094757D06FA4FC4298","title":"华盛大公馆","lon":"121.46709","lat":"31.234617","category":"47","category_name":"住宅区","address":"上海黄浦区北京西路355弄1-2号"},{"poiid":"B2094751D565A7F4479A","title":"佳家湯包","lon":"121.466453","lat":"31.234724","category":"247","category_name":"餐饮美食","address":"黄河路店"},{"poiid":"B2094753D765A7F44899","title":"木鸭梨露天餐厅","lon":"121.466018","lat":"31.234704","category":"500","category_name":"未知分类","address":"上海市 南京西路456号科勒设计中心4楼(近仙乐斯广场)"},{"poiid":"B2094757D068A0F4469E","title":"韩膳宫","lon":"121.4661986","lat":"31.2337571","category":"46","category_name":"楼宇","address":"上海静安区成都北路333号"},{"poiid":"B2094752D76FAAFE4192","title":"Lingo餐厅","lon":"121.466171","lat":"31.234406","category":"247","category_name":"餐饮美食","address":"南京西路仙乐斯"},{"poiid":"B209475CD469A1F4479C","title":"上海外滩","lon":"121.465995","lat":"31.236091","category":"500","category_name":"未知分类","address":"上海市 上海外滩"},{"poiid":"B2094752D06FA4FA499D","title":"MOCA ON THE PARK","lon":"121.465445","lat":"31.233023","category":"247","category_name":"餐饮美食","address":"南京西路231号人民公园内上海当代艺术馆3楼"},{"poiid":"B2094655D26CAAFC449A","title":"浦行别墅(西门)","lon":"121.46639","lat":"31.23531","category":"47","category_name":"住宅区","address":"成都北路696弄1-35号"},{"poiid":"B2094757D169A0F94499","title":"雅珠粥店","lon":"121.465196","lat":"31.234423","category":"68","category_name":"快餐厅","address":"静安区北京西路370号(成都路口)"},{"poiid":"B2094655D26CAAFC4393","title":"浦行别墅","lon":"121.46661","lat":"31.23531","category":"47","category_name":"住宅区","address":"成都北路696弄1-35号"},{"poiid":"B2094751DA6FAAFA4598","title":"第一笼（黄河路店）","lon":"121.4665328","lat":"31.2365944","category":"247","category_name":"餐饮美食","address":"黄河路86号"},{"poiid":"B2094654DA6CA1FB489F","title":"蕃祉里四街","lon":"121.465251","lat":"31.234841","category":"47","category_name":"住宅区","address":"茂名北路285弄4-8号"},{"poiid":"B2094655D36CA5F54198","title":"北京西路成都北路","lon":"121.4677","lat":"31.23521","category":"38","category_name":"公交车站","address":""},{"poiid":"B2094757D769A4F54993","title":"云曦小吃","lon":"121.463874054","lat":"31.236463793","category":"68","category_name":"快餐厅","address":"静安区山海关路296号(近成都北路)"},{"poiid":"B2094654DA6CA1FB489C","title":"蕃祉里五街","lon":"121.465","lat":"31.2351","category":"47","category_name":"住宅区","address":"茂名北路293弄4-8号"},{"poiid":"B2094757D06FABF5429D","title":"南泰大厦","lon":"121.466","lat":"31.2367","category":"252","category_name":"楼宇机构","address":"上海南京西路920号"},{"poiid":"B2094751D565A7F5479C","title":"中华艺术宫","lon":"121.465068","lat":"31.234241","category":"500","category_name":"未知分类","address":null},{"poiid":"B2094655D26AA4FB4593","title":"吉祥馄饨 北京西路店 Gll Wonton","lon":"121.46798","lat":"31.23527","category":"68","category_name":"快餐厅","address":"黄浦区南京西路302号(近西藏中路)"},{"poiid":"B2094752D169A6FF489D","title":"上海大光明影院","lon":"121.467849","lat":"31.234863","category":"248","category_name":"生活娱乐","address":"上海市南京西路216号"},{"poiid":"B2094655D26CAAFC4792","title":"三德小区","lon":"121.46624","lat":"31.236679","category":"47","category_name":"住宅区","address":"山海关路201弄"},{"poiid":"B2094757DB69A4FE489E","title":"苏浙汇","lon":"121.4655447326625","lat":"31.23379043700509","category":"500","category_name":"未知分类","address":null},{"poiid":"B2094655D264A1FB4498","title":"喜士多便利(华庭店)","lon":"121.46556","lat":"31.23412","category":"117","category_name":"便民商店/便利店","address":"北京西路483号"},{"poiid":"B2094654DA6CA2F8479C","title":"长春藤运通大厦","lon":"121.46723175256","lat":"31.237013536146","category":"46","category_name":"楼宇","address":"卢湾区复兴中路369号(马当路口)"},{"poiid":"B2094750D46BABF54492","title":"徳大西餐社","lon":"121.466133","lat":"31.233747","category":"247","category_name":"餐饮美食","address":"南京西路473号"},{"poiid":"B2094752DB6CA2F8469F","title":"大光明电影院","lon":"121.467461","lat":"31.234931","category":"178","category_name":"电影院","address":"上海市 南京西路"},{"poiid":"B2094654DA6CA1FB479F","title":"蕃祉里一街","lon":"121.466","lat":"31.2343","category":"47","category_name":"住宅区","address":"茂名北路257弄4-8号"},{"poiid":"B2094655D265A4FA4993","title":"喜士多华庭门市","lon":"121.46551","lat":"31.23409","category":"117","category_name":"便民商店/便利店","address":"北京西路485弄2"},{"poiid":"B2094655D26DA3FC469A","title":"承德坊","lon":"121.46709","lat":"31.23529","category":"47","category_name":"住宅区","address":"北京西路340弄1-5号"},{"poiid":"B2094757D065AAFE4593","title":"上海市电力公司500KV静安变电站","lon":"121.465061708","lat":"31.2354756051","category":"500","category_name":"未知分类","address":"上海市成都北路737号"},{"poiid":"B2094654DB6BABFE449C","title":"良友(成都北路)","lon":"121.46549","lat":"31.23658","category":"117","category_name":"便民商店/便利店","address":"成都北路794"},{"poiid":"B2094750D26FA6FC4192","title":"家","lon":"121.467308","lat":"31.234594","category":"500","category_name":"未知分类","address":null},{"poiid":"B2094753D46CA6FF409F","title":"Center TLScontact","lon":"121.465797","lat":"31.234468","category":"500","category_name":"未知分类","address":"上海市 恒丰路329号隆宇国际商务广场8楼"},{"poiid":"B2094655D26EA2FA479E","title":"承德坊(南门)","lon":"121.46729","lat":"31.23517","category":"47","category_name":"住宅区","address":"北京西路340弄1-5号"},{"poiid":"B2094757D66CA5FB479C","title":"莊氏隆興","lon":"121.466184938","lat":"31.2342647861","category":"500","category_name":"未知分类","address":"上海市黄浦区凤阳路409号(近成都北路)"},{"poiid":"B2094757D064A7FA499D","title":"上海电视台17楼东方卫视","lon":"121.46445823","lat":"31.232827705","category":"500","category_name":"未知分类","address":"上海威海路298号"},{"poiid":"B2094654DA68A3F94392","title":"中国工商银行北京西路支行","lon":"121.4668","lat":"31.23499","category":"150","category_name":"银行","address":"黄浦区北京西路380号近北京路(北京西路成都北路)"},{"poiid":"B2094655D26DA3FC4593","title":"道达里","lon":"121.46743","lat":"31.23547","category":"47","category_name":"住宅区","address":""},{"poiid":"B2094757D164A7FC429C","title":"杰米宠物俱乐部","lon":"121.46605","lat":"31.23387","category":"162","category_name":"医院","address":"上海静安区北京西路479号(近成都北路)  "},{"poiid":"B2094757D16AA6FD479C","title":"新昌路220号","lon":"121.46618493","lat":"31.234264786","category":"500","category_name":"未知分类","address":"上海新昌路220号"},{"poiid":"B2094750D164ABFC419E","title":"凯宾斯基御锦轩(The One Shanghai)","lon":"121.46516923247","lat":"31.232415869772","category":"215","category_name":"三星级宾馆","address":"上海市静安区凤阳路601号"},{"poiid":"B209475CD66AA3FD4599","title":"南京路步行街","lon":"121.465988","lat":"31.237194","category":"500","category_name":"未知分类","address":"上海市 南京东路"},{"poiid":"B2094655D26DA7FC419D","title":"珍兴里(北门)","lon":"121.46757","lat":"31.23501","category":"47","category_name":"住宅区","address":"北京西路335弄2-28号"},{"poiid":"B2094757D06AA2FD489D","title":"FINE Furniture Design","lon":"121.46585","lat":"31.234135","category":"500","category_name":"未知分类","address":"上海北京西路473号"},{"poiid":"B2094757D06BA6FC4193","title":"黄浦区新昌路石库门","lon":"121.46709442","lat":"31.236198425","category":"500","category_name":"未知分类","address":"上海新昌路345弄86号"},{"poiid":"B2094654DA6CA2F9429B","title":"静安华庭","lon":"121.46486","lat":"31.2334","category":"47","category_name":"住宅区","address":"大田路158"},{"poiid":"B2094654DA6CA1FB469F","title":"丰盛里二街","lon":"121.466","lat":"31.2338","category":"47","category_name":"住宅区","address":"茂名北路235弄1-18号"},{"poiid":"B2094757D168A6F94899","title":"兴业银行(市中支行)","lon":"121.466635738","lat":"31.2343163872","category":"150","category_name":"银行","address":"上海成都路 北京西路"},{"poiid":"B2094655D36CA5FF4193","title":"成都北路新闸路","lon":"121.46451","lat":"31.23745","category":"38","category_name":"公交车站","address":""},{"poiid":"B2094655D26EA2F9489D","title":"一街坊口腔门诊部","lon":"121.46475","lat":"31.23389","category":"162","category_name":"医院","address":"静安区北京西路503号(近大田路)"},{"poiid":"B2094654DA6FAAF5499D","title":"珍兴里","lon":"121.46765","lat":"31.23481","category":"47","category_name":"住宅区","address":"北京西路335弄2-28号"},{"poiid":"B2094757DB68A3FA479F","title":"芭芭露沙","lon":"121.467488","lat":"31.234191","category":"500","category_name":"未知分类","address":"人民公园"},{"poiid":"B2094757D168AAFC4199","title":"大姨妈家","lon":"121.46657435","lat":"31.2334957402","category":"247","category_name":"餐饮美食","address":"上海长寿路"},{"poiid":"B2094753D768ABF4429E","title":"嘉善西塘","lon":"121.467002","lat":"31.234098","category":"500","category_name":"未知分类","address":"上海市 嘉善西塘"},{"poiid":"B2094757D465A4F4479E","title":"上岛咖啡 成都北路店 UBC Coffee","lon":"121.466784","lat":"31.234384","category":"260","category_name":"其他","address":"静安区成都北路656号(成都北路凤阳路)"},{"poiid":"B2094654DA68A3F9439D","title":"中国工商银行北京西路支行ATM取款机","lon":"121.46672","lat":"31.23495","category":"152","category_name":"ATM","address":"北京西路380"},{"poiid":"B2094757D16CA2FE4598","title":"静安四季苑","lon":"121.468","lat":"31.2357","category":"252","category_name":"楼宇机构","address":"上海市静安区石门一路333弄"},{"poiid":"B2094757D66DA5FB429B","title":"八七七双皮汤包","lon":"121.467168","lat":"31.233185","category":"68","category_name":"快餐厅","address":"黄浦区凤阳路470号(近成都北路)"},{"poiid":"B2094757D16EA5F5459B","title":"喜士多便利(壹街区店)","lon":"121.46541565","lat":"31.23420584","category":"249","category_name":"购物服务","address":"上海市静安区北京西路485弄2号"},{"poiid":"B2094757D169A1F4419A","title":"修身养性","lon":"121.46525473","lat":"31.236419432","category":"500","category_name":"未知分类","address":"上海"},{"poiid":"B2094753D165A4F8469A","title":"田子坊","lon":"121.465468","lat":"31.233832","category":"500","category_name":"未知分类","address":"上海市 卢湾区"},{"poiid":"B2094655D26CABF84298","title":"嘉发大厦A栋","lon":"121.46391","lat":"31.23291","category":"46","category_name":"楼宇","address":"大田路129弄1号"},{"poiid":"B2094753D164A6F8449D","title":"7号线昌平路站","lon":"121.467346","lat":"31.234501","category":"500","category_name":"未知分类","address":"上海市 常德路800号"},{"poiid":"B2094654DA6CA2F9499D","title":"芬芳上瑞","lon":"121.46459","lat":"31.23383","category":"162","category_name":"医院","address":"北京西路509-511"},{"poiid":"B2094757D66CA0FC4699","title":"D318次","lon":"121.466134","lat":"31.233413","category":"22","category_name":"火车站","address":"成都-北京西"},{"poiid":"B2094654DA68A3FA479C","title":"兴业银行上海市中支行","lon":"121.46679","lat":"31.23425","category":"150","category_name":"银行","address":"成都北路600"},{"poiid":"B2094753D26EA3FE499A","title":"The Cookery酷瑞西餐馆","lon":"121.464401","lat":"31.233083","category":"247","category_name":"餐饮美食","address":"上海市 南京西路388号仙乐斯广场108单元(近黄陂北路)"},{"poiid":"B2094752DA6CAAFC499F","title":"上海杨浦区平凉路","lon":"121.464459","lat":"31.23643","category":"500","category_name":"未知分类","address":null},{"poiid":"B2094750DA6EA6F94599","title":"博燚玉石会所","lon":"121.465744","lat":"31.233383","category":"263","category_name":"公司","address":"南京西路612弄3号"},{"poiid":"B2094655D26BA6FF4292","title":"厚德里","lon":"121.46715","lat":"31.2368","category":"47","category_name":"住宅区","address":"新昌路375弄2-9号"},{"poiid":"B2094757D164A0FE4698","title":"HongKong567 慕斯奶茶","lon":"121.468150938","lat":"31.2344654904","category":"247","category_name":"餐饮美食","address":"上海虹口区四川北路2288号(鲁迅公园正门)"},{"poiid":"B2094753D66CA0FC489E","title":"静安雕塑公园","lon":"121.46373","lat":"31.236572","category":"500","category_name":"未知分类","address":"上海市 成都北路"},{"poiid":"B2094655D26DA3FD4592","title":"乐生茶苑","lon":"121.46846","lat":"31.23487","category":"66","category_name":"茶艺馆","address":""},{"poiid":"B2094655D26CABFB4399","title":"良友新昌店","lon":"121.46769","lat":"31.23683","category":"117","category_name":"便民商店/便利店","address":"新昌路364"},{"poiid":"B2094757D56CA1F9469C","title":"福建千里香馄饨 新昌路","lon":"121.46381091419","lat":"31.23681111971","category":"247","category_name":"餐饮美食","address":"黄浦区新昌路285号(近北京西路)"},{"poiid":"B2094655D26DA4FC4898","title":"懋益里","lon":"121.46711","lat":"31.237072","category":"47","category_name":"住宅区","address":"新昌路389弄3-62号"},{"poiid":"B2094654DA6FAAF54792","title":"雷允上凤阳药房","lon":"121.46691","lat":"31.23337","category":"162","category_name":"医院","address":"静安区成都北路568号(北京西路成都北路)"},{"poiid":"B2094757D66EA2FD409E","title":"山海关路菜场","lon":"121.46550273","lat":"31.236939443","category":"249","category_name":"购物服务","address":"上海山海关路"},{"poiid":"B2094655D26CAAFD4193","title":"松柏里(西门)","lon":"121.46794","lat":"31.23634","category":"47","category_name":"住宅区","address":"新昌路328弄3-11号"},{"poiid":"B2094655D264A1FF449F","title":"厚德里(东门)","lon":"121.4674","lat":"31.23698","category":"47","category_name":"住宅区","address":"新昌路375弄2-9号"},{"poiid":"B2094757D165A3F5439E","title":"中国劳动组合书记部旧址陈列馆","lon":"121.4645","lat":"31.23753","category":"182","category_name":"博物馆","address":"静安区成都北路893弄3-7号(成都北路新闸路)"},{"poiid":"B2094654DA6CA1FE459D","title":"长征医院整形美容科","lon":"121.46598","lat":"31.23293","category":"162","category_name":"医院","address":"凤阳路558"},{"poiid":"B2094655D26CAAFD419F","title":"三成坊(西门)","lon":"121.46815","lat":"31.23607","category":"47","category_name":"住宅区","address":"新昌路300弄3-9号"},{"poiid":"B2094654DA68A3F94192","title":"松青理发店","lon":"121.46758","lat":"31.23676","category":"148","category_name":"美容美发店","address":"黄浦区新昌路(近青岛路)"},{"poiid":"B2094654DA6CA1FB4599","title":"丰盛里一街","lon":"121.466","lat":"31.2332","category":"47","category_name":"住宅区","address":"茂名北路199弄3-14号"},{"poiid":"B2094757D069A0FD419A","title":"南北高架（北京西路下匝口）","lon":"121.46838378","lat":"31.23653984","category":"260","category_name":"其他","address":"上海南北高架"},{"poiid":"B2094655D265A0F54799","title":"剑锋击剑俱乐部","lon":"121.46461","lat":"31.23384","category":"220","category_name":"运动场所","address":"北京西路511"},{"poiid":"B2094655D26CAAFD4192","title":"松柏里","lon":"121.4681","lat":"31.23642","category":"47","category_name":"住宅区","address":"新昌路328弄3-11号"},{"poiid":"B2094654DA6CA1FE4499","title":"淘宝城凤翔服饰礼品广场","lon":"121.46557","lat":"31.23241","category":"120","category_name":"小商品市场","address":"南京西路580"},{"poiid":"B2094753D068A4FE459E","title":"第二军医大学附属长征医院(凤阳路院)","lon":"121.46721","lat":"31.23279","category":"162","category_name":"医院","address":"黄浦区凤阳路415号(近成都北路)"},{"poiid":"B2094757D06AA5FD479F","title":"张宇涵造型艺术设计","lon":"121.467526","lat":"31.237243","category":"500","category_name":"未知分类","address":"上海西藏北路605号C座2楼"},{"poiid":"B2094655D26CAAF9449F","title":"懋益里(东门)","lon":"121.46741","lat":"31.23715","category":"47","category_name":"住宅区","address":"新昌路389弄3-62号"},{"poiid":"B2094757D66EA3F4479E","title":"青岛路排档","lon":"121.46832073","lat":"31.236526434","category":"247","category_name":"餐饮美食","address":"上海青岛路71号"},{"poiid":"B2094753D265A3FB439B","title":"上海JW万豪酒店","lon":"121.463323","lat":"31.23481","category":"500","category_name":"未知分类","address":"上海市 上海黄浦区南京西路399号"},{"poiid":"B2094654DA6FAAF5489F","title":"中华联合财产保险股份有限公司上海分公司","lon":"121.46685","lat":"31.23414","category":"219","category_name":"其他","address":"成都北路600号中华保险华盛大厦"},{"poiid":"B2094655D26DAAFF4998","title":"三成坊","lon":"121.46842","lat":"31.23611","category":"47","category_name":"住宅区","address":"新昌路300弄3-9号"},{"poiid":"B2094654DA68A3FF499C","title":"上海新世界粮油食品分公司","lon":"121.46765","lat":"31.23697","category":"117","category_name":"便民商店/便利店","address":"新昌路366"},{"poiid":"B2094655D26AA0FD449A","title":"Neverland桌面游戏南京西路店","lon":"121.46413","lat":"31.23307","category":"247","category_name":"餐饮美食","address":"静安区大田路129弄嘉发大厦B幢8A室(近凤阳路)"},{"poiid":"B2094757D66DA7FE499F","title":"重庆鸡公堡","lon":"121.46678973","lat":"31.237638458","category":"247","category_name":"餐饮美食","address":"上海市黄浦区新昌路399号"},{"poiid":"B2094757DA6EAAFA439A","title":"佰褔卡营运中心","lon":"121.464692999999","lat":"31.2338739999999","category":"263","category_name":"公司","address":"静安区北京西路505号"},{"poiid":"B2094655D26CABF84398","title":"好德No.3010","lon":"121.46623","lat":"31.2327","category":"117","category_name":"便民商店/便利店","address":"凤阳路525"},{"poiid":"B2094757D16FA4FA449C","title":"泰兴路624弄","lon":"121.463604744","lat":"31.2356849159","category":"500","category_name":"未知分类","address":"上海泰兴路624弄"},{"poiid":"B2094757D16CA3FF489D","title":"浦发银行","lon":"121.46658447","lat":"31.232914757","category":"500","category_name":"未知分类","address":"上海石门二路88号"},{"poiid":"B2094757D16CA2F8419C","title":"永琪美容美发(新昌路店)","lon":"121.46824","lat":"31.2358","category":"148","category_name":"美容美发店","address":"黄浦区新昌路495-499号(北京西路新昌路)"},{"poiid":"B2094753DB69A0FD409E","title":"DAZZLING玳思琳","lon":"121.466598","lat":"31.237529","category":"500","category_name":"未知分类","address":"上海市 静安区"},{"poiid":"B2094655D26CABF8439A","title":"静安华庭(北门)","lon":"121.46538","lat":"31.23408","category":"656","category_name":"大门","address":"北京西路485弄2"},{"poiid":"B2094654DA6CA2F94992","title":"舞风休闲会所","lon":"121.46459","lat":"31.23383","category":"208","category_name":"休闲场所","address":"静安区北京西路509-511"},{"poiid":"B209475CD26EA7FA459D","title":"大光明电影院","lon":"121.467018","lat":"31.232618","category":"178","category_name":"电影院","address":"上海市 南京西路"},{"poiid":"B2094654DA6CA5F44292","title":"康乐大楼","lon":"121.464","lat":"31.2378","category":"47","category_name":"住宅区","address":"北京西路940号"},{"poiid":"B2094757D16FA6F54099","title":"黄河大楼","lon":"121.468215738","lat":"31.2346903951","category":"500","category_name":"未知分类","address":"上海北京西路199号"},{"poiid":"B2094654DA6CA2F9419F","title":"华联投资商务楼","lon":"121.46437","lat":"31.23258","category":"46","category_name":"楼宇","address":"大田路105"},{"poiid":"B2094757D16BA2FC4198","title":"大田路","lon":"121.464386","lat":"31.232592","category":"500","category_name":"未知分类","address":"上海市静安区,大田路山海关路"},{"poiid":"B2094757D16FA2F44299","title":"grace格瑞丝形象工作室","lon":"121.468762218","lat":"31.2354996524","category":"148","category_name":"美容美发店","address":"黄浦区北京西路274号(近新昌路)"},{"poiid":"B2094655D26DABF54099","title":"上海147桌球俱乐部","lon":"121.46455","lat":"31.23286","category":"171","category_name":"台球厅","address":"静安区大田路128号B1楼(近北京西路)"},{"poiid":"B2094757D16BA5FB4292","title":"马克西姆面包房(周家嘴路店)","lon":"121.46812673","lat":"31.234188384","category":"500","category_name":"未知分类","address":"上海杨浦区周家嘴路2190号(近许昌路)"},{"poiid":"B2094757D164A2F8499C","title":"上外静安外国语小学","lon":"121.463903738","lat":"31.2331573625","category":"253","category_name":"校园生活","address":"静安区北京西路605弄47号(近大田路)"},{"poiid":"B2094654DA6CA2FB499B","title":"柏德里","lon":"121.46876252156","lat":"31.23616229381","category":"47","category_name":"住宅区","address":"石门一路348号"},{"poiid":"B2094757D568A5FE419C","title":"平德里(东二门)","lon":"121.46423557","lat":"31.23761637","category":"47","category_name":"住宅区","address":"中国上海市静安区成都北路881"},{"poiid":"B2094654DA68A3FC429F","title":"长征医院医疗纠纷处理办公室","lon":"121.46804","lat":"31.23323","category":"162","category_name":"医院","address":"凤阳路428"},{"poiid":"B2094757D164A2FC4199","title":"仙乐斯汇丰银行","lon":"121.467447738","lat":"31.232664352","category":"500","category_name":"未知分类","address":"上海南京西路388号19楼"},{"poiid":"B2094757D66EA3F54099","title":"黄浦区新昌路245弄","lon":"121.468363","lat":"31.234597","category":"500","category_name":"未知分类","address":"上海新昌路245弄"},{"poiid":"B2094655D268A5FF4498","title":"中国邮政储蓄银行凤阳路支行","lon":"121.46545","lat":"31.23284","category":"150","category_name":"银行","address":"凤阳路572"},{"poiid":"B2094655D26DA6FB499F","title":"道达里(南门)","lon":"121.46755","lat":"31.23527","category":"656","category_name":"大门","address":""},{"poiid":"B2094757D164A0F9439D","title":"俊杰美容美发","lon":"121.46437473","lat":"31.237253449","category":"148","category_name":"美容美发店","address":"上海市闸北区宝山路460-462号"},{"poiid":"B2094757D064A2FE4898","title":"上海现代交通建设发展有限公司","lon":"121.468695","lat":"31.234562","category":"263","category_name":"公司","address":"上海新昌路220号"},{"poiid":"B2094751D565A2F9469F","title":"基督教教堂","lon":"121.463436","lat":"31.236814","category":"252","category_name":"楼宇机构","address":"黄浦区"},{"poiid":"B2094757D66EA1FE459C","title":"麓庭","lon":"121.465485738","lat":"31.2328833566","category":"260","category_name":"其他","address":"静安区北京西路500号(近静安雕塑公园)"},{"poiid":"B2094752D06BA5FD439E","title":"南京路步行街","lon":"121.468461","lat":"31.236228","category":"500","category_name":"未知分类","address":null},{"poiid":"B2094655D26DAAFF489C","title":"三德小区(北二门)","lon":"121.46562","lat":"31.23686","category":"656","category_name":"大门","address":"山海关路201弄3-25号"},{"poiid":"B2094757D16EAAFF4693","title":"老北京绿豆饼","lon":"121.467429","lat":"31.237335","category":"500","category_name":"未知分类","address":"上海北海宁路2号(原好好栗子)"},{"poiid":"B2094757D16AA7F4439D","title":"国际贸易促进委员会","lon":"121.464686738","lat":"31.2376684586","category":"500","category_name":"未知分类","address":"上海市金陵西路28号"},{"poiid":"B2094654DA6FAAF5489E","title":"华盛大公馆(西门)","lon":"121.4668","lat":"31.23381","category":"656","category_name":"大门","address":""},{"poiid":"B209475CD664ABF5419B","title":"上海虹桥机场","lon":"121.464492","lat":"31.232608","category":"500","category_name":"未知分类","address":"上海市 上海虹桥机场"},{"poiid":"B2094757D168A7FE409F","title":"凡尘冰镇桌游吧","lon":"121.46447","lat":"31.23297","category":"175","category_name":"棋牌室","address":"上海静安区大田路129弄1号嘉发大厦A幢10楼E室(近北京西路)  "},{"poiid":"B2094757D568A5FA499C","title":"京都日式大浴场","lon":"121.4641325","lat":"31.23307194","category":"149","category_name":"洗浴推拿场所","address":"大田路129号"},{"poiid":"B2094757D169A0FB489E","title":"申银万国证券新昌路营业部","lon":"121.468802","lat":"31.234349","category":"500","category_name":"未知分类","address":"上海新昌路180号"},{"poiid":"B2094654DA68A3FA479E","title":"交通银行上海新昌路支行","lon":"121.46677","lat":"31.23806","category":"150","category_name":"银行","address":"新昌路467-469"},{"poiid":"B2094757D069A6F9409F","title":"威海大楼","lon":"121.46663890759","lat":"31.232656335846","category":"500","category_name":"未知分类","address":"上海威海路163号&amp;167号"},{"poiid":"B2094654DA6CA2F9429F","title":"香港修身堂","lon":"121.4639","lat":"31.23291","category":"263","category_name":"公司","address":"普陀区长寿路圣天地大厦302室"},{"poiid":"B2094655D26DA5F94899","title":"三德小区(北一门)","lon":"121.46639","lat":"31.2372","category":"656","category_name":"大门","address":""},{"poiid":"B2094752D16DA7FB4493","title":"浦东机场","lon":"121.468906","lat":"31.235391","category":"500","category_name":"未知分类","address":null},{"poiid":"B2094757D568ABFC419F","title":"GAME MAX桌面游戏","lon":"121.4641325","lat":"31.23307194","category":"248","category_name":"生活娱乐","address":"大田路129号嘉发大厦B幢15D"},{"poiid":"B2094655D26DA7FC4499","title":"上海滩·新昌城(北门)","lon":"121.46551","lat":"31.23837","category":"656","category_name":"大门","address":""},{"poiid":"B2094655D265AAF8469E","title":"道达里(西门)","lon":"121.46837","lat":"31.23569","category":"656","category_name":"大门","address":"新昌路280弄1-5号"},{"poiid":"B2094654DA6CA2F9449E","title":"心歌单身交友会所","lon":"121.46391","lat":"31.2329","category":"248","category_name":"生活娱乐","address":"大田路129弄1号嘉发大厦A栋17层17D"},{"poiid":"B2094655D26DA7FC439E","title":"新中邨(东一门)","lon":"121.46836","lat":"31.2346","category":"656","category_name":"大门","address":"新昌路245弄4-10号"},{"poiid":"B2094654DA6CA2F94299","title":"秦鹏口腔诊所","lon":"121.46391","lat":"31.23291","category":"668","category_name":"诊所","address":"大田路129弄1号嘉发大厦A栋1层1E"},{"poiid":"B2094654DB6BA6F4499E","title":"静安华庭(西门)","lon":"121.46443","lat":"31.23304","category":"656","category_name":"大门","address":"大田路158"},{"poiid":"B2094655D268A4FE4499","title":"静安华庭(南门)","lon":"121.46508","lat":"31.23274","category":"656","category_name":"大门","address":"凤阳路588弄1-27"},{"poiid":"B2094655D26CAAFC499E","title":"上海滩·新昌城(东门)","lon":"121.46655","lat":"31.23822","category":"656","category_name":"大门","address":"新昌路477弄1-18号"},{"poiid":"B2094655D26CABFE4699","title":"金瓯万国(西门)","lon":"121.46871","lat":"31.23443","category":"656","category_name":"大门","address":"新昌路182"},{"poiid":"B2094655D26CAAF9449C","title":"新中邨(东二门)","lon":"121.46858","lat":"31.23427","category":"656","category_name":"大门","address":""},{"poiid":"B2094655D26DA2FA479E","title":"南证大厦(北门)","lon":"121.4654","lat":"31.23245","category":"656","category_name":"大门","address":""}]