[{"poiid":"B2094654DA6EA2F4499A","title":"上海中医药大学附属龙华医院","lon":"121.45011","lat":"31.18796","category":"162","category_name":"医院","address":"徐汇区零陵路532号"},{"poiid":"B2094750DA6BA4FA429E","title":"西岸音乐节","lon":"121.456642","lat":"31.185581","category":"248","category_name":"生活娱乐","address":"徐汇滨江龙腾大道"},{"poiid":"B2094655D26FA7FA469E","title":"复旦大学附属肿瘤医院","lon":"121.45315","lat":"31.19065","category":"162","category_name":"医院","address":"徐汇区东安路270号(近零陵路)"},{"poiid":"B2094752D06CA0F44198","title":"上海华士达东方影城","lon":"121.4572","lat":"31.18539","category":"178","category_name":"电影院","address":"上海市徐汇区东安路599号绿地中心正大乐城1号楼301"},{"poiid":"B2094757D06AA5FC4199","title":"上海田子坊","lon":"121.45459158","lat":"31.189467634","category":"500","category_name":"未知分类","address":"上海市徐汇区斜土路"},{"poiid":"B2094757D06FA5F8469C","title":"南洋模范中学(本部)","lon":"121.45216","lat":"31.18938","category":"55","category_name":"中学","address":"徐汇区零陵路453号(近东安路)"},{"poiid":"B2094753D164A5FC439D","title":"费尼汉堡","lon":"121.457205","lat":"31.186739","category":"247","category_name":"餐饮美食","address":"上海市 中山南二路699号正大乐城2-104室"},{"poiid":"B2094757D069A5FD489C","title":"光头烧烤","lon":"121.45085","lat":"31.18479","category":"68","category_name":"快餐厅","address":"徐汇区宛平南路808号(近中山南二路)"},{"poiid":"B2094757D068A5FF4599","title":"东安公园","lon":"121.454267372","lat":"31.1850510404","category":"196","category_name":"公园","address":"徐汇区中山南二路811号(龙华西路)"},{"poiid":"B2094752D06EAAF94293","title":"正大乐城","lon":"121.456084","lat":"31.185717","category":"170","category_name":"KTV","address":"东安路500号"},{"poiid":"B2094757D064A0FC4798","title":"徐汇区教育学院","lon":"121.45531","lat":"31.1868","category":"52","category_name":"高等院校","address":"徐汇区中山南二路800号(近东安路)"},{"poiid":"B2094757D568A6F5479B","title":"上海市宛平艺苑","lon":"121.451514","lat":"31.185034","category":"178","category_name":"电影院","address":"中山南二路859号"},{"poiid":"B2094757D068A2FE499A","title":"东安二村","lon":"121.45557","lat":"31.187586","category":"252","category_name":"楼宇机构","address":"上海中山南二路东安路"},{"poiid":"B209475CD16DAAFC449D","title":"小辉哥火锅 正大乐城店","lon":"121.4529021","lat":"31.1861009","category":"86","category_name":"火锅店","address":"中山南二路669号2栋304-305正大乐城"},{"poiid":"B2094757D069A6FF489A","title":"零陵中学","lon":"121.45628","lat":"31.1884","category":"55","category_name":"中学","address":"徐汇区东安路451号(近零陵路)"},{"poiid":"B2094655D268A5F5499C","title":"东安新村","lon":"121.45395","lat":"31.18977","category":"47","category_name":"住宅区","address":""},{"poiid":"B209475CD364A0FE4199","title":"Fani Burger","lon":"121.4574","lat":"31.1862","category":"94","category_name":"西餐厅","address":"东安路500号正大乐城(近中山南二路)"},{"poiid":"B2094654DA6EA2F44993","title":"上海中医药大学继续教育学院","lon":"121.45199","lat":"31.18902","category":"53","category_name":"成人教育","address":"零陵路530号15幢6-8层"},{"poiid":"B2094654DB64A5F54198","title":"苏州福东鑫","lon":"121.450175054","lat":"31.186587793","category":"68","category_name":"快餐厅","address":"徐汇区宛平南路735号(近中山南二路)"},{"poiid":"B2094654DA6DA7FF429E","title":"中煌大厦","lon":"121.452345","lat":"31.187456","category":"46","category_name":"楼宇","address":"沈河北站路与北京街的交汇处"},{"poiid":"B2094757D064A7F54293","title":"夏朵精品烘培","lon":"121.45131266","lat":"31.186186702","category":"67","category_name":"甜品店","address":"上海徐汇区天钥桥路214号哈尼美食广场3楼夏朵内(近南丹东路)"},{"poiid":"B2094655D268A1F4419F","title":"上海中医药大学学生公寓","lon":"121.44953","lat":"31.18661","category":"47","category_name":"住宅区","address":""},{"poiid":"B2094655D36DA7F9449D","title":"肿瘤医院","lon":"121.45531","lat":"31.18997","category":"162","category_name":"医院","address":"徐汇区东安路270号"},{"poiid":"B2094752DA68A7F5479F","title":"华士达东方影城","lon":"121.453438","lat":"31.189429","category":"500","category_name":"未知分类","address":"上海市 东安路599号正大乐城3楼"},{"poiid":"B2094655D36DA7F8469C","title":"中山南二路东安路","lon":"121.45702","lat":"31.18704","category":"38","category_name":"公交车站","address":""},{"poiid":"B2094654DA6EA2F5409F","title":"半岛鱼翅海鲜酒楼","lon":"121.45085614548","lat":"31.18890740879","category":"88","category_name":"海鲜酒楼","address":"徐汇区零陵路518号长航宾馆1-2楼(近东安路)"},{"poiid":"B2094753D165A3F8449F","title":"正大乐城-大众书局","lon":"121.453336","lat":"31.188074","category":"500","category_name":"未知分类","address":"上海市 徐汇区龙华中路"},{"poiid":"B2094753D165A3FF4492","title":"Fani Burger","lon":"121.453227","lat":"31.188324","category":"500","category_name":"未知分类","address":"上海市 徐汇区中山南二路699号2-104室"},{"poiid":"B2094757DA6BA6FE449C","title":"上海绿地中心一期","lon":"121.456362","lat":"31.187987","category":"252","category_name":"楼宇机构","address":"徐汇钦州北路188号"},{"poiid":"B2094757D065A2F9449E","title":"徐汇游泳馆 室内羽毛球馆","lon":"121.45356927","lat":"31.190225298","category":"500","category_name":"未知分类","address":"上海市徐汇区枫林路329号 四楼"},{"poiid":"B2094753DB64A0F94598","title":"一麻一辣","lon":"121.457527","lat":"31.187007","category":"500","category_name":"未知分类","address":"上海市 上海市中山南二路699号2楼"},{"poiid":"B2094757D069A1F9479B","title":"苏州羊肉馆(东安路店)","lon":"121.45517","lat":"31.18966","category":"68","category_name":"快餐厅","address":"徐汇区东安路352号邮局旁(近零陵路)"},{"poiid":"B2094654DB64A6FB449D","title":"长航宾馆","lon":"121.45213","lat":"31.18946","category":"250","category_name":"公园户外","address":"徐汇区零陵路518号"},{"poiid":"B2094753D66BA0F44993","title":"正大乐城","lon":"121.455238","lat":"31.187892","category":"170","category_name":"KTV","address":"上海市 徐汇区中山南二路东安路"},{"poiid":"B2094655D26FA6FF409A","title":"东安四村","lon":"121.45087","lat":"31.186504","category":"47","category_name":"住宅区","address":"宛平南路727号"},{"poiid":"B2094654DA6DA5FA409D","title":"奥灶菜馆","lon":"121.456076054","lat":"31.187141793","category":"68","category_name":"快餐厅","address":"徐汇区东安路501号(近中山南二路)"},{"poiid":"B2094750DA6BA2FC489F","title":"上海市精神病总医院","lon":"121.454185","lat":"31.186395","category":"162","category_name":"医院","address":null},{"poiid":"B2094757D069A0FD499A","title":"宛平南路零陵路","lon":"121.452774996","lat":"31.1865334967","category":"500","category_name":"未知分类","address":"上海宛平南路零陵路"},{"poiid":"B2094757D568AAFD4193","title":"汉庭快捷酒店(徐家汇东安路店)","lon":"121.45510715","lat":"31.19020562","category":"216","category_name":"经济型连锁酒店","address":"徐汇区东安路360号(近零陵路)"},{"poiid":"B2094655D36CA1F94692","title":"零陵路东安路","lon":"121.45443","lat":"31.19064","category":"38","category_name":"公交车站","address":""},{"poiid":"B2094757D06FAAF54499","title":"JEANS日韩店(京世龙华店)","lon":"121.452429","lat":"31.183131","category":"148","category_name":"美容美发店","address":"上海徐汇区宛平南路941号(近龙华西路)"},{"poiid":"B2094757D16FA0FB409E","title":"湖滨人家","lon":"121.45091","lat":"31.18471","category":"257","category_name":"中餐厅","address":"徐汇区宛平南路810号(近中山南二路)"},{"poiid":"B2094757D06BABFF479B","title":"小阁楼酒家","lon":"121.4504","lat":"31.18523","category":"76","category_name":"上海菜","address":"徐汇区宛平南路750号(近中山南二路)"},{"poiid":"B2094757D569A2FC4799","title":"东安商务楼","lon":"121.4542006","lat":"31.186665","category":"46","category_name":"楼宇","address":"北一环与亳州路交叉口(庐阳区政府对面)"},{"poiid":"B2094454D36DAAF44293","title":"啡你啡思","lon":"121.457443","lat":"31.186225","category":"247","category_name":"餐饮美食","address":"上海市 东安路599号1-105室"},{"poiid":"B2094753D664A2FA4692","title":"天家（正大乐城店）","lon":"121.456863","lat":"31.189044","category":"247","category_name":"餐饮美食","address":"上海市 龙华中路"},{"poiid":"B2094655D265A2F94792","title":"速8酒店徐家汇店","lon":"121.45145","lat":"31.18918","category":"216","category_name":"经济型连锁酒店","address":"徐汇区零陵路520号"},{"poiid":"B2094750D56EABF9419A","title":"上海师范大学西校区","lon":"121.451927","lat":"31.187669","category":"253","category_name":"校园生活","address":null},{"poiid":"B2094654DA6DA1FC449D","title":"上海市针灸经络研究所门诊部","lon":"121.44977","lat":"31.1865","category":"162","category_name":"医院","address":"徐汇区宛平南路650号"},{"poiid":"B2094757D065A4FB499B","title":"吴越人家","lon":"121.45047","lat":"31.18522","category":"76","category_name":"上海菜","address":"徐汇区宛平南路740号(近中山南二路)"},{"poiid":"B2094654DA6EA2F4499A","title":"上海中医药大学附属龙华医院","lon":"121.45011","lat":"31.18796","category":"162","category_name":"医院","address":"徐汇区零陵路532号"},{"poiid":"B2094750DA6BA4FA429E","title":"西岸音乐节","lon":"121.456642","lat":"31.185581","category":"248","category_name":"生活娱乐","address":"徐汇滨江龙腾大道"},{"poiid":"B2094655D26FA7FA469E","title":"复旦大学附属肿瘤医院","lon":"121.45315","lat":"31.19065","category":"162","category_name":"医院","address":"徐汇区东安路270号(近零陵路)"},{"poiid":"B2094752D06CA0F44198","title":"上海华士达东方影城","lon":"121.4572","lat":"31.18539","category":"178","category_name":"电影院","address":"上海市徐汇区东安路599号绿地中心正大乐城1号楼301"},{"poiid":"B2094757D06AA5FC4199","title":"上海田子坊","lon":"121.45459158","lat":"31.189467634","category":"500","category_name":"未知分类","address":"上海市徐汇区斜土路"},{"poiid":"B2094757D06FA5F8469C","title":"南洋模范中学(本部)","lon":"121.45216","lat":"31.18938","category":"55","category_name":"中学","address":"徐汇区零陵路453号(近东安路)"},{"poiid":"B2094753D164A5FC439D","title":"费尼汉堡","lon":"121.457205","lat":"31.186739","category":"247","category_name":"餐饮美食","address":"上海市 中山南二路699号正大乐城2-104室"},{"poiid":"B2094757D069A5FD489C","title":"光头烧烤","lon":"121.45085","lat":"31.18479","category":"68","category_name":"快餐厅","address":"徐汇区宛平南路808号(近中山南二路)"},{"poiid":"B2094757D068A5FF4599","title":"东安公园","lon":"121.454267372","lat":"31.1850510404","category":"196","category_name":"公园","address":"徐汇区中山南二路811号(龙华西路)"},{"poiid":"B2094752D06EAAF94293","title":"正大乐城","lon":"121.456084","lat":"31.185717","category":"170","category_name":"KTV","address":"东安路500号"},{"poiid":"B2094757D064A0FC4798","title":"徐汇区教育学院","lon":"121.45531","lat":"31.1868","category":"52","category_name":"高等院校","address":"徐汇区中山南二路800号(近东安路)"},{"poiid":"B2094757D568A6F5479B","title":"上海市宛平艺苑","lon":"121.451514","lat":"31.185034","category":"178","category_name":"电影院","address":"中山南二路859号"},{"poiid":"B2094757D068A2FE499A","title":"东安二村","lon":"121.45557","lat":"31.187586","category":"252","category_name":"楼宇机构","address":"上海中山南二路东安路"},{"poiid":"B209475CD16DAAFC449D","title":"小辉哥火锅 正大乐城店","lon":"121.4529021","lat":"31.1861009","category":"86","category_name":"火锅店","address":"中山南二路669号2栋304-305正大乐城"},{"poiid":"B2094757D069A6FF489A","title":"零陵中学","lon":"121.45628","lat":"31.1884","category":"55","category_name":"中学","address":"徐汇区东安路451号(近零陵路)"},{"poiid":"B2094655D268A5F5499C","title":"东安新村","lon":"121.45395","lat":"31.18977","category":"47","category_name":"住宅区","address":""},{"poiid":"B209475CD364A0FE4199","title":"Fani Burger","lon":"121.4574","lat":"31.1862","category":"94","category_name":"西餐厅","address":"东安路500号正大乐城(近中山南二路)"},{"poiid":"B2094654DA6EA2F44993","title":"上海中医药大学继续教育学院","lon":"121.45199","lat":"31.18902","category":"53","category_name":"成人教育","address":"零陵路530号15幢6-8层"},{"poiid":"B2094654DB64A5F54198","title":"苏州福东鑫","lon":"121.450175054","lat":"31.186587793","category":"68","category_name":"快餐厅","address":"徐汇区宛平南路735号(近中山南二路)"},{"poiid":"B2094654DA6DA7FF429E","title":"中煌大厦","lon":"121.452345","lat":"31.187456","category":"46","category_name":"楼宇","address":"沈河北站路与北京街的交汇处"},{"poiid":"B2094757D064A7F54293","title":"夏朵精品烘培","lon":"121.45131266","lat":"31.186186702","category":"67","category_name":"甜品店","address":"上海徐汇区天钥桥路214号哈尼美食广场3楼夏朵内(近南丹东路)"},{"poiid":"B2094655D268A1F4419F","title":"上海中医药大学学生公寓","lon":"121.44953","lat":"31.18661","category":"47","category_name":"住宅区","address":""},{"poiid":"B2094655D36DA7F9449D","title":"肿瘤医院","lon":"121.45531","lat":"31.18997","category":"162","category_name":"医院","address":"徐汇区东安路270号"},{"poiid":"B2094752DA68A7F5479F","title":"华士达东方影城","lon":"121.453438","lat":"31.189429","category":"500","category_name":"未知分类","address":"上海市 东安路599号正大乐城3楼"},{"poiid":"B2094655D36DA7F8469C","title":"中山南二路东安路","lon":"121.45702","lat":"31.18704","category":"38","category_name":"公交车站","address":""},{"poiid":"B2094654DA6EA2F5409F","title":"半岛鱼翅海鲜酒楼","lon":"121.45085614548","lat":"31.18890740879","category":"88","category_name":"海鲜酒楼","address":"徐汇区零陵路518号长航宾馆1-2楼(近东安路)"},{"poiid":"B2094753D165A3F8449F","title":"正大乐城-大众书局","lon":"121.453336","lat":"31.188074","category":"500","category_name":"未知分类","address":"上海市 徐汇区龙华中路"},{"poiid":"B2094753D165A3FF4492","title":"Fani Burger","lon":"121.453227","lat":"31.188324","category":"500","category_name":"未知分类","address":"上海市 徐汇区中山南二路699号2-104室"},{"poiid":"B2094757DA6BA6FE449C","title":"上海绿地中心一期","lon":"121.456362","lat":"31.187987","category":"252","category_name":"楼宇机构","address":"徐汇钦州北路188号"},{"poiid":"B2094757D065A2F9449E","title":"徐汇游泳馆 室内羽毛球馆","lon":"121.45356927","lat":"31.190225298","category":"500","category_name":"未知分类","address":"上海市徐汇区枫林路329号 四楼"},{"poiid":"B2094753DB64A0F94598","title":"一麻一辣","lon":"121.457527","lat":"31.187007","category":"500","category_name":"未知分类","address":"上海市 上海市中山南二路699号2楼"},{"poiid":"B2094757D069A1F9479B","title":"苏州羊肉馆(东安路店)","lon":"121.45517","lat":"31.18966","category":"68","category_name":"快餐厅","address":"徐汇区东安路352号邮局旁(近零陵路)"},{"poiid":"B2094654DB64A6FB449D","title":"长航宾馆","lon":"121.45213","lat":"31.18946","category":"250","category_name":"公园户外","address":"徐汇区零陵路518号"},{"poiid":"B2094753D66BA0F44993","title":"正大乐城","lon":"121.455238","lat":"31.187892","category":"170","category_name":"KTV","address":"上海市 徐汇区中山南二路东安路"},{"poiid":"B2094655D26FA6FF409A","title":"东安四村","lon":"121.45087","lat":"31.186504","category":"47","category_name":"住宅区","address":"宛平南路727号"},{"poiid":"B2094654DA6DA5FA409D","title":"奥灶菜馆","lon":"121.456076054","lat":"31.187141793","category":"68","category_name":"快餐厅","address":"徐汇区东安路501号(近中山南二路)"},{"poiid":"B2094750DA6BA2FC489F","title":"上海市精神病总医院","lon":"121.454185","lat":"31.186395","category":"162","category_name":"医院","address":null},{"poiid":"B2094757D069A0FD499A","title":"宛平南路零陵路","lon":"121.452774996","lat":"31.1865334967","category":"500","category_name":"未知分类","address":"上海宛平南路零陵路"},{"poiid":"B2094757D568AAFD4193","title":"汉庭快捷酒店(徐家汇东安路店)","lon":"121.45510715","lat":"31.19020562","category":"216","category_name":"经济型连锁酒店","address":"徐汇区东安路360号(近零陵路)"},{"poiid":"B2094655D36CA1F94692","title":"零陵路东安路","lon":"121.45443","lat":"31.19064","category":"38","category_name":"公交车站","address":""},{"poiid":"B2094757D06FAAF54499","title":"JEANS日韩店(京世龙华店)","lon":"121.452429","lat":"31.183131","category":"148","category_name":"美容美发店","address":"上海徐汇区宛平南路941号(近龙华西路)"},{"poiid":"B2094757D16FA0FB409E","title":"湖滨人家","lon":"121.45091","lat":"31.18471","category":"257","category_name":"中餐厅","address":"徐汇区宛平南路810号(近中山南二路)"},{"poiid":"B2094757D06BABFF479B","title":"小阁楼酒家","lon":"121.4504","lat":"31.18523","category":"76","category_name":"上海菜","address":"徐汇区宛平南路750号(近中山南二路)"},{"poiid":"B2094757D569A2FC4799","title":"东安商务楼","lon":"121.4542006","lat":"31.186665","category":"46","category_name":"楼宇","address":"北一环与亳州路交叉口(庐阳区政府对面)"},{"poiid":"B2094454D36DAAF44293","title":"啡你啡思","lon":"121.457443","lat":"31.186225","category":"247","category_name":"餐饮美食","address":"上海市 东安路599号1-105室"},{"poiid":"B2094753D664A2FA4692","title":"天家（正大乐城店）","lon":"121.456863","lat":"31.189044","category":"247","category_name":"餐饮美食","address":"上海市 龙华中路"},{"poiid":"B2094655D265A2F94792","title":"速8酒店徐家汇店","lon":"121.45145","lat":"31.18918","category":"216","category_name":"经济型连锁酒店","address":"徐汇区零陵路520号"},{"poiid":"B2094750D56EABF9419A","title":"上海师范大学西校区","lon":"121.451927","lat":"31.187669","category":"253","category_name":"校园生活","address":null},{"poiid":"B2094654DA6DA1FC449D","title":"上海市针灸经络研究所门诊部","lon":"121.44977","lat":"31.1865","category":"162","category_name":"医院","address":"徐汇区宛平南路650号"},{"poiid":"B2094757D065A4FB499B","title":"吴越人家","lon":"121.45047","lat":"31.18522","category":"76","category_name":"上海菜","address":"徐汇区宛平南路740号(近中山南二路)"},{"poiid":"B2094654DA6EA2F4499A","title":"上海中医药大学附属龙华医院","lon":"121.45011","lat":"31.18796","category":"162","category_name":"医院","address":"徐汇区零陵路532号"},{"poiid":"B2094750DA6BA4FA429E","title":"西岸音乐节","lon":"121.456642","lat":"31.185581","category":"248","category_name":"生活娱乐","address":"徐汇滨江龙腾大道"},{"poiid":"B2094655D26FA7FA469E","title":"复旦大学附属肿瘤医院","lon":"121.45315","lat":"31.19065","category":"162","category_name":"医院","address":"徐汇区东安路270号(近零陵路)"},{"poiid":"B2094752D06CA0F44198","title":"上海华士达东方影城","lon":"121.4572","lat":"31.18539","category":"178","category_name":"电影院","address":"上海市徐汇区东安路599号绿地中心正大乐城1号楼301"},{"poiid":"B2094757D06AA5FC4199","title":"上海田子坊","lon":"121.45459158","lat":"31.189467634","category":"500","category_name":"未知分类","address":"上海市徐汇区斜土路"},{"poiid":"B2094757D06FA5F8469C","title":"南洋模范中学(本部)","lon":"121.45216","lat":"31.18938","category":"55","category_name":"中学","address":"徐汇区零陵路453号(近东安路)"},{"poiid":"B2094753D164A5FC439D","title":"费尼汉堡","lon":"121.457205","lat":"31.186739","category":"247","category_name":"餐饮美食","address":"上海市 中山南二路699号正大乐城2-104室"},{"poiid":"B2094757D069A5FD489C","title":"光头烧烤","lon":"121.45085","lat":"31.18479","category":"68","category_name":"快餐厅","address":"徐汇区宛平南路808号(近中山南二路)"},{"poiid":"B2094757D068A5FF4599","title":"东安公园","lon":"121.454267372","lat":"31.1850510404","category":"196","category_name":"公园","address":"徐汇区中山南二路811号(龙华西路)"},{"poiid":"B2094752D06EAAF94293","title":"正大乐城","lon":"121.456084","lat":"31.185717","category":"170","category_name":"KTV","address":"东安路500号"},{"poiid":"B2094757D064A0FC4798","title":"徐汇区教育学院","lon":"121.45531","lat":"31.1868","category":"52","category_name":"高等院校","address":"徐汇区中山南二路800号(近东安路)"},{"poiid":"B2094757D568A6F5479B","title":"上海市宛平艺苑","lon":"121.451514","lat":"31.185034","category":"178","category_name":"电影院","address":"中山南二路859号"},{"poiid":"B2094757D068A2FE499A","title":"东安二村","lon":"121.45557","lat":"31.187586","category":"252","category_name":"楼宇机构","address":"上海中山南二路东安路"},{"poiid":"B209475CD16DAAFC449D","title":"小辉哥火锅 正大乐城店","lon":"121.4529021","lat":"31.1861009","category":"86","category_name":"火锅店","address":"中山南二路669号2栋304-305正大乐城"},{"poiid":"B2094757D069A6FF489A","title":"零陵中学","lon":"121.45628","lat":"31.1884","category":"55","category_name":"中学","address":"徐汇区东安路451号(近零陵路)"},{"poiid":"B2094655D268A5F5499C","title":"东安新村","lon":"121.45395","lat":"31.18977","category":"47","category_name":"住宅区","address":""},{"poiid":"B209475CD364A0FE4199","title":"Fani Burger","lon":"121.4574","lat":"31.1862","category":"94","category_name":"西餐厅","address":"东安路500号正大乐城(近中山南二路)"},{"poiid":"B2094654DA6EA2F44993","title":"上海中医药大学继续教育学院","lon":"121.45199","lat":"31.18902","category":"53","category_name":"成人教育","address":"零陵路530号15幢6-8层"},{"poiid":"B2094654DB64A5F54198","title":"苏州福东鑫","lon":"121.450175054","lat":"31.186587793","category":"68","category_name":"快餐厅","address":"徐汇区宛平南路735号(近中山南二路)"},{"poiid":"B2094654DA6DA7FF429E","title":"中煌大厦","lon":"121.452345","lat":"31.187456","category":"46","category_name":"楼宇","address":"沈河北站路与北京街的交汇处"},{"poiid":"B2094757D064A7F54293","title":"夏朵精品烘培","lon":"121.45131266","lat":"31.186186702","category":"67","category_name":"甜品店","address":"上海徐汇区天钥桥路214号哈尼美食广场3楼夏朵内(近南丹东路)"},{"poiid":"B2094655D268A1F4419F","title":"上海中医药大学学生公寓","lon":"121.44953","lat":"31.18661","category":"47","category_name":"住宅区","address":""},{"poiid":"B2094655D36DA7F9449D","title":"肿瘤医院","lon":"121.45531","lat":"31.18997","category":"162","category_name":"医院","address":"徐汇区东安路270号"},{"poiid":"B2094752DA68A7F5479F","title":"华士达东方影城","lon":"121.453438","lat":"31.189429","category":"500","category_name":"未知分类","address":"上海市 东安路599号正大乐城3楼"},{"poiid":"B2094655D36DA7F8469C","title":"中山南二路东安路","lon":"121.45702","lat":"31.18704","category":"38","category_name":"公交车站","address":""},{"poiid":"B2094654DA6EA2F5409F","title":"半岛鱼翅海鲜酒楼","lon":"121.45085614548","lat":"31.18890740879","category":"88","category_name":"海鲜酒楼","address":"徐汇区零陵路518号长航宾馆1-2楼(近东安路)"},{"poiid":"B2094753D165A3F8449F","title":"正大乐城-大众书局","lon":"121.453336","lat":"31.188074","category":"500","category_name":"未知分类","address":"上海市 徐汇区龙华中路"},{"poiid":"B2094753D165A3FF4492","title":"Fani Burger","lon":"121.453227","lat":"31.188324","category":"500","category_name":"未知分类","address":"上海市 徐汇区中山南二路699号2-104室"},{"poiid":"B2094757DA6BA6FE449C","title":"上海绿地中心一期","lon":"121.456362","lat":"31.187987","category":"252","category_name":"楼宇机构","address":"徐汇钦州北路188号"},{"poiid":"B2094757D065A2F9449E","title":"徐汇游泳馆 室内羽毛球馆","lon":"121.45356927","lat":"31.190225298","category":"500","category_name":"未知分类","address":"上海市徐汇区枫林路329号 四楼"},{"poiid":"B2094753DB64A0F94598","title":"一麻一辣","lon":"121.457527","lat":"31.187007","category":"500","category_name":"未知分类","address":"上海市 上海市中山南二路699号2楼"},{"poiid":"B2094757D069A1F9479B","title":"苏州羊肉馆(东安路店)","lon":"121.45517","lat":"31.18966","category":"68","category_name":"快餐厅","address":"徐汇区东安路352号邮局旁(近零陵路)"},{"poiid":"B2094654DB64A6FB449D","title":"长航宾馆","lon":"121.45213","lat":"31.18946","category":"250","category_name":"公园户外","address":"徐汇区零陵路518号"},{"poiid":"B2094753D66BA0F44993","title":"正大乐城","lon":"121.455238","lat":"31.187892","category":"170","category_name":"KTV","address":"上海市 徐汇区中山南二路东安路"},{"poiid":"B2094655D26FA6FF409A","title":"东安四村","lon":"121.45087","lat":"31.186504","category":"47","category_name":"住宅区","address":"宛平南路727号"},{"poiid":"B2094654DA6DA5FA409D","title":"奥灶菜馆","lon":"121.456076054","lat":"31.187141793","category":"68","category_name":"快餐厅","address":"徐汇区东安路501号(近中山南二路)"},{"poiid":"B2094750DA6BA2FC489F","title":"上海市精神病总医院","lon":"121.454185","lat":"31.186395","category":"162","category_name":"医院","address":null},{"poiid":"B2094757D069A0FD499A","title":"宛平南路零陵路","lon":"121.452774996","lat":"31.1865334967","category":"500","category_name":"未知分类","address":"上海宛平南路零陵路"},{"poiid":"B2094757D568AAFD4193","title":"汉庭快捷酒店(徐家汇东安路店)","lon":"121.45510715","lat":"31.19020562","category":"216","category_name":"经济型连锁酒店","address":"徐汇区东安路360号(近零陵路)"},{"poiid":"B2094655D36CA1F94692","title":"零陵路东安路","lon":"121.45443","lat":"31.19064","category":"38","category_name":"公交车站","address":""},{"poiid":"B2094757D06FAAF54499","title":"JEANS日韩店(京世龙华店)","lon":"121.452429","lat":"31.183131","category":"148","category_name":"美容美发店","address":"上海徐汇区宛平南路941号(近龙华西路)"},{"poiid":"B2094757D16FA0FB409E","title":"湖滨人家","lon":"121.45091","lat":"31.18471","category":"257","category_name":"中餐厅","address":"徐汇区宛平南路810号(近中山南二路)"},{"poiid":"B2094757D06BABFF479B","title":"小阁楼酒家","lon":"121.4504","lat":"31.18523","category":"76","category_name":"上海菜","address":"徐汇区宛平南路750号(近中山南二路)"},{"poiid":"B2094757D569A2FC4799","title":"东安商务楼","lon":"121.4542006","lat":"31.186665","category":"46","category_name":"楼宇","address":"北一环与亳州路交叉口(庐阳区政府对面)"},{"poiid":"B2094454D36DAAF44293","title":"啡你啡思","lon":"121.457443","lat":"31.186225","category":"247","category_name":"餐饮美食","address":"上海市 东安路599号1-105室"},{"poiid":"B2094753D664A2FA4692","title":"天家（正大乐城店）","lon":"121.456863","lat":"31.189044","category":"247","category_name":"餐饮美食","address":"上海市 龙华中路"},{"poiid":"B2094655D265A2F94792","title":"速8酒店徐家汇店","lon":"121.45145","lat":"31.18918","category":"216","category_name":"经济型连锁酒店","address":"徐汇区零陵路520号"},{"poiid":"B2094750D56EABF9419A","title":"上海师范大学西校区","lon":"121.451927","lat":"31.187669","category":"253","category_name":"校园生活","address":null},{"poiid":"B2094654DA6DA1FC449D","title":"上海市针灸经络研究所门诊部","lon":"121.44977","lat":"31.1865","category":"162","category_name":"医院","address":"徐汇区宛平南路650号"},{"poiid":"B2094757D065A4FB499B","title":"吴越人家","lon":"121.45047","lat":"31.18522","category":"76","category_name":"上海菜","address":"徐汇区宛平南路740号(近中山南二路)"},{"poiid":"B2094654DA6EA2F4499A","title":"上海中医药大学附属龙华医院","lon":"121.45011","lat":"31.18796","category":"162","category_name":"医院","address":"徐汇区零陵路532号"},{"poiid":"B2094750DA6BA4FA429E","title":"西岸音乐节","lon":"121.456642","lat":"31.185581","category":"248","category_name":"生活娱乐","address":"徐汇滨江龙腾大道"},{"poiid":"B2094655D26FA7FA469E","title":"复旦大学附属肿瘤医院","lon":"121.45315","lat":"31.19065","category":"162","category_name":"医院","address":"徐汇区东安路270号(近零陵路)"},{"poiid":"B2094752D06CA0F44198","title":"上海华士达东方影城","lon":"121.4572","lat":"31.18539","category":"178","category_name":"电影院","address":"上海市徐汇区东安路599号绿地中心正大乐城1号楼301"},{"poiid":"B2094757D06AA5FC4199","title":"上海田子坊","lon":"121.45459158","lat":"31.189467634","category":"500","category_name":"未知分类","address":"上海市徐汇区斜土路"},{"poiid":"B2094757D06FA5F8469C","title":"南洋模范中学(本部)","lon":"121.45216","lat":"31.18938","category":"55","category_name":"中学","address":"徐汇区零陵路453号(近东安路)"},{"poiid":"B2094753D164A5FC439D","title":"费尼汉堡","lon":"121.457205","lat":"31.186739","category":"247","category_name":"餐饮美食","address":"上海市 中山南二路699号正大乐城2-104室"},{"poiid":"B2094757D069A5FD489C","title":"光头烧烤","lon":"121.45085","lat":"31.18479","category":"68","category_name":"快餐厅","address":"徐汇区宛平南路808号(近中山南二路)"},{"poiid":"B2094757D068A5FF4599","title":"东安公园","lon":"121.454267372","lat":"31.1850510404","category":"196","category_name":"公园","address":"徐汇区中山南二路811号(龙华西路)"},{"poiid":"B2094752D06EAAF94293","title":"正大乐城","lon":"121.456084","lat":"31.185717","category":"170","category_name":"KTV","address":"东安路500号"},{"poiid":"B2094757D064A0FC4798","title":"徐汇区教育学院","lon":"121.45531","lat":"31.1868","category":"52","category_name":"高等院校","address":"徐汇区中山南二路800号(近东安路)"},{"poiid":"B2094757D568A6F5479B","title":"上海市宛平艺苑","lon":"121.451514","lat":"31.185034","category":"178","category_name":"电影院","address":"中山南二路859号"},{"poiid":"B2094757D068A2FE499A","title":"东安二村","lon":"121.45557","lat":"31.187586","category":"252","category_name":"楼宇机构","address":"上海中山南二路东安路"},{"poiid":"B209475CD16DAAFC449D","title":"小辉哥火锅 正大乐城店","lon":"121.4529021","lat":"31.1861009","category":"86","category_name":"火锅店","address":"中山南二路669号2栋304-305正大乐城"},{"poiid":"B2094757D069A6FF489A","title":"零陵中学","lon":"121.45628","lat":"31.1884","category":"55","category_name":"中学","address":"徐汇区东安路451号(近零陵路)"},{"poiid":"B2094655D268A5F5499C","title":"东安新村","lon":"121.45395","lat":"31.18977","category":"47","category_name":"住宅区","address":""},{"poiid":"B209475CD364A0FE4199","title":"Fani Burger","lon":"121.4574","lat":"31.1862","category":"94","category_name":"西餐厅","address":"东安路500号正大乐城(近中山南二路)"},{"poiid":"B2094654DA6EA2F44993","title":"上海中医药大学继续教育学院","lon":"121.45199","lat":"31.18902","category":"53","category_name":"成人教育","address":"零陵路530号15幢6-8层"},{"poiid":"B2094654DB64A5F54198","title":"苏州福东鑫","lon":"121.450175054","lat":"31.186587793","category":"68","category_name":"快餐厅","address":"徐汇区宛平南路735号(近中山南二路)"},{"poiid":"B2094654DA6DA7FF429E","title":"中煌大厦","lon":"121.452345","lat":"31.187456","category":"46","category_name":"楼宇","address":"沈河北站路与北京街的交汇处"},{"poiid":"B2094757D064A7F54293","title":"夏朵精品烘培","lon":"121.45131266","lat":"31.186186702","category":"67","category_name":"甜品店","address":"上海徐汇区天钥桥路214号哈尼美食广场3楼夏朵内(近南丹东路)"},{"poiid":"B2094655D268A1F4419F","title":"上海中医药大学学生公寓","lon":"121.44953","lat":"31.18661","category":"47","category_name":"住宅区","address":""},{"poiid":"B2094655D36DA7F9449D","title":"肿瘤医院","lon":"121.45531","lat":"31.18997","category":"162","category_name":"医院","address":"徐汇区东安路270号"},{"poiid":"B2094752DA68A7F5479F","title":"华士达东方影城","lon":"121.453438","lat":"31.189429","category":"500","category_name":"未知分类","address":"上海市 东安路599号正大乐城3楼"},{"poiid":"B2094655D36DA7F8469C","title":"中山南二路东安路","lon":"121.45702","lat":"31.18704","category":"38","category_name":"公交车站","address":""},{"poiid":"B2094654DA6EA2F5409F","title":"半岛鱼翅海鲜酒楼","lon":"121.45085614548","lat":"31.18890740879","category":"88","category_name":"海鲜酒楼","address":"徐汇区零陵路518号长航宾馆1-2楼(近东安路)"},{"poiid":"B2094753D165A3F8449F","title":"正大乐城-大众书局","lon":"121.453336","lat":"31.188074","category":"500","category_name":"未知分类","address":"上海市 徐汇区龙华中路"},{"poiid":"B2094753D165A3FF4492","title":"Fani Burger","lon":"121.453227","lat":"31.188324","category":"500","category_name":"未知分类","address":"上海市 徐汇区中山南二路699号2-104室"},{"poiid":"B2094757DA6BA6FE449C","title":"上海绿地中心一期","lon":"121.456362","lat":"31.187987","category":"252","category_name":"楼宇机构","address":"徐汇钦州北路188号"},{"poiid":"B2094757D065A2F9449E","title":"徐汇游泳馆 室内羽毛球馆","lon":"121.45356927","lat":"31.190225298","category":"500","category_name":"未知分类","address":"上海市徐汇区枫林路329号 四楼"},{"poiid":"B2094753DB64A0F94598","title":"一麻一辣","lon":"121.457527","lat":"31.187007","category":"500","category_name":"未知分类","address":"上海市 上海市中山南二路699号2楼"},{"poiid":"B2094757D069A1F9479B","title":"苏州羊肉馆(东安路店)","lon":"121.45517","lat":"31.18966","category":"68","category_name":"快餐厅","address":"徐汇区东安路352号邮局旁(近零陵路)"},{"poiid":"B2094654DB64A6FB449D","title":"长航宾馆","lon":"121.45213","lat":"31.18946","category":"250","category_name":"公园户外","address":"徐汇区零陵路518号"},{"poiid":"B2094753D66BA0F44993","title":"正大乐城","lon":"121.455238","lat":"31.187892","category":"170","category_name":"KTV","address":"上海市 徐汇区中山南二路东安路"},{"poiid":"B2094655D26FA6FF409A","title":"东安四村","lon":"121.45087","lat":"31.186504","category":"47","category_name":"住宅区","address":"宛平南路727号"},{"poiid":"B2094654DA6DA5FA409D","title":"奥灶菜馆","lon":"121.456076054","lat":"31.187141793","category":"68","category_name":"快餐厅","address":"徐汇区东安路501号(近中山南二路)"},{"poiid":"B2094750DA6BA2FC489F","title":"上海市精神病总医院","lon":"121.454185","lat":"31.186395","category":"162","category_name":"医院","address":null},{"poiid":"B2094757D069A0FD499A","title":"宛平南路零陵路","lon":"121.452774996","lat":"31.1865334967","category":"500","category_name":"未知分类","address":"上海宛平南路零陵路"},{"poiid":"B2094757D568AAFD4193","title":"汉庭快捷酒店(徐家汇东安路店)","lon":"121.45510715","lat":"31.19020562","category":"216","category_name":"经济型连锁酒店","address":"徐汇区东安路360号(近零陵路)"},{"poiid":"B2094655D36CA1F94692","title":"零陵路东安路","lon":"121.45443","lat":"31.19064","category":"38","category_name":"公交车站","address":""},{"poiid":"B2094757D06FAAF54499","title":"JEANS日韩店(京世龙华店)","lon":"121.452429","lat":"31.183131","category":"148","category_name":"美容美发店","address":"上海徐汇区宛平南路941号(近龙华西路)"},{"poiid":"B2094757D16FA0FB409E","title":"湖滨人家","lon":"121.45091","lat":"31.18471","category":"257","category_name":"中餐厅","address":"徐汇区宛平南路810号(近中山南二路)"},{"poiid":"B2094757D06BABFF479B","title":"小阁楼酒家","lon":"121.4504","lat":"31.18523","category":"76","category_name":"上海菜","address":"徐汇区宛平南路750号(近中山南二路)"},{"poiid":"B2094757D569A2FC4799","title":"东安商务楼","lon":"121.4542006","lat":"31.186665","category":"46","category_name":"楼宇","address":"北一环与亳州路交叉口(庐阳区政府对面)"},{"poiid":"B2094454D36DAAF44293","title":"啡你啡思","lon":"121.457443","lat":"31.186225","category":"247","category_name":"餐饮美食","address":"上海市 东安路599号1-105室"},{"poiid":"B2094753D664A2FA4692","title":"天家（正大乐城店）","lon":"121.456863","lat":"31.189044","category":"247","category_name":"餐饮美食","address":"上海市 龙华中路"},{"poiid":"B2094655D265A2F94792","title":"速8酒店徐家汇店","lon":"121.45145","lat":"31.18918","category":"216","category_name":"经济型连锁酒店","address":"徐汇区零陵路520号"},{"poiid":"B2094750D56EABF9419A","title":"上海师范大学西校区","lon":"121.451927","lat":"31.187669","category":"253","category_name":"校园生活","address":null},{"poiid":"B2094654DA6DA1FC449D","title":"上海市针灸经络研究所门诊部","lon":"121.44977","lat":"31.1865","category":"162","category_name":"医院","address":"徐汇区宛平南路650号"},{"poiid":"B2094757D065A4FB499B","title":"吴越人家","lon":"121.45047","lat":"31.18522","category":"76","category_name":"上海菜","address":"徐汇区宛平南路740号(近中山南二路)"}]