[{"poiid":"B2094757D06EAAF54292","title":"辣府","lon":"121.46055803420836","lat":"31.204216638609246","category":"71","category_name":"四川菜","address":"徐汇区嘉善路512号附5号(近肇嘉浜路)"},{"poiid":"B2094757D06EAAFE409C","title":"王朝大酒店 徐汇店","lon":"121.46048529876","lat":"31.20305230008","category":"76","category_name":"上海菜","address":"徐汇区肇嘉浜路288号(近大木桥路)"},{"poiid":"B2094655D26CA4F94298","title":"尚街Loft","lon":"121.45912","lat":"31.20524","category":"116","category_name":"特色商业街","address":"中央商务区CBD22号"},{"poiid":"B2094753D76FAAFA449C","title":"上海滩国泰旗舰店","lon":"121.466011","lat":"31.216125","category":"249","category_name":"购物服务","address":"淮海中路868号"},{"poiid":"B209475CD564A7F84292","title":"上海滩新天地店","lon":"121.47463","lat":"31.22164","category":"119","category_name":"商场","address":"\"太仓路181弄新天地北里15号\r\n\""},{"poiid":"B209475CD564A7F8439E","title":"上海滩中信泰富店","lon":"121.45602","lat":"31.22851","category":"119","category_name":"商场","address":"\"南京西路1168号中信泰富广场，店铺号221.\r\n\""},{"poiid":"B2094751DA6FAAF8459A","title":"捞王猪肚鸡火锅","lon":"121.461071","lat":"31.203251","category":"247","category_name":"餐饮美食","address":"肇嘉浜路嘉善路"},{"poiid":"B2094757D06FA7FF459C","title":"旭日屋 襄阳南路","lon":"121.45815664124","lat":"31.204645031668","category":"95","category_name":"日本料理","address":"徐汇区襄阳南路533号(近肇嘉浜路)"},{"poiid":"B2094655D26BA0FA479B","title":"新苑私房菜","lon":"121.4603","lat":"31.20464","category":"76","category_name":"上海菜","address":"徐汇区嘉善路508号尚街1号楼102室(肇嘉浜路建国西路间)"},{"poiid":"B2094757D06FA3F8419B","title":"星巴克(明珠店)","lon":"121.46272","lat":"31.203544","category":"260","category_name":"其他","address":"徐汇区肇嘉浜路212号明珠大饭店1楼(近陕西南路)"},{"poiid":"B2094757D06EAAF44499","title":"嘉善路地铁站","lon":"121.46090136","lat":"31.202866912","category":"36","category_name":"地铁站","address":"上海轨道交通 九号线 轨交嘉善路站 9"},{"poiid":"B2094757D06FA0F9439A","title":"木村日本料理(肇嘉浜路店)","lon":"121.460549838","lat":"31.2040251418","category":"95","category_name":"日本料理","address":"徐汇区嘉善路524号(近肇嘉浜路)"},{"poiid":"B2094654DA6DA6F4409B","title":"Costa Coffee(陕西南路)","lon":"121.46191","lat":"31.20364","category":"65","category_name":"咖啡厅","address":""},{"poiid":"B2094757D06FA4F94993","title":"小鹭鹭酒家","lon":"121.46125473","lat":"31.202688713","category":"71","category_name":"四川菜","address":"徐汇区肇嘉浜路268号(近嘉善路)"},{"poiid":"B209475DD76DA2FF4792","title":"很高兴遇见你","lon":"121.460838","lat":"31.206756","category":"247","category_name":"餐饮美食","address":"上海市 建国西路221号2楼(陕西南路与嘉善路之间)"},{"poiid":"B2094655D269AAFB409C","title":"明珠大饭店","lon":"121.46249","lat":"31.20368","category":"247","category_name":"餐饮美食","address":"徐汇区肇嘉浜路212-228号(陕西南路口)"},{"poiid":"B2094757D06FA0FF419B","title":"沃歌斯 建国西路店 wagas","lon":"121.46050136399","lat":"31.206048786127","category":"94","category_name":"西餐厅","address":"徐汇区建国西路283号尚街LOFT1104-1105室(近嘉善路)"},{"poiid":"B2094757D068A7FD4799","title":"上海市高级人民法院","lon":"121.45943123","lat":"31.203331163","category":"608","category_name":"法院","address":"上海市徐汇区肇嘉浜路308号"},{"poiid":"B2094757D06FA0F94892","title":"陌生人火锅餐厅(肇嘉浜路店)","lon":"121.46145","lat":"31.20307","category":"86","category_name":"火锅店","address":"徐汇区肇嘉浜路268号(近嘉善路)"},{"poiid":"B2094757D069A7F5479F","title":"襄阳会馆","lon":"121.45852","lat":"31.20484","category":"76","category_name":"上海菜","address":"徐汇区建国西路296号(近襄阳南路)"},{"poiid":"B2094757D068A4FB4092","title":"Naam Thai","lon":"121.4605","lat":"31.2048","category":"99","category_name":"泰国／越南菜品餐厅","address":"徐汇区嘉善路508号Loft尚街1107-1108室(近建国西路)"},{"poiid":"B2094757DB69A4F44799","title":"美粤华大酒店","lon":"121.46171300553","lat":"31.203175634525","category":"72","category_name":"广东菜","address":"徐汇区肇嘉浜路238号(陕西南路口)"},{"poiid":"B2094655D264A5FA469F","title":"尚街创意园","lon":"121.4603","lat":"31.20464","category":"45","category_name":"产业园区","address":"嘉善路508号"},{"poiid":"B209475CDA6DA1F9489B","title":"柴田西点","lon":"121.460445","lat":"31.206314","category":"67","category_name":"甜品店","address":"徐汇区嘉善路309号"},{"poiid":"B2094757D06BA2F54793","title":"城日本料理","lon":"121.460953738","lat":"31.2022887049","category":"95","category_name":"日本料理","address":"徐汇区肇嘉浜路265号(近大木桥路)"},{"poiid":"B2094757D06FAAF54998","title":"亚太企业大厦","lon":"121.460398738","lat":"31.2025817111","category":"46","category_name":"楼宇","address":"丰台学城海鹰路1号，3号"},{"poiid":"B2094757D068A3FA409A","title":"肇嘉浜路大木桥路","lon":"121.46147","lat":"31.202822","category":"38","category_name":"公交车站","address":"上海肇嘉浜路大木桥路"},{"poiid":"B2094757D06BAAF84698","title":"东泰祥生煎馒头馆 陕西南路店","lon":"121.462313","lat":"31.205948","category":"68","category_name":"快餐厅","address":"卢湾区陕西南路309号(近建国西路)"},{"poiid":"B209475CD36FA5F8499C","title":"捞王锅物料理 肇嘉浜路店","lon":"121.46121","lat":"31.20346","category":"72","category_name":"广东菜","address":"肇嘉浜路268号2楼(近嘉善路地铁站2号出口)"},{"poiid":"B209475DD565A0FD4993","title":"很高兴遇见你","lon":"121.461494","lat":"31.205625","category":"247","category_name":"餐饮美食","address":"上海市 建国路221号"},{"poiid":"B2094654DB64AAFB499C","title":"工商大厦","lon":"121.46143","lat":"31.20242","category":"46","category_name":"楼宇","address":"上海市四川北路1851号"},{"poiid":"B2094654DA6DAAFE4099","title":"华业大厦","lon":"121.462","lat":"31.2058","category":"46","category_name":"楼宇","address":"上海医学院路69号"},{"poiid":"B2094757D568A0F5429B","title":"阿婆葱油饼","lon":"121.4582589","lat":"31.20335306","category":"68","category_name":"快餐厅","address":"徐汇区襄阳南路578弄口(近肇嘉浜路)"},{"poiid":"B2094752D469A3FB4292","title":"平壤饭店","lon":"121.459587","lat":"31.202561","category":"247","category_name":"餐饮美食","address":"上海肇家浜路359号二楼"},{"poiid":"B2094654DA6DA6FB4798","title":"城隍庙特色小吃","lon":"121.46061983052","lat":"31.203044561955","category":"68","category_name":"快餐厅","address":"徐汇区嘉善路518号(近建国西路)"},{"poiid":"B2094757D068A5FB499B","title":"招商银行大木桥支行(肇嘉浜路333号)","lon":"121.46071624","lat":"31.202276229","category":"46","category_name":"楼宇","address":"上海市徐汇区肇嘉浜路333号"},{"poiid":"B2094757D468AAF94898","title":"GRUB&GROOVE","lon":"121.4586568","lat":"31.2052323","category":"94","category_name":"西餐厅","address":"徐汇区建国西路283号2号楼附楼B单元(嘉善路口)"},{"poiid":"B2094757D56DA3FC489F","title":"早安巴黎 肇嘉浜路店 Bon Matin","lon":"121.461264054","lat":"31.203140793","category":"247","category_name":"餐饮美食","address":"肇嘉浜路288号601室近大木桥路"},{"poiid":"B2094655D26EA3F94098","title":"汇景苑","lon":"121.46145","lat":"31.20473","category":"47","category_name":"住宅区","address":"陕西南路888号"},{"poiid":"B2094757D168A7FC439E","title":"The Kitchen At","lon":"121.45926773","lat":"31.205949782","category":"500","category_name":"未知分类","address":"上海襄阳南路383弄20号3楼"},{"poiid":"B2094757D069A1FC4192","title":"上茶新概念茶坊(徐汇店)","lon":"121.46111","lat":"31.2023","category":"260","category_name":"其他","address":"徐汇区肇嘉浜路333号2楼(近大木桥路)"},{"poiid":"B2094655D36DA6FD4698","title":"嘉善路","lon":"121.4609","lat":"31.20286","category":"38","category_name":"公交车站","address":""},{"poiid":"B2094654DA6DA6F4449D","title":"科投大厦","lon":"121.45893","lat":"31.20502","category":"46","category_name":"楼宇","address":"建国西路285"},{"poiid":"B2094757D168ABF8419D","title":"小荧星艺校","lon":"121.459269088","lat":"31.2048389592","category":"500","category_name":"未知分类","address":"徐汇区建国西路283号-3(近嘉善路)"},{"poiid":"B2094655D26CA4FE419B","title":"梧桐花园A座","lon":"121.4596","lat":"31.20472","category":"47","category_name":"住宅区","address":"建国西路273"},{"poiid":"B2094750D76FA3FA489B","title":"和悦廷餐饮会所","lon":"121.462","lat":"31.2038","category":"76","category_name":"上海菜","address":"徐汇区肇嘉浜路238号5楼(近陕西南路)"},{"poiid":"B2094757D069A4F5449D","title":"凯德·徐汇盛捷服务公寓(Ascott)","lon":"121.461762612","lat":"31.203647615","category":"217","category_name":"旅馆招待所","address":"上海徐汇区陕西南路888号"},{"poiid":"B2094654DB65A1FA4093","title":"三连山茶行(襄阳南路)","lon":"121.45817","lat":"31.20527","category":"66","category_name":"茶艺馆","address":"襄阳南路439-3乙识别"},{"poiid":"B2094757D469A5FE429B","title":"星期一便当 建国西路店","lon":"121.46452","lat":"31.20764","category":"68","category_name":"快餐厅","address":"卢湾区建国西路132号(近陕西南路)"},{"poiid":"B209475DD56DA2FB489E","title":"很高兴遇见你","lon":"121.461524","lat":"31.2059","category":"247","category_name":"餐饮美食","address":"上海市 上海市徐汇区建国西路221号"},{"poiid":"B2094757D06EAAF54292","title":"辣府","lon":"121.46055803420836","lat":"31.204216638609246","category":"71","category_name":"四川菜","address":"徐汇区嘉善路512号附5号(近肇嘉浜路)"},{"poiid":"B2094757D06EAAFE409C","title":"王朝大酒店 徐汇店","lon":"121.46048529876","lat":"31.20305230008","category":"76","category_name":"上海菜","address":"徐汇区肇嘉浜路288号(近大木桥路)"},{"poiid":"B2094655D26CA4F94298","title":"尚街Loft","lon":"121.45912","lat":"31.20524","category":"116","category_name":"特色商业街","address":"中央商务区CBD22号"},{"poiid":"B2094753D76FAAFA449C","title":"上海滩国泰旗舰店","lon":"121.466011","lat":"31.216125","category":"249","category_name":"购物服务","address":"淮海中路868号"},{"poiid":"B209475CD564A7F84292","title":"上海滩新天地店","lon":"121.47463","lat":"31.22164","category":"119","category_name":"商场","address":"\"太仓路181弄新天地北里15号\r\n\""},{"poiid":"B209475CD564A7F8439E","title":"上海滩中信泰富店","lon":"121.45602","lat":"31.22851","category":"119","category_name":"商场","address":"\"南京西路1168号中信泰富广场，店铺号221.\r\n\""},{"poiid":"B2094751DA6FAAF8459A","title":"捞王猪肚鸡火锅","lon":"121.461071","lat":"31.203251","category":"247","category_name":"餐饮美食","address":"肇嘉浜路嘉善路"},{"poiid":"B2094757D06FA7FF459C","title":"旭日屋 襄阳南路","lon":"121.45815664124","lat":"31.204645031668","category":"95","category_name":"日本料理","address":"徐汇区襄阳南路533号(近肇嘉浜路)"},{"poiid":"B2094655D26BA0FA479B","title":"新苑私房菜","lon":"121.4603","lat":"31.20464","category":"76","category_name":"上海菜","address":"徐汇区嘉善路508号尚街1号楼102室(肇嘉浜路建国西路间)"},{"poiid":"B2094757D06FA3F8419B","title":"星巴克(明珠店)","lon":"121.46272","lat":"31.203544","category":"260","category_name":"其他","address":"徐汇区肇嘉浜路212号明珠大饭店1楼(近陕西南路)"},{"poiid":"B2094757D06EAAF44499","title":"嘉善路地铁站","lon":"121.46090136","lat":"31.202866912","category":"36","category_name":"地铁站","address":"上海轨道交通 九号线 轨交嘉善路站 9"},{"poiid":"B2094757D06FA0F9439A","title":"木村日本料理(肇嘉浜路店)","lon":"121.460549838","lat":"31.2040251418","category":"95","category_name":"日本料理","address":"徐汇区嘉善路524号(近肇嘉浜路)"},{"poiid":"B2094654DA6DA6F4409B","title":"Costa Coffee(陕西南路)","lon":"121.46191","lat":"31.20364","category":"65","category_name":"咖啡厅","address":""},{"poiid":"B2094757D06FA4F94993","title":"小鹭鹭酒家","lon":"121.46125473","lat":"31.202688713","category":"71","category_name":"四川菜","address":"徐汇区肇嘉浜路268号(近嘉善路)"},{"poiid":"B209475DD76DA2FF4792","title":"很高兴遇见你","lon":"121.460838","lat":"31.206756","category":"247","category_name":"餐饮美食","address":"上海市 建国西路221号2楼(陕西南路与嘉善路之间)"},{"poiid":"B2094655D269AAFB409C","title":"明珠大饭店","lon":"121.46249","lat":"31.20368","category":"247","category_name":"餐饮美食","address":"徐汇区肇嘉浜路212-228号(陕西南路口)"},{"poiid":"B2094757D06FA0FF419B","title":"沃歌斯 建国西路店 wagas","lon":"121.46050136399","lat":"31.206048786127","category":"94","category_name":"西餐厅","address":"徐汇区建国西路283号尚街LOFT1104-1105室(近嘉善路)"},{"poiid":"B2094757D068A7FD4799","title":"上海市高级人民法院","lon":"121.45943123","lat":"31.203331163","category":"608","category_name":"法院","address":"上海市徐汇区肇嘉浜路308号"},{"poiid":"B2094757D06FA0F94892","title":"陌生人火锅餐厅(肇嘉浜路店)","lon":"121.46145","lat":"31.20307","category":"86","category_name":"火锅店","address":"徐汇区肇嘉浜路268号(近嘉善路)"},{"poiid":"B2094757D069A7F5479F","title":"襄阳会馆","lon":"121.45852","lat":"31.20484","category":"76","category_name":"上海菜","address":"徐汇区建国西路296号(近襄阳南路)"},{"poiid":"B2094757D068A4FB4092","title":"Naam Thai","lon":"121.4605","lat":"31.2048","category":"99","category_name":"泰国／越南菜品餐厅","address":"徐汇区嘉善路508号Loft尚街1107-1108室(近建国西路)"},{"poiid":"B2094757DB69A4F44799","title":"美粤华大酒店","lon":"121.46171300553","lat":"31.203175634525","category":"72","category_name":"广东菜","address":"徐汇区肇嘉浜路238号(陕西南路口)"},{"poiid":"B2094655D264A5FA469F","title":"尚街创意园","lon":"121.4603","lat":"31.20464","category":"45","category_name":"产业园区","address":"嘉善路508号"},{"poiid":"B209475CDA6DA1F9489B","title":"柴田西点","lon":"121.460445","lat":"31.206314","category":"67","category_name":"甜品店","address":"徐汇区嘉善路309号"},{"poiid":"B2094757D06BA2F54793","title":"城日本料理","lon":"121.460953738","lat":"31.2022887049","category":"95","category_name":"日本料理","address":"徐汇区肇嘉浜路265号(近大木桥路)"},{"poiid":"B2094757D06FAAF54998","title":"亚太企业大厦","lon":"121.460398738","lat":"31.2025817111","category":"46","category_name":"楼宇","address":"丰台学城海鹰路1号，3号"},{"poiid":"B2094757D068A3FA409A","title":"肇嘉浜路大木桥路","lon":"121.46147","lat":"31.202822","category":"38","category_name":"公交车站","address":"上海肇嘉浜路大木桥路"},{"poiid":"B2094757D06BAAF84698","title":"东泰祥生煎馒头馆 陕西南路店","lon":"121.462313","lat":"31.205948","category":"68","category_name":"快餐厅","address":"卢湾区陕西南路309号(近建国西路)"},{"poiid":"B209475CD36FA5F8499C","title":"捞王锅物料理 肇嘉浜路店","lon":"121.46121","lat":"31.20346","category":"72","category_name":"广东菜","address":"肇嘉浜路268号2楼(近嘉善路地铁站2号出口)"},{"poiid":"B209475DD565A0FD4993","title":"很高兴遇见你","lon":"121.461494","lat":"31.205625","category":"247","category_name":"餐饮美食","address":"上海市 建国路221号"},{"poiid":"B2094654DB64AAFB499C","title":"工商大厦","lon":"121.46143","lat":"31.20242","category":"46","category_name":"楼宇","address":"上海市四川北路1851号"},{"poiid":"B2094654DA6DAAFE4099","title":"华业大厦","lon":"121.462","lat":"31.2058","category":"46","category_name":"楼宇","address":"上海医学院路69号"},{"poiid":"B2094757D568A0F5429B","title":"阿婆葱油饼","lon":"121.4582589","lat":"31.20335306","category":"68","category_name":"快餐厅","address":"徐汇区襄阳南路578弄口(近肇嘉浜路)"},{"poiid":"B2094752D469A3FB4292","title":"平壤饭店","lon":"121.459587","lat":"31.202561","category":"247","category_name":"餐饮美食","address":"上海肇家浜路359号二楼"},{"poiid":"B2094654DA6DA6FB4798","title":"城隍庙特色小吃","lon":"121.46061983052","lat":"31.203044561955","category":"68","category_name":"快餐厅","address":"徐汇区嘉善路518号(近建国西路)"},{"poiid":"B2094757D068A5FB499B","title":"招商银行大木桥支行(肇嘉浜路333号)","lon":"121.46071624","lat":"31.202276229","category":"46","category_name":"楼宇","address":"上海市徐汇区肇嘉浜路333号"},{"poiid":"B2094757D468AAF94898","title":"GRUB&GROOVE","lon":"121.4586568","lat":"31.2052323","category":"94","category_name":"西餐厅","address":"徐汇区建国西路283号2号楼附楼B单元(嘉善路口)"},{"poiid":"B2094757D56DA3FC489F","title":"早安巴黎 肇嘉浜路店 Bon Matin","lon":"121.461264054","lat":"31.203140793","category":"247","category_name":"餐饮美食","address":"肇嘉浜路288号601室近大木桥路"},{"poiid":"B2094655D26EA3F94098","title":"汇景苑","lon":"121.46145","lat":"31.20473","category":"47","category_name":"住宅区","address":"陕西南路888号"},{"poiid":"B2094757D168A7FC439E","title":"The Kitchen At","lon":"121.45926773","lat":"31.205949782","category":"500","category_name":"未知分类","address":"上海襄阳南路383弄20号3楼"},{"poiid":"B2094757D069A1FC4192","title":"上茶新概念茶坊(徐汇店)","lon":"121.46111","lat":"31.2023","category":"260","category_name":"其他","address":"徐汇区肇嘉浜路333号2楼(近大木桥路)"},{"poiid":"B2094655D36DA6FD4698","title":"嘉善路","lon":"121.4609","lat":"31.20286","category":"38","category_name":"公交车站","address":""},{"poiid":"B2094654DA6DA6F4449D","title":"科投大厦","lon":"121.45893","lat":"31.20502","category":"46","category_name":"楼宇","address":"建国西路285"},{"poiid":"B2094757D168ABF8419D","title":"小荧星艺校","lon":"121.459269088","lat":"31.2048389592","category":"500","category_name":"未知分类","address":"徐汇区建国西路283号-3(近嘉善路)"},{"poiid":"B2094655D26CA4FE419B","title":"梧桐花园A座","lon":"121.4596","lat":"31.20472","category":"47","category_name":"住宅区","address":"建国西路273"},{"poiid":"B2094750D76FA3FA489B","title":"和悦廷餐饮会所","lon":"121.462","lat":"31.2038","category":"76","category_name":"上海菜","address":"徐汇区肇嘉浜路238号5楼(近陕西南路)"},{"poiid":"B2094757D069A4F5449D","title":"凯德·徐汇盛捷服务公寓(Ascott)","lon":"121.461762612","lat":"31.203647615","category":"217","category_name":"旅馆招待所","address":"上海徐汇区陕西南路888号"},{"poiid":"B2094654DB65A1FA4093","title":"三连山茶行(襄阳南路)","lon":"121.45817","lat":"31.20527","category":"66","category_name":"茶艺馆","address":"襄阳南路439-3乙识别"},{"poiid":"B2094757D469A5FE429B","title":"星期一便当 建国西路店","lon":"121.46452","lat":"31.20764","category":"68","category_name":"快餐厅","address":"卢湾区建国西路132号(近陕西南路)"},{"poiid":"B209475DD56DA2FB489E","title":"很高兴遇见你","lon":"121.461524","lat":"31.2059","category":"247","category_name":"餐饮美食","address":"上海市 上海市徐汇区建国西路221号"},{"poiid":"B2094757D06EAAF54292","title":"辣府","lon":"121.46055803420836","lat":"31.204216638609246","category":"71","category_name":"四川菜","address":"徐汇区嘉善路512号附5号(近肇嘉浜路)"},{"poiid":"B2094757D06EAAFE409C","title":"王朝大酒店 徐汇店","lon":"121.46048529876","lat":"31.20305230008","category":"76","category_name":"上海菜","address":"徐汇区肇嘉浜路288号(近大木桥路)"},{"poiid":"B2094655D26CA4F94298","title":"尚街Loft","lon":"121.45912","lat":"31.20524","category":"116","category_name":"特色商业街","address":"中央商务区CBD22号"},{"poiid":"B2094753D76FAAFA449C","title":"上海滩国泰旗舰店","lon":"121.466011","lat":"31.216125","category":"249","category_name":"购物服务","address":"淮海中路868号"},{"poiid":"B209475CD564A7F84292","title":"上海滩新天地店","lon":"121.47463","lat":"31.22164","category":"119","category_name":"商场","address":"\"太仓路181弄新天地北里15号\r\n\""},{"poiid":"B209475CD564A7F8439E","title":"上海滩中信泰富店","lon":"121.45602","lat":"31.22851","category":"119","category_name":"商场","address":"\"南京西路1168号中信泰富广场，店铺号221.\r\n\""},{"poiid":"B2094751DA6FAAF8459A","title":"捞王猪肚鸡火锅","lon":"121.461071","lat":"31.203251","category":"247","category_name":"餐饮美食","address":"肇嘉浜路嘉善路"},{"poiid":"B2094757D06FA7FF459C","title":"旭日屋 襄阳南路","lon":"121.45815664124","lat":"31.204645031668","category":"95","category_name":"日本料理","address":"徐汇区襄阳南路533号(近肇嘉浜路)"},{"poiid":"B2094655D26BA0FA479B","title":"新苑私房菜","lon":"121.4603","lat":"31.20464","category":"76","category_name":"上海菜","address":"徐汇区嘉善路508号尚街1号楼102室(肇嘉浜路建国西路间)"},{"poiid":"B2094757D06FA3F8419B","title":"星巴克(明珠店)","lon":"121.46272","lat":"31.203544","category":"260","category_name":"其他","address":"徐汇区肇嘉浜路212号明珠大饭店1楼(近陕西南路)"},{"poiid":"B2094757D06EAAF44499","title":"嘉善路地铁站","lon":"121.46090136","lat":"31.202866912","category":"36","category_name":"地铁站","address":"上海轨道交通 九号线 轨交嘉善路站 9"},{"poiid":"B2094757D06FA0F9439A","title":"木村日本料理(肇嘉浜路店)","lon":"121.460549838","lat":"31.2040251418","category":"95","category_name":"日本料理","address":"徐汇区嘉善路524号(近肇嘉浜路)"},{"poiid":"B2094654DA6DA6F4409B","title":"Costa Coffee(陕西南路)","lon":"121.46191","lat":"31.20364","category":"65","category_name":"咖啡厅","address":""},{"poiid":"B2094757D06FA4F94993","title":"小鹭鹭酒家","lon":"121.46125473","lat":"31.202688713","category":"71","category_name":"四川菜","address":"徐汇区肇嘉浜路268号(近嘉善路)"},{"poiid":"B209475DD76DA2FF4792","title":"很高兴遇见你","lon":"121.460838","lat":"31.206756","category":"247","category_name":"餐饮美食","address":"上海市 建国西路221号2楼(陕西南路与嘉善路之间)"},{"poiid":"B2094655D269AAFB409C","title":"明珠大饭店","lon":"121.46249","lat":"31.20368","category":"247","category_name":"餐饮美食","address":"徐汇区肇嘉浜路212-228号(陕西南路口)"},{"poiid":"B2094757D06FA0FF419B","title":"沃歌斯 建国西路店 wagas","lon":"121.46050136399","lat":"31.206048786127","category":"94","category_name":"西餐厅","address":"徐汇区建国西路283号尚街LOFT1104-1105室(近嘉善路)"},{"poiid":"B2094757D068A7FD4799","title":"上海市高级人民法院","lon":"121.45943123","lat":"31.203331163","category":"608","category_name":"法院","address":"上海市徐汇区肇嘉浜路308号"},{"poiid":"B2094757D06FA0F94892","title":"陌生人火锅餐厅(肇嘉浜路店)","lon":"121.46145","lat":"31.20307","category":"86","category_name":"火锅店","address":"徐汇区肇嘉浜路268号(近嘉善路)"},{"poiid":"B2094757D069A7F5479F","title":"襄阳会馆","lon":"121.45852","lat":"31.20484","category":"76","category_name":"上海菜","address":"徐汇区建国西路296号(近襄阳南路)"},{"poiid":"B2094757D068A4FB4092","title":"Naam Thai","lon":"121.4605","lat":"31.2048","category":"99","category_name":"泰国／越南菜品餐厅","address":"徐汇区嘉善路508号Loft尚街1107-1108室(近建国西路)"},{"poiid":"B2094757DB69A4F44799","title":"美粤华大酒店","lon":"121.46171300553","lat":"31.203175634525","category":"72","category_name":"广东菜","address":"徐汇区肇嘉浜路238号(陕西南路口)"},{"poiid":"B2094655D264A5FA469F","title":"尚街创意园","lon":"121.4603","lat":"31.20464","category":"45","category_name":"产业园区","address":"嘉善路508号"},{"poiid":"B209475CDA6DA1F9489B","title":"柴田西点","lon":"121.460445","lat":"31.206314","category":"67","category_name":"甜品店","address":"徐汇区嘉善路309号"},{"poiid":"B2094757D06BA2F54793","title":"城日本料理","lon":"121.460953738","lat":"31.2022887049","category":"95","category_name":"日本料理","address":"徐汇区肇嘉浜路265号(近大木桥路)"},{"poiid":"B2094757D06FAAF54998","title":"亚太企业大厦","lon":"121.460398738","lat":"31.2025817111","category":"46","category_name":"楼宇","address":"丰台学城海鹰路1号，3号"},{"poiid":"B2094757D068A3FA409A","title":"肇嘉浜路大木桥路","lon":"121.46147","lat":"31.202822","category":"38","category_name":"公交车站","address":"上海肇嘉浜路大木桥路"},{"poiid":"B2094757D06BAAF84698","title":"东泰祥生煎馒头馆 陕西南路店","lon":"121.462313","lat":"31.205948","category":"68","category_name":"快餐厅","address":"卢湾区陕西南路309号(近建国西路)"},{"poiid":"B209475CD36FA5F8499C","title":"捞王锅物料理 肇嘉浜路店","lon":"121.46121","lat":"31.20346","category":"72","category_name":"广东菜","address":"肇嘉浜路268号2楼(近嘉善路地铁站2号出口)"},{"poiid":"B209475DD565A0FD4993","title":"很高兴遇见你","lon":"121.461494","lat":"31.205625","category":"247","category_name":"餐饮美食","address":"上海市 建国路221号"},{"poiid":"B2094654DB64AAFB499C","title":"工商大厦","lon":"121.46143","lat":"31.20242","category":"46","category_name":"楼宇","address":"上海市四川北路1851号"},{"poiid":"B2094654DA6DAAFE4099","title":"华业大厦","lon":"121.462","lat":"31.2058","category":"46","category_name":"楼宇","address":"上海医学院路69号"},{"poiid":"B2094757D568A0F5429B","title":"阿婆葱油饼","lon":"121.4582589","lat":"31.20335306","category":"68","category_name":"快餐厅","address":"徐汇区襄阳南路578弄口(近肇嘉浜路)"},{"poiid":"B2094752D469A3FB4292","title":"平壤饭店","lon":"121.459587","lat":"31.202561","category":"247","category_name":"餐饮美食","address":"上海肇家浜路359号二楼"},{"poiid":"B2094654DA6DA6FB4798","title":"城隍庙特色小吃","lon":"121.46061983052","lat":"31.203044561955","category":"68","category_name":"快餐厅","address":"徐汇区嘉善路518号(近建国西路)"},{"poiid":"B2094757D068A5FB499B","title":"招商银行大木桥支行(肇嘉浜路333号)","lon":"121.46071624","lat":"31.202276229","category":"46","category_name":"楼宇","address":"上海市徐汇区肇嘉浜路333号"},{"poiid":"B2094757D468AAF94898","title":"GRUB&GROOVE","lon":"121.4586568","lat":"31.2052323","category":"94","category_name":"西餐厅","address":"徐汇区建国西路283号2号楼附楼B单元(嘉善路口)"},{"poiid":"B2094757D56DA3FC489F","title":"早安巴黎 肇嘉浜路店 Bon Matin","lon":"121.461264054","lat":"31.203140793","category":"247","category_name":"餐饮美食","address":"肇嘉浜路288号601室近大木桥路"},{"poiid":"B2094655D26EA3F94098","title":"汇景苑","lon":"121.46145","lat":"31.20473","category":"47","category_name":"住宅区","address":"陕西南路888号"},{"poiid":"B2094757D168A7FC439E","title":"The Kitchen At","lon":"121.45926773","lat":"31.205949782","category":"500","category_name":"未知分类","address":"上海襄阳南路383弄20号3楼"},{"poiid":"B2094757D069A1FC4192","title":"上茶新概念茶坊(徐汇店)","lon":"121.46111","lat":"31.2023","category":"260","category_name":"其他","address":"徐汇区肇嘉浜路333号2楼(近大木桥路)"},{"poiid":"B2094655D36DA6FD4698","title":"嘉善路","lon":"121.4609","lat":"31.20286","category":"38","category_name":"公交车站","address":""},{"poiid":"B2094654DA6DA6F4449D","title":"科投大厦","lon":"121.45893","lat":"31.20502","category":"46","category_name":"楼宇","address":"建国西路285"},{"poiid":"B2094757D168ABF8419D","title":"小荧星艺校","lon":"121.459269088","lat":"31.2048389592","category":"500","category_name":"未知分类","address":"徐汇区建国西路283号-3(近嘉善路)"},{"poiid":"B2094655D26CA4FE419B","title":"梧桐花园A座","lon":"121.4596","lat":"31.20472","category":"47","category_name":"住宅区","address":"建国西路273"},{"poiid":"B2094750D76FA3FA489B","title":"和悦廷餐饮会所","lon":"121.462","lat":"31.2038","category":"76","category_name":"上海菜","address":"徐汇区肇嘉浜路238号5楼(近陕西南路)"},{"poiid":"B2094757D069A4F5449D","title":"凯德·徐汇盛捷服务公寓(Ascott)","lon":"121.461762612","lat":"31.203647615","category":"217","category_name":"旅馆招待所","address":"上海徐汇区陕西南路888号"},{"poiid":"B2094654DB65A1FA4093","title":"三连山茶行(襄阳南路)","lon":"121.45817","lat":"31.20527","category":"66","category_name":"茶艺馆","address":"襄阳南路439-3乙识别"},{"poiid":"B2094757D469A5FE429B","title":"星期一便当 建国西路店","lon":"121.46452","lat":"31.20764","category":"68","category_name":"快餐厅","address":"卢湾区建国西路132号(近陕西南路)"},{"poiid":"B209475DD56DA2FB489E","title":"很高兴遇见你","lon":"121.461524","lat":"31.2059","category":"247","category_name":"餐饮美食","address":"上海市 上海市徐汇区建国西路221号"},{"poiid":"B2094757D06EAAF54292","title":"辣府","lon":"121.46055803420836","lat":"31.204216638609246","category":"71","category_name":"四川菜","address":"徐汇区嘉善路512号附5号(近肇嘉浜路)"},{"poiid":"B2094757D06EAAFE409C","title":"王朝大酒店 徐汇店","lon":"121.46048529876","lat":"31.20305230008","category":"76","category_name":"上海菜","address":"徐汇区肇嘉浜路288号(近大木桥路)"},{"poiid":"B2094655D26CA4F94298","title":"尚街Loft","lon":"121.45912","lat":"31.20524","category":"116","category_name":"特色商业街","address":"中央商务区CBD22号"},{"poiid":"B2094753D76FAAFA449C","title":"上海滩国泰旗舰店","lon":"121.466011","lat":"31.216125","category":"249","category_name":"购物服务","address":"淮海中路868号"},{"poiid":"B209475CD564A7F84292","title":"上海滩新天地店","lon":"121.47463","lat":"31.22164","category":"119","category_name":"商场","address":"\"太仓路181弄新天地北里15号\r\n\""},{"poiid":"B209475CD564A7F8439E","title":"上海滩中信泰富店","lon":"121.45602","lat":"31.22851","category":"119","category_name":"商场","address":"\"南京西路1168号中信泰富广场，店铺号221.\r\n\""},{"poiid":"B2094751DA6FAAF8459A","title":"捞王猪肚鸡火锅","lon":"121.461071","lat":"31.203251","category":"247","category_name":"餐饮美食","address":"肇嘉浜路嘉善路"},{"poiid":"B2094757D06FA7FF459C","title":"旭日屋 襄阳南路","lon":"121.45815664124","lat":"31.204645031668","category":"95","category_name":"日本料理","address":"徐汇区襄阳南路533号(近肇嘉浜路)"},{"poiid":"B2094655D26BA0FA479B","title":"新苑私房菜","lon":"121.4603","lat":"31.20464","category":"76","category_name":"上海菜","address":"徐汇区嘉善路508号尚街1号楼102室(肇嘉浜路建国西路间)"},{"poiid":"B2094757D06FA3F8419B","title":"星巴克(明珠店)","lon":"121.46272","lat":"31.203544","category":"260","category_name":"其他","address":"徐汇区肇嘉浜路212号明珠大饭店1楼(近陕西南路)"},{"poiid":"B2094757D06EAAF44499","title":"嘉善路地铁站","lon":"121.46090136","lat":"31.202866912","category":"36","category_name":"地铁站","address":"上海轨道交通 九号线 轨交嘉善路站 9"},{"poiid":"B2094757D06FA0F9439A","title":"木村日本料理(肇嘉浜路店)","lon":"121.460549838","lat":"31.2040251418","category":"95","category_name":"日本料理","address":"徐汇区嘉善路524号(近肇嘉浜路)"},{"poiid":"B2094654DA6DA6F4409B","title":"Costa Coffee(陕西南路)","lon":"121.46191","lat":"31.20364","category":"65","category_name":"咖啡厅","address":""},{"poiid":"B2094757D06FA4F94993","title":"小鹭鹭酒家","lon":"121.46125473","lat":"31.202688713","category":"71","category_name":"四川菜","address":"徐汇区肇嘉浜路268号(近嘉善路)"},{"poiid":"B209475DD76DA2FF4792","title":"很高兴遇见你","lon":"121.460838","lat":"31.206756","category":"247","category_name":"餐饮美食","address":"上海市 建国西路221号2楼(陕西南路与嘉善路之间)"},{"poiid":"B2094655D269AAFB409C","title":"明珠大饭店","lon":"121.46249","lat":"31.20368","category":"247","category_name":"餐饮美食","address":"徐汇区肇嘉浜路212-228号(陕西南路口)"},{"poiid":"B2094757D06FA0FF419B","title":"沃歌斯 建国西路店 wagas","lon":"121.46050136399","lat":"31.206048786127","category":"94","category_name":"西餐厅","address":"徐汇区建国西路283号尚街LOFT1104-1105室(近嘉善路)"},{"poiid":"B2094757D068A7FD4799","title":"上海市高级人民法院","lon":"121.45943123","lat":"31.203331163","category":"608","category_name":"法院","address":"上海市徐汇区肇嘉浜路308号"},{"poiid":"B2094757D06FA0F94892","title":"陌生人火锅餐厅(肇嘉浜路店)","lon":"121.46145","lat":"31.20307","category":"86","category_name":"火锅店","address":"徐汇区肇嘉浜路268号(近嘉善路)"},{"poiid":"B2094757D069A7F5479F","title":"襄阳会馆","lon":"121.45852","lat":"31.20484","category":"76","category_name":"上海菜","address":"徐汇区建国西路296号(近襄阳南路)"},{"poiid":"B2094757D068A4FB4092","title":"Naam Thai","lon":"121.4605","lat":"31.2048","category":"99","category_name":"泰国／越南菜品餐厅","address":"徐汇区嘉善路508号Loft尚街1107-1108室(近建国西路)"},{"poiid":"B2094757DB69A4F44799","title":"美粤华大酒店","lon":"121.46171300553","lat":"31.203175634525","category":"72","category_name":"广东菜","address":"徐汇区肇嘉浜路238号(陕西南路口)"},{"poiid":"B2094655D264A5FA469F","title":"尚街创意园","lon":"121.4603","lat":"31.20464","category":"45","category_name":"产业园区","address":"嘉善路508号"},{"poiid":"B209475CDA6DA1F9489B","title":"柴田西点","lon":"121.460445","lat":"31.206314","category":"67","category_name":"甜品店","address":"徐汇区嘉善路309号"},{"poiid":"B2094757D06BA2F54793","title":"城日本料理","lon":"121.460953738","lat":"31.2022887049","category":"95","category_name":"日本料理","address":"徐汇区肇嘉浜路265号(近大木桥路)"},{"poiid":"B2094757D06FAAF54998","title":"亚太企业大厦","lon":"121.460398738","lat":"31.2025817111","category":"46","category_name":"楼宇","address":"丰台学城海鹰路1号，3号"},{"poiid":"B2094757D068A3FA409A","title":"肇嘉浜路大木桥路","lon":"121.46147","lat":"31.202822","category":"38","category_name":"公交车站","address":"上海肇嘉浜路大木桥路"},{"poiid":"B2094757D06BAAF84698","title":"东泰祥生煎馒头馆 陕西南路店","lon":"121.462313","lat":"31.205948","category":"68","category_name":"快餐厅","address":"卢湾区陕西南路309号(近建国西路)"},{"poiid":"B209475CD36FA5F8499C","title":"捞王锅物料理 肇嘉浜路店","lon":"121.46121","lat":"31.20346","category":"72","category_name":"广东菜","address":"肇嘉浜路268号2楼(近嘉善路地铁站2号出口)"},{"poiid":"B209475DD565A0FD4993","title":"很高兴遇见你","lon":"121.461494","lat":"31.205625","category":"247","category_name":"餐饮美食","address":"上海市 建国路221号"},{"poiid":"B2094654DB64AAFB499C","title":"工商大厦","lon":"121.46143","lat":"31.20242","category":"46","category_name":"楼宇","address":"上海市四川北路1851号"},{"poiid":"B2094654DA6DAAFE4099","title":"华业大厦","lon":"121.462","lat":"31.2058","category":"46","category_name":"楼宇","address":"上海医学院路69号"},{"poiid":"B2094757D568A0F5429B","title":"阿婆葱油饼","lon":"121.4582589","lat":"31.20335306","category":"68","category_name":"快餐厅","address":"徐汇区襄阳南路578弄口(近肇嘉浜路)"},{"poiid":"B2094752D469A3FB4292","title":"平壤饭店","lon":"121.459587","lat":"31.202561","category":"247","category_name":"餐饮美食","address":"上海肇家浜路359号二楼"},{"poiid":"B2094654DA6DA6FB4798","title":"城隍庙特色小吃","lon":"121.46061983052","lat":"31.203044561955","category":"68","category_name":"快餐厅","address":"徐汇区嘉善路518号(近建国西路)"},{"poiid":"B2094757D068A5FB499B","title":"招商银行大木桥支行(肇嘉浜路333号)","lon":"121.46071624","lat":"31.202276229","category":"46","category_name":"楼宇","address":"上海市徐汇区肇嘉浜路333号"},{"poiid":"B2094757D468AAF94898","title":"GRUB&GROOVE","lon":"121.4586568","lat":"31.2052323","category":"94","category_name":"西餐厅","address":"徐汇区建国西路283号2号楼附楼B单元(嘉善路口)"},{"poiid":"B2094757D56DA3FC489F","title":"早安巴黎 肇嘉浜路店 Bon Matin","lon":"121.461264054","lat":"31.203140793","category":"247","category_name":"餐饮美食","address":"肇嘉浜路288号601室近大木桥路"},{"poiid":"B2094655D26EA3F94098","title":"汇景苑","lon":"121.46145","lat":"31.20473","category":"47","category_name":"住宅区","address":"陕西南路888号"},{"poiid":"B2094757D168A7FC439E","title":"The Kitchen At","lon":"121.45926773","lat":"31.205949782","category":"500","category_name":"未知分类","address":"上海襄阳南路383弄20号3楼"},{"poiid":"B2094757D069A1FC4192","title":"上茶新概念茶坊(徐汇店)","lon":"121.46111","lat":"31.2023","category":"260","category_name":"其他","address":"徐汇区肇嘉浜路333号2楼(近大木桥路)"},{"poiid":"B2094655D36DA6FD4698","title":"嘉善路","lon":"121.4609","lat":"31.20286","category":"38","category_name":"公交车站","address":""},{"poiid":"B2094654DA6DA6F4449D","title":"科投大厦","lon":"121.45893","lat":"31.20502","category":"46","category_name":"楼宇","address":"建国西路285"},{"poiid":"B2094757D168ABF8419D","title":"小荧星艺校","lon":"121.459269088","lat":"31.2048389592","category":"500","category_name":"未知分类","address":"徐汇区建国西路283号-3(近嘉善路)"},{"poiid":"B2094655D26CA4FE419B","title":"梧桐花园A座","lon":"121.4596","lat":"31.20472","category":"47","category_name":"住宅区","address":"建国西路273"},{"poiid":"B2094750D76FA3FA489B","title":"和悦廷餐饮会所","lon":"121.462","lat":"31.2038","category":"76","category_name":"上海菜","address":"徐汇区肇嘉浜路238号5楼(近陕西南路)"},{"poiid":"B2094757D069A4F5449D","title":"凯德·徐汇盛捷服务公寓(Ascott)","lon":"121.461762612","lat":"31.203647615","category":"217","category_name":"旅馆招待所","address":"上海徐汇区陕西南路888号"},{"poiid":"B2094654DB65A1FA4093","title":"三连山茶行(襄阳南路)","lon":"121.45817","lat":"31.20527","category":"66","category_name":"茶艺馆","address":"襄阳南路439-3乙识别"},{"poiid":"B2094757D469A5FE429B","title":"星期一便当 建国西路店","lon":"121.46452","lat":"31.20764","category":"68","category_name":"快餐厅","address":"卢湾区建国西路132号(近陕西南路)"},{"poiid":"B209475DD56DA2FB489E","title":"很高兴遇见你","lon":"121.461524","lat":"31.2059","category":"247","category_name":"餐饮美食","address":"上海市 上海市徐汇区建国西路221号"}]