[{"poiid":"B2094654DB6BA4FD4592","title":"上海音乐学院","lon":"121.45487","lat":"31.21309","category":"671","category_name":"高校中心点","address":"徐汇区汾阳路20号(近复兴中路)"},{"poiid":"B2094654DA6EA2F9419F","title":"淮海国际广场","lon":"121.4565","lat":"31.21517","category":"46","category_name":"楼宇","address":"行宫位于沈河北站一路41号"},{"poiid":"B2094757D06EAAFD4692","title":"Whisk","lon":"121.45298","lat":"31.21402","category":"67","category_name":"甜品店","address":"徐汇区淮海中路1250号(地铁1号线常熟路地铁站2号出口对面)"},{"poiid":"B2094753D76FAAFA449C","title":"上海滩国泰旗舰店","lon":"121.466011","lat":"31.216125","category":"249","category_name":"购物服务","address":"淮海中路868号"},{"poiid":"B209475CD564A7F84292","title":"上海滩新天地店","lon":"121.47463","lat":"31.22164","category":"119","category_name":"商场","address":"\"太仓路181弄新天地北里15号\r\n\""},{"poiid":"B209475CD564A7F8439E","title":"上海滩中信泰富店","lon":"121.45602","lat":"31.22851","category":"119","category_name":"商场","address":"\"南京西路1168号中信泰富广场，店铺号221.\r\n\""},{"poiid":"B2094654DB65A5F8479D","title":"贺绿汀音乐厅","lon":"121.45461","lat":"31.21331","category":"179","category_name":"音乐厅","address":"徐汇区汾阳路20号上海音乐学院内(近淮海中路)"},{"poiid":"B2094757D06FA3F44299","title":"五木烧肉馆(东湖路店)","lon":"121.45564","lat":"31.21536","category":"269","category_name":"烧烤","address":"上海徐汇区东湖路7号东湖宾馆新馆1楼(近淮海中路)"},{"poiid":"B2094757D06FA3FF489F","title":"白木屋居酒屋(东湖店)","lon":"121.45498","lat":"31.21597","category":"95","category_name":"日本料理","address":"徐汇区东湖路30号甲(近淮海中路)"},{"poiid":"B2094757D464A7F44199","title":"博多新记 襄阳南路店","lon":"121.456851054","lat":"31.213952793","category":"72","category_name":"广东菜","address":"徐汇区襄阳南路150号(近南昌路)"},{"poiid":"B2094757D06FA3F8479E","title":"龙门阵茶屋川菜馆","lon":"121.45483","lat":"31.21587","category":"71","category_name":"四川菜","address":"徐汇区东湖路30号(近淮海中路)"},{"poiid":"B2094750D76FA3FB4698","title":"滩悦(淮海路店)","lon":"121.457","lat":"31.2143","category":"76","category_name":"上海菜","address":"卢湾区襄阳南路102号3楼(近南昌路)"},{"poiid":"B2094757D068A5FA449F","title":"嘉豪淮海国际豪生酒店","lon":"121.45631","lat":"31.21455","category":"217","category_name":"旅馆招待所","address":"上海市徐汇区汾阳路1号(近淮海中路)"},{"poiid":"B2094757D16AAAFD459A","title":"上海汾陽花園酒店","lon":"121.455160738","lat":"31.212530923","category":"217","category_name":"旅馆招待所","address":"上海汾陽45號"},{"poiid":"B2094750D768A6FA4899","title":"林记小馆(襄阳南路店)","lon":"121.457","lat":"31.2143","category":"72","category_name":"广东菜","address":"徐汇区襄阳南路102号(近淮海路)"},{"poiid":"B2094752DB6BA5FA429D","title":"Madison","lon":"121.455942","lat":"31.21461","category":"500","category_name":"未知分类","address":"上海市 汾陽路3號2號樓1樓"},{"poiid":"B2094757D66CA1FB449B","title":"88club","lon":"121.45549011","lat":"31.214376449","category":"500","category_name":"未知分类","address":"上海徐汇区富民路"},{"poiid":"B2094757D068A6F8449D","title":"邮电医院南部","lon":"121.45559842","lat":"31.211518436","category":"162","category_name":"医院","address":"徐汇区复兴中路1315号(近汾阳路)"},{"poiid":"B2094757D468A4FE439C","title":"埃哇餐厅 汾阳路店 AURA","lon":"121.454274","lat":"31.2113792","category":"94","category_name":"西餐厅","address":"徐汇区汾阳路64弄4号(近复兴中路)"},{"poiid":"B2094757DB69A7FB4199","title":"爱乐阿米奇 ELLO AMICI'S","lon":"121.456828","lat":"31.214321","category":"94","category_name":"西餐厅","address":"徐汇区襄阳南路102号(南昌路口)"},{"poiid":"B2094750D26EA7FE479D","title":"人民广场地铁站","lon":"121.452407","lat":"31.213254","category":"36","category_name":"地铁站","address":null},{"poiid":"B2094757D16CA3F84298","title":"汾阳路","lon":"121.456418738","lat":"31.2133589406","category":"260","category_name":"其他","address":"上海汾阳路"},{"poiid":"B2094757D468A4FE499B","title":"阿斯曼","lon":"121.456708054","lat":"31.212441793","category":"84","category_name":"西北菜","address":"复兴中路1251号近襄阳南路"},{"poiid":"B2094757D065A3F94398","title":"茜茜莉亚音乐咖啡","lon":"121.4542747","lat":"31.211379","category":"65","category_name":"咖啡厅","address":"徐汇区汾阳路64弄2号(近复兴中路)"},{"poiid":"B2094655D265A7FF429F","title":"上海音乐学院(南门)","lon":"121.45434","lat":"31.21193","category":"52","category_name":"高等院校","address":"复兴中路1330"},{"poiid":"B2094757D568A0F4459D","title":"汾阳花园酒店","lon":"121.45546767","lat":"31.21291558","category":"214","category_name":"四星级宾馆","address":"上海徐汇区汾阳路45号(近复兴中路)"},{"poiid":"B2094757D769A4F8479B","title":"奥芙莉 襄阳南路店 Awfully Chocolate","lon":"121.456886054","lat":"31.212959793","category":"67","category_name":"甜品店","address":"徐汇区襄阳南路174号(近复兴中路)"},{"poiid":"B209475DD26CA5F8449B","title":"鼎泰丰环贸店","lon":"121.456192","lat":"31.214679","category":"500","category_name":"未知分类","address":"上海市 淮海中路环贸Iapm广场3楼"},{"poiid":"B2094750D76EA5FF429A","title":"五木铁板烧(东湖路店)","lon":"121.454","lat":"31.2156","category":"269","category_name":"烧烤","address":"徐汇区东湖路7号东湖宾馆2楼(近淮海中路)"},{"poiid":"B2094750DA6AABFC429C","title":"上海国际F1赛车场","lon":"121.454673","lat":"31.214015","category":"500","category_name":"未知分类","address":null},{"poiid":"B2094655D264A0FB419D","title":"淮海公寓","lon":"121.45298","lat":"31.214819","category":"47","category_name":"住宅区","address":"上海市卢湾区淮海中路1202号"},{"poiid":"B2094757D068A5FA489A","title":"位育初级中学","lon":"121.45677509","lat":"31.211933819","category":"55","category_name":"中学","address":"徐汇区复兴中路1261号(近襄阳南路)"},{"poiid":"B2094752DA6AA7F9439A","title":"锅德港式海鲜肥牛火锅","lon":"121.456055","lat":"31.214506","category":"247","category_name":"餐饮美食","address":"上海市 汾阳路3号2-3楼"},{"poiid":"B2094654DA6EA2FB489C","title":"名仁苑","lon":"121.456358054","lat":"31.215271793","category":"47","category_name":"住宅区","address":"徐汇区淮海中路1045号淮海国际广场3楼(近汾阳路)"},{"poiid":"B2094757D66EA3FA4492","title":"辛香滙","lon":"121.456077388","lat":"31.2155976583","category":"500","category_name":"未知分类","address":"上海東湖路上"},{"poiid":"B2094757D06FA7FA4998","title":"Memo bar & restaurant","lon":"121.4543","lat":"31.21143","category":"94","category_name":"西餐厅","address":"嘉善路259弄旁嘉善老市内（建国西路和永嘉路之间）"},{"poiid":"B2094757D069A2FD4998","title":"组合发型(东湖路店)","lon":"121.45537","lat":"31.21553","category":"148","category_name":"美容美发店","address":"徐汇区东湖路20号1-2楼(近淮海中路)"},{"poiid":"B2094753D36CA7F5409C","title":"鳍处松户日本料理","lon":"121.456052","lat":"31.214748","category":"95","category_name":"日本料理","address":"徐汇区汾阳路3号2幢4F"},{"poiid":"B2094655D26AA2FD419C","title":"田仓米粉 南昌路店","lon":"121.457200054","lat":"31.214274793","category":"87","category_name":"特色／地方风味餐厅","address":"徐汇区南昌路621号(襄阳路口)"},{"poiid":"B2094757D16FA7FB489D","title":"瑞金医院远洋分院","lon":"121.454749738","lat":"31.2148719729","category":"162","category_name":"医院","address":"上海市静安区长乐路"},{"poiid":"B2094750D76BA7F5419A","title":"Madsion餐厅","lon":"121.45586460845948","lat":"31.21466878490339","category":"256","category_name":"外国餐厅","address":"徐汇区汾阳路3号2号楼一楼"},{"poiid":"B2094757D16CA7F54092","title":"淮海中路东湖路","lon":"121.45626616","lat":"31.215277324","category":"500","category_name":"未知分类","address":"上海淮海中路东湖路"},{"poiid":"B2094757D568AAFE4892","title":"上海音乐学院餐厅","lon":"121.4545131","lat":"31.21272194","category":"68","category_name":"快餐厅","address":"徐汇区汾阳路20号上海音乐学院内(近复兴中路)"},{"poiid":"B2094757DB6CA3FC4699","title":"上海汾阳花园酒店","lon":"121.455148","lat":"31.212659","category":"213","category_name":"五星级宾馆","address":"上海市徐汇区汾阳路45号(近复兴中路)"},{"poiid":"B2094752D668A4FD489A","title":"查餐厅","lon":"121.455439","lat":"31.211717","category":"247","category_name":"餐饮美食","address":"思南路"},{"poiid":"B2094757D56DA6F54093","title":"上海音乐学院","lon":"121.454287","lat":"31.213444","category":"52","category_name":"高等院校","address":"汾阳路20号"},{"poiid":"B2094757D16FA6F44099","title":"上海音乐学院 北楼","lon":"121.45405058","lat":"31.213074095","category":"500","category_name":"未知分类","address":"上海汾阳路二十号 新教学楼"},{"poiid":"B2094750D26FA6F8459E","title":"星公馆","lon":"121.456216","lat":"31.215044","category":"260","category_name":"其他","address":"徐汇区淮海中路1045号淮海国际广场45楼(近汾阳路)"},{"poiid":"B2094655D26EA4FD4099","title":"音符餐厅","lon":"121.45589","lat":"31.21457","category":"257","category_name":"中餐厅","address":"徐汇区汾阳路1号嘉豪淮海国际豪生酒店2楼(近淮海中路)"},{"poiid":"B2094654D564ABFD459E","title":"上海交通大学医学院附属瑞金医院远洋分院(淮中大楼西北)","lon":"121.45349","lat":"31.21508","category":"162","category_name":"医院","address":"淮海中路1174号"},{"poiid":"B2094654DB6BA4FD4592","title":"上海音乐学院","lon":"121.45487","lat":"31.21309","category":"671","category_name":"高校中心点","address":"徐汇区汾阳路20号(近复兴中路)"},{"poiid":"B2094654DA6EA2F9419F","title":"淮海国际广场","lon":"121.4565","lat":"31.21517","category":"46","category_name":"楼宇","address":"行宫位于沈河北站一路41号"},{"poiid":"B2094757D06EAAFD4692","title":"Whisk","lon":"121.45298","lat":"31.21402","category":"67","category_name":"甜品店","address":"徐汇区淮海中路1250号(地铁1号线常熟路地铁站2号出口对面)"},{"poiid":"B2094753D76FAAFA449C","title":"上海滩国泰旗舰店","lon":"121.466011","lat":"31.216125","category":"249","category_name":"购物服务","address":"淮海中路868号"},{"poiid":"B209475CD564A7F84292","title":"上海滩新天地店","lon":"121.47463","lat":"31.22164","category":"119","category_name":"商场","address":"\"太仓路181弄新天地北里15号\r\n\""},{"poiid":"B209475CD564A7F8439E","title":"上海滩中信泰富店","lon":"121.45602","lat":"31.22851","category":"119","category_name":"商场","address":"\"南京西路1168号中信泰富广场，店铺号221.\r\n\""},{"poiid":"B2094654DB65A5F8479D","title":"贺绿汀音乐厅","lon":"121.45461","lat":"31.21331","category":"179","category_name":"音乐厅","address":"徐汇区汾阳路20号上海音乐学院内(近淮海中路)"},{"poiid":"B2094757D06FA3F44299","title":"五木烧肉馆(东湖路店)","lon":"121.45564","lat":"31.21536","category":"269","category_name":"烧烤","address":"上海徐汇区东湖路7号东湖宾馆新馆1楼(近淮海中路)"},{"poiid":"B2094757D06FA3FF489F","title":"白木屋居酒屋(东湖店)","lon":"121.45498","lat":"31.21597","category":"95","category_name":"日本料理","address":"徐汇区东湖路30号甲(近淮海中路)"},{"poiid":"B2094757D464A7F44199","title":"博多新记 襄阳南路店","lon":"121.456851054","lat":"31.213952793","category":"72","category_name":"广东菜","address":"徐汇区襄阳南路150号(近南昌路)"},{"poiid":"B2094757D06FA3F8479E","title":"龙门阵茶屋川菜馆","lon":"121.45483","lat":"31.21587","category":"71","category_name":"四川菜","address":"徐汇区东湖路30号(近淮海中路)"},{"poiid":"B2094750D76FA3FB4698","title":"滩悦(淮海路店)","lon":"121.457","lat":"31.2143","category":"76","category_name":"上海菜","address":"卢湾区襄阳南路102号3楼(近南昌路)"},{"poiid":"B2094757D068A5FA449F","title":"嘉豪淮海国际豪生酒店","lon":"121.45631","lat":"31.21455","category":"217","category_name":"旅馆招待所","address":"上海市徐汇区汾阳路1号(近淮海中路)"},{"poiid":"B2094757D16AAAFD459A","title":"上海汾陽花園酒店","lon":"121.455160738","lat":"31.212530923","category":"217","category_name":"旅馆招待所","address":"上海汾陽45號"},{"poiid":"B2094750D768A6FA4899","title":"林记小馆(襄阳南路店)","lon":"121.457","lat":"31.2143","category":"72","category_name":"广东菜","address":"徐汇区襄阳南路102号(近淮海路)"},{"poiid":"B2094752DB6BA5FA429D","title":"Madison","lon":"121.455942","lat":"31.21461","category":"500","category_name":"未知分类","address":"上海市 汾陽路3號2號樓1樓"},{"poiid":"B2094757D66CA1FB449B","title":"88club","lon":"121.45549011","lat":"31.214376449","category":"500","category_name":"未知分类","address":"上海徐汇区富民路"},{"poiid":"B2094757D068A6F8449D","title":"邮电医院南部","lon":"121.45559842","lat":"31.211518436","category":"162","category_name":"医院","address":"徐汇区复兴中路1315号(近汾阳路)"},{"poiid":"B2094757D468A4FE439C","title":"埃哇餐厅 汾阳路店 AURA","lon":"121.454274","lat":"31.2113792","category":"94","category_name":"西餐厅","address":"徐汇区汾阳路64弄4号(近复兴中路)"},{"poiid":"B2094757DB69A7FB4199","title":"爱乐阿米奇 ELLO AMICI'S","lon":"121.456828","lat":"31.214321","category":"94","category_name":"西餐厅","address":"徐汇区襄阳南路102号(南昌路口)"},{"poiid":"B2094750D26EA7FE479D","title":"人民广场地铁站","lon":"121.452407","lat":"31.213254","category":"36","category_name":"地铁站","address":null},{"poiid":"B2094757D16CA3F84298","title":"汾阳路","lon":"121.456418738","lat":"31.2133589406","category":"260","category_name":"其他","address":"上海汾阳路"},{"poiid":"B2094757D468A4FE499B","title":"阿斯曼","lon":"121.456708054","lat":"31.212441793","category":"84","category_name":"西北菜","address":"复兴中路1251号近襄阳南路"},{"poiid":"B2094757D065A3F94398","title":"茜茜莉亚音乐咖啡","lon":"121.4542747","lat":"31.211379","category":"65","category_name":"咖啡厅","address":"徐汇区汾阳路64弄2号(近复兴中路)"},{"poiid":"B2094655D265A7FF429F","title":"上海音乐学院(南门)","lon":"121.45434","lat":"31.21193","category":"52","category_name":"高等院校","address":"复兴中路1330"},{"poiid":"B2094757D568A0F4459D","title":"汾阳花园酒店","lon":"121.45546767","lat":"31.21291558","category":"214","category_name":"四星级宾馆","address":"上海徐汇区汾阳路45号(近复兴中路)"},{"poiid":"B2094757D769A4F8479B","title":"奥芙莉 襄阳南路店 Awfully Chocolate","lon":"121.456886054","lat":"31.212959793","category":"67","category_name":"甜品店","address":"徐汇区襄阳南路174号(近复兴中路)"},{"poiid":"B209475DD26CA5F8449B","title":"鼎泰丰环贸店","lon":"121.456192","lat":"31.214679","category":"500","category_name":"未知分类","address":"上海市 淮海中路环贸Iapm广场3楼"},{"poiid":"B2094750D76EA5FF429A","title":"五木铁板烧(东湖路店)","lon":"121.454","lat":"31.2156","category":"269","category_name":"烧烤","address":"徐汇区东湖路7号东湖宾馆2楼(近淮海中路)"},{"poiid":"B2094750DA6AABFC429C","title":"上海国际F1赛车场","lon":"121.454673","lat":"31.214015","category":"500","category_name":"未知分类","address":null},{"poiid":"B2094655D264A0FB419D","title":"淮海公寓","lon":"121.45298","lat":"31.214819","category":"47","category_name":"住宅区","address":"上海市卢湾区淮海中路1202号"},{"poiid":"B2094757D068A5FA489A","title":"位育初级中学","lon":"121.45677509","lat":"31.211933819","category":"55","category_name":"中学","address":"徐汇区复兴中路1261号(近襄阳南路)"},{"poiid":"B2094752DA6AA7F9439A","title":"锅德港式海鲜肥牛火锅","lon":"121.456055","lat":"31.214506","category":"247","category_name":"餐饮美食","address":"上海市 汾阳路3号2-3楼"},{"poiid":"B2094654DA6EA2FB489C","title":"名仁苑","lon":"121.456358054","lat":"31.215271793","category":"47","category_name":"住宅区","address":"徐汇区淮海中路1045号淮海国际广场3楼(近汾阳路)"},{"poiid":"B2094757D66EA3FA4492","title":"辛香滙","lon":"121.456077388","lat":"31.2155976583","category":"500","category_name":"未知分类","address":"上海東湖路上"},{"poiid":"B2094757D06FA7FA4998","title":"Memo bar & restaurant","lon":"121.4543","lat":"31.21143","category":"94","category_name":"西餐厅","address":"嘉善路259弄旁嘉善老市内（建国西路和永嘉路之间）"},{"poiid":"B2094757D069A2FD4998","title":"组合发型(东湖路店)","lon":"121.45537","lat":"31.21553","category":"148","category_name":"美容美发店","address":"徐汇区东湖路20号1-2楼(近淮海中路)"},{"poiid":"B2094753D36CA7F5409C","title":"鳍处松户日本料理","lon":"121.456052","lat":"31.214748","category":"95","category_name":"日本料理","address":"徐汇区汾阳路3号2幢4F"},{"poiid":"B2094655D26AA2FD419C","title":"田仓米粉 南昌路店","lon":"121.457200054","lat":"31.214274793","category":"87","category_name":"特色／地方风味餐厅","address":"徐汇区南昌路621号(襄阳路口)"},{"poiid":"B2094757D16FA7FB489D","title":"瑞金医院远洋分院","lon":"121.454749738","lat":"31.2148719729","category":"162","category_name":"医院","address":"上海市静安区长乐路"},{"poiid":"B2094750D76BA7F5419A","title":"Madsion餐厅","lon":"121.45586460845948","lat":"31.21466878490339","category":"256","category_name":"外国餐厅","address":"徐汇区汾阳路3号2号楼一楼"},{"poiid":"B2094757D16CA7F54092","title":"淮海中路东湖路","lon":"121.45626616","lat":"31.215277324","category":"500","category_name":"未知分类","address":"上海淮海中路东湖路"},{"poiid":"B2094757D568AAFE4892","title":"上海音乐学院餐厅","lon":"121.4545131","lat":"31.21272194","category":"68","category_name":"快餐厅","address":"徐汇区汾阳路20号上海音乐学院内(近复兴中路)"},{"poiid":"B2094757DB6CA3FC4699","title":"上海汾阳花园酒店","lon":"121.455148","lat":"31.212659","category":"213","category_name":"五星级宾馆","address":"上海市徐汇区汾阳路45号(近复兴中路)"},{"poiid":"B2094752D668A4FD489A","title":"查餐厅","lon":"121.455439","lat":"31.211717","category":"247","category_name":"餐饮美食","address":"思南路"},{"poiid":"B2094757D56DA6F54093","title":"上海音乐学院","lon":"121.454287","lat":"31.213444","category":"52","category_name":"高等院校","address":"汾阳路20号"},{"poiid":"B2094757D16FA6F44099","title":"上海音乐学院 北楼","lon":"121.45405058","lat":"31.213074095","category":"500","category_name":"未知分类","address":"上海汾阳路二十号 新教学楼"},{"poiid":"B2094750D26FA6F8459E","title":"星公馆","lon":"121.456216","lat":"31.215044","category":"260","category_name":"其他","address":"徐汇区淮海中路1045号淮海国际广场45楼(近汾阳路)"},{"poiid":"B2094655D26EA4FD4099","title":"音符餐厅","lon":"121.45589","lat":"31.21457","category":"257","category_name":"中餐厅","address":"徐汇区汾阳路1号嘉豪淮海国际豪生酒店2楼(近淮海中路)"},{"poiid":"B2094654D564ABFD459E","title":"上海交通大学医学院附属瑞金医院远洋分院(淮中大楼西北)","lon":"121.45349","lat":"31.21508","category":"162","category_name":"医院","address":"淮海中路1174号"},{"poiid":"B2094654DB6BA4FD4592","title":"上海音乐学院","lon":"121.45487","lat":"31.21309","category":"671","category_name":"高校中心点","address":"徐汇区汾阳路20号(近复兴中路)"},{"poiid":"B2094654DA6EA2F9419F","title":"淮海国际广场","lon":"121.4565","lat":"31.21517","category":"46","category_name":"楼宇","address":"行宫位于沈河北站一路41号"},{"poiid":"B2094757D06EAAFD4692","title":"Whisk","lon":"121.45298","lat":"31.21402","category":"67","category_name":"甜品店","address":"徐汇区淮海中路1250号(地铁1号线常熟路地铁站2号出口对面)"},{"poiid":"B2094753D76FAAFA449C","title":"上海滩国泰旗舰店","lon":"121.466011","lat":"31.216125","category":"249","category_name":"购物服务","address":"淮海中路868号"},{"poiid":"B209475CD564A7F84292","title":"上海滩新天地店","lon":"121.47463","lat":"31.22164","category":"119","category_name":"商场","address":"\"太仓路181弄新天地北里15号\r\n\""},{"poiid":"B209475CD564A7F8439E","title":"上海滩中信泰富店","lon":"121.45602","lat":"31.22851","category":"119","category_name":"商场","address":"\"南京西路1168号中信泰富广场，店铺号221.\r\n\""},{"poiid":"B2094654DB65A5F8479D","title":"贺绿汀音乐厅","lon":"121.45461","lat":"31.21331","category":"179","category_name":"音乐厅","address":"徐汇区汾阳路20号上海音乐学院内(近淮海中路)"},{"poiid":"B2094757D06FA3F44299","title":"五木烧肉馆(东湖路店)","lon":"121.45564","lat":"31.21536","category":"269","category_name":"烧烤","address":"上海徐汇区东湖路7号东湖宾馆新馆1楼(近淮海中路)"},{"poiid":"B2094757D06FA3FF489F","title":"白木屋居酒屋(东湖店)","lon":"121.45498","lat":"31.21597","category":"95","category_name":"日本料理","address":"徐汇区东湖路30号甲(近淮海中路)"},{"poiid":"B2094757D464A7F44199","title":"博多新记 襄阳南路店","lon":"121.456851054","lat":"31.213952793","category":"72","category_name":"广东菜","address":"徐汇区襄阳南路150号(近南昌路)"},{"poiid":"B2094757D06FA3F8479E","title":"龙门阵茶屋川菜馆","lon":"121.45483","lat":"31.21587","category":"71","category_name":"四川菜","address":"徐汇区东湖路30号(近淮海中路)"},{"poiid":"B2094750D76FA3FB4698","title":"滩悦(淮海路店)","lon":"121.457","lat":"31.2143","category":"76","category_name":"上海菜","address":"卢湾区襄阳南路102号3楼(近南昌路)"},{"poiid":"B2094757D068A5FA449F","title":"嘉豪淮海国际豪生酒店","lon":"121.45631","lat":"31.21455","category":"217","category_name":"旅馆招待所","address":"上海市徐汇区汾阳路1号(近淮海中路)"},{"poiid":"B2094757D16AAAFD459A","title":"上海汾陽花園酒店","lon":"121.455160738","lat":"31.212530923","category":"217","category_name":"旅馆招待所","address":"上海汾陽45號"},{"poiid":"B2094750D768A6FA4899","title":"林记小馆(襄阳南路店)","lon":"121.457","lat":"31.2143","category":"72","category_name":"广东菜","address":"徐汇区襄阳南路102号(近淮海路)"},{"poiid":"B2094752DB6BA5FA429D","title":"Madison","lon":"121.455942","lat":"31.21461","category":"500","category_name":"未知分类","address":"上海市 汾陽路3號2號樓1樓"},{"poiid":"B2094757D66CA1FB449B","title":"88club","lon":"121.45549011","lat":"31.214376449","category":"500","category_name":"未知分类","address":"上海徐汇区富民路"},{"poiid":"B2094757D068A6F8449D","title":"邮电医院南部","lon":"121.45559842","lat":"31.211518436","category":"162","category_name":"医院","address":"徐汇区复兴中路1315号(近汾阳路)"},{"poiid":"B2094757D468A4FE439C","title":"埃哇餐厅 汾阳路店 AURA","lon":"121.454274","lat":"31.2113792","category":"94","category_name":"西餐厅","address":"徐汇区汾阳路64弄4号(近复兴中路)"},{"poiid":"B2094757DB69A7FB4199","title":"爱乐阿米奇 ELLO AMICI'S","lon":"121.456828","lat":"31.214321","category":"94","category_name":"西餐厅","address":"徐汇区襄阳南路102号(南昌路口)"},{"poiid":"B2094750D26EA7FE479D","title":"人民广场地铁站","lon":"121.452407","lat":"31.213254","category":"36","category_name":"地铁站","address":null},{"poiid":"B2094757D16CA3F84298","title":"汾阳路","lon":"121.456418738","lat":"31.2133589406","category":"260","category_name":"其他","address":"上海汾阳路"},{"poiid":"B2094757D468A4FE499B","title":"阿斯曼","lon":"121.456708054","lat":"31.212441793","category":"84","category_name":"西北菜","address":"复兴中路1251号近襄阳南路"},{"poiid":"B2094757D065A3F94398","title":"茜茜莉亚音乐咖啡","lon":"121.4542747","lat":"31.211379","category":"65","category_name":"咖啡厅","address":"徐汇区汾阳路64弄2号(近复兴中路)"},{"poiid":"B2094655D265A7FF429F","title":"上海音乐学院(南门)","lon":"121.45434","lat":"31.21193","category":"52","category_name":"高等院校","address":"复兴中路1330"},{"poiid":"B2094757D568A0F4459D","title":"汾阳花园酒店","lon":"121.45546767","lat":"31.21291558","category":"214","category_name":"四星级宾馆","address":"上海徐汇区汾阳路45号(近复兴中路)"},{"poiid":"B2094757D769A4F8479B","title":"奥芙莉 襄阳南路店 Awfully Chocolate","lon":"121.456886054","lat":"31.212959793","category":"67","category_name":"甜品店","address":"徐汇区襄阳南路174号(近复兴中路)"},{"poiid":"B209475DD26CA5F8449B","title":"鼎泰丰环贸店","lon":"121.456192","lat":"31.214679","category":"500","category_name":"未知分类","address":"上海市 淮海中路环贸Iapm广场3楼"},{"poiid":"B2094750D76EA5FF429A","title":"五木铁板烧(东湖路店)","lon":"121.454","lat":"31.2156","category":"269","category_name":"烧烤","address":"徐汇区东湖路7号东湖宾馆2楼(近淮海中路)"},{"poiid":"B2094750DA6AABFC429C","title":"上海国际F1赛车场","lon":"121.454673","lat":"31.214015","category":"500","category_name":"未知分类","address":null},{"poiid":"B2094655D264A0FB419D","title":"淮海公寓","lon":"121.45298","lat":"31.214819","category":"47","category_name":"住宅区","address":"上海市卢湾区淮海中路1202号"},{"poiid":"B2094757D068A5FA489A","title":"位育初级中学","lon":"121.45677509","lat":"31.211933819","category":"55","category_name":"中学","address":"徐汇区复兴中路1261号(近襄阳南路)"},{"poiid":"B2094752DA6AA7F9439A","title":"锅德港式海鲜肥牛火锅","lon":"121.456055","lat":"31.214506","category":"247","category_name":"餐饮美食","address":"上海市 汾阳路3号2-3楼"},{"poiid":"B2094654DA6EA2FB489C","title":"名仁苑","lon":"121.456358054","lat":"31.215271793","category":"47","category_name":"住宅区","address":"徐汇区淮海中路1045号淮海国际广场3楼(近汾阳路)"},{"poiid":"B2094757D66EA3FA4492","title":"辛香滙","lon":"121.456077388","lat":"31.2155976583","category":"500","category_name":"未知分类","address":"上海東湖路上"},{"poiid":"B2094757D06FA7FA4998","title":"Memo bar & restaurant","lon":"121.4543","lat":"31.21143","category":"94","category_name":"西餐厅","address":"嘉善路259弄旁嘉善老市内（建国西路和永嘉路之间）"},{"poiid":"B2094757D069A2FD4998","title":"组合发型(东湖路店)","lon":"121.45537","lat":"31.21553","category":"148","category_name":"美容美发店","address":"徐汇区东湖路20号1-2楼(近淮海中路)"},{"poiid":"B2094753D36CA7F5409C","title":"鳍处松户日本料理","lon":"121.456052","lat":"31.214748","category":"95","category_name":"日本料理","address":"徐汇区汾阳路3号2幢4F"},{"poiid":"B2094655D26AA2FD419C","title":"田仓米粉 南昌路店","lon":"121.457200054","lat":"31.214274793","category":"87","category_name":"特色／地方风味餐厅","address":"徐汇区南昌路621号(襄阳路口)"},{"poiid":"B2094757D16FA7FB489D","title":"瑞金医院远洋分院","lon":"121.454749738","lat":"31.2148719729","category":"162","category_name":"医院","address":"上海市静安区长乐路"},{"poiid":"B2094750D76BA7F5419A","title":"Madsion餐厅","lon":"121.45586460845948","lat":"31.21466878490339","category":"256","category_name":"外国餐厅","address":"徐汇区汾阳路3号2号楼一楼"},{"poiid":"B2094757D16CA7F54092","title":"淮海中路东湖路","lon":"121.45626616","lat":"31.215277324","category":"500","category_name":"未知分类","address":"上海淮海中路东湖路"},{"poiid":"B2094757D568AAFE4892","title":"上海音乐学院餐厅","lon":"121.4545131","lat":"31.21272194","category":"68","category_name":"快餐厅","address":"徐汇区汾阳路20号上海音乐学院内(近复兴中路)"},{"poiid":"B2094757DB6CA3FC4699","title":"上海汾阳花园酒店","lon":"121.455148","lat":"31.212659","category":"213","category_name":"五星级宾馆","address":"上海市徐汇区汾阳路45号(近复兴中路)"},{"poiid":"B2094752D668A4FD489A","title":"查餐厅","lon":"121.455439","lat":"31.211717","category":"247","category_name":"餐饮美食","address":"思南路"},{"poiid":"B2094757D56DA6F54093","title":"上海音乐学院","lon":"121.454287","lat":"31.213444","category":"52","category_name":"高等院校","address":"汾阳路20号"},{"poiid":"B2094757D16FA6F44099","title":"上海音乐学院 北楼","lon":"121.45405058","lat":"31.213074095","category":"500","category_name":"未知分类","address":"上海汾阳路二十号 新教学楼"},{"poiid":"B2094750D26FA6F8459E","title":"星公馆","lon":"121.456216","lat":"31.215044","category":"260","category_name":"其他","address":"徐汇区淮海中路1045号淮海国际广场45楼(近汾阳路)"},{"poiid":"B2094655D26EA4FD4099","title":"音符餐厅","lon":"121.45589","lat":"31.21457","category":"257","category_name":"中餐厅","address":"徐汇区汾阳路1号嘉豪淮海国际豪生酒店2楼(近淮海中路)"},{"poiid":"B2094654D564ABFD459E","title":"上海交通大学医学院附属瑞金医院远洋分院(淮中大楼西北)","lon":"121.45349","lat":"31.21508","category":"162","category_name":"医院","address":"淮海中路1174号"},{"poiid":"B2094654DB6BA4FD4592","title":"上海音乐学院","lon":"121.45487","lat":"31.21309","category":"671","category_name":"高校中心点","address":"徐汇区汾阳路20号(近复兴中路)"},{"poiid":"B2094654DA6EA2F9419F","title":"淮海国际广场","lon":"121.4565","lat":"31.21517","category":"46","category_name":"楼宇","address":"行宫位于沈河北站一路41号"},{"poiid":"B2094757D06EAAFD4692","title":"Whisk","lon":"121.45298","lat":"31.21402","category":"67","category_name":"甜品店","address":"徐汇区淮海中路1250号(地铁1号线常熟路地铁站2号出口对面)"},{"poiid":"B2094753D76FAAFA449C","title":"上海滩国泰旗舰店","lon":"121.466011","lat":"31.216125","category":"249","category_name":"购物服务","address":"淮海中路868号"},{"poiid":"B209475CD564A7F84292","title":"上海滩新天地店","lon":"121.47463","lat":"31.22164","category":"119","category_name":"商场","address":"\"太仓路181弄新天地北里15号\r\n\""},{"poiid":"B209475CD564A7F8439E","title":"上海滩中信泰富店","lon":"121.45602","lat":"31.22851","category":"119","category_name":"商场","address":"\"南京西路1168号中信泰富广场，店铺号221.\r\n\""},{"poiid":"B2094654DB65A5F8479D","title":"贺绿汀音乐厅","lon":"121.45461","lat":"31.21331","category":"179","category_name":"音乐厅","address":"徐汇区汾阳路20号上海音乐学院内(近淮海中路)"},{"poiid":"B2094757D06FA3F44299","title":"五木烧肉馆(东湖路店)","lon":"121.45564","lat":"31.21536","category":"269","category_name":"烧烤","address":"上海徐汇区东湖路7号东湖宾馆新馆1楼(近淮海中路)"},{"poiid":"B2094757D06FA3FF489F","title":"白木屋居酒屋(东湖店)","lon":"121.45498","lat":"31.21597","category":"95","category_name":"日本料理","address":"徐汇区东湖路30号甲(近淮海中路)"},{"poiid":"B2094757D464A7F44199","title":"博多新记 襄阳南路店","lon":"121.456851054","lat":"31.213952793","category":"72","category_name":"广东菜","address":"徐汇区襄阳南路150号(近南昌路)"},{"poiid":"B2094757D06FA3F8479E","title":"龙门阵茶屋川菜馆","lon":"121.45483","lat":"31.21587","category":"71","category_name":"四川菜","address":"徐汇区东湖路30号(近淮海中路)"},{"poiid":"B2094750D76FA3FB4698","title":"滩悦(淮海路店)","lon":"121.457","lat":"31.2143","category":"76","category_name":"上海菜","address":"卢湾区襄阳南路102号3楼(近南昌路)"},{"poiid":"B2094757D068A5FA449F","title":"嘉豪淮海国际豪生酒店","lon":"121.45631","lat":"31.21455","category":"217","category_name":"旅馆招待所","address":"上海市徐汇区汾阳路1号(近淮海中路)"},{"poiid":"B2094757D16AAAFD459A","title":"上海汾陽花園酒店","lon":"121.455160738","lat":"31.212530923","category":"217","category_name":"旅馆招待所","address":"上海汾陽45號"},{"poiid":"B2094750D768A6FA4899","title":"林记小馆(襄阳南路店)","lon":"121.457","lat":"31.2143","category":"72","category_name":"广东菜","address":"徐汇区襄阳南路102号(近淮海路)"},{"poiid":"B2094752DB6BA5FA429D","title":"Madison","lon":"121.455942","lat":"31.21461","category":"500","category_name":"未知分类","address":"上海市 汾陽路3號2號樓1樓"},{"poiid":"B2094757D66CA1FB449B","title":"88club","lon":"121.45549011","lat":"31.214376449","category":"500","category_name":"未知分类","address":"上海徐汇区富民路"},{"poiid":"B2094757D068A6F8449D","title":"邮电医院南部","lon":"121.45559842","lat":"31.211518436","category":"162","category_name":"医院","address":"徐汇区复兴中路1315号(近汾阳路)"},{"poiid":"B2094757D468A4FE439C","title":"埃哇餐厅 汾阳路店 AURA","lon":"121.454274","lat":"31.2113792","category":"94","category_name":"西餐厅","address":"徐汇区汾阳路64弄4号(近复兴中路)"},{"poiid":"B2094757DB69A7FB4199","title":"爱乐阿米奇 ELLO AMICI'S","lon":"121.456828","lat":"31.214321","category":"94","category_name":"西餐厅","address":"徐汇区襄阳南路102号(南昌路口)"},{"poiid":"B2094750D26EA7FE479D","title":"人民广场地铁站","lon":"121.452407","lat":"31.213254","category":"36","category_name":"地铁站","address":null},{"poiid":"B2094757D16CA3F84298","title":"汾阳路","lon":"121.456418738","lat":"31.2133589406","category":"260","category_name":"其他","address":"上海汾阳路"},{"poiid":"B2094757D468A4FE499B","title":"阿斯曼","lon":"121.456708054","lat":"31.212441793","category":"84","category_name":"西北菜","address":"复兴中路1251号近襄阳南路"},{"poiid":"B2094757D065A3F94398","title":"茜茜莉亚音乐咖啡","lon":"121.4542747","lat":"31.211379","category":"65","category_name":"咖啡厅","address":"徐汇区汾阳路64弄2号(近复兴中路)"},{"poiid":"B2094655D265A7FF429F","title":"上海音乐学院(南门)","lon":"121.45434","lat":"31.21193","category":"52","category_name":"高等院校","address":"复兴中路1330"},{"poiid":"B2094757D568A0F4459D","title":"汾阳花园酒店","lon":"121.45546767","lat":"31.21291558","category":"214","category_name":"四星级宾馆","address":"上海徐汇区汾阳路45号(近复兴中路)"},{"poiid":"B2094757D769A4F8479B","title":"奥芙莉 襄阳南路店 Awfully Chocolate","lon":"121.456886054","lat":"31.212959793","category":"67","category_name":"甜品店","address":"徐汇区襄阳南路174号(近复兴中路)"},{"poiid":"B209475DD26CA5F8449B","title":"鼎泰丰环贸店","lon":"121.456192","lat":"31.214679","category":"500","category_name":"未知分类","address":"上海市 淮海中路环贸Iapm广场3楼"},{"poiid":"B2094750D76EA5FF429A","title":"五木铁板烧(东湖路店)","lon":"121.454","lat":"31.2156","category":"269","category_name":"烧烤","address":"徐汇区东湖路7号东湖宾馆2楼(近淮海中路)"},{"poiid":"B2094750DA6AABFC429C","title":"上海国际F1赛车场","lon":"121.454673","lat":"31.214015","category":"500","category_name":"未知分类","address":null},{"poiid":"B2094655D264A0FB419D","title":"淮海公寓","lon":"121.45298","lat":"31.214819","category":"47","category_name":"住宅区","address":"上海市卢湾区淮海中路1202号"},{"poiid":"B2094757D068A5FA489A","title":"位育初级中学","lon":"121.45677509","lat":"31.211933819","category":"55","category_name":"中学","address":"徐汇区复兴中路1261号(近襄阳南路)"},{"poiid":"B2094752DA6AA7F9439A","title":"锅德港式海鲜肥牛火锅","lon":"121.456055","lat":"31.214506","category":"247","category_name":"餐饮美食","address":"上海市 汾阳路3号2-3楼"},{"poiid":"B2094654DA6EA2FB489C","title":"名仁苑","lon":"121.456358054","lat":"31.215271793","category":"47","category_name":"住宅区","address":"徐汇区淮海中路1045号淮海国际广场3楼(近汾阳路)"},{"poiid":"B2094757D66EA3FA4492","title":"辛香滙","lon":"121.456077388","lat":"31.2155976583","category":"500","category_name":"未知分类","address":"上海東湖路上"},{"poiid":"B2094757D06FA7FA4998","title":"Memo bar & restaurant","lon":"121.4543","lat":"31.21143","category":"94","category_name":"西餐厅","address":"嘉善路259弄旁嘉善老市内（建国西路和永嘉路之间）"},{"poiid":"B2094757D069A2FD4998","title":"组合发型(东湖路店)","lon":"121.45537","lat":"31.21553","category":"148","category_name":"美容美发店","address":"徐汇区东湖路20号1-2楼(近淮海中路)"},{"poiid":"B2094753D36CA7F5409C","title":"鳍处松户日本料理","lon":"121.456052","lat":"31.214748","category":"95","category_name":"日本料理","address":"徐汇区汾阳路3号2幢4F"},{"poiid":"B2094655D26AA2FD419C","title":"田仓米粉 南昌路店","lon":"121.457200054","lat":"31.214274793","category":"87","category_name":"特色／地方风味餐厅","address":"徐汇区南昌路621号(襄阳路口)"},{"poiid":"B2094757D16FA7FB489D","title":"瑞金医院远洋分院","lon":"121.454749738","lat":"31.2148719729","category":"162","category_name":"医院","address":"上海市静安区长乐路"},{"poiid":"B2094750D76BA7F5419A","title":"Madsion餐厅","lon":"121.45586460845948","lat":"31.21466878490339","category":"256","category_name":"外国餐厅","address":"徐汇区汾阳路3号2号楼一楼"},{"poiid":"B2094757D16CA7F54092","title":"淮海中路东湖路","lon":"121.45626616","lat":"31.215277324","category":"500","category_name":"未知分类","address":"上海淮海中路东湖路"},{"poiid":"B2094757D568AAFE4892","title":"上海音乐学院餐厅","lon":"121.4545131","lat":"31.21272194","category":"68","category_name":"快餐厅","address":"徐汇区汾阳路20号上海音乐学院内(近复兴中路)"},{"poiid":"B2094757DB6CA3FC4699","title":"上海汾阳花园酒店","lon":"121.455148","lat":"31.212659","category":"213","category_name":"五星级宾馆","address":"上海市徐汇区汾阳路45号(近复兴中路)"},{"poiid":"B2094752D668A4FD489A","title":"查餐厅","lon":"121.455439","lat":"31.211717","category":"247","category_name":"餐饮美食","address":"思南路"},{"poiid":"B2094757D56DA6F54093","title":"上海音乐学院","lon":"121.454287","lat":"31.213444","category":"52","category_name":"高等院校","address":"汾阳路20号"},{"poiid":"B2094757D16FA6F44099","title":"上海音乐学院 北楼","lon":"121.45405058","lat":"31.213074095","category":"500","category_name":"未知分类","address":"上海汾阳路二十号 新教学楼"},{"poiid":"B2094750D26FA6F8459E","title":"星公馆","lon":"121.456216","lat":"31.215044","category":"260","category_name":"其他","address":"徐汇区淮海中路1045号淮海国际广场45楼(近汾阳路)"},{"poiid":"B2094655D26EA4FD4099","title":"音符餐厅","lon":"121.45589","lat":"31.21457","category":"257","category_name":"中餐厅","address":"徐汇区汾阳路1号嘉豪淮海国际豪生酒店2楼(近淮海中路)"},{"poiid":"B2094654D564ABFD459E","title":"上海交通大学医学院附属瑞金医院远洋分院(淮中大楼西北)","lon":"121.45349","lat":"31.21508","category":"162","category_name":"医院","address":"淮海中路1174号"}]