[{"poiid":"B2094757D06FA3F5439E","title":"慧芝湖花园","lon":"121.459801","lat":"31.281513","category":"47","category_name":"住宅区","address":"上海市闸北区平型关路"},{"poiid":"B2094757D06FA6FE4299","title":"广粤路","lon":"121.465333","lat":"31.281548","category":"500","category_name":"未知分类","address":"上海市广粤路广中路"},{"poiid":"B2094655D36CA7F5409A","title":"广灵四路广粤路","lon":"121.46686","lat":"31.28637","category":"38","category_name":"公交车站","address":""},{"poiid":"B2094757DA6EAAFA439C","title":"今唐养生海鲜汇","lon":"121.465599299999","lat":"31.2861386","category":"260","category_name":"其他","address":"虹口区广粤路279号(广灵四路口)"},{"poiid":"B2094654D56DA5FE419B","title":"上海市虹口高级中学","lon":"121.46659","lat":"31.28327","category":"55","category_name":"中学","address":"虹口区广粤路138号(近广中路)"},{"poiid":"B2094751D26AA5FE4398","title":"上海人民武装学院","lon":"121.468887","lat":"31.2849","category":"500","category_name":"未知分类","address":"广灵四路828号"},{"poiid":"B2094757D068A1F84192","title":"普陀山海鲜酒店(广粤店)","lon":"121.46547","lat":"31.28176","category":"76","category_name":"上海菜","address":"虹口区广粤路97-99号(近广中路)"},{"poiid":"B2094757D06FA0F9499F","title":"慧芝湖花园二期","lon":"121.465","lat":"31.2875","category":"47","category_name":"住宅区","address":"上海闸北平型关路1083弄(近广中路)"},{"poiid":"B2094654D56DA5FD4593","title":"中虹花园","lon":"121.46911","lat":"31.285257","category":"47","category_name":"住宅区","address":"上海市虹口区凉城路215弄"},{"poiid":"B2094757D06FA4FD409C","title":"水木年华花园","lon":"121.46356","lat":"31.287912","category":"47","category_name":"住宅区","address":"上海市虹口区广灵四路866号"},{"poiid":"B2094757D16CA4FF459E","title":"凯丽欣大酒店","lon":"121.463749103","lat":"31.2866927624","category":"247","category_name":"餐饮美食","address":"虹口区广粤路279号(近广灵四路)"},{"poiid":"B2094757D06AA1FF4399","title":"万峰梦湖苑","lon":"121.46288","lat":"31.282618","category":"47","category_name":"住宅区","address":"上海广灵四路881弄"},{"poiid":"B2094654D56CA3FD4299","title":"上海市大宁国际小学","lon":"121.46085","lat":"31.28373","category":"56","category_name":"小学","address":"闸北区北宝兴路900号(北宝兴路彭江路)"},{"poiid":"B2094654D56CA3FE469D","title":"泛欧现代大厦","lon":"121.459","lat":"31.2872","category":"46","category_name":"楼宇","address":"越秀区环市东路362-366号"},{"poiid":"B2094757D06AA1F4499D","title":"云峰大众4s店","lon":"121.4654369","lat":"31.285210031","category":"500","category_name":"未知分类","address":"上海广粤路"},{"poiid":"B2094654D56DA5F4469D","title":"珊瑚苑","lon":"121.46266","lat":"31.279222","category":"47","category_name":"住宅区","address":"广中路680弄1-28号"},{"poiid":"B2094757D06AA3F84393","title":"中虹花园丽都苑","lon":"121.46764","lat":"31.28512","category":"47","category_name":"住宅区","address":"上海市虹口区凉城路489号(近广灵四路)"},{"poiid":"B2094757D66BA2F54199","title":"满庭芳","lon":"121.46620166347","lat":"31.284886218488","category":"77","category_name":"湖南菜","address":"虹口区广粤路199号(近广灵四路)"},{"poiid":"B2094655D36CA7F4479C","title":"广中路广粤路","lon":"121.4664","lat":"31.28015","category":"38","category_name":"公交车站","address":""},{"poiid":"B2094757D16EA0FE4592","title":"彭江医院","lon":"121.461797103","lat":"31.284377714","category":"162","category_name":"医院","address":"上海市闸北区彭江路51号"},{"poiid":"B2094654D56DA5F4479C","title":"欣武大厦","lon":"121.466377","lat":"31.284776","category":"46","category_name":"楼宇","address":"上海市虹口区广中路694号"},{"poiid":"B2094655D265ABFF4093","title":"昌国商务楼","lon":"121.46334","lat":"31.2826","category":"46","category_name":"楼宇","address":"广粤路95-4临"},{"poiid":"B2094655D265A3FB4192","title":"同茂兴面菜馆","lon":"121.46502","lat":"31.28217","category":"68","category_name":"快餐厅","address":"虹口区广粤路51号A18(近广中路)"},{"poiid":"B2094751DA69A2F44693","title":"维也纳国际酒店（虹口店）","lon":"121.465363","lat":"31.286011","category":"251","category_name":"出行住宿","address":"广粤路279号"},{"poiid":"B2094655D265A7FA4892","title":"上海第五季","lon":"121.4653","lat":"31.28294","category":"47","category_name":"住宅区","address":"上海第五季位于虹口广粤路108号"},{"poiid":"B2094654D56DA5FE4198","title":"上海市虹口高级中学(西门)","lon":"121.46584","lat":"31.28333","category":"678","category_name":"学校大门","address":"广粤路138"},{"poiid":"B2094750D26FA5FF499A","title":"上海市第六人民医院","lon":"121.465888","lat":"31.283666","category":"162","category_name":"医院","address":null},{"poiid":"B2094757D06FABFA4193","title":"新新潘晓婷撞球俱乐部凉城店","lon":"121.46922457","lat":"31.281813567","category":"171","category_name":"台球厅","address":"虹口区凉城路151号3楼(近广中路)"},{"poiid":"B2094750D76FA7FB4299","title":"绿廷苑酒店","lon":"121.465","lat":"31.2793","category":"76","category_name":"上海菜","address":"虹口区株洲路357号(近广中路)"},{"poiid":"B2094655D26DAAFB4293","title":"良友(广灵四路)","lon":"121.4634","lat":"31.2854","category":"117","category_name":"便民商店/便利店","address":"广灵四路828号2单元"},{"poiid":"B2094654D56DA5FD4998","title":"中虹花园翡翠园","lon":"121.46818","lat":"31.28527","category":"47","category_name":"住宅区","address":"广灵四路561弄"},{"poiid":"B2094757D168A1FD4093","title":"梦湖苑","lon":"121.4618361","lat":"31.283070686","category":"500","category_name":"未知分类","address":"上海市广灵四路881弄广粤路口"},{"poiid":"B2094654D56CA3F84592","title":"上工新邨","lon":"121.462","lat":"31.2819","category":"47","category_name":"住宅区","address":"共和新路1895弄"},{"poiid":"B2094654D56DA5FC469C","title":"环城公寓","lon":"121.46604","lat":"31.281115","category":"47","category_name":"住宅区","address":"广中路581弄1-17号"},{"poiid":"B2094757D165A1FE469A","title":"518凉城路","lon":"121.4667201","lat":"31.284107708","category":"38","category_name":"公交车站","address":"上海凉城路广灵四路"},{"poiid":"B2094654DB6BA3FF4798","title":"恒源大楼","lon":"121.46326367537","lat":"31.28600737924","category":"47","category_name":"住宅区","address":"上海广中路696号"},{"poiid":"B2094757D66DA3F5469B","title":"垚森商务楼","lon":"121.462724683","lat":"31.2834194439","category":"252","category_name":"楼宇机构","address":"上海广粤路95号10栋"},{"poiid":"B2094757D169A3FD4993","title":"虹韵花园","lon":"121.4663141","lat":"31.283404693","category":"47","category_name":"住宅区","address":"上海市虹口区广粤路"},{"poiid":"B2094757D66CAAFF469D","title":"伊晨餐厅","lon":"121.46723","lat":"31.28","category":"76","category_name":"上海菜","address":"虹口区广中路551号(近广粤路)"},{"poiid":"B2094655D26FA1F44499","title":"广粤路53弄小区(东门)","lon":"121.46496","lat":"31.28155","category":"47","category_name":"住宅区","address":"广粤路53弄1-43号"},{"poiid":"B2094654D56DA5FF4192","title":"指压按摩足浴","lon":"121.4653","lat":"31.28408","category":"149","category_name":"洗浴推拿场所","address":"广粤路169号"},{"poiid":"B2094757D065AAFC499D","title":"虹口宜家-海叶新苑","lon":"121.463729","lat":"31.281259","category":"500","category_name":"未知分类","address":"上海广中路633弄"},{"poiid":"B2094751DA68A1FD4599","title":"宝山万达广场","lon":"121.4681989","lat":"31.2853212","category":"249","category_name":"购物服务","address":"一二八纪念路"},{"poiid":"B2094757D165A0FE419A","title":"呷哺呷哺(第二百家门店)","lon":"121.466893503","lat":"31.2843911142","category":"247","category_name":"餐饮美食","address":"上海多伦路四川北路"},{"poiid":"B2094757D06AA6FC429F","title":"中虹花园—锦绣文华","lon":"121.468967846","lat":"31.2816135934","category":"500","category_name":"未知分类","address":"上海凉城路139弄"},{"poiid":"B2094655D36CA5F5459C","title":"北宝兴路广中路","lon":"121.46127","lat":"31.28164","category":"38","category_name":"公交车站","address":""},{"poiid":"B2094750DA6DA7FF439A","title":"人民武装学校","lon":"121.464294","lat":"31.285783","category":"253","category_name":"校园生活","address":null},{"poiid":"B2094655D26BA4FE4592","title":"花鸟市场","lon":"121.46319","lat":"31.28122","category":"117","category_name":"便民商店/便利店","address":""},{"poiid":"B2094757D065A1FF439F","title":"上海东方票务有限公司","lon":"121.45801984","lat":"31.282768626","category":"46","category_name":"楼宇","address":"上海平型关路1220号海上文化中心1号楼1层"},{"poiid":"B2094757D66CA0FC409A","title":"东北大菜馆(旺秀餐饮)","lon":"121.46347","lat":"31.27503","category":"82","category_name":"东北菜","address":"闸北区延长路2号(近上海大学)"},{"poiid":"B2094757D06FA3F5439E","title":"慧芝湖花园","lon":"121.459801","lat":"31.281513","category":"47","category_name":"住宅区","address":"上海市闸北区平型关路"},{"poiid":"B2094757D06FA6FE4299","title":"广粤路","lon":"121.465333","lat":"31.281548","category":"500","category_name":"未知分类","address":"上海市广粤路广中路"},{"poiid":"B2094655D36CA7F5409A","title":"广灵四路广粤路","lon":"121.46686","lat":"31.28637","category":"38","category_name":"公交车站","address":""},{"poiid":"B2094757DA6EAAFA439C","title":"今唐养生海鲜汇","lon":"121.465599299999","lat":"31.2861386","category":"260","category_name":"其他","address":"虹口区广粤路279号(广灵四路口)"},{"poiid":"B2094654D56DA5FE419B","title":"上海市虹口高级中学","lon":"121.46659","lat":"31.28327","category":"55","category_name":"中学","address":"虹口区广粤路138号(近广中路)"},{"poiid":"B2094751D26AA5FE4398","title":"上海人民武装学院","lon":"121.468887","lat":"31.2849","category":"500","category_name":"未知分类","address":"广灵四路828号"},{"poiid":"B2094757D068A1F84192","title":"普陀山海鲜酒店(广粤店)","lon":"121.46547","lat":"31.28176","category":"76","category_name":"上海菜","address":"虹口区广粤路97-99号(近广中路)"},{"poiid":"B2094757D06FA0F9499F","title":"慧芝湖花园二期","lon":"121.465","lat":"31.2875","category":"47","category_name":"住宅区","address":"上海闸北平型关路1083弄(近广中路)"},{"poiid":"B2094654D56DA5FD4593","title":"中虹花园","lon":"121.46911","lat":"31.285257","category":"47","category_name":"住宅区","address":"上海市虹口区凉城路215弄"},{"poiid":"B2094757D06FA4FD409C","title":"水木年华花园","lon":"121.46356","lat":"31.287912","category":"47","category_name":"住宅区","address":"上海市虹口区广灵四路866号"},{"poiid":"B2094757D16CA4FF459E","title":"凯丽欣大酒店","lon":"121.463749103","lat":"31.2866927624","category":"247","category_name":"餐饮美食","address":"虹口区广粤路279号(近广灵四路)"},{"poiid":"B2094757D06AA1FF4399","title":"万峰梦湖苑","lon":"121.46288","lat":"31.282618","category":"47","category_name":"住宅区","address":"上海广灵四路881弄"},{"poiid":"B2094654D56CA3FD4299","title":"上海市大宁国际小学","lon":"121.46085","lat":"31.28373","category":"56","category_name":"小学","address":"闸北区北宝兴路900号(北宝兴路彭江路)"},{"poiid":"B2094654D56CA3FE469D","title":"泛欧现代大厦","lon":"121.459","lat":"31.2872","category":"46","category_name":"楼宇","address":"越秀区环市东路362-366号"},{"poiid":"B2094757D06AA1F4499D","title":"云峰大众4s店","lon":"121.4654369","lat":"31.285210031","category":"500","category_name":"未知分类","address":"上海广粤路"},{"poiid":"B2094654D56DA5F4469D","title":"珊瑚苑","lon":"121.46266","lat":"31.279222","category":"47","category_name":"住宅区","address":"广中路680弄1-28号"},{"poiid":"B2094757D06AA3F84393","title":"中虹花园丽都苑","lon":"121.46764","lat":"31.28512","category":"47","category_name":"住宅区","address":"上海市虹口区凉城路489号(近广灵四路)"},{"poiid":"B2094757D66BA2F54199","title":"满庭芳","lon":"121.46620166347","lat":"31.284886218488","category":"77","category_name":"湖南菜","address":"虹口区广粤路199号(近广灵四路)"},{"poiid":"B2094655D36CA7F4479C","title":"广中路广粤路","lon":"121.4664","lat":"31.28015","category":"38","category_name":"公交车站","address":""},{"poiid":"B2094757D16EA0FE4592","title":"彭江医院","lon":"121.461797103","lat":"31.284377714","category":"162","category_name":"医院","address":"上海市闸北区彭江路51号"},{"poiid":"B2094654D56DA5F4479C","title":"欣武大厦","lon":"121.466377","lat":"31.284776","category":"46","category_name":"楼宇","address":"上海市虹口区广中路694号"},{"poiid":"B2094655D265ABFF4093","title":"昌国商务楼","lon":"121.46334","lat":"31.2826","category":"46","category_name":"楼宇","address":"广粤路95-4临"},{"poiid":"B2094655D265A3FB4192","title":"同茂兴面菜馆","lon":"121.46502","lat":"31.28217","category":"68","category_name":"快餐厅","address":"虹口区广粤路51号A18(近广中路)"},{"poiid":"B2094751DA69A2F44693","title":"维也纳国际酒店（虹口店）","lon":"121.465363","lat":"31.286011","category":"251","category_name":"出行住宿","address":"广粤路279号"},{"poiid":"B2094655D265A7FA4892","title":"上海第五季","lon":"121.4653","lat":"31.28294","category":"47","category_name":"住宅区","address":"上海第五季位于虹口广粤路108号"},{"poiid":"B2094654D56DA5FE4198","title":"上海市虹口高级中学(西门)","lon":"121.46584","lat":"31.28333","category":"678","category_name":"学校大门","address":"广粤路138"},{"poiid":"B2094750D26FA5FF499A","title":"上海市第六人民医院","lon":"121.465888","lat":"31.283666","category":"162","category_name":"医院","address":null},{"poiid":"B2094757D06FABFA4193","title":"新新潘晓婷撞球俱乐部凉城店","lon":"121.46922457","lat":"31.281813567","category":"171","category_name":"台球厅","address":"虹口区凉城路151号3楼(近广中路)"},{"poiid":"B2094750D76FA7FB4299","title":"绿廷苑酒店","lon":"121.465","lat":"31.2793","category":"76","category_name":"上海菜","address":"虹口区株洲路357号(近广中路)"},{"poiid":"B2094655D26DAAFB4293","title":"良友(广灵四路)","lon":"121.4634","lat":"31.2854","category":"117","category_name":"便民商店/便利店","address":"广灵四路828号2单元"},{"poiid":"B2094654D56DA5FD4998","title":"中虹花园翡翠园","lon":"121.46818","lat":"31.28527","category":"47","category_name":"住宅区","address":"广灵四路561弄"},{"poiid":"B2094757D168A1FD4093","title":"梦湖苑","lon":"121.4618361","lat":"31.283070686","category":"500","category_name":"未知分类","address":"上海市广灵四路881弄广粤路口"},{"poiid":"B2094654D56CA3F84592","title":"上工新邨","lon":"121.462","lat":"31.2819","category":"47","category_name":"住宅区","address":"共和新路1895弄"},{"poiid":"B2094654D56DA5FC469C","title":"环城公寓","lon":"121.46604","lat":"31.281115","category":"47","category_name":"住宅区","address":"广中路581弄1-17号"},{"poiid":"B2094757D165A1FE469A","title":"518凉城路","lon":"121.4667201","lat":"31.284107708","category":"38","category_name":"公交车站","address":"上海凉城路广灵四路"},{"poiid":"B2094654DB6BA3FF4798","title":"恒源大楼","lon":"121.46326367537","lat":"31.28600737924","category":"47","category_name":"住宅区","address":"上海广中路696号"},{"poiid":"B2094757D66DA3F5469B","title":"垚森商务楼","lon":"121.462724683","lat":"31.2834194439","category":"252","category_name":"楼宇机构","address":"上海广粤路95号10栋"},{"poiid":"B2094757D169A3FD4993","title":"虹韵花园","lon":"121.4663141","lat":"31.283404693","category":"47","category_name":"住宅区","address":"上海市虹口区广粤路"},{"poiid":"B2094757D66CAAFF469D","title":"伊晨餐厅","lon":"121.46723","lat":"31.28","category":"76","category_name":"上海菜","address":"虹口区广中路551号(近广粤路)"},{"poiid":"B2094655D26FA1F44499","title":"广粤路53弄小区(东门)","lon":"121.46496","lat":"31.28155","category":"47","category_name":"住宅区","address":"广粤路53弄1-43号"},{"poiid":"B2094654D56DA5FF4192","title":"指压按摩足浴","lon":"121.4653","lat":"31.28408","category":"149","category_name":"洗浴推拿场所","address":"广粤路169号"},{"poiid":"B2094757D065AAFC499D","title":"虹口宜家-海叶新苑","lon":"121.463729","lat":"31.281259","category":"500","category_name":"未知分类","address":"上海广中路633弄"},{"poiid":"B2094751DA68A1FD4599","title":"宝山万达广场","lon":"121.4681989","lat":"31.2853212","category":"249","category_name":"购物服务","address":"一二八纪念路"},{"poiid":"B2094757D165A0FE419A","title":"呷哺呷哺(第二百家门店)","lon":"121.466893503","lat":"31.2843911142","category":"247","category_name":"餐饮美食","address":"上海多伦路四川北路"},{"poiid":"B2094757D06AA6FC429F","title":"中虹花园—锦绣文华","lon":"121.468967846","lat":"31.2816135934","category":"500","category_name":"未知分类","address":"上海凉城路139弄"},{"poiid":"B2094655D36CA5F5459C","title":"北宝兴路广中路","lon":"121.46127","lat":"31.28164","category":"38","category_name":"公交车站","address":""},{"poiid":"B2094750DA6DA7FF439A","title":"人民武装学校","lon":"121.464294","lat":"31.285783","category":"253","category_name":"校园生活","address":null},{"poiid":"B2094655D26BA4FE4592","title":"花鸟市场","lon":"121.46319","lat":"31.28122","category":"117","category_name":"便民商店/便利店","address":""},{"poiid":"B2094757D065A1FF439F","title":"上海东方票务有限公司","lon":"121.45801984","lat":"31.282768626","category":"46","category_name":"楼宇","address":"上海平型关路1220号海上文化中心1号楼1层"},{"poiid":"B2094757D66CA0FC409A","title":"东北大菜馆(旺秀餐饮)","lon":"121.46347","lat":"31.27503","category":"82","category_name":"东北菜","address":"闸北区延长路2号(近上海大学)"},{"poiid":"B2094757D06FA3F5439E","title":"慧芝湖花园","lon":"121.459801","lat":"31.281513","category":"47","category_name":"住宅区","address":"上海市闸北区平型关路"},{"poiid":"B2094757D06FA6FE4299","title":"广粤路","lon":"121.465333","lat":"31.281548","category":"500","category_name":"未知分类","address":"上海市广粤路广中路"},{"poiid":"B2094655D36CA7F5409A","title":"广灵四路广粤路","lon":"121.46686","lat":"31.28637","category":"38","category_name":"公交车站","address":""},{"poiid":"B2094757DA6EAAFA439C","title":"今唐养生海鲜汇","lon":"121.465599299999","lat":"31.2861386","category":"260","category_name":"其他","address":"虹口区广粤路279号(广灵四路口)"},{"poiid":"B2094654D56DA5FE419B","title":"上海市虹口高级中学","lon":"121.46659","lat":"31.28327","category":"55","category_name":"中学","address":"虹口区广粤路138号(近广中路)"},{"poiid":"B2094751D26AA5FE4398","title":"上海人民武装学院","lon":"121.468887","lat":"31.2849","category":"500","category_name":"未知分类","address":"广灵四路828号"},{"poiid":"B2094757D068A1F84192","title":"普陀山海鲜酒店(广粤店)","lon":"121.46547","lat":"31.28176","category":"76","category_name":"上海菜","address":"虹口区广粤路97-99号(近广中路)"},{"poiid":"B2094757D06FA0F9499F","title":"慧芝湖花园二期","lon":"121.465","lat":"31.2875","category":"47","category_name":"住宅区","address":"上海闸北平型关路1083弄(近广中路)"},{"poiid":"B2094654D56DA5FD4593","title":"中虹花园","lon":"121.46911","lat":"31.285257","category":"47","category_name":"住宅区","address":"上海市虹口区凉城路215弄"},{"poiid":"B2094757D06FA4FD409C","title":"水木年华花园","lon":"121.46356","lat":"31.287912","category":"47","category_name":"住宅区","address":"上海市虹口区广灵四路866号"},{"poiid":"B2094757D16CA4FF459E","title":"凯丽欣大酒店","lon":"121.463749103","lat":"31.2866927624","category":"247","category_name":"餐饮美食","address":"虹口区广粤路279号(近广灵四路)"},{"poiid":"B2094757D06AA1FF4399","title":"万峰梦湖苑","lon":"121.46288","lat":"31.282618","category":"47","category_name":"住宅区","address":"上海广灵四路881弄"},{"poiid":"B2094654D56CA3FD4299","title":"上海市大宁国际小学","lon":"121.46085","lat":"31.28373","category":"56","category_name":"小学","address":"闸北区北宝兴路900号(北宝兴路彭江路)"},{"poiid":"B2094654D56CA3FE469D","title":"泛欧现代大厦","lon":"121.459","lat":"31.2872","category":"46","category_name":"楼宇","address":"越秀区环市东路362-366号"},{"poiid":"B2094757D06AA1F4499D","title":"云峰大众4s店","lon":"121.4654369","lat":"31.285210031","category":"500","category_name":"未知分类","address":"上海广粤路"},{"poiid":"B2094654D56DA5F4469D","title":"珊瑚苑","lon":"121.46266","lat":"31.279222","category":"47","category_name":"住宅区","address":"广中路680弄1-28号"},{"poiid":"B2094757D06AA3F84393","title":"中虹花园丽都苑","lon":"121.46764","lat":"31.28512","category":"47","category_name":"住宅区","address":"上海市虹口区凉城路489号(近广灵四路)"},{"poiid":"B2094757D66BA2F54199","title":"满庭芳","lon":"121.46620166347","lat":"31.284886218488","category":"77","category_name":"湖南菜","address":"虹口区广粤路199号(近广灵四路)"},{"poiid":"B2094655D36CA7F4479C","title":"广中路广粤路","lon":"121.4664","lat":"31.28015","category":"38","category_name":"公交车站","address":""},{"poiid":"B2094757D16EA0FE4592","title":"彭江医院","lon":"121.461797103","lat":"31.284377714","category":"162","category_name":"医院","address":"上海市闸北区彭江路51号"},{"poiid":"B2094654D56DA5F4479C","title":"欣武大厦","lon":"121.466377","lat":"31.284776","category":"46","category_name":"楼宇","address":"上海市虹口区广中路694号"},{"poiid":"B2094655D265ABFF4093","title":"昌国商务楼","lon":"121.46334","lat":"31.2826","category":"46","category_name":"楼宇","address":"广粤路95-4临"},{"poiid":"B2094655D265A3FB4192","title":"同茂兴面菜馆","lon":"121.46502","lat":"31.28217","category":"68","category_name":"快餐厅","address":"虹口区广粤路51号A18(近广中路)"},{"poiid":"B2094751DA69A2F44693","title":"维也纳国际酒店（虹口店）","lon":"121.465363","lat":"31.286011","category":"251","category_name":"出行住宿","address":"广粤路279号"},{"poiid":"B2094655D265A7FA4892","title":"上海第五季","lon":"121.4653","lat":"31.28294","category":"47","category_name":"住宅区","address":"上海第五季位于虹口广粤路108号"},{"poiid":"B2094654D56DA5FE4198","title":"上海市虹口高级中学(西门)","lon":"121.46584","lat":"31.28333","category":"678","category_name":"学校大门","address":"广粤路138"},{"poiid":"B2094750D26FA5FF499A","title":"上海市第六人民医院","lon":"121.465888","lat":"31.283666","category":"162","category_name":"医院","address":null},{"poiid":"B2094757D06FABFA4193","title":"新新潘晓婷撞球俱乐部凉城店","lon":"121.46922457","lat":"31.281813567","category":"171","category_name":"台球厅","address":"虹口区凉城路151号3楼(近广中路)"},{"poiid":"B2094750D76FA7FB4299","title":"绿廷苑酒店","lon":"121.465","lat":"31.2793","category":"76","category_name":"上海菜","address":"虹口区株洲路357号(近广中路)"},{"poiid":"B2094655D26DAAFB4293","title":"良友(广灵四路)","lon":"121.4634","lat":"31.2854","category":"117","category_name":"便民商店/便利店","address":"广灵四路828号2单元"},{"poiid":"B2094654D56DA5FD4998","title":"中虹花园翡翠园","lon":"121.46818","lat":"31.28527","category":"47","category_name":"住宅区","address":"广灵四路561弄"},{"poiid":"B2094757D168A1FD4093","title":"梦湖苑","lon":"121.4618361","lat":"31.283070686","category":"500","category_name":"未知分类","address":"上海市广灵四路881弄广粤路口"},{"poiid":"B2094654D56CA3F84592","title":"上工新邨","lon":"121.462","lat":"31.2819","category":"47","category_name":"住宅区","address":"共和新路1895弄"},{"poiid":"B2094654D56DA5FC469C","title":"环城公寓","lon":"121.46604","lat":"31.281115","category":"47","category_name":"住宅区","address":"广中路581弄1-17号"},{"poiid":"B2094757D165A1FE469A","title":"518凉城路","lon":"121.4667201","lat":"31.284107708","category":"38","category_name":"公交车站","address":"上海凉城路广灵四路"},{"poiid":"B2094654DB6BA3FF4798","title":"恒源大楼","lon":"121.46326367537","lat":"31.28600737924","category":"47","category_name":"住宅区","address":"上海广中路696号"},{"poiid":"B2094757D66DA3F5469B","title":"垚森商务楼","lon":"121.462724683","lat":"31.2834194439","category":"252","category_name":"楼宇机构","address":"上海广粤路95号10栋"},{"poiid":"B2094757D169A3FD4993","title":"虹韵花园","lon":"121.4663141","lat":"31.283404693","category":"47","category_name":"住宅区","address":"上海市虹口区广粤路"},{"poiid":"B2094757D66CAAFF469D","title":"伊晨餐厅","lon":"121.46723","lat":"31.28","category":"76","category_name":"上海菜","address":"虹口区广中路551号(近广粤路)"},{"poiid":"B2094655D26FA1F44499","title":"广粤路53弄小区(东门)","lon":"121.46496","lat":"31.28155","category":"47","category_name":"住宅区","address":"广粤路53弄1-43号"},{"poiid":"B2094654D56DA5FF4192","title":"指压按摩足浴","lon":"121.4653","lat":"31.28408","category":"149","category_name":"洗浴推拿场所","address":"广粤路169号"},{"poiid":"B2094757D065AAFC499D","title":"虹口宜家-海叶新苑","lon":"121.463729","lat":"31.281259","category":"500","category_name":"未知分类","address":"上海广中路633弄"},{"poiid":"B2094751DA68A1FD4599","title":"宝山万达广场","lon":"121.4681989","lat":"31.2853212","category":"249","category_name":"购物服务","address":"一二八纪念路"},{"poiid":"B2094757D165A0FE419A","title":"呷哺呷哺(第二百家门店)","lon":"121.466893503","lat":"31.2843911142","category":"247","category_name":"餐饮美食","address":"上海多伦路四川北路"},{"poiid":"B2094757D06AA6FC429F","title":"中虹花园—锦绣文华","lon":"121.468967846","lat":"31.2816135934","category":"500","category_name":"未知分类","address":"上海凉城路139弄"},{"poiid":"B2094655D36CA5F5459C","title":"北宝兴路广中路","lon":"121.46127","lat":"31.28164","category":"38","category_name":"公交车站","address":""},{"poiid":"B2094750DA6DA7FF439A","title":"人民武装学校","lon":"121.464294","lat":"31.285783","category":"253","category_name":"校园生活","address":null},{"poiid":"B2094655D26BA4FE4592","title":"花鸟市场","lon":"121.46319","lat":"31.28122","category":"117","category_name":"便民商店/便利店","address":""},{"poiid":"B2094757D065A1FF439F","title":"上海东方票务有限公司","lon":"121.45801984","lat":"31.282768626","category":"46","category_name":"楼宇","address":"上海平型关路1220号海上文化中心1号楼1层"},{"poiid":"B2094757D66CA0FC409A","title":"东北大菜馆(旺秀餐饮)","lon":"121.46347","lat":"31.27503","category":"82","category_name":"东北菜","address":"闸北区延长路2号(近上海大学)"},{"poiid":"B2094757D06FA3F5439E","title":"慧芝湖花园","lon":"121.459801","lat":"31.281513","category":"47","category_name":"住宅区","address":"上海市闸北区平型关路"},{"poiid":"B2094757D06FA6FE4299","title":"广粤路","lon":"121.465333","lat":"31.281548","category":"500","category_name":"未知分类","address":"上海市广粤路广中路"},{"poiid":"B2094655D36CA7F5409A","title":"广灵四路广粤路","lon":"121.46686","lat":"31.28637","category":"38","category_name":"公交车站","address":""},{"poiid":"B2094757DA6EAAFA439C","title":"今唐养生海鲜汇","lon":"121.465599299999","lat":"31.2861386","category":"260","category_name":"其他","address":"虹口区广粤路279号(广灵四路口)"},{"poiid":"B2094654D56DA5FE419B","title":"上海市虹口高级中学","lon":"121.46659","lat":"31.28327","category":"55","category_name":"中学","address":"虹口区广粤路138号(近广中路)"},{"poiid":"B2094751D26AA5FE4398","title":"上海人民武装学院","lon":"121.468887","lat":"31.2849","category":"500","category_name":"未知分类","address":"广灵四路828号"},{"poiid":"B2094757D068A1F84192","title":"普陀山海鲜酒店(广粤店)","lon":"121.46547","lat":"31.28176","category":"76","category_name":"上海菜","address":"虹口区广粤路97-99号(近广中路)"},{"poiid":"B2094757D06FA0F9499F","title":"慧芝湖花园二期","lon":"121.465","lat":"31.2875","category":"47","category_name":"住宅区","address":"上海闸北平型关路1083弄(近广中路)"},{"poiid":"B2094654D56DA5FD4593","title":"中虹花园","lon":"121.46911","lat":"31.285257","category":"47","category_name":"住宅区","address":"上海市虹口区凉城路215弄"},{"poiid":"B2094757D06FA4FD409C","title":"水木年华花园","lon":"121.46356","lat":"31.287912","category":"47","category_name":"住宅区","address":"上海市虹口区广灵四路866号"},{"poiid":"B2094757D16CA4FF459E","title":"凯丽欣大酒店","lon":"121.463749103","lat":"31.2866927624","category":"247","category_name":"餐饮美食","address":"虹口区广粤路279号(近广灵四路)"},{"poiid":"B2094757D06AA1FF4399","title":"万峰梦湖苑","lon":"121.46288","lat":"31.282618","category":"47","category_name":"住宅区","address":"上海广灵四路881弄"},{"poiid":"B2094654D56CA3FD4299","title":"上海市大宁国际小学","lon":"121.46085","lat":"31.28373","category":"56","category_name":"小学","address":"闸北区北宝兴路900号(北宝兴路彭江路)"},{"poiid":"B2094654D56CA3FE469D","title":"泛欧现代大厦","lon":"121.459","lat":"31.2872","category":"46","category_name":"楼宇","address":"越秀区环市东路362-366号"},{"poiid":"B2094757D06AA1F4499D","title":"云峰大众4s店","lon":"121.4654369","lat":"31.285210031","category":"500","category_name":"未知分类","address":"上海广粤路"},{"poiid":"B2094654D56DA5F4469D","title":"珊瑚苑","lon":"121.46266","lat":"31.279222","category":"47","category_name":"住宅区","address":"广中路680弄1-28号"},{"poiid":"B2094757D06AA3F84393","title":"中虹花园丽都苑","lon":"121.46764","lat":"31.28512","category":"47","category_name":"住宅区","address":"上海市虹口区凉城路489号(近广灵四路)"},{"poiid":"B2094757D66BA2F54199","title":"满庭芳","lon":"121.46620166347","lat":"31.284886218488","category":"77","category_name":"湖南菜","address":"虹口区广粤路199号(近广灵四路)"},{"poiid":"B2094655D36CA7F4479C","title":"广中路广粤路","lon":"121.4664","lat":"31.28015","category":"38","category_name":"公交车站","address":""},{"poiid":"B2094757D16EA0FE4592","title":"彭江医院","lon":"121.461797103","lat":"31.284377714","category":"162","category_name":"医院","address":"上海市闸北区彭江路51号"},{"poiid":"B2094654D56DA5F4479C","title":"欣武大厦","lon":"121.466377","lat":"31.284776","category":"46","category_name":"楼宇","address":"上海市虹口区广中路694号"},{"poiid":"B2094655D265ABFF4093","title":"昌国商务楼","lon":"121.46334","lat":"31.2826","category":"46","category_name":"楼宇","address":"广粤路95-4临"},{"poiid":"B2094655D265A3FB4192","title":"同茂兴面菜馆","lon":"121.46502","lat":"31.28217","category":"68","category_name":"快餐厅","address":"虹口区广粤路51号A18(近广中路)"},{"poiid":"B2094751DA69A2F44693","title":"维也纳国际酒店（虹口店）","lon":"121.465363","lat":"31.286011","category":"251","category_name":"出行住宿","address":"广粤路279号"},{"poiid":"B2094655D265A7FA4892","title":"上海第五季","lon":"121.4653","lat":"31.28294","category":"47","category_name":"住宅区","address":"上海第五季位于虹口广粤路108号"},{"poiid":"B2094654D56DA5FE4198","title":"上海市虹口高级中学(西门)","lon":"121.46584","lat":"31.28333","category":"678","category_name":"学校大门","address":"广粤路138"},{"poiid":"B2094750D26FA5FF499A","title":"上海市第六人民医院","lon":"121.465888","lat":"31.283666","category":"162","category_name":"医院","address":null},{"poiid":"B2094757D06FABFA4193","title":"新新潘晓婷撞球俱乐部凉城店","lon":"121.46922457","lat":"31.281813567","category":"171","category_name":"台球厅","address":"虹口区凉城路151号3楼(近广中路)"},{"poiid":"B2094750D76FA7FB4299","title":"绿廷苑酒店","lon":"121.465","lat":"31.2793","category":"76","category_name":"上海菜","address":"虹口区株洲路357号(近广中路)"},{"poiid":"B2094655D26DAAFB4293","title":"良友(广灵四路)","lon":"121.4634","lat":"31.2854","category":"117","category_name":"便民商店/便利店","address":"广灵四路828号2单元"},{"poiid":"B2094654D56DA5FD4998","title":"中虹花园翡翠园","lon":"121.46818","lat":"31.28527","category":"47","category_name":"住宅区","address":"广灵四路561弄"},{"poiid":"B2094757D168A1FD4093","title":"梦湖苑","lon":"121.4618361","lat":"31.283070686","category":"500","category_name":"未知分类","address":"上海市广灵四路881弄广粤路口"},{"poiid":"B2094654D56CA3F84592","title":"上工新邨","lon":"121.462","lat":"31.2819","category":"47","category_name":"住宅区","address":"共和新路1895弄"},{"poiid":"B2094654D56DA5FC469C","title":"环城公寓","lon":"121.46604","lat":"31.281115","category":"47","category_name":"住宅区","address":"广中路581弄1-17号"},{"poiid":"B2094757D165A1FE469A","title":"518凉城路","lon":"121.4667201","lat":"31.284107708","category":"38","category_name":"公交车站","address":"上海凉城路广灵四路"},{"poiid":"B2094654DB6BA3FF4798","title":"恒源大楼","lon":"121.46326367537","lat":"31.28600737924","category":"47","category_name":"住宅区","address":"上海广中路696号"},{"poiid":"B2094757D66DA3F5469B","title":"垚森商务楼","lon":"121.462724683","lat":"31.2834194439","category":"252","category_name":"楼宇机构","address":"上海广粤路95号10栋"},{"poiid":"B2094757D169A3FD4993","title":"虹韵花园","lon":"121.4663141","lat":"31.283404693","category":"47","category_name":"住宅区","address":"上海市虹口区广粤路"},{"poiid":"B2094757D66CAAFF469D","title":"伊晨餐厅","lon":"121.46723","lat":"31.28","category":"76","category_name":"上海菜","address":"虹口区广中路551号(近广粤路)"},{"poiid":"B2094655D26FA1F44499","title":"广粤路53弄小区(东门)","lon":"121.46496","lat":"31.28155","category":"47","category_name":"住宅区","address":"广粤路53弄1-43号"},{"poiid":"B2094654D56DA5FF4192","title":"指压按摩足浴","lon":"121.4653","lat":"31.28408","category":"149","category_name":"洗浴推拿场所","address":"广粤路169号"},{"poiid":"B2094757D065AAFC499D","title":"虹口宜家-海叶新苑","lon":"121.463729","lat":"31.281259","category":"500","category_name":"未知分类","address":"上海广中路633弄"},{"poiid":"B2094751DA68A1FD4599","title":"宝山万达广场","lon":"121.4681989","lat":"31.2853212","category":"249","category_name":"购物服务","address":"一二八纪念路"},{"poiid":"B2094757D165A0FE419A","title":"呷哺呷哺(第二百家门店)","lon":"121.466893503","lat":"31.2843911142","category":"247","category_name":"餐饮美食","address":"上海多伦路四川北路"},{"poiid":"B2094757D06AA6FC429F","title":"中虹花园—锦绣文华","lon":"121.468967846","lat":"31.2816135934","category":"500","category_name":"未知分类","address":"上海凉城路139弄"},{"poiid":"B2094655D36CA5F5459C","title":"北宝兴路广中路","lon":"121.46127","lat":"31.28164","category":"38","category_name":"公交车站","address":""},{"poiid":"B2094750DA6DA7FF439A","title":"人民武装学校","lon":"121.464294","lat":"31.285783","category":"253","category_name":"校园生活","address":null},{"poiid":"B2094655D26BA4FE4592","title":"花鸟市场","lon":"121.46319","lat":"31.28122","category":"117","category_name":"便民商店/便利店","address":""},{"poiid":"B2094757D065A1FF439F","title":"上海东方票务有限公司","lon":"121.45801984","lat":"31.282768626","category":"46","category_name":"楼宇","address":"上海平型关路1220号海上文化中心1号楼1层"},{"poiid":"B2094757D66CA0FC409A","title":"东北大菜馆(旺秀餐饮)","lon":"121.46347","lat":"31.27503","category":"82","category_name":"东北菜","address":"闸北区延长路2号(近上海大学)"}]