[{"poiid":"B2094757D06FA7FD4392","title":"上海工程技术大学(松江校区)","lon":"121.20435571","lat":"31.05668136","category":"52","category_name":"高等院校","address":"松江区松江龙腾路333号"},{"poiid":"B2094757D065A5F5439D","title":"华东政法大学明法楼","lon":"121.19792175","lat":"31.05569025","category":"500","category_name":"未知分类","address":"上海松江大学城"},{"poiid":"B2094655D26FABFC4699","title":"上海工程技术大学图书馆","lon":"121.20449","lat":"31.05704","category":"181","category_name":"图书馆","address":"松江区龙腾路333号上海工程技术大学内"},{"poiid":"B2094757D06EAAFF439A","title":"松江大学城四期学生公寓","lon":"121.199562277","lat":"31.0495922066","category":"253","category_name":"校园生活","address":"上海松江区松江大学城文汇路1000弄"},{"poiid":"B2094757D06FA0F4479A","title":"松江大学城三期寝室","lon":"121.20460969","lat":"31.050815503","category":"253","category_name":"校园生活","address":"上海文汇路800弄"},{"poiid":"B2094757D06FA2FD409C","title":"松江大学城五期学生公寓","lon":"121.1945343","lat":"31.050447464","category":"253","category_name":"校园生活","address":"上海松江区松江大学城广富林路3455弄"},{"poiid":"B2094654DB6DA4FF499B","title":"华东政法学院(广富林路)","lon":"121.1954","lat":"31.05699","category":"671","category_name":"高校中心点","address":""},{"poiid":"B2094757D16EA3F4409B","title":"大学城四期宿舍","lon":"121.198118996","lat":"31.0515447195","category":"252","category_name":"楼宇机构","address":"上海松江大学城四期"},{"poiid":"B2094757D06FA6FF4593","title":"华东政法大学明法楼东楼","lon":"121.200904846","lat":"31.0555477142","category":"253","category_name":"校园生活","address":"上海近龙源路555号"},{"poiid":"B2094750D56FA4FD4692","title":"华东政法大学图书馆（松江校区）","lon":"121.197219","lat":"31.055059","category":"252","category_name":"楼宇机构","address":"龙源路555号"},{"poiid":"B2094757D068A4FA489F","title":"华东政法大学食堂(松江校区)","lon":"121.19753","lat":"31.05492","category":"68","category_name":"快餐厅","address":"松江区华东政法学院松江校区"},{"poiid":"B2094757D068A4F84199","title":"文汇路","lon":"121.202765","lat":"31.049669","category":"260","category_name":"其他","address":"上海市松江区文汇路"},{"poiid":"B2094757D66CA5F9439A","title":"广富林遗址文化公园","lon":"121.19717419","lat":"31.057697176","category":"196","category_name":"公园","address":"上海近郊松江  "},{"poiid":"B2094757D069A2FC439A","title":"上海工程技术大学C楼","lon":"121.20699779","lat":"31.054935392","category":"500","category_name":"未知分类","address":"上海工程技术大学C楼"},{"poiid":"B2094757D06FA0F9449C","title":"肯德基 KFC (大学城店)","lon":"121.20284","lat":"31.049604","category":"68","category_name":"快餐厅","address":"松江区文汇路818号(近龙源路)"},{"poiid":"B2094757D06BA5FE4193","title":"上海工程技术大学实训楼1号楼","lon":"121.20179956","lat":"31.060506296","category":"500","category_name":"未知分类","address":"上海工程技术大学实训楼1号楼"},{"poiid":"B2094757D069A2FA439C","title":"华东政法大学集英楼","lon":"121.20215606","lat":"31.055418014","category":"253","category_name":"校园生活","address":"上海近松江区龙源路555号"},{"poiid":"B2094757D068A0F4419D","title":"甜满多","lon":"121.199608396","lat":"31.0500254036","category":"113","category_name":"冷饮店","address":"松江区大学城4期文汇路988弄(尚网旁)"},{"poiid":"B2094757D068A5FD459F","title":"华东政法大学汇贤楼","lon":"121.20063781","lat":"31.055269241","category":"253","category_name":"校园生活","address":"上海市松江区龙源路555号附近"},{"poiid":"B2094757D06BA4FF489F","title":"上海工程技术大学体育馆","lon":"121.202497","lat":"31.054414","category":"220","category_name":"运动场所","address":"上海松江区龙腾路333号工程技术大学内"},{"poiid":"B2094655D265A4FB4498","title":"松江大学城1000弄","lon":"121.19776","lat":"31.04959","category":"52","category_name":"高等院校","address":"文汇路1000弄"},{"poiid":"B2094757D068A7FB4493","title":"上海工程技術大學教學樓E樓","lon":"121.20913696","lat":"31.056999206","category":"253","category_name":"校园生活","address":"上海龍騰路333號"},{"poiid":"B2094654DB6EA0FE449D","title":"广富林遗址","lon":"121.19608","lat":"31.06449","category":"250","category_name":"公园户外","address":""},{"poiid":"B2094655D26FAAFA469D","title":"上海工程技术大学行政楼","lon":"121.20844","lat":"31.05723","category":"52","category_name":"高等院校","address":"腾飞东路"},{"poiid":"B2094757D064AAFB429E","title":"华东政法大学明珠楼","lon":"121.2053139","lat":"31.050214021","category":"181","category_name":"图书馆","address":"上海华东政法大学"},{"poiid":"B2094757D16BA6F9429F","title":"工程大艺术楼","lon":"121.205250196","lat":"31.0538731693","category":"500","category_name":"未知分类","address":"上海市松江区龙源路"},{"poiid":"B2094757D065A7F8409B","title":"华东政法大学明镜楼","lon":"121.19636219","lat":"31.053568162","category":"500","category_name":"未知分类","address":"上海龙源路555号"},{"poiid":"B2094757D069A6F44899","title":"上海工程技术大学 教学F楼","lon":"121.206471074","lat":"31.0557901524","category":"253","category_name":"校园生活","address":"上海龙腾路333号"},{"poiid":"B2094654DB6EA0FE459B","title":"山水景苑","lon":"121.2034","lat":"31.061382","category":"47","category_name":"住宅区","address":"龙源路1208弄"},{"poiid":"B2094757D06AABFE449E","title":"上海工程技术大学 教学A楼","lon":"121.201325","lat":"31.060008","category":"253","category_name":"校园生活","address":"上海龙腾路333号"},{"poiid":"B2094757D068A0FC459A","title":"宝寿司(松江大学城店)","lon":"121.20033521","lat":"31.049643199","category":"95","category_name":"日本料理","address":"松江区文汇路928弄102室(龙源路口)"},{"poiid":"B2094655D264A7FA4292","title":"复地香堤苑","lon":"121.193935","lat":"31.057255","category":"47","category_name":"住宅区","address":"上海市松江区三新路1755号"},{"poiid":"B2094757D065A5FE409D","title":"上海工程技术大学志宏堂","lon":"121.2001337","lat":"31.051795228","category":"253","category_name":"校园生活","address":"上海工程技术大学图书馆"},{"poiid":"B2094757D169A5F94692","title":"辰花路草莓基地","lon":"121.205332196","lat":"31.0615893344","category":"500","category_name":"未知分类","address":"上海市松江区龙源路"},{"poiid":"B2094655D36CA1FF4893","title":"龙源路广富林路","lon":"121.20092","lat":"31.05811","category":"38","category_name":"公交车站","address":""},{"poiid":"B2094757D068A1FA499F","title":"Friends茶餐厅(大学城二店)","lon":"121.19701215","lat":"31.049912409","category":"68","category_name":"快餐厅","address":"松江区大学城四期1000弄门口华兴饭团斜对面(大学路锦创路)"},{"poiid":"B2094753D66CA5FB429E","title":"布丁酒店(上海松江大学城欢乐谷店)","lon":"121.203786","lat":"31.06043","category":"216","category_name":"经济型连锁酒店","address":"龙源路1208弄148号"},{"poiid":"B2094654DB64A0FC439A","title":"上海工程技术大学(腾飞北路)","lon":"121.20436","lat":"31.05667","category":"52","category_name":"高等院校","address":"松江区龙腾路333"},{"poiid":"B2094757D568A7FE469C","title":"大业领地","lon":"121.19519421706","lat":"31.058753803848","category":"47","category_name":"住宅区","address":"松江区工业区鼎源路广富林路路口"},{"poiid":"B2094757D16FA0FD4693","title":"华政一食堂","lon":"121.197728","lat":"31.055719","category":"247","category_name":"餐饮美食","address":"上海华东政法大学松江校区"},{"poiid":"B2094757DA6FA2F8439C","title":"上海工程技术大学教学楼D楼","lon":"121.2040052","lat":"31.0573242","category":"253","category_name":"校园生活","address":"上海市松江区文汇路800弄"},{"poiid":"B2094757D16BA4F44899","title":"华政三百人报告厅","lon":"121.198997196","lat":"31.0563292218","category":"500","category_name":"未知分类","address":"上海华东政法大学明镜楼"},{"poiid":"B2094655D265A0F5499B","title":"华政第一食堂","lon":"121.20064","lat":"31.05527","category":"257","category_name":"中餐厅","address":"龙源路555号华东政法大学内"},{"poiid":"B2094757D168ABF94392","title":"上海工程技术大学图文信息中心二报","lon":"121.2044568","lat":"31.056795399","category":"500","category_name":"未知分类","address":"上海文汇路"},{"poiid":"B2094751D26FA0FB499C","title":"徐家汇","lon":"121.203697","lat":"31.056823","category":"500","category_name":"未知分类","address":"地铁站"},{"poiid":"B2094757D569A2FB469A","title":"易捷便利店","lon":"121.20095676","lat":"31.06822266","category":"117","category_name":"便民商店/便利店","address":"中国上海市松江区"},{"poiid":"B2094757D66EA7FD4098","title":"Enovos Coffee","lon":"121.198757296","lat":"31.068253277","category":"500","category_name":"未知分类","address":"上海松江大学城三期工商银行楼上"},{"poiid":"B2094757D068A7FF419D","title":"川菜映象(三期店)","lon":"121.20335","lat":"31.04952","category":"71","category_name":"四川菜","address":"上海近郊松江区大学城文汇路838弄101号(近东北一家人店)"},{"poiid":"B2094757D16BABF9499B","title":"华政松江校区体育场","lon":"121.200567","lat":"31.055305","category":"500","category_name":"未知分类","address":"上海华政松江校区龙源路广富林路"},{"poiid":"B2094655D268A4FE4393","title":"上海工程技术大学(西一门)","lon":"121.20114","lat":"31.05544","category":"52","category_name":"高等院校","address":""},{"poiid":"B2094757D06FA7FD4392","title":"上海工程技术大学(松江校区)","lon":"121.20435571","lat":"31.05668136","category":"52","category_name":"高等院校","address":"松江区松江龙腾路333号"},{"poiid":"B2094757D065A5F5439D","title":"华东政法大学明法楼","lon":"121.19792175","lat":"31.05569025","category":"500","category_name":"未知分类","address":"上海松江大学城"},{"poiid":"B2094655D26FABFC4699","title":"上海工程技术大学图书馆","lon":"121.20449","lat":"31.05704","category":"181","category_name":"图书馆","address":"松江区龙腾路333号上海工程技术大学内"},{"poiid":"B2094757D06EAAFF439A","title":"松江大学城四期学生公寓","lon":"121.199562277","lat":"31.0495922066","category":"253","category_name":"校园生活","address":"上海松江区松江大学城文汇路1000弄"},{"poiid":"B2094757D06FA0F4479A","title":"松江大学城三期寝室","lon":"121.20460969","lat":"31.050815503","category":"253","category_name":"校园生活","address":"上海文汇路800弄"},{"poiid":"B2094757D06FA2FD409C","title":"松江大学城五期学生公寓","lon":"121.1945343","lat":"31.050447464","category":"253","category_name":"校园生活","address":"上海松江区松江大学城广富林路3455弄"},{"poiid":"B2094654DB6DA4FF499B","title":"华东政法学院(广富林路)","lon":"121.1954","lat":"31.05699","category":"671","category_name":"高校中心点","address":""},{"poiid":"B2094757D16EA3F4409B","title":"大学城四期宿舍","lon":"121.198118996","lat":"31.0515447195","category":"252","category_name":"楼宇机构","address":"上海松江大学城四期"},{"poiid":"B2094757D06FA6FF4593","title":"华东政法大学明法楼东楼","lon":"121.200904846","lat":"31.0555477142","category":"253","category_name":"校园生活","address":"上海近龙源路555号"},{"poiid":"B2094750D56FA4FD4692","title":"华东政法大学图书馆（松江校区）","lon":"121.197219","lat":"31.055059","category":"252","category_name":"楼宇机构","address":"龙源路555号"},{"poiid":"B2094757D068A4FA489F","title":"华东政法大学食堂(松江校区)","lon":"121.19753","lat":"31.05492","category":"68","category_name":"快餐厅","address":"松江区华东政法学院松江校区"},{"poiid":"B2094757D068A4F84199","title":"文汇路","lon":"121.202765","lat":"31.049669","category":"260","category_name":"其他","address":"上海市松江区文汇路"},{"poiid":"B2094757D66CA5F9439A","title":"广富林遗址文化公园","lon":"121.19717419","lat":"31.057697176","category":"196","category_name":"公园","address":"上海近郊松江  "},{"poiid":"B2094757D069A2FC439A","title":"上海工程技术大学C楼","lon":"121.20699779","lat":"31.054935392","category":"500","category_name":"未知分类","address":"上海工程技术大学C楼"},{"poiid":"B2094757D06FA0F9449C","title":"肯德基 KFC (大学城店)","lon":"121.20284","lat":"31.049604","category":"68","category_name":"快餐厅","address":"松江区文汇路818号(近龙源路)"},{"poiid":"B2094757D06BA5FE4193","title":"上海工程技术大学实训楼1号楼","lon":"121.20179956","lat":"31.060506296","category":"500","category_name":"未知分类","address":"上海工程技术大学实训楼1号楼"},{"poiid":"B2094757D069A2FA439C","title":"华东政法大学集英楼","lon":"121.20215606","lat":"31.055418014","category":"253","category_name":"校园生活","address":"上海近松江区龙源路555号"},{"poiid":"B2094757D068A0F4419D","title":"甜满多","lon":"121.199608396","lat":"31.0500254036","category":"113","category_name":"冷饮店","address":"松江区大学城4期文汇路988弄(尚网旁)"},{"poiid":"B2094757D068A5FD459F","title":"华东政法大学汇贤楼","lon":"121.20063781","lat":"31.055269241","category":"253","category_name":"校园生活","address":"上海市松江区龙源路555号附近"},{"poiid":"B2094757D06BA4FF489F","title":"上海工程技术大学体育馆","lon":"121.202497","lat":"31.054414","category":"220","category_name":"运动场所","address":"上海松江区龙腾路333号工程技术大学内"},{"poiid":"B2094655D265A4FB4498","title":"松江大学城1000弄","lon":"121.19776","lat":"31.04959","category":"52","category_name":"高等院校","address":"文汇路1000弄"},{"poiid":"B2094757D068A7FB4493","title":"上海工程技術大學教學樓E樓","lon":"121.20913696","lat":"31.056999206","category":"253","category_name":"校园生活","address":"上海龍騰路333號"},{"poiid":"B2094654DB6EA0FE449D","title":"广富林遗址","lon":"121.19608","lat":"31.06449","category":"250","category_name":"公园户外","address":""},{"poiid":"B2094655D26FAAFA469D","title":"上海工程技术大学行政楼","lon":"121.20844","lat":"31.05723","category":"52","category_name":"高等院校","address":"腾飞东路"},{"poiid":"B2094757D064AAFB429E","title":"华东政法大学明珠楼","lon":"121.2053139","lat":"31.050214021","category":"181","category_name":"图书馆","address":"上海华东政法大学"},{"poiid":"B2094757D16BA6F9429F","title":"工程大艺术楼","lon":"121.205250196","lat":"31.0538731693","category":"500","category_name":"未知分类","address":"上海市松江区龙源路"},{"poiid":"B2094757D065A7F8409B","title":"华东政法大学明镜楼","lon":"121.19636219","lat":"31.053568162","category":"500","category_name":"未知分类","address":"上海龙源路555号"},{"poiid":"B2094757D069A6F44899","title":"上海工程技术大学 教学F楼","lon":"121.206471074","lat":"31.0557901524","category":"253","category_name":"校园生活","address":"上海龙腾路333号"},{"poiid":"B2094654DB6EA0FE459B","title":"山水景苑","lon":"121.2034","lat":"31.061382","category":"47","category_name":"住宅区","address":"龙源路1208弄"},{"poiid":"B2094757D06AABFE449E","title":"上海工程技术大学 教学A楼","lon":"121.201325","lat":"31.060008","category":"253","category_name":"校园生活","address":"上海龙腾路333号"},{"poiid":"B2094757D068A0FC459A","title":"宝寿司(松江大学城店)","lon":"121.20033521","lat":"31.049643199","category":"95","category_name":"日本料理","address":"松江区文汇路928弄102室(龙源路口)"},{"poiid":"B2094655D264A7FA4292","title":"复地香堤苑","lon":"121.193935","lat":"31.057255","category":"47","category_name":"住宅区","address":"上海市松江区三新路1755号"},{"poiid":"B2094757D065A5FE409D","title":"上海工程技术大学志宏堂","lon":"121.2001337","lat":"31.051795228","category":"253","category_name":"校园生活","address":"上海工程技术大学图书馆"},{"poiid":"B2094757D169A5F94692","title":"辰花路草莓基地","lon":"121.205332196","lat":"31.0615893344","category":"500","category_name":"未知分类","address":"上海市松江区龙源路"},{"poiid":"B2094655D36CA1FF4893","title":"龙源路广富林路","lon":"121.20092","lat":"31.05811","category":"38","category_name":"公交车站","address":""},{"poiid":"B2094757D068A1FA499F","title":"Friends茶餐厅(大学城二店)","lon":"121.19701215","lat":"31.049912409","category":"68","category_name":"快餐厅","address":"松江区大学城四期1000弄门口华兴饭团斜对面(大学路锦创路)"},{"poiid":"B2094753D66CA5FB429E","title":"布丁酒店(上海松江大学城欢乐谷店)","lon":"121.203786","lat":"31.06043","category":"216","category_name":"经济型连锁酒店","address":"龙源路1208弄148号"},{"poiid":"B2094654DB64A0FC439A","title":"上海工程技术大学(腾飞北路)","lon":"121.20436","lat":"31.05667","category":"52","category_name":"高等院校","address":"松江区龙腾路333"},{"poiid":"B2094757D568A7FE469C","title":"大业领地","lon":"121.19519421706","lat":"31.058753803848","category":"47","category_name":"住宅区","address":"松江区工业区鼎源路广富林路路口"},{"poiid":"B2094757D16FA0FD4693","title":"华政一食堂","lon":"121.197728","lat":"31.055719","category":"247","category_name":"餐饮美食","address":"上海华东政法大学松江校区"},{"poiid":"B2094757DA6FA2F8439C","title":"上海工程技术大学教学楼D楼","lon":"121.2040052","lat":"31.0573242","category":"253","category_name":"校园生活","address":"上海市松江区文汇路800弄"},{"poiid":"B2094757D16BA4F44899","title":"华政三百人报告厅","lon":"121.198997196","lat":"31.0563292218","category":"500","category_name":"未知分类","address":"上海华东政法大学明镜楼"},{"poiid":"B2094655D265A0F5499B","title":"华政第一食堂","lon":"121.20064","lat":"31.05527","category":"257","category_name":"中餐厅","address":"龙源路555号华东政法大学内"},{"poiid":"B2094757D168ABF94392","title":"上海工程技术大学图文信息中心二报","lon":"121.2044568","lat":"31.056795399","category":"500","category_name":"未知分类","address":"上海文汇路"},{"poiid":"B2094751D26FA0FB499C","title":"徐家汇","lon":"121.203697","lat":"31.056823","category":"500","category_name":"未知分类","address":"地铁站"},{"poiid":"B2094757D569A2FB469A","title":"易捷便利店","lon":"121.20095676","lat":"31.06822266","category":"117","category_name":"便民商店/便利店","address":"中国上海市松江区"},{"poiid":"B2094757D66EA7FD4098","title":"Enovos Coffee","lon":"121.198757296","lat":"31.068253277","category":"500","category_name":"未知分类","address":"上海松江大学城三期工商银行楼上"},{"poiid":"B2094757D068A7FF419D","title":"川菜映象(三期店)","lon":"121.20335","lat":"31.04952","category":"71","category_name":"四川菜","address":"上海近郊松江区大学城文汇路838弄101号(近东北一家人店)"},{"poiid":"B2094757D16BABF9499B","title":"华政松江校区体育场","lon":"121.200567","lat":"31.055305","category":"500","category_name":"未知分类","address":"上海华政松江校区龙源路广富林路"},{"poiid":"B2094655D268A4FE4393","title":"上海工程技术大学(西一门)","lon":"121.20114","lat":"31.05544","category":"52","category_name":"高等院校","address":""},{"poiid":"B2094757D06FA7FD4392","title":"上海工程技术大学(松江校区)","lon":"121.20435571","lat":"31.05668136","category":"52","category_name":"高等院校","address":"松江区松江龙腾路333号"},{"poiid":"B2094757D065A5F5439D","title":"华东政法大学明法楼","lon":"121.19792175","lat":"31.05569025","category":"500","category_name":"未知分类","address":"上海松江大学城"},{"poiid":"B2094655D26FABFC4699","title":"上海工程技术大学图书馆","lon":"121.20449","lat":"31.05704","category":"181","category_name":"图书馆","address":"松江区龙腾路333号上海工程技术大学内"},{"poiid":"B2094757D06EAAFF439A","title":"松江大学城四期学生公寓","lon":"121.199562277","lat":"31.0495922066","category":"253","category_name":"校园生活","address":"上海松江区松江大学城文汇路1000弄"},{"poiid":"B2094757D06FA0F4479A","title":"松江大学城三期寝室","lon":"121.20460969","lat":"31.050815503","category":"253","category_name":"校园生活","address":"上海文汇路800弄"},{"poiid":"B2094757D06FA2FD409C","title":"松江大学城五期学生公寓","lon":"121.1945343","lat":"31.050447464","category":"253","category_name":"校园生活","address":"上海松江区松江大学城广富林路3455弄"},{"poiid":"B2094654DB6DA4FF499B","title":"华东政法学院(广富林路)","lon":"121.1954","lat":"31.05699","category":"671","category_name":"高校中心点","address":""},{"poiid":"B2094757D16EA3F4409B","title":"大学城四期宿舍","lon":"121.198118996","lat":"31.0515447195","category":"252","category_name":"楼宇机构","address":"上海松江大学城四期"},{"poiid":"B2094757D06FA6FF4593","title":"华东政法大学明法楼东楼","lon":"121.200904846","lat":"31.0555477142","category":"253","category_name":"校园生活","address":"上海近龙源路555号"},{"poiid":"B2094750D56FA4FD4692","title":"华东政法大学图书馆（松江校区）","lon":"121.197219","lat":"31.055059","category":"252","category_name":"楼宇机构","address":"龙源路555号"},{"poiid":"B2094757D068A4FA489F","title":"华东政法大学食堂(松江校区)","lon":"121.19753","lat":"31.05492","category":"68","category_name":"快餐厅","address":"松江区华东政法学院松江校区"},{"poiid":"B2094757D068A4F84199","title":"文汇路","lon":"121.202765","lat":"31.049669","category":"260","category_name":"其他","address":"上海市松江区文汇路"},{"poiid":"B2094757D66CA5F9439A","title":"广富林遗址文化公园","lon":"121.19717419","lat":"31.057697176","category":"196","category_name":"公园","address":"上海近郊松江  "},{"poiid":"B2094757D069A2FC439A","title":"上海工程技术大学C楼","lon":"121.20699779","lat":"31.054935392","category":"500","category_name":"未知分类","address":"上海工程技术大学C楼"},{"poiid":"B2094757D06FA0F9449C","title":"肯德基 KFC (大学城店)","lon":"121.20284","lat":"31.049604","category":"68","category_name":"快餐厅","address":"松江区文汇路818号(近龙源路)"},{"poiid":"B2094757D06BA5FE4193","title":"上海工程技术大学实训楼1号楼","lon":"121.20179956","lat":"31.060506296","category":"500","category_name":"未知分类","address":"上海工程技术大学实训楼1号楼"},{"poiid":"B2094757D069A2FA439C","title":"华东政法大学集英楼","lon":"121.20215606","lat":"31.055418014","category":"253","category_name":"校园生活","address":"上海近松江区龙源路555号"},{"poiid":"B2094757D068A0F4419D","title":"甜满多","lon":"121.199608396","lat":"31.0500254036","category":"113","category_name":"冷饮店","address":"松江区大学城4期文汇路988弄(尚网旁)"},{"poiid":"B2094757D068A5FD459F","title":"华东政法大学汇贤楼","lon":"121.20063781","lat":"31.055269241","category":"253","category_name":"校园生活","address":"上海市松江区龙源路555号附近"},{"poiid":"B2094757D06BA4FF489F","title":"上海工程技术大学体育馆","lon":"121.202497","lat":"31.054414","category":"220","category_name":"运动场所","address":"上海松江区龙腾路333号工程技术大学内"},{"poiid":"B2094655D265A4FB4498","title":"松江大学城1000弄","lon":"121.19776","lat":"31.04959","category":"52","category_name":"高等院校","address":"文汇路1000弄"},{"poiid":"B2094757D068A7FB4493","title":"上海工程技術大學教學樓E樓","lon":"121.20913696","lat":"31.056999206","category":"253","category_name":"校园生活","address":"上海龍騰路333號"},{"poiid":"B2094654DB6EA0FE449D","title":"广富林遗址","lon":"121.19608","lat":"31.06449","category":"250","category_name":"公园户外","address":""},{"poiid":"B2094655D26FAAFA469D","title":"上海工程技术大学行政楼","lon":"121.20844","lat":"31.05723","category":"52","category_name":"高等院校","address":"腾飞东路"},{"poiid":"B2094757D064AAFB429E","title":"华东政法大学明珠楼","lon":"121.2053139","lat":"31.050214021","category":"181","category_name":"图书馆","address":"上海华东政法大学"},{"poiid":"B2094757D16BA6F9429F","title":"工程大艺术楼","lon":"121.205250196","lat":"31.0538731693","category":"500","category_name":"未知分类","address":"上海市松江区龙源路"},{"poiid":"B2094757D065A7F8409B","title":"华东政法大学明镜楼","lon":"121.19636219","lat":"31.053568162","category":"500","category_name":"未知分类","address":"上海龙源路555号"},{"poiid":"B2094757D069A6F44899","title":"上海工程技术大学 教学F楼","lon":"121.206471074","lat":"31.0557901524","category":"253","category_name":"校园生活","address":"上海龙腾路333号"},{"poiid":"B2094654DB6EA0FE459B","title":"山水景苑","lon":"121.2034","lat":"31.061382","category":"47","category_name":"住宅区","address":"龙源路1208弄"},{"poiid":"B2094757D06AABFE449E","title":"上海工程技术大学 教学A楼","lon":"121.201325","lat":"31.060008","category":"253","category_name":"校园生活","address":"上海龙腾路333号"},{"poiid":"B2094757D068A0FC459A","title":"宝寿司(松江大学城店)","lon":"121.20033521","lat":"31.049643199","category":"95","category_name":"日本料理","address":"松江区文汇路928弄102室(龙源路口)"},{"poiid":"B2094655D264A7FA4292","title":"复地香堤苑","lon":"121.193935","lat":"31.057255","category":"47","category_name":"住宅区","address":"上海市松江区三新路1755号"},{"poiid":"B2094757D065A5FE409D","title":"上海工程技术大学志宏堂","lon":"121.2001337","lat":"31.051795228","category":"253","category_name":"校园生活","address":"上海工程技术大学图书馆"},{"poiid":"B2094757D169A5F94692","title":"辰花路草莓基地","lon":"121.205332196","lat":"31.0615893344","category":"500","category_name":"未知分类","address":"上海市松江区龙源路"},{"poiid":"B2094655D36CA1FF4893","title":"龙源路广富林路","lon":"121.20092","lat":"31.05811","category":"38","category_name":"公交车站","address":""},{"poiid":"B2094757D068A1FA499F","title":"Friends茶餐厅(大学城二店)","lon":"121.19701215","lat":"31.049912409","category":"68","category_name":"快餐厅","address":"松江区大学城四期1000弄门口华兴饭团斜对面(大学路锦创路)"},{"poiid":"B2094753D66CA5FB429E","title":"布丁酒店(上海松江大学城欢乐谷店)","lon":"121.203786","lat":"31.06043","category":"216","category_name":"经济型连锁酒店","address":"龙源路1208弄148号"},{"poiid":"B2094654DB64A0FC439A","title":"上海工程技术大学(腾飞北路)","lon":"121.20436","lat":"31.05667","category":"52","category_name":"高等院校","address":"松江区龙腾路333"},{"poiid":"B2094757D568A7FE469C","title":"大业领地","lon":"121.19519421706","lat":"31.058753803848","category":"47","category_name":"住宅区","address":"松江区工业区鼎源路广富林路路口"},{"poiid":"B2094757D16FA0FD4693","title":"华政一食堂","lon":"121.197728","lat":"31.055719","category":"247","category_name":"餐饮美食","address":"上海华东政法大学松江校区"},{"poiid":"B2094757DA6FA2F8439C","title":"上海工程技术大学教学楼D楼","lon":"121.2040052","lat":"31.0573242","category":"253","category_name":"校园生活","address":"上海市松江区文汇路800弄"},{"poiid":"B2094757D16BA4F44899","title":"华政三百人报告厅","lon":"121.198997196","lat":"31.0563292218","category":"500","category_name":"未知分类","address":"上海华东政法大学明镜楼"},{"poiid":"B2094655D265A0F5499B","title":"华政第一食堂","lon":"121.20064","lat":"31.05527","category":"257","category_name":"中餐厅","address":"龙源路555号华东政法大学内"},{"poiid":"B2094757D168ABF94392","title":"上海工程技术大学图文信息中心二报","lon":"121.2044568","lat":"31.056795399","category":"500","category_name":"未知分类","address":"上海文汇路"},{"poiid":"B2094751D26FA0FB499C","title":"徐家汇","lon":"121.203697","lat":"31.056823","category":"500","category_name":"未知分类","address":"地铁站"},{"poiid":"B2094757D569A2FB469A","title":"易捷便利店","lon":"121.20095676","lat":"31.06822266","category":"117","category_name":"便民商店/便利店","address":"中国上海市松江区"},{"poiid":"B2094757D66EA7FD4098","title":"Enovos Coffee","lon":"121.198757296","lat":"31.068253277","category":"500","category_name":"未知分类","address":"上海松江大学城三期工商银行楼上"},{"poiid":"B2094757D068A7FF419D","title":"川菜映象(三期店)","lon":"121.20335","lat":"31.04952","category":"71","category_name":"四川菜","address":"上海近郊松江区大学城文汇路838弄101号(近东北一家人店)"},{"poiid":"B2094757D16BABF9499B","title":"华政松江校区体育场","lon":"121.200567","lat":"31.055305","category":"500","category_name":"未知分类","address":"上海华政松江校区龙源路广富林路"},{"poiid":"B2094655D268A4FE4393","title":"上海工程技术大学(西一门)","lon":"121.20114","lat":"31.05544","category":"52","category_name":"高等院校","address":""},{"poiid":"B2094757D06FA7FD4392","title":"上海工程技术大学(松江校区)","lon":"121.20435571","lat":"31.05668136","category":"52","category_name":"高等院校","address":"松江区松江龙腾路333号"},{"poiid":"B2094757D065A5F5439D","title":"华东政法大学明法楼","lon":"121.19792175","lat":"31.05569025","category":"500","category_name":"未知分类","address":"上海松江大学城"},{"poiid":"B2094655D26FABFC4699","title":"上海工程技术大学图书馆","lon":"121.20449","lat":"31.05704","category":"181","category_name":"图书馆","address":"松江区龙腾路333号上海工程技术大学内"},{"poiid":"B2094757D06EAAFF439A","title":"松江大学城四期学生公寓","lon":"121.199562277","lat":"31.0495922066","category":"253","category_name":"校园生活","address":"上海松江区松江大学城文汇路1000弄"},{"poiid":"B2094757D06FA0F4479A","title":"松江大学城三期寝室","lon":"121.20460969","lat":"31.050815503","category":"253","category_name":"校园生活","address":"上海文汇路800弄"},{"poiid":"B2094757D06FA2FD409C","title":"松江大学城五期学生公寓","lon":"121.1945343","lat":"31.050447464","category":"253","category_name":"校园生活","address":"上海松江区松江大学城广富林路3455弄"},{"poiid":"B2094654DB6DA4FF499B","title":"华东政法学院(广富林路)","lon":"121.1954","lat":"31.05699","category":"671","category_name":"高校中心点","address":""},{"poiid":"B2094757D16EA3F4409B","title":"大学城四期宿舍","lon":"121.198118996","lat":"31.0515447195","category":"252","category_name":"楼宇机构","address":"上海松江大学城四期"},{"poiid":"B2094757D06FA6FF4593","title":"华东政法大学明法楼东楼","lon":"121.200904846","lat":"31.0555477142","category":"253","category_name":"校园生活","address":"上海近龙源路555号"},{"poiid":"B2094750D56FA4FD4692","title":"华东政法大学图书馆（松江校区）","lon":"121.197219","lat":"31.055059","category":"252","category_name":"楼宇机构","address":"龙源路555号"},{"poiid":"B2094757D068A4FA489F","title":"华东政法大学食堂(松江校区)","lon":"121.19753","lat":"31.05492","category":"68","category_name":"快餐厅","address":"松江区华东政法学院松江校区"},{"poiid":"B2094757D068A4F84199","title":"文汇路","lon":"121.202765","lat":"31.049669","category":"260","category_name":"其他","address":"上海市松江区文汇路"},{"poiid":"B2094757D66CA5F9439A","title":"广富林遗址文化公园","lon":"121.19717419","lat":"31.057697176","category":"196","category_name":"公园","address":"上海近郊松江  "},{"poiid":"B2094757D069A2FC439A","title":"上海工程技术大学C楼","lon":"121.20699779","lat":"31.054935392","category":"500","category_name":"未知分类","address":"上海工程技术大学C楼"},{"poiid":"B2094757D06FA0F9449C","title":"肯德基 KFC (大学城店)","lon":"121.20284","lat":"31.049604","category":"68","category_name":"快餐厅","address":"松江区文汇路818号(近龙源路)"},{"poiid":"B2094757D06BA5FE4193","title":"上海工程技术大学实训楼1号楼","lon":"121.20179956","lat":"31.060506296","category":"500","category_name":"未知分类","address":"上海工程技术大学实训楼1号楼"},{"poiid":"B2094757D069A2FA439C","title":"华东政法大学集英楼","lon":"121.20215606","lat":"31.055418014","category":"253","category_name":"校园生活","address":"上海近松江区龙源路555号"},{"poiid":"B2094757D068A0F4419D","title":"甜满多","lon":"121.199608396","lat":"31.0500254036","category":"113","category_name":"冷饮店","address":"松江区大学城4期文汇路988弄(尚网旁)"},{"poiid":"B2094757D068A5FD459F","title":"华东政法大学汇贤楼","lon":"121.20063781","lat":"31.055269241","category":"253","category_name":"校园生活","address":"上海市松江区龙源路555号附近"},{"poiid":"B2094757D06BA4FF489F","title":"上海工程技术大学体育馆","lon":"121.202497","lat":"31.054414","category":"220","category_name":"运动场所","address":"上海松江区龙腾路333号工程技术大学内"},{"poiid":"B2094655D265A4FB4498","title":"松江大学城1000弄","lon":"121.19776","lat":"31.04959","category":"52","category_name":"高等院校","address":"文汇路1000弄"},{"poiid":"B2094757D068A7FB4493","title":"上海工程技術大學教學樓E樓","lon":"121.20913696","lat":"31.056999206","category":"253","category_name":"校园生活","address":"上海龍騰路333號"},{"poiid":"B2094654DB6EA0FE449D","title":"广富林遗址","lon":"121.19608","lat":"31.06449","category":"250","category_name":"公园户外","address":""},{"poiid":"B2094655D26FAAFA469D","title":"上海工程技术大学行政楼","lon":"121.20844","lat":"31.05723","category":"52","category_name":"高等院校","address":"腾飞东路"},{"poiid":"B2094757D064AAFB429E","title":"华东政法大学明珠楼","lon":"121.2053139","lat":"31.050214021","category":"181","category_name":"图书馆","address":"上海华东政法大学"},{"poiid":"B2094757D16BA6F9429F","title":"工程大艺术楼","lon":"121.205250196","lat":"31.0538731693","category":"500","category_name":"未知分类","address":"上海市松江区龙源路"},{"poiid":"B2094757D065A7F8409B","title":"华东政法大学明镜楼","lon":"121.19636219","lat":"31.053568162","category":"500","category_name":"未知分类","address":"上海龙源路555号"},{"poiid":"B2094757D069A6F44899","title":"上海工程技术大学 教学F楼","lon":"121.206471074","lat":"31.0557901524","category":"253","category_name":"校园生活","address":"上海龙腾路333号"},{"poiid":"B2094654DB6EA0FE459B","title":"山水景苑","lon":"121.2034","lat":"31.061382","category":"47","category_name":"住宅区","address":"龙源路1208弄"},{"poiid":"B2094757D06AABFE449E","title":"上海工程技术大学 教学A楼","lon":"121.201325","lat":"31.060008","category":"253","category_name":"校园生活","address":"上海龙腾路333号"},{"poiid":"B2094757D068A0FC459A","title":"宝寿司(松江大学城店)","lon":"121.20033521","lat":"31.049643199","category":"95","category_name":"日本料理","address":"松江区文汇路928弄102室(龙源路口)"},{"poiid":"B2094655D264A7FA4292","title":"复地香堤苑","lon":"121.193935","lat":"31.057255","category":"47","category_name":"住宅区","address":"上海市松江区三新路1755号"},{"poiid":"B2094757D065A5FE409D","title":"上海工程技术大学志宏堂","lon":"121.2001337","lat":"31.051795228","category":"253","category_name":"校园生活","address":"上海工程技术大学图书馆"},{"poiid":"B2094757D169A5F94692","title":"辰花路草莓基地","lon":"121.205332196","lat":"31.0615893344","category":"500","category_name":"未知分类","address":"上海市松江区龙源路"},{"poiid":"B2094655D36CA1FF4893","title":"龙源路广富林路","lon":"121.20092","lat":"31.05811","category":"38","category_name":"公交车站","address":""},{"poiid":"B2094757D068A1FA499F","title":"Friends茶餐厅(大学城二店)","lon":"121.19701215","lat":"31.049912409","category":"68","category_name":"快餐厅","address":"松江区大学城四期1000弄门口华兴饭团斜对面(大学路锦创路)"},{"poiid":"B2094753D66CA5FB429E","title":"布丁酒店(上海松江大学城欢乐谷店)","lon":"121.203786","lat":"31.06043","category":"216","category_name":"经济型连锁酒店","address":"龙源路1208弄148号"},{"poiid":"B2094654DB64A0FC439A","title":"上海工程技术大学(腾飞北路)","lon":"121.20436","lat":"31.05667","category":"52","category_name":"高等院校","address":"松江区龙腾路333"},{"poiid":"B2094757D568A7FE469C","title":"大业领地","lon":"121.19519421706","lat":"31.058753803848","category":"47","category_name":"住宅区","address":"松江区工业区鼎源路广富林路路口"},{"poiid":"B2094757D16FA0FD4693","title":"华政一食堂","lon":"121.197728","lat":"31.055719","category":"247","category_name":"餐饮美食","address":"上海华东政法大学松江校区"},{"poiid":"B2094757DA6FA2F8439C","title":"上海工程技术大学教学楼D楼","lon":"121.2040052","lat":"31.0573242","category":"253","category_name":"校园生活","address":"上海市松江区文汇路800弄"},{"poiid":"B2094757D16BA4F44899","title":"华政三百人报告厅","lon":"121.198997196","lat":"31.0563292218","category":"500","category_name":"未知分类","address":"上海华东政法大学明镜楼"},{"poiid":"B2094655D265A0F5499B","title":"华政第一食堂","lon":"121.20064","lat":"31.05527","category":"257","category_name":"中餐厅","address":"龙源路555号华东政法大学内"},{"poiid":"B2094757D168ABF94392","title":"上海工程技术大学图文信息中心二报","lon":"121.2044568","lat":"31.056795399","category":"500","category_name":"未知分类","address":"上海文汇路"},{"poiid":"B2094751D26FA0FB499C","title":"徐家汇","lon":"121.203697","lat":"31.056823","category":"500","category_name":"未知分类","address":"地铁站"},{"poiid":"B2094757D569A2FB469A","title":"易捷便利店","lon":"121.20095676","lat":"31.06822266","category":"117","category_name":"便民商店/便利店","address":"中国上海市松江区"},{"poiid":"B2094757D66EA7FD4098","title":"Enovos Coffee","lon":"121.198757296","lat":"31.068253277","category":"500","category_name":"未知分类","address":"上海松江大学城三期工商银行楼上"},{"poiid":"B2094757D068A7FF419D","title":"川菜映象(三期店)","lon":"121.20335","lat":"31.04952","category":"71","category_name":"四川菜","address":"上海近郊松江区大学城文汇路838弄101号(近东北一家人店)"},{"poiid":"B2094757D16BABF9499B","title":"华政松江校区体育场","lon":"121.200567","lat":"31.055305","category":"500","category_name":"未知分类","address":"上海华政松江校区龙源路广富林路"},{"poiid":"B2094655D268A4FE4393","title":"上海工程技术大学(西一门)","lon":"121.20114","lat":"31.05544","category":"52","category_name":"高等院校","address":""}]