[{"poiid":"B2094757D068A1F84599","title":"曹路","lon":"121.668468","lat":"31.278657","category":"500","category_name":"未知分类","address":"上海上川路川沙路"},{"poiid":"B2094655D36CA0FD4792","title":"金钻路海松路","lon":"121.67915","lat":"31.27706","category":"38","category_name":"公交车站","address":""},{"poiid":"B2094757D069AAF94393","title":"万科蓝山别墅","lon":"121.6731491","lat":"31.269880294","category":"47","category_name":"住宅区","address":"中国上海市浦东新区金海路3333弄"},{"poiid":"B2094757D16CA1FF419E","title":"龚路","lon":"121.684123","lat":"31.261737","category":"500","category_name":"未知分类","address":"上海市浦东新区川沙路816号(金海路口)"},{"poiid":"B2094757D069A0F4419B","title":"梦奇园海鲜大酒店","lon":"121.66341","lat":"31.2742","category":"260","category_name":"其他","address":"浦东新区曹路镇民雨路390号(民春路)"},{"poiid":"B2094654D569A3FF419E","title":"杉达大学(金海路)","lon":"121.66515","lat":"31.26829","category":"671","category_name":"高校中心点","address":"浦东新区金海路2727号"},{"poiid":"B2094655D36CA0FD489A","title":"金钻路上川路","lon":"121.6756","lat":"31.2823","category":"38","category_name":"公交车站","address":""},{"poiid":"B2094757D16AA1FF4999","title":"金砖苑 海顺路359弄","lon":"121.68340345","lat":"31.2759013503","category":"252","category_name":"楼宇机构","address":"上海浦东新区曹路镇金砖苑海顺路359弄"},{"poiid":"B2094655D26BA4F44493","title":"银丰苑","lon":"121.68941","lat":"31.266304","category":"47","category_name":"住宅区","address":"上海市浦东新区银峰路199弄1-164号"},{"poiid":"B2094757D16BA3F8419B","title":"天长墓园","lon":"121.68140845","lat":"31.2666481506","category":"500","category_name":"未知分类","address":"上海金海路"},{"poiid":"B2094757D16DAAFF429D","title":"中虹家园","lon":"121.66749805","lat":"31.2785678078","category":"500","category_name":"未知分类","address":"上海海鸣路98号"},{"poiid":"B2094757D06AA6FB489A","title":"缘中林庄园","lon":"121.692482","lat":"31.28229","category":"76","category_name":"上海菜","address":"浦东新区东川公路3229号(近金海路龙王庙)"},{"poiid":"B2094655D36CA2F4429E","title":"上川路东川公路","lon":"121.685","lat":"31.28528","category":"38","category_name":"公交车站","address":""},{"poiid":"B2094757D06AA4F94193","title":"浦东殡仪馆","lon":"121.69492","lat":"31.27649","category":"620","category_name":"丧葬","address":"浦东新区龚路支路1401号"},{"poiid":"B2094655D36CA0FD4793","title":"金钻路金海路","lon":"121.68237","lat":"31.27092","category":"38","category_name":"公交车站","address":""},{"poiid":"B2094757DB6CA4FC469E","title":"海尚东苑","lon":"121.67447","lat":"31.286863","category":"47","category_name":"住宅区","address":"浦东新区金睦路353弄"},{"poiid":"B2094751DA64A1FA4492","title":"星晓家园","lon":"121.682233","lat":"31.28393","category":"252","category_name":"楼宇机构","address":"上海市浦东新区金晓路96弄"},{"poiid":"B2094757D16DA3F5419C","title":"爵鼎鸡 曹路店","lon":"121.66967","lat":"31.27519","category":"87","category_name":"特色／地方风味餐厅","address":"浦东新区曹路镇川沙路562-572号(近民春路)"},{"poiid":"B2094757D064A7F44298","title":"盛世春晓苑","lon":"121.66705","lat":"31.275658","category":"47","category_name":"住宅区","address":"上海市浦东新区民春路"},{"poiid":"B2094654DB69A6FD4592","title":"创联金海花苑学园绿洲","lon":"121.6727","lat":"31.27818","category":"47","category_name":"住宅区","address":"浦东新区曹路镇名名路318号"},{"poiid":"B2094757D169A4FB4992","title":"曹路镇","lon":"121.66704745","lat":"31.278432404","category":"500","category_name":"未知分类","address":"上海市浦东新区上川路1639号"},{"poiid":"B2094757D66DA7F4459A","title":"长兴岛摆渡口","lon":"121.67334965","lat":"31.27496113","category":"500","category_name":"未知分类","address":"上海崇明长兴岛"},{"poiid":"B2094757DA6EABF4419D","title":"金钻苑","lon":"121.6881930838","lat":"31.284075437374","category":"252","category_name":"楼宇机构","address":"浦东海松路359弄"},{"poiid":"B2094654D569A2FE4792","title":"东田羊肉馆","lon":"121.66904","lat":"31.27897","category":"76","category_name":"上海菜","address":"浦东新区上川路1728号(近川沙路)"},{"poiid":"B2094753D16BABF84398","title":"超歌量贩KTV","lon":"121.66945","lat":"31.27943","category":"170","category_name":"KTV","address":"浦东新区曹路镇上川路1774号东田市场内(近曹路政府)"},{"poiid":"B2094655D36CA5FD499A","title":"川沙路金海路","lon":"121.6733","lat":"31.27036","category":"38","category_name":"公交车站","address":""},{"poiid":"B2094757D164A4F54499","title":"新光","lon":"121.67462577","lat":"31.266952224","category":"38","category_name":"公交车站","address":"上海浦东新区川沙路秦家港路"},{"poiid":"B2094654D569A3FB4598","title":"丰舍东苑","lon":"121.66759","lat":"31.275471","category":"47","category_name":"住宅区","address":"上海市嘉定区真南路4233号"},{"poiid":"B2094757D164A7FE4992","title":"上海宝井钢材加工配送有限公司","lon":"121.673353","lat":"31.281342","category":"500","category_name":"未知分类","address":"上海上川路1888号"},{"poiid":"B2094752D065A6F44398","title":"星颂家园","lon":"121.675705","lat":"31.273788","category":"500","category_name":"未知分类","address":"海松路52弄"},{"poiid":"B2094757D165A2F5479C","title":"丰怡苑","lon":"121.68333","lat":"31.266808","category":"252","category_name":"楼宇机构","address":"上海龚华路50弄"},{"poiid":"B2094654D569A3FB459F","title":"庙港文化公园","lon":"121.67013","lat":"31.27462","category":"196","category_name":"公园","address":"川沙路582号"},{"poiid":"B2094757D16BA7FD439F","title":"爵鼎鸡(龚路店)","lon":"121.68375745","lat":"31.263124074","category":"87","category_name":"特色／地方风味餐厅","address":"浦东新区龚华路479弄龚路新城旁(近龚丰路)"},{"poiid":"B2094757D16CA6F54898","title":"浦东新区肺科医院","lon":"121.67921","lat":"31.26676","category":"162","category_name":"医院","address":"上海浦东新区龚路镇北直庙后4号  "},{"poiid":"B2094757D065A6FE499A","title":"曹路打一小学","lon":"121.67025733","lat":"31.289803599","category":"56","category_name":"小学","address":"上海金睦路50号"},{"poiid":"B2094654D569A2F84998","title":"梦都酒店","lon":"121.66891","lat":"31.27705","category":"250","category_name":"公园户外","address":"浦东新区川沙路1588号(近曹路镇)"},{"poiid":"B2094655D36CA5FD479D","title":"川沙路上川路","lon":"121.66743","lat":"31.27842","category":"38","category_name":"公交车站","address":""},{"poiid":"B2094655D36CA2F9419A","title":"群乐","lon":"121.68624","lat":"31.2873","category":"38","category_name":"公交车站","address":""},{"poiid":"B2094751DB6CA0FC429D","title":"佳伟景苑","lon":"121.6719845603167","lat":"31.28561246637041","category":"47","category_name":"住宅区","address":"金钻路669弄"},{"poiid":"B2094757D16FA3FD499E","title":"金钻路","lon":"121.67661","lat":"31.270426","category":"500","category_name":"未知分类","address":"上海金钻路海顺路"},{"poiid":"B2094654D569A2FD4492","title":"龚路中心小学","lon":"121.68437","lat":"31.26647","category":"56","category_name":"小学","address":"浦东新区龚华路69号"},{"poiid":"B2094757D065A5FE479C","title":"上海新亚药业有限公司","lon":"121.674701","lat":"31.266413","category":"46","category_name":"楼宇","address":"上海浦东新区川沙路978号"},{"poiid":"B2094655D36CA6FD4592","title":"龚华路秦家港路","lon":"121.68373","lat":"31.26751","category":"38","category_name":"公交车站","address":""},{"poiid":"B2094654D569A2FE4292","title":"上海第二工业大学附属龚路中学","lon":"121.67911","lat":"31.26514","category":"55","category_name":"中学","address":""},{"poiid":"B2094655D36DA0FF4792","title":"迅建村","lon":"121.69363","lat":"31.28074","category":"38","category_name":"公交车站","address":""},{"poiid":"B2094655D36CA5FD489A","title":"川沙路秦家港路","lon":"121.67466","lat":"31.26699","category":"38","category_name":"公交车站","address":""},{"poiid":"B2094757D16FA3F54098","title":"宋先生草莓园","lon":"121.69375945","lat":"31.283479513","category":"500","category_name":"未知分类","address":"浦东新区川沙曹路镇龚路星丰路9号"},{"poiid":"B2094750D76CA2F4489B","title":"苏拿咖啡","lon":"121.67","lat":"31.2749","category":"260","category_name":"其他","address":"浦东新区曹路镇川沙路572号3楼"},{"poiid":"B2094654D569A3F54293","title":"龙王庙","lon":"121.6964","lat":"31.2751","category":"244","category_name":"寺庙道观","address":"曹路镇"},{"poiid":"B2094757D06BA3F5429E","title":"曹路住宅基地","lon":"121.66924786","lat":"31.278962346","category":"500","category_name":"未知分类","address":"上海浦东川沙"},{"poiid":"B2094757D068A1F84599","title":"曹路","lon":"121.668468","lat":"31.278657","category":"500","category_name":"未知分类","address":"上海上川路川沙路"},{"poiid":"B2094655D36CA0FD4792","title":"金钻路海松路","lon":"121.67915","lat":"31.27706","category":"38","category_name":"公交车站","address":""},{"poiid":"B2094757D069AAF94393","title":"万科蓝山别墅","lon":"121.6731491","lat":"31.269880294","category":"47","category_name":"住宅区","address":"中国上海市浦东新区金海路3333弄"},{"poiid":"B2094757D16CA1FF419E","title":"龚路","lon":"121.684123","lat":"31.261737","category":"500","category_name":"未知分类","address":"上海市浦东新区川沙路816号(金海路口)"},{"poiid":"B2094757D069A0F4419B","title":"梦奇园海鲜大酒店","lon":"121.66341","lat":"31.2742","category":"260","category_name":"其他","address":"浦东新区曹路镇民雨路390号(民春路)"},{"poiid":"B2094654D569A3FF419E","title":"杉达大学(金海路)","lon":"121.66515","lat":"31.26829","category":"671","category_name":"高校中心点","address":"浦东新区金海路2727号"},{"poiid":"B2094655D36CA0FD489A","title":"金钻路上川路","lon":"121.6756","lat":"31.2823","category":"38","category_name":"公交车站","address":""},{"poiid":"B2094757D16AA1FF4999","title":"金砖苑 海顺路359弄","lon":"121.68340345","lat":"31.2759013503","category":"252","category_name":"楼宇机构","address":"上海浦东新区曹路镇金砖苑海顺路359弄"},{"poiid":"B2094655D26BA4F44493","title":"银丰苑","lon":"121.68941","lat":"31.266304","category":"47","category_name":"住宅区","address":"上海市浦东新区银峰路199弄1-164号"},{"poiid":"B2094757D16BA3F8419B","title":"天长墓园","lon":"121.68140845","lat":"31.2666481506","category":"500","category_name":"未知分类","address":"上海金海路"},{"poiid":"B2094757D16DAAFF429D","title":"中虹家园","lon":"121.66749805","lat":"31.2785678078","category":"500","category_name":"未知分类","address":"上海海鸣路98号"},{"poiid":"B2094757D06AA6FB489A","title":"缘中林庄园","lon":"121.692482","lat":"31.28229","category":"76","category_name":"上海菜","address":"浦东新区东川公路3229号(近金海路龙王庙)"},{"poiid":"B2094655D36CA2F4429E","title":"上川路东川公路","lon":"121.685","lat":"31.28528","category":"38","category_name":"公交车站","address":""},{"poiid":"B2094757D06AA4F94193","title":"浦东殡仪馆","lon":"121.69492","lat":"31.27649","category":"620","category_name":"丧葬","address":"浦东新区龚路支路1401号"},{"poiid":"B2094655D36CA0FD4793","title":"金钻路金海路","lon":"121.68237","lat":"31.27092","category":"38","category_name":"公交车站","address":""},{"poiid":"B2094757DB6CA4FC469E","title":"海尚东苑","lon":"121.67447","lat":"31.286863","category":"47","category_name":"住宅区","address":"浦东新区金睦路353弄"},{"poiid":"B2094751DA64A1FA4492","title":"星晓家园","lon":"121.682233","lat":"31.28393","category":"252","category_name":"楼宇机构","address":"上海市浦东新区金晓路96弄"},{"poiid":"B2094757D16DA3F5419C","title":"爵鼎鸡 曹路店","lon":"121.66967","lat":"31.27519","category":"87","category_name":"特色／地方风味餐厅","address":"浦东新区曹路镇川沙路562-572号(近民春路)"},{"poiid":"B2094757D064A7F44298","title":"盛世春晓苑","lon":"121.66705","lat":"31.275658","category":"47","category_name":"住宅区","address":"上海市浦东新区民春路"},{"poiid":"B2094654DB69A6FD4592","title":"创联金海花苑学园绿洲","lon":"121.6727","lat":"31.27818","category":"47","category_name":"住宅区","address":"浦东新区曹路镇名名路318号"},{"poiid":"B2094757D169A4FB4992","title":"曹路镇","lon":"121.66704745","lat":"31.278432404","category":"500","category_name":"未知分类","address":"上海市浦东新区上川路1639号"},{"poiid":"B2094757D66DA7F4459A","title":"长兴岛摆渡口","lon":"121.67334965","lat":"31.27496113","category":"500","category_name":"未知分类","address":"上海崇明长兴岛"},{"poiid":"B2094757DA6EABF4419D","title":"金钻苑","lon":"121.6881930838","lat":"31.284075437374","category":"252","category_name":"楼宇机构","address":"浦东海松路359弄"},{"poiid":"B2094654D569A2FE4792","title":"东田羊肉馆","lon":"121.66904","lat":"31.27897","category":"76","category_name":"上海菜","address":"浦东新区上川路1728号(近川沙路)"},{"poiid":"B2094753D16BABF84398","title":"超歌量贩KTV","lon":"121.66945","lat":"31.27943","category":"170","category_name":"KTV","address":"浦东新区曹路镇上川路1774号东田市场内(近曹路政府)"},{"poiid":"B2094655D36CA5FD499A","title":"川沙路金海路","lon":"121.6733","lat":"31.27036","category":"38","category_name":"公交车站","address":""},{"poiid":"B2094757D164A4F54499","title":"新光","lon":"121.67462577","lat":"31.266952224","category":"38","category_name":"公交车站","address":"上海浦东新区川沙路秦家港路"},{"poiid":"B2094654D569A3FB4598","title":"丰舍东苑","lon":"121.66759","lat":"31.275471","category":"47","category_name":"住宅区","address":"上海市嘉定区真南路4233号"},{"poiid":"B2094757D164A7FE4992","title":"上海宝井钢材加工配送有限公司","lon":"121.673353","lat":"31.281342","category":"500","category_name":"未知分类","address":"上海上川路1888号"},{"poiid":"B2094752D065A6F44398","title":"星颂家园","lon":"121.675705","lat":"31.273788","category":"500","category_name":"未知分类","address":"海松路52弄"},{"poiid":"B2094757D165A2F5479C","title":"丰怡苑","lon":"121.68333","lat":"31.266808","category":"252","category_name":"楼宇机构","address":"上海龚华路50弄"},{"poiid":"B2094654D569A3FB459F","title":"庙港文化公园","lon":"121.67013","lat":"31.27462","category":"196","category_name":"公园","address":"川沙路582号"},{"poiid":"B2094757D16BA7FD439F","title":"爵鼎鸡(龚路店)","lon":"121.68375745","lat":"31.263124074","category":"87","category_name":"特色／地方风味餐厅","address":"浦东新区龚华路479弄龚路新城旁(近龚丰路)"},{"poiid":"B2094757D16CA6F54898","title":"浦东新区肺科医院","lon":"121.67921","lat":"31.26676","category":"162","category_name":"医院","address":"上海浦东新区龚路镇北直庙后4号  "},{"poiid":"B2094757D065A6FE499A","title":"曹路打一小学","lon":"121.67025733","lat":"31.289803599","category":"56","category_name":"小学","address":"上海金睦路50号"},{"poiid":"B2094654D569A2F84998","title":"梦都酒店","lon":"121.66891","lat":"31.27705","category":"250","category_name":"公园户外","address":"浦东新区川沙路1588号(近曹路镇)"},{"poiid":"B2094655D36CA5FD479D","title":"川沙路上川路","lon":"121.66743","lat":"31.27842","category":"38","category_name":"公交车站","address":""},{"poiid":"B2094655D36CA2F9419A","title":"群乐","lon":"121.68624","lat":"31.2873","category":"38","category_name":"公交车站","address":""},{"poiid":"B2094751DB6CA0FC429D","title":"佳伟景苑","lon":"121.6719845603167","lat":"31.28561246637041","category":"47","category_name":"住宅区","address":"金钻路669弄"},{"poiid":"B2094757D16FA3FD499E","title":"金钻路","lon":"121.67661","lat":"31.270426","category":"500","category_name":"未知分类","address":"上海金钻路海顺路"},{"poiid":"B2094654D569A2FD4492","title":"龚路中心小学","lon":"121.68437","lat":"31.26647","category":"56","category_name":"小学","address":"浦东新区龚华路69号"},{"poiid":"B2094757D065A5FE479C","title":"上海新亚药业有限公司","lon":"121.674701","lat":"31.266413","category":"46","category_name":"楼宇","address":"上海浦东新区川沙路978号"},{"poiid":"B2094655D36CA6FD4592","title":"龚华路秦家港路","lon":"121.68373","lat":"31.26751","category":"38","category_name":"公交车站","address":""},{"poiid":"B2094654D569A2FE4292","title":"上海第二工业大学附属龚路中学","lon":"121.67911","lat":"31.26514","category":"55","category_name":"中学","address":""},{"poiid":"B2094655D36DA0FF4792","title":"迅建村","lon":"121.69363","lat":"31.28074","category":"38","category_name":"公交车站","address":""},{"poiid":"B2094655D36CA5FD489A","title":"川沙路秦家港路","lon":"121.67466","lat":"31.26699","category":"38","category_name":"公交车站","address":""},{"poiid":"B2094757D16FA3F54098","title":"宋先生草莓园","lon":"121.69375945","lat":"31.283479513","category":"500","category_name":"未知分类","address":"浦东新区川沙曹路镇龚路星丰路9号"},{"poiid":"B2094750D76CA2F4489B","title":"苏拿咖啡","lon":"121.67","lat":"31.2749","category":"260","category_name":"其他","address":"浦东新区曹路镇川沙路572号3楼"},{"poiid":"B2094654D569A3F54293","title":"龙王庙","lon":"121.6964","lat":"31.2751","category":"244","category_name":"寺庙道观","address":"曹路镇"},{"poiid":"B2094757D06BA3F5429E","title":"曹路住宅基地","lon":"121.66924786","lat":"31.278962346","category":"500","category_name":"未知分类","address":"上海浦东川沙"},{"poiid":"B2094757D068A1F84599","title":"曹路","lon":"121.668468","lat":"31.278657","category":"500","category_name":"未知分类","address":"上海上川路川沙路"},{"poiid":"B2094655D36CA0FD4792","title":"金钻路海松路","lon":"121.67915","lat":"31.27706","category":"38","category_name":"公交车站","address":""},{"poiid":"B2094757D069AAF94393","title":"万科蓝山别墅","lon":"121.6731491","lat":"31.269880294","category":"47","category_name":"住宅区","address":"中国上海市浦东新区金海路3333弄"},{"poiid":"B2094757D16CA1FF419E","title":"龚路","lon":"121.684123","lat":"31.261737","category":"500","category_name":"未知分类","address":"上海市浦东新区川沙路816号(金海路口)"},{"poiid":"B2094757D069A0F4419B","title":"梦奇园海鲜大酒店","lon":"121.66341","lat":"31.2742","category":"260","category_name":"其他","address":"浦东新区曹路镇民雨路390号(民春路)"},{"poiid":"B2094654D569A3FF419E","title":"杉达大学(金海路)","lon":"121.66515","lat":"31.26829","category":"671","category_name":"高校中心点","address":"浦东新区金海路2727号"},{"poiid":"B2094655D36CA0FD489A","title":"金钻路上川路","lon":"121.6756","lat":"31.2823","category":"38","category_name":"公交车站","address":""},{"poiid":"B2094757D16AA1FF4999","title":"金砖苑 海顺路359弄","lon":"121.68340345","lat":"31.2759013503","category":"252","category_name":"楼宇机构","address":"上海浦东新区曹路镇金砖苑海顺路359弄"},{"poiid":"B2094655D26BA4F44493","title":"银丰苑","lon":"121.68941","lat":"31.266304","category":"47","category_name":"住宅区","address":"上海市浦东新区银峰路199弄1-164号"},{"poiid":"B2094757D16BA3F8419B","title":"天长墓园","lon":"121.68140845","lat":"31.2666481506","category":"500","category_name":"未知分类","address":"上海金海路"},{"poiid":"B2094757D16DAAFF429D","title":"中虹家园","lon":"121.66749805","lat":"31.2785678078","category":"500","category_name":"未知分类","address":"上海海鸣路98号"},{"poiid":"B2094757D06AA6FB489A","title":"缘中林庄园","lon":"121.692482","lat":"31.28229","category":"76","category_name":"上海菜","address":"浦东新区东川公路3229号(近金海路龙王庙)"},{"poiid":"B2094655D36CA2F4429E","title":"上川路东川公路","lon":"121.685","lat":"31.28528","category":"38","category_name":"公交车站","address":""},{"poiid":"B2094757D06AA4F94193","title":"浦东殡仪馆","lon":"121.69492","lat":"31.27649","category":"620","category_name":"丧葬","address":"浦东新区龚路支路1401号"},{"poiid":"B2094655D36CA0FD4793","title":"金钻路金海路","lon":"121.68237","lat":"31.27092","category":"38","category_name":"公交车站","address":""},{"poiid":"B2094757DB6CA4FC469E","title":"海尚东苑","lon":"121.67447","lat":"31.286863","category":"47","category_name":"住宅区","address":"浦东新区金睦路353弄"},{"poiid":"B2094751DA64A1FA4492","title":"星晓家园","lon":"121.682233","lat":"31.28393","category":"252","category_name":"楼宇机构","address":"上海市浦东新区金晓路96弄"},{"poiid":"B2094757D16DA3F5419C","title":"爵鼎鸡 曹路店","lon":"121.66967","lat":"31.27519","category":"87","category_name":"特色／地方风味餐厅","address":"浦东新区曹路镇川沙路562-572号(近民春路)"},{"poiid":"B2094757D064A7F44298","title":"盛世春晓苑","lon":"121.66705","lat":"31.275658","category":"47","category_name":"住宅区","address":"上海市浦东新区民春路"},{"poiid":"B2094654DB69A6FD4592","title":"创联金海花苑学园绿洲","lon":"121.6727","lat":"31.27818","category":"47","category_name":"住宅区","address":"浦东新区曹路镇名名路318号"},{"poiid":"B2094757D169A4FB4992","title":"曹路镇","lon":"121.66704745","lat":"31.278432404","category":"500","category_name":"未知分类","address":"上海市浦东新区上川路1639号"},{"poiid":"B2094757D66DA7F4459A","title":"长兴岛摆渡口","lon":"121.67334965","lat":"31.27496113","category":"500","category_name":"未知分类","address":"上海崇明长兴岛"},{"poiid":"B2094757DA6EABF4419D","title":"金钻苑","lon":"121.6881930838","lat":"31.284075437374","category":"252","category_name":"楼宇机构","address":"浦东海松路359弄"},{"poiid":"B2094654D569A2FE4792","title":"东田羊肉馆","lon":"121.66904","lat":"31.27897","category":"76","category_name":"上海菜","address":"浦东新区上川路1728号(近川沙路)"},{"poiid":"B2094753D16BABF84398","title":"超歌量贩KTV","lon":"121.66945","lat":"31.27943","category":"170","category_name":"KTV","address":"浦东新区曹路镇上川路1774号东田市场内(近曹路政府)"},{"poiid":"B2094655D36CA5FD499A","title":"川沙路金海路","lon":"121.6733","lat":"31.27036","category":"38","category_name":"公交车站","address":""},{"poiid":"B2094757D164A4F54499","title":"新光","lon":"121.67462577","lat":"31.266952224","category":"38","category_name":"公交车站","address":"上海浦东新区川沙路秦家港路"},{"poiid":"B2094654D569A3FB4598","title":"丰舍东苑","lon":"121.66759","lat":"31.275471","category":"47","category_name":"住宅区","address":"上海市嘉定区真南路4233号"},{"poiid":"B2094757D164A7FE4992","title":"上海宝井钢材加工配送有限公司","lon":"121.673353","lat":"31.281342","category":"500","category_name":"未知分类","address":"上海上川路1888号"},{"poiid":"B2094752D065A6F44398","title":"星颂家园","lon":"121.675705","lat":"31.273788","category":"500","category_name":"未知分类","address":"海松路52弄"},{"poiid":"B2094757D165A2F5479C","title":"丰怡苑","lon":"121.68333","lat":"31.266808","category":"252","category_name":"楼宇机构","address":"上海龚华路50弄"},{"poiid":"B2094654D569A3FB459F","title":"庙港文化公园","lon":"121.67013","lat":"31.27462","category":"196","category_name":"公园","address":"川沙路582号"},{"poiid":"B2094757D16BA7FD439F","title":"爵鼎鸡(龚路店)","lon":"121.68375745","lat":"31.263124074","category":"87","category_name":"特色／地方风味餐厅","address":"浦东新区龚华路479弄龚路新城旁(近龚丰路)"},{"poiid":"B2094757D16CA6F54898","title":"浦东新区肺科医院","lon":"121.67921","lat":"31.26676","category":"162","category_name":"医院","address":"上海浦东新区龚路镇北直庙后4号  "},{"poiid":"B2094757D065A6FE499A","title":"曹路打一小学","lon":"121.67025733","lat":"31.289803599","category":"56","category_name":"小学","address":"上海金睦路50号"},{"poiid":"B2094654D569A2F84998","title":"梦都酒店","lon":"121.66891","lat":"31.27705","category":"250","category_name":"公园户外","address":"浦东新区川沙路1588号(近曹路镇)"},{"poiid":"B2094655D36CA5FD479D","title":"川沙路上川路","lon":"121.66743","lat":"31.27842","category":"38","category_name":"公交车站","address":""},{"poiid":"B2094655D36CA2F9419A","title":"群乐","lon":"121.68624","lat":"31.2873","category":"38","category_name":"公交车站","address":""},{"poiid":"B2094751DB6CA0FC429D","title":"佳伟景苑","lon":"121.6719845603167","lat":"31.28561246637041","category":"47","category_name":"住宅区","address":"金钻路669弄"},{"poiid":"B2094757D16FA3FD499E","title":"金钻路","lon":"121.67661","lat":"31.270426","category":"500","category_name":"未知分类","address":"上海金钻路海顺路"},{"poiid":"B2094654D569A2FD4492","title":"龚路中心小学","lon":"121.68437","lat":"31.26647","category":"56","category_name":"小学","address":"浦东新区龚华路69号"},{"poiid":"B2094757D065A5FE479C","title":"上海新亚药业有限公司","lon":"121.674701","lat":"31.266413","category":"46","category_name":"楼宇","address":"上海浦东新区川沙路978号"},{"poiid":"B2094655D36CA6FD4592","title":"龚华路秦家港路","lon":"121.68373","lat":"31.26751","category":"38","category_name":"公交车站","address":""},{"poiid":"B2094654D569A2FE4292","title":"上海第二工业大学附属龚路中学","lon":"121.67911","lat":"31.26514","category":"55","category_name":"中学","address":""},{"poiid":"B2094655D36DA0FF4792","title":"迅建村","lon":"121.69363","lat":"31.28074","category":"38","category_name":"公交车站","address":""},{"poiid":"B2094655D36CA5FD489A","title":"川沙路秦家港路","lon":"121.67466","lat":"31.26699","category":"38","category_name":"公交车站","address":""},{"poiid":"B2094757D16FA3F54098","title":"宋先生草莓园","lon":"121.69375945","lat":"31.283479513","category":"500","category_name":"未知分类","address":"浦东新区川沙曹路镇龚路星丰路9号"},{"poiid":"B2094750D76CA2F4489B","title":"苏拿咖啡","lon":"121.67","lat":"31.2749","category":"260","category_name":"其他","address":"浦东新区曹路镇川沙路572号3楼"},{"poiid":"B2094654D569A3F54293","title":"龙王庙","lon":"121.6964","lat":"31.2751","category":"244","category_name":"寺庙道观","address":"曹路镇"},{"poiid":"B2094757D06BA3F5429E","title":"曹路住宅基地","lon":"121.66924786","lat":"31.278962346","category":"500","category_name":"未知分类","address":"上海浦东川沙"}]