[{"poiid":"B2094757D06FA3FD4592","title":"同乐坊","lon":"121.44327","lat":"31.23616","category":"172","category_name":"酒吧","address":"静安区余姚路60号(近海防路)"},{"poiid":"B2094655D265A6F9449C","title":"800秀","lon":"121.44328","lat":"31.23363","category":"45","category_name":"产业园区","address":"上海静安区常德路800号(近昌平路)"},{"poiid":"B2094757D06FA3FF429D","title":"SKY club","lon":"121.443256034","lat":"31.236466859","category":"260","category_name":"其他","address":"静安区海防路555号同乐坊内"},{"poiid":"B209475CD564A7F8439E","title":"上海滩中信泰富店","lon":"121.45602","lat":"31.22851","category":"119","category_name":"商场","address":"\"南京西路1168号中信泰富广场，店铺号221.\r\n\""},{"poiid":"B2094757D66FA6FB429E","title":"星巴克 STARBUCKS (八百秀店)","lon":"121.44345","lat":"31.23283","category":"260","category_name":"其他","address":"静安区常德路800号八百秀(近昌平路)"},{"poiid":"B2094757D068A6FF4992","title":"泰爱","lon":"121.44360638","lat":"31.232807379","category":"99","category_name":"泰国／越南菜品餐厅","address":"静安区常德路800号(昌平路常德路)"},{"poiid":"B2094757D06EABF54892","title":"昌平路地铁站","lon":"121.442214","lat":"31.234335","category":"36","category_name":"地铁站","address":"上海轨道交通 七号线 轨交昌平路站 7"},{"poiid":"B2094654DB6AA3F8449A","title":"Muse 1","lon":"121.44301","lat":"31.23644","category":"247","category_name":"餐饮美食","address":"静安区余姚路68号同乐坊内(近海防路)"},{"poiid":"B2094757D068A5F5499D","title":"常德路昌平路","lon":"121.44119","lat":"31.233723","category":"46","category_name":"楼宇","address":"上海常德路昌平路路口"},{"poiid":"B2094757D06FA1F8429F","title":"静安区业余大学","lon":"121.4407","lat":"31.23305","category":"260","category_name":"其他","address":"静安区胶州路601号(近昌平路)"},{"poiid":"B2094757D06FA7F94698","title":"Muses Cafe","lon":"121.44162","lat":"31.23359","category":"260","category_name":"其他","address":"静安区昌平路789号(胶州路口)"},{"poiid":"B2094750D56EA0F4449D","title":"Indulge BRASSERIE&WINE","lon":"121.443214","lat":"31.232238","category":"247","category_name":"餐饮美食","address":"静安区常德路800号A3-1楼(近地铁7号线昌平路站)"},{"poiid":"B2094753D56BA4FE429D","title":"古宫炭","lon":"121.441543","lat":"31.234291","category":"247","category_name":"餐饮美食","address":"普陀区安远路534号2楼"},{"poiid":"B2094655D26AA1F4449E","title":"泛洋城市度假村","lon":"121.44316","lat":"31.23605","category":"247","category_name":"餐饮美食","address":"上海静安区余姚路55号(近西康路)"},{"poiid":"B2094654DA6CA2FC4292","title":"上海戏剧学院附属高级中学","lon":"121.44225","lat":"31.23205","category":"55","category_name":"中学","address":"静安区康定路770号(近胶州路)"},{"poiid":"B2094750D76EA0FE419F","title":"H2(余姚路店)","lon":"121.444","lat":"31.2361","category":"94","category_name":"西餐厅","address":"静安区余姚路27号(近西康路)"},{"poiid":"B2094654D565AAF5409B","title":"老灶店","lon":"121.44358","lat":"31.23639","category":"76","category_name":"上海菜","address":"静安区余姚路48号(近西康路)"},{"poiid":"B2094757D069A3F5489E","title":"小崔餐饮会馆","lon":"121.44187318","lat":"31.233430293","category":"76","category_name":"上海菜","address":"静安区常德路778号(近地铁7号线昌平路站)"},{"poiid":"B2094757D16CA6F5429D","title":"瑞美医疗保健中心","lon":"121.44047","lat":"31.23373","category":"500","category_name":"未知分类","address":"静安区昌平路868号3楼(昌平路胶州路)"},{"poiid":"B2094757D068A0FF479D","title":"肯德基 KFC(昌平店)","lon":"121.44227823","lat":"31.23432341","category":"68","category_name":"快餐厅","address":"静安区常德路770号(近昌平路)"},{"poiid":"B2094757D069A5F8449A","title":"轨道交通11号线(江苏路)","lon":"121.44177918","lat":"31.232080267","category":"500","category_name":"未知分类","address":"江苏路－嘉定北、安亭(江苏路愚园路)"},{"poiid":"B2094654D565AAF5499E","title":"上海市第一中学","lon":"121.44212","lat":"31.2359","category":"55","category_name":"中学","address":"静安区余姚路139号(近常德路)"},{"poiid":"B2094655D26DA6FE4299","title":"同乐坊(南门)","lon":"121.44344","lat":"31.23642","category":"656","category_name":"大门","address":"余姚路66号"},{"poiid":"B209475CD76FA6FD4299","title":"撈王鍋物料理 長壽店","lon":"121.441902","lat":"31.234632","category":"247","category_name":"餐饮美食","address":"上海市 胶州路883号(新会路)"},{"poiid":"B2094750D365A7FD459B","title":"虹桥火车站","lon":"121.442611","lat":"31.235071","category":"500","category_name":"未知分类","address":null},{"poiid":"B2094757D069A0FE409F","title":"地铁七号线昌平路站","lon":"121.4421564","lat":"31.2343812","category":"500","category_name":"未知分类","address":"上海常德路昌平路"},{"poiid":"B2094757D069A6F44698","title":"小黑厨房","lon":"121.44327545","lat":"31.235139846","category":"91","category_name":"台湾菜","address":"静安区安远路561号静安门大厦1楼(近胶州路)"},{"poiid":"B2094757D16DA0F9449D","title":"轨道交通2号线(江苏路)","lon":"121.441779186","lat":"31.2320802672","category":"500","category_name":"未知分类","address":"上海江苏路愚园路口(可换乘轨道交通11号线)"},{"poiid":"B2094757D46FABFE4393","title":"何记潮汕牛火锅","lon":"121.44276","lat":"31.233497","category":"86","category_name":"火锅店","address":"静安区常德路888号(近地铁7号线昌平路站)"},{"poiid":"B2094757D06AAAFF489C","title":"巧克共和","lon":"121.442845386","lat":"31.2352653296","category":"500","category_name":"未知分类","address":"上海余姚路"},{"poiid":"B2094757D06AA0FC489E","title":"川妹子麻辣烫","lon":"121.442894697","lat":"31.2320396716","category":"68","category_name":"快餐厅","address":"静安区康定路740号(近常德路)"},{"poiid":"B2094654D565A1F9479C","title":"静安律德大厦","lon":"121.442","lat":"31.2327","category":"46","category_name":"楼宇","address":"浦东区丁香路716号"},{"poiid":"B2094757D068A3F5459D","title":"静安科技馆","lon":"121.442632586","lat":"31.2345345153","category":"179","category_name":"音乐厅","address":"静安区常德路880号(近昌平路)"},{"poiid":"B2094654D565AAF54693","title":"金昌大厦","lon":"121.44376","lat":"31.23534","category":"46","category_name":"楼宇","address":"铁西区铁西兴华街与南十中路交处(兴华南街48号)"},{"poiid":"B2094757D169A7F94892","title":"昌平路","lon":"121.44117658","lat":"31.233583496","category":"500","category_name":"未知分类","address":"上海市静安区延平路"},{"poiid":"B2094757D06BA1F84699","title":"泛洋酒店","lon":"121.443059","lat":"31.236156","category":"217","category_name":"旅馆招待所","address":"上海市静安区余姚路55号（近西康路）"},{"poiid":"B2094757D068A7F8439D","title":"艾提尕尔清真馆","lon":"121.443208054","lat":"31.234689793","category":"90","category_name":"清真餐馆","address":"静安区昌平路665号(近常德路)"},{"poiid":"B209475DD368A6FC449D","title":"捞王锅物料理","lon":"121.441635","lat":"31.235837","category":"247","category_name":"餐饮美食","address":"上海市 胶州路883号"},{"poiid":"B2094655D36CA0F8459E","title":"胶州路康定路","lon":"121.44147","lat":"31.23254","category":"38","category_name":"公交车站","address":""},{"poiid":"B2094752D268A7FB499D","title":"Indulge Brasserie and Wine Bar","lon":"121.440933","lat":"31.233505","category":"247","category_name":"餐饮美食","address":"常德路800号A3-1楼"},{"poiid":"B2094757D068A5F4479A","title":"东安公寓","lon":"121.4447021","lat":"31.23412895","category":"47","category_name":"住宅区","address":"静安昌平路657号"},{"poiid":"B2094757D16EA6FF4592","title":"上戏附中","lon":"121.443183386","lat":"31.2318746632","category":"253","category_name":"校园生活","address":"上海康定路770"},{"poiid":"B2094752D069A4F84198","title":"浅深会所cheersum","lon":"121.442318","lat":"31.235636","category":"248","category_name":"生活娱乐","address":"常德路940号"},{"poiid":"B2094757D068AAF9479B","title":"德安大厦","lon":"121.44283","lat":"31.233873","category":"46","category_name":"楼宇","address":"上海市静安区常德路814号-818号"},{"poiid":"B2094757D068A0F84793","title":"劳动报社","lon":"121.44287872","lat":"31.234678268","category":"46","category_name":"楼宇","address":"上海静安区昌平路700号"},{"poiid":"B2094757D16EA0FB4193","title":"康定路","lon":"121.441600586","lat":"31.2325634767","category":"500","category_name":"未知分类","address":"上海市静安区延平路"},{"poiid":"B2094757D16EA5F84292","title":"好友咖啡 Les Amies","lon":"121.442725054","lat":"31.236589793","category":"65","category_name":"咖啡厅","address":"静安区海防路555号同乐坊12号楼(近西康路)"},{"poiid":"B2094655D36CA1F5479F","title":"康定路常德路","lon":"121.44337","lat":"31.23228","category":"38","category_name":"公交车站","address":""},{"poiid":"B2094654DB6AA3FB4798","title":"工行康定路支行","lon":"121.44362","lat":"31.2322","category":"150","category_name":"银行","address":"静安区康定路699路"},{"poiid":"B2094757D069AAF5419F","title":"手扎鱼","lon":"121.44396458","lat":"31.235910542","category":"68","category_name":"快餐厅","address":"普陀区新会路410号亚新后广场1楼(近常德路)"},{"poiid":"B2094757D06FA3FD4592","title":"同乐坊","lon":"121.44327","lat":"31.23616","category":"172","category_name":"酒吧","address":"静安区余姚路60号(近海防路)"},{"poiid":"B2094655D265A6F9449C","title":"800秀","lon":"121.44328","lat":"31.23363","category":"45","category_name":"产业园区","address":"上海静安区常德路800号(近昌平路)"},{"poiid":"B2094757D06FA3FF429D","title":"SKY club","lon":"121.443256034","lat":"31.236466859","category":"260","category_name":"其他","address":"静安区海防路555号同乐坊内"},{"poiid":"B209475CD564A7F8439E","title":"上海滩中信泰富店","lon":"121.45602","lat":"31.22851","category":"119","category_name":"商场","address":"\"南京西路1168号中信泰富广场，店铺号221.\r\n\""},{"poiid":"B2094757D66FA6FB429E","title":"星巴克 STARBUCKS (八百秀店)","lon":"121.44345","lat":"31.23283","category":"260","category_name":"其他","address":"静安区常德路800号八百秀(近昌平路)"},{"poiid":"B2094757D068A6FF4992","title":"泰爱","lon":"121.44360638","lat":"31.232807379","category":"99","category_name":"泰国／越南菜品餐厅","address":"静安区常德路800号(昌平路常德路)"},{"poiid":"B2094757D06EABF54892","title":"昌平路地铁站","lon":"121.442214","lat":"31.234335","category":"36","category_name":"地铁站","address":"上海轨道交通 七号线 轨交昌平路站 7"},{"poiid":"B2094654DB6AA3F8449A","title":"Muse 1","lon":"121.44301","lat":"31.23644","category":"247","category_name":"餐饮美食","address":"静安区余姚路68号同乐坊内(近海防路)"},{"poiid":"B2094757D068A5F5499D","title":"常德路昌平路","lon":"121.44119","lat":"31.233723","category":"46","category_name":"楼宇","address":"上海常德路昌平路路口"},{"poiid":"B2094757D06FA1F8429F","title":"静安区业余大学","lon":"121.4407","lat":"31.23305","category":"260","category_name":"其他","address":"静安区胶州路601号(近昌平路)"},{"poiid":"B2094757D06FA7F94698","title":"Muses Cafe","lon":"121.44162","lat":"31.23359","category":"260","category_name":"其他","address":"静安区昌平路789号(胶州路口)"},{"poiid":"B2094750D56EA0F4449D","title":"Indulge BRASSERIE&WINE","lon":"121.443214","lat":"31.232238","category":"247","category_name":"餐饮美食","address":"静安区常德路800号A3-1楼(近地铁7号线昌平路站)"},{"poiid":"B2094753D56BA4FE429D","title":"古宫炭","lon":"121.441543","lat":"31.234291","category":"247","category_name":"餐饮美食","address":"普陀区安远路534号2楼"},{"poiid":"B2094655D26AA1F4449E","title":"泛洋城市度假村","lon":"121.44316","lat":"31.23605","category":"247","category_name":"餐饮美食","address":"上海静安区余姚路55号(近西康路)"},{"poiid":"B2094654DA6CA2FC4292","title":"上海戏剧学院附属高级中学","lon":"121.44225","lat":"31.23205","category":"55","category_name":"中学","address":"静安区康定路770号(近胶州路)"},{"poiid":"B2094750D76EA0FE419F","title":"H2(余姚路店)","lon":"121.444","lat":"31.2361","category":"94","category_name":"西餐厅","address":"静安区余姚路27号(近西康路)"},{"poiid":"B2094654D565AAF5409B","title":"老灶店","lon":"121.44358","lat":"31.23639","category":"76","category_name":"上海菜","address":"静安区余姚路48号(近西康路)"},{"poiid":"B2094757D069A3F5489E","title":"小崔餐饮会馆","lon":"121.44187318","lat":"31.233430293","category":"76","category_name":"上海菜","address":"静安区常德路778号(近地铁7号线昌平路站)"},{"poiid":"B2094757D16CA6F5429D","title":"瑞美医疗保健中心","lon":"121.44047","lat":"31.23373","category":"500","category_name":"未知分类","address":"静安区昌平路868号3楼(昌平路胶州路)"},{"poiid":"B2094757D068A0FF479D","title":"肯德基 KFC(昌平店)","lon":"121.44227823","lat":"31.23432341","category":"68","category_name":"快餐厅","address":"静安区常德路770号(近昌平路)"},{"poiid":"B2094757D069A5F8449A","title":"轨道交通11号线(江苏路)","lon":"121.44177918","lat":"31.232080267","category":"500","category_name":"未知分类","address":"江苏路－嘉定北、安亭(江苏路愚园路)"},{"poiid":"B2094654D565AAF5499E","title":"上海市第一中学","lon":"121.44212","lat":"31.2359","category":"55","category_name":"中学","address":"静安区余姚路139号(近常德路)"},{"poiid":"B2094655D26DA6FE4299","title":"同乐坊(南门)","lon":"121.44344","lat":"31.23642","category":"656","category_name":"大门","address":"余姚路66号"},{"poiid":"B209475CD76FA6FD4299","title":"撈王鍋物料理 長壽店","lon":"121.441902","lat":"31.234632","category":"247","category_name":"餐饮美食","address":"上海市 胶州路883号(新会路)"},{"poiid":"B2094750D365A7FD459B","title":"虹桥火车站","lon":"121.442611","lat":"31.235071","category":"500","category_name":"未知分类","address":null},{"poiid":"B2094757D069A0FE409F","title":"地铁七号线昌平路站","lon":"121.4421564","lat":"31.2343812","category":"500","category_name":"未知分类","address":"上海常德路昌平路"},{"poiid":"B2094757D069A6F44698","title":"小黑厨房","lon":"121.44327545","lat":"31.235139846","category":"91","category_name":"台湾菜","address":"静安区安远路561号静安门大厦1楼(近胶州路)"},{"poiid":"B2094757D16DA0F9449D","title":"轨道交通2号线(江苏路)","lon":"121.441779186","lat":"31.2320802672","category":"500","category_name":"未知分类","address":"上海江苏路愚园路口(可换乘轨道交通11号线)"},{"poiid":"B2094757D46FABFE4393","title":"何记潮汕牛火锅","lon":"121.44276","lat":"31.233497","category":"86","category_name":"火锅店","address":"静安区常德路888号(近地铁7号线昌平路站)"},{"poiid":"B2094757D06AAAFF489C","title":"巧克共和","lon":"121.442845386","lat":"31.2352653296","category":"500","category_name":"未知分类","address":"上海余姚路"},{"poiid":"B2094757D06AA0FC489E","title":"川妹子麻辣烫","lon":"121.442894697","lat":"31.2320396716","category":"68","category_name":"快餐厅","address":"静安区康定路740号(近常德路)"},{"poiid":"B2094654D565A1F9479C","title":"静安律德大厦","lon":"121.442","lat":"31.2327","category":"46","category_name":"楼宇","address":"浦东区丁香路716号"},{"poiid":"B2094757D068A3F5459D","title":"静安科技馆","lon":"121.442632586","lat":"31.2345345153","category":"179","category_name":"音乐厅","address":"静安区常德路880号(近昌平路)"},{"poiid":"B2094654D565AAF54693","title":"金昌大厦","lon":"121.44376","lat":"31.23534","category":"46","category_name":"楼宇","address":"铁西区铁西兴华街与南十中路交处(兴华南街48号)"},{"poiid":"B2094757D169A7F94892","title":"昌平路","lon":"121.44117658","lat":"31.233583496","category":"500","category_name":"未知分类","address":"上海市静安区延平路"},{"poiid":"B2094757D06BA1F84699","title":"泛洋酒店","lon":"121.443059","lat":"31.236156","category":"217","category_name":"旅馆招待所","address":"上海市静安区余姚路55号（近西康路）"},{"poiid":"B2094757D068A7F8439D","title":"艾提尕尔清真馆","lon":"121.443208054","lat":"31.234689793","category":"90","category_name":"清真餐馆","address":"静安区昌平路665号(近常德路)"},{"poiid":"B209475DD368A6FC449D","title":"捞王锅物料理","lon":"121.441635","lat":"31.235837","category":"247","category_name":"餐饮美食","address":"上海市 胶州路883号"},{"poiid":"B2094655D36CA0F8459E","title":"胶州路康定路","lon":"121.44147","lat":"31.23254","category":"38","category_name":"公交车站","address":""},{"poiid":"B2094752D268A7FB499D","title":"Indulge Brasserie and Wine Bar","lon":"121.440933","lat":"31.233505","category":"247","category_name":"餐饮美食","address":"常德路800号A3-1楼"},{"poiid":"B2094757D068A5F4479A","title":"东安公寓","lon":"121.4447021","lat":"31.23412895","category":"47","category_name":"住宅区","address":"静安昌平路657号"},{"poiid":"B2094757D16EA6FF4592","title":"上戏附中","lon":"121.443183386","lat":"31.2318746632","category":"253","category_name":"校园生活","address":"上海康定路770"},{"poiid":"B2094752D069A4F84198","title":"浅深会所cheersum","lon":"121.442318","lat":"31.235636","category":"248","category_name":"生活娱乐","address":"常德路940号"},{"poiid":"B2094757D068AAF9479B","title":"德安大厦","lon":"121.44283","lat":"31.233873","category":"46","category_name":"楼宇","address":"上海市静安区常德路814号-818号"},{"poiid":"B2094757D068A0F84793","title":"劳动报社","lon":"121.44287872","lat":"31.234678268","category":"46","category_name":"楼宇","address":"上海静安区昌平路700号"},{"poiid":"B2094757D16EA0FB4193","title":"康定路","lon":"121.441600586","lat":"31.2325634767","category":"500","category_name":"未知分类","address":"上海市静安区延平路"},{"poiid":"B2094757D16EA5F84292","title":"好友咖啡 Les Amies","lon":"121.442725054","lat":"31.236589793","category":"65","category_name":"咖啡厅","address":"静安区海防路555号同乐坊12号楼(近西康路)"},{"poiid":"B2094655D36CA1F5479F","title":"康定路常德路","lon":"121.44337","lat":"31.23228","category":"38","category_name":"公交车站","address":""},{"poiid":"B2094654DB6AA3FB4798","title":"工行康定路支行","lon":"121.44362","lat":"31.2322","category":"150","category_name":"银行","address":"静安区康定路699路"},{"poiid":"B2094757D069AAF5419F","title":"手扎鱼","lon":"121.44396458","lat":"31.235910542","category":"68","category_name":"快餐厅","address":"普陀区新会路410号亚新后广场1楼(近常德路)"},{"poiid":"B2094757D06FA3FD4592","title":"同乐坊","lon":"121.44327","lat":"31.23616","category":"172","category_name":"酒吧","address":"静安区余姚路60号(近海防路)"},{"poiid":"B2094655D265A6F9449C","title":"800秀","lon":"121.44328","lat":"31.23363","category":"45","category_name":"产业园区","address":"上海静安区常德路800号(近昌平路)"},{"poiid":"B2094757D06FA3FF429D","title":"SKY club","lon":"121.443256034","lat":"31.236466859","category":"260","category_name":"其他","address":"静安区海防路555号同乐坊内"},{"poiid":"B209475CD564A7F8439E","title":"上海滩中信泰富店","lon":"121.45602","lat":"31.22851","category":"119","category_name":"商场","address":"\"南京西路1168号中信泰富广场，店铺号221.\r\n\""},{"poiid":"B2094757D66FA6FB429E","title":"星巴克 STARBUCKS (八百秀店)","lon":"121.44345","lat":"31.23283","category":"260","category_name":"其他","address":"静安区常德路800号八百秀(近昌平路)"},{"poiid":"B2094757D068A6FF4992","title":"泰爱","lon":"121.44360638","lat":"31.232807379","category":"99","category_name":"泰国／越南菜品餐厅","address":"静安区常德路800号(昌平路常德路)"},{"poiid":"B2094757D06EABF54892","title":"昌平路地铁站","lon":"121.442214","lat":"31.234335","category":"36","category_name":"地铁站","address":"上海轨道交通 七号线 轨交昌平路站 7"},{"poiid":"B2094654DB6AA3F8449A","title":"Muse 1","lon":"121.44301","lat":"31.23644","category":"247","category_name":"餐饮美食","address":"静安区余姚路68号同乐坊内(近海防路)"},{"poiid":"B2094757D068A5F5499D","title":"常德路昌平路","lon":"121.44119","lat":"31.233723","category":"46","category_name":"楼宇","address":"上海常德路昌平路路口"},{"poiid":"B2094757D06FA1F8429F","title":"静安区业余大学","lon":"121.4407","lat":"31.23305","category":"260","category_name":"其他","address":"静安区胶州路601号(近昌平路)"},{"poiid":"B2094757D06FA7F94698","title":"Muses Cafe","lon":"121.44162","lat":"31.23359","category":"260","category_name":"其他","address":"静安区昌平路789号(胶州路口)"},{"poiid":"B2094750D56EA0F4449D","title":"Indulge BRASSERIE&WINE","lon":"121.443214","lat":"31.232238","category":"247","category_name":"餐饮美食","address":"静安区常德路800号A3-1楼(近地铁7号线昌平路站)"},{"poiid":"B2094753D56BA4FE429D","title":"古宫炭","lon":"121.441543","lat":"31.234291","category":"247","category_name":"餐饮美食","address":"普陀区安远路534号2楼"},{"poiid":"B2094655D26AA1F4449E","title":"泛洋城市度假村","lon":"121.44316","lat":"31.23605","category":"247","category_name":"餐饮美食","address":"上海静安区余姚路55号(近西康路)"},{"poiid":"B2094654DA6CA2FC4292","title":"上海戏剧学院附属高级中学","lon":"121.44225","lat":"31.23205","category":"55","category_name":"中学","address":"静安区康定路770号(近胶州路)"},{"poiid":"B2094750D76EA0FE419F","title":"H2(余姚路店)","lon":"121.444","lat":"31.2361","category":"94","category_name":"西餐厅","address":"静安区余姚路27号(近西康路)"},{"poiid":"B2094654D565AAF5409B","title":"老灶店","lon":"121.44358","lat":"31.23639","category":"76","category_name":"上海菜","address":"静安区余姚路48号(近西康路)"},{"poiid":"B2094757D069A3F5489E","title":"小崔餐饮会馆","lon":"121.44187318","lat":"31.233430293","category":"76","category_name":"上海菜","address":"静安区常德路778号(近地铁7号线昌平路站)"},{"poiid":"B2094757D16CA6F5429D","title":"瑞美医疗保健中心","lon":"121.44047","lat":"31.23373","category":"500","category_name":"未知分类","address":"静安区昌平路868号3楼(昌平路胶州路)"},{"poiid":"B2094757D068A0FF479D","title":"肯德基 KFC(昌平店)","lon":"121.44227823","lat":"31.23432341","category":"68","category_name":"快餐厅","address":"静安区常德路770号(近昌平路)"},{"poiid":"B2094757D069A5F8449A","title":"轨道交通11号线(江苏路)","lon":"121.44177918","lat":"31.232080267","category":"500","category_name":"未知分类","address":"江苏路－嘉定北、安亭(江苏路愚园路)"},{"poiid":"B2094654D565AAF5499E","title":"上海市第一中学","lon":"121.44212","lat":"31.2359","category":"55","category_name":"中学","address":"静安区余姚路139号(近常德路)"},{"poiid":"B2094655D26DA6FE4299","title":"同乐坊(南门)","lon":"121.44344","lat":"31.23642","category":"656","category_name":"大门","address":"余姚路66号"},{"poiid":"B209475CD76FA6FD4299","title":"撈王鍋物料理 長壽店","lon":"121.441902","lat":"31.234632","category":"247","category_name":"餐饮美食","address":"上海市 胶州路883号(新会路)"},{"poiid":"B2094750D365A7FD459B","title":"虹桥火车站","lon":"121.442611","lat":"31.235071","category":"500","category_name":"未知分类","address":null},{"poiid":"B2094757D069A0FE409F","title":"地铁七号线昌平路站","lon":"121.4421564","lat":"31.2343812","category":"500","category_name":"未知分类","address":"上海常德路昌平路"},{"poiid":"B2094757D069A6F44698","title":"小黑厨房","lon":"121.44327545","lat":"31.235139846","category":"91","category_name":"台湾菜","address":"静安区安远路561号静安门大厦1楼(近胶州路)"},{"poiid":"B2094757D16DA0F9449D","title":"轨道交通2号线(江苏路)","lon":"121.441779186","lat":"31.2320802672","category":"500","category_name":"未知分类","address":"上海江苏路愚园路口(可换乘轨道交通11号线)"},{"poiid":"B2094757D46FABFE4393","title":"何记潮汕牛火锅","lon":"121.44276","lat":"31.233497","category":"86","category_name":"火锅店","address":"静安区常德路888号(近地铁7号线昌平路站)"},{"poiid":"B2094757D06AAAFF489C","title":"巧克共和","lon":"121.442845386","lat":"31.2352653296","category":"500","category_name":"未知分类","address":"上海余姚路"},{"poiid":"B2094757D06AA0FC489E","title":"川妹子麻辣烫","lon":"121.442894697","lat":"31.2320396716","category":"68","category_name":"快餐厅","address":"静安区康定路740号(近常德路)"},{"poiid":"B2094654D565A1F9479C","title":"静安律德大厦","lon":"121.442","lat":"31.2327","category":"46","category_name":"楼宇","address":"浦东区丁香路716号"},{"poiid":"B2094757D068A3F5459D","title":"静安科技馆","lon":"121.442632586","lat":"31.2345345153","category":"179","category_name":"音乐厅","address":"静安区常德路880号(近昌平路)"},{"poiid":"B2094654D565AAF54693","title":"金昌大厦","lon":"121.44376","lat":"31.23534","category":"46","category_name":"楼宇","address":"铁西区铁西兴华街与南十中路交处(兴华南街48号)"},{"poiid":"B2094757D169A7F94892","title":"昌平路","lon":"121.44117658","lat":"31.233583496","category":"500","category_name":"未知分类","address":"上海市静安区延平路"},{"poiid":"B2094757D06BA1F84699","title":"泛洋酒店","lon":"121.443059","lat":"31.236156","category":"217","category_name":"旅馆招待所","address":"上海市静安区余姚路55号（近西康路）"},{"poiid":"B2094757D068A7F8439D","title":"艾提尕尔清真馆","lon":"121.443208054","lat":"31.234689793","category":"90","category_name":"清真餐馆","address":"静安区昌平路665号(近常德路)"},{"poiid":"B209475DD368A6FC449D","title":"捞王锅物料理","lon":"121.441635","lat":"31.235837","category":"247","category_name":"餐饮美食","address":"上海市 胶州路883号"},{"poiid":"B2094655D36CA0F8459E","title":"胶州路康定路","lon":"121.44147","lat":"31.23254","category":"38","category_name":"公交车站","address":""},{"poiid":"B2094752D268A7FB499D","title":"Indulge Brasserie and Wine Bar","lon":"121.440933","lat":"31.233505","category":"247","category_name":"餐饮美食","address":"常德路800号A3-1楼"},{"poiid":"B2094757D068A5F4479A","title":"东安公寓","lon":"121.4447021","lat":"31.23412895","category":"47","category_name":"住宅区","address":"静安昌平路657号"},{"poiid":"B2094757D16EA6FF4592","title":"上戏附中","lon":"121.443183386","lat":"31.2318746632","category":"253","category_name":"校园生活","address":"上海康定路770"},{"poiid":"B2094752D069A4F84198","title":"浅深会所cheersum","lon":"121.442318","lat":"31.235636","category":"248","category_name":"生活娱乐","address":"常德路940号"},{"poiid":"B2094757D068AAF9479B","title":"德安大厦","lon":"121.44283","lat":"31.233873","category":"46","category_name":"楼宇","address":"上海市静安区常德路814号-818号"},{"poiid":"B2094757D068A0F84793","title":"劳动报社","lon":"121.44287872","lat":"31.234678268","category":"46","category_name":"楼宇","address":"上海静安区昌平路700号"},{"poiid":"B2094757D16EA0FB4193","title":"康定路","lon":"121.441600586","lat":"31.2325634767","category":"500","category_name":"未知分类","address":"上海市静安区延平路"},{"poiid":"B2094757D16EA5F84292","title":"好友咖啡 Les Amies","lon":"121.442725054","lat":"31.236589793","category":"65","category_name":"咖啡厅","address":"静安区海防路555号同乐坊12号楼(近西康路)"},{"poiid":"B2094655D36CA1F5479F","title":"康定路常德路","lon":"121.44337","lat":"31.23228","category":"38","category_name":"公交车站","address":""},{"poiid":"B2094654DB6AA3FB4798","title":"工行康定路支行","lon":"121.44362","lat":"31.2322","category":"150","category_name":"银行","address":"静安区康定路699路"},{"poiid":"B2094757D069AAF5419F","title":"手扎鱼","lon":"121.44396458","lat":"31.235910542","category":"68","category_name":"快餐厅","address":"普陀区新会路410号亚新后广场1楼(近常德路)"},{"poiid":"B2094757D06FA3FD4592","title":"同乐坊","lon":"121.44327","lat":"31.23616","category":"172","category_name":"酒吧","address":"静安区余姚路60号(近海防路)"},{"poiid":"B2094655D265A6F9449C","title":"800秀","lon":"121.44328","lat":"31.23363","category":"45","category_name":"产业园区","address":"上海静安区常德路800号(近昌平路)"},{"poiid":"B2094757D06FA3FF429D","title":"SKY club","lon":"121.443256034","lat":"31.236466859","category":"260","category_name":"其他","address":"静安区海防路555号同乐坊内"},{"poiid":"B209475CD564A7F8439E","title":"上海滩中信泰富店","lon":"121.45602","lat":"31.22851","category":"119","category_name":"商场","address":"\"南京西路1168号中信泰富广场，店铺号221.\r\n\""},{"poiid":"B2094757D66FA6FB429E","title":"星巴克 STARBUCKS (八百秀店)","lon":"121.44345","lat":"31.23283","category":"260","category_name":"其他","address":"静安区常德路800号八百秀(近昌平路)"},{"poiid":"B2094757D068A6FF4992","title":"泰爱","lon":"121.44360638","lat":"31.232807379","category":"99","category_name":"泰国／越南菜品餐厅","address":"静安区常德路800号(昌平路常德路)"},{"poiid":"B2094757D06EABF54892","title":"昌平路地铁站","lon":"121.442214","lat":"31.234335","category":"36","category_name":"地铁站","address":"上海轨道交通 七号线 轨交昌平路站 7"},{"poiid":"B2094654DB6AA3F8449A","title":"Muse 1","lon":"121.44301","lat":"31.23644","category":"247","category_name":"餐饮美食","address":"静安区余姚路68号同乐坊内(近海防路)"},{"poiid":"B2094757D068A5F5499D","title":"常德路昌平路","lon":"121.44119","lat":"31.233723","category":"46","category_name":"楼宇","address":"上海常德路昌平路路口"},{"poiid":"B2094757D06FA1F8429F","title":"静安区业余大学","lon":"121.4407","lat":"31.23305","category":"260","category_name":"其他","address":"静安区胶州路601号(近昌平路)"},{"poiid":"B2094757D06FA7F94698","title":"Muses Cafe","lon":"121.44162","lat":"31.23359","category":"260","category_name":"其他","address":"静安区昌平路789号(胶州路口)"},{"poiid":"B2094750D56EA0F4449D","title":"Indulge BRASSERIE&WINE","lon":"121.443214","lat":"31.232238","category":"247","category_name":"餐饮美食","address":"静安区常德路800号A3-1楼(近地铁7号线昌平路站)"},{"poiid":"B2094753D56BA4FE429D","title":"古宫炭","lon":"121.441543","lat":"31.234291","category":"247","category_name":"餐饮美食","address":"普陀区安远路534号2楼"},{"poiid":"B2094655D26AA1F4449E","title":"泛洋城市度假村","lon":"121.44316","lat":"31.23605","category":"247","category_name":"餐饮美食","address":"上海静安区余姚路55号(近西康路)"},{"poiid":"B2094654DA6CA2FC4292","title":"上海戏剧学院附属高级中学","lon":"121.44225","lat":"31.23205","category":"55","category_name":"中学","address":"静安区康定路770号(近胶州路)"},{"poiid":"B2094750D76EA0FE419F","title":"H2(余姚路店)","lon":"121.444","lat":"31.2361","category":"94","category_name":"西餐厅","address":"静安区余姚路27号(近西康路)"},{"poiid":"B2094654D565AAF5409B","title":"老灶店","lon":"121.44358","lat":"31.23639","category":"76","category_name":"上海菜","address":"静安区余姚路48号(近西康路)"},{"poiid":"B2094757D069A3F5489E","title":"小崔餐饮会馆","lon":"121.44187318","lat":"31.233430293","category":"76","category_name":"上海菜","address":"静安区常德路778号(近地铁7号线昌平路站)"},{"poiid":"B2094757D16CA6F5429D","title":"瑞美医疗保健中心","lon":"121.44047","lat":"31.23373","category":"500","category_name":"未知分类","address":"静安区昌平路868号3楼(昌平路胶州路)"},{"poiid":"B2094757D068A0FF479D","title":"肯德基 KFC(昌平店)","lon":"121.44227823","lat":"31.23432341","category":"68","category_name":"快餐厅","address":"静安区常德路770号(近昌平路)"},{"poiid":"B2094757D069A5F8449A","title":"轨道交通11号线(江苏路)","lon":"121.44177918","lat":"31.232080267","category":"500","category_name":"未知分类","address":"江苏路－嘉定北、安亭(江苏路愚园路)"},{"poiid":"B2094654D565AAF5499E","title":"上海市第一中学","lon":"121.44212","lat":"31.2359","category":"55","category_name":"中学","address":"静安区余姚路139号(近常德路)"},{"poiid":"B2094655D26DA6FE4299","title":"同乐坊(南门)","lon":"121.44344","lat":"31.23642","category":"656","category_name":"大门","address":"余姚路66号"},{"poiid":"B209475CD76FA6FD4299","title":"撈王鍋物料理 長壽店","lon":"121.441902","lat":"31.234632","category":"247","category_name":"餐饮美食","address":"上海市 胶州路883号(新会路)"},{"poiid":"B2094750D365A7FD459B","title":"虹桥火车站","lon":"121.442611","lat":"31.235071","category":"500","category_name":"未知分类","address":null},{"poiid":"B2094757D069A0FE409F","title":"地铁七号线昌平路站","lon":"121.4421564","lat":"31.2343812","category":"500","category_name":"未知分类","address":"上海常德路昌平路"},{"poiid":"B2094757D069A6F44698","title":"小黑厨房","lon":"121.44327545","lat":"31.235139846","category":"91","category_name":"台湾菜","address":"静安区安远路561号静安门大厦1楼(近胶州路)"},{"poiid":"B2094757D16DA0F9449D","title":"轨道交通2号线(江苏路)","lon":"121.441779186","lat":"31.2320802672","category":"500","category_name":"未知分类","address":"上海江苏路愚园路口(可换乘轨道交通11号线)"},{"poiid":"B2094757D46FABFE4393","title":"何记潮汕牛火锅","lon":"121.44276","lat":"31.233497","category":"86","category_name":"火锅店","address":"静安区常德路888号(近地铁7号线昌平路站)"},{"poiid":"B2094757D06AAAFF489C","title":"巧克共和","lon":"121.442845386","lat":"31.2352653296","category":"500","category_name":"未知分类","address":"上海余姚路"},{"poiid":"B2094757D06AA0FC489E","title":"川妹子麻辣烫","lon":"121.442894697","lat":"31.2320396716","category":"68","category_name":"快餐厅","address":"静安区康定路740号(近常德路)"},{"poiid":"B2094654D565A1F9479C","title":"静安律德大厦","lon":"121.442","lat":"31.2327","category":"46","category_name":"楼宇","address":"浦东区丁香路716号"},{"poiid":"B2094757D068A3F5459D","title":"静安科技馆","lon":"121.442632586","lat":"31.2345345153","category":"179","category_name":"音乐厅","address":"静安区常德路880号(近昌平路)"},{"poiid":"B2094654D565AAF54693","title":"金昌大厦","lon":"121.44376","lat":"31.23534","category":"46","category_name":"楼宇","address":"铁西区铁西兴华街与南十中路交处(兴华南街48号)"},{"poiid":"B2094757D169A7F94892","title":"昌平路","lon":"121.44117658","lat":"31.233583496","category":"500","category_name":"未知分类","address":"上海市静安区延平路"},{"poiid":"B2094757D06BA1F84699","title":"泛洋酒店","lon":"121.443059","lat":"31.236156","category":"217","category_name":"旅馆招待所","address":"上海市静安区余姚路55号（近西康路）"},{"poiid":"B2094757D068A7F8439D","title":"艾提尕尔清真馆","lon":"121.443208054","lat":"31.234689793","category":"90","category_name":"清真餐馆","address":"静安区昌平路665号(近常德路)"},{"poiid":"B209475DD368A6FC449D","title":"捞王锅物料理","lon":"121.441635","lat":"31.235837","category":"247","category_name":"餐饮美食","address":"上海市 胶州路883号"},{"poiid":"B2094655D36CA0F8459E","title":"胶州路康定路","lon":"121.44147","lat":"31.23254","category":"38","category_name":"公交车站","address":""},{"poiid":"B2094752D268A7FB499D","title":"Indulge Brasserie and Wine Bar","lon":"121.440933","lat":"31.233505","category":"247","category_name":"餐饮美食","address":"常德路800号A3-1楼"},{"poiid":"B2094757D068A5F4479A","title":"东安公寓","lon":"121.4447021","lat":"31.23412895","category":"47","category_name":"住宅区","address":"静安昌平路657号"},{"poiid":"B2094757D16EA6FF4592","title":"上戏附中","lon":"121.443183386","lat":"31.2318746632","category":"253","category_name":"校园生活","address":"上海康定路770"},{"poiid":"B2094752D069A4F84198","title":"浅深会所cheersum","lon":"121.442318","lat":"31.235636","category":"248","category_name":"生活娱乐","address":"常德路940号"},{"poiid":"B2094757D068AAF9479B","title":"德安大厦","lon":"121.44283","lat":"31.233873","category":"46","category_name":"楼宇","address":"上海市静安区常德路814号-818号"},{"poiid":"B2094757D068A0F84793","title":"劳动报社","lon":"121.44287872","lat":"31.234678268","category":"46","category_name":"楼宇","address":"上海静安区昌平路700号"},{"poiid":"B2094757D16EA0FB4193","title":"康定路","lon":"121.441600586","lat":"31.2325634767","category":"500","category_name":"未知分类","address":"上海市静安区延平路"},{"poiid":"B2094757D16EA5F84292","title":"好友咖啡 Les Amies","lon":"121.442725054","lat":"31.236589793","category":"65","category_name":"咖啡厅","address":"静安区海防路555号同乐坊12号楼(近西康路)"},{"poiid":"B2094655D36CA1F5479F","title":"康定路常德路","lon":"121.44337","lat":"31.23228","category":"38","category_name":"公交车站","address":""},{"poiid":"B2094654DB6AA3FB4798","title":"工行康定路支行","lon":"121.44362","lat":"31.2322","category":"150","category_name":"银行","address":"静安区康定路699路"},{"poiid":"B2094757D069AAF5419F","title":"手扎鱼","lon":"121.44396458","lat":"31.235910542","category":"68","category_name":"快餐厅","address":"普陀区新会路410号亚新后广场1楼(近常德路)"}]