[{"poiid":"B2094757D06FA3FC4093","title":"上海苏州河畔国际青年旅舍","lon":"121.4650892","lat":"31.2407474","category":"216","category_name":"经济型连锁酒店","address":"黄浦区南苏州路1307号(近地铁1号线新闸路地铁站)"},{"poiid":"B2094655D36DA0FE409D","title":"新闸路地铁站","lon":"121.46668","lat":"31.23916","category":"36","category_name":"地铁站","address":""},{"poiid":"B2094757D064A5F8439A","title":"上海浦西开元大酒店","lon":"121.466409738","lat":"31.2425445626","category":"217","category_name":"旅馆招待所","address":"闸北区新疆路518号"},{"poiid":"B2094753D76FAAFA449C","title":"上海滩国泰旗舰店","lon":"121.466011","lat":"31.216125","category":"249","category_name":"购物服务","address":"淮海中路868号"},{"poiid":"B209475CD564A7F84292","title":"上海滩新天地店","lon":"121.47463","lat":"31.22164","category":"119","category_name":"商场","address":"\"太仓路181弄新天地北里15号\r\n\""},{"poiid":"B209475CD564A7F8439E","title":"上海滩中信泰富店","lon":"121.45602","lat":"31.22851","category":"119","category_name":"商场","address":"\"南京西路1168号中信泰富广场，店铺号221.\r\n\""},{"poiid":"B2094757D06BA1FC4992","title":"WeeCoffee微咖","lon":"121.467156","lat":"31.239803901236","category":"65","category_name":"咖啡厅","address":"上海静安区新闸路356号102(近乌镇桥)"},{"poiid":"B2094654DA68A3F84993","title":"麦当劳(新闸路店)","lon":"121.46753","lat":"31.23901","category":"68","category_name":"快餐厅","address":"黄浦区新闸路245号(近新昌路)"},{"poiid":"B2094757D068A7FE409E","title":"上海公安局闸北分局","lon":"121.463845","lat":"31.24452","category":"260","category_name":"其他","address":"上海闸北区天目中路578号"},{"poiid":"B2094757D069A3F54899","title":"南岸艺术中心","lon":"121.466561738","lat":"31.2417175449","category":"179","category_name":"音乐厅","address":"黄浦区南苏州路1247号(近乌镇路桥)"},{"poiid":"B2094757D06FA6F84592","title":"黄浦区地方税务局","lon":"121.46609","lat":"31.240098","category":"252","category_name":"楼宇机构","address":"上海黄浦区新桥路68号"},{"poiid":"B2094757D06FA4F5439A","title":"新客站","lon":"121.464","lat":"31.24451","category":"76","category_name":"上海菜","address":"闸北区天目中路600号(近大统路)"},{"poiid":"B2094757D06FABFA429B","title":"上海北站医院","lon":"121.465149652","lat":"31.2435745125","category":"162","category_name":"医院","address":"闸北区南星路29号(近天目中路)"},{"poiid":"B2094654DA68A3F9499C","title":"新桥大厦","lon":"121.46598","lat":"31.2402","category":"46","category_name":"楼宇","address":"新桥路68"},{"poiid":"B2094757D06FA5FA4199","title":"棒约翰比萨(大悦城店)","lon":"121.467054","lat":"31.243526","category":"94","category_name":"西餐厅","address":"闸北区西藏北路166号大悦城7楼"},{"poiid":"B2094757D068AAFB429B","title":"豪享来上海天目店","lon":"121.4665","lat":"31.2451","category":"247","category_name":"餐饮美食","address":"上海市闸北区天目中路463号甲"},{"poiid":"B2094757D069ABFB469B","title":"雕刻时光咖啡馆(创意仓库店)","lon":"121.46884","lat":"31.239848","category":"260","category_name":"其他","address":"闸北区光复路181号四行仓库创意园区301室"},{"poiid":"B2094654DB6BABFE429E","title":"阿英煲","lon":"121.46802","lat":"31.24396","category":"260","category_name":"其他","address":"闸北区海宁路1415号(天目中路口)"},{"poiid":"B2094757D06FA3FA439C","title":"新福康里","lon":"121.464","lat":"31.2411","category":"47","category_name":"住宅区","address":"上海市浦东新区永泰路环林西路口"},{"poiid":"B2094757D064A2FD419D","title":"Rita Drinks","lon":"121.464425","lat":"31.24035","category":"65","category_name":"咖啡厅","address":"静安区新闸路916号(近泰兴路)"},{"poiid":"B2094757D069A0FD4193","title":"丽都新贵","lon":"121.466","lat":"31.2407","category":"500","category_name":"未知分类","address":"北一环与亳州路交叉口(庐阳区政府对面)"},{"poiid":"B2094757D068A4FE469A","title":"九子公园","lon":"121.46420335","lat":"31.2404103746","category":"196","category_name":"公园","address":"黄浦区成都北路高架东侧(南苏州路)"},{"poiid":"B2094757D06AA3FD4298","title":"绿地海悦公寓","lon":"121.466251","lat":"31.242498","category":"47","category_name":"住宅区","address":"上海市闸北区新疆路450号"},{"poiid":"B2094757D16AA4FA4198","title":"乌镇路烧烤摊","lon":"121.4672","lat":"31.24302","category":"68","category_name":"快餐厅","address":"闸北区新疆路凯旋门保健品市场附近(近乌镇路)"},{"poiid":"B2094757D16EABFB469A","title":"南星小区","lon":"121.46614","lat":"31.243567","category":"47","category_name":"住宅区","address":"上海闸北区新疆路乌镇路(近天目中路海宁路)"},{"poiid":"B2094757D165AAF9449D","title":"虹桥机场T1机坪42号机位","lon":"121.464023","lat":"31.24442","category":"500","category_name":"未知分类","address":null},{"poiid":"B2094752D76CA6F44199","title":"杨浦区中心医院","lon":"121.463443","lat":"31.241908","category":"162","category_name":"医院","address":null},{"poiid":"B2094655D265A4F9489A","title":"中心铂庭","lon":"121.46493","lat":"31.24394","category":"47","category_name":"住宅区","address":"上海市长宁区延安西路2077号"},{"poiid":"B2094750D768A4FB449D","title":"回香斋","lon":"121.467","lat":"31.2432","category":"68","category_name":"快餐厅","address":"闸北区新疆路414号(近凯旋门大厦)"},{"poiid":"B2094757D16EA1FD4492","title":"振安广场","lon":"121.46606705122","lat":"31.241573591986","category":"500","category_name":"未知分类","address":"上海市静安区石门二路301号"},{"poiid":"B2094752D16CA2F9439C","title":"上海南京东路尚一汤","lon":"121.46518","lat":"31.241991","category":"247","category_name":"餐饮美食","address":"上海南京东路300号名人商厦422"},{"poiid":"B2094654DA6FAAFB4499","title":"华祺苑","lon":"121.4687","lat":"31.243601","category":"47","category_name":"住宅区","address":"上海晋元路228弄"},{"poiid":"B2094757D165AAFE409E","title":"QQ RICE(大悦城店)","lon":"121.466936738","lat":"31.2425445626","category":"500","category_name":"未知分类","address":"上海闸北区曲阜路180号"},{"poiid":"B2094655D268ABFE429E","title":"慈爱公寓","lon":"121.46569014407","lat":"31.242680586205","category":"47","category_name":"住宅区","address":"武定路1135弄3号"},{"poiid":"B2094757D569A6FE4792","title":"婷婷饮食店","lon":"121.464973","lat":"31.243194","category":"68","category_name":"快餐厅","address":"闸北区南星路69号(近大统路)"},{"poiid":"B2094655D26BA4F8459B","title":"悦达黄浦河滨大厦","lon":"121.4669","lat":"31.23974","category":"46","category_name":"楼宇","address":"上海市黄浦区新闸路356号"},{"poiid":"B2094655D26BA2FD419B","title":"乌镇路蒙古路","lon":"121.4673","lat":"31.2425","category":"38","category_name":"公交车站","address":""},{"poiid":"B2094757D56DA2FA489E","title":"苏河厨房 Creek Kitchen","lon":"121.46357907509","lat":"31.242091307422","category":"94","category_name":"西餐厅","address":"闸北区光复路423号苏河艺术6楼(近乌镇路)"},{"poiid":"B2094654DB6BABFE4192","title":"东北菜馆 大统店","lon":"121.463410054","lat":"31.244066793","category":"82","category_name":"东北菜","address":"闸北区大统路135号(大统路南星路)"},{"poiid":"B2094654DA6FAAF44093","title":"众昌金城大厦","lon":"121.4684","lat":"31.24397","category":"46","category_name":"楼宇","address":"沈河北站路与北京街的交汇处"},{"poiid":"B2094654DA6FA2FC4198","title":"海文大楼","lon":"121.46728","lat":"31.24489","category":"46","category_name":"楼宇","address":"天目中路383"},{"poiid":"B2094654DA6FAAFB4098","title":"阿文潮汕食府","lon":"121.4701174688","lat":"31.240328442631","category":"72","category_name":"广东菜","address":"闸北区国庆路110号(近曲阜西路)"},{"poiid":"B2094757D06AA0FD459C","title":"新东方人民广场校区","lon":"121.46692657","lat":"31.239282608","category":"500","category_name":"未知分类","address":"上海新闸路355号"},{"poiid":"B2094655D26BA4FC459E","title":"陶瓷大楼","lon":"121.46735","lat":"31.24077","category":"46","category_name":"楼宇","address":"光复路277-279"},{"poiid":"B2094655D269A4F4409E","title":"烹然心动创意厨艺坊 Cook for you Culinary Studio","lon":"121.466170054","lat":"31.239057793","category":"247","category_name":"餐饮美食","address":"新桥路68号新桥大厦15C层近新闸路"},{"poiid":"B2094752D06AA4FF4798","title":"杨浦公园","lon":"121.463638","lat":"31.239757","category":"250","category_name":"公园户外","address":null},{"poiid":"B2094751D56DA5FC4992","title":"大悦城","lon":"121.466088","lat":"31.239219","category":"500","category_name":"未知分类","address":null},{"poiid":"B2094655D26BABF4459D","title":"维刊健身会所","lon":"121.467","lat":"31.24239","category":"221","category_name":"健身中心","address":"乌镇路118"},{"poiid":"B2094655D26DA7FC449B","title":"上海市裘锦秋实验学校(东门)","lon":"121.46567","lat":"31.23998","category":"678","category_name":"学校大门","address":"新桥路55"},{"poiid":"B2094654DB65A5F8419A","title":"光明便利No.260","lon":"121.46746","lat":"31.24102","category":"117","category_name":"便民商店/便利店","address":""},{"poiid":"B2094757D06FA3FC4093","title":"上海苏州河畔国际青年旅舍","lon":"121.4650892","lat":"31.2407474","category":"216","category_name":"经济型连锁酒店","address":"黄浦区南苏州路1307号(近地铁1号线新闸路地铁站)"},{"poiid":"B2094655D36DA0FE409D","title":"新闸路地铁站","lon":"121.46668","lat":"31.23916","category":"36","category_name":"地铁站","address":""},{"poiid":"B2094757D064A5F8439A","title":"上海浦西开元大酒店","lon":"121.466409738","lat":"31.2425445626","category":"217","category_name":"旅馆招待所","address":"闸北区新疆路518号"},{"poiid":"B2094753D76FAAFA449C","title":"上海滩国泰旗舰店","lon":"121.466011","lat":"31.216125","category":"249","category_name":"购物服务","address":"淮海中路868号"},{"poiid":"B209475CD564A7F84292","title":"上海滩新天地店","lon":"121.47463","lat":"31.22164","category":"119","category_name":"商场","address":"\"太仓路181弄新天地北里15号\r\n\""},{"poiid":"B209475CD564A7F8439E","title":"上海滩中信泰富店","lon":"121.45602","lat":"31.22851","category":"119","category_name":"商场","address":"\"南京西路1168号中信泰富广场，店铺号221.\r\n\""},{"poiid":"B2094757D06BA1FC4992","title":"WeeCoffee微咖","lon":"121.467156","lat":"31.239803901236","category":"65","category_name":"咖啡厅","address":"上海静安区新闸路356号102(近乌镇桥)"},{"poiid":"B2094654DA68A3F84993","title":"麦当劳(新闸路店)","lon":"121.46753","lat":"31.23901","category":"68","category_name":"快餐厅","address":"黄浦区新闸路245号(近新昌路)"},{"poiid":"B2094757D068A7FE409E","title":"上海公安局闸北分局","lon":"121.463845","lat":"31.24452","category":"260","category_name":"其他","address":"上海闸北区天目中路578号"},{"poiid":"B2094757D069A3F54899","title":"南岸艺术中心","lon":"121.466561738","lat":"31.2417175449","category":"179","category_name":"音乐厅","address":"黄浦区南苏州路1247号(近乌镇路桥)"},{"poiid":"B2094757D06FA6F84592","title":"黄浦区地方税务局","lon":"121.46609","lat":"31.240098","category":"252","category_name":"楼宇机构","address":"上海黄浦区新桥路68号"},{"poiid":"B2094757D06FA4F5439A","title":"新客站","lon":"121.464","lat":"31.24451","category":"76","category_name":"上海菜","address":"闸北区天目中路600号(近大统路)"},{"poiid":"B2094757D06FABFA429B","title":"上海北站医院","lon":"121.465149652","lat":"31.2435745125","category":"162","category_name":"医院","address":"闸北区南星路29号(近天目中路)"},{"poiid":"B2094654DA68A3F9499C","title":"新桥大厦","lon":"121.46598","lat":"31.2402","category":"46","category_name":"楼宇","address":"新桥路68"},{"poiid":"B2094757D06FA5FA4199","title":"棒约翰比萨(大悦城店)","lon":"121.467054","lat":"31.243526","category":"94","category_name":"西餐厅","address":"闸北区西藏北路166号大悦城7楼"},{"poiid":"B2094757D068AAFB429B","title":"豪享来上海天目店","lon":"121.4665","lat":"31.2451","category":"247","category_name":"餐饮美食","address":"上海市闸北区天目中路463号甲"},{"poiid":"B2094757D069ABFB469B","title":"雕刻时光咖啡馆(创意仓库店)","lon":"121.46884","lat":"31.239848","category":"260","category_name":"其他","address":"闸北区光复路181号四行仓库创意园区301室"},{"poiid":"B2094654DB6BABFE429E","title":"阿英煲","lon":"121.46802","lat":"31.24396","category":"260","category_name":"其他","address":"闸北区海宁路1415号(天目中路口)"},{"poiid":"B2094757D06FA3FA439C","title":"新福康里","lon":"121.464","lat":"31.2411","category":"47","category_name":"住宅区","address":"上海市浦东新区永泰路环林西路口"},{"poiid":"B2094757D064A2FD419D","title":"Rita Drinks","lon":"121.464425","lat":"31.24035","category":"65","category_name":"咖啡厅","address":"静安区新闸路916号(近泰兴路)"},{"poiid":"B2094757D069A0FD4193","title":"丽都新贵","lon":"121.466","lat":"31.2407","category":"500","category_name":"未知分类","address":"北一环与亳州路交叉口(庐阳区政府对面)"},{"poiid":"B2094757D068A4FE469A","title":"九子公园","lon":"121.46420335","lat":"31.2404103746","category":"196","category_name":"公园","address":"黄浦区成都北路高架东侧(南苏州路)"},{"poiid":"B2094757D06AA3FD4298","title":"绿地海悦公寓","lon":"121.466251","lat":"31.242498","category":"47","category_name":"住宅区","address":"上海市闸北区新疆路450号"},{"poiid":"B2094757D16AA4FA4198","title":"乌镇路烧烤摊","lon":"121.4672","lat":"31.24302","category":"68","category_name":"快餐厅","address":"闸北区新疆路凯旋门保健品市场附近(近乌镇路)"},{"poiid":"B2094757D16EABFB469A","title":"南星小区","lon":"121.46614","lat":"31.243567","category":"47","category_name":"住宅区","address":"上海闸北区新疆路乌镇路(近天目中路海宁路)"},{"poiid":"B2094757D165AAF9449D","title":"虹桥机场T1机坪42号机位","lon":"121.464023","lat":"31.24442","category":"500","category_name":"未知分类","address":null},{"poiid":"B2094752D76CA6F44199","title":"杨浦区中心医院","lon":"121.463443","lat":"31.241908","category":"162","category_name":"医院","address":null},{"poiid":"B2094655D265A4F9489A","title":"中心铂庭","lon":"121.46493","lat":"31.24394","category":"47","category_name":"住宅区","address":"上海市长宁区延安西路2077号"},{"poiid":"B2094750D768A4FB449D","title":"回香斋","lon":"121.467","lat":"31.2432","category":"68","category_name":"快餐厅","address":"闸北区新疆路414号(近凯旋门大厦)"},{"poiid":"B2094757D16EA1FD4492","title":"振安广场","lon":"121.46606705122","lat":"31.241573591986","category":"500","category_name":"未知分类","address":"上海市静安区石门二路301号"},{"poiid":"B2094752D16CA2F9439C","title":"上海南京东路尚一汤","lon":"121.46518","lat":"31.241991","category":"247","category_name":"餐饮美食","address":"上海南京东路300号名人商厦422"},{"poiid":"B2094654DA6FAAFB4499","title":"华祺苑","lon":"121.4687","lat":"31.243601","category":"47","category_name":"住宅区","address":"上海晋元路228弄"},{"poiid":"B2094757D165AAFE409E","title":"QQ RICE(大悦城店)","lon":"121.466936738","lat":"31.2425445626","category":"500","category_name":"未知分类","address":"上海闸北区曲阜路180号"},{"poiid":"B2094655D268ABFE429E","title":"慈爱公寓","lon":"121.46569014407","lat":"31.242680586205","category":"47","category_name":"住宅区","address":"武定路1135弄3号"},{"poiid":"B2094757D569A6FE4792","title":"婷婷饮食店","lon":"121.464973","lat":"31.243194","category":"68","category_name":"快餐厅","address":"闸北区南星路69号(近大统路)"},{"poiid":"B2094655D26BA4F8459B","title":"悦达黄浦河滨大厦","lon":"121.4669","lat":"31.23974","category":"46","category_name":"楼宇","address":"上海市黄浦区新闸路356号"},{"poiid":"B2094655D26BA2FD419B","title":"乌镇路蒙古路","lon":"121.4673","lat":"31.2425","category":"38","category_name":"公交车站","address":""},{"poiid":"B2094757D56DA2FA489E","title":"苏河厨房 Creek Kitchen","lon":"121.46357907509","lat":"31.242091307422","category":"94","category_name":"西餐厅","address":"闸北区光复路423号苏河艺术6楼(近乌镇路)"},{"poiid":"B2094654DB6BABFE4192","title":"东北菜馆 大统店","lon":"121.463410054","lat":"31.244066793","category":"82","category_name":"东北菜","address":"闸北区大统路135号(大统路南星路)"},{"poiid":"B2094654DA6FAAF44093","title":"众昌金城大厦","lon":"121.4684","lat":"31.24397","category":"46","category_name":"楼宇","address":"沈河北站路与北京街的交汇处"},{"poiid":"B2094654DA6FA2FC4198","title":"海文大楼","lon":"121.46728","lat":"31.24489","category":"46","category_name":"楼宇","address":"天目中路383"},{"poiid":"B2094654DA6FAAFB4098","title":"阿文潮汕食府","lon":"121.4701174688","lat":"31.240328442631","category":"72","category_name":"广东菜","address":"闸北区国庆路110号(近曲阜西路)"},{"poiid":"B2094757D06AA0FD459C","title":"新东方人民广场校区","lon":"121.46692657","lat":"31.239282608","category":"500","category_name":"未知分类","address":"上海新闸路355号"},{"poiid":"B2094655D26BA4FC459E","title":"陶瓷大楼","lon":"121.46735","lat":"31.24077","category":"46","category_name":"楼宇","address":"光复路277-279"},{"poiid":"B2094655D269A4F4409E","title":"烹然心动创意厨艺坊 Cook for you Culinary Studio","lon":"121.466170054","lat":"31.239057793","category":"247","category_name":"餐饮美食","address":"新桥路68号新桥大厦15C层近新闸路"},{"poiid":"B2094752D06AA4FF4798","title":"杨浦公园","lon":"121.463638","lat":"31.239757","category":"250","category_name":"公园户外","address":null},{"poiid":"B2094751D56DA5FC4992","title":"大悦城","lon":"121.466088","lat":"31.239219","category":"500","category_name":"未知分类","address":null},{"poiid":"B2094655D26BABF4459D","title":"维刊健身会所","lon":"121.467","lat":"31.24239","category":"221","category_name":"健身中心","address":"乌镇路118"},{"poiid":"B2094655D26DA7FC449B","title":"上海市裘锦秋实验学校(东门)","lon":"121.46567","lat":"31.23998","category":"678","category_name":"学校大门","address":"新桥路55"},{"poiid":"B2094654DB65A5F8419A","title":"光明便利No.260","lon":"121.46746","lat":"31.24102","category":"117","category_name":"便民商店/便利店","address":""},{"poiid":"B2094757D06FA3FC4093","title":"上海苏州河畔国际青年旅舍","lon":"121.4650892","lat":"31.2407474","category":"216","category_name":"经济型连锁酒店","address":"黄浦区南苏州路1307号(近地铁1号线新闸路地铁站)"},{"poiid":"B2094655D36DA0FE409D","title":"新闸路地铁站","lon":"121.46668","lat":"31.23916","category":"36","category_name":"地铁站","address":""},{"poiid":"B2094757D064A5F8439A","title":"上海浦西开元大酒店","lon":"121.466409738","lat":"31.2425445626","category":"217","category_name":"旅馆招待所","address":"闸北区新疆路518号"},{"poiid":"B2094753D76FAAFA449C","title":"上海滩国泰旗舰店","lon":"121.466011","lat":"31.216125","category":"249","category_name":"购物服务","address":"淮海中路868号"},{"poiid":"B209475CD564A7F84292","title":"上海滩新天地店","lon":"121.47463","lat":"31.22164","category":"119","category_name":"商场","address":"\"太仓路181弄新天地北里15号\r\n\""},{"poiid":"B209475CD564A7F8439E","title":"上海滩中信泰富店","lon":"121.45602","lat":"31.22851","category":"119","category_name":"商场","address":"\"南京西路1168号中信泰富广场，店铺号221.\r\n\""},{"poiid":"B2094757D06BA1FC4992","title":"WeeCoffee微咖","lon":"121.467156","lat":"31.239803901236","category":"65","category_name":"咖啡厅","address":"上海静安区新闸路356号102(近乌镇桥)"},{"poiid":"B2094654DA68A3F84993","title":"麦当劳(新闸路店)","lon":"121.46753","lat":"31.23901","category":"68","category_name":"快餐厅","address":"黄浦区新闸路245号(近新昌路)"},{"poiid":"B2094757D068A7FE409E","title":"上海公安局闸北分局","lon":"121.463845","lat":"31.24452","category":"260","category_name":"其他","address":"上海闸北区天目中路578号"},{"poiid":"B2094757D069A3F54899","title":"南岸艺术中心","lon":"121.466561738","lat":"31.2417175449","category":"179","category_name":"音乐厅","address":"黄浦区南苏州路1247号(近乌镇路桥)"},{"poiid":"B2094757D06FA6F84592","title":"黄浦区地方税务局","lon":"121.46609","lat":"31.240098","category":"252","category_name":"楼宇机构","address":"上海黄浦区新桥路68号"},{"poiid":"B2094757D06FA4F5439A","title":"新客站","lon":"121.464","lat":"31.24451","category":"76","category_name":"上海菜","address":"闸北区天目中路600号(近大统路)"},{"poiid":"B2094757D06FABFA429B","title":"上海北站医院","lon":"121.465149652","lat":"31.2435745125","category":"162","category_name":"医院","address":"闸北区南星路29号(近天目中路)"},{"poiid":"B2094654DA68A3F9499C","title":"新桥大厦","lon":"121.46598","lat":"31.2402","category":"46","category_name":"楼宇","address":"新桥路68"},{"poiid":"B2094757D06FA5FA4199","title":"棒约翰比萨(大悦城店)","lon":"121.467054","lat":"31.243526","category":"94","category_name":"西餐厅","address":"闸北区西藏北路166号大悦城7楼"},{"poiid":"B2094757D068AAFB429B","title":"豪享来上海天目店","lon":"121.4665","lat":"31.2451","category":"247","category_name":"餐饮美食","address":"上海市闸北区天目中路463号甲"},{"poiid":"B2094757D069ABFB469B","title":"雕刻时光咖啡馆(创意仓库店)","lon":"121.46884","lat":"31.239848","category":"260","category_name":"其他","address":"闸北区光复路181号四行仓库创意园区301室"},{"poiid":"B2094654DB6BABFE429E","title":"阿英煲","lon":"121.46802","lat":"31.24396","category":"260","category_name":"其他","address":"闸北区海宁路1415号(天目中路口)"},{"poiid":"B2094757D06FA3FA439C","title":"新福康里","lon":"121.464","lat":"31.2411","category":"47","category_name":"住宅区","address":"上海市浦东新区永泰路环林西路口"},{"poiid":"B2094757D064A2FD419D","title":"Rita Drinks","lon":"121.464425","lat":"31.24035","category":"65","category_name":"咖啡厅","address":"静安区新闸路916号(近泰兴路)"},{"poiid":"B2094757D069A0FD4193","title":"丽都新贵","lon":"121.466","lat":"31.2407","category":"500","category_name":"未知分类","address":"北一环与亳州路交叉口(庐阳区政府对面)"},{"poiid":"B2094757D068A4FE469A","title":"九子公园","lon":"121.46420335","lat":"31.2404103746","category":"196","category_name":"公园","address":"黄浦区成都北路高架东侧(南苏州路)"},{"poiid":"B2094757D06AA3FD4298","title":"绿地海悦公寓","lon":"121.466251","lat":"31.242498","category":"47","category_name":"住宅区","address":"上海市闸北区新疆路450号"},{"poiid":"B2094757D16AA4FA4198","title":"乌镇路烧烤摊","lon":"121.4672","lat":"31.24302","category":"68","category_name":"快餐厅","address":"闸北区新疆路凯旋门保健品市场附近(近乌镇路)"},{"poiid":"B2094757D16EABFB469A","title":"南星小区","lon":"121.46614","lat":"31.243567","category":"47","category_name":"住宅区","address":"上海闸北区新疆路乌镇路(近天目中路海宁路)"},{"poiid":"B2094757D165AAF9449D","title":"虹桥机场T1机坪42号机位","lon":"121.464023","lat":"31.24442","category":"500","category_name":"未知分类","address":null},{"poiid":"B2094752D76CA6F44199","title":"杨浦区中心医院","lon":"121.463443","lat":"31.241908","category":"162","category_name":"医院","address":null},{"poiid":"B2094655D265A4F9489A","title":"中心铂庭","lon":"121.46493","lat":"31.24394","category":"47","category_name":"住宅区","address":"上海市长宁区延安西路2077号"},{"poiid":"B2094750D768A4FB449D","title":"回香斋","lon":"121.467","lat":"31.2432","category":"68","category_name":"快餐厅","address":"闸北区新疆路414号(近凯旋门大厦)"},{"poiid":"B2094757D16EA1FD4492","title":"振安广场","lon":"121.46606705122","lat":"31.241573591986","category":"500","category_name":"未知分类","address":"上海市静安区石门二路301号"},{"poiid":"B2094752D16CA2F9439C","title":"上海南京东路尚一汤","lon":"121.46518","lat":"31.241991","category":"247","category_name":"餐饮美食","address":"上海南京东路300号名人商厦422"},{"poiid":"B2094654DA6FAAFB4499","title":"华祺苑","lon":"121.4687","lat":"31.243601","category":"47","category_name":"住宅区","address":"上海晋元路228弄"},{"poiid":"B2094757D165AAFE409E","title":"QQ RICE(大悦城店)","lon":"121.466936738","lat":"31.2425445626","category":"500","category_name":"未知分类","address":"上海闸北区曲阜路180号"},{"poiid":"B2094655D268ABFE429E","title":"慈爱公寓","lon":"121.46569014407","lat":"31.242680586205","category":"47","category_name":"住宅区","address":"武定路1135弄3号"},{"poiid":"B2094757D569A6FE4792","title":"婷婷饮食店","lon":"121.464973","lat":"31.243194","category":"68","category_name":"快餐厅","address":"闸北区南星路69号(近大统路)"},{"poiid":"B2094655D26BA4F8459B","title":"悦达黄浦河滨大厦","lon":"121.4669","lat":"31.23974","category":"46","category_name":"楼宇","address":"上海市黄浦区新闸路356号"},{"poiid":"B2094655D26BA2FD419B","title":"乌镇路蒙古路","lon":"121.4673","lat":"31.2425","category":"38","category_name":"公交车站","address":""},{"poiid":"B2094757D56DA2FA489E","title":"苏河厨房 Creek Kitchen","lon":"121.46357907509","lat":"31.242091307422","category":"94","category_name":"西餐厅","address":"闸北区光复路423号苏河艺术6楼(近乌镇路)"},{"poiid":"B2094654DB6BABFE4192","title":"东北菜馆 大统店","lon":"121.463410054","lat":"31.244066793","category":"82","category_name":"东北菜","address":"闸北区大统路135号(大统路南星路)"},{"poiid":"B2094654DA6FAAF44093","title":"众昌金城大厦","lon":"121.4684","lat":"31.24397","category":"46","category_name":"楼宇","address":"沈河北站路与北京街的交汇处"},{"poiid":"B2094654DA6FA2FC4198","title":"海文大楼","lon":"121.46728","lat":"31.24489","category":"46","category_name":"楼宇","address":"天目中路383"},{"poiid":"B2094654DA6FAAFB4098","title":"阿文潮汕食府","lon":"121.4701174688","lat":"31.240328442631","category":"72","category_name":"广东菜","address":"闸北区国庆路110号(近曲阜西路)"},{"poiid":"B2094757D06AA0FD459C","title":"新东方人民广场校区","lon":"121.46692657","lat":"31.239282608","category":"500","category_name":"未知分类","address":"上海新闸路355号"},{"poiid":"B2094655D26BA4FC459E","title":"陶瓷大楼","lon":"121.46735","lat":"31.24077","category":"46","category_name":"楼宇","address":"光复路277-279"},{"poiid":"B2094655D269A4F4409E","title":"烹然心动创意厨艺坊 Cook for you Culinary Studio","lon":"121.466170054","lat":"31.239057793","category":"247","category_name":"餐饮美食","address":"新桥路68号新桥大厦15C层近新闸路"},{"poiid":"B2094752D06AA4FF4798","title":"杨浦公园","lon":"121.463638","lat":"31.239757","category":"250","category_name":"公园户外","address":null},{"poiid":"B2094751D56DA5FC4992","title":"大悦城","lon":"121.466088","lat":"31.239219","category":"500","category_name":"未知分类","address":null},{"poiid":"B2094655D26BABF4459D","title":"维刊健身会所","lon":"121.467","lat":"31.24239","category":"221","category_name":"健身中心","address":"乌镇路118"},{"poiid":"B2094655D26DA7FC449B","title":"上海市裘锦秋实验学校(东门)","lon":"121.46567","lat":"31.23998","category":"678","category_name":"学校大门","address":"新桥路55"},{"poiid":"B2094654DB65A5F8419A","title":"光明便利No.260","lon":"121.46746","lat":"31.24102","category":"117","category_name":"便民商店/便利店","address":""},{"poiid":"B2094757D06FA3FC4093","title":"上海苏州河畔国际青年旅舍","lon":"121.4650892","lat":"31.2407474","category":"216","category_name":"经济型连锁酒店","address":"黄浦区南苏州路1307号(近地铁1号线新闸路地铁站)"},{"poiid":"B2094655D36DA0FE409D","title":"新闸路地铁站","lon":"121.46668","lat":"31.23916","category":"36","category_name":"地铁站","address":""},{"poiid":"B2094757D064A5F8439A","title":"上海浦西开元大酒店","lon":"121.466409738","lat":"31.2425445626","category":"217","category_name":"旅馆招待所","address":"闸北区新疆路518号"},{"poiid":"B2094753D76FAAFA449C","title":"上海滩国泰旗舰店","lon":"121.466011","lat":"31.216125","category":"249","category_name":"购物服务","address":"淮海中路868号"},{"poiid":"B209475CD564A7F84292","title":"上海滩新天地店","lon":"121.47463","lat":"31.22164","category":"119","category_name":"商场","address":"\"太仓路181弄新天地北里15号\r\n\""},{"poiid":"B209475CD564A7F8439E","title":"上海滩中信泰富店","lon":"121.45602","lat":"31.22851","category":"119","category_name":"商场","address":"\"南京西路1168号中信泰富广场，店铺号221.\r\n\""},{"poiid":"B2094757D06BA1FC4992","title":"WeeCoffee微咖","lon":"121.467156","lat":"31.239803901236","category":"65","category_name":"咖啡厅","address":"上海静安区新闸路356号102(近乌镇桥)"},{"poiid":"B2094654DA68A3F84993","title":"麦当劳(新闸路店)","lon":"121.46753","lat":"31.23901","category":"68","category_name":"快餐厅","address":"黄浦区新闸路245号(近新昌路)"},{"poiid":"B2094757D068A7FE409E","title":"上海公安局闸北分局","lon":"121.463845","lat":"31.24452","category":"260","category_name":"其他","address":"上海闸北区天目中路578号"},{"poiid":"B2094757D069A3F54899","title":"南岸艺术中心","lon":"121.466561738","lat":"31.2417175449","category":"179","category_name":"音乐厅","address":"黄浦区南苏州路1247号(近乌镇路桥)"},{"poiid":"B2094757D06FA6F84592","title":"黄浦区地方税务局","lon":"121.46609","lat":"31.240098","category":"252","category_name":"楼宇机构","address":"上海黄浦区新桥路68号"},{"poiid":"B2094757D06FA4F5439A","title":"新客站","lon":"121.464","lat":"31.24451","category":"76","category_name":"上海菜","address":"闸北区天目中路600号(近大统路)"},{"poiid":"B2094757D06FABFA429B","title":"上海北站医院","lon":"121.465149652","lat":"31.2435745125","category":"162","category_name":"医院","address":"闸北区南星路29号(近天目中路)"},{"poiid":"B2094654DA68A3F9499C","title":"新桥大厦","lon":"121.46598","lat":"31.2402","category":"46","category_name":"楼宇","address":"新桥路68"},{"poiid":"B2094757D06FA5FA4199","title":"棒约翰比萨(大悦城店)","lon":"121.467054","lat":"31.243526","category":"94","category_name":"西餐厅","address":"闸北区西藏北路166号大悦城7楼"},{"poiid":"B2094757D068AAFB429B","title":"豪享来上海天目店","lon":"121.4665","lat":"31.2451","category":"247","category_name":"餐饮美食","address":"上海市闸北区天目中路463号甲"},{"poiid":"B2094757D069ABFB469B","title":"雕刻时光咖啡馆(创意仓库店)","lon":"121.46884","lat":"31.239848","category":"260","category_name":"其他","address":"闸北区光复路181号四行仓库创意园区301室"},{"poiid":"B2094654DB6BABFE429E","title":"阿英煲","lon":"121.46802","lat":"31.24396","category":"260","category_name":"其他","address":"闸北区海宁路1415号(天目中路口)"},{"poiid":"B2094757D06FA3FA439C","title":"新福康里","lon":"121.464","lat":"31.2411","category":"47","category_name":"住宅区","address":"上海市浦东新区永泰路环林西路口"},{"poiid":"B2094757D064A2FD419D","title":"Rita Drinks","lon":"121.464425","lat":"31.24035","category":"65","category_name":"咖啡厅","address":"静安区新闸路916号(近泰兴路)"},{"poiid":"B2094757D069A0FD4193","title":"丽都新贵","lon":"121.466","lat":"31.2407","category":"500","category_name":"未知分类","address":"北一环与亳州路交叉口(庐阳区政府对面)"},{"poiid":"B2094757D068A4FE469A","title":"九子公园","lon":"121.46420335","lat":"31.2404103746","category":"196","category_name":"公园","address":"黄浦区成都北路高架东侧(南苏州路)"},{"poiid":"B2094757D06AA3FD4298","title":"绿地海悦公寓","lon":"121.466251","lat":"31.242498","category":"47","category_name":"住宅区","address":"上海市闸北区新疆路450号"},{"poiid":"B2094757D16AA4FA4198","title":"乌镇路烧烤摊","lon":"121.4672","lat":"31.24302","category":"68","category_name":"快餐厅","address":"闸北区新疆路凯旋门保健品市场附近(近乌镇路)"},{"poiid":"B2094757D16EABFB469A","title":"南星小区","lon":"121.46614","lat":"31.243567","category":"47","category_name":"住宅区","address":"上海闸北区新疆路乌镇路(近天目中路海宁路)"},{"poiid":"B2094757D165AAF9449D","title":"虹桥机场T1机坪42号机位","lon":"121.464023","lat":"31.24442","category":"500","category_name":"未知分类","address":null},{"poiid":"B2094752D76CA6F44199","title":"杨浦区中心医院","lon":"121.463443","lat":"31.241908","category":"162","category_name":"医院","address":null},{"poiid":"B2094655D265A4F9489A","title":"中心铂庭","lon":"121.46493","lat":"31.24394","category":"47","category_name":"住宅区","address":"上海市长宁区延安西路2077号"},{"poiid":"B2094750D768A4FB449D","title":"回香斋","lon":"121.467","lat":"31.2432","category":"68","category_name":"快餐厅","address":"闸北区新疆路414号(近凯旋门大厦)"},{"poiid":"B2094757D16EA1FD4492","title":"振安广场","lon":"121.46606705122","lat":"31.241573591986","category":"500","category_name":"未知分类","address":"上海市静安区石门二路301号"},{"poiid":"B2094752D16CA2F9439C","title":"上海南京东路尚一汤","lon":"121.46518","lat":"31.241991","category":"247","category_name":"餐饮美食","address":"上海南京东路300号名人商厦422"},{"poiid":"B2094654DA6FAAFB4499","title":"华祺苑","lon":"121.4687","lat":"31.243601","category":"47","category_name":"住宅区","address":"上海晋元路228弄"},{"poiid":"B2094757D165AAFE409E","title":"QQ RICE(大悦城店)","lon":"121.466936738","lat":"31.2425445626","category":"500","category_name":"未知分类","address":"上海闸北区曲阜路180号"},{"poiid":"B2094655D268ABFE429E","title":"慈爱公寓","lon":"121.46569014407","lat":"31.242680586205","category":"47","category_name":"住宅区","address":"武定路1135弄3号"},{"poiid":"B2094757D569A6FE4792","title":"婷婷饮食店","lon":"121.464973","lat":"31.243194","category":"68","category_name":"快餐厅","address":"闸北区南星路69号(近大统路)"},{"poiid":"B2094655D26BA4F8459B","title":"悦达黄浦河滨大厦","lon":"121.4669","lat":"31.23974","category":"46","category_name":"楼宇","address":"上海市黄浦区新闸路356号"},{"poiid":"B2094655D26BA2FD419B","title":"乌镇路蒙古路","lon":"121.4673","lat":"31.2425","category":"38","category_name":"公交车站","address":""},{"poiid":"B2094757D56DA2FA489E","title":"苏河厨房 Creek Kitchen","lon":"121.46357907509","lat":"31.242091307422","category":"94","category_name":"西餐厅","address":"闸北区光复路423号苏河艺术6楼(近乌镇路)"},{"poiid":"B2094654DB6BABFE4192","title":"东北菜馆 大统店","lon":"121.463410054","lat":"31.244066793","category":"82","category_name":"东北菜","address":"闸北区大统路135号(大统路南星路)"},{"poiid":"B2094654DA6FAAF44093","title":"众昌金城大厦","lon":"121.4684","lat":"31.24397","category":"46","category_name":"楼宇","address":"沈河北站路与北京街的交汇处"},{"poiid":"B2094654DA6FA2FC4198","title":"海文大楼","lon":"121.46728","lat":"31.24489","category":"46","category_name":"楼宇","address":"天目中路383"},{"poiid":"B2094654DA6FAAFB4098","title":"阿文潮汕食府","lon":"121.4701174688","lat":"31.240328442631","category":"72","category_name":"广东菜","address":"闸北区国庆路110号(近曲阜西路)"},{"poiid":"B2094757D06AA0FD459C","title":"新东方人民广场校区","lon":"121.46692657","lat":"31.239282608","category":"500","category_name":"未知分类","address":"上海新闸路355号"},{"poiid":"B2094655D26BA4FC459E","title":"陶瓷大楼","lon":"121.46735","lat":"31.24077","category":"46","category_name":"楼宇","address":"光复路277-279"},{"poiid":"B2094655D269A4F4409E","title":"烹然心动创意厨艺坊 Cook for you Culinary Studio","lon":"121.466170054","lat":"31.239057793","category":"247","category_name":"餐饮美食","address":"新桥路68号新桥大厦15C层近新闸路"},{"poiid":"B2094752D06AA4FF4798","title":"杨浦公园","lon":"121.463638","lat":"31.239757","category":"250","category_name":"公园户外","address":null},{"poiid":"B2094751D56DA5FC4992","title":"大悦城","lon":"121.466088","lat":"31.239219","category":"500","category_name":"未知分类","address":null},{"poiid":"B2094655D26BABF4459D","title":"维刊健身会所","lon":"121.467","lat":"31.24239","category":"221","category_name":"健身中心","address":"乌镇路118"},{"poiid":"B2094655D26DA7FC449B","title":"上海市裘锦秋实验学校(东门)","lon":"121.46567","lat":"31.23998","category":"678","category_name":"学校大门","address":"新桥路55"},{"poiid":"B2094654DB65A5F8419A","title":"光明便利No.260","lon":"121.46746","lat":"31.24102","category":"117","category_name":"便民商店/便利店","address":""}]