[{"poiid":"B2094654DB65A5FF4492","title":"上海博物馆","lon":"121.47549","lat":"31.22836","category":"182","category_name":"博物馆","address":"黄浦区人民大道201号"},{"poiid":"B2094654DA6EAAF8479A","title":"上海音乐厅","lon":"121.47785","lat":"31.22698","category":"179","category_name":"音乐厅","address":"黄浦区延安东路523号(近西藏中路)"},{"poiid":"B2094757D66FA6FA489D","title":"满记甜品 迪美店","lon":"121.47513","lat":"31.22758","category":"67","category_name":"甜品店","address":"黄浦区武胜路218号迪美购物中心224-1店铺(近人民大道)"},{"poiid":"B2094753D76FAAFA449C","title":"上海滩国泰旗舰店","lon":"121.466011","lat":"31.216125","category":"249","category_name":"购物服务","address":"淮海中路868号"},{"poiid":"B209475CD564A7F84292","title":"上海滩新天地店","lon":"121.47463","lat":"31.22164","category":"119","category_name":"商场","address":"\"太仓路181弄新天地北里15号\r\n\""},{"poiid":"B209475CD564A7F8439E","title":"上海滩中信泰富店","lon":"121.45602","lat":"31.22851","category":"119","category_name":"商场","address":"\"南京西路1168号中信泰富广场，店铺号221.\r\n\""},{"poiid":"B209475CD564A7F84392","title":"上海滩浦东香格里拉店","lon":"121.50058","lat":"31.23634","category":"119","category_name":"商场","address":"浦东富成路33号香格里拉酒店内大堂层"},{"poiid":"B2094757D06EAAFF4592","title":"葡京茶餐厅(迪美店)","lon":"121.47341","lat":"31.22841","category":"72","category_name":"广东菜","address":"黄浦区人民大道221号迪美购物中心224-3号铺(近武胜路)"},{"poiid":"B2094757D06FA3FC409B","title":"人民广场喷水池","lon":"121.474562569","lat":"31.2293389019","category":"250","category_name":"公园户外","address":"上海黄浦区人民广场博物馆前"},{"poiid":"B2094757D06EAAFF4898","title":"呷哺呷哺 黄浦迪美店","lon":"121.471745","lat":"31.228894","category":"86","category_name":"火锅店","address":"人民大道221号B1楼迪美购物中心近武胜路"},{"poiid":"B2094753D76BA7F8429C","title":"星怡会","lon":"121.477005","lat":"31.225099","category":"500","category_name":"未知分类","address":"上海市 淮海中路无限度广场"},{"poiid":"B2094757D06FA2FB479D","title":"延中绿地","lon":"121.47533607","lat":"31.225347868","category":"196","category_name":"公园","address":"上海黄浦区延安东路至延安中路(西藏南路至茂名南路)"},{"poiid":"B2094750D06CA1FA489A","title":"麦歌","lon":"121.47702","lat":"31.225385","category":"248","category_name":"生活娱乐","address":"淮海路"},{"poiid":"B2094757D06FA5FB439A","title":"Baby Face(无限度店)","lon":"121.47733306","lat":"31.225395202","category":"500","category_name":"未知分类","address":"卢湾区淮海中路138号上海广场101室"},{"poiid":"B2094757D068A5F4459C","title":"八号线 人民广场站","lon":"121.475506038","lat":"31.2258020057","category":"36","category_name":"地铁站","address":"上海人民广场"},{"poiid":"B2094757D06FA2FB4899","title":"冰期时代(迪美店)","lon":"121.47475","lat":"31.22708","category":"113","category_name":"冷饮店","address":"黄浦区人民大道221号迪美购物中心225号商铺(近武胜路)"},{"poiid":"B2094757D06AA5FE409A","title":"人民廣場博物館","lon":"121.476175683","lat":"31.2274665718","category":"500","category_name":"未知分类","address":"上海博物館西側，武勝路"},{"poiid":"B2094757D068A2FF429B","title":"电信大楼","lon":"121.473292093","lat":"31.226889133","category":"46","category_name":"楼宇","address":"上海武胜路333号"},{"poiid":"B2094757D56DABF5419F","title":"中山公园龙之梦","lon":"121.47514343261719","lat":"31.227481631987086","category":"251","category_name":"出行住宿","address":"上海 上海市 中山公园龙之梦"},{"poiid":"B2094757D06FA7F5439A","title":"霓虹儿童广场(普安路店)","lon":"121.47625","lat":"31.22666","category":"128","category_name":"儿童用品店","address":"黄浦区普安路10号霓虹儿童广场内(近金陵中路)"},{"poiid":"B2094757D06FA7F8489E","title":"DQ冰雪皇后(迪美店)","lon":"121.47378","lat":"31.22833","category":"113","category_name":"冷饮店","address":"黄浦区武胜路218号迪美购物中心(近人民广场)"},{"poiid":"B2094752D16BABFE499D","title":"tutti melon","lon":"121.475296","lat":"31.225388","category":"247","category_name":"餐饮美食","address":"k11"},{"poiid":"B2094757D068A7FA4792","title":"延中广场公园","lon":"121.474751441","lat":"31.2255222197","category":"196","category_name":"公园","address":"上海延安中路金陵中路间"},{"poiid":"B2094752D06FA6FF4098","title":"港丽K11店","lon":"121.474741","lat":"31.225224","category":"247","category_name":"餐饮美食","address":"淮海中路"},{"poiid":"B2094757D06FA7FE4198","title":"武胜路人民广场站(公交112,123,145,952,952B终)","lon":"121.474035682","lat":"31.2269005782","category":"38","category_name":"公交车站","address":"上海市黄浦区武胜路黄陂北路"},{"poiid":"B2094757D06FA5FA409B","title":"福神","lon":"121.477132","lat":"31.225036","category":"95","category_name":"日本料理","address":"卢湾区普安路128号淮海大厦东楼"},{"poiid":"B2094757D66DA4FD479B","title":"california fitness","lon":"121.475505738","lat":"31.2253271956","category":"500","category_name":"未知分类","address":"上海淮海中路无限度广场5楼"},{"poiid":"B2094750D26DA1FF459A","title":"上海广场（原无限度广场）","lon":"121.4739733622222","lat":"31.22735138333332","category":"119","category_name":"商场","address":"上海淮海中路138号"},{"poiid":"B2094757D66DA2F4469F","title":"上海大剧院星空宴会厅","lon":"121.47668158","lat":"31.227328899","category":"500","category_name":"未知分类","address":"上海黄陂北路"},{"poiid":"B2094750D26EA7F9409B","title":"蒂纳卡顿尔翻糖艺术蛋糕 Couture","lon":"121.475957","lat":"31.224848","category":"112","category_name":"糕饼店","address":"卢湾区淮海中路222号力宝广场B1楼(近嵩山路)"},{"poiid":"B2094757D06AAAFC449B","title":"人广喷泉","lon":"121.47600073","lat":"31.22837526","category":"607","category_name":"一般景点","address":"上海市黄浦区黄陂北路"},{"poiid":"B2094757D16EA6FA469B","title":"满记甜品","lon":"121.47375594","lat":"31.227703196","category":"247","category_name":"餐饮美食","address":"上海南京路"},{"poiid":"B2094750DB6DABFB459C","title":"风云再起","lon":"121.474792","lat":"31.227998","category":"248","category_name":"生活娱乐","address":"黄浦区人民大道221号迪美购物中心B1楼(近武胜路)"},{"poiid":"B2094757DA64AAF44398","title":"M&S cafe","lon":"121.473258","lat":"31.227341","category":"247","category_name":"餐饮美食","address":"上海市淮海中路96号金钟广场M&S内"},{"poiid":"B2094750DB6DA7FB489B","title":"上海歌城","lon":"121.475082","lat":"31.2259","category":"170","category_name":"KTV","address":null},{"poiid":"B2094750DB65ABFC419B","title":"rich baby","lon":"121.476661","lat":"31.225774","category":"500","category_name":"未知分类","address":null},{"poiid":"B2094753D26DA4FF4792","title":"Ninethirty","lon":"121.474739","lat":"31.225257","category":"500","category_name":"未知分类","address":"上海市 K11 306"},{"poiid":"B2094757D56EA2F5429C","title":"百嘉乐","lon":"121.477946","lat":"31.22746","category":"248","category_name":"生活娱乐","address":"淮海东路99号"},{"poiid":"B2094757D66CA0FD429C","title":"苏豪香港餐厅","lon":"121.47206","lat":"31.22226","category":"72","category_name":"广东菜","address":"卢湾区淮海中路398号世纪巴士大厦B1楼(近黄陂南路地铁站)"},{"poiid":"B2094757D16AA5FD479D","title":"中区顺风大酒店","lon":"121.47668047","lat":"31.225791453","category":"75","category_name":"浙江菜","address":"上海黄陂北路227号3楼"},{"poiid":"B209475CDA64A4FA459C","title":"极贰","lon":"121.477415","lat":"31.225596","category":"500","category_name":"未知分类","address":"上海市 淮海中路138号上海广场4楼403/413"},{"poiid":"B2094750DB65A1FB469E","title":"西藏中路168号都市总部大楼","lon":"121.474624","lat":"31.228435","category":"252","category_name":"楼宇机构","address":"西藏中路168号都市总部大楼"},{"poiid":"B2094757D06FA5FF489B","title":"隧道六线人民广场终点站","lon":"121.47679248","lat":"31.228685837","category":"38","category_name":"公交车站","address":"上海市黄浦区武胜路38号"},{"poiid":"B2094654DB69A7FE419F","title":"漾乐会","lon":"121.47798","lat":"31.227","category":"94","category_name":"西餐厅","address":"黄浦区延安东路523号上海音乐厅7号门4楼(近普安路)"},{"poiid":"B2094757D068A3FC469D","title":"934终点站","lon":"121.476341","lat":"31.226147","category":"38","category_name":"公交车站","address":"上海普安路"},{"poiid":"B2094750DB6FA1FD4298","title":"apple store香港广场店","lon":"121.477561","lat":"31.227397","category":"627","category_name":"一般地点标志","address":"淮海中路283号"},{"poiid":"B2094753D26DA0FD4298","title":"揽香","lon":"121.474487","lat":"31.22551","category":"247","category_name":"餐饮美食","address":"上海市 上海市淮海中路381号中环广场3楼"},{"poiid":"B2094757D068A7FA409D","title":"果留仙(迪美店)","lon":"121.475614338","lat":"31.227692246","category":"500","category_name":"未知分类","address":"上海市黄浦区迪美购物中心内"},{"poiid":"B2094757D064A6F54793","title":"145终点站","lon":"121.477447238","lat":"31.2276744456","category":"500","category_name":"未知分类","address":"上海人民广场"},{"poiid":"B2094750D56EA7F8439D","title":"梅塞德斯奔驰文化中心","lon":"121.474609","lat":"31.226078","category":"500","category_name":"未知分类","address":null},{"poiid":"B2094654DB65A5FF4492","title":"上海博物馆","lon":"121.47549","lat":"31.22836","category":"182","category_name":"博物馆","address":"黄浦区人民大道201号"},{"poiid":"B2094654DA6EAAF8479A","title":"上海音乐厅","lon":"121.47785","lat":"31.22698","category":"179","category_name":"音乐厅","address":"黄浦区延安东路523号(近西藏中路)"},{"poiid":"B2094757D66FA6FA489D","title":"满记甜品 迪美店","lon":"121.47513","lat":"31.22758","category":"67","category_name":"甜品店","address":"黄浦区武胜路218号迪美购物中心224-1店铺(近人民大道)"},{"poiid":"B2094753D76FAAFA449C","title":"上海滩国泰旗舰店","lon":"121.466011","lat":"31.216125","category":"249","category_name":"购物服务","address":"淮海中路868号"},{"poiid":"B209475CD564A7F84292","title":"上海滩新天地店","lon":"121.47463","lat":"31.22164","category":"119","category_name":"商场","address":"\"太仓路181弄新天地北里15号\r\n\""},{"poiid":"B209475CD564A7F8439E","title":"上海滩中信泰富店","lon":"121.45602","lat":"31.22851","category":"119","category_name":"商场","address":"\"南京西路1168号中信泰富广场，店铺号221.\r\n\""},{"poiid":"B209475CD564A7F84392","title":"上海滩浦东香格里拉店","lon":"121.50058","lat":"31.23634","category":"119","category_name":"商场","address":"浦东富成路33号香格里拉酒店内大堂层"},{"poiid":"B2094757D06EAAFF4592","title":"葡京茶餐厅(迪美店)","lon":"121.47341","lat":"31.22841","category":"72","category_name":"广东菜","address":"黄浦区人民大道221号迪美购物中心224-3号铺(近武胜路)"},{"poiid":"B2094757D06FA3FC409B","title":"人民广场喷水池","lon":"121.474562569","lat":"31.2293389019","category":"250","category_name":"公园户外","address":"上海黄浦区人民广场博物馆前"},{"poiid":"B2094757D06EAAFF4898","title":"呷哺呷哺 黄浦迪美店","lon":"121.471745","lat":"31.228894","category":"86","category_name":"火锅店","address":"人民大道221号B1楼迪美购物中心近武胜路"},{"poiid":"B2094753D76BA7F8429C","title":"星怡会","lon":"121.477005","lat":"31.225099","category":"500","category_name":"未知分类","address":"上海市 淮海中路无限度广场"},{"poiid":"B2094757D06FA2FB479D","title":"延中绿地","lon":"121.47533607","lat":"31.225347868","category":"196","category_name":"公园","address":"上海黄浦区延安东路至延安中路(西藏南路至茂名南路)"},{"poiid":"B2094750D06CA1FA489A","title":"麦歌","lon":"121.47702","lat":"31.225385","category":"248","category_name":"生活娱乐","address":"淮海路"},{"poiid":"B2094757D06FA5FB439A","title":"Baby Face(无限度店)","lon":"121.47733306","lat":"31.225395202","category":"500","category_name":"未知分类","address":"卢湾区淮海中路138号上海广场101室"},{"poiid":"B2094757D068A5F4459C","title":"八号线 人民广场站","lon":"121.475506038","lat":"31.2258020057","category":"36","category_name":"地铁站","address":"上海人民广场"},{"poiid":"B2094757D06FA2FB4899","title":"冰期时代(迪美店)","lon":"121.47475","lat":"31.22708","category":"113","category_name":"冷饮店","address":"黄浦区人民大道221号迪美购物中心225号商铺(近武胜路)"},{"poiid":"B2094757D06AA5FE409A","title":"人民廣場博物館","lon":"121.476175683","lat":"31.2274665718","category":"500","category_name":"未知分类","address":"上海博物館西側，武勝路"},{"poiid":"B2094757D068A2FF429B","title":"电信大楼","lon":"121.473292093","lat":"31.226889133","category":"46","category_name":"楼宇","address":"上海武胜路333号"},{"poiid":"B2094757D56DABF5419F","title":"中山公园龙之梦","lon":"121.47514343261719","lat":"31.227481631987086","category":"251","category_name":"出行住宿","address":"上海 上海市 中山公园龙之梦"},{"poiid":"B2094757D06FA7F5439A","title":"霓虹儿童广场(普安路店)","lon":"121.47625","lat":"31.22666","category":"128","category_name":"儿童用品店","address":"黄浦区普安路10号霓虹儿童广场内(近金陵中路)"},{"poiid":"B2094757D06FA7F8489E","title":"DQ冰雪皇后(迪美店)","lon":"121.47378","lat":"31.22833","category":"113","category_name":"冷饮店","address":"黄浦区武胜路218号迪美购物中心(近人民广场)"},{"poiid":"B2094752D16BABFE499D","title":"tutti melon","lon":"121.475296","lat":"31.225388","category":"247","category_name":"餐饮美食","address":"k11"},{"poiid":"B2094757D068A7FA4792","title":"延中广场公园","lon":"121.474751441","lat":"31.2255222197","category":"196","category_name":"公园","address":"上海延安中路金陵中路间"},{"poiid":"B2094752D06FA6FF4098","title":"港丽K11店","lon":"121.474741","lat":"31.225224","category":"247","category_name":"餐饮美食","address":"淮海中路"},{"poiid":"B2094757D06FA7FE4198","title":"武胜路人民广场站(公交112,123,145,952,952B终)","lon":"121.474035682","lat":"31.2269005782","category":"38","category_name":"公交车站","address":"上海市黄浦区武胜路黄陂北路"},{"poiid":"B2094757D06FA5FA409B","title":"福神","lon":"121.477132","lat":"31.225036","category":"95","category_name":"日本料理","address":"卢湾区普安路128号淮海大厦东楼"},{"poiid":"B2094757D66DA4FD479B","title":"california fitness","lon":"121.475505738","lat":"31.2253271956","category":"500","category_name":"未知分类","address":"上海淮海中路无限度广场5楼"},{"poiid":"B2094750D26DA1FF459A","title":"上海广场（原无限度广场）","lon":"121.4739733622222","lat":"31.22735138333332","category":"119","category_name":"商场","address":"上海淮海中路138号"},{"poiid":"B2094757D66DA2F4469F","title":"上海大剧院星空宴会厅","lon":"121.47668158","lat":"31.227328899","category":"500","category_name":"未知分类","address":"上海黄陂北路"},{"poiid":"B2094750D26EA7F9409B","title":"蒂纳卡顿尔翻糖艺术蛋糕 Couture","lon":"121.475957","lat":"31.224848","category":"112","category_name":"糕饼店","address":"卢湾区淮海中路222号力宝广场B1楼(近嵩山路)"},{"poiid":"B2094757D06AAAFC449B","title":"人广喷泉","lon":"121.47600073","lat":"31.22837526","category":"607","category_name":"一般景点","address":"上海市黄浦区黄陂北路"},{"poiid":"B2094757D16EA6FA469B","title":"满记甜品","lon":"121.47375594","lat":"31.227703196","category":"247","category_name":"餐饮美食","address":"上海南京路"},{"poiid":"B2094750DB6DABFB459C","title":"风云再起","lon":"121.474792","lat":"31.227998","category":"248","category_name":"生活娱乐","address":"黄浦区人民大道221号迪美购物中心B1楼(近武胜路)"},{"poiid":"B2094757DA64AAF44398","title":"M&S cafe","lon":"121.473258","lat":"31.227341","category":"247","category_name":"餐饮美食","address":"上海市淮海中路96号金钟广场M&S内"},{"poiid":"B2094750DB6DA7FB489B","title":"上海歌城","lon":"121.475082","lat":"31.2259","category":"170","category_name":"KTV","address":null},{"poiid":"B2094750DB65ABFC419B","title":"rich baby","lon":"121.476661","lat":"31.225774","category":"500","category_name":"未知分类","address":null},{"poiid":"B2094753D26DA4FF4792","title":"Ninethirty","lon":"121.474739","lat":"31.225257","category":"500","category_name":"未知分类","address":"上海市 K11 306"},{"poiid":"B2094757D56EA2F5429C","title":"百嘉乐","lon":"121.477946","lat":"31.22746","category":"248","category_name":"生活娱乐","address":"淮海东路99号"},{"poiid":"B2094757D66CA0FD429C","title":"苏豪香港餐厅","lon":"121.47206","lat":"31.22226","category":"72","category_name":"广东菜","address":"卢湾区淮海中路398号世纪巴士大厦B1楼(近黄陂南路地铁站)"},{"poiid":"B2094757D16AA5FD479D","title":"中区顺风大酒店","lon":"121.47668047","lat":"31.225791453","category":"75","category_name":"浙江菜","address":"上海黄陂北路227号3楼"},{"poiid":"B209475CDA64A4FA459C","title":"极贰","lon":"121.477415","lat":"31.225596","category":"500","category_name":"未知分类","address":"上海市 淮海中路138号上海广场4楼403/413"},{"poiid":"B2094750DB65A1FB469E","title":"西藏中路168号都市总部大楼","lon":"121.474624","lat":"31.228435","category":"252","category_name":"楼宇机构","address":"西藏中路168号都市总部大楼"},{"poiid":"B2094757D06FA5FF489B","title":"隧道六线人民广场终点站","lon":"121.47679248","lat":"31.228685837","category":"38","category_name":"公交车站","address":"上海市黄浦区武胜路38号"},{"poiid":"B2094654DB69A7FE419F","title":"漾乐会","lon":"121.47798","lat":"31.227","category":"94","category_name":"西餐厅","address":"黄浦区延安东路523号上海音乐厅7号门4楼(近普安路)"},{"poiid":"B2094757D068A3FC469D","title":"934终点站","lon":"121.476341","lat":"31.226147","category":"38","category_name":"公交车站","address":"上海普安路"},{"poiid":"B2094750DB6FA1FD4298","title":"apple store香港广场店","lon":"121.477561","lat":"31.227397","category":"627","category_name":"一般地点标志","address":"淮海中路283号"},{"poiid":"B2094753D26DA0FD4298","title":"揽香","lon":"121.474487","lat":"31.22551","category":"247","category_name":"餐饮美食","address":"上海市 上海市淮海中路381号中环广场3楼"},{"poiid":"B2094757D068A7FA409D","title":"果留仙(迪美店)","lon":"121.475614338","lat":"31.227692246","category":"500","category_name":"未知分类","address":"上海市黄浦区迪美购物中心内"},{"poiid":"B2094757D064A6F54793","title":"145终点站","lon":"121.477447238","lat":"31.2276744456","category":"500","category_name":"未知分类","address":"上海人民广场"},{"poiid":"B2094750D56EA7F8439D","title":"梅塞德斯奔驰文化中心","lon":"121.474609","lat":"31.226078","category":"500","category_name":"未知分类","address":null},{"poiid":"B2094654DB65A5FF4492","title":"上海博物馆","lon":"121.47549","lat":"31.22836","category":"182","category_name":"博物馆","address":"黄浦区人民大道201号"},{"poiid":"B2094654DA6EAAF8479A","title":"上海音乐厅","lon":"121.47785","lat":"31.22698","category":"179","category_name":"音乐厅","address":"黄浦区延安东路523号(近西藏中路)"},{"poiid":"B2094757D66FA6FA489D","title":"满记甜品 迪美店","lon":"121.47513","lat":"31.22758","category":"67","category_name":"甜品店","address":"黄浦区武胜路218号迪美购物中心224-1店铺(近人民大道)"},{"poiid":"B2094753D76FAAFA449C","title":"上海滩国泰旗舰店","lon":"121.466011","lat":"31.216125","category":"249","category_name":"购物服务","address":"淮海中路868号"},{"poiid":"B209475CD564A7F84292","title":"上海滩新天地店","lon":"121.47463","lat":"31.22164","category":"119","category_name":"商场","address":"\"太仓路181弄新天地北里15号\r\n\""},{"poiid":"B209475CD564A7F8439E","title":"上海滩中信泰富店","lon":"121.45602","lat":"31.22851","category":"119","category_name":"商场","address":"\"南京西路1168号中信泰富广场，店铺号221.\r\n\""},{"poiid":"B209475CD564A7F84392","title":"上海滩浦东香格里拉店","lon":"121.50058","lat":"31.23634","category":"119","category_name":"商场","address":"浦东富成路33号香格里拉酒店内大堂层"},{"poiid":"B2094757D06EAAFF4592","title":"葡京茶餐厅(迪美店)","lon":"121.47341","lat":"31.22841","category":"72","category_name":"广东菜","address":"黄浦区人民大道221号迪美购物中心224-3号铺(近武胜路)"},{"poiid":"B2094757D06FA3FC409B","title":"人民广场喷水池","lon":"121.474562569","lat":"31.2293389019","category":"250","category_name":"公园户外","address":"上海黄浦区人民广场博物馆前"},{"poiid":"B2094757D06EAAFF4898","title":"呷哺呷哺 黄浦迪美店","lon":"121.471745","lat":"31.228894","category":"86","category_name":"火锅店","address":"人民大道221号B1楼迪美购物中心近武胜路"},{"poiid":"B2094753D76BA7F8429C","title":"星怡会","lon":"121.477005","lat":"31.225099","category":"500","category_name":"未知分类","address":"上海市 淮海中路无限度广场"},{"poiid":"B2094757D06FA2FB479D","title":"延中绿地","lon":"121.47533607","lat":"31.225347868","category":"196","category_name":"公园","address":"上海黄浦区延安东路至延安中路(西藏南路至茂名南路)"},{"poiid":"B2094750D06CA1FA489A","title":"麦歌","lon":"121.47702","lat":"31.225385","category":"248","category_name":"生活娱乐","address":"淮海路"},{"poiid":"B2094757D06FA5FB439A","title":"Baby Face(无限度店)","lon":"121.47733306","lat":"31.225395202","category":"500","category_name":"未知分类","address":"卢湾区淮海中路138号上海广场101室"},{"poiid":"B2094757D068A5F4459C","title":"八号线 人民广场站","lon":"121.475506038","lat":"31.2258020057","category":"36","category_name":"地铁站","address":"上海人民广场"},{"poiid":"B2094757D06FA2FB4899","title":"冰期时代(迪美店)","lon":"121.47475","lat":"31.22708","category":"113","category_name":"冷饮店","address":"黄浦区人民大道221号迪美购物中心225号商铺(近武胜路)"},{"poiid":"B2094757D06AA5FE409A","title":"人民廣場博物館","lon":"121.476175683","lat":"31.2274665718","category":"500","category_name":"未知分类","address":"上海博物館西側，武勝路"},{"poiid":"B2094757D068A2FF429B","title":"电信大楼","lon":"121.473292093","lat":"31.226889133","category":"46","category_name":"楼宇","address":"上海武胜路333号"},{"poiid":"B2094757D56DABF5419F","title":"中山公园龙之梦","lon":"121.47514343261719","lat":"31.227481631987086","category":"251","category_name":"出行住宿","address":"上海 上海市 中山公园龙之梦"},{"poiid":"B2094757D06FA7F5439A","title":"霓虹儿童广场(普安路店)","lon":"121.47625","lat":"31.22666","category":"128","category_name":"儿童用品店","address":"黄浦区普安路10号霓虹儿童广场内(近金陵中路)"},{"poiid":"B2094757D06FA7F8489E","title":"DQ冰雪皇后(迪美店)","lon":"121.47378","lat":"31.22833","category":"113","category_name":"冷饮店","address":"黄浦区武胜路218号迪美购物中心(近人民广场)"},{"poiid":"B2094752D16BABFE499D","title":"tutti melon","lon":"121.475296","lat":"31.225388","category":"247","category_name":"餐饮美食","address":"k11"},{"poiid":"B2094757D068A7FA4792","title":"延中广场公园","lon":"121.474751441","lat":"31.2255222197","category":"196","category_name":"公园","address":"上海延安中路金陵中路间"},{"poiid":"B2094752D06FA6FF4098","title":"港丽K11店","lon":"121.474741","lat":"31.225224","category":"247","category_name":"餐饮美食","address":"淮海中路"},{"poiid":"B2094757D06FA7FE4198","title":"武胜路人民广场站(公交112,123,145,952,952B终)","lon":"121.474035682","lat":"31.2269005782","category":"38","category_name":"公交车站","address":"上海市黄浦区武胜路黄陂北路"},{"poiid":"B2094757D06FA5FA409B","title":"福神","lon":"121.477132","lat":"31.225036","category":"95","category_name":"日本料理","address":"卢湾区普安路128号淮海大厦东楼"},{"poiid":"B2094757D66DA4FD479B","title":"california fitness","lon":"121.475505738","lat":"31.2253271956","category":"500","category_name":"未知分类","address":"上海淮海中路无限度广场5楼"},{"poiid":"B2094750D26DA1FF459A","title":"上海广场（原无限度广场）","lon":"121.4739733622222","lat":"31.22735138333332","category":"119","category_name":"商场","address":"上海淮海中路138号"},{"poiid":"B2094757D66DA2F4469F","title":"上海大剧院星空宴会厅","lon":"121.47668158","lat":"31.227328899","category":"500","category_name":"未知分类","address":"上海黄陂北路"},{"poiid":"B2094750D26EA7F9409B","title":"蒂纳卡顿尔翻糖艺术蛋糕 Couture","lon":"121.475957","lat":"31.224848","category":"112","category_name":"糕饼店","address":"卢湾区淮海中路222号力宝广场B1楼(近嵩山路)"},{"poiid":"B2094757D06AAAFC449B","title":"人广喷泉","lon":"121.47600073","lat":"31.22837526","category":"607","category_name":"一般景点","address":"上海市黄浦区黄陂北路"},{"poiid":"B2094757D16EA6FA469B","title":"满记甜品","lon":"121.47375594","lat":"31.227703196","category":"247","category_name":"餐饮美食","address":"上海南京路"},{"poiid":"B2094750DB6DABFB459C","title":"风云再起","lon":"121.474792","lat":"31.227998","category":"248","category_name":"生活娱乐","address":"黄浦区人民大道221号迪美购物中心B1楼(近武胜路)"},{"poiid":"B2094757DA64AAF44398","title":"M&S cafe","lon":"121.473258","lat":"31.227341","category":"247","category_name":"餐饮美食","address":"上海市淮海中路96号金钟广场M&S内"},{"poiid":"B2094750DB6DA7FB489B","title":"上海歌城","lon":"121.475082","lat":"31.2259","category":"170","category_name":"KTV","address":null},{"poiid":"B2094750DB65ABFC419B","title":"rich baby","lon":"121.476661","lat":"31.225774","category":"500","category_name":"未知分类","address":null},{"poiid":"B2094753D26DA4FF4792","title":"Ninethirty","lon":"121.474739","lat":"31.225257","category":"500","category_name":"未知分类","address":"上海市 K11 306"},{"poiid":"B2094757D56EA2F5429C","title":"百嘉乐","lon":"121.477946","lat":"31.22746","category":"248","category_name":"生活娱乐","address":"淮海东路99号"},{"poiid":"B2094757D66CA0FD429C","title":"苏豪香港餐厅","lon":"121.47206","lat":"31.22226","category":"72","category_name":"广东菜","address":"卢湾区淮海中路398号世纪巴士大厦B1楼(近黄陂南路地铁站)"},{"poiid":"B2094757D16AA5FD479D","title":"中区顺风大酒店","lon":"121.47668047","lat":"31.225791453","category":"75","category_name":"浙江菜","address":"上海黄陂北路227号3楼"},{"poiid":"B209475CDA64A4FA459C","title":"极贰","lon":"121.477415","lat":"31.225596","category":"500","category_name":"未知分类","address":"上海市 淮海中路138号上海广场4楼403/413"},{"poiid":"B2094750DB65A1FB469E","title":"西藏中路168号都市总部大楼","lon":"121.474624","lat":"31.228435","category":"252","category_name":"楼宇机构","address":"西藏中路168号都市总部大楼"},{"poiid":"B2094757D06FA5FF489B","title":"隧道六线人民广场终点站","lon":"121.47679248","lat":"31.228685837","category":"38","category_name":"公交车站","address":"上海市黄浦区武胜路38号"},{"poiid":"B2094654DB69A7FE419F","title":"漾乐会","lon":"121.47798","lat":"31.227","category":"94","category_name":"西餐厅","address":"黄浦区延安东路523号上海音乐厅7号门4楼(近普安路)"},{"poiid":"B2094757D068A3FC469D","title":"934终点站","lon":"121.476341","lat":"31.226147","category":"38","category_name":"公交车站","address":"上海普安路"},{"poiid":"B2094750DB6FA1FD4298","title":"apple store香港广场店","lon":"121.477561","lat":"31.227397","category":"627","category_name":"一般地点标志","address":"淮海中路283号"},{"poiid":"B2094753D26DA0FD4298","title":"揽香","lon":"121.474487","lat":"31.22551","category":"247","category_name":"餐饮美食","address":"上海市 上海市淮海中路381号中环广场3楼"},{"poiid":"B2094757D068A7FA409D","title":"果留仙(迪美店)","lon":"121.475614338","lat":"31.227692246","category":"500","category_name":"未知分类","address":"上海市黄浦区迪美购物中心内"},{"poiid":"B2094757D064A6F54793","title":"145终点站","lon":"121.477447238","lat":"31.2276744456","category":"500","category_name":"未知分类","address":"上海人民广场"},{"poiid":"B2094750D56EA7F8439D","title":"梅塞德斯奔驰文化中心","lon":"121.474609","lat":"31.226078","category":"500","category_name":"未知分类","address":null},{"poiid":"B2094654DB65A5FF4492","title":"上海博物馆","lon":"121.47549","lat":"31.22836","category":"182","category_name":"博物馆","address":"黄浦区人民大道201号"},{"poiid":"B2094654DA6EAAF8479A","title":"上海音乐厅","lon":"121.47785","lat":"31.22698","category":"179","category_name":"音乐厅","address":"黄浦区延安东路523号(近西藏中路)"},{"poiid":"B2094757D66FA6FA489D","title":"满记甜品 迪美店","lon":"121.47513","lat":"31.22758","category":"67","category_name":"甜品店","address":"黄浦区武胜路218号迪美购物中心224-1店铺(近人民大道)"},{"poiid":"B2094753D76FAAFA449C","title":"上海滩国泰旗舰店","lon":"121.466011","lat":"31.216125","category":"249","category_name":"购物服务","address":"淮海中路868号"},{"poiid":"B209475CD564A7F84292","title":"上海滩新天地店","lon":"121.47463","lat":"31.22164","category":"119","category_name":"商场","address":"\"太仓路181弄新天地北里15号\r\n\""},{"poiid":"B209475CD564A7F8439E","title":"上海滩中信泰富店","lon":"121.45602","lat":"31.22851","category":"119","category_name":"商场","address":"\"南京西路1168号中信泰富广场，店铺号221.\r\n\""},{"poiid":"B209475CD564A7F84392","title":"上海滩浦东香格里拉店","lon":"121.50058","lat":"31.23634","category":"119","category_name":"商场","address":"浦东富成路33号香格里拉酒店内大堂层"},{"poiid":"B2094757D06EAAFF4592","title":"葡京茶餐厅(迪美店)","lon":"121.47341","lat":"31.22841","category":"72","category_name":"广东菜","address":"黄浦区人民大道221号迪美购物中心224-3号铺(近武胜路)"},{"poiid":"B2094757D06FA3FC409B","title":"人民广场喷水池","lon":"121.474562569","lat":"31.2293389019","category":"250","category_name":"公园户外","address":"上海黄浦区人民广场博物馆前"},{"poiid":"B2094757D06EAAFF4898","title":"呷哺呷哺 黄浦迪美店","lon":"121.471745","lat":"31.228894","category":"86","category_name":"火锅店","address":"人民大道221号B1楼迪美购物中心近武胜路"},{"poiid":"B2094753D76BA7F8429C","title":"星怡会","lon":"121.477005","lat":"31.225099","category":"500","category_name":"未知分类","address":"上海市 淮海中路无限度广场"},{"poiid":"B2094757D06FA2FB479D","title":"延中绿地","lon":"121.47533607","lat":"31.225347868","category":"196","category_name":"公园","address":"上海黄浦区延安东路至延安中路(西藏南路至茂名南路)"},{"poiid":"B2094750D06CA1FA489A","title":"麦歌","lon":"121.47702","lat":"31.225385","category":"248","category_name":"生活娱乐","address":"淮海路"},{"poiid":"B2094757D06FA5FB439A","title":"Baby Face(无限度店)","lon":"121.47733306","lat":"31.225395202","category":"500","category_name":"未知分类","address":"卢湾区淮海中路138号上海广场101室"},{"poiid":"B2094757D068A5F4459C","title":"八号线 人民广场站","lon":"121.475506038","lat":"31.2258020057","category":"36","category_name":"地铁站","address":"上海人民广场"},{"poiid":"B2094757D06FA2FB4899","title":"冰期时代(迪美店)","lon":"121.47475","lat":"31.22708","category":"113","category_name":"冷饮店","address":"黄浦区人民大道221号迪美购物中心225号商铺(近武胜路)"},{"poiid":"B2094757D06AA5FE409A","title":"人民廣場博物館","lon":"121.476175683","lat":"31.2274665718","category":"500","category_name":"未知分类","address":"上海博物館西側，武勝路"},{"poiid":"B2094757D068A2FF429B","title":"电信大楼","lon":"121.473292093","lat":"31.226889133","category":"46","category_name":"楼宇","address":"上海武胜路333号"},{"poiid":"B2094757D56DABF5419F","title":"中山公园龙之梦","lon":"121.47514343261719","lat":"31.227481631987086","category":"251","category_name":"出行住宿","address":"上海 上海市 中山公园龙之梦"},{"poiid":"B2094757D06FA7F5439A","title":"霓虹儿童广场(普安路店)","lon":"121.47625","lat":"31.22666","category":"128","category_name":"儿童用品店","address":"黄浦区普安路10号霓虹儿童广场内(近金陵中路)"},{"poiid":"B2094757D06FA7F8489E","title":"DQ冰雪皇后(迪美店)","lon":"121.47378","lat":"31.22833","category":"113","category_name":"冷饮店","address":"黄浦区武胜路218号迪美购物中心(近人民广场)"},{"poiid":"B2094752D16BABFE499D","title":"tutti melon","lon":"121.475296","lat":"31.225388","category":"247","category_name":"餐饮美食","address":"k11"},{"poiid":"B2094757D068A7FA4792","title":"延中广场公园","lon":"121.474751441","lat":"31.2255222197","category":"196","category_name":"公园","address":"上海延安中路金陵中路间"},{"poiid":"B2094752D06FA6FF4098","title":"港丽K11店","lon":"121.474741","lat":"31.225224","category":"247","category_name":"餐饮美食","address":"淮海中路"},{"poiid":"B2094757D06FA7FE4198","title":"武胜路人民广场站(公交112,123,145,952,952B终)","lon":"121.474035682","lat":"31.2269005782","category":"38","category_name":"公交车站","address":"上海市黄浦区武胜路黄陂北路"},{"poiid":"B2094757D06FA5FA409B","title":"福神","lon":"121.477132","lat":"31.225036","category":"95","category_name":"日本料理","address":"卢湾区普安路128号淮海大厦东楼"},{"poiid":"B2094757D66DA4FD479B","title":"california fitness","lon":"121.475505738","lat":"31.2253271956","category":"500","category_name":"未知分类","address":"上海淮海中路无限度广场5楼"},{"poiid":"B2094750D26DA1FF459A","title":"上海广场（原无限度广场）","lon":"121.4739733622222","lat":"31.22735138333332","category":"119","category_name":"商场","address":"上海淮海中路138号"},{"poiid":"B2094757D66DA2F4469F","title":"上海大剧院星空宴会厅","lon":"121.47668158","lat":"31.227328899","category":"500","category_name":"未知分类","address":"上海黄陂北路"},{"poiid":"B2094750D26EA7F9409B","title":"蒂纳卡顿尔翻糖艺术蛋糕 Couture","lon":"121.475957","lat":"31.224848","category":"112","category_name":"糕饼店","address":"卢湾区淮海中路222号力宝广场B1楼(近嵩山路)"},{"poiid":"B2094757D06AAAFC449B","title":"人广喷泉","lon":"121.47600073","lat":"31.22837526","category":"607","category_name":"一般景点","address":"上海市黄浦区黄陂北路"},{"poiid":"B2094757D16EA6FA469B","title":"满记甜品","lon":"121.47375594","lat":"31.227703196","category":"247","category_name":"餐饮美食","address":"上海南京路"},{"poiid":"B2094750DB6DABFB459C","title":"风云再起","lon":"121.474792","lat":"31.227998","category":"248","category_name":"生活娱乐","address":"黄浦区人民大道221号迪美购物中心B1楼(近武胜路)"},{"poiid":"B2094757DA64AAF44398","title":"M&S cafe","lon":"121.473258","lat":"31.227341","category":"247","category_name":"餐饮美食","address":"上海市淮海中路96号金钟广场M&S内"},{"poiid":"B2094750DB6DA7FB489B","title":"上海歌城","lon":"121.475082","lat":"31.2259","category":"170","category_name":"KTV","address":null},{"poiid":"B2094750DB65ABFC419B","title":"rich baby","lon":"121.476661","lat":"31.225774","category":"500","category_name":"未知分类","address":null},{"poiid":"B2094753D26DA4FF4792","title":"Ninethirty","lon":"121.474739","lat":"31.225257","category":"500","category_name":"未知分类","address":"上海市 K11 306"},{"poiid":"B2094757D56EA2F5429C","title":"百嘉乐","lon":"121.477946","lat":"31.22746","category":"248","category_name":"生活娱乐","address":"淮海东路99号"},{"poiid":"B2094757D66CA0FD429C","title":"苏豪香港餐厅","lon":"121.47206","lat":"31.22226","category":"72","category_name":"广东菜","address":"卢湾区淮海中路398号世纪巴士大厦B1楼(近黄陂南路地铁站)"},{"poiid":"B2094757D16AA5FD479D","title":"中区顺风大酒店","lon":"121.47668047","lat":"31.225791453","category":"75","category_name":"浙江菜","address":"上海黄陂北路227号3楼"},{"poiid":"B209475CDA64A4FA459C","title":"极贰","lon":"121.477415","lat":"31.225596","category":"500","category_name":"未知分类","address":"上海市 淮海中路138号上海广场4楼403/413"},{"poiid":"B2094750DB65A1FB469E","title":"西藏中路168号都市总部大楼","lon":"121.474624","lat":"31.228435","category":"252","category_name":"楼宇机构","address":"西藏中路168号都市总部大楼"},{"poiid":"B2094757D06FA5FF489B","title":"隧道六线人民广场终点站","lon":"121.47679248","lat":"31.228685837","category":"38","category_name":"公交车站","address":"上海市黄浦区武胜路38号"},{"poiid":"B2094654DB69A7FE419F","title":"漾乐会","lon":"121.47798","lat":"31.227","category":"94","category_name":"西餐厅","address":"黄浦区延安东路523号上海音乐厅7号门4楼(近普安路)"},{"poiid":"B2094757D068A3FC469D","title":"934终点站","lon":"121.476341","lat":"31.226147","category":"38","category_name":"公交车站","address":"上海普安路"},{"poiid":"B2094750DB6FA1FD4298","title":"apple store香港广场店","lon":"121.477561","lat":"31.227397","category":"627","category_name":"一般地点标志","address":"淮海中路283号"},{"poiid":"B2094753D26DA0FD4298","title":"揽香","lon":"121.474487","lat":"31.22551","category":"247","category_name":"餐饮美食","address":"上海市 上海市淮海中路381号中环广场3楼"},{"poiid":"B2094757D068A7FA409D","title":"果留仙(迪美店)","lon":"121.475614338","lat":"31.227692246","category":"500","category_name":"未知分类","address":"上海市黄浦区迪美购物中心内"},{"poiid":"B2094757D064A6F54793","title":"145终点站","lon":"121.477447238","lat":"31.2276744456","category":"500","category_name":"未知分类","address":"上海人民广场"},{"poiid":"B2094750D56EA7F8439D","title":"梅塞德斯奔驰文化中心","lon":"121.474609","lat":"31.226078","category":"500","category_name":"未知分类","address":null}]