[{"poiid":"B2094654DA6FAAFD4799","title":"外滩3号","lon":"121.49114","lat":"31.23409","category":"47","category_name":"住宅区","address":"中山东一路3"},{"poiid":"B2094757D06EABF54998","title":"上海外滩华尔道夫酒店(Waldorf Astoria Shanghai on the Bund)","lon":"121.4912967","lat":"31.232828526","category":"217","category_name":"旅馆招待所","address":"黄浦区中山东一路2号(近延安东路)"},{"poiid":"B2094654DB6BABFC409C","title":"许留山 滨江大道店 Hui Lau Shan","lon":"121.49780880378","lat":"31.235935163743","category":"67","category_name":"甜品店","address":"浦东新区滨江大道1号富都段滨江花园内(浦东南路口)"},{"poiid":"B209475CD564A7F84292","title":"上海滩新天地店","lon":"121.47463","lat":"31.22164","category":"119","category_name":"商场","address":"\"太仓路181弄新天地北里15号\r\n\""},{"poiid":"B209475CD564A7F84392","title":"上海滩浦东香格里拉店","lon":"121.50058","lat":"31.23634","category":"119","category_name":"商场","address":"浦东富成路33号香格里拉酒店内大堂层"},{"poiid":"B2094757D06FA3FE499F","title":"外滩三号","lon":"121.49128","lat":"31.23404","category":"111","category_name":"休闲餐饮场所","address":"上海黄浦区中山东一路3号(广东路口)"},{"poiid":"B2094757D06FA6F4479E","title":"Jean Georges","lon":"121.490883296","lat":"31.2341583825","category":"94","category_name":"西餐厅","address":"黄浦区中山东一路3号外滩3号4楼(近广东路)"},{"poiid":"B2094757D06FA7F54892","title":"外滩轮渡","lon":"121.49613189","lat":"31.232406616","category":"260","category_name":"其他","address":"上海外滩"},{"poiid":"B2094655D26DAAFE449F","title":"滨江公园","lon":"121.49685","lat":"31.23567","category":"196","category_name":"公园","address":"浦东新区滨江大道2967号(近丰和路)"},{"poiid":"B2094757D06FA6FD4699","title":"The Glamour Bar","lon":"121.49109627","lat":"31.2341656143","category":"172","category_name":"酒吧","address":"黄浦区广东路20号外滩5号6楼(近中山东一路)"},{"poiid":"B2094757D064A7FC489E","title":"外滩22号","lon":"121.49161573","lat":"31.233858377","category":"252","category_name":"楼宇机构","address":"上海市黄浦区江西中路"},{"poiid":"B2094654DA6FAAFD4593","title":"M on the Bund","lon":"121.49079","lat":"31.2345","category":"263","category_name":"公司","address":"中山东一路5号外滩5号7层"},{"poiid":"B2094757D06FA7FF449F","title":"东京和食","lon":"121.49104","lat":"31.23457","category":"95","category_name":"日本料理","address":"黄浦区中山东一路6号外滩6号2楼(近广东路)"},{"poiid":"B2094757D06AA2F8479A","title":"延安东路外滩","lon":"121.4917546","lat":"31.2333084","category":"250","category_name":"公园户外","address":"上海黄浦区延安东路中山东一路"},{"poiid":"B2094654DA6FAAFD4592","title":"外滩5号","lon":"121.49078","lat":"31.2345","category":"47","category_name":"住宅区","address":"中山东一路5号"},{"poiid":"B2094654DB6BABFC409E","title":"Haagen-Dazs","lon":"121.49623","lat":"31.23572","category":"113","category_name":"冷饮店","address":"滨江公园西南"},{"poiid":"B2094757D06FA5F94098","title":"New Heights","lon":"121.4917","lat":"31.23383","category":"94","category_name":"西餐厅","address":"黄浦区中山东一路3号外滩3号7楼(近广东路)"},{"poiid":"B2094750D26EA2FB419E","title":"El Willy","lon":"121.493644","lat":"31.231233","category":"94","category_name":"西餐厅","address":"黄浦区中山东二路22号5楼(近新永安路)"},{"poiid":"B2094750DA64A1F5409F","title":"王品台塑牛排(正大广场店)","lon":"121.496726","lat":"31.234537","category":"248","category_name":"生活娱乐","address":"浦东新区陆家嘴西路168号正大广场8楼(近东方明珠)"},{"poiid":"B2094757D66CA0F5419A","title":"Paulaner","lon":"121.49564183","lat":"31.236288029","category":"500","category_name":"未知分类","address":"滨江大道"},{"poiid":"B2094757D468A4FE489A","title":"Horizen","lon":"121.492901","lat":"31.231715","category":"247","category_name":"餐饮美食","address":"金陵东路1号近中山东二路"},{"poiid":"B2094752DB64A5FB4692","title":"米子mizzi","lon":"121.495748","lat":"31.235876","category":"500","category_name":"未知分类","address":"上海市 浦东新区富城路182号"},{"poiid":"B2094757D06FABFF409D","title":"上海市档案馆外滩新馆","lon":"121.492291924","lat":"31.2324161636","category":"181","category_name":"图书馆","address":"上海黄浦区中山东二路9号(近延安东路)"},{"poiid":"B2094654DA6EA5F4429C","title":"新上海城市广场","lon":"121.49382789653","lat":"31.235365937753","category":"46","category_name":"楼宇","address":"龙蟠南路33号(龙蟠南路与秦虹路交汇处"},{"poiid":"B2094757D06FABFF4699","title":"东方商旅 Les Suites Orient","lon":"121.492741","lat":"31.231819","category":"217","category_name":"旅馆招待所","address":"黄浦区金陵东路1号(近中山东二路)"},{"poiid":"B2094750D26EA7F44892","title":"YAWARAGI ON THE BUND","lon":"121.494522","lat":"31.232086","category":"95","category_name":"日本料理","address":"黄浦区中山东二路22号3楼(近新永安路)"},{"poiid":"B2094757D068A6FF489B","title":"金陵东路渡口","lon":"121.493181968","lat":"31.2321444779","category":"35","category_name":"长途汽车站","address":"上海中山东二路121号(金陵东路口)"},{"poiid":"B2094757D66BA1FC489B","title":"华尔道夫酒店廊吧","lon":"121.491231","lat":"31.23389","category":"260","category_name":"其他","address":"黄浦区中山东一路2号华尔道夫酒店L层(近延安东路)"},{"poiid":"B2094655D26FA2FA4099","title":"月影铁板烧景观餐厅酒廊","lon":"121.49079","lat":"31.2345","category":"97","category_name":"法式菜品餐厅","address":"黄浦区中山东一路外滩5号3楼"},{"poiid":"B2094751D56CA4FD419C","title":"Mercato","lon":"121.49088","lat":"31.23417","category":"94","category_name":"西餐厅","address":"黄浦区中山东一路3号外滩3号6楼(近广东路)"},{"poiid":"B2094757D069A6F5439A","title":"小竹园海鲜酒楼(外滩店)","lon":"121.493705026","lat":"31.2347289549","category":"247","category_name":"餐饮美食","address":"上海四川中路218号"},{"poiid":"B2094757D06FA3FB4199","title":"外滩隧道","lon":"121.491135705","lat":"31.2345035269","category":"260","category_name":"其他","address":"上海海宁路长治路——延安东路中山南路"},{"poiid":"B2094655D36DA6FF4493","title":"金陵东路","lon":"121.49318","lat":"31.23215","category":"38","category_name":"公交车站","address":"上海黄浦区金陵东路"},{"poiid":"B2094654DB64AAF9449F","title":"阿塔努外滩360度全景酒吧","lon":"121.49245","lat":"31.23308","category":"172","category_name":"酒吧","address":"中山东二路1号甲"},{"poiid":"B2094753DA68AAFC449B","title":"上海市东方明珠塔","lon":"121.493782","lat":"31.234169","category":"500","category_name":"未知分类","address":"上海市 上海市东方明珠塔"},{"poiid":"B2094757D66FA6FA4693","title":"延安东路隧道","lon":"121.4938968","lat":"31.235608933","category":"260","category_name":"其他","address":"上海黄浦区延安东路-浦东新区陆家嘴西路"},{"poiid":"B2094757D069A6FC409A","title":"黄浦会","lon":"121.49158","lat":"31.23386","category":"260","category_name":"其他","address":"黄浦区中山东一路3号外滩3号5楼(近广东路)"},{"poiid":"B2094757D16BA0FD489A","title":"东昌路摆渡","lon":"121.493180738","lat":"31.2351464049","category":"500","category_name":"未知分类","address":"上海市黄浦区四川中路"},{"poiid":"B2094750D46BABF94593","title":"小南国","lon":"121.496276","lat":"31.234474","category":"247","category_name":"餐饮美食","address":null},{"poiid":"B2094655D26EAAF8469B","title":"望江阁","lon":"121.491266","lat":"31.234322","category":"94","category_name":"西餐厅","address":"黄浦区中山东一路3号外滩3号7楼(近广东路)"},{"poiid":"B2094751D565A1FE489F","title":"Mr & Mrs Bund","lon":"121.492703","lat":"31.234391","category":"247","category_name":"餐饮美食","address":"外滩十八号"},{"poiid":"B2094757D069A5F5439D","title":"外滩天文台","lon":"121.49302","lat":"31.23242","category":"46","category_name":"楼宇","address":"黄浦区中山东二路1号甲(近延安东路外滩)"},{"poiid":"B2094750D568A0FF4293","title":"Mercato by Jean Geroge","lon":"121.491241","lat":"31.234399","category":"500","category_name":"未知分类","address":"Bund No 3"},{"poiid":"B209475DD06EA0F5449C","title":"茹丝葵牛排馆","lon":"121.492492","lat":"31.234409","category":"247","category_name":"餐饮美食","address":"上海市 上海市黄浦区广东路20号4楼02室外滩五号4楼"},{"poiid":"B2094654DA6EA5FA419E","title":"新外滩商厦","lon":"121.49335","lat":"31.23127","category":"46","category_name":"楼宇","address":"黄浦区中山东二路15号(龙潭路中山东二路)"},{"poiid":"B2094757D569A2FE4693","title":"新外滩15号","lon":"121.4933389","lat":"31.23143889","category":"47","category_name":"住宅区","address":"黄浦区中山东二路15号"},{"poiid":"B2094757D164A4F84498","title":"reddot","lon":"121.49676973","lat":"31.234767396","category":"500","category_name":"未知分类","address":"上海市滨江大道"},{"poiid":"B2094757D069A0FC4792","title":"阿塔努酒吧1907","lon":"121.49199125","lat":"31.232749913","category":"260","category_name":"其他","address":"黄浦区中山东二路1号甲(金陵东路中山东二路)"},{"poiid":"B2094757D16CABFE429A","title":"Pelham's (上海外滩华尔道夫酒店内)","lon":"121.4914507","lat":"31.233135525","category":"217","category_name":"旅馆招待所","address":"上海市黄浦区中山东一路2号，华尔道夫会所大堂层"},{"poiid":"B2094751D56FABFD479A","title":"炉边情谈","lon":"121.496303","lat":"31.236572","category":"500","category_name":"未知分类","address":"陆家嘴正大广场"},{"poiid":"B2094654DA6FAAFD4799","title":"外滩3号","lon":"121.49114","lat":"31.23409","category":"47","category_name":"住宅区","address":"中山东一路3"},{"poiid":"B2094757D06EABF54998","title":"上海外滩华尔道夫酒店(Waldorf Astoria Shanghai on the Bund)","lon":"121.4912967","lat":"31.232828526","category":"217","category_name":"旅馆招待所","address":"黄浦区中山东一路2号(近延安东路)"},{"poiid":"B2094654DB6BABFC409C","title":"许留山 滨江大道店 Hui Lau Shan","lon":"121.49780880378","lat":"31.235935163743","category":"67","category_name":"甜品店","address":"浦东新区滨江大道1号富都段滨江花园内(浦东南路口)"},{"poiid":"B209475CD564A7F84292","title":"上海滩新天地店","lon":"121.47463","lat":"31.22164","category":"119","category_name":"商场","address":"\"太仓路181弄新天地北里15号\r\n\""},{"poiid":"B209475CD564A7F84392","title":"上海滩浦东香格里拉店","lon":"121.50058","lat":"31.23634","category":"119","category_name":"商场","address":"浦东富成路33号香格里拉酒店内大堂层"},{"poiid":"B2094757D06FA3FE499F","title":"外滩三号","lon":"121.49128","lat":"31.23404","category":"111","category_name":"休闲餐饮场所","address":"上海黄浦区中山东一路3号(广东路口)"},{"poiid":"B2094757D06FA6F4479E","title":"Jean Georges","lon":"121.490883296","lat":"31.2341583825","category":"94","category_name":"西餐厅","address":"黄浦区中山东一路3号外滩3号4楼(近广东路)"},{"poiid":"B2094757D06FA7F54892","title":"外滩轮渡","lon":"121.49613189","lat":"31.232406616","category":"260","category_name":"其他","address":"上海外滩"},{"poiid":"B2094655D26DAAFE449F","title":"滨江公园","lon":"121.49685","lat":"31.23567","category":"196","category_name":"公园","address":"浦东新区滨江大道2967号(近丰和路)"},{"poiid":"B2094757D06FA6FD4699","title":"The Glamour Bar","lon":"121.49109627","lat":"31.2341656143","category":"172","category_name":"酒吧","address":"黄浦区广东路20号外滩5号6楼(近中山东一路)"},{"poiid":"B2094757D064A7FC489E","title":"外滩22号","lon":"121.49161573","lat":"31.233858377","category":"252","category_name":"楼宇机构","address":"上海市黄浦区江西中路"},{"poiid":"B2094654DA6FAAFD4593","title":"M on the Bund","lon":"121.49079","lat":"31.2345","category":"263","category_name":"公司","address":"中山东一路5号外滩5号7层"},{"poiid":"B2094757D06FA7FF449F","title":"东京和食","lon":"121.49104","lat":"31.23457","category":"95","category_name":"日本料理","address":"黄浦区中山东一路6号外滩6号2楼(近广东路)"},{"poiid":"B2094757D06AA2F8479A","title":"延安东路外滩","lon":"121.4917546","lat":"31.2333084","category":"250","category_name":"公园户外","address":"上海黄浦区延安东路中山东一路"},{"poiid":"B2094654DA6FAAFD4592","title":"外滩5号","lon":"121.49078","lat":"31.2345","category":"47","category_name":"住宅区","address":"中山东一路5号"},{"poiid":"B2094654DB6BABFC409E","title":"Haagen-Dazs","lon":"121.49623","lat":"31.23572","category":"113","category_name":"冷饮店","address":"滨江公园西南"},{"poiid":"B2094757D06FA5F94098","title":"New Heights","lon":"121.4917","lat":"31.23383","category":"94","category_name":"西餐厅","address":"黄浦区中山东一路3号外滩3号7楼(近广东路)"},{"poiid":"B2094750D26EA2FB419E","title":"El Willy","lon":"121.493644","lat":"31.231233","category":"94","category_name":"西餐厅","address":"黄浦区中山东二路22号5楼(近新永安路)"},{"poiid":"B2094750DA64A1F5409F","title":"王品台塑牛排(正大广场店)","lon":"121.496726","lat":"31.234537","category":"248","category_name":"生活娱乐","address":"浦东新区陆家嘴西路168号正大广场8楼(近东方明珠)"},{"poiid":"B2094757D66CA0F5419A","title":"Paulaner","lon":"121.49564183","lat":"31.236288029","category":"500","category_name":"未知分类","address":"滨江大道"},{"poiid":"B2094757D468A4FE489A","title":"Horizen","lon":"121.492901","lat":"31.231715","category":"247","category_name":"餐饮美食","address":"金陵东路1号近中山东二路"},{"poiid":"B2094752DB64A5FB4692","title":"米子mizzi","lon":"121.495748","lat":"31.235876","category":"500","category_name":"未知分类","address":"上海市 浦东新区富城路182号"},{"poiid":"B2094757D06FABFF409D","title":"上海市档案馆外滩新馆","lon":"121.492291924","lat":"31.2324161636","category":"181","category_name":"图书馆","address":"上海黄浦区中山东二路9号(近延安东路)"},{"poiid":"B2094654DA6EA5F4429C","title":"新上海城市广场","lon":"121.49382789653","lat":"31.235365937753","category":"46","category_name":"楼宇","address":"龙蟠南路33号(龙蟠南路与秦虹路交汇处"},{"poiid":"B2094757D06FABFF4699","title":"东方商旅 Les Suites Orient","lon":"121.492741","lat":"31.231819","category":"217","category_name":"旅馆招待所","address":"黄浦区金陵东路1号(近中山东二路)"},{"poiid":"B2094750D26EA7F44892","title":"YAWARAGI ON THE BUND","lon":"121.494522","lat":"31.232086","category":"95","category_name":"日本料理","address":"黄浦区中山东二路22号3楼(近新永安路)"},{"poiid":"B2094757D068A6FF489B","title":"金陵东路渡口","lon":"121.493181968","lat":"31.2321444779","category":"35","category_name":"长途汽车站","address":"上海中山东二路121号(金陵东路口)"},{"poiid":"B2094757D66BA1FC489B","title":"华尔道夫酒店廊吧","lon":"121.491231","lat":"31.23389","category":"260","category_name":"其他","address":"黄浦区中山东一路2号华尔道夫酒店L层(近延安东路)"},{"poiid":"B2094655D26FA2FA4099","title":"月影铁板烧景观餐厅酒廊","lon":"121.49079","lat":"31.2345","category":"97","category_name":"法式菜品餐厅","address":"黄浦区中山东一路外滩5号3楼"},{"poiid":"B2094751D56CA4FD419C","title":"Mercato","lon":"121.49088","lat":"31.23417","category":"94","category_name":"西餐厅","address":"黄浦区中山东一路3号外滩3号6楼(近广东路)"},{"poiid":"B2094757D069A6F5439A","title":"小竹园海鲜酒楼(外滩店)","lon":"121.493705026","lat":"31.2347289549","category":"247","category_name":"餐饮美食","address":"上海四川中路218号"},{"poiid":"B2094757D06FA3FB4199","title":"外滩隧道","lon":"121.491135705","lat":"31.2345035269","category":"260","category_name":"其他","address":"上海海宁路长治路——延安东路中山南路"},{"poiid":"B2094655D36DA6FF4493","title":"金陵东路","lon":"121.49318","lat":"31.23215","category":"38","category_name":"公交车站","address":"上海黄浦区金陵东路"},{"poiid":"B2094654DB64AAF9449F","title":"阿塔努外滩360度全景酒吧","lon":"121.49245","lat":"31.23308","category":"172","category_name":"酒吧","address":"中山东二路1号甲"},{"poiid":"B2094753DA68AAFC449B","title":"上海市东方明珠塔","lon":"121.493782","lat":"31.234169","category":"500","category_name":"未知分类","address":"上海市 上海市东方明珠塔"},{"poiid":"B2094757D66FA6FA4693","title":"延安东路隧道","lon":"121.4938968","lat":"31.235608933","category":"260","category_name":"其他","address":"上海黄浦区延安东路-浦东新区陆家嘴西路"},{"poiid":"B2094757D069A6FC409A","title":"黄浦会","lon":"121.49158","lat":"31.23386","category":"260","category_name":"其他","address":"黄浦区中山东一路3号外滩3号5楼(近广东路)"},{"poiid":"B2094757D16BA0FD489A","title":"东昌路摆渡","lon":"121.493180738","lat":"31.2351464049","category":"500","category_name":"未知分类","address":"上海市黄浦区四川中路"},{"poiid":"B2094750D46BABF94593","title":"小南国","lon":"121.496276","lat":"31.234474","category":"247","category_name":"餐饮美食","address":null},{"poiid":"B2094655D26EAAF8469B","title":"望江阁","lon":"121.491266","lat":"31.234322","category":"94","category_name":"西餐厅","address":"黄浦区中山东一路3号外滩3号7楼(近广东路)"},{"poiid":"B2094751D565A1FE489F","title":"Mr & Mrs Bund","lon":"121.492703","lat":"31.234391","category":"247","category_name":"餐饮美食","address":"外滩十八号"},{"poiid":"B2094757D069A5F5439D","title":"外滩天文台","lon":"121.49302","lat":"31.23242","category":"46","category_name":"楼宇","address":"黄浦区中山东二路1号甲(近延安东路外滩)"},{"poiid":"B2094750D568A0FF4293","title":"Mercato by Jean Geroge","lon":"121.491241","lat":"31.234399","category":"500","category_name":"未知分类","address":"Bund No 3"},{"poiid":"B209475DD06EA0F5449C","title":"茹丝葵牛排馆","lon":"121.492492","lat":"31.234409","category":"247","category_name":"餐饮美食","address":"上海市 上海市黄浦区广东路20号4楼02室外滩五号4楼"},{"poiid":"B2094654DA6EA5FA419E","title":"新外滩商厦","lon":"121.49335","lat":"31.23127","category":"46","category_name":"楼宇","address":"黄浦区中山东二路15号(龙潭路中山东二路)"},{"poiid":"B2094757D569A2FE4693","title":"新外滩15号","lon":"121.4933389","lat":"31.23143889","category":"47","category_name":"住宅区","address":"黄浦区中山东二路15号"},{"poiid":"B2094757D164A4F84498","title":"reddot","lon":"121.49676973","lat":"31.234767396","category":"500","category_name":"未知分类","address":"上海市滨江大道"},{"poiid":"B2094757D069A0FC4792","title":"阿塔努酒吧1907","lon":"121.49199125","lat":"31.232749913","category":"260","category_name":"其他","address":"黄浦区中山东二路1号甲(金陵东路中山东二路)"},{"poiid":"B2094757D16CABFE429A","title":"Pelham's (上海外滩华尔道夫酒店内)","lon":"121.4914507","lat":"31.233135525","category":"217","category_name":"旅馆招待所","address":"上海市黄浦区中山东一路2号，华尔道夫会所大堂层"},{"poiid":"B2094751D56FABFD479A","title":"炉边情谈","lon":"121.496303","lat":"31.236572","category":"500","category_name":"未知分类","address":"陆家嘴正大广场"},{"poiid":"B2094654DA6FAAFD4799","title":"外滩3号","lon":"121.49114","lat":"31.23409","category":"47","category_name":"住宅区","address":"中山东一路3"},{"poiid":"B2094757D06EABF54998","title":"上海外滩华尔道夫酒店(Waldorf Astoria Shanghai on the Bund)","lon":"121.4912967","lat":"31.232828526","category":"217","category_name":"旅馆招待所","address":"黄浦区中山东一路2号(近延安东路)"},{"poiid":"B2094654DB6BABFC409C","title":"许留山 滨江大道店 Hui Lau Shan","lon":"121.49780880378","lat":"31.235935163743","category":"67","category_name":"甜品店","address":"浦东新区滨江大道1号富都段滨江花园内(浦东南路口)"},{"poiid":"B209475CD564A7F84292","title":"上海滩新天地店","lon":"121.47463","lat":"31.22164","category":"119","category_name":"商场","address":"\"太仓路181弄新天地北里15号\r\n\""},{"poiid":"B209475CD564A7F84392","title":"上海滩浦东香格里拉店","lon":"121.50058","lat":"31.23634","category":"119","category_name":"商场","address":"浦东富成路33号香格里拉酒店内大堂层"},{"poiid":"B2094757D06FA3FE499F","title":"外滩三号","lon":"121.49128","lat":"31.23404","category":"111","category_name":"休闲餐饮场所","address":"上海黄浦区中山东一路3号(广东路口)"},{"poiid":"B2094757D06FA6F4479E","title":"Jean Georges","lon":"121.490883296","lat":"31.2341583825","category":"94","category_name":"西餐厅","address":"黄浦区中山东一路3号外滩3号4楼(近广东路)"},{"poiid":"B2094757D06FA7F54892","title":"外滩轮渡","lon":"121.49613189","lat":"31.232406616","category":"260","category_name":"其他","address":"上海外滩"},{"poiid":"B2094655D26DAAFE449F","title":"滨江公园","lon":"121.49685","lat":"31.23567","category":"196","category_name":"公园","address":"浦东新区滨江大道2967号(近丰和路)"},{"poiid":"B2094757D06FA6FD4699","title":"The Glamour Bar","lon":"121.49109627","lat":"31.2341656143","category":"172","category_name":"酒吧","address":"黄浦区广东路20号外滩5号6楼(近中山东一路)"},{"poiid":"B2094757D064A7FC489E","title":"外滩22号","lon":"121.49161573","lat":"31.233858377","category":"252","category_name":"楼宇机构","address":"上海市黄浦区江西中路"},{"poiid":"B2094654DA6FAAFD4593","title":"M on the Bund","lon":"121.49079","lat":"31.2345","category":"263","category_name":"公司","address":"中山东一路5号外滩5号7层"},{"poiid":"B2094757D06FA7FF449F","title":"东京和食","lon":"121.49104","lat":"31.23457","category":"95","category_name":"日本料理","address":"黄浦区中山东一路6号外滩6号2楼(近广东路)"},{"poiid":"B2094757D06AA2F8479A","title":"延安东路外滩","lon":"121.4917546","lat":"31.2333084","category":"250","category_name":"公园户外","address":"上海黄浦区延安东路中山东一路"},{"poiid":"B2094654DA6FAAFD4592","title":"外滩5号","lon":"121.49078","lat":"31.2345","category":"47","category_name":"住宅区","address":"中山东一路5号"},{"poiid":"B2094654DB6BABFC409E","title":"Haagen-Dazs","lon":"121.49623","lat":"31.23572","category":"113","category_name":"冷饮店","address":"滨江公园西南"},{"poiid":"B2094757D06FA5F94098","title":"New Heights","lon":"121.4917","lat":"31.23383","category":"94","category_name":"西餐厅","address":"黄浦区中山东一路3号外滩3号7楼(近广东路)"},{"poiid":"B2094750D26EA2FB419E","title":"El Willy","lon":"121.493644","lat":"31.231233","category":"94","category_name":"西餐厅","address":"黄浦区中山东二路22号5楼(近新永安路)"},{"poiid":"B2094750DA64A1F5409F","title":"王品台塑牛排(正大广场店)","lon":"121.496726","lat":"31.234537","category":"248","category_name":"生活娱乐","address":"浦东新区陆家嘴西路168号正大广场8楼(近东方明珠)"},{"poiid":"B2094757D66CA0F5419A","title":"Paulaner","lon":"121.49564183","lat":"31.236288029","category":"500","category_name":"未知分类","address":"滨江大道"},{"poiid":"B2094757D468A4FE489A","title":"Horizen","lon":"121.492901","lat":"31.231715","category":"247","category_name":"餐饮美食","address":"金陵东路1号近中山东二路"},{"poiid":"B2094752DB64A5FB4692","title":"米子mizzi","lon":"121.495748","lat":"31.235876","category":"500","category_name":"未知分类","address":"上海市 浦东新区富城路182号"},{"poiid":"B2094757D06FABFF409D","title":"上海市档案馆外滩新馆","lon":"121.492291924","lat":"31.2324161636","category":"181","category_name":"图书馆","address":"上海黄浦区中山东二路9号(近延安东路)"},{"poiid":"B2094654DA6EA5F4429C","title":"新上海城市广场","lon":"121.49382789653","lat":"31.235365937753","category":"46","category_name":"楼宇","address":"龙蟠南路33号(龙蟠南路与秦虹路交汇处"},{"poiid":"B2094757D06FABFF4699","title":"东方商旅 Les Suites Orient","lon":"121.492741","lat":"31.231819","category":"217","category_name":"旅馆招待所","address":"黄浦区金陵东路1号(近中山东二路)"},{"poiid":"B2094750D26EA7F44892","title":"YAWARAGI ON THE BUND","lon":"121.494522","lat":"31.232086","category":"95","category_name":"日本料理","address":"黄浦区中山东二路22号3楼(近新永安路)"},{"poiid":"B2094757D068A6FF489B","title":"金陵东路渡口","lon":"121.493181968","lat":"31.2321444779","category":"35","category_name":"长途汽车站","address":"上海中山东二路121号(金陵东路口)"},{"poiid":"B2094757D66BA1FC489B","title":"华尔道夫酒店廊吧","lon":"121.491231","lat":"31.23389","category":"260","category_name":"其他","address":"黄浦区中山东一路2号华尔道夫酒店L层(近延安东路)"},{"poiid":"B2094655D26FA2FA4099","title":"月影铁板烧景观餐厅酒廊","lon":"121.49079","lat":"31.2345","category":"97","category_name":"法式菜品餐厅","address":"黄浦区中山东一路外滩5号3楼"},{"poiid":"B2094751D56CA4FD419C","title":"Mercato","lon":"121.49088","lat":"31.23417","category":"94","category_name":"西餐厅","address":"黄浦区中山东一路3号外滩3号6楼(近广东路)"},{"poiid":"B2094757D069A6F5439A","title":"小竹园海鲜酒楼(外滩店)","lon":"121.493705026","lat":"31.2347289549","category":"247","category_name":"餐饮美食","address":"上海四川中路218号"},{"poiid":"B2094757D06FA3FB4199","title":"外滩隧道","lon":"121.491135705","lat":"31.2345035269","category":"260","category_name":"其他","address":"上海海宁路长治路——延安东路中山南路"},{"poiid":"B2094655D36DA6FF4493","title":"金陵东路","lon":"121.49318","lat":"31.23215","category":"38","category_name":"公交车站","address":"上海黄浦区金陵东路"},{"poiid":"B2094654DB64AAF9449F","title":"阿塔努外滩360度全景酒吧","lon":"121.49245","lat":"31.23308","category":"172","category_name":"酒吧","address":"中山东二路1号甲"},{"poiid":"B2094753DA68AAFC449B","title":"上海市东方明珠塔","lon":"121.493782","lat":"31.234169","category":"500","category_name":"未知分类","address":"上海市 上海市东方明珠塔"},{"poiid":"B2094757D66FA6FA4693","title":"延安东路隧道","lon":"121.4938968","lat":"31.235608933","category":"260","category_name":"其他","address":"上海黄浦区延安东路-浦东新区陆家嘴西路"},{"poiid":"B2094757D069A6FC409A","title":"黄浦会","lon":"121.49158","lat":"31.23386","category":"260","category_name":"其他","address":"黄浦区中山东一路3号外滩3号5楼(近广东路)"},{"poiid":"B2094757D16BA0FD489A","title":"东昌路摆渡","lon":"121.493180738","lat":"31.2351464049","category":"500","category_name":"未知分类","address":"上海市黄浦区四川中路"},{"poiid":"B2094750D46BABF94593","title":"小南国","lon":"121.496276","lat":"31.234474","category":"247","category_name":"餐饮美食","address":null},{"poiid":"B2094655D26EAAF8469B","title":"望江阁","lon":"121.491266","lat":"31.234322","category":"94","category_name":"西餐厅","address":"黄浦区中山东一路3号外滩3号7楼(近广东路)"},{"poiid":"B2094751D565A1FE489F","title":"Mr & Mrs Bund","lon":"121.492703","lat":"31.234391","category":"247","category_name":"餐饮美食","address":"外滩十八号"},{"poiid":"B2094757D069A5F5439D","title":"外滩天文台","lon":"121.49302","lat":"31.23242","category":"46","category_name":"楼宇","address":"黄浦区中山东二路1号甲(近延安东路外滩)"},{"poiid":"B2094750D568A0FF4293","title":"Mercato by Jean Geroge","lon":"121.491241","lat":"31.234399","category":"500","category_name":"未知分类","address":"Bund No 3"},{"poiid":"B209475DD06EA0F5449C","title":"茹丝葵牛排馆","lon":"121.492492","lat":"31.234409","category":"247","category_name":"餐饮美食","address":"上海市 上海市黄浦区广东路20号4楼02室外滩五号4楼"},{"poiid":"B2094654DA6EA5FA419E","title":"新外滩商厦","lon":"121.49335","lat":"31.23127","category":"46","category_name":"楼宇","address":"黄浦区中山东二路15号(龙潭路中山东二路)"},{"poiid":"B2094757D569A2FE4693","title":"新外滩15号","lon":"121.4933389","lat":"31.23143889","category":"47","category_name":"住宅区","address":"黄浦区中山东二路15号"},{"poiid":"B2094757D164A4F84498","title":"reddot","lon":"121.49676973","lat":"31.234767396","category":"500","category_name":"未知分类","address":"上海市滨江大道"},{"poiid":"B2094757D069A0FC4792","title":"阿塔努酒吧1907","lon":"121.49199125","lat":"31.232749913","category":"260","category_name":"其他","address":"黄浦区中山东二路1号甲(金陵东路中山东二路)"},{"poiid":"B2094757D16CABFE429A","title":"Pelham's (上海外滩华尔道夫酒店内)","lon":"121.4914507","lat":"31.233135525","category":"217","category_name":"旅馆招待所","address":"上海市黄浦区中山东一路2号，华尔道夫会所大堂层"},{"poiid":"B2094751D56FABFD479A","title":"炉边情谈","lon":"121.496303","lat":"31.236572","category":"500","category_name":"未知分类","address":"陆家嘴正大广场"},{"poiid":"B2094654DA6FAAFD4799","title":"外滩3号","lon":"121.49114","lat":"31.23409","category":"47","category_name":"住宅区","address":"中山东一路3"},{"poiid":"B2094757D06EABF54998","title":"上海外滩华尔道夫酒店(Waldorf Astoria Shanghai on the Bund)","lon":"121.4912967","lat":"31.232828526","category":"217","category_name":"旅馆招待所","address":"黄浦区中山东一路2号(近延安东路)"},{"poiid":"B2094654DB6BABFC409C","title":"许留山 滨江大道店 Hui Lau Shan","lon":"121.49780880378","lat":"31.235935163743","category":"67","category_name":"甜品店","address":"浦东新区滨江大道1号富都段滨江花园内(浦东南路口)"},{"poiid":"B209475CD564A7F84292","title":"上海滩新天地店","lon":"121.47463","lat":"31.22164","category":"119","category_name":"商场","address":"\"太仓路181弄新天地北里15号\r\n\""},{"poiid":"B209475CD564A7F84392","title":"上海滩浦东香格里拉店","lon":"121.50058","lat":"31.23634","category":"119","category_name":"商场","address":"浦东富成路33号香格里拉酒店内大堂层"},{"poiid":"B2094757D06FA3FE499F","title":"外滩三号","lon":"121.49128","lat":"31.23404","category":"111","category_name":"休闲餐饮场所","address":"上海黄浦区中山东一路3号(广东路口)"},{"poiid":"B2094757D06FA6F4479E","title":"Jean Georges","lon":"121.490883296","lat":"31.2341583825","category":"94","category_name":"西餐厅","address":"黄浦区中山东一路3号外滩3号4楼(近广东路)"},{"poiid":"B2094757D06FA7F54892","title":"外滩轮渡","lon":"121.49613189","lat":"31.232406616","category":"260","category_name":"其他","address":"上海外滩"},{"poiid":"B2094655D26DAAFE449F","title":"滨江公园","lon":"121.49685","lat":"31.23567","category":"196","category_name":"公园","address":"浦东新区滨江大道2967号(近丰和路)"},{"poiid":"B2094757D06FA6FD4699","title":"The Glamour Bar","lon":"121.49109627","lat":"31.2341656143","category":"172","category_name":"酒吧","address":"黄浦区广东路20号外滩5号6楼(近中山东一路)"},{"poiid":"B2094757D064A7FC489E","title":"外滩22号","lon":"121.49161573","lat":"31.233858377","category":"252","category_name":"楼宇机构","address":"上海市黄浦区江西中路"},{"poiid":"B2094654DA6FAAFD4593","title":"M on the Bund","lon":"121.49079","lat":"31.2345","category":"263","category_name":"公司","address":"中山东一路5号外滩5号7层"},{"poiid":"B2094757D06FA7FF449F","title":"东京和食","lon":"121.49104","lat":"31.23457","category":"95","category_name":"日本料理","address":"黄浦区中山东一路6号外滩6号2楼(近广东路)"},{"poiid":"B2094757D06AA2F8479A","title":"延安东路外滩","lon":"121.4917546","lat":"31.2333084","category":"250","category_name":"公园户外","address":"上海黄浦区延安东路中山东一路"},{"poiid":"B2094654DA6FAAFD4592","title":"外滩5号","lon":"121.49078","lat":"31.2345","category":"47","category_name":"住宅区","address":"中山东一路5号"},{"poiid":"B2094654DB6BABFC409E","title":"Haagen-Dazs","lon":"121.49623","lat":"31.23572","category":"113","category_name":"冷饮店","address":"滨江公园西南"},{"poiid":"B2094757D06FA5F94098","title":"New Heights","lon":"121.4917","lat":"31.23383","category":"94","category_name":"西餐厅","address":"黄浦区中山东一路3号外滩3号7楼(近广东路)"},{"poiid":"B2094750D26EA2FB419E","title":"El Willy","lon":"121.493644","lat":"31.231233","category":"94","category_name":"西餐厅","address":"黄浦区中山东二路22号5楼(近新永安路)"},{"poiid":"B2094750DA64A1F5409F","title":"王品台塑牛排(正大广场店)","lon":"121.496726","lat":"31.234537","category":"248","category_name":"生活娱乐","address":"浦东新区陆家嘴西路168号正大广场8楼(近东方明珠)"},{"poiid":"B2094757D66CA0F5419A","title":"Paulaner","lon":"121.49564183","lat":"31.236288029","category":"500","category_name":"未知分类","address":"滨江大道"},{"poiid":"B2094757D468A4FE489A","title":"Horizen","lon":"121.492901","lat":"31.231715","category":"247","category_name":"餐饮美食","address":"金陵东路1号近中山东二路"},{"poiid":"B2094752DB64A5FB4692","title":"米子mizzi","lon":"121.495748","lat":"31.235876","category":"500","category_name":"未知分类","address":"上海市 浦东新区富城路182号"},{"poiid":"B2094757D06FABFF409D","title":"上海市档案馆外滩新馆","lon":"121.492291924","lat":"31.2324161636","category":"181","category_name":"图书馆","address":"上海黄浦区中山东二路9号(近延安东路)"},{"poiid":"B2094654DA6EA5F4429C","title":"新上海城市广场","lon":"121.49382789653","lat":"31.235365937753","category":"46","category_name":"楼宇","address":"龙蟠南路33号(龙蟠南路与秦虹路交汇处"},{"poiid":"B2094757D06FABFF4699","title":"东方商旅 Les Suites Orient","lon":"121.492741","lat":"31.231819","category":"217","category_name":"旅馆招待所","address":"黄浦区金陵东路1号(近中山东二路)"},{"poiid":"B2094750D26EA7F44892","title":"YAWARAGI ON THE BUND","lon":"121.494522","lat":"31.232086","category":"95","category_name":"日本料理","address":"黄浦区中山东二路22号3楼(近新永安路)"},{"poiid":"B2094757D068A6FF489B","title":"金陵东路渡口","lon":"121.493181968","lat":"31.2321444779","category":"35","category_name":"长途汽车站","address":"上海中山东二路121号(金陵东路口)"},{"poiid":"B2094757D66BA1FC489B","title":"华尔道夫酒店廊吧","lon":"121.491231","lat":"31.23389","category":"260","category_name":"其他","address":"黄浦区中山东一路2号华尔道夫酒店L层(近延安东路)"},{"poiid":"B2094655D26FA2FA4099","title":"月影铁板烧景观餐厅酒廊","lon":"121.49079","lat":"31.2345","category":"97","category_name":"法式菜品餐厅","address":"黄浦区中山东一路外滩5号3楼"},{"poiid":"B2094751D56CA4FD419C","title":"Mercato","lon":"121.49088","lat":"31.23417","category":"94","category_name":"西餐厅","address":"黄浦区中山东一路3号外滩3号6楼(近广东路)"},{"poiid":"B2094757D069A6F5439A","title":"小竹园海鲜酒楼(外滩店)","lon":"121.493705026","lat":"31.2347289549","category":"247","category_name":"餐饮美食","address":"上海四川中路218号"},{"poiid":"B2094757D06FA3FB4199","title":"外滩隧道","lon":"121.491135705","lat":"31.2345035269","category":"260","category_name":"其他","address":"上海海宁路长治路——延安东路中山南路"},{"poiid":"B2094655D36DA6FF4493","title":"金陵东路","lon":"121.49318","lat":"31.23215","category":"38","category_name":"公交车站","address":"上海黄浦区金陵东路"},{"poiid":"B2094654DB64AAF9449F","title":"阿塔努外滩360度全景酒吧","lon":"121.49245","lat":"31.23308","category":"172","category_name":"酒吧","address":"中山东二路1号甲"},{"poiid":"B2094753DA68AAFC449B","title":"上海市东方明珠塔","lon":"121.493782","lat":"31.234169","category":"500","category_name":"未知分类","address":"上海市 上海市东方明珠塔"},{"poiid":"B2094757D66FA6FA4693","title":"延安东路隧道","lon":"121.4938968","lat":"31.235608933","category":"260","category_name":"其他","address":"上海黄浦区延安东路-浦东新区陆家嘴西路"},{"poiid":"B2094757D069A6FC409A","title":"黄浦会","lon":"121.49158","lat":"31.23386","category":"260","category_name":"其他","address":"黄浦区中山东一路3号外滩3号5楼(近广东路)"},{"poiid":"B2094757D16BA0FD489A","title":"东昌路摆渡","lon":"121.493180738","lat":"31.2351464049","category":"500","category_name":"未知分类","address":"上海市黄浦区四川中路"},{"poiid":"B2094750D46BABF94593","title":"小南国","lon":"121.496276","lat":"31.234474","category":"247","category_name":"餐饮美食","address":null},{"poiid":"B2094655D26EAAF8469B","title":"望江阁","lon":"121.491266","lat":"31.234322","category":"94","category_name":"西餐厅","address":"黄浦区中山东一路3号外滩3号7楼(近广东路)"},{"poiid":"B2094751D565A1FE489F","title":"Mr & Mrs Bund","lon":"121.492703","lat":"31.234391","category":"247","category_name":"餐饮美食","address":"外滩十八号"},{"poiid":"B2094757D069A5F5439D","title":"外滩天文台","lon":"121.49302","lat":"31.23242","category":"46","category_name":"楼宇","address":"黄浦区中山东二路1号甲(近延安东路外滩)"},{"poiid":"B2094750D568A0FF4293","title":"Mercato by Jean Geroge","lon":"121.491241","lat":"31.234399","category":"500","category_name":"未知分类","address":"Bund No 3"},{"poiid":"B209475DD06EA0F5449C","title":"茹丝葵牛排馆","lon":"121.492492","lat":"31.234409","category":"247","category_name":"餐饮美食","address":"上海市 上海市黄浦区广东路20号4楼02室外滩五号4楼"},{"poiid":"B2094654DA6EA5FA419E","title":"新外滩商厦","lon":"121.49335","lat":"31.23127","category":"46","category_name":"楼宇","address":"黄浦区中山东二路15号(龙潭路中山东二路)"},{"poiid":"B2094757D569A2FE4693","title":"新外滩15号","lon":"121.4933389","lat":"31.23143889","category":"47","category_name":"住宅区","address":"黄浦区中山东二路15号"},{"poiid":"B2094757D164A4F84498","title":"reddot","lon":"121.49676973","lat":"31.234767396","category":"500","category_name":"未知分类","address":"上海市滨江大道"},{"poiid":"B2094757D069A0FC4792","title":"阿塔努酒吧1907","lon":"121.49199125","lat":"31.232749913","category":"260","category_name":"其他","address":"黄浦区中山东二路1号甲(金陵东路中山东二路)"},{"poiid":"B2094757D16CABFE429A","title":"Pelham's (上海外滩华尔道夫酒店内)","lon":"121.4914507","lat":"31.233135525","category":"217","category_name":"旅馆招待所","address":"上海市黄浦区中山东一路2号，华尔道夫会所大堂层"},{"poiid":"B2094751D56FABFD479A","title":"炉边情谈","lon":"121.496303","lat":"31.236572","category":"500","category_name":"未知分类","address":"陆家嘴正大广场"},{"poiid":"B2094654DA6FAAFD4799","title":"外滩3号","lon":"121.49114","lat":"31.23409","category":"47","category_name":"住宅区","address":"中山东一路3"},{"poiid":"B2094757D06EABF54998","title":"上海外滩华尔道夫酒店(Waldorf Astoria Shanghai on the Bund)","lon":"121.4912967","lat":"31.232828526","category":"217","category_name":"旅馆招待所","address":"黄浦区中山东一路2号(近延安东路)"},{"poiid":"B2094654DB6BABFC409C","title":"许留山 滨江大道店 Hui Lau Shan","lon":"121.49780880378","lat":"31.235935163743","category":"67","category_name":"甜品店","address":"浦东新区滨江大道1号富都段滨江花园内(浦东南路口)"},{"poiid":"B209475CD564A7F84292","title":"上海滩新天地店","lon":"121.47463","lat":"31.22164","category":"119","category_name":"商场","address":"\"太仓路181弄新天地北里15号\r\n\""},{"poiid":"B209475CD564A7F84392","title":"上海滩浦东香格里拉店","lon":"121.50058","lat":"31.23634","category":"119","category_name":"商场","address":"浦东富成路33号香格里拉酒店内大堂层"},{"poiid":"B2094757D06FA3FE499F","title":"外滩三号","lon":"121.49128","lat":"31.23404","category":"111","category_name":"休闲餐饮场所","address":"上海黄浦区中山东一路3号(广东路口)"},{"poiid":"B2094757D06FA6F4479E","title":"Jean Georges","lon":"121.490883296","lat":"31.2341583825","category":"94","category_name":"西餐厅","address":"黄浦区中山东一路3号外滩3号4楼(近广东路)"},{"poiid":"B2094757D06FA7F54892","title":"外滩轮渡","lon":"121.49613189","lat":"31.232406616","category":"260","category_name":"其他","address":"上海外滩"},{"poiid":"B2094655D26DAAFE449F","title":"滨江公园","lon":"121.49685","lat":"31.23567","category":"196","category_name":"公园","address":"浦东新区滨江大道2967号(近丰和路)"},{"poiid":"B2094757D06FA6FD4699","title":"The Glamour Bar","lon":"121.49109627","lat":"31.2341656143","category":"172","category_name":"酒吧","address":"黄浦区广东路20号外滩5号6楼(近中山东一路)"},{"poiid":"B2094757D064A7FC489E","title":"外滩22号","lon":"121.49161573","lat":"31.233858377","category":"252","category_name":"楼宇机构","address":"上海市黄浦区江西中路"},{"poiid":"B2094654DA6FAAFD4593","title":"M on the Bund","lon":"121.49079","lat":"31.2345","category":"263","category_name":"公司","address":"中山东一路5号外滩5号7层"},{"poiid":"B2094757D06FA7FF449F","title":"东京和食","lon":"121.49104","lat":"31.23457","category":"95","category_name":"日本料理","address":"黄浦区中山东一路6号外滩6号2楼(近广东路)"},{"poiid":"B2094757D06AA2F8479A","title":"延安东路外滩","lon":"121.4917546","lat":"31.2333084","category":"250","category_name":"公园户外","address":"上海黄浦区延安东路中山东一路"},{"poiid":"B2094654DA6FAAFD4592","title":"外滩5号","lon":"121.49078","lat":"31.2345","category":"47","category_name":"住宅区","address":"中山东一路5号"},{"poiid":"B2094654DB6BABFC409E","title":"Haagen-Dazs","lon":"121.49623","lat":"31.23572","category":"113","category_name":"冷饮店","address":"滨江公园西南"},{"poiid":"B2094757D06FA5F94098","title":"New Heights","lon":"121.4917","lat":"31.23383","category":"94","category_name":"西餐厅","address":"黄浦区中山东一路3号外滩3号7楼(近广东路)"},{"poiid":"B2094750D26EA2FB419E","title":"El Willy","lon":"121.493644","lat":"31.231233","category":"94","category_name":"西餐厅","address":"黄浦区中山东二路22号5楼(近新永安路)"},{"poiid":"B2094750DA64A1F5409F","title":"王品台塑牛排(正大广场店)","lon":"121.496726","lat":"31.234537","category":"248","category_name":"生活娱乐","address":"浦东新区陆家嘴西路168号正大广场8楼(近东方明珠)"},{"poiid":"B2094757D66CA0F5419A","title":"Paulaner","lon":"121.49564183","lat":"31.236288029","category":"500","category_name":"未知分类","address":"滨江大道"},{"poiid":"B2094757D468A4FE489A","title":"Horizen","lon":"121.492901","lat":"31.231715","category":"247","category_name":"餐饮美食","address":"金陵东路1号近中山东二路"},{"poiid":"B2094752DB64A5FB4692","title":"米子mizzi","lon":"121.495748","lat":"31.235876","category":"500","category_name":"未知分类","address":"上海市 浦东新区富城路182号"},{"poiid":"B2094757D06FABFF409D","title":"上海市档案馆外滩新馆","lon":"121.492291924","lat":"31.2324161636","category":"181","category_name":"图书馆","address":"上海黄浦区中山东二路9号(近延安东路)"},{"poiid":"B2094654DA6EA5F4429C","title":"新上海城市广场","lon":"121.49382789653","lat":"31.235365937753","category":"46","category_name":"楼宇","address":"龙蟠南路33号(龙蟠南路与秦虹路交汇处"},{"poiid":"B2094757D06FABFF4699","title":"东方商旅 Les Suites Orient","lon":"121.492741","lat":"31.231819","category":"217","category_name":"旅馆招待所","address":"黄浦区金陵东路1号(近中山东二路)"},{"poiid":"B2094750D26EA7F44892","title":"YAWARAGI ON THE BUND","lon":"121.494522","lat":"31.232086","category":"95","category_name":"日本料理","address":"黄浦区中山东二路22号3楼(近新永安路)"},{"poiid":"B2094757D068A6FF489B","title":"金陵东路渡口","lon":"121.493181968","lat":"31.2321444779","category":"35","category_name":"长途汽车站","address":"上海中山东二路121号(金陵东路口)"},{"poiid":"B2094757D66BA1FC489B","title":"华尔道夫酒店廊吧","lon":"121.491231","lat":"31.23389","category":"260","category_name":"其他","address":"黄浦区中山东一路2号华尔道夫酒店L层(近延安东路)"},{"poiid":"B2094655D26FA2FA4099","title":"月影铁板烧景观餐厅酒廊","lon":"121.49079","lat":"31.2345","category":"97","category_name":"法式菜品餐厅","address":"黄浦区中山东一路外滩5号3楼"},{"poiid":"B2094751D56CA4FD419C","title":"Mercato","lon":"121.49088","lat":"31.23417","category":"94","category_name":"西餐厅","address":"黄浦区中山东一路3号外滩3号6楼(近广东路)"},{"poiid":"B2094757D069A6F5439A","title":"小竹园海鲜酒楼(外滩店)","lon":"121.493705026","lat":"31.2347289549","category":"247","category_name":"餐饮美食","address":"上海四川中路218号"},{"poiid":"B2094757D06FA3FB4199","title":"外滩隧道","lon":"121.491135705","lat":"31.2345035269","category":"260","category_name":"其他","address":"上海海宁路长治路——延安东路中山南路"},{"poiid":"B2094655D36DA6FF4493","title":"金陵东路","lon":"121.49318","lat":"31.23215","category":"38","category_name":"公交车站","address":"上海黄浦区金陵东路"},{"poiid":"B2094654DB64AAF9449F","title":"阿塔努外滩360度全景酒吧","lon":"121.49245","lat":"31.23308","category":"172","category_name":"酒吧","address":"中山东二路1号甲"},{"poiid":"B2094753DA68AAFC449B","title":"上海市东方明珠塔","lon":"121.493782","lat":"31.234169","category":"500","category_name":"未知分类","address":"上海市 上海市东方明珠塔"},{"poiid":"B2094757D66FA6FA4693","title":"延安东路隧道","lon":"121.4938968","lat":"31.235608933","category":"260","category_name":"其他","address":"上海黄浦区延安东路-浦东新区陆家嘴西路"},{"poiid":"B2094757D069A6FC409A","title":"黄浦会","lon":"121.49158","lat":"31.23386","category":"260","category_name":"其他","address":"黄浦区中山东一路3号外滩3号5楼(近广东路)"},{"poiid":"B2094757D16BA0FD489A","title":"东昌路摆渡","lon":"121.493180738","lat":"31.2351464049","category":"500","category_name":"未知分类","address":"上海市黄浦区四川中路"},{"poiid":"B2094750D46BABF94593","title":"小南国","lon":"121.496276","lat":"31.234474","category":"247","category_name":"餐饮美食","address":null},{"poiid":"B2094655D26EAAF8469B","title":"望江阁","lon":"121.491266","lat":"31.234322","category":"94","category_name":"西餐厅","address":"黄浦区中山东一路3号外滩3号7楼(近广东路)"},{"poiid":"B2094751D565A1FE489F","title":"Mr & Mrs Bund","lon":"121.492703","lat":"31.234391","category":"247","category_name":"餐饮美食","address":"外滩十八号"},{"poiid":"B2094757D069A5F5439D","title":"外滩天文台","lon":"121.49302","lat":"31.23242","category":"46","category_name":"楼宇","address":"黄浦区中山东二路1号甲(近延安东路外滩)"},{"poiid":"B2094750D568A0FF4293","title":"Mercato by Jean Geroge","lon":"121.491241","lat":"31.234399","category":"500","category_name":"未知分类","address":"Bund No 3"},{"poiid":"B209475DD06EA0F5449C","title":"茹丝葵牛排馆","lon":"121.492492","lat":"31.234409","category":"247","category_name":"餐饮美食","address":"上海市 上海市黄浦区广东路20号4楼02室外滩五号4楼"},{"poiid":"B2094654DA6EA5FA419E","title":"新外滩商厦","lon":"121.49335","lat":"31.23127","category":"46","category_name":"楼宇","address":"黄浦区中山东二路15号(龙潭路中山东二路)"},{"poiid":"B2094757D569A2FE4693","title":"新外滩15号","lon":"121.4933389","lat":"31.23143889","category":"47","category_name":"住宅区","address":"黄浦区中山东二路15号"},{"poiid":"B2094757D164A4F84498","title":"reddot","lon":"121.49676973","lat":"31.234767396","category":"500","category_name":"未知分类","address":"上海市滨江大道"},{"poiid":"B2094757D069A0FC4792","title":"阿塔努酒吧1907","lon":"121.49199125","lat":"31.232749913","category":"260","category_name":"其他","address":"黄浦区中山东二路1号甲(金陵东路中山东二路)"},{"poiid":"B2094757D16CABFE429A","title":"Pelham's (上海外滩华尔道夫酒店内)","lon":"121.4914507","lat":"31.233135525","category":"217","category_name":"旅馆招待所","address":"上海市黄浦区中山东一路2号，华尔道夫会所大堂层"},{"poiid":"B2094751D56FABFD479A","title":"炉边情谈","lon":"121.496303","lat":"31.236572","category":"500","category_name":"未知分类","address":"陆家嘴正大广场"}]