[{"poiid":"B2094757D06FABFD469D","title":"浦东商场(金汇广场店)","lon":"121.6961","lat":"31.19974","category":"119","category_name":"商场","address":"浦东新区华夏东路2255号(近金汇路)"},{"poiid":"B2094757D06FA3F54698","title":"川沙","lon":"121.6893013","lat":"31.197668498","category":"500","category_name":"未知分类","address":"上海市浦东新区川沙新镇"},{"poiid":"B2094757D068ABF8439D","title":"金凯门","lon":"121.69318","lat":"31.207","category":"76","category_name":"上海菜","address":"浦东新区川沙镇川沙路4118号"},{"poiid":"B2094655D36CA5FD4698","title":"川沙镇","lon":"121.70425","lat":"31.19988","category":"38","category_name":"公交车站","address":""},{"poiid":"B2094750D769A3F5449C","title":"鲜芋仙(金汇广场店)","lon":"121.695","lat":"31.2004","category":"67","category_name":"甜品店","address":"浦东新区华夏东路2255号金汇广场1楼(近川沙路)"},{"poiid":"B2094757D068A2F5439B","title":"釜山料理 川沙店 Pankoo","lon":"121.6989451","lat":"31.1959072","category":"247","category_name":"餐饮美食","address":"浦东新区川沙镇西市街188号玛雅现代生活广场3楼"},{"poiid":"B2094757D068AAF4479D","title":"卜蜂莲花(川沙店)","lon":"121.6963979","lat":"31.199999","category":"118","category_name":"超级市场","address":"浦东新区川沙华夏东路2239号(川沙路)"},{"poiid":"B2094655D36CA5FD4893","title":"川沙路建业路","lon":"121.69085","lat":"31.21263","category":"38","category_name":"公交车站","address":""},{"poiid":"B2094655D36CA5FE409D","title":"川沙路创新路","lon":"121.68962","lat":"31.21821","category":"38","category_name":"公交车站","address":""},{"poiid":"B2094654DB64A3FB429A","title":"肯德基 金汇店 KFC","lon":"121.697216054","lat":"31.199588793","category":"68","category_name":"快餐厅","address":"闵行区华夏东路2255号卜峰莲花内(近川沙路)"},{"poiid":"B2094654DB64A3FB469A","title":"上海索广映像有限公司SSV","lon":"121.69111","lat":"31.21248","category":"263","category_name":"公司","address":"川沙路3777号"},{"poiid":"B2094757D66AA0F9449E","title":"浙商大酒店","lon":"121.6884642486","lat":"31.199801153235","category":"76","category_name":"上海菜","address":"浦东新区华夏东路2021号(华夏东路益华路)"},{"poiid":"B2094757D66CA2F94298","title":"中邦商务园","lon":"121.698552685","lat":"31.2142707317","category":"46","category_name":"楼宇","address":"上海王桥路999号1019c"},{"poiid":"B2094655D26BA1F8449F","title":"暮紫桥","lon":"121.68977","lat":"31.21728","category":"38","category_name":"公交车站","address":"浦东新区,暮紫桥"},{"poiid":"B2094757D16AA6FD4298","title":"森铁板料理","lon":"121.692723085","lat":"31.2113760014","category":"247","category_name":"餐饮美食","address":"上海浦东新区川沙镇新德路637号(近妙境路)"},{"poiid":"B2094757D06BAAFC4593","title":"农工商(川沙路店)","lon":"121.69111","lat":"31.21466","category":"118","category_name":"超级市场","address":"上海浦东新区川沙镇川沙路4645号  "},{"poiid":"B2094654DA6AAAF9409C","title":"东方协和塑料工业","lon":"121.69616","lat":"31.2124","category":"45","category_name":"产业园区","address":""},{"poiid":"B2094654DA6AAAF8489F","title":"中邦置业集团中邦MOHO","lon":"121.69784","lat":"31.21494","category":"263","category_name":"公司","address":"浦东新区王桥路999号"},{"poiid":"B2094655D26BA2FE409D","title":"王桥","lon":"121.69273","lat":"31.20843","category":"38","category_name":"公交车站","address":"龙东大道5401弄"},{"poiid":"B2094654DB69A6F94099","title":"上海国航云亭酒店","lon":"121.69342","lat":"31.20767","category":"250","category_name":"公园户外","address":"浦东新区川沙路4121号"},{"poiid":"B2094654DB64A3FB4593","title":"立邦涂料(中国)有限公司(浦东·创业路)","lon":"121.68621","lat":"31.21311","category":"263","category_name":"公司","address":"创业路287"},{"poiid":"B2094654DA6AABF8499F","title":"金汇广场(华夏东路)","lon":"121.6961","lat":"31.20009","category":"119","category_name":"商场","address":"浦东新区华夏东路2255号近川沙路"},{"poiid":"B2094757D064A6F8469E","title":"和惠日式烤肉 川沙绿地东海岸店","lon":"121.689553085","lat":"31.2152312528","category":"247","category_name":"餐饮美食","address":"上海川沙绿地东海岸"},{"poiid":"B2094757D16BA7FD439C","title":"巴贝隆无限量烤肉(川沙店)","lon":"121.699104085","lat":"31.1980703757","category":"247","category_name":"餐饮美食","address":"上海川沙玛雅广场西市街188号"},{"poiid":"B2094757DA6BA4FB479B","title":"中邦MOHO写字楼","lon":"121.697788","lat":"31.214949","category":"252","category_name":"楼宇机构","address":"上海市黄浦区南京西路338号"},{"poiid":"B2094654DA6BA3FD4993","title":"浦东新区川沙体育场","lon":"121.70272","lat":"31.20032","category":"224","category_name":"综合体育馆","address":"浦东新区华夏东路2541号(华夏东路益华路)"},{"poiid":"B2094757D66FA7FE499E","title":"云亭假日酒店","lon":"121.69337","lat":"31.207733","category":"217","category_name":"旅馆招待所","address":"上海市浦东新区川沙路4121号(近华夏东路)"},{"poiid":"B2094654DA6AAAF8499A","title":"上海雄威特约维修站","lon":"121.69109","lat":"31.21427","category":"159","category_name":"汽车维修","address":""},{"poiid":"B2094655D36CA5FD499E","title":"川沙(置业路)","lon":"121.69171","lat":"31.20702","category":"38","category_name":"公交车站","address":""},{"poiid":"B2094655D26BA0FD469F","title":"上海金华酒店浦东机场二店","lon":"121.68958","lat":"31.21824","category":"250","category_name":"公园户外","address":"川沙路3488号"},{"poiid":"B2094654DA6AAAF9409E","title":"上海凯众聚氨酯有限公司","lon":"121.69748","lat":"31.21314","category":"263","category_name":"公司","address":""},{"poiid":"B2094654DA6AAAF84892","title":"大东模型塑胶(上海)有限公司","lon":"121.69008","lat":"31.21448","category":"263","category_name":"公司","address":""},{"poiid":"B2094757D168A7F44599","title":"海拉电子","lon":"121.689167","lat":"31.211072","category":"249","category_name":"购物服务","address":"上海川沙建业路411号"},{"poiid":"B2094757D069ABF8499D","title":"王桥路968号","lon":"121.701068631","lat":"31.2100538971","category":"46","category_name":"楼宇","address":"上海浦东新区王桥路968号"},{"poiid":"B2094655D269AAF8499B","title":"百惠家饰市场","lon":"121.69203","lat":"31.20691","category":"247","category_name":"餐饮美食","address":"浦东新区川沙路4168号(近华夏东路)"},{"poiid":"B2094757D165A7FE479A","title":"邦邦健身中心","lon":"121.70037","lat":"31.2104","category":"148","category_name":"美容美发店","address":"浦东新区川沙镇王桥路999号中邦商务中心(浦东运河路王桥路)"},{"poiid":"B2094757D06BAAF9469B","title":"立邦漆","lon":"121.68486136","lat":"31.214606084","category":"46","category_name":"楼宇","address":"上海金桥出口加工区南区创业路167号"},{"poiid":"B2094654DA6BA3FC489A","title":"时尚名剪(川沙路)","lon":"121.6894","lat":"31.21778","category":"148","category_name":"美容美发店","address":""},{"poiid":"B2094654DA6AAAF9409B","title":"上海海拉电子有限公司","lon":"121.68917","lat":"31.21107","category":"263","category_name":"公司","address":"建业路411号"},{"poiid":"B2094757D165A2FA4799","title":"52Riverside","lon":"121.69339","lat":"31.19632","category":"260","category_name":"其他","address":"浦东新区民贤路52号(近新德路)"},{"poiid":"B2094757D16FA5F94193","title":"中邦","lon":"121.70004208","lat":"31.211570672","category":"249","category_name":"购物服务","address":"上海市浦东新区王桥路"},{"poiid":"B2094757D66DABFE4993","title":"创新路","lon":"121.689432","lat":"31.217598","category":"500","category_name":"未知分类","address":"上海川沙路创新路"},{"poiid":"B2094655D36DA2FA499C","title":"益民桥","lon":"121.69937","lat":"31.21771","category":"250","category_name":"公园户外","address":""},{"poiid":"B2094757D66EA6F9459E","title":"绿地豪生酒店","lon":"121.6897248","lat":"31.2170815","category":"217","category_name":"旅馆招待所","address":"上海川沙路"},{"poiid":"B2094753D26FA1FB449D","title":"嘉仪中心","lon":"121.699993","lat":"31.211385","category":"500","category_name":"未知分类","address":"上海市 王桥路990号"},{"poiid":"B2094757D064AAF9449C","title":"召家楼古镇","lon":"121.68992614","lat":"31.217618942","category":"500","category_name":"未知分类","address":"上海召家楼"},{"poiid":"B2094757D469A0F4479C","title":"瑶家湘域 川沙店 Jade House","lon":"121.689841","lat":"31.197122","category":"77","category_name":"湖南菜","address":"浦东新区川沙镇妙境路168号(妙境路新德路)"},{"poiid":"B2094757D16BA4FD439B","title":"川沙路小白路","lon":"121.688076335","lat":"31.2189836353","category":"500","category_name":"未知分类","address":"上海小湾"},{"poiid":"B2094654DA6AAAF94299","title":"上海梅达","lon":"121.69203","lat":"31.20863","category":"248","category_name":"生活娱乐","address":""},{"poiid":"B2094654DA6BA3FE4199","title":"水景豪园","lon":"121.69777","lat":"31.201178","category":"47","category_name":"住宅区","address":"上安公馆位于浦东浦东大道2160号"},{"poiid":"B2094757D06FABFD469D","title":"浦东商场(金汇广场店)","lon":"121.6961","lat":"31.19974","category":"119","category_name":"商场","address":"浦东新区华夏东路2255号(近金汇路)"},{"poiid":"B2094757D06FA3F54698","title":"川沙","lon":"121.6893013","lat":"31.197668498","category":"500","category_name":"未知分类","address":"上海市浦东新区川沙新镇"},{"poiid":"B2094757D068ABF8439D","title":"金凯门","lon":"121.69318","lat":"31.207","category":"76","category_name":"上海菜","address":"浦东新区川沙镇川沙路4118号"},{"poiid":"B2094655D36CA5FD4698","title":"川沙镇","lon":"121.70425","lat":"31.19988","category":"38","category_name":"公交车站","address":""},{"poiid":"B2094750D769A3F5449C","title":"鲜芋仙(金汇广场店)","lon":"121.695","lat":"31.2004","category":"67","category_name":"甜品店","address":"浦东新区华夏东路2255号金汇广场1楼(近川沙路)"},{"poiid":"B2094757D068A2F5439B","title":"釜山料理 川沙店 Pankoo","lon":"121.6989451","lat":"31.1959072","category":"247","category_name":"餐饮美食","address":"浦东新区川沙镇西市街188号玛雅现代生活广场3楼"},{"poiid":"B2094757D068AAF4479D","title":"卜蜂莲花(川沙店)","lon":"121.6963979","lat":"31.199999","category":"118","category_name":"超级市场","address":"浦东新区川沙华夏东路2239号(川沙路)"},{"poiid":"B2094655D36CA5FD4893","title":"川沙路建业路","lon":"121.69085","lat":"31.21263","category":"38","category_name":"公交车站","address":""},{"poiid":"B2094655D36CA5FE409D","title":"川沙路创新路","lon":"121.68962","lat":"31.21821","category":"38","category_name":"公交车站","address":""},{"poiid":"B2094654DB64A3FB429A","title":"肯德基 金汇店 KFC","lon":"121.697216054","lat":"31.199588793","category":"68","category_name":"快餐厅","address":"闵行区华夏东路2255号卜峰莲花内(近川沙路)"},{"poiid":"B2094654DB64A3FB469A","title":"上海索广映像有限公司SSV","lon":"121.69111","lat":"31.21248","category":"263","category_name":"公司","address":"川沙路3777号"},{"poiid":"B2094757D66AA0F9449E","title":"浙商大酒店","lon":"121.6884642486","lat":"31.199801153235","category":"76","category_name":"上海菜","address":"浦东新区华夏东路2021号(华夏东路益华路)"},{"poiid":"B2094757D66CA2F94298","title":"中邦商务园","lon":"121.698552685","lat":"31.2142707317","category":"46","category_name":"楼宇","address":"上海王桥路999号1019c"},{"poiid":"B2094655D26BA1F8449F","title":"暮紫桥","lon":"121.68977","lat":"31.21728","category":"38","category_name":"公交车站","address":"浦东新区,暮紫桥"},{"poiid":"B2094757D16AA6FD4298","title":"森铁板料理","lon":"121.692723085","lat":"31.2113760014","category":"247","category_name":"餐饮美食","address":"上海浦东新区川沙镇新德路637号(近妙境路)"},{"poiid":"B2094757D06BAAFC4593","title":"农工商(川沙路店)","lon":"121.69111","lat":"31.21466","category":"118","category_name":"超级市场","address":"上海浦东新区川沙镇川沙路4645号  "},{"poiid":"B2094654DA6AAAF9409C","title":"东方协和塑料工业","lon":"121.69616","lat":"31.2124","category":"45","category_name":"产业园区","address":""},{"poiid":"B2094654DA6AAAF8489F","title":"中邦置业集团中邦MOHO","lon":"121.69784","lat":"31.21494","category":"263","category_name":"公司","address":"浦东新区王桥路999号"},{"poiid":"B2094655D26BA2FE409D","title":"王桥","lon":"121.69273","lat":"31.20843","category":"38","category_name":"公交车站","address":"龙东大道5401弄"},{"poiid":"B2094654DB69A6F94099","title":"上海国航云亭酒店","lon":"121.69342","lat":"31.20767","category":"250","category_name":"公园户外","address":"浦东新区川沙路4121号"},{"poiid":"B2094654DB64A3FB4593","title":"立邦涂料(中国)有限公司(浦东·创业路)","lon":"121.68621","lat":"31.21311","category":"263","category_name":"公司","address":"创业路287"},{"poiid":"B2094654DA6AABF8499F","title":"金汇广场(华夏东路)","lon":"121.6961","lat":"31.20009","category":"119","category_name":"商场","address":"浦东新区华夏东路2255号近川沙路"},{"poiid":"B2094757D064A6F8469E","title":"和惠日式烤肉 川沙绿地东海岸店","lon":"121.689553085","lat":"31.2152312528","category":"247","category_name":"餐饮美食","address":"上海川沙绿地东海岸"},{"poiid":"B2094757D16BA7FD439C","title":"巴贝隆无限量烤肉(川沙店)","lon":"121.699104085","lat":"31.1980703757","category":"247","category_name":"餐饮美食","address":"上海川沙玛雅广场西市街188号"},{"poiid":"B2094757DA6BA4FB479B","title":"中邦MOHO写字楼","lon":"121.697788","lat":"31.214949","category":"252","category_name":"楼宇机构","address":"上海市黄浦区南京西路338号"},{"poiid":"B2094654DA6BA3FD4993","title":"浦东新区川沙体育场","lon":"121.70272","lat":"31.20032","category":"224","category_name":"综合体育馆","address":"浦东新区华夏东路2541号(华夏东路益华路)"},{"poiid":"B2094757D66FA7FE499E","title":"云亭假日酒店","lon":"121.69337","lat":"31.207733","category":"217","category_name":"旅馆招待所","address":"上海市浦东新区川沙路4121号(近华夏东路)"},{"poiid":"B2094654DA6AAAF8499A","title":"上海雄威特约维修站","lon":"121.69109","lat":"31.21427","category":"159","category_name":"汽车维修","address":""},{"poiid":"B2094655D36CA5FD499E","title":"川沙(置业路)","lon":"121.69171","lat":"31.20702","category":"38","category_name":"公交车站","address":""},{"poiid":"B2094655D26BA0FD469F","title":"上海金华酒店浦东机场二店","lon":"121.68958","lat":"31.21824","category":"250","category_name":"公园户外","address":"川沙路3488号"},{"poiid":"B2094654DA6AAAF9409E","title":"上海凯众聚氨酯有限公司","lon":"121.69748","lat":"31.21314","category":"263","category_name":"公司","address":""},{"poiid":"B2094654DA6AAAF84892","title":"大东模型塑胶(上海)有限公司","lon":"121.69008","lat":"31.21448","category":"263","category_name":"公司","address":""},{"poiid":"B2094757D168A7F44599","title":"海拉电子","lon":"121.689167","lat":"31.211072","category":"249","category_name":"购物服务","address":"上海川沙建业路411号"},{"poiid":"B2094757D069ABF8499D","title":"王桥路968号","lon":"121.701068631","lat":"31.2100538971","category":"46","category_name":"楼宇","address":"上海浦东新区王桥路968号"},{"poiid":"B2094655D269AAF8499B","title":"百惠家饰市场","lon":"121.69203","lat":"31.20691","category":"247","category_name":"餐饮美食","address":"浦东新区川沙路4168号(近华夏东路)"},{"poiid":"B2094757D165A7FE479A","title":"邦邦健身中心","lon":"121.70037","lat":"31.2104","category":"148","category_name":"美容美发店","address":"浦东新区川沙镇王桥路999号中邦商务中心(浦东运河路王桥路)"},{"poiid":"B2094757D06BAAF9469B","title":"立邦漆","lon":"121.68486136","lat":"31.214606084","category":"46","category_name":"楼宇","address":"上海金桥出口加工区南区创业路167号"},{"poiid":"B2094654DA6BA3FC489A","title":"时尚名剪(川沙路)","lon":"121.6894","lat":"31.21778","category":"148","category_name":"美容美发店","address":""},{"poiid":"B2094654DA6AAAF9409B","title":"上海海拉电子有限公司","lon":"121.68917","lat":"31.21107","category":"263","category_name":"公司","address":"建业路411号"},{"poiid":"B2094757D165A2FA4799","title":"52Riverside","lon":"121.69339","lat":"31.19632","category":"260","category_name":"其他","address":"浦东新区民贤路52号(近新德路)"},{"poiid":"B2094757D16FA5F94193","title":"中邦","lon":"121.70004208","lat":"31.211570672","category":"249","category_name":"购物服务","address":"上海市浦东新区王桥路"},{"poiid":"B2094757D66DABFE4993","title":"创新路","lon":"121.689432","lat":"31.217598","category":"500","category_name":"未知分类","address":"上海川沙路创新路"},{"poiid":"B2094655D36DA2FA499C","title":"益民桥","lon":"121.69937","lat":"31.21771","category":"250","category_name":"公园户外","address":""},{"poiid":"B2094757D66EA6F9459E","title":"绿地豪生酒店","lon":"121.6897248","lat":"31.2170815","category":"217","category_name":"旅馆招待所","address":"上海川沙路"},{"poiid":"B2094753D26FA1FB449D","title":"嘉仪中心","lon":"121.699993","lat":"31.211385","category":"500","category_name":"未知分类","address":"上海市 王桥路990号"},{"poiid":"B2094757D064AAF9449C","title":"召家楼古镇","lon":"121.68992614","lat":"31.217618942","category":"500","category_name":"未知分类","address":"上海召家楼"},{"poiid":"B2094757D469A0F4479C","title":"瑶家湘域 川沙店 Jade House","lon":"121.689841","lat":"31.197122","category":"77","category_name":"湖南菜","address":"浦东新区川沙镇妙境路168号(妙境路新德路)"},{"poiid":"B2094757D16BA4FD439B","title":"川沙路小白路","lon":"121.688076335","lat":"31.2189836353","category":"500","category_name":"未知分类","address":"上海小湾"},{"poiid":"B2094654DA6AAAF94299","title":"上海梅达","lon":"121.69203","lat":"31.20863","category":"248","category_name":"生活娱乐","address":""},{"poiid":"B2094654DA6BA3FE4199","title":"水景豪园","lon":"121.69777","lat":"31.201178","category":"47","category_name":"住宅区","address":"上安公馆位于浦东浦东大道2160号"},{"poiid":"B2094757D06FABFD469D","title":"浦东商场(金汇广场店)","lon":"121.6961","lat":"31.19974","category":"119","category_name":"商场","address":"浦东新区华夏东路2255号(近金汇路)"},{"poiid":"B2094757D06FA3F54698","title":"川沙","lon":"121.6893013","lat":"31.197668498","category":"500","category_name":"未知分类","address":"上海市浦东新区川沙新镇"},{"poiid":"B2094757D068ABF8439D","title":"金凯门","lon":"121.69318","lat":"31.207","category":"76","category_name":"上海菜","address":"浦东新区川沙镇川沙路4118号"},{"poiid":"B2094655D36CA5FD4698","title":"川沙镇","lon":"121.70425","lat":"31.19988","category":"38","category_name":"公交车站","address":""},{"poiid":"B2094750D769A3F5449C","title":"鲜芋仙(金汇广场店)","lon":"121.695","lat":"31.2004","category":"67","category_name":"甜品店","address":"浦东新区华夏东路2255号金汇广场1楼(近川沙路)"},{"poiid":"B2094757D068A2F5439B","title":"釜山料理 川沙店 Pankoo","lon":"121.6989451","lat":"31.1959072","category":"247","category_name":"餐饮美食","address":"浦东新区川沙镇西市街188号玛雅现代生活广场3楼"},{"poiid":"B2094757D068AAF4479D","title":"卜蜂莲花(川沙店)","lon":"121.6963979","lat":"31.199999","category":"118","category_name":"超级市场","address":"浦东新区川沙华夏东路2239号(川沙路)"},{"poiid":"B2094655D36CA5FD4893","title":"川沙路建业路","lon":"121.69085","lat":"31.21263","category":"38","category_name":"公交车站","address":""},{"poiid":"B2094655D36CA5FE409D","title":"川沙路创新路","lon":"121.68962","lat":"31.21821","category":"38","category_name":"公交车站","address":""},{"poiid":"B2094654DB64A3FB429A","title":"肯德基 金汇店 KFC","lon":"121.697216054","lat":"31.199588793","category":"68","category_name":"快餐厅","address":"闵行区华夏东路2255号卜峰莲花内(近川沙路)"},{"poiid":"B2094654DB64A3FB469A","title":"上海索广映像有限公司SSV","lon":"121.69111","lat":"31.21248","category":"263","category_name":"公司","address":"川沙路3777号"},{"poiid":"B2094757D66AA0F9449E","title":"浙商大酒店","lon":"121.6884642486","lat":"31.199801153235","category":"76","category_name":"上海菜","address":"浦东新区华夏东路2021号(华夏东路益华路)"},{"poiid":"B2094757D66CA2F94298","title":"中邦商务园","lon":"121.698552685","lat":"31.2142707317","category":"46","category_name":"楼宇","address":"上海王桥路999号1019c"},{"poiid":"B2094655D26BA1F8449F","title":"暮紫桥","lon":"121.68977","lat":"31.21728","category":"38","category_name":"公交车站","address":"浦东新区,暮紫桥"},{"poiid":"B2094757D16AA6FD4298","title":"森铁板料理","lon":"121.692723085","lat":"31.2113760014","category":"247","category_name":"餐饮美食","address":"上海浦东新区川沙镇新德路637号(近妙境路)"},{"poiid":"B2094757D06BAAFC4593","title":"农工商(川沙路店)","lon":"121.69111","lat":"31.21466","category":"118","category_name":"超级市场","address":"上海浦东新区川沙镇川沙路4645号  "},{"poiid":"B2094654DA6AAAF9409C","title":"东方协和塑料工业","lon":"121.69616","lat":"31.2124","category":"45","category_name":"产业园区","address":""},{"poiid":"B2094654DA6AAAF8489F","title":"中邦置业集团中邦MOHO","lon":"121.69784","lat":"31.21494","category":"263","category_name":"公司","address":"浦东新区王桥路999号"},{"poiid":"B2094655D26BA2FE409D","title":"王桥","lon":"121.69273","lat":"31.20843","category":"38","category_name":"公交车站","address":"龙东大道5401弄"},{"poiid":"B2094654DB69A6F94099","title":"上海国航云亭酒店","lon":"121.69342","lat":"31.20767","category":"250","category_name":"公园户外","address":"浦东新区川沙路4121号"},{"poiid":"B2094654DB64A3FB4593","title":"立邦涂料(中国)有限公司(浦东·创业路)","lon":"121.68621","lat":"31.21311","category":"263","category_name":"公司","address":"创业路287"},{"poiid":"B2094654DA6AABF8499F","title":"金汇广场(华夏东路)","lon":"121.6961","lat":"31.20009","category":"119","category_name":"商场","address":"浦东新区华夏东路2255号近川沙路"},{"poiid":"B2094757D064A6F8469E","title":"和惠日式烤肉 川沙绿地东海岸店","lon":"121.689553085","lat":"31.2152312528","category":"247","category_name":"餐饮美食","address":"上海川沙绿地东海岸"},{"poiid":"B2094757D16BA7FD439C","title":"巴贝隆无限量烤肉(川沙店)","lon":"121.699104085","lat":"31.1980703757","category":"247","category_name":"餐饮美食","address":"上海川沙玛雅广场西市街188号"},{"poiid":"B2094757DA6BA4FB479B","title":"中邦MOHO写字楼","lon":"121.697788","lat":"31.214949","category":"252","category_name":"楼宇机构","address":"上海市黄浦区南京西路338号"},{"poiid":"B2094654DA6BA3FD4993","title":"浦东新区川沙体育场","lon":"121.70272","lat":"31.20032","category":"224","category_name":"综合体育馆","address":"浦东新区华夏东路2541号(华夏东路益华路)"},{"poiid":"B2094757D66FA7FE499E","title":"云亭假日酒店","lon":"121.69337","lat":"31.207733","category":"217","category_name":"旅馆招待所","address":"上海市浦东新区川沙路4121号(近华夏东路)"},{"poiid":"B2094654DA6AAAF8499A","title":"上海雄威特约维修站","lon":"121.69109","lat":"31.21427","category":"159","category_name":"汽车维修","address":""},{"poiid":"B2094655D36CA5FD499E","title":"川沙(置业路)","lon":"121.69171","lat":"31.20702","category":"38","category_name":"公交车站","address":""},{"poiid":"B2094655D26BA0FD469F","title":"上海金华酒店浦东机场二店","lon":"121.68958","lat":"31.21824","category":"250","category_name":"公园户外","address":"川沙路3488号"},{"poiid":"B2094654DA6AAAF9409E","title":"上海凯众聚氨酯有限公司","lon":"121.69748","lat":"31.21314","category":"263","category_name":"公司","address":""},{"poiid":"B2094654DA6AAAF84892","title":"大东模型塑胶(上海)有限公司","lon":"121.69008","lat":"31.21448","category":"263","category_name":"公司","address":""},{"poiid":"B2094757D168A7F44599","title":"海拉电子","lon":"121.689167","lat":"31.211072","category":"249","category_name":"购物服务","address":"上海川沙建业路411号"},{"poiid":"B2094757D069ABF8499D","title":"王桥路968号","lon":"121.701068631","lat":"31.2100538971","category":"46","category_name":"楼宇","address":"上海浦东新区王桥路968号"},{"poiid":"B2094655D269AAF8499B","title":"百惠家饰市场","lon":"121.69203","lat":"31.20691","category":"247","category_name":"餐饮美食","address":"浦东新区川沙路4168号(近华夏东路)"},{"poiid":"B2094757D165A7FE479A","title":"邦邦健身中心","lon":"121.70037","lat":"31.2104","category":"148","category_name":"美容美发店","address":"浦东新区川沙镇王桥路999号中邦商务中心(浦东运河路王桥路)"},{"poiid":"B2094757D06BAAF9469B","title":"立邦漆","lon":"121.68486136","lat":"31.214606084","category":"46","category_name":"楼宇","address":"上海金桥出口加工区南区创业路167号"},{"poiid":"B2094654DA6BA3FC489A","title":"时尚名剪(川沙路)","lon":"121.6894","lat":"31.21778","category":"148","category_name":"美容美发店","address":""},{"poiid":"B2094654DA6AAAF9409B","title":"上海海拉电子有限公司","lon":"121.68917","lat":"31.21107","category":"263","category_name":"公司","address":"建业路411号"},{"poiid":"B2094757D165A2FA4799","title":"52Riverside","lon":"121.69339","lat":"31.19632","category":"260","category_name":"其他","address":"浦东新区民贤路52号(近新德路)"},{"poiid":"B2094757D16FA5F94193","title":"中邦","lon":"121.70004208","lat":"31.211570672","category":"249","category_name":"购物服务","address":"上海市浦东新区王桥路"},{"poiid":"B2094757D66DABFE4993","title":"创新路","lon":"121.689432","lat":"31.217598","category":"500","category_name":"未知分类","address":"上海川沙路创新路"},{"poiid":"B2094655D36DA2FA499C","title":"益民桥","lon":"121.69937","lat":"31.21771","category":"250","category_name":"公园户外","address":""},{"poiid":"B2094757D66EA6F9459E","title":"绿地豪生酒店","lon":"121.6897248","lat":"31.2170815","category":"217","category_name":"旅馆招待所","address":"上海川沙路"},{"poiid":"B2094753D26FA1FB449D","title":"嘉仪中心","lon":"121.699993","lat":"31.211385","category":"500","category_name":"未知分类","address":"上海市 王桥路990号"},{"poiid":"B2094757D064AAF9449C","title":"召家楼古镇","lon":"121.68992614","lat":"31.217618942","category":"500","category_name":"未知分类","address":"上海召家楼"},{"poiid":"B2094757D469A0F4479C","title":"瑶家湘域 川沙店 Jade House","lon":"121.689841","lat":"31.197122","category":"77","category_name":"湖南菜","address":"浦东新区川沙镇妙境路168号(妙境路新德路)"},{"poiid":"B2094757D16BA4FD439B","title":"川沙路小白路","lon":"121.688076335","lat":"31.2189836353","category":"500","category_name":"未知分类","address":"上海小湾"},{"poiid":"B2094654DA6AAAF94299","title":"上海梅达","lon":"121.69203","lat":"31.20863","category":"248","category_name":"生活娱乐","address":""},{"poiid":"B2094654DA6BA3FE4199","title":"水景豪园","lon":"121.69777","lat":"31.201178","category":"47","category_name":"住宅区","address":"上安公馆位于浦东浦东大道2160号"},{"poiid":"B2094757D06FABFD469D","title":"浦东商场(金汇广场店)","lon":"121.6961","lat":"31.19974","category":"119","category_name":"商场","address":"浦东新区华夏东路2255号(近金汇路)"},{"poiid":"B2094757D06FA3F54698","title":"川沙","lon":"121.6893013","lat":"31.197668498","category":"500","category_name":"未知分类","address":"上海市浦东新区川沙新镇"},{"poiid":"B2094757D068ABF8439D","title":"金凯门","lon":"121.69318","lat":"31.207","category":"76","category_name":"上海菜","address":"浦东新区川沙镇川沙路4118号"},{"poiid":"B2094655D36CA5FD4698","title":"川沙镇","lon":"121.70425","lat":"31.19988","category":"38","category_name":"公交车站","address":""},{"poiid":"B2094750D769A3F5449C","title":"鲜芋仙(金汇广场店)","lon":"121.695","lat":"31.2004","category":"67","category_name":"甜品店","address":"浦东新区华夏东路2255号金汇广场1楼(近川沙路)"},{"poiid":"B2094757D068A2F5439B","title":"釜山料理 川沙店 Pankoo","lon":"121.6989451","lat":"31.1959072","category":"247","category_name":"餐饮美食","address":"浦东新区川沙镇西市街188号玛雅现代生活广场3楼"},{"poiid":"B2094757D068AAF4479D","title":"卜蜂莲花(川沙店)","lon":"121.6963979","lat":"31.199999","category":"118","category_name":"超级市场","address":"浦东新区川沙华夏东路2239号(川沙路)"},{"poiid":"B2094655D36CA5FD4893","title":"川沙路建业路","lon":"121.69085","lat":"31.21263","category":"38","category_name":"公交车站","address":""},{"poiid":"B2094655D36CA5FE409D","title":"川沙路创新路","lon":"121.68962","lat":"31.21821","category":"38","category_name":"公交车站","address":""},{"poiid":"B2094654DB64A3FB429A","title":"肯德基 金汇店 KFC","lon":"121.697216054","lat":"31.199588793","category":"68","category_name":"快餐厅","address":"闵行区华夏东路2255号卜峰莲花内(近川沙路)"},{"poiid":"B2094654DB64A3FB469A","title":"上海索广映像有限公司SSV","lon":"121.69111","lat":"31.21248","category":"263","category_name":"公司","address":"川沙路3777号"},{"poiid":"B2094757D66AA0F9449E","title":"浙商大酒店","lon":"121.6884642486","lat":"31.199801153235","category":"76","category_name":"上海菜","address":"浦东新区华夏东路2021号(华夏东路益华路)"},{"poiid":"B2094757D66CA2F94298","title":"中邦商务园","lon":"121.698552685","lat":"31.2142707317","category":"46","category_name":"楼宇","address":"上海王桥路999号1019c"},{"poiid":"B2094655D26BA1F8449F","title":"暮紫桥","lon":"121.68977","lat":"31.21728","category":"38","category_name":"公交车站","address":"浦东新区,暮紫桥"},{"poiid":"B2094757D16AA6FD4298","title":"森铁板料理","lon":"121.692723085","lat":"31.2113760014","category":"247","category_name":"餐饮美食","address":"上海浦东新区川沙镇新德路637号(近妙境路)"},{"poiid":"B2094757D06BAAFC4593","title":"农工商(川沙路店)","lon":"121.69111","lat":"31.21466","category":"118","category_name":"超级市场","address":"上海浦东新区川沙镇川沙路4645号  "},{"poiid":"B2094654DA6AAAF9409C","title":"东方协和塑料工业","lon":"121.69616","lat":"31.2124","category":"45","category_name":"产业园区","address":""},{"poiid":"B2094654DA6AAAF8489F","title":"中邦置业集团中邦MOHO","lon":"121.69784","lat":"31.21494","category":"263","category_name":"公司","address":"浦东新区王桥路999号"},{"poiid":"B2094655D26BA2FE409D","title":"王桥","lon":"121.69273","lat":"31.20843","category":"38","category_name":"公交车站","address":"龙东大道5401弄"},{"poiid":"B2094654DB69A6F94099","title":"上海国航云亭酒店","lon":"121.69342","lat":"31.20767","category":"250","category_name":"公园户外","address":"浦东新区川沙路4121号"},{"poiid":"B2094654DB64A3FB4593","title":"立邦涂料(中国)有限公司(浦东·创业路)","lon":"121.68621","lat":"31.21311","category":"263","category_name":"公司","address":"创业路287"},{"poiid":"B2094654DA6AABF8499F","title":"金汇广场(华夏东路)","lon":"121.6961","lat":"31.20009","category":"119","category_name":"商场","address":"浦东新区华夏东路2255号近川沙路"},{"poiid":"B2094757D064A6F8469E","title":"和惠日式烤肉 川沙绿地东海岸店","lon":"121.689553085","lat":"31.2152312528","category":"247","category_name":"餐饮美食","address":"上海川沙绿地东海岸"},{"poiid":"B2094757D16BA7FD439C","title":"巴贝隆无限量烤肉(川沙店)","lon":"121.699104085","lat":"31.1980703757","category":"247","category_name":"餐饮美食","address":"上海川沙玛雅广场西市街188号"},{"poiid":"B2094757DA6BA4FB479B","title":"中邦MOHO写字楼","lon":"121.697788","lat":"31.214949","category":"252","category_name":"楼宇机构","address":"上海市黄浦区南京西路338号"},{"poiid":"B2094654DA6BA3FD4993","title":"浦东新区川沙体育场","lon":"121.70272","lat":"31.20032","category":"224","category_name":"综合体育馆","address":"浦东新区华夏东路2541号(华夏东路益华路)"},{"poiid":"B2094757D66FA7FE499E","title":"云亭假日酒店","lon":"121.69337","lat":"31.207733","category":"217","category_name":"旅馆招待所","address":"上海市浦东新区川沙路4121号(近华夏东路)"},{"poiid":"B2094654DA6AAAF8499A","title":"上海雄威特约维修站","lon":"121.69109","lat":"31.21427","category":"159","category_name":"汽车维修","address":""},{"poiid":"B2094655D36CA5FD499E","title":"川沙(置业路)","lon":"121.69171","lat":"31.20702","category":"38","category_name":"公交车站","address":""},{"poiid":"B2094655D26BA0FD469F","title":"上海金华酒店浦东机场二店","lon":"121.68958","lat":"31.21824","category":"250","category_name":"公园户外","address":"川沙路3488号"},{"poiid":"B2094654DA6AAAF9409E","title":"上海凯众聚氨酯有限公司","lon":"121.69748","lat":"31.21314","category":"263","category_name":"公司","address":""},{"poiid":"B2094654DA6AAAF84892","title":"大东模型塑胶(上海)有限公司","lon":"121.69008","lat":"31.21448","category":"263","category_name":"公司","address":""},{"poiid":"B2094757D168A7F44599","title":"海拉电子","lon":"121.689167","lat":"31.211072","category":"249","category_name":"购物服务","address":"上海川沙建业路411号"},{"poiid":"B2094757D069ABF8499D","title":"王桥路968号","lon":"121.701068631","lat":"31.2100538971","category":"46","category_name":"楼宇","address":"上海浦东新区王桥路968号"},{"poiid":"B2094655D269AAF8499B","title":"百惠家饰市场","lon":"121.69203","lat":"31.20691","category":"247","category_name":"餐饮美食","address":"浦东新区川沙路4168号(近华夏东路)"},{"poiid":"B2094757D165A7FE479A","title":"邦邦健身中心","lon":"121.70037","lat":"31.2104","category":"148","category_name":"美容美发店","address":"浦东新区川沙镇王桥路999号中邦商务中心(浦东运河路王桥路)"},{"poiid":"B2094757D06BAAF9469B","title":"立邦漆","lon":"121.68486136","lat":"31.214606084","category":"46","category_name":"楼宇","address":"上海金桥出口加工区南区创业路167号"},{"poiid":"B2094654DA6BA3FC489A","title":"时尚名剪(川沙路)","lon":"121.6894","lat":"31.21778","category":"148","category_name":"美容美发店","address":""},{"poiid":"B2094654DA6AAAF9409B","title":"上海海拉电子有限公司","lon":"121.68917","lat":"31.21107","category":"263","category_name":"公司","address":"建业路411号"},{"poiid":"B2094757D165A2FA4799","title":"52Riverside","lon":"121.69339","lat":"31.19632","category":"260","category_name":"其他","address":"浦东新区民贤路52号(近新德路)"},{"poiid":"B2094757D16FA5F94193","title":"中邦","lon":"121.70004208","lat":"31.211570672","category":"249","category_name":"购物服务","address":"上海市浦东新区王桥路"},{"poiid":"B2094757D66DABFE4993","title":"创新路","lon":"121.689432","lat":"31.217598","category":"500","category_name":"未知分类","address":"上海川沙路创新路"},{"poiid":"B2094655D36DA2FA499C","title":"益民桥","lon":"121.69937","lat":"31.21771","category":"250","category_name":"公园户外","address":""},{"poiid":"B2094757D66EA6F9459E","title":"绿地豪生酒店","lon":"121.6897248","lat":"31.2170815","category":"217","category_name":"旅馆招待所","address":"上海川沙路"},{"poiid":"B2094753D26FA1FB449D","title":"嘉仪中心","lon":"121.699993","lat":"31.211385","category":"500","category_name":"未知分类","address":"上海市 王桥路990号"},{"poiid":"B2094757D064AAF9449C","title":"召家楼古镇","lon":"121.68992614","lat":"31.217618942","category":"500","category_name":"未知分类","address":"上海召家楼"},{"poiid":"B2094757D469A0F4479C","title":"瑶家湘域 川沙店 Jade House","lon":"121.689841","lat":"31.197122","category":"77","category_name":"湖南菜","address":"浦东新区川沙镇妙境路168号(妙境路新德路)"},{"poiid":"B2094757D16BA4FD439B","title":"川沙路小白路","lon":"121.688076335","lat":"31.2189836353","category":"500","category_name":"未知分类","address":"上海小湾"},{"poiid":"B2094654DA6AAAF94299","title":"上海梅达","lon":"121.69203","lat":"31.20863","category":"248","category_name":"生活娱乐","address":""},{"poiid":"B2094654DA6BA3FE4199","title":"水景豪园","lon":"121.69777","lat":"31.201178","category":"47","category_name":"住宅区","address":"上安公馆位于浦东浦东大道2160号"}]