[{"poiid":"B2094757D06FA1FF4298","title":"金沙雅苑·未来街区","lon":"121.36418122","lat":"31.236787258","category":"47","category_name":"住宅区","address":"上海普陀区金沙江路2299弄"},{"poiid":"B2094757D06FA5F44899","title":"榕港海鲜大酒楼(普陀店)","lon":"121.37015099197868","lat":"31.235897940003216","category":"88","category_name":"海鲜酒楼","address":"普陀区金沙江路2115号(近万镇路)"},{"poiid":"B2094757D068A1FE4399","title":"东昌福特4S店","lon":"121.368963","lat":"31.236347","category":"500","category_name":"未知分类","address":"上海金沙江路2129号"},{"poiid":"B2094757D06FA5FA429F","title":"上海普陀宝诚MINI 4S店","lon":"121.36667758","lat":"31.231262451","category":"500","category_name":"未知分类","address":"上海普陀区云岭西路638号"},{"poiid":"B2094757D168A1FA419A","title":"上海和凌雷克萨斯","lon":"121.366278","lat":"31.233336","category":"500","category_name":"未知分类","address":"普陀区祁连山南路456号(近同普路)"},{"poiid":"B2094757D16FABFB4093","title":"上海众国理赔中心","lon":"121.37063158","lat":"31.235791539","category":"500","category_name":"未知分类","address":"上海市普陀区金沙江路"},{"poiid":"B2094654D56AA3FF429C","title":"金沙雅苑地中海之恋","lon":"121.36676","lat":"31.23973","category":"47","category_name":"住宅区","address":"金沙江路2348弄1-69号"},{"poiid":"B2094757D06AA0F9419B","title":"祁连山南路","lon":"121.367308","lat":"31.235867","category":"500","category_name":"未知分类","address":"上海祁连山南路"},{"poiid":"B2094757D068A7FF439B","title":"哈雷戴维森 上海专卖","lon":"121.36518221","lat":"31.233527605","category":"500","category_name":"未知分类","address":"上海同普路1448号"},{"poiid":"B2094757D06AA2F4489B","title":"凯撒宫假日酒店","lon":"121.36651","lat":"31.23381","category":"217","category_name":"旅馆招待所","address":"普陀区祁连山南路398号(近同普路)"},{"poiid":"B2094654DB69ABFA4893","title":"沈坚强游泳俱乐部(清峪路路店)","lon":"121.36993","lat":"31.24019","category":"231","category_name":"游泳馆","address":"普陀区清峪路385号(近祁连山路)"},{"poiid":"B2094757D064AAFD459E","title":"上海雅薇時尚酒店","lon":"121.37206358","lat":"31.235192528","category":"217","category_name":"旅馆招待所","address":"上海市金沙江路1995號"},{"poiid":"B2094757D068AAFF409E","title":"金江家园","lon":"121.36457","lat":"31.233467","category":"47","category_name":"住宅区","address":"上海普陀区同普路1441弄"},{"poiid":"B2094654D56AA3F84992","title":"万景园","lon":"121.37172","lat":"31.23748","category":"47","category_name":"住宅区","address":"上海市普陀区金沙江路2042号(万镇路口)"},{"poiid":"B2094757D06AA2F5429A","title":"马自达4S 景和金沙店","lon":"121.367018","lat":"31.235289","category":"500","category_name":"未知分类","address":"上海市祁连山南路588弄1号"},{"poiid":"B2094757D06FABFE4798","title":"一兆韦德(清峪路店)","lon":"121.36947","lat":"31.24048","category":"148","category_name":"美容美发店","address":"普陀区清峪路385号2楼(近祁连山南路)"},{"poiid":"B2094753D66DABFD4898","title":"星巴克（金沙雅苑未来街区）","lon":"121.367105","lat":"31.237357","category":"500","category_name":"未知分类","address":"上海市 祁连山南路619号（金沙江路）"},{"poiid":"B2094757D06AA0FE409D","title":"长征镇社区卫生服务中心","lon":"121.369303","lat":"31.232775","category":"162","category_name":"医院","address":"普陀区千阳路209号(近大渡河路)"},{"poiid":"B2094655D26CA4FE429F","title":"金沙雅苑舒诗康庭(金沙江路)","lon":"121.36843","lat":"31.23843","category":"47","category_name":"住宅区","address":"金沙江路2208弄1-78号"},{"poiid":"B2094757D065A4FB4298","title":"雪铁龙众国4S店","lon":"121.370615","lat":"31.235644","category":"500","category_name":"未知分类","address":"上海市普陀区同普路1343号"},{"poiid":"B2094757D065A3F54493","title":"金华土菜八咏楼","lon":"121.368332415","lat":"31.2355998647","category":"247","category_name":"餐饮美食","address":"上海金沙江路1858号近真北路"},{"poiid":"B2094757D16EA2F4429B","title":"上海安吉斯巴鲁4s店","lon":"121.3667159","lat":"31.2357928","category":"500","category_name":"未知分类","address":"上海市祁连山南路588弄1号"},{"poiid":"B2094654D569A5FA4093","title":"凯撒宫","lon":"121.36589","lat":"31.23267","category":"149","category_name":"洗浴推拿场所","address":"上海普陀区祁连山南路398号(近同普路)"},{"poiid":"B2094655D36CA2FF4198","title":"祁连山南路云岭西路","lon":"121.36551","lat":"31.23293","category":"38","category_name":"公交车站","address":""},{"poiid":"B2094655D36CA3FF4699","title":"金沙丽晶广场","lon":"121.36314","lat":"31.23963","category":"46","category_name":"楼宇","address":"嘉定金沙江路2890号"},{"poiid":"B2094757D16AA7F44193","title":"上海太平洋别克4S旗舰店","lon":"121.36493958","lat":"31.23122145","category":"500","category_name":"未知分类","address":"上海市普陀区云岭西路689弄8号"},{"poiid":"B2094655D26AA2F44398","title":"VOLVO特约维修站","lon":"121.36747","lat":"31.23381","category":"247","category_name":"餐饮美食","address":"普陀区同普路1362号(近祁连山南路)"},{"poiid":"B2094655D26AA5F4459A","title":"中升丰田","lon":"121.37136","lat":"31.23491","category":"247","category_name":"餐饮美食","address":"普陀区金沙江路2033号(千阳路口)"},{"poiid":"B2094655D26AA0F9499C","title":"地铁祁连山南路站","lon":"121.36732","lat":"31.23776","category":"36","category_name":"地铁站","address":""},{"poiid":"B2094757D16DA5F5489C","title":"泾阳家园","lon":"121.36521","lat":"31.237808","category":"47","category_name":"住宅区","address":"上海市普陀区金沙江路2349弄"},{"poiid":"B2094655D36CA2FF429E","title":"千阳路同普路","lon":"121.36977","lat":"31.23284","category":"38","category_name":"公交车站","address":""},{"poiid":"B2094654D569A5FA419D","title":"巴比馒头同普店","lon":"121.36468","lat":"31.23425","category":"68","category_name":"快餐厅","address":"普陀区同普路1453号(近棕榈路)"},{"poiid":"B2094655D26FA6FC4393","title":"金沙雅苑未来街区(南门)","lon":"121.36482","lat":"31.23462","category":"656","category_name":"大门","address":""},{"poiid":"B2094757D068A1FB449E","title":"全家便利(同普店)","lon":"121.36437225","lat":"31.234600067","category":"117","category_name":"便民商店/便利店","address":"上海普陀区同普路1500号(近祁连山南路)"},{"poiid":"B2094757D06BA6F44693","title":"浣沙宫","lon":"121.36993","lat":"31.23651","category":"149","category_name":"洗浴推拿场所","address":"普陀区金沙江路2123号(近祁连山南路)"},{"poiid":"B2094757DA6FA3F8419F","title":"豪皇粤菜料理专家(绿洲中环店)","lon":"121.37276947579","lat":"31.234925509163","category":"247","category_name":"餐饮美食","address":"普陀区金沙江路1628弄绿洲中环广场2号楼5楼"},{"poiid":"B2094655D269A4F94393","title":"上海安吉斯巴鲁汽车销售服务有限公司","lon":"121.36657","lat":"31.23546","category":"158","category_name":"汽车销售","address":"普陀区祁连山南路588弄1号(近金沙江路)"},{"poiid":"B2094654D569A5F5489F","title":"长征金江工业园","lon":"121.37017","lat":"31.23392","category":"45","category_name":"产业园区","address":"千阳路271弄1-20号"},{"poiid":"B2094757D165A5FB479E","title":"东巴烧烤","lon":"121.36724","lat":"31.23355","category":"269","category_name":"烧烤","address":"普陀区同普路1380号(近祁连山南路)"},{"poiid":"B2094654D569A5F5489D","title":"上海普陀区机动车检测站","lon":"121.37013","lat":"31.23441","category":"250","category_name":"公园户外","address":"普陀区千阳路333号(近金沙江路)"},{"poiid":"B2094655D36CA0FE479E","title":"金沙江路祁连山路","lon":"121.36799","lat":"31.23737","category":"38","category_name":"公交车站","address":""},{"poiid":"B2094655D36CA2FF4092","title":"祁连山路同普路","lon":"121.36561","lat":"31.23284","category":"38","category_name":"公交车站","address":""},{"poiid":"B2094757D569A2F5409B","title":"心连心超市(同普店)","lon":"121.36526557","lat":"31.23418783","category":"118","category_name":"超级市场","address":"同普路1423"},{"poiid":"B2094655D26DA4FF479C","title":"雷克萨斯临时泊车位","lon":"121.36608","lat":"31.23369","category":"250","category_name":"公园户外","address":"上海市,普陀区,祁连山南路"},{"poiid":"B2094654D569A5FA419F","title":"兰州正宗牛肉拉面(同普路)","lon":"121.36486","lat":"31.23425","category":"257","category_name":"中餐厅","address":""},{"poiid":"B2094757D064A1FA4098","title":"广州本田美顺4S店","lon":"121.37090258","lat":"31.235783539","category":"500","category_name":"未知分类","address":"上海市普陀区金沙江路"},{"poiid":"B2094654D569A5F9499C","title":"上海吉马酒业有限公司","lon":"121.36666","lat":"31.23419","category":"263","category_name":"公司","address":"同普路1412号"},{"poiid":"B2094654D569A5FA409E","title":"上海东昌福德汽车销售服务有限公司","lon":"121.36896","lat":"31.23635","category":"158","category_name":"汽车销售","address":"普陀区金沙江路2129号(近祁连山路)"},{"poiid":"B2094757D06AA6FF4293","title":"上海众国高级汽车维修配件有限公司","lon":"121.37061309","lat":"31.235643386","category":"500","category_name":"未知分类","address":"普陀区金沙江路2085号(近千阳路)"},{"poiid":"B2094655D26BA2FF449C","title":"同普路棕榈路","lon":"121.36332","lat":"31.23443","category":"38","category_name":"公交车站","address":""},{"poiid":"B2094757D06FA1FF4298","title":"金沙雅苑·未来街区","lon":"121.36418122","lat":"31.236787258","category":"47","category_name":"住宅区","address":"上海普陀区金沙江路2299弄"},{"poiid":"B2094757D06FA5F44899","title":"榕港海鲜大酒楼(普陀店)","lon":"121.37015099197868","lat":"31.235897940003216","category":"88","category_name":"海鲜酒楼","address":"普陀区金沙江路2115号(近万镇路)"},{"poiid":"B2094757D068A1FE4399","title":"东昌福特4S店","lon":"121.368963","lat":"31.236347","category":"500","category_name":"未知分类","address":"上海金沙江路2129号"},{"poiid":"B2094757D06FA5FA429F","title":"上海普陀宝诚MINI 4S店","lon":"121.36667758","lat":"31.231262451","category":"500","category_name":"未知分类","address":"上海普陀区云岭西路638号"},{"poiid":"B2094757D168A1FA419A","title":"上海和凌雷克萨斯","lon":"121.366278","lat":"31.233336","category":"500","category_name":"未知分类","address":"普陀区祁连山南路456号(近同普路)"},{"poiid":"B2094757D16FABFB4093","title":"上海众国理赔中心","lon":"121.37063158","lat":"31.235791539","category":"500","category_name":"未知分类","address":"上海市普陀区金沙江路"},{"poiid":"B2094654D56AA3FF429C","title":"金沙雅苑地中海之恋","lon":"121.36676","lat":"31.23973","category":"47","category_name":"住宅区","address":"金沙江路2348弄1-69号"},{"poiid":"B2094757D06AA0F9419B","title":"祁连山南路","lon":"121.367308","lat":"31.235867","category":"500","category_name":"未知分类","address":"上海祁连山南路"},{"poiid":"B2094757D068A7FF439B","title":"哈雷戴维森 上海专卖","lon":"121.36518221","lat":"31.233527605","category":"500","category_name":"未知分类","address":"上海同普路1448号"},{"poiid":"B2094757D06AA2F4489B","title":"凯撒宫假日酒店","lon":"121.36651","lat":"31.23381","category":"217","category_name":"旅馆招待所","address":"普陀区祁连山南路398号(近同普路)"},{"poiid":"B2094654DB69ABFA4893","title":"沈坚强游泳俱乐部(清峪路路店)","lon":"121.36993","lat":"31.24019","category":"231","category_name":"游泳馆","address":"普陀区清峪路385号(近祁连山路)"},{"poiid":"B2094757D064AAFD459E","title":"上海雅薇時尚酒店","lon":"121.37206358","lat":"31.235192528","category":"217","category_name":"旅馆招待所","address":"上海市金沙江路1995號"},{"poiid":"B2094757D068AAFF409E","title":"金江家园","lon":"121.36457","lat":"31.233467","category":"47","category_name":"住宅区","address":"上海普陀区同普路1441弄"},{"poiid":"B2094654D56AA3F84992","title":"万景园","lon":"121.37172","lat":"31.23748","category":"47","category_name":"住宅区","address":"上海市普陀区金沙江路2042号(万镇路口)"},{"poiid":"B2094757D06AA2F5429A","title":"马自达4S 景和金沙店","lon":"121.367018","lat":"31.235289","category":"500","category_name":"未知分类","address":"上海市祁连山南路588弄1号"},{"poiid":"B2094757D06FABFE4798","title":"一兆韦德(清峪路店)","lon":"121.36947","lat":"31.24048","category":"148","category_name":"美容美发店","address":"普陀区清峪路385号2楼(近祁连山南路)"},{"poiid":"B2094753D66DABFD4898","title":"星巴克（金沙雅苑未来街区）","lon":"121.367105","lat":"31.237357","category":"500","category_name":"未知分类","address":"上海市 祁连山南路619号（金沙江路）"},{"poiid":"B2094757D06AA0FE409D","title":"长征镇社区卫生服务中心","lon":"121.369303","lat":"31.232775","category":"162","category_name":"医院","address":"普陀区千阳路209号(近大渡河路)"},{"poiid":"B2094655D26CA4FE429F","title":"金沙雅苑舒诗康庭(金沙江路)","lon":"121.36843","lat":"31.23843","category":"47","category_name":"住宅区","address":"金沙江路2208弄1-78号"},{"poiid":"B2094757D065A4FB4298","title":"雪铁龙众国4S店","lon":"121.370615","lat":"31.235644","category":"500","category_name":"未知分类","address":"上海市普陀区同普路1343号"},{"poiid":"B2094757D065A3F54493","title":"金华土菜八咏楼","lon":"121.368332415","lat":"31.2355998647","category":"247","category_name":"餐饮美食","address":"上海金沙江路1858号近真北路"},{"poiid":"B2094757D16EA2F4429B","title":"上海安吉斯巴鲁4s店","lon":"121.3667159","lat":"31.2357928","category":"500","category_name":"未知分类","address":"上海市祁连山南路588弄1号"},{"poiid":"B2094654D569A5FA4093","title":"凯撒宫","lon":"121.36589","lat":"31.23267","category":"149","category_name":"洗浴推拿场所","address":"上海普陀区祁连山南路398号(近同普路)"},{"poiid":"B2094655D36CA2FF4198","title":"祁连山南路云岭西路","lon":"121.36551","lat":"31.23293","category":"38","category_name":"公交车站","address":""},{"poiid":"B2094655D36CA3FF4699","title":"金沙丽晶广场","lon":"121.36314","lat":"31.23963","category":"46","category_name":"楼宇","address":"嘉定金沙江路2890号"},{"poiid":"B2094757D16AA7F44193","title":"上海太平洋别克4S旗舰店","lon":"121.36493958","lat":"31.23122145","category":"500","category_name":"未知分类","address":"上海市普陀区云岭西路689弄8号"},{"poiid":"B2094655D26AA2F44398","title":"VOLVO特约维修站","lon":"121.36747","lat":"31.23381","category":"247","category_name":"餐饮美食","address":"普陀区同普路1362号(近祁连山南路)"},{"poiid":"B2094655D26AA5F4459A","title":"中升丰田","lon":"121.37136","lat":"31.23491","category":"247","category_name":"餐饮美食","address":"普陀区金沙江路2033号(千阳路口)"},{"poiid":"B2094655D26AA0F9499C","title":"地铁祁连山南路站","lon":"121.36732","lat":"31.23776","category":"36","category_name":"地铁站","address":""},{"poiid":"B2094757D16DA5F5489C","title":"泾阳家园","lon":"121.36521","lat":"31.237808","category":"47","category_name":"住宅区","address":"上海市普陀区金沙江路2349弄"},{"poiid":"B2094655D36CA2FF429E","title":"千阳路同普路","lon":"121.36977","lat":"31.23284","category":"38","category_name":"公交车站","address":""},{"poiid":"B2094654D569A5FA419D","title":"巴比馒头同普店","lon":"121.36468","lat":"31.23425","category":"68","category_name":"快餐厅","address":"普陀区同普路1453号(近棕榈路)"},{"poiid":"B2094655D26FA6FC4393","title":"金沙雅苑未来街区(南门)","lon":"121.36482","lat":"31.23462","category":"656","category_name":"大门","address":""},{"poiid":"B2094757D068A1FB449E","title":"全家便利(同普店)","lon":"121.36437225","lat":"31.234600067","category":"117","category_name":"便民商店/便利店","address":"上海普陀区同普路1500号(近祁连山南路)"},{"poiid":"B2094757D06BA6F44693","title":"浣沙宫","lon":"121.36993","lat":"31.23651","category":"149","category_name":"洗浴推拿场所","address":"普陀区金沙江路2123号(近祁连山南路)"},{"poiid":"B2094757DA6FA3F8419F","title":"豪皇粤菜料理专家(绿洲中环店)","lon":"121.37276947579","lat":"31.234925509163","category":"247","category_name":"餐饮美食","address":"普陀区金沙江路1628弄绿洲中环广场2号楼5楼"},{"poiid":"B2094655D269A4F94393","title":"上海安吉斯巴鲁汽车销售服务有限公司","lon":"121.36657","lat":"31.23546","category":"158","category_name":"汽车销售","address":"普陀区祁连山南路588弄1号(近金沙江路)"},{"poiid":"B2094654D569A5F5489F","title":"长征金江工业园","lon":"121.37017","lat":"31.23392","category":"45","category_name":"产业园区","address":"千阳路271弄1-20号"},{"poiid":"B2094757D165A5FB479E","title":"东巴烧烤","lon":"121.36724","lat":"31.23355","category":"269","category_name":"烧烤","address":"普陀区同普路1380号(近祁连山南路)"},{"poiid":"B2094654D569A5F5489D","title":"上海普陀区机动车检测站","lon":"121.37013","lat":"31.23441","category":"250","category_name":"公园户外","address":"普陀区千阳路333号(近金沙江路)"},{"poiid":"B2094655D36CA0FE479E","title":"金沙江路祁连山路","lon":"121.36799","lat":"31.23737","category":"38","category_name":"公交车站","address":""},{"poiid":"B2094655D36CA2FF4092","title":"祁连山路同普路","lon":"121.36561","lat":"31.23284","category":"38","category_name":"公交车站","address":""},{"poiid":"B2094757D569A2F5409B","title":"心连心超市(同普店)","lon":"121.36526557","lat":"31.23418783","category":"118","category_name":"超级市场","address":"同普路1423"},{"poiid":"B2094655D26DA4FF479C","title":"雷克萨斯临时泊车位","lon":"121.36608","lat":"31.23369","category":"250","category_name":"公园户外","address":"上海市,普陀区,祁连山南路"},{"poiid":"B2094654D569A5FA419F","title":"兰州正宗牛肉拉面(同普路)","lon":"121.36486","lat":"31.23425","category":"257","category_name":"中餐厅","address":""},{"poiid":"B2094757D064A1FA4098","title":"广州本田美顺4S店","lon":"121.37090258","lat":"31.235783539","category":"500","category_name":"未知分类","address":"上海市普陀区金沙江路"},{"poiid":"B2094654D569A5F9499C","title":"上海吉马酒业有限公司","lon":"121.36666","lat":"31.23419","category":"263","category_name":"公司","address":"同普路1412号"},{"poiid":"B2094654D569A5FA409E","title":"上海东昌福德汽车销售服务有限公司","lon":"121.36896","lat":"31.23635","category":"158","category_name":"汽车销售","address":"普陀区金沙江路2129号(近祁连山路)"},{"poiid":"B2094757D06AA6FF4293","title":"上海众国高级汽车维修配件有限公司","lon":"121.37061309","lat":"31.235643386","category":"500","category_name":"未知分类","address":"普陀区金沙江路2085号(近千阳路)"},{"poiid":"B2094655D26BA2FF449C","title":"同普路棕榈路","lon":"121.36332","lat":"31.23443","category":"38","category_name":"公交车站","address":""},{"poiid":"B2094757D06FA1FF4298","title":"金沙雅苑·未来街区","lon":"121.36418122","lat":"31.236787258","category":"47","category_name":"住宅区","address":"上海普陀区金沙江路2299弄"},{"poiid":"B2094757D06FA5F44899","title":"榕港海鲜大酒楼(普陀店)","lon":"121.37015099197868","lat":"31.235897940003216","category":"88","category_name":"海鲜酒楼","address":"普陀区金沙江路2115号(近万镇路)"},{"poiid":"B2094757D068A1FE4399","title":"东昌福特4S店","lon":"121.368963","lat":"31.236347","category":"500","category_name":"未知分类","address":"上海金沙江路2129号"},{"poiid":"B2094757D06FA5FA429F","title":"上海普陀宝诚MINI 4S店","lon":"121.36667758","lat":"31.231262451","category":"500","category_name":"未知分类","address":"上海普陀区云岭西路638号"},{"poiid":"B2094757D168A1FA419A","title":"上海和凌雷克萨斯","lon":"121.366278","lat":"31.233336","category":"500","category_name":"未知分类","address":"普陀区祁连山南路456号(近同普路)"},{"poiid":"B2094757D16FABFB4093","title":"上海众国理赔中心","lon":"121.37063158","lat":"31.235791539","category":"500","category_name":"未知分类","address":"上海市普陀区金沙江路"},{"poiid":"B2094654D56AA3FF429C","title":"金沙雅苑地中海之恋","lon":"121.36676","lat":"31.23973","category":"47","category_name":"住宅区","address":"金沙江路2348弄1-69号"},{"poiid":"B2094757D06AA0F9419B","title":"祁连山南路","lon":"121.367308","lat":"31.235867","category":"500","category_name":"未知分类","address":"上海祁连山南路"},{"poiid":"B2094757D068A7FF439B","title":"哈雷戴维森 上海专卖","lon":"121.36518221","lat":"31.233527605","category":"500","category_name":"未知分类","address":"上海同普路1448号"},{"poiid":"B2094757D06AA2F4489B","title":"凯撒宫假日酒店","lon":"121.36651","lat":"31.23381","category":"217","category_name":"旅馆招待所","address":"普陀区祁连山南路398号(近同普路)"},{"poiid":"B2094654DB69ABFA4893","title":"沈坚强游泳俱乐部(清峪路路店)","lon":"121.36993","lat":"31.24019","category":"231","category_name":"游泳馆","address":"普陀区清峪路385号(近祁连山路)"},{"poiid":"B2094757D064AAFD459E","title":"上海雅薇時尚酒店","lon":"121.37206358","lat":"31.235192528","category":"217","category_name":"旅馆招待所","address":"上海市金沙江路1995號"},{"poiid":"B2094757D068AAFF409E","title":"金江家园","lon":"121.36457","lat":"31.233467","category":"47","category_name":"住宅区","address":"上海普陀区同普路1441弄"},{"poiid":"B2094654D56AA3F84992","title":"万景园","lon":"121.37172","lat":"31.23748","category":"47","category_name":"住宅区","address":"上海市普陀区金沙江路2042号(万镇路口)"},{"poiid":"B2094757D06AA2F5429A","title":"马自达4S 景和金沙店","lon":"121.367018","lat":"31.235289","category":"500","category_name":"未知分类","address":"上海市祁连山南路588弄1号"},{"poiid":"B2094757D06FABFE4798","title":"一兆韦德(清峪路店)","lon":"121.36947","lat":"31.24048","category":"148","category_name":"美容美发店","address":"普陀区清峪路385号2楼(近祁连山南路)"},{"poiid":"B2094753D66DABFD4898","title":"星巴克（金沙雅苑未来街区）","lon":"121.367105","lat":"31.237357","category":"500","category_name":"未知分类","address":"上海市 祁连山南路619号（金沙江路）"},{"poiid":"B2094757D06AA0FE409D","title":"长征镇社区卫生服务中心","lon":"121.369303","lat":"31.232775","category":"162","category_name":"医院","address":"普陀区千阳路209号(近大渡河路)"},{"poiid":"B2094655D26CA4FE429F","title":"金沙雅苑舒诗康庭(金沙江路)","lon":"121.36843","lat":"31.23843","category":"47","category_name":"住宅区","address":"金沙江路2208弄1-78号"},{"poiid":"B2094757D065A4FB4298","title":"雪铁龙众国4S店","lon":"121.370615","lat":"31.235644","category":"500","category_name":"未知分类","address":"上海市普陀区同普路1343号"},{"poiid":"B2094757D065A3F54493","title":"金华土菜八咏楼","lon":"121.368332415","lat":"31.2355998647","category":"247","category_name":"餐饮美食","address":"上海金沙江路1858号近真北路"},{"poiid":"B2094757D16EA2F4429B","title":"上海安吉斯巴鲁4s店","lon":"121.3667159","lat":"31.2357928","category":"500","category_name":"未知分类","address":"上海市祁连山南路588弄1号"},{"poiid":"B2094654D569A5FA4093","title":"凯撒宫","lon":"121.36589","lat":"31.23267","category":"149","category_name":"洗浴推拿场所","address":"上海普陀区祁连山南路398号(近同普路)"},{"poiid":"B2094655D36CA2FF4198","title":"祁连山南路云岭西路","lon":"121.36551","lat":"31.23293","category":"38","category_name":"公交车站","address":""},{"poiid":"B2094655D36CA3FF4699","title":"金沙丽晶广场","lon":"121.36314","lat":"31.23963","category":"46","category_name":"楼宇","address":"嘉定金沙江路2890号"},{"poiid":"B2094757D16AA7F44193","title":"上海太平洋别克4S旗舰店","lon":"121.36493958","lat":"31.23122145","category":"500","category_name":"未知分类","address":"上海市普陀区云岭西路689弄8号"},{"poiid":"B2094655D26AA2F44398","title":"VOLVO特约维修站","lon":"121.36747","lat":"31.23381","category":"247","category_name":"餐饮美食","address":"普陀区同普路1362号(近祁连山南路)"},{"poiid":"B2094655D26AA5F4459A","title":"中升丰田","lon":"121.37136","lat":"31.23491","category":"247","category_name":"餐饮美食","address":"普陀区金沙江路2033号(千阳路口)"},{"poiid":"B2094655D26AA0F9499C","title":"地铁祁连山南路站","lon":"121.36732","lat":"31.23776","category":"36","category_name":"地铁站","address":""},{"poiid":"B2094757D16DA5F5489C","title":"泾阳家园","lon":"121.36521","lat":"31.237808","category":"47","category_name":"住宅区","address":"上海市普陀区金沙江路2349弄"},{"poiid":"B2094655D36CA2FF429E","title":"千阳路同普路","lon":"121.36977","lat":"31.23284","category":"38","category_name":"公交车站","address":""},{"poiid":"B2094654D569A5FA419D","title":"巴比馒头同普店","lon":"121.36468","lat":"31.23425","category":"68","category_name":"快餐厅","address":"普陀区同普路1453号(近棕榈路)"},{"poiid":"B2094655D26FA6FC4393","title":"金沙雅苑未来街区(南门)","lon":"121.36482","lat":"31.23462","category":"656","category_name":"大门","address":""},{"poiid":"B2094757D068A1FB449E","title":"全家便利(同普店)","lon":"121.36437225","lat":"31.234600067","category":"117","category_name":"便民商店/便利店","address":"上海普陀区同普路1500号(近祁连山南路)"},{"poiid":"B2094757D06BA6F44693","title":"浣沙宫","lon":"121.36993","lat":"31.23651","category":"149","category_name":"洗浴推拿场所","address":"普陀区金沙江路2123号(近祁连山南路)"},{"poiid":"B2094757DA6FA3F8419F","title":"豪皇粤菜料理专家(绿洲中环店)","lon":"121.37276947579","lat":"31.234925509163","category":"247","category_name":"餐饮美食","address":"普陀区金沙江路1628弄绿洲中环广场2号楼5楼"},{"poiid":"B2094655D269A4F94393","title":"上海安吉斯巴鲁汽车销售服务有限公司","lon":"121.36657","lat":"31.23546","category":"158","category_name":"汽车销售","address":"普陀区祁连山南路588弄1号(近金沙江路)"},{"poiid":"B2094654D569A5F5489F","title":"长征金江工业园","lon":"121.37017","lat":"31.23392","category":"45","category_name":"产业园区","address":"千阳路271弄1-20号"},{"poiid":"B2094757D165A5FB479E","title":"东巴烧烤","lon":"121.36724","lat":"31.23355","category":"269","category_name":"烧烤","address":"普陀区同普路1380号(近祁连山南路)"},{"poiid":"B2094654D569A5F5489D","title":"上海普陀区机动车检测站","lon":"121.37013","lat":"31.23441","category":"250","category_name":"公园户外","address":"普陀区千阳路333号(近金沙江路)"},{"poiid":"B2094655D36CA0FE479E","title":"金沙江路祁连山路","lon":"121.36799","lat":"31.23737","category":"38","category_name":"公交车站","address":""},{"poiid":"B2094655D36CA2FF4092","title":"祁连山路同普路","lon":"121.36561","lat":"31.23284","category":"38","category_name":"公交车站","address":""},{"poiid":"B2094757D569A2F5409B","title":"心连心超市(同普店)","lon":"121.36526557","lat":"31.23418783","category":"118","category_name":"超级市场","address":"同普路1423"},{"poiid":"B2094655D26DA4FF479C","title":"雷克萨斯临时泊车位","lon":"121.36608","lat":"31.23369","category":"250","category_name":"公园户外","address":"上海市,普陀区,祁连山南路"},{"poiid":"B2094654D569A5FA419F","title":"兰州正宗牛肉拉面(同普路)","lon":"121.36486","lat":"31.23425","category":"257","category_name":"中餐厅","address":""},{"poiid":"B2094757D064A1FA4098","title":"广州本田美顺4S店","lon":"121.37090258","lat":"31.235783539","category":"500","category_name":"未知分类","address":"上海市普陀区金沙江路"},{"poiid":"B2094654D569A5F9499C","title":"上海吉马酒业有限公司","lon":"121.36666","lat":"31.23419","category":"263","category_name":"公司","address":"同普路1412号"},{"poiid":"B2094654D569A5FA409E","title":"上海东昌福德汽车销售服务有限公司","lon":"121.36896","lat":"31.23635","category":"158","category_name":"汽车销售","address":"普陀区金沙江路2129号(近祁连山路)"},{"poiid":"B2094757D06AA6FF4293","title":"上海众国高级汽车维修配件有限公司","lon":"121.37061309","lat":"31.235643386","category":"500","category_name":"未知分类","address":"普陀区金沙江路2085号(近千阳路)"},{"poiid":"B2094655D26BA2FF449C","title":"同普路棕榈路","lon":"121.36332","lat":"31.23443","category":"38","category_name":"公交车站","address":""},{"poiid":"B2094757D06FA1FF4298","title":"金沙雅苑·未来街区","lon":"121.36418122","lat":"31.236787258","category":"47","category_name":"住宅区","address":"上海普陀区金沙江路2299弄"},{"poiid":"B2094757D06FA5F44899","title":"榕港海鲜大酒楼(普陀店)","lon":"121.37015099197868","lat":"31.235897940003216","category":"88","category_name":"海鲜酒楼","address":"普陀区金沙江路2115号(近万镇路)"},{"poiid":"B2094757D068A1FE4399","title":"东昌福特4S店","lon":"121.368963","lat":"31.236347","category":"500","category_name":"未知分类","address":"上海金沙江路2129号"},{"poiid":"B2094757D06FA5FA429F","title":"上海普陀宝诚MINI 4S店","lon":"121.36667758","lat":"31.231262451","category":"500","category_name":"未知分类","address":"上海普陀区云岭西路638号"},{"poiid":"B2094757D168A1FA419A","title":"上海和凌雷克萨斯","lon":"121.366278","lat":"31.233336","category":"500","category_name":"未知分类","address":"普陀区祁连山南路456号(近同普路)"},{"poiid":"B2094757D16FABFB4093","title":"上海众国理赔中心","lon":"121.37063158","lat":"31.235791539","category":"500","category_name":"未知分类","address":"上海市普陀区金沙江路"},{"poiid":"B2094654D56AA3FF429C","title":"金沙雅苑地中海之恋","lon":"121.36676","lat":"31.23973","category":"47","category_name":"住宅区","address":"金沙江路2348弄1-69号"},{"poiid":"B2094757D06AA0F9419B","title":"祁连山南路","lon":"121.367308","lat":"31.235867","category":"500","category_name":"未知分类","address":"上海祁连山南路"},{"poiid":"B2094757D068A7FF439B","title":"哈雷戴维森 上海专卖","lon":"121.36518221","lat":"31.233527605","category":"500","category_name":"未知分类","address":"上海同普路1448号"},{"poiid":"B2094757D06AA2F4489B","title":"凯撒宫假日酒店","lon":"121.36651","lat":"31.23381","category":"217","category_name":"旅馆招待所","address":"普陀区祁连山南路398号(近同普路)"},{"poiid":"B2094654DB69ABFA4893","title":"沈坚强游泳俱乐部(清峪路路店)","lon":"121.36993","lat":"31.24019","category":"231","category_name":"游泳馆","address":"普陀区清峪路385号(近祁连山路)"},{"poiid":"B2094757D064AAFD459E","title":"上海雅薇時尚酒店","lon":"121.37206358","lat":"31.235192528","category":"217","category_name":"旅馆招待所","address":"上海市金沙江路1995號"},{"poiid":"B2094757D068AAFF409E","title":"金江家园","lon":"121.36457","lat":"31.233467","category":"47","category_name":"住宅区","address":"上海普陀区同普路1441弄"},{"poiid":"B2094654D56AA3F84992","title":"万景园","lon":"121.37172","lat":"31.23748","category":"47","category_name":"住宅区","address":"上海市普陀区金沙江路2042号(万镇路口)"},{"poiid":"B2094757D06AA2F5429A","title":"马自达4S 景和金沙店","lon":"121.367018","lat":"31.235289","category":"500","category_name":"未知分类","address":"上海市祁连山南路588弄1号"},{"poiid":"B2094757D06FABFE4798","title":"一兆韦德(清峪路店)","lon":"121.36947","lat":"31.24048","category":"148","category_name":"美容美发店","address":"普陀区清峪路385号2楼(近祁连山南路)"},{"poiid":"B2094753D66DABFD4898","title":"星巴克（金沙雅苑未来街区）","lon":"121.367105","lat":"31.237357","category":"500","category_name":"未知分类","address":"上海市 祁连山南路619号（金沙江路）"},{"poiid":"B2094757D06AA0FE409D","title":"长征镇社区卫生服务中心","lon":"121.369303","lat":"31.232775","category":"162","category_name":"医院","address":"普陀区千阳路209号(近大渡河路)"},{"poiid":"B2094655D26CA4FE429F","title":"金沙雅苑舒诗康庭(金沙江路)","lon":"121.36843","lat":"31.23843","category":"47","category_name":"住宅区","address":"金沙江路2208弄1-78号"},{"poiid":"B2094757D065A4FB4298","title":"雪铁龙众国4S店","lon":"121.370615","lat":"31.235644","category":"500","category_name":"未知分类","address":"上海市普陀区同普路1343号"},{"poiid":"B2094757D065A3F54493","title":"金华土菜八咏楼","lon":"121.368332415","lat":"31.2355998647","category":"247","category_name":"餐饮美食","address":"上海金沙江路1858号近真北路"},{"poiid":"B2094757D16EA2F4429B","title":"上海安吉斯巴鲁4s店","lon":"121.3667159","lat":"31.2357928","category":"500","category_name":"未知分类","address":"上海市祁连山南路588弄1号"},{"poiid":"B2094654D569A5FA4093","title":"凯撒宫","lon":"121.36589","lat":"31.23267","category":"149","category_name":"洗浴推拿场所","address":"上海普陀区祁连山南路398号(近同普路)"},{"poiid":"B2094655D36CA2FF4198","title":"祁连山南路云岭西路","lon":"121.36551","lat":"31.23293","category":"38","category_name":"公交车站","address":""},{"poiid":"B2094655D36CA3FF4699","title":"金沙丽晶广场","lon":"121.36314","lat":"31.23963","category":"46","category_name":"楼宇","address":"嘉定金沙江路2890号"},{"poiid":"B2094757D16AA7F44193","title":"上海太平洋别克4S旗舰店","lon":"121.36493958","lat":"31.23122145","category":"500","category_name":"未知分类","address":"上海市普陀区云岭西路689弄8号"},{"poiid":"B2094655D26AA2F44398","title":"VOLVO特约维修站","lon":"121.36747","lat":"31.23381","category":"247","category_name":"餐饮美食","address":"普陀区同普路1362号(近祁连山南路)"},{"poiid":"B2094655D26AA5F4459A","title":"中升丰田","lon":"121.37136","lat":"31.23491","category":"247","category_name":"餐饮美食","address":"普陀区金沙江路2033号(千阳路口)"},{"poiid":"B2094655D26AA0F9499C","title":"地铁祁连山南路站","lon":"121.36732","lat":"31.23776","category":"36","category_name":"地铁站","address":""},{"poiid":"B2094757D16DA5F5489C","title":"泾阳家园","lon":"121.36521","lat":"31.237808","category":"47","category_name":"住宅区","address":"上海市普陀区金沙江路2349弄"},{"poiid":"B2094655D36CA2FF429E","title":"千阳路同普路","lon":"121.36977","lat":"31.23284","category":"38","category_name":"公交车站","address":""},{"poiid":"B2094654D569A5FA419D","title":"巴比馒头同普店","lon":"121.36468","lat":"31.23425","category":"68","category_name":"快餐厅","address":"普陀区同普路1453号(近棕榈路)"},{"poiid":"B2094655D26FA6FC4393","title":"金沙雅苑未来街区(南门)","lon":"121.36482","lat":"31.23462","category":"656","category_name":"大门","address":""},{"poiid":"B2094757D068A1FB449E","title":"全家便利(同普店)","lon":"121.36437225","lat":"31.234600067","category":"117","category_name":"便民商店/便利店","address":"上海普陀区同普路1500号(近祁连山南路)"},{"poiid":"B2094757D06BA6F44693","title":"浣沙宫","lon":"121.36993","lat":"31.23651","category":"149","category_name":"洗浴推拿场所","address":"普陀区金沙江路2123号(近祁连山南路)"},{"poiid":"B2094757DA6FA3F8419F","title":"豪皇粤菜料理专家(绿洲中环店)","lon":"121.37276947579","lat":"31.234925509163","category":"247","category_name":"餐饮美食","address":"普陀区金沙江路1628弄绿洲中环广场2号楼5楼"},{"poiid":"B2094655D269A4F94393","title":"上海安吉斯巴鲁汽车销售服务有限公司","lon":"121.36657","lat":"31.23546","category":"158","category_name":"汽车销售","address":"普陀区祁连山南路588弄1号(近金沙江路)"},{"poiid":"B2094654D569A5F5489F","title":"长征金江工业园","lon":"121.37017","lat":"31.23392","category":"45","category_name":"产业园区","address":"千阳路271弄1-20号"},{"poiid":"B2094757D165A5FB479E","title":"东巴烧烤","lon":"121.36724","lat":"31.23355","category":"269","category_name":"烧烤","address":"普陀区同普路1380号(近祁连山南路)"},{"poiid":"B2094654D569A5F5489D","title":"上海普陀区机动车检测站","lon":"121.37013","lat":"31.23441","category":"250","category_name":"公园户外","address":"普陀区千阳路333号(近金沙江路)"},{"poiid":"B2094655D36CA0FE479E","title":"金沙江路祁连山路","lon":"121.36799","lat":"31.23737","category":"38","category_name":"公交车站","address":""},{"poiid":"B2094655D36CA2FF4092","title":"祁连山路同普路","lon":"121.36561","lat":"31.23284","category":"38","category_name":"公交车站","address":""},{"poiid":"B2094757D569A2F5409B","title":"心连心超市(同普店)","lon":"121.36526557","lat":"31.23418783","category":"118","category_name":"超级市场","address":"同普路1423"},{"poiid":"B2094655D26DA4FF479C","title":"雷克萨斯临时泊车位","lon":"121.36608","lat":"31.23369","category":"250","category_name":"公园户外","address":"上海市,普陀区,祁连山南路"},{"poiid":"B2094654D569A5FA419F","title":"兰州正宗牛肉拉面(同普路)","lon":"121.36486","lat":"31.23425","category":"257","category_name":"中餐厅","address":""},{"poiid":"B2094757D064A1FA4098","title":"广州本田美顺4S店","lon":"121.37090258","lat":"31.235783539","category":"500","category_name":"未知分类","address":"上海市普陀区金沙江路"},{"poiid":"B2094654D569A5F9499C","title":"上海吉马酒业有限公司","lon":"121.36666","lat":"31.23419","category":"263","category_name":"公司","address":"同普路1412号"},{"poiid":"B2094654D569A5FA409E","title":"上海东昌福德汽车销售服务有限公司","lon":"121.36896","lat":"31.23635","category":"158","category_name":"汽车销售","address":"普陀区金沙江路2129号(近祁连山路)"},{"poiid":"B2094757D06AA6FF4293","title":"上海众国高级汽车维修配件有限公司","lon":"121.37061309","lat":"31.235643386","category":"500","category_name":"未知分类","address":"普陀区金沙江路2085号(近千阳路)"},{"poiid":"B2094655D26BA2FF449C","title":"同普路棕榈路","lon":"121.36332","lat":"31.23443","category":"38","category_name":"公交车站","address":""}]