[{"poiid":"B2094757D06FA3FD4598","title":"衡山路","lon":"121.44432","lat":"31.20163","category":"260","category_name":"其他","address":"徐汇区衡山路(衡山路吴兴路)"},{"poiid":"B2094654DB69ABF9469A","title":"三人行骨头王火锅(徐汇总店)","lon":"121.44548","lat":"31.19707","category":"86","category_name":"火锅店","address":"徐汇区肇嘉浜路879号(近宛平南路)"},{"poiid":"B2094757D06FA3F84199","title":"三顾牛蛙馆(肇嘉浜路店)","lon":"121.44556","lat":"31.1966","category":"71","category_name":"四川菜","address":"徐汇区肇嘉浜路883号(宛平路口)"},{"poiid":"B2094753D76FAAFA449C","title":"上海滩国泰旗舰店","lon":"121.466011","lat":"31.216125","category":"249","category_name":"购物服务","address":"淮海中路868号"},{"poiid":"B2094757D06FA2FB469A","title":"恒悦轩(徐汇店)","lon":"121.44404","lat":"31.19737","category":"72","category_name":"广东菜","address":"徐汇区宛平路290号徐家汇公园内(近肇嘉浜路)"},{"poiid":"B2094654DA6DA6FC469A","title":"宛平宾馆","lon":"121.44502","lat":"31.19814","category":"214","category_name":"四星级宾馆","address":"徐汇区宛平路315号(近肇嘉浜路)"},{"poiid":"B2094655D269AAFC419D","title":"建工锦江大酒店","lon":"121.44402","lat":"31.19989","category":"247","category_name":"餐饮美食","address":"上海市徐汇区建国西路691号(近衡山路)"},{"poiid":"B2094757D468ABF94692","title":"小南国 均瑶店","lon":"121.448066","lat":"31.198374","category":"76","category_name":"上海菜","address":"徐汇区肇嘉浜路789号均瑶国际广场5楼(近东安路)"},{"poiid":"B2094654DB6BA5FE4393","title":"圣爱大厦","lon":"121.444","lat":"31.1979","category":"46","category_name":"楼宇","address":"上海漕溪北路88号"},{"poiid":"B2094757D068ABFC439D","title":"自由港量販式KTV(吴兴店)","lon":"121.44459958","lat":"31.200683853","category":"170","category_name":"KTV","address":"上海徐汇区吴兴路277号"},{"poiid":"B2094757D06FA2FB4193","title":"实业大厦","lon":"121.444","lat":"31.1993","category":"46","category_name":"楼宇","address":"上海市徐汇区漕溪北路18号"},{"poiid":"B2094757D068ABFF4399","title":"肇嘉浜路","lon":"121.44627625","lat":"31.199099322","category":"260","category_name":"其他","address":"上海肇嘉浜路"},{"poiid":"B2094752D36DA5F9479D","title":"上海超级电影世界","lon":"121.44509","lat":"31.19884","category":"178","category_name":"电影院","address":"上海市徐汇区肇嘉浜路1111号美罗城五楼"},{"poiid":"B2094654DA6DA0FE439B","title":"汇嘉大厦","lon":"121.446","lat":"31.1986","category":"46","category_name":"楼宇","address":"上海市闵行区莲花南路1500弄"},{"poiid":"B2094750D76EA1FE4199","title":"渝香情(肇嘉浜路)","lon":"121.447","lat":"31.1979","category":"71","category_name":"四川菜","address":"徐汇区肇嘉浜路825号(近宛平南路)"},{"poiid":"B2094757D068A3FA4598","title":"小白桦酒家","lon":"121.44454","lat":"31.19819","category":"76","category_name":"上海菜","address":"徐汇区宛平路297弄3号(近肇嘉浜路)"},{"poiid":"B2094655D268A6FB439C","title":"徐家汇公园运动场","lon":"121.44355","lat":"31.1984","category":"220","category_name":"运动场所","address":""},{"poiid":"B2094757D16DA0F54892","title":"徐汇营业厅","lon":"121.447819","lat":"31.197941","category":"150","category_name":"银行","address":"徐汇区肇嘉浜路807号五洲国际大厦102室"},{"poiid":"B2094757D068A7F4409D","title":"皇城根老北京涮羊肉(宛平路店)","lon":"121.44464","lat":"31.19842","category":"86","category_name":"火锅店","address":"徐汇区宛平路297弄1号后门(近肇嘉浜路)"},{"poiid":"B2094757D068A7FD479B","title":"凯文咖啡西餐厅","lon":"121.4442","lat":"31.20048","category":"260","category_name":"其他","address":"徐汇区衡山路525号(近宛平路口衡山宾馆对面)"},{"poiid":"B2094757D068A1FF4698","title":"宁波人家","lon":"121.44451","lat":"31.19978","category":"75","category_name":"浙江菜","address":"徐汇区建国西路691号建工锦江大酒店4楼(近宛平路)"},{"poiid":"B2094757D569A1F8409E","title":"圣爱广场","lon":"121.444","lat":"31.1984","category":"46","category_name":"楼宇","address":"上海市徐汇区漕溪北路88号"},{"poiid":"B2094757D16EA4FC4492","title":"吴记麻辣火锅","lon":"121.44694458","lat":"31.198324807","category":"247","category_name":"餐饮美食","address":"上海天钥桥路"},{"poiid":"B2094757D06FA2F9409F","title":"生仕鱼林港(肇嘉浜路店)","lon":"121.44753","lat":"31.19755","category":"86","category_name":"火锅店","address":"徐汇区肇嘉浜路825号(近宛平南路)"},{"poiid":"B2094655D36CA6F4459F","title":"东安路青松城","lon":"121.4484","lat":"31.1985","category":"38","category_name":"公交车站","address":""},{"poiid":"B2094654DA6DAAF9419A","title":"珊珊茶面馆 肇嘉浜路店","lon":"121.44794578047","lat":"31.19785511912","category":"68","category_name":"快餐厅","address":"徐汇区肇家浜路825号(近东安路)"},{"poiid":"B2094757D06FA7F54298","title":"徐家匯花園","lon":"121.44533538","lat":"31.196586608","category":"252","category_name":"楼宇机构","address":"上海宛平南路255弄"},{"poiid":"B2094757D468A6FF4199","title":"欧集赏","lon":"121.445706054","lat":"31.197977793","category":"67","category_name":"甜品店","address":"徐汇区肇嘉浜路825号(近宛平南路)"},{"poiid":"B2094757D16FA3F8499D","title":"上实大厦","lon":"121.444503","lat":"31.199355","category":"252","category_name":"楼宇机构","address":"上海市徐汇区漕溪北路"},{"poiid":"B2094654DA6DAAF94198","title":"尚秀商务楼","lon":"121.44696","lat":"31.19771","category":"46","category_name":"楼宇","address":"崇文区夕照寺大街"},{"poiid":"B2094750D36BA4FB479D","title":"蜻蜓FM","lon":"121.4455","lat":"31.19828","category":"634","category_name":"IT类公司","address":"上海市浦东新区东方路1215号2层北单元"},{"poiid":"B2094654DA6DA6FC4699","title":"上海市高安路第一小学","lon":"121.44418","lat":"31.19955","category":"56","category_name":"小学","address":"宛平路231"},{"poiid":"B2094757D068ABF4459A","title":"上海市财政局","lon":"121.44554908","lat":"31.197826784","category":"260","category_name":"其他","address":"上海肇嘉浜路800号"},{"poiid":"B2094654DA6DA7FB4398","title":"小桃园餐厅","lon":"121.445877054","lat":"31.200565793","category":"68","category_name":"快餐厅","address":"徐汇区建国西路645号(近高安路)"},{"poiid":"B2094757D069A5FB419E","title":"建国西路高安路","lon":"121.4467","lat":"31.200761","category":"500","category_name":"未知分类","address":"上海建国西路高安路"},{"poiid":"B2094654DA6DA0FC429B","title":"中福实业大厦","lon":"121.448","lat":"31.1993","category":"46","category_name":"楼宇","address":"浦东区崂山东路410号"},{"poiid":"B2094750D665A0F8489F","title":"白家餐厅","lon":"121.444","lat":"31.1998","category":"76","category_name":"上海菜","address":"徐汇区宛平路189弄12号(近衡山路)"},{"poiid":"B2094757D06FA2FD439A","title":"7-ELEVEN(均瑶店)","lon":"121.448318572","lat":"31.1982087356","category":"117","category_name":"便民商店/便利店","address":"徐汇区肇嘉浜路789号均瑶国际广场内(近吴兴路)"},{"poiid":"B2094655D26BA2FC4999","title":"吴兴路","lon":"121.44664","lat":"31.19812","category":"38","category_name":"公交车站","address":""},{"poiid":"B2094655D26BA2FE479D","title":"宛平路衡山路","lon":"121.44392","lat":"31.19873","category":"38","category_name":"公交车站","address":""},{"poiid":"B2094757D16DA1F94198","title":"北海大厦","lon":"121.446","lat":"31.2012","category":"46","category_name":"楼宇","address":"上海天钥桥路859号"},{"poiid":"B2094750D66DA4F5439A","title":"徐汇区牙防所","lon":"121.448135","lat":"31.198812","category":"500","category_name":"未知分类","address":null},{"poiid":"B2094757D16BA4F84693","title":"吉祥馄饨(高安路店)","lon":"121.446400586","lat":"31.200927858","category":"68","category_name":"快餐厅","address":"徐汇区建国西路643号(高安路口)"},{"poiid":"B2094757D169A5FC409D","title":"随缘面馆","lon":"121.44581","lat":"31.20029","category":"68","category_name":"快餐厅","address":"徐汇区建国西路661号(近高安路)"},{"poiid":"B2094654DA6DA6FC459F","title":"上海市国家税务局","lon":"121.44506","lat":"31.19784","category":"250","category_name":"公园户外","address":"肇嘉浜路800"},{"poiid":"B2094757D064A5F9499E","title":"上海市司法局","lon":"121.445186604","lat":"31.2009766647","category":"500","category_name":"未知分类","address":"上海吴兴路225号19—27层"},{"poiid":"B209475CD06EA2FF4799","title":"january cafe","lon":"121.447412","lat":"31.199627","category":"111","category_name":"休闲餐饮场所","address":"高安路101号"},{"poiid":"B2094757D06BA4FE409D","title":"老约克艺术空间","lon":"121.44481658","lat":"31.200796127","category":"65","category_name":"咖啡厅","address":"徐汇区吴兴路248号甲(近衡山路)"},{"poiid":"B2094757D16DA0F44792","title":"宛平宾馆宴会厅","lon":"121.44423","lat":"31.19776","category":"217","category_name":"旅馆招待所","address":"徐汇区宛平路315号宛平宾馆内(近衡山路)查看地图"},{"poiid":"B2094654DA6DA1F5499A","title":"煤科大厦","lon":"121.44740463","lat":"31.200434299811","category":"46","category_name":"楼宇","address":"天钥桥路1号"},{"poiid":"B2094757D06FA3FD4598","title":"衡山路","lon":"121.44432","lat":"31.20163","category":"260","category_name":"其他","address":"徐汇区衡山路(衡山路吴兴路)"},{"poiid":"B2094654DB69ABF9469A","title":"三人行骨头王火锅(徐汇总店)","lon":"121.44548","lat":"31.19707","category":"86","category_name":"火锅店","address":"徐汇区肇嘉浜路879号(近宛平南路)"},{"poiid":"B2094757D06FA3F84199","title":"三顾牛蛙馆(肇嘉浜路店)","lon":"121.44556","lat":"31.1966","category":"71","category_name":"四川菜","address":"徐汇区肇嘉浜路883号(宛平路口)"},{"poiid":"B2094753D76FAAFA449C","title":"上海滩国泰旗舰店","lon":"121.466011","lat":"31.216125","category":"249","category_name":"购物服务","address":"淮海中路868号"},{"poiid":"B2094757D06FA2FB469A","title":"恒悦轩(徐汇店)","lon":"121.44404","lat":"31.19737","category":"72","category_name":"广东菜","address":"徐汇区宛平路290号徐家汇公园内(近肇嘉浜路)"},{"poiid":"B2094654DA6DA6FC469A","title":"宛平宾馆","lon":"121.44502","lat":"31.19814","category":"214","category_name":"四星级宾馆","address":"徐汇区宛平路315号(近肇嘉浜路)"},{"poiid":"B2094655D269AAFC419D","title":"建工锦江大酒店","lon":"121.44402","lat":"31.19989","category":"247","category_name":"餐饮美食","address":"上海市徐汇区建国西路691号(近衡山路)"},{"poiid":"B2094757D468ABF94692","title":"小南国 均瑶店","lon":"121.448066","lat":"31.198374","category":"76","category_name":"上海菜","address":"徐汇区肇嘉浜路789号均瑶国际广场5楼(近东安路)"},{"poiid":"B2094654DB6BA5FE4393","title":"圣爱大厦","lon":"121.444","lat":"31.1979","category":"46","category_name":"楼宇","address":"上海漕溪北路88号"},{"poiid":"B2094757D068ABFC439D","title":"自由港量販式KTV(吴兴店)","lon":"121.44459958","lat":"31.200683853","category":"170","category_name":"KTV","address":"上海徐汇区吴兴路277号"},{"poiid":"B2094757D06FA2FB4193","title":"实业大厦","lon":"121.444","lat":"31.1993","category":"46","category_name":"楼宇","address":"上海市徐汇区漕溪北路18号"},{"poiid":"B2094757D068ABFF4399","title":"肇嘉浜路","lon":"121.44627625","lat":"31.199099322","category":"260","category_name":"其他","address":"上海肇嘉浜路"},{"poiid":"B2094752D36DA5F9479D","title":"上海超级电影世界","lon":"121.44509","lat":"31.19884","category":"178","category_name":"电影院","address":"上海市徐汇区肇嘉浜路1111号美罗城五楼"},{"poiid":"B2094654DA6DA0FE439B","title":"汇嘉大厦","lon":"121.446","lat":"31.1986","category":"46","category_name":"楼宇","address":"上海市闵行区莲花南路1500弄"},{"poiid":"B2094750D76EA1FE4199","title":"渝香情(肇嘉浜路)","lon":"121.447","lat":"31.1979","category":"71","category_name":"四川菜","address":"徐汇区肇嘉浜路825号(近宛平南路)"},{"poiid":"B2094757D068A3FA4598","title":"小白桦酒家","lon":"121.44454","lat":"31.19819","category":"76","category_name":"上海菜","address":"徐汇区宛平路297弄3号(近肇嘉浜路)"},{"poiid":"B2094655D268A6FB439C","title":"徐家汇公园运动场","lon":"121.44355","lat":"31.1984","category":"220","category_name":"运动场所","address":""},{"poiid":"B2094757D16DA0F54892","title":"徐汇营业厅","lon":"121.447819","lat":"31.197941","category":"150","category_name":"银行","address":"徐汇区肇嘉浜路807号五洲国际大厦102室"},{"poiid":"B2094757D068A7F4409D","title":"皇城根老北京涮羊肉(宛平路店)","lon":"121.44464","lat":"31.19842","category":"86","category_name":"火锅店","address":"徐汇区宛平路297弄1号后门(近肇嘉浜路)"},{"poiid":"B2094757D068A7FD479B","title":"凯文咖啡西餐厅","lon":"121.4442","lat":"31.20048","category":"260","category_name":"其他","address":"徐汇区衡山路525号(近宛平路口衡山宾馆对面)"},{"poiid":"B2094757D068A1FF4698","title":"宁波人家","lon":"121.44451","lat":"31.19978","category":"75","category_name":"浙江菜","address":"徐汇区建国西路691号建工锦江大酒店4楼(近宛平路)"},{"poiid":"B2094757D569A1F8409E","title":"圣爱广场","lon":"121.444","lat":"31.1984","category":"46","category_name":"楼宇","address":"上海市徐汇区漕溪北路88号"},{"poiid":"B2094757D16EA4FC4492","title":"吴记麻辣火锅","lon":"121.44694458","lat":"31.198324807","category":"247","category_name":"餐饮美食","address":"上海天钥桥路"},{"poiid":"B2094757D06FA2F9409F","title":"生仕鱼林港(肇嘉浜路店)","lon":"121.44753","lat":"31.19755","category":"86","category_name":"火锅店","address":"徐汇区肇嘉浜路825号(近宛平南路)"},{"poiid":"B2094655D36CA6F4459F","title":"东安路青松城","lon":"121.4484","lat":"31.1985","category":"38","category_name":"公交车站","address":""},{"poiid":"B2094654DA6DAAF9419A","title":"珊珊茶面馆 肇嘉浜路店","lon":"121.44794578047","lat":"31.19785511912","category":"68","category_name":"快餐厅","address":"徐汇区肇家浜路825号(近东安路)"},{"poiid":"B2094757D06FA7F54298","title":"徐家匯花園","lon":"121.44533538","lat":"31.196586608","category":"252","category_name":"楼宇机构","address":"上海宛平南路255弄"},{"poiid":"B2094757D468A6FF4199","title":"欧集赏","lon":"121.445706054","lat":"31.197977793","category":"67","category_name":"甜品店","address":"徐汇区肇嘉浜路825号(近宛平南路)"},{"poiid":"B2094757D16FA3F8499D","title":"上实大厦","lon":"121.444503","lat":"31.199355","category":"252","category_name":"楼宇机构","address":"上海市徐汇区漕溪北路"},{"poiid":"B2094654DA6DAAF94198","title":"尚秀商务楼","lon":"121.44696","lat":"31.19771","category":"46","category_name":"楼宇","address":"崇文区夕照寺大街"},{"poiid":"B2094750D36BA4FB479D","title":"蜻蜓FM","lon":"121.4455","lat":"31.19828","category":"634","category_name":"IT类公司","address":"上海市浦东新区东方路1215号2层北单元"},{"poiid":"B2094654DA6DA6FC4699","title":"上海市高安路第一小学","lon":"121.44418","lat":"31.19955","category":"56","category_name":"小学","address":"宛平路231"},{"poiid":"B2094757D068ABF4459A","title":"上海市财政局","lon":"121.44554908","lat":"31.197826784","category":"260","category_name":"其他","address":"上海肇嘉浜路800号"},{"poiid":"B2094654DA6DA7FB4398","title":"小桃园餐厅","lon":"121.445877054","lat":"31.200565793","category":"68","category_name":"快餐厅","address":"徐汇区建国西路645号(近高安路)"},{"poiid":"B2094757D069A5FB419E","title":"建国西路高安路","lon":"121.4467","lat":"31.200761","category":"500","category_name":"未知分类","address":"上海建国西路高安路"},{"poiid":"B2094654DA6DA0FC429B","title":"中福实业大厦","lon":"121.448","lat":"31.1993","category":"46","category_name":"楼宇","address":"浦东区崂山东路410号"},{"poiid":"B2094750D665A0F8489F","title":"白家餐厅","lon":"121.444","lat":"31.1998","category":"76","category_name":"上海菜","address":"徐汇区宛平路189弄12号(近衡山路)"},{"poiid":"B2094757D06FA2FD439A","title":"7-ELEVEN(均瑶店)","lon":"121.448318572","lat":"31.1982087356","category":"117","category_name":"便民商店/便利店","address":"徐汇区肇嘉浜路789号均瑶国际广场内(近吴兴路)"},{"poiid":"B2094655D26BA2FC4999","title":"吴兴路","lon":"121.44664","lat":"31.19812","category":"38","category_name":"公交车站","address":""},{"poiid":"B2094655D26BA2FE479D","title":"宛平路衡山路","lon":"121.44392","lat":"31.19873","category":"38","category_name":"公交车站","address":""},{"poiid":"B2094757D16DA1F94198","title":"北海大厦","lon":"121.446","lat":"31.2012","category":"46","category_name":"楼宇","address":"上海天钥桥路859号"},{"poiid":"B2094750D66DA4F5439A","title":"徐汇区牙防所","lon":"121.448135","lat":"31.198812","category":"500","category_name":"未知分类","address":null},{"poiid":"B2094757D16BA4F84693","title":"吉祥馄饨(高安路店)","lon":"121.446400586","lat":"31.200927858","category":"68","category_name":"快餐厅","address":"徐汇区建国西路643号(高安路口)"},{"poiid":"B2094757D169A5FC409D","title":"随缘面馆","lon":"121.44581","lat":"31.20029","category":"68","category_name":"快餐厅","address":"徐汇区建国西路661号(近高安路)"},{"poiid":"B2094654DA6DA6FC459F","title":"上海市国家税务局","lon":"121.44506","lat":"31.19784","category":"250","category_name":"公园户外","address":"肇嘉浜路800"},{"poiid":"B2094757D064A5F9499E","title":"上海市司法局","lon":"121.445186604","lat":"31.2009766647","category":"500","category_name":"未知分类","address":"上海吴兴路225号19—27层"},{"poiid":"B209475CD06EA2FF4799","title":"january cafe","lon":"121.447412","lat":"31.199627","category":"111","category_name":"休闲餐饮场所","address":"高安路101号"},{"poiid":"B2094757D06BA4FE409D","title":"老约克艺术空间","lon":"121.44481658","lat":"31.200796127","category":"65","category_name":"咖啡厅","address":"徐汇区吴兴路248号甲(近衡山路)"},{"poiid":"B2094757D16DA0F44792","title":"宛平宾馆宴会厅","lon":"121.44423","lat":"31.19776","category":"217","category_name":"旅馆招待所","address":"徐汇区宛平路315号宛平宾馆内(近衡山路)查看地图"},{"poiid":"B2094654DA6DA1F5499A","title":"煤科大厦","lon":"121.44740463","lat":"31.200434299811","category":"46","category_name":"楼宇","address":"天钥桥路1号"},{"poiid":"B2094757D06FA3FD4598","title":"衡山路","lon":"121.44432","lat":"31.20163","category":"260","category_name":"其他","address":"徐汇区衡山路(衡山路吴兴路)"},{"poiid":"B2094654DB69ABF9469A","title":"三人行骨头王火锅(徐汇总店)","lon":"121.44548","lat":"31.19707","category":"86","category_name":"火锅店","address":"徐汇区肇嘉浜路879号(近宛平南路)"},{"poiid":"B2094757D06FA3F84199","title":"三顾牛蛙馆(肇嘉浜路店)","lon":"121.44556","lat":"31.1966","category":"71","category_name":"四川菜","address":"徐汇区肇嘉浜路883号(宛平路口)"},{"poiid":"B2094753D76FAAFA449C","title":"上海滩国泰旗舰店","lon":"121.466011","lat":"31.216125","category":"249","category_name":"购物服务","address":"淮海中路868号"},{"poiid":"B2094757D06FA2FB469A","title":"恒悦轩(徐汇店)","lon":"121.44404","lat":"31.19737","category":"72","category_name":"广东菜","address":"徐汇区宛平路290号徐家汇公园内(近肇嘉浜路)"},{"poiid":"B2094654DA6DA6FC469A","title":"宛平宾馆","lon":"121.44502","lat":"31.19814","category":"214","category_name":"四星级宾馆","address":"徐汇区宛平路315号(近肇嘉浜路)"},{"poiid":"B2094655D269AAFC419D","title":"建工锦江大酒店","lon":"121.44402","lat":"31.19989","category":"247","category_name":"餐饮美食","address":"上海市徐汇区建国西路691号(近衡山路)"},{"poiid":"B2094757D468ABF94692","title":"小南国 均瑶店","lon":"121.448066","lat":"31.198374","category":"76","category_name":"上海菜","address":"徐汇区肇嘉浜路789号均瑶国际广场5楼(近东安路)"},{"poiid":"B2094654DB6BA5FE4393","title":"圣爱大厦","lon":"121.444","lat":"31.1979","category":"46","category_name":"楼宇","address":"上海漕溪北路88号"},{"poiid":"B2094757D068ABFC439D","title":"自由港量販式KTV(吴兴店)","lon":"121.44459958","lat":"31.200683853","category":"170","category_name":"KTV","address":"上海徐汇区吴兴路277号"},{"poiid":"B2094757D06FA2FB4193","title":"实业大厦","lon":"121.444","lat":"31.1993","category":"46","category_name":"楼宇","address":"上海市徐汇区漕溪北路18号"},{"poiid":"B2094757D068ABFF4399","title":"肇嘉浜路","lon":"121.44627625","lat":"31.199099322","category":"260","category_name":"其他","address":"上海肇嘉浜路"},{"poiid":"B2094752D36DA5F9479D","title":"上海超级电影世界","lon":"121.44509","lat":"31.19884","category":"178","category_name":"电影院","address":"上海市徐汇区肇嘉浜路1111号美罗城五楼"},{"poiid":"B2094654DA6DA0FE439B","title":"汇嘉大厦","lon":"121.446","lat":"31.1986","category":"46","category_name":"楼宇","address":"上海市闵行区莲花南路1500弄"},{"poiid":"B2094750D76EA1FE4199","title":"渝香情(肇嘉浜路)","lon":"121.447","lat":"31.1979","category":"71","category_name":"四川菜","address":"徐汇区肇嘉浜路825号(近宛平南路)"},{"poiid":"B2094757D068A3FA4598","title":"小白桦酒家","lon":"121.44454","lat":"31.19819","category":"76","category_name":"上海菜","address":"徐汇区宛平路297弄3号(近肇嘉浜路)"},{"poiid":"B2094655D268A6FB439C","title":"徐家汇公园运动场","lon":"121.44355","lat":"31.1984","category":"220","category_name":"运动场所","address":""},{"poiid":"B2094757D16DA0F54892","title":"徐汇营业厅","lon":"121.447819","lat":"31.197941","category":"150","category_name":"银行","address":"徐汇区肇嘉浜路807号五洲国际大厦102室"},{"poiid":"B2094757D068A7F4409D","title":"皇城根老北京涮羊肉(宛平路店)","lon":"121.44464","lat":"31.19842","category":"86","category_name":"火锅店","address":"徐汇区宛平路297弄1号后门(近肇嘉浜路)"},{"poiid":"B2094757D068A7FD479B","title":"凯文咖啡西餐厅","lon":"121.4442","lat":"31.20048","category":"260","category_name":"其他","address":"徐汇区衡山路525号(近宛平路口衡山宾馆对面)"},{"poiid":"B2094757D068A1FF4698","title":"宁波人家","lon":"121.44451","lat":"31.19978","category":"75","category_name":"浙江菜","address":"徐汇区建国西路691号建工锦江大酒店4楼(近宛平路)"},{"poiid":"B2094757D569A1F8409E","title":"圣爱广场","lon":"121.444","lat":"31.1984","category":"46","category_name":"楼宇","address":"上海市徐汇区漕溪北路88号"},{"poiid":"B2094757D16EA4FC4492","title":"吴记麻辣火锅","lon":"121.44694458","lat":"31.198324807","category":"247","category_name":"餐饮美食","address":"上海天钥桥路"},{"poiid":"B2094757D06FA2F9409F","title":"生仕鱼林港(肇嘉浜路店)","lon":"121.44753","lat":"31.19755","category":"86","category_name":"火锅店","address":"徐汇区肇嘉浜路825号(近宛平南路)"},{"poiid":"B2094655D36CA6F4459F","title":"东安路青松城","lon":"121.4484","lat":"31.1985","category":"38","category_name":"公交车站","address":""},{"poiid":"B2094654DA6DAAF9419A","title":"珊珊茶面馆 肇嘉浜路店","lon":"121.44794578047","lat":"31.19785511912","category":"68","category_name":"快餐厅","address":"徐汇区肇家浜路825号(近东安路)"},{"poiid":"B2094757D06FA7F54298","title":"徐家匯花園","lon":"121.44533538","lat":"31.196586608","category":"252","category_name":"楼宇机构","address":"上海宛平南路255弄"},{"poiid":"B2094757D468A6FF4199","title":"欧集赏","lon":"121.445706054","lat":"31.197977793","category":"67","category_name":"甜品店","address":"徐汇区肇嘉浜路825号(近宛平南路)"},{"poiid":"B2094757D16FA3F8499D","title":"上实大厦","lon":"121.444503","lat":"31.199355","category":"252","category_name":"楼宇机构","address":"上海市徐汇区漕溪北路"},{"poiid":"B2094654DA6DAAF94198","title":"尚秀商务楼","lon":"121.44696","lat":"31.19771","category":"46","category_name":"楼宇","address":"崇文区夕照寺大街"},{"poiid":"B2094750D36BA4FB479D","title":"蜻蜓FM","lon":"121.4455","lat":"31.19828","category":"634","category_name":"IT类公司","address":"上海市浦东新区东方路1215号2层北单元"},{"poiid":"B2094654DA6DA6FC4699","title":"上海市高安路第一小学","lon":"121.44418","lat":"31.19955","category":"56","category_name":"小学","address":"宛平路231"},{"poiid":"B2094757D068ABF4459A","title":"上海市财政局","lon":"121.44554908","lat":"31.197826784","category":"260","category_name":"其他","address":"上海肇嘉浜路800号"},{"poiid":"B2094654DA6DA7FB4398","title":"小桃园餐厅","lon":"121.445877054","lat":"31.200565793","category":"68","category_name":"快餐厅","address":"徐汇区建国西路645号(近高安路)"},{"poiid":"B2094757D069A5FB419E","title":"建国西路高安路","lon":"121.4467","lat":"31.200761","category":"500","category_name":"未知分类","address":"上海建国西路高安路"},{"poiid":"B2094654DA6DA0FC429B","title":"中福实业大厦","lon":"121.448","lat":"31.1993","category":"46","category_name":"楼宇","address":"浦东区崂山东路410号"},{"poiid":"B2094750D665A0F8489F","title":"白家餐厅","lon":"121.444","lat":"31.1998","category":"76","category_name":"上海菜","address":"徐汇区宛平路189弄12号(近衡山路)"},{"poiid":"B2094757D06FA2FD439A","title":"7-ELEVEN(均瑶店)","lon":"121.448318572","lat":"31.1982087356","category":"117","category_name":"便民商店/便利店","address":"徐汇区肇嘉浜路789号均瑶国际广场内(近吴兴路)"},{"poiid":"B2094655D26BA2FC4999","title":"吴兴路","lon":"121.44664","lat":"31.19812","category":"38","category_name":"公交车站","address":""},{"poiid":"B2094655D26BA2FE479D","title":"宛平路衡山路","lon":"121.44392","lat":"31.19873","category":"38","category_name":"公交车站","address":""},{"poiid":"B2094757D16DA1F94198","title":"北海大厦","lon":"121.446","lat":"31.2012","category":"46","category_name":"楼宇","address":"上海天钥桥路859号"},{"poiid":"B2094750D66DA4F5439A","title":"徐汇区牙防所","lon":"121.448135","lat":"31.198812","category":"500","category_name":"未知分类","address":null},{"poiid":"B2094757D16BA4F84693","title":"吉祥馄饨(高安路店)","lon":"121.446400586","lat":"31.200927858","category":"68","category_name":"快餐厅","address":"徐汇区建国西路643号(高安路口)"},{"poiid":"B2094757D169A5FC409D","title":"随缘面馆","lon":"121.44581","lat":"31.20029","category":"68","category_name":"快餐厅","address":"徐汇区建国西路661号(近高安路)"},{"poiid":"B2094654DA6DA6FC459F","title":"上海市国家税务局","lon":"121.44506","lat":"31.19784","category":"250","category_name":"公园户外","address":"肇嘉浜路800"},{"poiid":"B2094757D064A5F9499E","title":"上海市司法局","lon":"121.445186604","lat":"31.2009766647","category":"500","category_name":"未知分类","address":"上海吴兴路225号19—27层"},{"poiid":"B209475CD06EA2FF4799","title":"january cafe","lon":"121.447412","lat":"31.199627","category":"111","category_name":"休闲餐饮场所","address":"高安路101号"},{"poiid":"B2094757D06BA4FE409D","title":"老约克艺术空间","lon":"121.44481658","lat":"31.200796127","category":"65","category_name":"咖啡厅","address":"徐汇区吴兴路248号甲(近衡山路)"},{"poiid":"B2094757D16DA0F44792","title":"宛平宾馆宴会厅","lon":"121.44423","lat":"31.19776","category":"217","category_name":"旅馆招待所","address":"徐汇区宛平路315号宛平宾馆内(近衡山路)查看地图"},{"poiid":"B2094654DA6DA1F5499A","title":"煤科大厦","lon":"121.44740463","lat":"31.200434299811","category":"46","category_name":"楼宇","address":"天钥桥路1号"},{"poiid":"B2094757D06FA3FD4598","title":"衡山路","lon":"121.44432","lat":"31.20163","category":"260","category_name":"其他","address":"徐汇区衡山路(衡山路吴兴路)"},{"poiid":"B2094654DB69ABF9469A","title":"三人行骨头王火锅(徐汇总店)","lon":"121.44548","lat":"31.19707","category":"86","category_name":"火锅店","address":"徐汇区肇嘉浜路879号(近宛平南路)"},{"poiid":"B2094757D06FA3F84199","title":"三顾牛蛙馆(肇嘉浜路店)","lon":"121.44556","lat":"31.1966","category":"71","category_name":"四川菜","address":"徐汇区肇嘉浜路883号(宛平路口)"},{"poiid":"B2094753D76FAAFA449C","title":"上海滩国泰旗舰店","lon":"121.466011","lat":"31.216125","category":"249","category_name":"购物服务","address":"淮海中路868号"},{"poiid":"B2094757D06FA2FB469A","title":"恒悦轩(徐汇店)","lon":"121.44404","lat":"31.19737","category":"72","category_name":"广东菜","address":"徐汇区宛平路290号徐家汇公园内(近肇嘉浜路)"},{"poiid":"B2094654DA6DA6FC469A","title":"宛平宾馆","lon":"121.44502","lat":"31.19814","category":"214","category_name":"四星级宾馆","address":"徐汇区宛平路315号(近肇嘉浜路)"},{"poiid":"B2094655D269AAFC419D","title":"建工锦江大酒店","lon":"121.44402","lat":"31.19989","category":"247","category_name":"餐饮美食","address":"上海市徐汇区建国西路691号(近衡山路)"},{"poiid":"B2094757D468ABF94692","title":"小南国 均瑶店","lon":"121.448066","lat":"31.198374","category":"76","category_name":"上海菜","address":"徐汇区肇嘉浜路789号均瑶国际广场5楼(近东安路)"},{"poiid":"B2094654DB6BA5FE4393","title":"圣爱大厦","lon":"121.444","lat":"31.1979","category":"46","category_name":"楼宇","address":"上海漕溪北路88号"},{"poiid":"B2094757D068ABFC439D","title":"自由港量販式KTV(吴兴店)","lon":"121.44459958","lat":"31.200683853","category":"170","category_name":"KTV","address":"上海徐汇区吴兴路277号"},{"poiid":"B2094757D06FA2FB4193","title":"实业大厦","lon":"121.444","lat":"31.1993","category":"46","category_name":"楼宇","address":"上海市徐汇区漕溪北路18号"},{"poiid":"B2094757D068ABFF4399","title":"肇嘉浜路","lon":"121.44627625","lat":"31.199099322","category":"260","category_name":"其他","address":"上海肇嘉浜路"},{"poiid":"B2094752D36DA5F9479D","title":"上海超级电影世界","lon":"121.44509","lat":"31.19884","category":"178","category_name":"电影院","address":"上海市徐汇区肇嘉浜路1111号美罗城五楼"},{"poiid":"B2094654DA6DA0FE439B","title":"汇嘉大厦","lon":"121.446","lat":"31.1986","category":"46","category_name":"楼宇","address":"上海市闵行区莲花南路1500弄"},{"poiid":"B2094750D76EA1FE4199","title":"渝香情(肇嘉浜路)","lon":"121.447","lat":"31.1979","category":"71","category_name":"四川菜","address":"徐汇区肇嘉浜路825号(近宛平南路)"},{"poiid":"B2094757D068A3FA4598","title":"小白桦酒家","lon":"121.44454","lat":"31.19819","category":"76","category_name":"上海菜","address":"徐汇区宛平路297弄3号(近肇嘉浜路)"},{"poiid":"B2094655D268A6FB439C","title":"徐家汇公园运动场","lon":"121.44355","lat":"31.1984","category":"220","category_name":"运动场所","address":""},{"poiid":"B2094757D16DA0F54892","title":"徐汇营业厅","lon":"121.447819","lat":"31.197941","category":"150","category_name":"银行","address":"徐汇区肇嘉浜路807号五洲国际大厦102室"},{"poiid":"B2094757D068A7F4409D","title":"皇城根老北京涮羊肉(宛平路店)","lon":"121.44464","lat":"31.19842","category":"86","category_name":"火锅店","address":"徐汇区宛平路297弄1号后门(近肇嘉浜路)"},{"poiid":"B2094757D068A7FD479B","title":"凯文咖啡西餐厅","lon":"121.4442","lat":"31.20048","category":"260","category_name":"其他","address":"徐汇区衡山路525号(近宛平路口衡山宾馆对面)"},{"poiid":"B2094757D068A1FF4698","title":"宁波人家","lon":"121.44451","lat":"31.19978","category":"75","category_name":"浙江菜","address":"徐汇区建国西路691号建工锦江大酒店4楼(近宛平路)"},{"poiid":"B2094757D569A1F8409E","title":"圣爱广场","lon":"121.444","lat":"31.1984","category":"46","category_name":"楼宇","address":"上海市徐汇区漕溪北路88号"},{"poiid":"B2094757D16EA4FC4492","title":"吴记麻辣火锅","lon":"121.44694458","lat":"31.198324807","category":"247","category_name":"餐饮美食","address":"上海天钥桥路"},{"poiid":"B2094757D06FA2F9409F","title":"生仕鱼林港(肇嘉浜路店)","lon":"121.44753","lat":"31.19755","category":"86","category_name":"火锅店","address":"徐汇区肇嘉浜路825号(近宛平南路)"},{"poiid":"B2094655D36CA6F4459F","title":"东安路青松城","lon":"121.4484","lat":"31.1985","category":"38","category_name":"公交车站","address":""},{"poiid":"B2094654DA6DAAF9419A","title":"珊珊茶面馆 肇嘉浜路店","lon":"121.44794578047","lat":"31.19785511912","category":"68","category_name":"快餐厅","address":"徐汇区肇家浜路825号(近东安路)"},{"poiid":"B2094757D06FA7F54298","title":"徐家匯花園","lon":"121.44533538","lat":"31.196586608","category":"252","category_name":"楼宇机构","address":"上海宛平南路255弄"},{"poiid":"B2094757D468A6FF4199","title":"欧集赏","lon":"121.445706054","lat":"31.197977793","category":"67","category_name":"甜品店","address":"徐汇区肇嘉浜路825号(近宛平南路)"},{"poiid":"B2094757D16FA3F8499D","title":"上实大厦","lon":"121.444503","lat":"31.199355","category":"252","category_name":"楼宇机构","address":"上海市徐汇区漕溪北路"},{"poiid":"B2094654DA6DAAF94198","title":"尚秀商务楼","lon":"121.44696","lat":"31.19771","category":"46","category_name":"楼宇","address":"崇文区夕照寺大街"},{"poiid":"B2094750D36BA4FB479D","title":"蜻蜓FM","lon":"121.4455","lat":"31.19828","category":"634","category_name":"IT类公司","address":"上海市浦东新区东方路1215号2层北单元"},{"poiid":"B2094654DA6DA6FC4699","title":"上海市高安路第一小学","lon":"121.44418","lat":"31.19955","category":"56","category_name":"小学","address":"宛平路231"},{"poiid":"B2094757D068ABF4459A","title":"上海市财政局","lon":"121.44554908","lat":"31.197826784","category":"260","category_name":"其他","address":"上海肇嘉浜路800号"},{"poiid":"B2094654DA6DA7FB4398","title":"小桃园餐厅","lon":"121.445877054","lat":"31.200565793","category":"68","category_name":"快餐厅","address":"徐汇区建国西路645号(近高安路)"},{"poiid":"B2094757D069A5FB419E","title":"建国西路高安路","lon":"121.4467","lat":"31.200761","category":"500","category_name":"未知分类","address":"上海建国西路高安路"},{"poiid":"B2094654DA6DA0FC429B","title":"中福实业大厦","lon":"121.448","lat":"31.1993","category":"46","category_name":"楼宇","address":"浦东区崂山东路410号"},{"poiid":"B2094750D665A0F8489F","title":"白家餐厅","lon":"121.444","lat":"31.1998","category":"76","category_name":"上海菜","address":"徐汇区宛平路189弄12号(近衡山路)"},{"poiid":"B2094757D06FA2FD439A","title":"7-ELEVEN(均瑶店)","lon":"121.448318572","lat":"31.1982087356","category":"117","category_name":"便民商店/便利店","address":"徐汇区肇嘉浜路789号均瑶国际广场内(近吴兴路)"},{"poiid":"B2094655D26BA2FC4999","title":"吴兴路","lon":"121.44664","lat":"31.19812","category":"38","category_name":"公交车站","address":""},{"poiid":"B2094655D26BA2FE479D","title":"宛平路衡山路","lon":"121.44392","lat":"31.19873","category":"38","category_name":"公交车站","address":""},{"poiid":"B2094757D16DA1F94198","title":"北海大厦","lon":"121.446","lat":"31.2012","category":"46","category_name":"楼宇","address":"上海天钥桥路859号"},{"poiid":"B2094750D66DA4F5439A","title":"徐汇区牙防所","lon":"121.448135","lat":"31.198812","category":"500","category_name":"未知分类","address":null},{"poiid":"B2094757D16BA4F84693","title":"吉祥馄饨(高安路店)","lon":"121.446400586","lat":"31.200927858","category":"68","category_name":"快餐厅","address":"徐汇区建国西路643号(高安路口)"},{"poiid":"B2094757D169A5FC409D","title":"随缘面馆","lon":"121.44581","lat":"31.20029","category":"68","category_name":"快餐厅","address":"徐汇区建国西路661号(近高安路)"},{"poiid":"B2094654DA6DA6FC459F","title":"上海市国家税务局","lon":"121.44506","lat":"31.19784","category":"250","category_name":"公园户外","address":"肇嘉浜路800"},{"poiid":"B2094757D064A5F9499E","title":"上海市司法局","lon":"121.445186604","lat":"31.2009766647","category":"500","category_name":"未知分类","address":"上海吴兴路225号19—27层"},{"poiid":"B209475CD06EA2FF4799","title":"january cafe","lon":"121.447412","lat":"31.199627","category":"111","category_name":"休闲餐饮场所","address":"高安路101号"},{"poiid":"B2094757D06BA4FE409D","title":"老约克艺术空间","lon":"121.44481658","lat":"31.200796127","category":"65","category_name":"咖啡厅","address":"徐汇区吴兴路248号甲(近衡山路)"},{"poiid":"B2094757D16DA0F44792","title":"宛平宾馆宴会厅","lon":"121.44423","lat":"31.19776","category":"217","category_name":"旅馆招待所","address":"徐汇区宛平路315号宛平宾馆内(近衡山路)查看地图"},{"poiid":"B2094654DA6DA1F5499A","title":"煤科大厦","lon":"121.44740463","lat":"31.200434299811","category":"46","category_name":"楼宇","address":"天钥桥路1号"}]