[{"poiid":"B2094655D26BA1FA4898","title":"马陆镇","lon":"121.28238","lat":"31.33073","category":"38","category_name":"公交车站","address":""},{"poiid":"B2094654DB6AA6FF4793","title":"上海寰鑫富贵天地大酒店","lon":"121.2871","lat":"31.33158","category":"76","category_name":"上海菜","address":"嘉定区宝安公路3189号寰鑫富贵天地大酒店内"},{"poiid":"B2094655D265A5FF449D","title":"马陆清水湾","lon":"121.29378543801","lat":"31.338714076667","category":"47","category_name":"住宅区","address":"上海市长宁区威宁路507弄"},{"poiid":"B2094757D069A4FD4499","title":"S5沪嘉高速马陆收费站","lon":"121.289653999","lat":"31.3326191313","category":"267","category_name":"收费站","address":"上海嘉定区S5沪嘉高速马陆收费站"},{"poiid":"B2094757D06AA3F5449B","title":"兰轩","lon":"121.28476","lat":"31.331053","category":"76","category_name":"上海菜","address":"嘉定区宝安公路3140-3142号马陆清水湾内"},{"poiid":"B2094757D064A7FF4698","title":"肯德基 KFC (马陆弘基店)","lon":"121.28358992","lat":"31.337003142","category":"500","category_name":"未知分类","address":"嘉定区沪宜公路2400号(封周路沪宜公路)"},{"poiid":"B2094654D469A7F5439D","title":"育绿小区","lon":"121.29288","lat":"31.340828","category":"47","category_name":"住宅区","address":"育绿路301弄"},{"poiid":"B2094757D165A3F54693","title":"沥苑小区","lon":"121.285250625","lat":"31.3398354009","category":"47","category_name":"住宅区","address":"上海马陆"},{"poiid":"B2094757D168A2FD4598","title":"嘉宝紫提湾","lon":"121.284141955","lat":"31.3350993726","category":"500","category_name":"未知分类","address":"上海沪宜公路"},{"poiid":"B2094757D06AA0FA429F","title":"育苑小区","lon":"121.28892","lat":"31.329689","category":"47","category_name":"住宅区","address":"上海沪宜公路1866弄"},{"poiid":"B2094757D064A7F44998","title":"沃尔玛超市(马陆店)","lon":"121.27826936301312","lat":"31.34308659784451","category":"118","category_name":"超级市场","address":"嘉定区沪宜公路2618号天林商业广场2-3楼"},{"poiid":"B2094757DA6EABFD409B","title":"远香舫","lon":"121.281","lat":"31.3395","category":"252","category_name":"楼宇机构","address":"嘉定区裕民南路裕民南路1777弄(近洪德路)"},{"poiid":"B2094655D36DA0F5469A","title":"育英街","lon":"121.27755","lat":"31.32914","category":"38","category_name":"公交车站","address":""},{"poiid":"B2094654D469A7F5459A","title":"华联超市(育绿路)","lon":"121.29284","lat":"31.34109","category":"118","category_name":"超级市场","address":""},{"poiid":"B2094757D06BA3F4469D","title":"嘉定区税务七所","lon":"121.295317","lat":"31.349386","category":"61","category_name":"报社","address":"上海嘉定区丰茂路718号"},{"poiid":"B2094654D469A6F8409D","title":"包桥住宅小区","lon":"121.304","lat":"31.3423","category":"47","category_name":"住宅区","address":"宝安公路2888弄"},{"poiid":"B2094655D26BA1FA4892","title":"马陆","lon":"121.28317","lat":"31.33275","category":"38","category_name":"公交车站","address":""},{"poiid":"B2094655D268A6FF409A","title":"沪宜公路3668弄","lon":"121.291","lat":"31.3371","category":"47","category_name":"住宅区","address":"沪宜公路3668弄"},{"poiid":"B2094757D66DA7FA429E","title":"东方慧谷","lon":"121.291843","lat":"31.333605","category":"252","category_name":"楼宇机构","address":"嘉定区宝安公路2999号"},{"poiid":"B2094654D469A6FB489A","title":"上海马陆丰登工业园","lon":"121.29267","lat":"31.35958","category":"45","category_name":"产业园区","address":"越秀区环市东路362-366号"},{"poiid":"B2094654D469A6FB4892","title":"上海市嘉定区马陆葡萄研究所","lon":"121.29405","lat":"31.34201","category":"191","category_name":"科研机构","address":"严桥村"},{"poiid":"B2094654D46BA5FC4399","title":"育才高级中学","lon":"121.28723","lat":"31.32581","category":"55","category_name":"中学","address":"上海嘉定区马陆镇沪宜公路2001号"},{"poiid":"B2094757D064A5FD479B","title":"伊诺咖啡 丰茂店","lon":"121.293832054","lat":"31.348021793","category":"65","category_name":"咖啡厅","address":"嘉定区马陆镇澄浏中路丰茂路888弄2号"},{"poiid":"B2094654D469A7FC4598","title":"樊家花苑","lon":"121.2953","lat":"31.333717","category":"47","category_name":"住宅区","address":"樊宝路35弄"},{"poiid":"B2094654D469A5F4429F","title":"樊家村","lon":"121.29476","lat":"31.33478","category":"47","category_name":"住宅区","address":"马陆镇樊家村"},{"poiid":"B2094655D36CA5FE4892","title":"澄浏中路丰功路","lon":"121.29598","lat":"31.34746","category":"38","category_name":"公交车站","address":""},{"poiid":"B2094757D164A6FE4998","title":"豪国梦乐台球名流会所","lon":"121.28611792","lat":"31.339669197","category":"171","category_name":"台球厅","address":"沪宜公路2378弄5号2楼"},{"poiid":"B2094757D165AAF5409D","title":"金珂花园酒店","lon":"121.279787054","lat":"31.341881793","category":"76","category_name":"上海菜","address":"嘉定区马陆镇沪宜公路2416-2418号(近弘基广场5号楼)"},{"poiid":"B2094654D469A6F5439B","title":"碧海新村","lon":"121.28608","lat":"31.335424","category":"47","category_name":"住宅区","address":"马陆塘街80弄"},{"poiid":"B2094654D469A6F5449A","title":"天马新村","lon":"121.28356","lat":"31.33403","category":"47","category_name":"住宅区","address":"嘉定区马陆镇镇政府边上"},{"poiid":"B2094757D66AA7FD4193","title":"金池塘私房菜","lon":"121.28116","lat":"31.33833","category":"76","category_name":"上海菜","address":"嘉定区沪宜公路2370弄马陆弘基诚建广场8号(近宝安公路)"},{"poiid":"B2094654D469A6FE489F","title":"上海新四合木业有限公司","lon":"121.29201","lat":"31.34444","category":"263","category_name":"公司","address":"丰功路888"},{"poiid":"B2094757D66EABFE4893","title":"育兰二村","lon":"121.287","lat":"31.3347","category":"252","category_name":"楼宇机构","address":"上海宝安公路3412号"},{"poiid":"B2094757D165A6F44793","title":"樊家餐厅","lon":"121.297149925","lat":"31.3330490601","category":"500","category_name":"未知分类","address":"上海市嘉定区宝育路"},{"poiid":"B2094655D264A7FD459A","title":"东方豪园","lon":"121.28194","lat":"31.333931","category":"47","category_name":"住宅区","address":"嘉定区封周路255弄"},{"poiid":"B2094654D469A7FC459A","title":"樊家住宅一区","lon":"121.29869","lat":"31.332741","category":"47","category_name":"住宅区","address":"东宝路88弄1-283号"},{"poiid":"B2094654D469A0FF4592","title":"上海大众汽车马陆销售服务有限公司","lon":"121.28818","lat":"31.33219","category":"158","category_name":"汽车销售","address":"嘉定区嘉定区马陆镇宝安公路3131号"},{"poiid":"B2094757D568A4F84593","title":"S5马陆收费站","lon":"121.289225","lat":"31.3344","category":"267","category_name":"收费站","address":"中国上海市嘉定区A12"},{"poiid":"B2094654D469A5F4439B","title":"上海红阳密封件有限公司","lon":"121.29239","lat":"31.33408","category":"263","category_name":"公司","address":""},{"poiid":"B2094757D16EA5F9459C","title":"马陆大众汽车","lon":"121.28959333","lat":"31.332532089","category":"163","category_name":"4S店","address":"上海宝安公路3131号"},{"poiid":"B2094654DB64A5FF409F","title":"上海博泽电机有限公司","lon":"121.28489","lat":"31.34508","category":"263","category_name":"公司","address":"嘉新公路1266号"},{"poiid":"B2094757D16EA5F5419D","title":"马陆镇社区中心","lon":"121.283545","lat":"31.332662","category":"500","category_name":"未知分类","address":"上海沪宜公路2228号"},{"poiid":"B2094757D66FA6F8419A","title":"君如农家菜","lon":"121.28228592","lat":"31.33693414","category":"247","category_name":"餐饮美食","address":"沪宜公路2428-2430号弘基广场9号楼近封周路"},{"poiid":"B2094654D46BA5FE439A","title":"樊家住宅二区","lon":"121.29307","lat":"31.330496","category":"47","category_name":"住宅区","address":"嘉新公路1775弄"},{"poiid":"B2094757D16DABFB4092","title":"世纪广场","lon":"121.284538","lat":"31.330667","category":"500","category_name":"未知分类","address":"上海沪宜公路、宝安公路"},{"poiid":"B2094654D469A5F4439E","title":"马陆镇印村示范社区卫生服务站","lon":"121.28212","lat":"31.3402","category":"162","category_name":"医院","address":""},{"poiid":"B2094654D469A6F5439F","title":"上海中亚医院","lon":"121.284","lat":"31.33427","category":"162","category_name":"医院","address":"嘉定区沪宜公路3388号"},{"poiid":"B2094655D268ABF9449F","title":"马陆收费站","lon":"121.29002","lat":"31.33157","category":"267","category_name":"收费站","address":""},{"poiid":"B2094750D364A6FC4293","title":"东方慧谷上海文化信息产业园","lon":"121.2910050702","lat":"31.333090030523","category":"637","category_name":"房地产类公司","address":"嘉定新城(马陆)宝安公路2999弄"},{"poiid":"B2094654D469A5F9439D","title":"彭封路南区","lon":"121.28104","lat":"31.344938","category":"47","category_name":"住宅区","address":"彭封公路161弄"},{"poiid":"B2094655D26BA1FA4898","title":"马陆镇","lon":"121.28238","lat":"31.33073","category":"38","category_name":"公交车站","address":""},{"poiid":"B2094654DB6AA6FF4793","title":"上海寰鑫富贵天地大酒店","lon":"121.2871","lat":"31.33158","category":"76","category_name":"上海菜","address":"嘉定区宝安公路3189号寰鑫富贵天地大酒店内"},{"poiid":"B2094655D265A5FF449D","title":"马陆清水湾","lon":"121.29378543801","lat":"31.338714076667","category":"47","category_name":"住宅区","address":"上海市长宁区威宁路507弄"},{"poiid":"B2094757D069A4FD4499","title":"S5沪嘉高速马陆收费站","lon":"121.289653999","lat":"31.3326191313","category":"267","category_name":"收费站","address":"上海嘉定区S5沪嘉高速马陆收费站"},{"poiid":"B2094757D06AA3F5449B","title":"兰轩","lon":"121.28476","lat":"31.331053","category":"76","category_name":"上海菜","address":"嘉定区宝安公路3140-3142号马陆清水湾内"},{"poiid":"B2094757D064A7FF4698","title":"肯德基 KFC (马陆弘基店)","lon":"121.28358992","lat":"31.337003142","category":"500","category_name":"未知分类","address":"嘉定区沪宜公路2400号(封周路沪宜公路)"},{"poiid":"B2094654D469A7F5439D","title":"育绿小区","lon":"121.29288","lat":"31.340828","category":"47","category_name":"住宅区","address":"育绿路301弄"},{"poiid":"B2094757D165A3F54693","title":"沥苑小区","lon":"121.285250625","lat":"31.3398354009","category":"47","category_name":"住宅区","address":"上海马陆"},{"poiid":"B2094757D168A2FD4598","title":"嘉宝紫提湾","lon":"121.284141955","lat":"31.3350993726","category":"500","category_name":"未知分类","address":"上海沪宜公路"},{"poiid":"B2094757D06AA0FA429F","title":"育苑小区","lon":"121.28892","lat":"31.329689","category":"47","category_name":"住宅区","address":"上海沪宜公路1866弄"},{"poiid":"B2094757D064A7F44998","title":"沃尔玛超市(马陆店)","lon":"121.27826936301312","lat":"31.34308659784451","category":"118","category_name":"超级市场","address":"嘉定区沪宜公路2618号天林商业广场2-3楼"},{"poiid":"B2094757DA6EABFD409B","title":"远香舫","lon":"121.281","lat":"31.3395","category":"252","category_name":"楼宇机构","address":"嘉定区裕民南路裕民南路1777弄(近洪德路)"},{"poiid":"B2094655D36DA0F5469A","title":"育英街","lon":"121.27755","lat":"31.32914","category":"38","category_name":"公交车站","address":""},{"poiid":"B2094654D469A7F5459A","title":"华联超市(育绿路)","lon":"121.29284","lat":"31.34109","category":"118","category_name":"超级市场","address":""},{"poiid":"B2094757D06BA3F4469D","title":"嘉定区税务七所","lon":"121.295317","lat":"31.349386","category":"61","category_name":"报社","address":"上海嘉定区丰茂路718号"},{"poiid":"B2094654D469A6F8409D","title":"包桥住宅小区","lon":"121.304","lat":"31.3423","category":"47","category_name":"住宅区","address":"宝安公路2888弄"},{"poiid":"B2094655D26BA1FA4892","title":"马陆","lon":"121.28317","lat":"31.33275","category":"38","category_name":"公交车站","address":""},{"poiid":"B2094655D268A6FF409A","title":"沪宜公路3668弄","lon":"121.291","lat":"31.3371","category":"47","category_name":"住宅区","address":"沪宜公路3668弄"},{"poiid":"B2094757D66DA7FA429E","title":"东方慧谷","lon":"121.291843","lat":"31.333605","category":"252","category_name":"楼宇机构","address":"嘉定区宝安公路2999号"},{"poiid":"B2094654D469A6FB489A","title":"上海马陆丰登工业园","lon":"121.29267","lat":"31.35958","category":"45","category_name":"产业园区","address":"越秀区环市东路362-366号"},{"poiid":"B2094654D469A6FB4892","title":"上海市嘉定区马陆葡萄研究所","lon":"121.29405","lat":"31.34201","category":"191","category_name":"科研机构","address":"严桥村"},{"poiid":"B2094654D46BA5FC4399","title":"育才高级中学","lon":"121.28723","lat":"31.32581","category":"55","category_name":"中学","address":"上海嘉定区马陆镇沪宜公路2001号"},{"poiid":"B2094757D064A5FD479B","title":"伊诺咖啡 丰茂店","lon":"121.293832054","lat":"31.348021793","category":"65","category_name":"咖啡厅","address":"嘉定区马陆镇澄浏中路丰茂路888弄2号"},{"poiid":"B2094654D469A7FC4598","title":"樊家花苑","lon":"121.2953","lat":"31.333717","category":"47","category_name":"住宅区","address":"樊宝路35弄"},{"poiid":"B2094654D469A5F4429F","title":"樊家村","lon":"121.29476","lat":"31.33478","category":"47","category_name":"住宅区","address":"马陆镇樊家村"},{"poiid":"B2094655D36CA5FE4892","title":"澄浏中路丰功路","lon":"121.29598","lat":"31.34746","category":"38","category_name":"公交车站","address":""},{"poiid":"B2094757D164A6FE4998","title":"豪国梦乐台球名流会所","lon":"121.28611792","lat":"31.339669197","category":"171","category_name":"台球厅","address":"沪宜公路2378弄5号2楼"},{"poiid":"B2094757D165AAF5409D","title":"金珂花园酒店","lon":"121.279787054","lat":"31.341881793","category":"76","category_name":"上海菜","address":"嘉定区马陆镇沪宜公路2416-2418号(近弘基广场5号楼)"},{"poiid":"B2094654D469A6F5439B","title":"碧海新村","lon":"121.28608","lat":"31.335424","category":"47","category_name":"住宅区","address":"马陆塘街80弄"},{"poiid":"B2094654D469A6F5449A","title":"天马新村","lon":"121.28356","lat":"31.33403","category":"47","category_name":"住宅区","address":"嘉定区马陆镇镇政府边上"},{"poiid":"B2094757D66AA7FD4193","title":"金池塘私房菜","lon":"121.28116","lat":"31.33833","category":"76","category_name":"上海菜","address":"嘉定区沪宜公路2370弄马陆弘基诚建广场8号(近宝安公路)"},{"poiid":"B2094654D469A6FE489F","title":"上海新四合木业有限公司","lon":"121.29201","lat":"31.34444","category":"263","category_name":"公司","address":"丰功路888"},{"poiid":"B2094757D66EABFE4893","title":"育兰二村","lon":"121.287","lat":"31.3347","category":"252","category_name":"楼宇机构","address":"上海宝安公路3412号"},{"poiid":"B2094757D165A6F44793","title":"樊家餐厅","lon":"121.297149925","lat":"31.3330490601","category":"500","category_name":"未知分类","address":"上海市嘉定区宝育路"},{"poiid":"B2094655D264A7FD459A","title":"东方豪园","lon":"121.28194","lat":"31.333931","category":"47","category_name":"住宅区","address":"嘉定区封周路255弄"},{"poiid":"B2094654D469A7FC459A","title":"樊家住宅一区","lon":"121.29869","lat":"31.332741","category":"47","category_name":"住宅区","address":"东宝路88弄1-283号"},{"poiid":"B2094654D469A0FF4592","title":"上海大众汽车马陆销售服务有限公司","lon":"121.28818","lat":"31.33219","category":"158","category_name":"汽车销售","address":"嘉定区嘉定区马陆镇宝安公路3131号"},{"poiid":"B2094757D568A4F84593","title":"S5马陆收费站","lon":"121.289225","lat":"31.3344","category":"267","category_name":"收费站","address":"中国上海市嘉定区A12"},{"poiid":"B2094654D469A5F4439B","title":"上海红阳密封件有限公司","lon":"121.29239","lat":"31.33408","category":"263","category_name":"公司","address":""},{"poiid":"B2094757D16EA5F9459C","title":"马陆大众汽车","lon":"121.28959333","lat":"31.332532089","category":"163","category_name":"4S店","address":"上海宝安公路3131号"},{"poiid":"B2094654DB64A5FF409F","title":"上海博泽电机有限公司","lon":"121.28489","lat":"31.34508","category":"263","category_name":"公司","address":"嘉新公路1266号"},{"poiid":"B2094757D16EA5F5419D","title":"马陆镇社区中心","lon":"121.283545","lat":"31.332662","category":"500","category_name":"未知分类","address":"上海沪宜公路2228号"},{"poiid":"B2094757D66FA6F8419A","title":"君如农家菜","lon":"121.28228592","lat":"31.33693414","category":"247","category_name":"餐饮美食","address":"沪宜公路2428-2430号弘基广场9号楼近封周路"},{"poiid":"B2094654D46BA5FE439A","title":"樊家住宅二区","lon":"121.29307","lat":"31.330496","category":"47","category_name":"住宅区","address":"嘉新公路1775弄"},{"poiid":"B2094757D16DABFB4092","title":"世纪广场","lon":"121.284538","lat":"31.330667","category":"500","category_name":"未知分类","address":"上海沪宜公路、宝安公路"},{"poiid":"B2094654D469A5F4439E","title":"马陆镇印村示范社区卫生服务站","lon":"121.28212","lat":"31.3402","category":"162","category_name":"医院","address":""},{"poiid":"B2094654D469A6F5439F","title":"上海中亚医院","lon":"121.284","lat":"31.33427","category":"162","category_name":"医院","address":"嘉定区沪宜公路3388号"},{"poiid":"B2094655D268ABF9449F","title":"马陆收费站","lon":"121.29002","lat":"31.33157","category":"267","category_name":"收费站","address":""},{"poiid":"B2094750D364A6FC4293","title":"东方慧谷上海文化信息产业园","lon":"121.2910050702","lat":"31.333090030523","category":"637","category_name":"房地产类公司","address":"嘉定新城(马陆)宝安公路2999弄"},{"poiid":"B2094654D469A5F9439D","title":"彭封路南区","lon":"121.28104","lat":"31.344938","category":"47","category_name":"住宅区","address":"彭封公路161弄"},{"poiid":"B2094655D26BA1FA4898","title":"马陆镇","lon":"121.28238","lat":"31.33073","category":"38","category_name":"公交车站","address":""},{"poiid":"B2094654DB6AA6FF4793","title":"上海寰鑫富贵天地大酒店","lon":"121.2871","lat":"31.33158","category":"76","category_name":"上海菜","address":"嘉定区宝安公路3189号寰鑫富贵天地大酒店内"},{"poiid":"B2094655D265A5FF449D","title":"马陆清水湾","lon":"121.29378543801","lat":"31.338714076667","category":"47","category_name":"住宅区","address":"上海市长宁区威宁路507弄"},{"poiid":"B2094757D069A4FD4499","title":"S5沪嘉高速马陆收费站","lon":"121.289653999","lat":"31.3326191313","category":"267","category_name":"收费站","address":"上海嘉定区S5沪嘉高速马陆收费站"},{"poiid":"B2094757D06AA3F5449B","title":"兰轩","lon":"121.28476","lat":"31.331053","category":"76","category_name":"上海菜","address":"嘉定区宝安公路3140-3142号马陆清水湾内"},{"poiid":"B2094757D064A7FF4698","title":"肯德基 KFC (马陆弘基店)","lon":"121.28358992","lat":"31.337003142","category":"500","category_name":"未知分类","address":"嘉定区沪宜公路2400号(封周路沪宜公路)"},{"poiid":"B2094654D469A7F5439D","title":"育绿小区","lon":"121.29288","lat":"31.340828","category":"47","category_name":"住宅区","address":"育绿路301弄"},{"poiid":"B2094757D165A3F54693","title":"沥苑小区","lon":"121.285250625","lat":"31.3398354009","category":"47","category_name":"住宅区","address":"上海马陆"},{"poiid":"B2094757D168A2FD4598","title":"嘉宝紫提湾","lon":"121.284141955","lat":"31.3350993726","category":"500","category_name":"未知分类","address":"上海沪宜公路"},{"poiid":"B2094757D06AA0FA429F","title":"育苑小区","lon":"121.28892","lat":"31.329689","category":"47","category_name":"住宅区","address":"上海沪宜公路1866弄"},{"poiid":"B2094757D064A7F44998","title":"沃尔玛超市(马陆店)","lon":"121.27826936301312","lat":"31.34308659784451","category":"118","category_name":"超级市场","address":"嘉定区沪宜公路2618号天林商业广场2-3楼"},{"poiid":"B2094757DA6EABFD409B","title":"远香舫","lon":"121.281","lat":"31.3395","category":"252","category_name":"楼宇机构","address":"嘉定区裕民南路裕民南路1777弄(近洪德路)"},{"poiid":"B2094655D36DA0F5469A","title":"育英街","lon":"121.27755","lat":"31.32914","category":"38","category_name":"公交车站","address":""},{"poiid":"B2094654D469A7F5459A","title":"华联超市(育绿路)","lon":"121.29284","lat":"31.34109","category":"118","category_name":"超级市场","address":""},{"poiid":"B2094757D06BA3F4469D","title":"嘉定区税务七所","lon":"121.295317","lat":"31.349386","category":"61","category_name":"报社","address":"上海嘉定区丰茂路718号"},{"poiid":"B2094654D469A6F8409D","title":"包桥住宅小区","lon":"121.304","lat":"31.3423","category":"47","category_name":"住宅区","address":"宝安公路2888弄"},{"poiid":"B2094655D26BA1FA4892","title":"马陆","lon":"121.28317","lat":"31.33275","category":"38","category_name":"公交车站","address":""},{"poiid":"B2094655D268A6FF409A","title":"沪宜公路3668弄","lon":"121.291","lat":"31.3371","category":"47","category_name":"住宅区","address":"沪宜公路3668弄"},{"poiid":"B2094757D66DA7FA429E","title":"东方慧谷","lon":"121.291843","lat":"31.333605","category":"252","category_name":"楼宇机构","address":"嘉定区宝安公路2999号"},{"poiid":"B2094654D469A6FB489A","title":"上海马陆丰登工业园","lon":"121.29267","lat":"31.35958","category":"45","category_name":"产业园区","address":"越秀区环市东路362-366号"},{"poiid":"B2094654D469A6FB4892","title":"上海市嘉定区马陆葡萄研究所","lon":"121.29405","lat":"31.34201","category":"191","category_name":"科研机构","address":"严桥村"},{"poiid":"B2094654D46BA5FC4399","title":"育才高级中学","lon":"121.28723","lat":"31.32581","category":"55","category_name":"中学","address":"上海嘉定区马陆镇沪宜公路2001号"},{"poiid":"B2094757D064A5FD479B","title":"伊诺咖啡 丰茂店","lon":"121.293832054","lat":"31.348021793","category":"65","category_name":"咖啡厅","address":"嘉定区马陆镇澄浏中路丰茂路888弄2号"},{"poiid":"B2094654D469A7FC4598","title":"樊家花苑","lon":"121.2953","lat":"31.333717","category":"47","category_name":"住宅区","address":"樊宝路35弄"},{"poiid":"B2094654D469A5F4429F","title":"樊家村","lon":"121.29476","lat":"31.33478","category":"47","category_name":"住宅区","address":"马陆镇樊家村"},{"poiid":"B2094655D36CA5FE4892","title":"澄浏中路丰功路","lon":"121.29598","lat":"31.34746","category":"38","category_name":"公交车站","address":""},{"poiid":"B2094757D164A6FE4998","title":"豪国梦乐台球名流会所","lon":"121.28611792","lat":"31.339669197","category":"171","category_name":"台球厅","address":"沪宜公路2378弄5号2楼"},{"poiid":"B2094757D165AAF5409D","title":"金珂花园酒店","lon":"121.279787054","lat":"31.341881793","category":"76","category_name":"上海菜","address":"嘉定区马陆镇沪宜公路2416-2418号(近弘基广场5号楼)"},{"poiid":"B2094654D469A6F5439B","title":"碧海新村","lon":"121.28608","lat":"31.335424","category":"47","category_name":"住宅区","address":"马陆塘街80弄"},{"poiid":"B2094654D469A6F5449A","title":"天马新村","lon":"121.28356","lat":"31.33403","category":"47","category_name":"住宅区","address":"嘉定区马陆镇镇政府边上"},{"poiid":"B2094757D66AA7FD4193","title":"金池塘私房菜","lon":"121.28116","lat":"31.33833","category":"76","category_name":"上海菜","address":"嘉定区沪宜公路2370弄马陆弘基诚建广场8号(近宝安公路)"},{"poiid":"B2094654D469A6FE489F","title":"上海新四合木业有限公司","lon":"121.29201","lat":"31.34444","category":"263","category_name":"公司","address":"丰功路888"},{"poiid":"B2094757D66EABFE4893","title":"育兰二村","lon":"121.287","lat":"31.3347","category":"252","category_name":"楼宇机构","address":"上海宝安公路3412号"},{"poiid":"B2094757D165A6F44793","title":"樊家餐厅","lon":"121.297149925","lat":"31.3330490601","category":"500","category_name":"未知分类","address":"上海市嘉定区宝育路"},{"poiid":"B2094655D264A7FD459A","title":"东方豪园","lon":"121.28194","lat":"31.333931","category":"47","category_name":"住宅区","address":"嘉定区封周路255弄"},{"poiid":"B2094654D469A7FC459A","title":"樊家住宅一区","lon":"121.29869","lat":"31.332741","category":"47","category_name":"住宅区","address":"东宝路88弄1-283号"},{"poiid":"B2094654D469A0FF4592","title":"上海大众汽车马陆销售服务有限公司","lon":"121.28818","lat":"31.33219","category":"158","category_name":"汽车销售","address":"嘉定区嘉定区马陆镇宝安公路3131号"},{"poiid":"B2094757D568A4F84593","title":"S5马陆收费站","lon":"121.289225","lat":"31.3344","category":"267","category_name":"收费站","address":"中国上海市嘉定区A12"},{"poiid":"B2094654D469A5F4439B","title":"上海红阳密封件有限公司","lon":"121.29239","lat":"31.33408","category":"263","category_name":"公司","address":""},{"poiid":"B2094757D16EA5F9459C","title":"马陆大众汽车","lon":"121.28959333","lat":"31.332532089","category":"163","category_name":"4S店","address":"上海宝安公路3131号"},{"poiid":"B2094654DB64A5FF409F","title":"上海博泽电机有限公司","lon":"121.28489","lat":"31.34508","category":"263","category_name":"公司","address":"嘉新公路1266号"},{"poiid":"B2094757D16EA5F5419D","title":"马陆镇社区中心","lon":"121.283545","lat":"31.332662","category":"500","category_name":"未知分类","address":"上海沪宜公路2228号"},{"poiid":"B2094757D66FA6F8419A","title":"君如农家菜","lon":"121.28228592","lat":"31.33693414","category":"247","category_name":"餐饮美食","address":"沪宜公路2428-2430号弘基广场9号楼近封周路"},{"poiid":"B2094654D46BA5FE439A","title":"樊家住宅二区","lon":"121.29307","lat":"31.330496","category":"47","category_name":"住宅区","address":"嘉新公路1775弄"},{"poiid":"B2094757D16DABFB4092","title":"世纪广场","lon":"121.284538","lat":"31.330667","category":"500","category_name":"未知分类","address":"上海沪宜公路、宝安公路"},{"poiid":"B2094654D469A5F4439E","title":"马陆镇印村示范社区卫生服务站","lon":"121.28212","lat":"31.3402","category":"162","category_name":"医院","address":""},{"poiid":"B2094654D469A6F5439F","title":"上海中亚医院","lon":"121.284","lat":"31.33427","category":"162","category_name":"医院","address":"嘉定区沪宜公路3388号"},{"poiid":"B2094655D268ABF9449F","title":"马陆收费站","lon":"121.29002","lat":"31.33157","category":"267","category_name":"收费站","address":""},{"poiid":"B2094750D364A6FC4293","title":"东方慧谷上海文化信息产业园","lon":"121.2910050702","lat":"31.333090030523","category":"637","category_name":"房地产类公司","address":"嘉定新城(马陆)宝安公路2999弄"},{"poiid":"B2094654D469A5F9439D","title":"彭封路南区","lon":"121.28104","lat":"31.344938","category":"47","category_name":"住宅区","address":"彭封公路161弄"}]