[{"poiid":"B2094757D06EAAF84399","title":"广兰路地铁站","lon":"121.61999759","lat":"31.210776628","category":"36","category_name":"地铁站","address":"上海轨道交通二号线广兰路站"},{"poiid":"B2094757D06FA1FC499C","title":"动漫博物馆","lon":"121.611773","lat":"31.212253","category":"182","category_name":"博物馆","address":"浦东新区张江路69号(近丹桂路)"},{"poiid":"B2094757D465A3F9409B","title":"深山老屋 张江路店","lon":"121.61209","lat":"31.21124","category":"260","category_name":"其他","address":"浦东新区张江路91号(近龙东大道)"},{"poiid":"B2094757D06FA5F9429B","title":"汤豪仕汤馆(张江店)","lon":"121.6168","lat":"31.2023","category":"76","category_name":"上海菜","address":"浦东新区紫薇路200号(近张江路)"},{"poiid":"B2094655D36DA6FD439B","title":"广兰路","lon":"121.61996","lat":"31.21077","category":"38","category_name":"公交车站","address":""},{"poiid":"B2094655D36DA7FB449F","title":"祖冲之路张江路","lon":"121.61147","lat":"31.20692","category":"38","category_name":"公交车站","address":""},{"poiid":"B2094757D06FA7F4489D","title":"张江行政服务中心","lon":"121.61096954","lat":"31.213911056","category":"46","category_name":"楼宇","address":"上海张江路39号"},{"poiid":"B2094655D36DA1F4479E","title":"香楠小区","lon":"121.61279","lat":"31.216309","category":"47","category_name":"住宅区","address":"上海香楠路199弄"},{"poiid":"B2094655D26FA4F8449C","title":"上海拉卡菲大酒店","lon":"121.61592","lat":"31.20228","category":"76","category_name":"上海菜","address":"浦东新区浦东新区紫薇路178号(近张江镇)"},{"poiid":"B2094757D069ABFC4092","title":"张江中学足球场","lon":"121.6172","lat":"31.20647","category":"253","category_name":"校园生活","address":"浦东新区江东路54号张江体育中心"},{"poiid":"B2094757D069A1FB439B","title":"容源大酒店","lon":"121.620157963","lat":"31.2053299054","category":"72","category_name":"广东菜","address":"浦东新区广兰路1080号(紫薇路口)"},{"poiid":"B2094757D06AA5F54799","title":"锦江之星(张江店)","lon":"121.61236","lat":"31.21097","category":"500","category_name":"未知分类","address":"上海市浦东新区张江路91号"},{"poiid":"B2094654DA6AA6F5419E","title":"张江步行街","lon":"121.61502","lat":"31.20352","category":"116","category_name":"特色商业街","address":""},{"poiid":"B2094757D069A6F84498","title":"佳思多食品料理店(张江店)","lon":"121.6148","lat":"31.2139","category":"91","category_name":"台湾菜","address":"浦东新区香楠路399弄2号会所1楼东区(丹桂路香楠路)"},{"poiid":"B2094757D069A6FF4299","title":"Jepson Bread(紫薇路店)","lon":"121.61634","lat":"31.20256","category":"67","category_name":"甜品店","address":"上海浦东新区紫薇路199号(近张江路)"},{"poiid":"B2094757D069A6FF4793","title":"夏宫别墅会所","lon":"121.61552429","lat":"31.210952758","category":"500","category_name":"未知分类","address":"上海香楠路488号"},{"poiid":"B2094757D065ABFC4899","title":"张江有轨电车1路广兰路祖冲之路站","lon":"121.618309631","lat":"31.2099641454","category":"36","category_name":"地铁站","address":"上海浦东新区广兰路祖冲之路交会口"},{"poiid":"B2094655D265A5F4459D","title":"格林豪泰酒店上海张江店","lon":"121.62062","lat":"31.20499","category":"216","category_name":"经济型连锁酒店","address":"浦东新区广兰路1090号"},{"poiid":"B2094757D069A4FB429B","title":"香香川菜","lon":"121.616353","lat":"31.203218","category":"71","category_name":"四川菜","address":"浦东新区张江镇紫薇路217号(近张江路)"},{"poiid":"B2094757D16EA1FB4692","title":"广兰公园","lon":"121.620380975","lat":"31.2052764771","category":"196","category_name":"公园","address":"浦东新区广兰路965号(近紫薇路)"},{"poiid":"B2094757DA65A5FB469E","title":"莫泰168（上海张江店）","lon":"121.615243","lat":"31.205405","category":"216","category_name":"经济型连锁酒店","address":"上海市浦东新区张江路605号(近张江镇江东路)"},{"poiid":"B2094654DA6AA6F4419C","title":"中国工商银行上海市张江支行","lon":"121.61593","lat":"31.20486","category":"150","category_name":"银行","address":"浦东新区张江高科技园区科苑路201号(碧波路郭守敬路)"},{"poiid":"B2094757D06AA2F84492","title":"舒悦大酒楼","lon":"121.61606","lat":"31.20386","category":"260","category_name":"其他","address":"浦东新区张江路665号德宏大厦(近农工商)"},{"poiid":"B2094757D164A7F8479A","title":"美阿丽韩国料理","lon":"121.61231","lat":"31.21069","category":"247","category_name":"餐饮美食","address":"浦东新区张江路(近紫微路)"},{"poiid":"B2094654DA6AA5FD469E","title":"上海市张江中学(江东路)","lon":"121.61783","lat":"31.20693","category":"55","category_name":"中学","address":"浦东张江江东路54号"},{"poiid":"B2094751D56CA6F94499","title":"钱万隆","lon":"121.61791","lat":"31.21051","category":"76","category_name":"上海菜","address":"浦东新区广兰路778号"},{"poiid":"B2094655D36DA7FD459F","title":"张江中学","lon":"121.61489","lat":"31.20926","category":"55","category_name":"中学","address":"浦东新区张江镇江东路54号"},{"poiid":"B2094655D36CA7F54098","title":"广兰路祖冲之路","lon":"121.61784","lat":"31.21093","category":"38","category_name":"公交车站","address":""},{"poiid":"B2094757D569A2F54398","title":"7天酒店(上海张江店)","lon":"121.61680447","lat":"31.2094496","category":"216","category_name":"经济型连锁酒店","address":"张江镇北街52号"},{"poiid":"B2094655D265ABFE419C","title":"张江镇政府大楼","lon":"121.61186","lat":"31.21066","category":"46","category_name":"楼宇","address":"张江路576号"},{"poiid":"B2094757D664A4FF4693","title":"兴庆红","lon":"121.61369882592","lat":"31.203151794114","category":"84","category_name":"西北菜","address":"浦东新区建中路280号(近高斯路)"},{"poiid":"B2094757D06AABFC419E","title":"湘云阁","lon":"121.61694","lat":"31.20237","category":"77","category_name":"湖南菜","address":"浦东新区紫薇路210号(近张江路口)"},{"poiid":"B2094757DA65A5FA4898","title":"如家连锁酒店（上海张江园区店）","lon":"121.6164663","lat":"31.20461857","category":"216","category_name":"经济型连锁酒店","address":"上海市浦东新区张江镇建中路3弄29号(近张江路)"},{"poiid":"B2094757D168A5F94298","title":"张江中学游泳馆","lon":"121.61602067","lat":"31.20917163","category":"253","category_name":"校园生活","address":"浦东新区张江镇田园路88号"},{"poiid":"B2094654DA6AA6F4429A","title":"广兰名苑","lon":"121.62022","lat":"31.20352","category":"47","category_name":"住宅区","address":"上海市浦东新区广兰路1166弄"},{"poiid":"B2094757D06BA5FB4693","title":"苏武牧羊(张江店)","lon":"121.62132","lat":"31.20456","category":"86","category_name":"火锅店","address":"浦东新区广兰路1128号(近紫薇路)"},{"poiid":"B2094654DB69AAF5439F","title":"交江大楼","lon":"121.619659","lat":"31.211054","category":"46","category_name":"楼宇","address":"上海市浦东新区川北公路3042号"},{"poiid":"B2094757D065A0F9439F","title":"人间网","lon":"121.6162033","lat":"31.209308624","category":"500","category_name":"未知分类","address":"上海张江路91号10栋"},{"poiid":"B2094751D56AA3F5459D","title":"碧云国际社区一期","lon":"121.618073","lat":"31.208497","category":"47","category_name":"住宅区","address":null},{"poiid":"B2094654DA6AA5FC419C","title":"牧羊寨","lon":"121.61688","lat":"31.20285","category":"70","category_name":"综合酒楼","address":"浦东新区张江镇紫薇路222号(近张江路)"},{"poiid":"B2094750D76EA0FC4799","title":"小厨面(张江路店)","lon":"121.616","lat":"31.2041","category":"68","category_name":"快餐厅","address":"浦东新区张江路666号(近紫微路)"},{"poiid":"B2094654DA6AA5FD4092","title":"张江镇体育中心(张江镇)","lon":"121.61784","lat":"31.20693","category":"224","category_name":"综合体育馆","address":""},{"poiid":"B2094751DA6DA1F4439E","title":"南京东路步行街","lon":"121.6131571213111","lat":"31.21102562801074","category":"248","category_name":"生活娱乐","address":"上海市"},{"poiid":"B2094757D465A2F4429F","title":"龙江菜饺子馆","lon":"121.617213054","lat":"31.203894793","category":"68","category_name":"快餐厅","address":"浦东新区张江路678号(近紫薇路)"},{"poiid":"B2094750DA6EA7FB419B","title":"浦东图书馆","lon":"121.617721","lat":"31.211481","category":"500","category_name":"未知分类","address":null},{"poiid":"B2094757D66CA6F8499C","title":"城市经典 四期。高迪","lon":"121.619221975","lat":"31.2138426774","category":"500","category_name":"未知分类","address":"上海市浦东新区广兰路"},{"poiid":"B2094757D66DA1FE429D","title":"养生粥","lon":"121.616156975","lat":"31.2044584579","category":"68","category_name":"快餐厅","address":"浦东新区张江路668号(近张江路建中路)"},{"poiid":"B2094654DA6AA5FE429A","title":"浦东新区张江镇中心小学","lon":"121.61893","lat":"31.21059","category":"56","category_name":"小学","address":"张江镇田园路168"},{"poiid":"B2094757D06BA5FA4393","title":"张江中学羽毛球馆","lon":"121.61750507","lat":"31.206879063","category":"253","category_name":"校园生活","address":"浦东新区张江镇江东路54号(张江路祖冲之路)"},{"poiid":"B2094655D36DA2F9479F","title":"广兰路吕家浜桥","lon":"121.6184","lat":"31.20897","category":"250","category_name":"公园户外","address":""},{"poiid":"B2094757D06EAAF84399","title":"广兰路地铁站","lon":"121.61999759","lat":"31.210776628","category":"36","category_name":"地铁站","address":"上海轨道交通二号线广兰路站"},{"poiid":"B2094757D06FA1FC499C","title":"动漫博物馆","lon":"121.611773","lat":"31.212253","category":"182","category_name":"博物馆","address":"浦东新区张江路69号(近丹桂路)"},{"poiid":"B2094757D465A3F9409B","title":"深山老屋 张江路店","lon":"121.61209","lat":"31.21124","category":"260","category_name":"其他","address":"浦东新区张江路91号(近龙东大道)"},{"poiid":"B2094757D06FA5F9429B","title":"汤豪仕汤馆(张江店)","lon":"121.6168","lat":"31.2023","category":"76","category_name":"上海菜","address":"浦东新区紫薇路200号(近张江路)"},{"poiid":"B2094655D36DA6FD439B","title":"广兰路","lon":"121.61996","lat":"31.21077","category":"38","category_name":"公交车站","address":""},{"poiid":"B2094655D36DA7FB449F","title":"祖冲之路张江路","lon":"121.61147","lat":"31.20692","category":"38","category_name":"公交车站","address":""},{"poiid":"B2094757D06FA7F4489D","title":"张江行政服务中心","lon":"121.61096954","lat":"31.213911056","category":"46","category_name":"楼宇","address":"上海张江路39号"},{"poiid":"B2094655D36DA1F4479E","title":"香楠小区","lon":"121.61279","lat":"31.216309","category":"47","category_name":"住宅区","address":"上海香楠路199弄"},{"poiid":"B2094655D26FA4F8449C","title":"上海拉卡菲大酒店","lon":"121.61592","lat":"31.20228","category":"76","category_name":"上海菜","address":"浦东新区浦东新区紫薇路178号(近张江镇)"},{"poiid":"B2094757D069ABFC4092","title":"张江中学足球场","lon":"121.6172","lat":"31.20647","category":"253","category_name":"校园生活","address":"浦东新区江东路54号张江体育中心"},{"poiid":"B2094757D069A1FB439B","title":"容源大酒店","lon":"121.620157963","lat":"31.2053299054","category":"72","category_name":"广东菜","address":"浦东新区广兰路1080号(紫薇路口)"},{"poiid":"B2094757D06AA5F54799","title":"锦江之星(张江店)","lon":"121.61236","lat":"31.21097","category":"500","category_name":"未知分类","address":"上海市浦东新区张江路91号"},{"poiid":"B2094654DA6AA6F5419E","title":"张江步行街","lon":"121.61502","lat":"31.20352","category":"116","category_name":"特色商业街","address":""},{"poiid":"B2094757D069A6F84498","title":"佳思多食品料理店(张江店)","lon":"121.6148","lat":"31.2139","category":"91","category_name":"台湾菜","address":"浦东新区香楠路399弄2号会所1楼东区(丹桂路香楠路)"},{"poiid":"B2094757D069A6FF4299","title":"Jepson Bread(紫薇路店)","lon":"121.61634","lat":"31.20256","category":"67","category_name":"甜品店","address":"上海浦东新区紫薇路199号(近张江路)"},{"poiid":"B2094757D069A6FF4793","title":"夏宫别墅会所","lon":"121.61552429","lat":"31.210952758","category":"500","category_name":"未知分类","address":"上海香楠路488号"},{"poiid":"B2094757D065ABFC4899","title":"张江有轨电车1路广兰路祖冲之路站","lon":"121.618309631","lat":"31.2099641454","category":"36","category_name":"地铁站","address":"上海浦东新区广兰路祖冲之路交会口"},{"poiid":"B2094655D265A5F4459D","title":"格林豪泰酒店上海张江店","lon":"121.62062","lat":"31.20499","category":"216","category_name":"经济型连锁酒店","address":"浦东新区广兰路1090号"},{"poiid":"B2094757D069A4FB429B","title":"香香川菜","lon":"121.616353","lat":"31.203218","category":"71","category_name":"四川菜","address":"浦东新区张江镇紫薇路217号(近张江路)"},{"poiid":"B2094757D16EA1FB4692","title":"广兰公园","lon":"121.620380975","lat":"31.2052764771","category":"196","category_name":"公园","address":"浦东新区广兰路965号(近紫薇路)"},{"poiid":"B2094757DA65A5FB469E","title":"莫泰168（上海张江店）","lon":"121.615243","lat":"31.205405","category":"216","category_name":"经济型连锁酒店","address":"上海市浦东新区张江路605号(近张江镇江东路)"},{"poiid":"B2094654DA6AA6F4419C","title":"中国工商银行上海市张江支行","lon":"121.61593","lat":"31.20486","category":"150","category_name":"银行","address":"浦东新区张江高科技园区科苑路201号(碧波路郭守敬路)"},{"poiid":"B2094757D06AA2F84492","title":"舒悦大酒楼","lon":"121.61606","lat":"31.20386","category":"260","category_name":"其他","address":"浦东新区张江路665号德宏大厦(近农工商)"},{"poiid":"B2094757D164A7F8479A","title":"美阿丽韩国料理","lon":"121.61231","lat":"31.21069","category":"247","category_name":"餐饮美食","address":"浦东新区张江路(近紫微路)"},{"poiid":"B2094654DA6AA5FD469E","title":"上海市张江中学(江东路)","lon":"121.61783","lat":"31.20693","category":"55","category_name":"中学","address":"浦东张江江东路54号"},{"poiid":"B2094751D56CA6F94499","title":"钱万隆","lon":"121.61791","lat":"31.21051","category":"76","category_name":"上海菜","address":"浦东新区广兰路778号"},{"poiid":"B2094655D36DA7FD459F","title":"张江中学","lon":"121.61489","lat":"31.20926","category":"55","category_name":"中学","address":"浦东新区张江镇江东路54号"},{"poiid":"B2094655D36CA7F54098","title":"广兰路祖冲之路","lon":"121.61784","lat":"31.21093","category":"38","category_name":"公交车站","address":""},{"poiid":"B2094757D569A2F54398","title":"7天酒店(上海张江店)","lon":"121.61680447","lat":"31.2094496","category":"216","category_name":"经济型连锁酒店","address":"张江镇北街52号"},{"poiid":"B2094655D265ABFE419C","title":"张江镇政府大楼","lon":"121.61186","lat":"31.21066","category":"46","category_name":"楼宇","address":"张江路576号"},{"poiid":"B2094757D664A4FF4693","title":"兴庆红","lon":"121.61369882592","lat":"31.203151794114","category":"84","category_name":"西北菜","address":"浦东新区建中路280号(近高斯路)"},{"poiid":"B2094757D06AABFC419E","title":"湘云阁","lon":"121.61694","lat":"31.20237","category":"77","category_name":"湖南菜","address":"浦东新区紫薇路210号(近张江路口)"},{"poiid":"B2094757DA65A5FA4898","title":"如家连锁酒店（上海张江园区店）","lon":"121.6164663","lat":"31.20461857","category":"216","category_name":"经济型连锁酒店","address":"上海市浦东新区张江镇建中路3弄29号(近张江路)"},{"poiid":"B2094757D168A5F94298","title":"张江中学游泳馆","lon":"121.61602067","lat":"31.20917163","category":"253","category_name":"校园生活","address":"浦东新区张江镇田园路88号"},{"poiid":"B2094654DA6AA6F4429A","title":"广兰名苑","lon":"121.62022","lat":"31.20352","category":"47","category_name":"住宅区","address":"上海市浦东新区广兰路1166弄"},{"poiid":"B2094757D06BA5FB4693","title":"苏武牧羊(张江店)","lon":"121.62132","lat":"31.20456","category":"86","category_name":"火锅店","address":"浦东新区广兰路1128号(近紫薇路)"},{"poiid":"B2094654DB69AAF5439F","title":"交江大楼","lon":"121.619659","lat":"31.211054","category":"46","category_name":"楼宇","address":"上海市浦东新区川北公路3042号"},{"poiid":"B2094757D065A0F9439F","title":"人间网","lon":"121.6162033","lat":"31.209308624","category":"500","category_name":"未知分类","address":"上海张江路91号10栋"},{"poiid":"B2094751D56AA3F5459D","title":"碧云国际社区一期","lon":"121.618073","lat":"31.208497","category":"47","category_name":"住宅区","address":null},{"poiid":"B2094654DA6AA5FC419C","title":"牧羊寨","lon":"121.61688","lat":"31.20285","category":"70","category_name":"综合酒楼","address":"浦东新区张江镇紫薇路222号(近张江路)"},{"poiid":"B2094750D76EA0FC4799","title":"小厨面(张江路店)","lon":"121.616","lat":"31.2041","category":"68","category_name":"快餐厅","address":"浦东新区张江路666号(近紫微路)"},{"poiid":"B2094654DA6AA5FD4092","title":"张江镇体育中心(张江镇)","lon":"121.61784","lat":"31.20693","category":"224","category_name":"综合体育馆","address":""},{"poiid":"B2094751DA6DA1F4439E","title":"南京东路步行街","lon":"121.6131571213111","lat":"31.21102562801074","category":"248","category_name":"生活娱乐","address":"上海市"},{"poiid":"B2094757D465A2F4429F","title":"龙江菜饺子馆","lon":"121.617213054","lat":"31.203894793","category":"68","category_name":"快餐厅","address":"浦东新区张江路678号(近紫薇路)"},{"poiid":"B2094750DA6EA7FB419B","title":"浦东图书馆","lon":"121.617721","lat":"31.211481","category":"500","category_name":"未知分类","address":null},{"poiid":"B2094757D66CA6F8499C","title":"城市经典 四期。高迪","lon":"121.619221975","lat":"31.2138426774","category":"500","category_name":"未知分类","address":"上海市浦东新区广兰路"},{"poiid":"B2094757D66DA1FE429D","title":"养生粥","lon":"121.616156975","lat":"31.2044584579","category":"68","category_name":"快餐厅","address":"浦东新区张江路668号(近张江路建中路)"},{"poiid":"B2094654DA6AA5FE429A","title":"浦东新区张江镇中心小学","lon":"121.61893","lat":"31.21059","category":"56","category_name":"小学","address":"张江镇田园路168"},{"poiid":"B2094757D06BA5FA4393","title":"张江中学羽毛球馆","lon":"121.61750507","lat":"31.206879063","category":"253","category_name":"校园生活","address":"浦东新区张江镇江东路54号(张江路祖冲之路)"},{"poiid":"B2094655D36DA2F9479F","title":"广兰路吕家浜桥","lon":"121.6184","lat":"31.20897","category":"250","category_name":"公园户外","address":""},{"poiid":"B2094757D06EAAF84399","title":"广兰路地铁站","lon":"121.61999759","lat":"31.210776628","category":"36","category_name":"地铁站","address":"上海轨道交通二号线广兰路站"},{"poiid":"B2094757D06FA1FC499C","title":"动漫博物馆","lon":"121.611773","lat":"31.212253","category":"182","category_name":"博物馆","address":"浦东新区张江路69号(近丹桂路)"},{"poiid":"B2094757D465A3F9409B","title":"深山老屋 张江路店","lon":"121.61209","lat":"31.21124","category":"260","category_name":"其他","address":"浦东新区张江路91号(近龙东大道)"},{"poiid":"B2094757D06FA5F9429B","title":"汤豪仕汤馆(张江店)","lon":"121.6168","lat":"31.2023","category":"76","category_name":"上海菜","address":"浦东新区紫薇路200号(近张江路)"},{"poiid":"B2094655D36DA6FD439B","title":"广兰路","lon":"121.61996","lat":"31.21077","category":"38","category_name":"公交车站","address":""},{"poiid":"B2094655D36DA7FB449F","title":"祖冲之路张江路","lon":"121.61147","lat":"31.20692","category":"38","category_name":"公交车站","address":""},{"poiid":"B2094757D06FA7F4489D","title":"张江行政服务中心","lon":"121.61096954","lat":"31.213911056","category":"46","category_name":"楼宇","address":"上海张江路39号"},{"poiid":"B2094655D36DA1F4479E","title":"香楠小区","lon":"121.61279","lat":"31.216309","category":"47","category_name":"住宅区","address":"上海香楠路199弄"},{"poiid":"B2094655D26FA4F8449C","title":"上海拉卡菲大酒店","lon":"121.61592","lat":"31.20228","category":"76","category_name":"上海菜","address":"浦东新区浦东新区紫薇路178号(近张江镇)"},{"poiid":"B2094757D069ABFC4092","title":"张江中学足球场","lon":"121.6172","lat":"31.20647","category":"253","category_name":"校园生活","address":"浦东新区江东路54号张江体育中心"},{"poiid":"B2094757D069A1FB439B","title":"容源大酒店","lon":"121.620157963","lat":"31.2053299054","category":"72","category_name":"广东菜","address":"浦东新区广兰路1080号(紫薇路口)"},{"poiid":"B2094757D06AA5F54799","title":"锦江之星(张江店)","lon":"121.61236","lat":"31.21097","category":"500","category_name":"未知分类","address":"上海市浦东新区张江路91号"},{"poiid":"B2094654DA6AA6F5419E","title":"张江步行街","lon":"121.61502","lat":"31.20352","category":"116","category_name":"特色商业街","address":""},{"poiid":"B2094757D069A6F84498","title":"佳思多食品料理店(张江店)","lon":"121.6148","lat":"31.2139","category":"91","category_name":"台湾菜","address":"浦东新区香楠路399弄2号会所1楼东区(丹桂路香楠路)"},{"poiid":"B2094757D069A6FF4299","title":"Jepson Bread(紫薇路店)","lon":"121.61634","lat":"31.20256","category":"67","category_name":"甜品店","address":"上海浦东新区紫薇路199号(近张江路)"},{"poiid":"B2094757D069A6FF4793","title":"夏宫别墅会所","lon":"121.61552429","lat":"31.210952758","category":"500","category_name":"未知分类","address":"上海香楠路488号"},{"poiid":"B2094757D065ABFC4899","title":"张江有轨电车1路广兰路祖冲之路站","lon":"121.618309631","lat":"31.2099641454","category":"36","category_name":"地铁站","address":"上海浦东新区广兰路祖冲之路交会口"},{"poiid":"B2094655D265A5F4459D","title":"格林豪泰酒店上海张江店","lon":"121.62062","lat":"31.20499","category":"216","category_name":"经济型连锁酒店","address":"浦东新区广兰路1090号"},{"poiid":"B2094757D069A4FB429B","title":"香香川菜","lon":"121.616353","lat":"31.203218","category":"71","category_name":"四川菜","address":"浦东新区张江镇紫薇路217号(近张江路)"},{"poiid":"B2094757D16EA1FB4692","title":"广兰公园","lon":"121.620380975","lat":"31.2052764771","category":"196","category_name":"公园","address":"浦东新区广兰路965号(近紫薇路)"},{"poiid":"B2094757DA65A5FB469E","title":"莫泰168（上海张江店）","lon":"121.615243","lat":"31.205405","category":"216","category_name":"经济型连锁酒店","address":"上海市浦东新区张江路605号(近张江镇江东路)"},{"poiid":"B2094654DA6AA6F4419C","title":"中国工商银行上海市张江支行","lon":"121.61593","lat":"31.20486","category":"150","category_name":"银行","address":"浦东新区张江高科技园区科苑路201号(碧波路郭守敬路)"},{"poiid":"B2094757D06AA2F84492","title":"舒悦大酒楼","lon":"121.61606","lat":"31.20386","category":"260","category_name":"其他","address":"浦东新区张江路665号德宏大厦(近农工商)"},{"poiid":"B2094757D164A7F8479A","title":"美阿丽韩国料理","lon":"121.61231","lat":"31.21069","category":"247","category_name":"餐饮美食","address":"浦东新区张江路(近紫微路)"},{"poiid":"B2094654DA6AA5FD469E","title":"上海市张江中学(江东路)","lon":"121.61783","lat":"31.20693","category":"55","category_name":"中学","address":"浦东张江江东路54号"},{"poiid":"B2094751D56CA6F94499","title":"钱万隆","lon":"121.61791","lat":"31.21051","category":"76","category_name":"上海菜","address":"浦东新区广兰路778号"},{"poiid":"B2094655D36DA7FD459F","title":"张江中学","lon":"121.61489","lat":"31.20926","category":"55","category_name":"中学","address":"浦东新区张江镇江东路54号"},{"poiid":"B2094655D36CA7F54098","title":"广兰路祖冲之路","lon":"121.61784","lat":"31.21093","category":"38","category_name":"公交车站","address":""},{"poiid":"B2094757D569A2F54398","title":"7天酒店(上海张江店)","lon":"121.61680447","lat":"31.2094496","category":"216","category_name":"经济型连锁酒店","address":"张江镇北街52号"},{"poiid":"B2094655D265ABFE419C","title":"张江镇政府大楼","lon":"121.61186","lat":"31.21066","category":"46","category_name":"楼宇","address":"张江路576号"},{"poiid":"B2094757D664A4FF4693","title":"兴庆红","lon":"121.61369882592","lat":"31.203151794114","category":"84","category_name":"西北菜","address":"浦东新区建中路280号(近高斯路)"},{"poiid":"B2094757D06AABFC419E","title":"湘云阁","lon":"121.61694","lat":"31.20237","category":"77","category_name":"湖南菜","address":"浦东新区紫薇路210号(近张江路口)"},{"poiid":"B2094757DA65A5FA4898","title":"如家连锁酒店（上海张江园区店）","lon":"121.6164663","lat":"31.20461857","category":"216","category_name":"经济型连锁酒店","address":"上海市浦东新区张江镇建中路3弄29号(近张江路)"},{"poiid":"B2094757D168A5F94298","title":"张江中学游泳馆","lon":"121.61602067","lat":"31.20917163","category":"253","category_name":"校园生活","address":"浦东新区张江镇田园路88号"},{"poiid":"B2094654DA6AA6F4429A","title":"广兰名苑","lon":"121.62022","lat":"31.20352","category":"47","category_name":"住宅区","address":"上海市浦东新区广兰路1166弄"},{"poiid":"B2094757D06BA5FB4693","title":"苏武牧羊(张江店)","lon":"121.62132","lat":"31.20456","category":"86","category_name":"火锅店","address":"浦东新区广兰路1128号(近紫薇路)"},{"poiid":"B2094654DB69AAF5439F","title":"交江大楼","lon":"121.619659","lat":"31.211054","category":"46","category_name":"楼宇","address":"上海市浦东新区川北公路3042号"},{"poiid":"B2094757D065A0F9439F","title":"人间网","lon":"121.6162033","lat":"31.209308624","category":"500","category_name":"未知分类","address":"上海张江路91号10栋"},{"poiid":"B2094751D56AA3F5459D","title":"碧云国际社区一期","lon":"121.618073","lat":"31.208497","category":"47","category_name":"住宅区","address":null},{"poiid":"B2094654DA6AA5FC419C","title":"牧羊寨","lon":"121.61688","lat":"31.20285","category":"70","category_name":"综合酒楼","address":"浦东新区张江镇紫薇路222号(近张江路)"},{"poiid":"B2094750D76EA0FC4799","title":"小厨面(张江路店)","lon":"121.616","lat":"31.2041","category":"68","category_name":"快餐厅","address":"浦东新区张江路666号(近紫微路)"},{"poiid":"B2094654DA6AA5FD4092","title":"张江镇体育中心(张江镇)","lon":"121.61784","lat":"31.20693","category":"224","category_name":"综合体育馆","address":""},{"poiid":"B2094751DA6DA1F4439E","title":"南京东路步行街","lon":"121.6131571213111","lat":"31.21102562801074","category":"248","category_name":"生活娱乐","address":"上海市"},{"poiid":"B2094757D465A2F4429F","title":"龙江菜饺子馆","lon":"121.617213054","lat":"31.203894793","category":"68","category_name":"快餐厅","address":"浦东新区张江路678号(近紫薇路)"},{"poiid":"B2094750DA6EA7FB419B","title":"浦东图书馆","lon":"121.617721","lat":"31.211481","category":"500","category_name":"未知分类","address":null},{"poiid":"B2094757D66CA6F8499C","title":"城市经典 四期。高迪","lon":"121.619221975","lat":"31.2138426774","category":"500","category_name":"未知分类","address":"上海市浦东新区广兰路"},{"poiid":"B2094757D66DA1FE429D","title":"养生粥","lon":"121.616156975","lat":"31.2044584579","category":"68","category_name":"快餐厅","address":"浦东新区张江路668号(近张江路建中路)"},{"poiid":"B2094654DA6AA5FE429A","title":"浦东新区张江镇中心小学","lon":"121.61893","lat":"31.21059","category":"56","category_name":"小学","address":"张江镇田园路168"},{"poiid":"B2094757D06BA5FA4393","title":"张江中学羽毛球馆","lon":"121.61750507","lat":"31.206879063","category":"253","category_name":"校园生活","address":"浦东新区张江镇江东路54号(张江路祖冲之路)"},{"poiid":"B2094655D36DA2F9479F","title":"广兰路吕家浜桥","lon":"121.6184","lat":"31.20897","category":"250","category_name":"公园户外","address":""},{"poiid":"B2094757D06EAAF84399","title":"广兰路地铁站","lon":"121.61999759","lat":"31.210776628","category":"36","category_name":"地铁站","address":"上海轨道交通二号线广兰路站"},{"poiid":"B2094757D06FA1FC499C","title":"动漫博物馆","lon":"121.611773","lat":"31.212253","category":"182","category_name":"博物馆","address":"浦东新区张江路69号(近丹桂路)"},{"poiid":"B2094757D465A3F9409B","title":"深山老屋 张江路店","lon":"121.61209","lat":"31.21124","category":"260","category_name":"其他","address":"浦东新区张江路91号(近龙东大道)"},{"poiid":"B2094757D06FA5F9429B","title":"汤豪仕汤馆(张江店)","lon":"121.6168","lat":"31.2023","category":"76","category_name":"上海菜","address":"浦东新区紫薇路200号(近张江路)"},{"poiid":"B2094655D36DA6FD439B","title":"广兰路","lon":"121.61996","lat":"31.21077","category":"38","category_name":"公交车站","address":""},{"poiid":"B2094655D36DA7FB449F","title":"祖冲之路张江路","lon":"121.61147","lat":"31.20692","category":"38","category_name":"公交车站","address":""},{"poiid":"B2094757D06FA7F4489D","title":"张江行政服务中心","lon":"121.61096954","lat":"31.213911056","category":"46","category_name":"楼宇","address":"上海张江路39号"},{"poiid":"B2094655D36DA1F4479E","title":"香楠小区","lon":"121.61279","lat":"31.216309","category":"47","category_name":"住宅区","address":"上海香楠路199弄"},{"poiid":"B2094655D26FA4F8449C","title":"上海拉卡菲大酒店","lon":"121.61592","lat":"31.20228","category":"76","category_name":"上海菜","address":"浦东新区浦东新区紫薇路178号(近张江镇)"},{"poiid":"B2094757D069ABFC4092","title":"张江中学足球场","lon":"121.6172","lat":"31.20647","category":"253","category_name":"校园生活","address":"浦东新区江东路54号张江体育中心"},{"poiid":"B2094757D069A1FB439B","title":"容源大酒店","lon":"121.620157963","lat":"31.2053299054","category":"72","category_name":"广东菜","address":"浦东新区广兰路1080号(紫薇路口)"},{"poiid":"B2094757D06AA5F54799","title":"锦江之星(张江店)","lon":"121.61236","lat":"31.21097","category":"500","category_name":"未知分类","address":"上海市浦东新区张江路91号"},{"poiid":"B2094654DA6AA6F5419E","title":"张江步行街","lon":"121.61502","lat":"31.20352","category":"116","category_name":"特色商业街","address":""},{"poiid":"B2094757D069A6F84498","title":"佳思多食品料理店(张江店)","lon":"121.6148","lat":"31.2139","category":"91","category_name":"台湾菜","address":"浦东新区香楠路399弄2号会所1楼东区(丹桂路香楠路)"},{"poiid":"B2094757D069A6FF4299","title":"Jepson Bread(紫薇路店)","lon":"121.61634","lat":"31.20256","category":"67","category_name":"甜品店","address":"上海浦东新区紫薇路199号(近张江路)"},{"poiid":"B2094757D069A6FF4793","title":"夏宫别墅会所","lon":"121.61552429","lat":"31.210952758","category":"500","category_name":"未知分类","address":"上海香楠路488号"},{"poiid":"B2094757D065ABFC4899","title":"张江有轨电车1路广兰路祖冲之路站","lon":"121.618309631","lat":"31.2099641454","category":"36","category_name":"地铁站","address":"上海浦东新区广兰路祖冲之路交会口"},{"poiid":"B2094655D265A5F4459D","title":"格林豪泰酒店上海张江店","lon":"121.62062","lat":"31.20499","category":"216","category_name":"经济型连锁酒店","address":"浦东新区广兰路1090号"},{"poiid":"B2094757D069A4FB429B","title":"香香川菜","lon":"121.616353","lat":"31.203218","category":"71","category_name":"四川菜","address":"浦东新区张江镇紫薇路217号(近张江路)"},{"poiid":"B2094757D16EA1FB4692","title":"广兰公园","lon":"121.620380975","lat":"31.2052764771","category":"196","category_name":"公园","address":"浦东新区广兰路965号(近紫薇路)"},{"poiid":"B2094757DA65A5FB469E","title":"莫泰168（上海张江店）","lon":"121.615243","lat":"31.205405","category":"216","category_name":"经济型连锁酒店","address":"上海市浦东新区张江路605号(近张江镇江东路)"},{"poiid":"B2094654DA6AA6F4419C","title":"中国工商银行上海市张江支行","lon":"121.61593","lat":"31.20486","category":"150","category_name":"银行","address":"浦东新区张江高科技园区科苑路201号(碧波路郭守敬路)"},{"poiid":"B2094757D06AA2F84492","title":"舒悦大酒楼","lon":"121.61606","lat":"31.20386","category":"260","category_name":"其他","address":"浦东新区张江路665号德宏大厦(近农工商)"},{"poiid":"B2094757D164A7F8479A","title":"美阿丽韩国料理","lon":"121.61231","lat":"31.21069","category":"247","category_name":"餐饮美食","address":"浦东新区张江路(近紫微路)"},{"poiid":"B2094654DA6AA5FD469E","title":"上海市张江中学(江东路)","lon":"121.61783","lat":"31.20693","category":"55","category_name":"中学","address":"浦东张江江东路54号"},{"poiid":"B2094751D56CA6F94499","title":"钱万隆","lon":"121.61791","lat":"31.21051","category":"76","category_name":"上海菜","address":"浦东新区广兰路778号"},{"poiid":"B2094655D36DA7FD459F","title":"张江中学","lon":"121.61489","lat":"31.20926","category":"55","category_name":"中学","address":"浦东新区张江镇江东路54号"},{"poiid":"B2094655D36CA7F54098","title":"广兰路祖冲之路","lon":"121.61784","lat":"31.21093","category":"38","category_name":"公交车站","address":""},{"poiid":"B2094757D569A2F54398","title":"7天酒店(上海张江店)","lon":"121.61680447","lat":"31.2094496","category":"216","category_name":"经济型连锁酒店","address":"张江镇北街52号"},{"poiid":"B2094655D265ABFE419C","title":"张江镇政府大楼","lon":"121.61186","lat":"31.21066","category":"46","category_name":"楼宇","address":"张江路576号"},{"poiid":"B2094757D664A4FF4693","title":"兴庆红","lon":"121.61369882592","lat":"31.203151794114","category":"84","category_name":"西北菜","address":"浦东新区建中路280号(近高斯路)"},{"poiid":"B2094757D06AABFC419E","title":"湘云阁","lon":"121.61694","lat":"31.20237","category":"77","category_name":"湖南菜","address":"浦东新区紫薇路210号(近张江路口)"},{"poiid":"B2094757DA65A5FA4898","title":"如家连锁酒店（上海张江园区店）","lon":"121.6164663","lat":"31.20461857","category":"216","category_name":"经济型连锁酒店","address":"上海市浦东新区张江镇建中路3弄29号(近张江路)"},{"poiid":"B2094757D168A5F94298","title":"张江中学游泳馆","lon":"121.61602067","lat":"31.20917163","category":"253","category_name":"校园生活","address":"浦东新区张江镇田园路88号"},{"poiid":"B2094654DA6AA6F4429A","title":"广兰名苑","lon":"121.62022","lat":"31.20352","category":"47","category_name":"住宅区","address":"上海市浦东新区广兰路1166弄"},{"poiid":"B2094757D06BA5FB4693","title":"苏武牧羊(张江店)","lon":"121.62132","lat":"31.20456","category":"86","category_name":"火锅店","address":"浦东新区广兰路1128号(近紫薇路)"},{"poiid":"B2094654DB69AAF5439F","title":"交江大楼","lon":"121.619659","lat":"31.211054","category":"46","category_name":"楼宇","address":"上海市浦东新区川北公路3042号"},{"poiid":"B2094757D065A0F9439F","title":"人间网","lon":"121.6162033","lat":"31.209308624","category":"500","category_name":"未知分类","address":"上海张江路91号10栋"},{"poiid":"B2094751D56AA3F5459D","title":"碧云国际社区一期","lon":"121.618073","lat":"31.208497","category":"47","category_name":"住宅区","address":null},{"poiid":"B2094654DA6AA5FC419C","title":"牧羊寨","lon":"121.61688","lat":"31.20285","category":"70","category_name":"综合酒楼","address":"浦东新区张江镇紫薇路222号(近张江路)"},{"poiid":"B2094750D76EA0FC4799","title":"小厨面(张江路店)","lon":"121.616","lat":"31.2041","category":"68","category_name":"快餐厅","address":"浦东新区张江路666号(近紫微路)"},{"poiid":"B2094654DA6AA5FD4092","title":"张江镇体育中心(张江镇)","lon":"121.61784","lat":"31.20693","category":"224","category_name":"综合体育馆","address":""},{"poiid":"B2094751DA6DA1F4439E","title":"南京东路步行街","lon":"121.6131571213111","lat":"31.21102562801074","category":"248","category_name":"生活娱乐","address":"上海市"},{"poiid":"B2094757D465A2F4429F","title":"龙江菜饺子馆","lon":"121.617213054","lat":"31.203894793","category":"68","category_name":"快餐厅","address":"浦东新区张江路678号(近紫薇路)"},{"poiid":"B2094750DA6EA7FB419B","title":"浦东图书馆","lon":"121.617721","lat":"31.211481","category":"500","category_name":"未知分类","address":null},{"poiid":"B2094757D66CA6F8499C","title":"城市经典 四期。高迪","lon":"121.619221975","lat":"31.2138426774","category":"500","category_name":"未知分类","address":"上海市浦东新区广兰路"},{"poiid":"B2094757D66DA1FE429D","title":"养生粥","lon":"121.616156975","lat":"31.2044584579","category":"68","category_name":"快餐厅","address":"浦东新区张江路668号(近张江路建中路)"},{"poiid":"B2094654DA6AA5FE429A","title":"浦东新区张江镇中心小学","lon":"121.61893","lat":"31.21059","category":"56","category_name":"小学","address":"张江镇田园路168"},{"poiid":"B2094757D06BA5FA4393","title":"张江中学羽毛球馆","lon":"121.61750507","lat":"31.206879063","category":"253","category_name":"校园生活","address":"浦东新区张江镇江东路54号(张江路祖冲之路)"},{"poiid":"B2094655D36DA2F9479F","title":"广兰路吕家浜桥","lon":"121.6184","lat":"31.20897","category":"250","category_name":"公园户外","address":""}]