[{"poiid":"B2094654DB64A3FA4799","title":"张江集电港","lon":"121.63318","lat":"31.22205","category":"252","category_name":"楼宇机构","address":"卫清西路139_149号等"},{"poiid":"B2094757D06FABFD439A","title":"张江集电港二期","lon":"121.635397","lat":"31.216483","category":"47","category_name":"住宅区","address":"浦东新区张东路1387号"},{"poiid":"B2094757D06EAAF94799","title":"妈妈糖休闲咖啡馆 mamatown","lon":"121.62242","lat":"31.21869","category":"94","category_name":"西餐厅","address":"浦东新区青桐路199弄中芯花园23号"},{"poiid":"B2094757D06FA1F54498","title":"永达国际汽车广场","lon":"121.62713285","lat":"31.222678767","category":"500","category_name":"未知分类","address":"上海龙东大道2777号"},{"poiid":"B2094757D06AA4FA4692","title":"展讯中心","lon":"121.634","lat":"31.2169","category":"500","category_name":"未知分类","address":"上海浦东新区张江高科祖冲之路2288弄1号楼"},{"poiid":"B2094757D068AAF84893","title":"龙东商务酒店","lon":"121.633540458","lat":"31.2227017056","category":"214","category_name":"四星级宾馆","address":"浦东新区龙东大道3000号(张东路口)"},{"poiid":"B2094757D068A0F5479E","title":"宝诚宝马4S店(龙东大道店)","lon":"121.630592","lat":"31.224612","category":"158","category_name":"汽车销售","address":"浦东新区龙东大道2777号(近申江路)"},{"poiid":"B2094757D068A4F8469C","title":"唐园大酒店","lon":"121.64786","lat":"31.22455","category":"76","category_name":"上海菜","address":"浦东新区唐陆路2400号(近龙东大道)"},{"poiid":"B2094757D068A3F9499E","title":"毕加索小镇","lon":"121.64792633","lat":"31.221918106","category":"500","category_name":"未知分类","address":"上海市浦东新区春泉路45弄"},{"poiid":"B2094750D76CA4FC479C","title":"妈妈糖2.0(张东路店)","lon":"121.634","lat":"31.2187","category":"94","category_name":"西餐厅","address":"浦东新区张东路1387号集电子社区中心2楼"},{"poiid":"B2094750DA6DA0FB429E","title":"张江家乐福","lon":"121.638771","lat":"31.203567","category":"249","category_name":"购物服务","address":"浦东新区张江高科中路2860号(近张东路)"},{"poiid":"B2094757D068A2FB4592","title":"台北雅厨","lon":"121.62232","lat":"31.21868","category":"91","category_name":"台湾菜","address":"浦东新区青桐路199弄中芯花园15号(近广兰路)"},{"poiid":"B2094757D064AAF5499F","title":"瑞慈健康管理中心(张东路店)","lon":"121.6329","lat":"31.21723","category":"162","category_name":"医院","address":"上海浦东新区张东路1388号15幢(近丹桂路)"},{"poiid":"B2094655D26EA0F8409C","title":"强生千亩园林餐厅","lon":"121.63900116319462","lat":"31.22349341978972","category":"87","category_name":"特色／地方风味餐厅","address":"上海市浦东新区龙东大道3166号"},{"poiid":"B2094757D06FA4F4479E","title":"友乐达台北精致面馆(张江店)","lon":"121.62252","lat":"31.21871","category":"68","category_name":"快餐厅","address":"浦东新区青桐路199弄中芯花园17号(近广兰路)"},{"poiid":"B2094757D064A4FC4893","title":"小城故事(浦东店)","lon":"121.63064","lat":"31.22243","category":"91","category_name":"台湾菜","address":"浦东新区龙东大道3000号龙东商务酒店2号楼102室(张东路口)"},{"poiid":"B2094654DB64A3FA469D","title":"张江集电港·会展中心(张东路)","lon":"121.63236","lat":"31.22277","category":"185","category_name":"会展中心","address":"龙东大道3000号"},{"poiid":"B2094757D069A6FE429B","title":"51job","lon":"121.633905","lat":"31.217677","category":"500","category_name":"未知分类","address":"上海张东路1387弄3号"},{"poiid":"B2094757D069AAF5459A","title":"外汇交易中心","lon":"121.63539886","lat":"31.216482162","category":"500","category_name":"未知分类","address":"上海张东路1387号"},{"poiid":"B2094757D06BAAFD479C","title":"中共上海市浦东新区区委党校","lon":"121.62418597","lat":"31.219276804","category":"260","category_name":"其他","address":"上海市浦东新区龙东大道"},{"poiid":"B2094757D065A1FD4092","title":"AMD","lon":"121.63495156","lat":"31.220122434","category":"46","category_name":"楼宇","address":"上海张东路1387号第46-48幢"},{"poiid":"B2094655D36DA0F54292","title":"玉兰香苑二期A块","lon":"121.63422596141","lat":"31.202460117491","category":"38","category_name":"公交车站","address":"益江路511弄"},{"poiid":"B2094757D069A5FE489C","title":"威尔士健身会所(张江店)","lon":"121.62643","lat":"31.20966","category":"221","category_name":"健身中心","address":"浦东新区祖冲之路2288号(近申江路)"},{"poiid":"B2094654DA6AA5FD409F","title":"中芯花园","lon":"121.6208","lat":"31.218477","category":"47","category_name":"住宅区","address":"浦东新区丹桂路345弄"},{"poiid":"B2094757D16CA4FD4493","title":"张江集电港二期1388号","lon":"121.63578897","lat":"31.21655274","category":"47","category_name":"住宅区","address":"上海市浦东新区张东路"},{"poiid":"B2094757D164A3FB4392","title":"迦拿咖啡","lon":"121.63431","lat":"31.21658","category":"94","category_name":"西餐厅","address":"浦东新区张东路1387号张江集电港二期21幢101室"},{"poiid":"B2094654DA6BA2F4409B","title":"科技领袖之都(金秋路)","lon":"121.6354","lat":"31.21648","category":"47","category_name":"住宅区","address":"上海市浦东新区张东路"},{"poiid":"B2094655D36CA6F9429C","title":"芳春路金秋路","lon":"121.63794","lat":"31.21973","category":"38","category_name":"公交车站","address":""},{"poiid":"B2094655D269A4F84992","title":"上海永达雪佛兰浦东店","lon":"121.6304","lat":"31.22433","category":"158","category_name":"汽车销售","address":"浦东新区龙东大道2777号(近申江路)"},{"poiid":"B2094757D164AAF54999","title":"肯德基","lon":"121.63701427","lat":"31.203571737","category":"68","category_name":"快餐厅","address":"浦东新区高科中路2860号家乐福(近外环线)"},{"poiid":"B2094757D06BA5FD4499","title":"永和大王(张江家乐福店)","lon":"121.63938","lat":"31.20406","category":"68","category_name":"快餐厅","address":"浦东新区高科中路2860号家乐福2楼"},{"poiid":"B2094757DA64ABF8479E","title":"张江集电港","lon":"121.635391","lat":"31.217871","category":"252","category_name":"楼宇机构","address":"卫清西路139_149号等"},{"poiid":"B2094654DA6AA4FD4393","title":"塞纳阳光西餐厅","lon":"121.631737054","lat":"31.223521793","category":"94","category_name":"西餐厅","address":"浦东新区龙东大道3000号龙东商务酒店内(张东路口)"},{"poiid":"B2094750D568ABF84299","title":"上海天之骄子","lon":"121.62937","lat":"31.211645","category":"47","category_name":"住宅区","address":"浦东祖冲之路2305号(盛夏路口)"},{"poiid":"B2094750D36BA4F9449C","title":"美国国家仪器","lon":"121.63624143981","lat":"31.219589979867","category":"634","category_name":"IT类公司","address":"张江集电港二期张东路1387号43、45幢"},{"poiid":"B2094757D66CABFA429E","title":"稻亭","lon":"121.632482575","lat":"31.2207134381","category":"68","category_name":"快餐厅","address":"浦东新区龙东大道3000号10号楼B1楼(近龙东大酒店)"},{"poiid":"B2094655D36DA0F54293","title":"玉兰香苑二期C块","lon":"121.63363854614","lat":"31.203943272246","category":"38","category_name":"公交车站","address":"益江路396弄"},{"poiid":"B2094655D36DA7FD4298","title":"张东路金秋路","lon":"121.63276","lat":"31.21656","category":"38","category_name":"公交车站","address":""},{"poiid":"B2094757D66EA6F94793","title":"张江国际豪庭","lon":"121.642386375","lat":"31.2168653481","category":"252","category_name":"楼宇机构","address":"上海银樽路58号"},{"poiid":"B2094757D06AA3FB479E","title":"感恩堂","lon":"121.62321","lat":"31.21502","category":"500","category_name":"未知分类","address":"浦东新区丹桂路700号(丹桂路青桐路)"},{"poiid":"B2094757D065ABFE4592","title":"上海恩艾仪器有限公司","lon":"121.637413025","lat":"31.2203922272","category":"263","category_name":"公司","address":"上海浦东新区张东路1387号第45幢和第43幢"},{"poiid":"B2094757D16DAAFF479E","title":"碗碗香","lon":"121.633619975","lat":"31.2194088076","category":"500","category_name":"未知分类","address":"上海市浦东新区丹桂路"},{"poiid":"B2094757D169A2FE4093","title":"港式茶餐厅","lon":"121.63091","lat":"31.22216","category":"72","category_name":"广东菜","address":"浦东新区龙东大道3000号张江集电港1号楼B座1楼(全家超市对面)"},{"poiid":"B2094655D36DA2FB4092","title":"吕三桥","lon":"121.64053","lat":"31.21732","category":"250","category_name":"公园户外","address":""},{"poiid":"B2094654DA6AAAFD429D","title":"唐人苑","lon":"121.64923","lat":"31.208265","category":"47","category_name":"住宅区","address":"唐镇路127弄"},{"poiid":"B2094654DA6AA5FC479C","title":"城市经典","lon":"121.629","lat":"31.2244","category":"47","category_name":"住宅区","address":"青桐路618弄"},{"poiid":"B2094655D26AA6FF439D","title":"明轩御膳(龙东大道店)","lon":"121.63064","lat":"31.22243","category":"72","category_name":"广东菜","address":"浦东新区龙东大道3000号龙东商务酒店1楼(张东路口)"},{"poiid":"B2094750D26AABFD4998","title":"金葵新城","lon":"121.634536","lat":"31.225202","category":"47","category_name":"住宅区","address":"浦东新区金葵路945弄"},{"poiid":"B2094757D068AAFD489C","title":"全家便利(龙东大道店)","lon":"121.633517","lat":"31.223027","category":"117","category_name":"便民商店/便利店","address":"上海浦东新区龙东大道3000号龙东商务酒店1幢群楼102室(张东路口)"},{"poiid":"B2094757D064A4FD4993","title":"张江名流豪庭","lon":"121.63859283","lat":"31.215198259","category":"500","category_name":"未知分类","address":"上海浦东新区春泉路45弄"},{"poiid":"B2094654DB64A3FA4799","title":"张江集电港","lon":"121.63318","lat":"31.22205","category":"252","category_name":"楼宇机构","address":"卫清西路139_149号等"},{"poiid":"B2094757D06FABFD439A","title":"张江集电港二期","lon":"121.635397","lat":"31.216483","category":"47","category_name":"住宅区","address":"浦东新区张东路1387号"},{"poiid":"B2094757D06EAAF94799","title":"妈妈糖休闲咖啡馆 mamatown","lon":"121.62242","lat":"31.21869","category":"94","category_name":"西餐厅","address":"浦东新区青桐路199弄中芯花园23号"},{"poiid":"B2094757D06FA1F54498","title":"永达国际汽车广场","lon":"121.62713285","lat":"31.222678767","category":"500","category_name":"未知分类","address":"上海龙东大道2777号"},{"poiid":"B2094757D06AA4FA4692","title":"展讯中心","lon":"121.634","lat":"31.2169","category":"500","category_name":"未知分类","address":"上海浦东新区张江高科祖冲之路2288弄1号楼"},{"poiid":"B2094757D068AAF84893","title":"龙东商务酒店","lon":"121.633540458","lat":"31.2227017056","category":"214","category_name":"四星级宾馆","address":"浦东新区龙东大道3000号(张东路口)"},{"poiid":"B2094757D068A0F5479E","title":"宝诚宝马4S店(龙东大道店)","lon":"121.630592","lat":"31.224612","category":"158","category_name":"汽车销售","address":"浦东新区龙东大道2777号(近申江路)"},{"poiid":"B2094757D068A4F8469C","title":"唐园大酒店","lon":"121.64786","lat":"31.22455","category":"76","category_name":"上海菜","address":"浦东新区唐陆路2400号(近龙东大道)"},{"poiid":"B2094757D068A3F9499E","title":"毕加索小镇","lon":"121.64792633","lat":"31.221918106","category":"500","category_name":"未知分类","address":"上海市浦东新区春泉路45弄"},{"poiid":"B2094750D76CA4FC479C","title":"妈妈糖2.0(张东路店)","lon":"121.634","lat":"31.2187","category":"94","category_name":"西餐厅","address":"浦东新区张东路1387号集电子社区中心2楼"},{"poiid":"B2094750DA6DA0FB429E","title":"张江家乐福","lon":"121.638771","lat":"31.203567","category":"249","category_name":"购物服务","address":"浦东新区张江高科中路2860号(近张东路)"},{"poiid":"B2094757D068A2FB4592","title":"台北雅厨","lon":"121.62232","lat":"31.21868","category":"91","category_name":"台湾菜","address":"浦东新区青桐路199弄中芯花园15号(近广兰路)"},{"poiid":"B2094757D064AAF5499F","title":"瑞慈健康管理中心(张东路店)","lon":"121.6329","lat":"31.21723","category":"162","category_name":"医院","address":"上海浦东新区张东路1388号15幢(近丹桂路)"},{"poiid":"B2094655D26EA0F8409C","title":"强生千亩园林餐厅","lon":"121.63900116319462","lat":"31.22349341978972","category":"87","category_name":"特色／地方风味餐厅","address":"上海市浦东新区龙东大道3166号"},{"poiid":"B2094757D06FA4F4479E","title":"友乐达台北精致面馆(张江店)","lon":"121.62252","lat":"31.21871","category":"68","category_name":"快餐厅","address":"浦东新区青桐路199弄中芯花园17号(近广兰路)"},{"poiid":"B2094757D064A4FC4893","title":"小城故事(浦东店)","lon":"121.63064","lat":"31.22243","category":"91","category_name":"台湾菜","address":"浦东新区龙东大道3000号龙东商务酒店2号楼102室(张东路口)"},{"poiid":"B2094654DB64A3FA469D","title":"张江集电港·会展中心(张东路)","lon":"121.63236","lat":"31.22277","category":"185","category_name":"会展中心","address":"龙东大道3000号"},{"poiid":"B2094757D069A6FE429B","title":"51job","lon":"121.633905","lat":"31.217677","category":"500","category_name":"未知分类","address":"上海张东路1387弄3号"},{"poiid":"B2094757D069AAF5459A","title":"外汇交易中心","lon":"121.63539886","lat":"31.216482162","category":"500","category_name":"未知分类","address":"上海张东路1387号"},{"poiid":"B2094757D06BAAFD479C","title":"中共上海市浦东新区区委党校","lon":"121.62418597","lat":"31.219276804","category":"260","category_name":"其他","address":"上海市浦东新区龙东大道"},{"poiid":"B2094757D065A1FD4092","title":"AMD","lon":"121.63495156","lat":"31.220122434","category":"46","category_name":"楼宇","address":"上海张东路1387号第46-48幢"},{"poiid":"B2094655D36DA0F54292","title":"玉兰香苑二期A块","lon":"121.63422596141","lat":"31.202460117491","category":"38","category_name":"公交车站","address":"益江路511弄"},{"poiid":"B2094757D069A5FE489C","title":"威尔士健身会所(张江店)","lon":"121.62643","lat":"31.20966","category":"221","category_name":"健身中心","address":"浦东新区祖冲之路2288号(近申江路)"},{"poiid":"B2094654DA6AA5FD409F","title":"中芯花园","lon":"121.6208","lat":"31.218477","category":"47","category_name":"住宅区","address":"浦东新区丹桂路345弄"},{"poiid":"B2094757D16CA4FD4493","title":"张江集电港二期1388号","lon":"121.63578897","lat":"31.21655274","category":"47","category_name":"住宅区","address":"上海市浦东新区张东路"},{"poiid":"B2094757D164A3FB4392","title":"迦拿咖啡","lon":"121.63431","lat":"31.21658","category":"94","category_name":"西餐厅","address":"浦东新区张东路1387号张江集电港二期21幢101室"},{"poiid":"B2094654DA6BA2F4409B","title":"科技领袖之都(金秋路)","lon":"121.6354","lat":"31.21648","category":"47","category_name":"住宅区","address":"上海市浦东新区张东路"},{"poiid":"B2094655D36CA6F9429C","title":"芳春路金秋路","lon":"121.63794","lat":"31.21973","category":"38","category_name":"公交车站","address":""},{"poiid":"B2094655D269A4F84992","title":"上海永达雪佛兰浦东店","lon":"121.6304","lat":"31.22433","category":"158","category_name":"汽车销售","address":"浦东新区龙东大道2777号(近申江路)"},{"poiid":"B2094757D164AAF54999","title":"肯德基","lon":"121.63701427","lat":"31.203571737","category":"68","category_name":"快餐厅","address":"浦东新区高科中路2860号家乐福(近外环线)"},{"poiid":"B2094757D06BA5FD4499","title":"永和大王(张江家乐福店)","lon":"121.63938","lat":"31.20406","category":"68","category_name":"快餐厅","address":"浦东新区高科中路2860号家乐福2楼"},{"poiid":"B2094757DA64ABF8479E","title":"张江集电港","lon":"121.635391","lat":"31.217871","category":"252","category_name":"楼宇机构","address":"卫清西路139_149号等"},{"poiid":"B2094654DA6AA4FD4393","title":"塞纳阳光西餐厅","lon":"121.631737054","lat":"31.223521793","category":"94","category_name":"西餐厅","address":"浦东新区龙东大道3000号龙东商务酒店内(张东路口)"},{"poiid":"B2094750D568ABF84299","title":"上海天之骄子","lon":"121.62937","lat":"31.211645","category":"47","category_name":"住宅区","address":"浦东祖冲之路2305号(盛夏路口)"},{"poiid":"B2094750D36BA4F9449C","title":"美国国家仪器","lon":"121.63624143981","lat":"31.219589979867","category":"634","category_name":"IT类公司","address":"张江集电港二期张东路1387号43、45幢"},{"poiid":"B2094757D66CABFA429E","title":"稻亭","lon":"121.632482575","lat":"31.2207134381","category":"68","category_name":"快餐厅","address":"浦东新区龙东大道3000号10号楼B1楼(近龙东大酒店)"},{"poiid":"B2094655D36DA0F54293","title":"玉兰香苑二期C块","lon":"121.63363854614","lat":"31.203943272246","category":"38","category_name":"公交车站","address":"益江路396弄"},{"poiid":"B2094655D36DA7FD4298","title":"张东路金秋路","lon":"121.63276","lat":"31.21656","category":"38","category_name":"公交车站","address":""},{"poiid":"B2094757D66EA6F94793","title":"张江国际豪庭","lon":"121.642386375","lat":"31.2168653481","category":"252","category_name":"楼宇机构","address":"上海银樽路58号"},{"poiid":"B2094757D06AA3FB479E","title":"感恩堂","lon":"121.62321","lat":"31.21502","category":"500","category_name":"未知分类","address":"浦东新区丹桂路700号(丹桂路青桐路)"},{"poiid":"B2094757D065ABFE4592","title":"上海恩艾仪器有限公司","lon":"121.637413025","lat":"31.2203922272","category":"263","category_name":"公司","address":"上海浦东新区张东路1387号第45幢和第43幢"},{"poiid":"B2094757D16DAAFF479E","title":"碗碗香","lon":"121.633619975","lat":"31.2194088076","category":"500","category_name":"未知分类","address":"上海市浦东新区丹桂路"},{"poiid":"B2094757D169A2FE4093","title":"港式茶餐厅","lon":"121.63091","lat":"31.22216","category":"72","category_name":"广东菜","address":"浦东新区龙东大道3000号张江集电港1号楼B座1楼(全家超市对面)"},{"poiid":"B2094655D36DA2FB4092","title":"吕三桥","lon":"121.64053","lat":"31.21732","category":"250","category_name":"公园户外","address":""},{"poiid":"B2094654DA6AAAFD429D","title":"唐人苑","lon":"121.64923","lat":"31.208265","category":"47","category_name":"住宅区","address":"唐镇路127弄"},{"poiid":"B2094654DA6AA5FC479C","title":"城市经典","lon":"121.629","lat":"31.2244","category":"47","category_name":"住宅区","address":"青桐路618弄"},{"poiid":"B2094655D26AA6FF439D","title":"明轩御膳(龙东大道店)","lon":"121.63064","lat":"31.22243","category":"72","category_name":"广东菜","address":"浦东新区龙东大道3000号龙东商务酒店1楼(张东路口)"},{"poiid":"B2094750D26AABFD4998","title":"金葵新城","lon":"121.634536","lat":"31.225202","category":"47","category_name":"住宅区","address":"浦东新区金葵路945弄"},{"poiid":"B2094757D068AAFD489C","title":"全家便利(龙东大道店)","lon":"121.633517","lat":"31.223027","category":"117","category_name":"便民商店/便利店","address":"上海浦东新区龙东大道3000号龙东商务酒店1幢群楼102室(张东路口)"},{"poiid":"B2094757D064A4FD4993","title":"张江名流豪庭","lon":"121.63859283","lat":"31.215198259","category":"500","category_name":"未知分类","address":"上海浦东新区春泉路45弄"},{"poiid":"B2094654DB64A3FA4799","title":"张江集电港","lon":"121.63318","lat":"31.22205","category":"252","category_name":"楼宇机构","address":"卫清西路139_149号等"},{"poiid":"B2094757D06FABFD439A","title":"张江集电港二期","lon":"121.635397","lat":"31.216483","category":"47","category_name":"住宅区","address":"浦东新区张东路1387号"},{"poiid":"B2094757D06EAAF94799","title":"妈妈糖休闲咖啡馆 mamatown","lon":"121.62242","lat":"31.21869","category":"94","category_name":"西餐厅","address":"浦东新区青桐路199弄中芯花园23号"},{"poiid":"B2094757D06FA1F54498","title":"永达国际汽车广场","lon":"121.62713285","lat":"31.222678767","category":"500","category_name":"未知分类","address":"上海龙东大道2777号"},{"poiid":"B2094757D06AA4FA4692","title":"展讯中心","lon":"121.634","lat":"31.2169","category":"500","category_name":"未知分类","address":"上海浦东新区张江高科祖冲之路2288弄1号楼"},{"poiid":"B2094757D068AAF84893","title":"龙东商务酒店","lon":"121.633540458","lat":"31.2227017056","category":"214","category_name":"四星级宾馆","address":"浦东新区龙东大道3000号(张东路口)"},{"poiid":"B2094757D068A0F5479E","title":"宝诚宝马4S店(龙东大道店)","lon":"121.630592","lat":"31.224612","category":"158","category_name":"汽车销售","address":"浦东新区龙东大道2777号(近申江路)"},{"poiid":"B2094757D068A4F8469C","title":"唐园大酒店","lon":"121.64786","lat":"31.22455","category":"76","category_name":"上海菜","address":"浦东新区唐陆路2400号(近龙东大道)"},{"poiid":"B2094757D068A3F9499E","title":"毕加索小镇","lon":"121.64792633","lat":"31.221918106","category":"500","category_name":"未知分类","address":"上海市浦东新区春泉路45弄"},{"poiid":"B2094750D76CA4FC479C","title":"妈妈糖2.0(张东路店)","lon":"121.634","lat":"31.2187","category":"94","category_name":"西餐厅","address":"浦东新区张东路1387号集电子社区中心2楼"},{"poiid":"B2094750DA6DA0FB429E","title":"张江家乐福","lon":"121.638771","lat":"31.203567","category":"249","category_name":"购物服务","address":"浦东新区张江高科中路2860号(近张东路)"},{"poiid":"B2094757D068A2FB4592","title":"台北雅厨","lon":"121.62232","lat":"31.21868","category":"91","category_name":"台湾菜","address":"浦东新区青桐路199弄中芯花园15号(近广兰路)"},{"poiid":"B2094757D064AAF5499F","title":"瑞慈健康管理中心(张东路店)","lon":"121.6329","lat":"31.21723","category":"162","category_name":"医院","address":"上海浦东新区张东路1388号15幢(近丹桂路)"},{"poiid":"B2094655D26EA0F8409C","title":"强生千亩园林餐厅","lon":"121.63900116319462","lat":"31.22349341978972","category":"87","category_name":"特色／地方风味餐厅","address":"上海市浦东新区龙东大道3166号"},{"poiid":"B2094757D06FA4F4479E","title":"友乐达台北精致面馆(张江店)","lon":"121.62252","lat":"31.21871","category":"68","category_name":"快餐厅","address":"浦东新区青桐路199弄中芯花园17号(近广兰路)"},{"poiid":"B2094757D064A4FC4893","title":"小城故事(浦东店)","lon":"121.63064","lat":"31.22243","category":"91","category_name":"台湾菜","address":"浦东新区龙东大道3000号龙东商务酒店2号楼102室(张东路口)"},{"poiid":"B2094654DB64A3FA469D","title":"张江集电港·会展中心(张东路)","lon":"121.63236","lat":"31.22277","category":"185","category_name":"会展中心","address":"龙东大道3000号"},{"poiid":"B2094757D069A6FE429B","title":"51job","lon":"121.633905","lat":"31.217677","category":"500","category_name":"未知分类","address":"上海张东路1387弄3号"},{"poiid":"B2094757D069AAF5459A","title":"外汇交易中心","lon":"121.63539886","lat":"31.216482162","category":"500","category_name":"未知分类","address":"上海张东路1387号"},{"poiid":"B2094757D06BAAFD479C","title":"中共上海市浦东新区区委党校","lon":"121.62418597","lat":"31.219276804","category":"260","category_name":"其他","address":"上海市浦东新区龙东大道"},{"poiid":"B2094757D065A1FD4092","title":"AMD","lon":"121.63495156","lat":"31.220122434","category":"46","category_name":"楼宇","address":"上海张东路1387号第46-48幢"},{"poiid":"B2094655D36DA0F54292","title":"玉兰香苑二期A块","lon":"121.63422596141","lat":"31.202460117491","category":"38","category_name":"公交车站","address":"益江路511弄"},{"poiid":"B2094757D069A5FE489C","title":"威尔士健身会所(张江店)","lon":"121.62643","lat":"31.20966","category":"221","category_name":"健身中心","address":"浦东新区祖冲之路2288号(近申江路)"},{"poiid":"B2094654DA6AA5FD409F","title":"中芯花园","lon":"121.6208","lat":"31.218477","category":"47","category_name":"住宅区","address":"浦东新区丹桂路345弄"},{"poiid":"B2094757D16CA4FD4493","title":"张江集电港二期1388号","lon":"121.63578897","lat":"31.21655274","category":"47","category_name":"住宅区","address":"上海市浦东新区张东路"},{"poiid":"B2094757D164A3FB4392","title":"迦拿咖啡","lon":"121.63431","lat":"31.21658","category":"94","category_name":"西餐厅","address":"浦东新区张东路1387号张江集电港二期21幢101室"},{"poiid":"B2094654DA6BA2F4409B","title":"科技领袖之都(金秋路)","lon":"121.6354","lat":"31.21648","category":"47","category_name":"住宅区","address":"上海市浦东新区张东路"},{"poiid":"B2094655D36CA6F9429C","title":"芳春路金秋路","lon":"121.63794","lat":"31.21973","category":"38","category_name":"公交车站","address":""},{"poiid":"B2094655D269A4F84992","title":"上海永达雪佛兰浦东店","lon":"121.6304","lat":"31.22433","category":"158","category_name":"汽车销售","address":"浦东新区龙东大道2777号(近申江路)"},{"poiid":"B2094757D164AAF54999","title":"肯德基","lon":"121.63701427","lat":"31.203571737","category":"68","category_name":"快餐厅","address":"浦东新区高科中路2860号家乐福(近外环线)"},{"poiid":"B2094757D06BA5FD4499","title":"永和大王(张江家乐福店)","lon":"121.63938","lat":"31.20406","category":"68","category_name":"快餐厅","address":"浦东新区高科中路2860号家乐福2楼"},{"poiid":"B2094757DA64ABF8479E","title":"张江集电港","lon":"121.635391","lat":"31.217871","category":"252","category_name":"楼宇机构","address":"卫清西路139_149号等"},{"poiid":"B2094654DA6AA4FD4393","title":"塞纳阳光西餐厅","lon":"121.631737054","lat":"31.223521793","category":"94","category_name":"西餐厅","address":"浦东新区龙东大道3000号龙东商务酒店内(张东路口)"},{"poiid":"B2094750D568ABF84299","title":"上海天之骄子","lon":"121.62937","lat":"31.211645","category":"47","category_name":"住宅区","address":"浦东祖冲之路2305号(盛夏路口)"},{"poiid":"B2094750D36BA4F9449C","title":"美国国家仪器","lon":"121.63624143981","lat":"31.219589979867","category":"634","category_name":"IT类公司","address":"张江集电港二期张东路1387号43、45幢"},{"poiid":"B2094757D66CABFA429E","title":"稻亭","lon":"121.632482575","lat":"31.2207134381","category":"68","category_name":"快餐厅","address":"浦东新区龙东大道3000号10号楼B1楼(近龙东大酒店)"},{"poiid":"B2094655D36DA0F54293","title":"玉兰香苑二期C块","lon":"121.63363854614","lat":"31.203943272246","category":"38","category_name":"公交车站","address":"益江路396弄"},{"poiid":"B2094655D36DA7FD4298","title":"张东路金秋路","lon":"121.63276","lat":"31.21656","category":"38","category_name":"公交车站","address":""},{"poiid":"B2094757D66EA6F94793","title":"张江国际豪庭","lon":"121.642386375","lat":"31.2168653481","category":"252","category_name":"楼宇机构","address":"上海银樽路58号"},{"poiid":"B2094757D06AA3FB479E","title":"感恩堂","lon":"121.62321","lat":"31.21502","category":"500","category_name":"未知分类","address":"浦东新区丹桂路700号(丹桂路青桐路)"},{"poiid":"B2094757D065ABFE4592","title":"上海恩艾仪器有限公司","lon":"121.637413025","lat":"31.2203922272","category":"263","category_name":"公司","address":"上海浦东新区张东路1387号第45幢和第43幢"},{"poiid":"B2094757D16DAAFF479E","title":"碗碗香","lon":"121.633619975","lat":"31.2194088076","category":"500","category_name":"未知分类","address":"上海市浦东新区丹桂路"},{"poiid":"B2094757D169A2FE4093","title":"港式茶餐厅","lon":"121.63091","lat":"31.22216","category":"72","category_name":"广东菜","address":"浦东新区龙东大道3000号张江集电港1号楼B座1楼(全家超市对面)"},{"poiid":"B2094655D36DA2FB4092","title":"吕三桥","lon":"121.64053","lat":"31.21732","category":"250","category_name":"公园户外","address":""},{"poiid":"B2094654DA6AAAFD429D","title":"唐人苑","lon":"121.64923","lat":"31.208265","category":"47","category_name":"住宅区","address":"唐镇路127弄"},{"poiid":"B2094654DA6AA5FC479C","title":"城市经典","lon":"121.629","lat":"31.2244","category":"47","category_name":"住宅区","address":"青桐路618弄"},{"poiid":"B2094655D26AA6FF439D","title":"明轩御膳(龙东大道店)","lon":"121.63064","lat":"31.22243","category":"72","category_name":"广东菜","address":"浦东新区龙东大道3000号龙东商务酒店1楼(张东路口)"},{"poiid":"B2094750D26AABFD4998","title":"金葵新城","lon":"121.634536","lat":"31.225202","category":"47","category_name":"住宅区","address":"浦东新区金葵路945弄"},{"poiid":"B2094757D068AAFD489C","title":"全家便利(龙东大道店)","lon":"121.633517","lat":"31.223027","category":"117","category_name":"便民商店/便利店","address":"上海浦东新区龙东大道3000号龙东商务酒店1幢群楼102室(张东路口)"},{"poiid":"B2094757D064A4FD4993","title":"张江名流豪庭","lon":"121.63859283","lat":"31.215198259","category":"500","category_name":"未知分类","address":"上海浦东新区春泉路45弄"},{"poiid":"B2094654DB64A3FA4799","title":"张江集电港","lon":"121.63318","lat":"31.22205","category":"252","category_name":"楼宇机构","address":"卫清西路139_149号等"},{"poiid":"B2094757D06FABFD439A","title":"张江集电港二期","lon":"121.635397","lat":"31.216483","category":"47","category_name":"住宅区","address":"浦东新区张东路1387号"},{"poiid":"B2094757D06EAAF94799","title":"妈妈糖休闲咖啡馆 mamatown","lon":"121.62242","lat":"31.21869","category":"94","category_name":"西餐厅","address":"浦东新区青桐路199弄中芯花园23号"},{"poiid":"B2094757D06FA1F54498","title":"永达国际汽车广场","lon":"121.62713285","lat":"31.222678767","category":"500","category_name":"未知分类","address":"上海龙东大道2777号"},{"poiid":"B2094757D06AA4FA4692","title":"展讯中心","lon":"121.634","lat":"31.2169","category":"500","category_name":"未知分类","address":"上海浦东新区张江高科祖冲之路2288弄1号楼"},{"poiid":"B2094757D068AAF84893","title":"龙东商务酒店","lon":"121.633540458","lat":"31.2227017056","category":"214","category_name":"四星级宾馆","address":"浦东新区龙东大道3000号(张东路口)"},{"poiid":"B2094757D068A0F5479E","title":"宝诚宝马4S店(龙东大道店)","lon":"121.630592","lat":"31.224612","category":"158","category_name":"汽车销售","address":"浦东新区龙东大道2777号(近申江路)"},{"poiid":"B2094757D068A4F8469C","title":"唐园大酒店","lon":"121.64786","lat":"31.22455","category":"76","category_name":"上海菜","address":"浦东新区唐陆路2400号(近龙东大道)"},{"poiid":"B2094757D068A3F9499E","title":"毕加索小镇","lon":"121.64792633","lat":"31.221918106","category":"500","category_name":"未知分类","address":"上海市浦东新区春泉路45弄"},{"poiid":"B2094750D76CA4FC479C","title":"妈妈糖2.0(张东路店)","lon":"121.634","lat":"31.2187","category":"94","category_name":"西餐厅","address":"浦东新区张东路1387号集电子社区中心2楼"},{"poiid":"B2094750DA6DA0FB429E","title":"张江家乐福","lon":"121.638771","lat":"31.203567","category":"249","category_name":"购物服务","address":"浦东新区张江高科中路2860号(近张东路)"},{"poiid":"B2094757D068A2FB4592","title":"台北雅厨","lon":"121.62232","lat":"31.21868","category":"91","category_name":"台湾菜","address":"浦东新区青桐路199弄中芯花园15号(近广兰路)"},{"poiid":"B2094757D064AAF5499F","title":"瑞慈健康管理中心(张东路店)","lon":"121.6329","lat":"31.21723","category":"162","category_name":"医院","address":"上海浦东新区张东路1388号15幢(近丹桂路)"},{"poiid":"B2094655D26EA0F8409C","title":"强生千亩园林餐厅","lon":"121.63900116319462","lat":"31.22349341978972","category":"87","category_name":"特色／地方风味餐厅","address":"上海市浦东新区龙东大道3166号"},{"poiid":"B2094757D06FA4F4479E","title":"友乐达台北精致面馆(张江店)","lon":"121.62252","lat":"31.21871","category":"68","category_name":"快餐厅","address":"浦东新区青桐路199弄中芯花园17号(近广兰路)"},{"poiid":"B2094757D064A4FC4893","title":"小城故事(浦东店)","lon":"121.63064","lat":"31.22243","category":"91","category_name":"台湾菜","address":"浦东新区龙东大道3000号龙东商务酒店2号楼102室(张东路口)"},{"poiid":"B2094654DB64A3FA469D","title":"张江集电港·会展中心(张东路)","lon":"121.63236","lat":"31.22277","category":"185","category_name":"会展中心","address":"龙东大道3000号"},{"poiid":"B2094757D069A6FE429B","title":"51job","lon":"121.633905","lat":"31.217677","category":"500","category_name":"未知分类","address":"上海张东路1387弄3号"},{"poiid":"B2094757D069AAF5459A","title":"外汇交易中心","lon":"121.63539886","lat":"31.216482162","category":"500","category_name":"未知分类","address":"上海张东路1387号"},{"poiid":"B2094757D06BAAFD479C","title":"中共上海市浦东新区区委党校","lon":"121.62418597","lat":"31.219276804","category":"260","category_name":"其他","address":"上海市浦东新区龙东大道"},{"poiid":"B2094757D065A1FD4092","title":"AMD","lon":"121.63495156","lat":"31.220122434","category":"46","category_name":"楼宇","address":"上海张东路1387号第46-48幢"},{"poiid":"B2094655D36DA0F54292","title":"玉兰香苑二期A块","lon":"121.63422596141","lat":"31.202460117491","category":"38","category_name":"公交车站","address":"益江路511弄"},{"poiid":"B2094757D069A5FE489C","title":"威尔士健身会所(张江店)","lon":"121.62643","lat":"31.20966","category":"221","category_name":"健身中心","address":"浦东新区祖冲之路2288号(近申江路)"},{"poiid":"B2094654DA6AA5FD409F","title":"中芯花园","lon":"121.6208","lat":"31.218477","category":"47","category_name":"住宅区","address":"浦东新区丹桂路345弄"},{"poiid":"B2094757D16CA4FD4493","title":"张江集电港二期1388号","lon":"121.63578897","lat":"31.21655274","category":"47","category_name":"住宅区","address":"上海市浦东新区张东路"},{"poiid":"B2094757D164A3FB4392","title":"迦拿咖啡","lon":"121.63431","lat":"31.21658","category":"94","category_name":"西餐厅","address":"浦东新区张东路1387号张江集电港二期21幢101室"},{"poiid":"B2094654DA6BA2F4409B","title":"科技领袖之都(金秋路)","lon":"121.6354","lat":"31.21648","category":"47","category_name":"住宅区","address":"上海市浦东新区张东路"},{"poiid":"B2094655D36CA6F9429C","title":"芳春路金秋路","lon":"121.63794","lat":"31.21973","category":"38","category_name":"公交车站","address":""},{"poiid":"B2094655D269A4F84992","title":"上海永达雪佛兰浦东店","lon":"121.6304","lat":"31.22433","category":"158","category_name":"汽车销售","address":"浦东新区龙东大道2777号(近申江路)"},{"poiid":"B2094757D164AAF54999","title":"肯德基","lon":"121.63701427","lat":"31.203571737","category":"68","category_name":"快餐厅","address":"浦东新区高科中路2860号家乐福(近外环线)"},{"poiid":"B2094757D06BA5FD4499","title":"永和大王(张江家乐福店)","lon":"121.63938","lat":"31.20406","category":"68","category_name":"快餐厅","address":"浦东新区高科中路2860号家乐福2楼"},{"poiid":"B2094757DA64ABF8479E","title":"张江集电港","lon":"121.635391","lat":"31.217871","category":"252","category_name":"楼宇机构","address":"卫清西路139_149号等"},{"poiid":"B2094654DA6AA4FD4393","title":"塞纳阳光西餐厅","lon":"121.631737054","lat":"31.223521793","category":"94","category_name":"西餐厅","address":"浦东新区龙东大道3000号龙东商务酒店内(张东路口)"},{"poiid":"B2094750D568ABF84299","title":"上海天之骄子","lon":"121.62937","lat":"31.211645","category":"47","category_name":"住宅区","address":"浦东祖冲之路2305号(盛夏路口)"},{"poiid":"B2094750D36BA4F9449C","title":"美国国家仪器","lon":"121.63624143981","lat":"31.219589979867","category":"634","category_name":"IT类公司","address":"张江集电港二期张东路1387号43、45幢"},{"poiid":"B2094757D66CABFA429E","title":"稻亭","lon":"121.632482575","lat":"31.2207134381","category":"68","category_name":"快餐厅","address":"浦东新区龙东大道3000号10号楼B1楼(近龙东大酒店)"},{"poiid":"B2094655D36DA0F54293","title":"玉兰香苑二期C块","lon":"121.63363854614","lat":"31.203943272246","category":"38","category_name":"公交车站","address":"益江路396弄"},{"poiid":"B2094655D36DA7FD4298","title":"张东路金秋路","lon":"121.63276","lat":"31.21656","category":"38","category_name":"公交车站","address":""},{"poiid":"B2094757D66EA6F94793","title":"张江国际豪庭","lon":"121.642386375","lat":"31.2168653481","category":"252","category_name":"楼宇机构","address":"上海银樽路58号"},{"poiid":"B2094757D06AA3FB479E","title":"感恩堂","lon":"121.62321","lat":"31.21502","category":"500","category_name":"未知分类","address":"浦东新区丹桂路700号(丹桂路青桐路)"},{"poiid":"B2094757D065ABFE4592","title":"上海恩艾仪器有限公司","lon":"121.637413025","lat":"31.2203922272","category":"263","category_name":"公司","address":"上海浦东新区张东路1387号第45幢和第43幢"},{"poiid":"B2094757D16DAAFF479E","title":"碗碗香","lon":"121.633619975","lat":"31.2194088076","category":"500","category_name":"未知分类","address":"上海市浦东新区丹桂路"},{"poiid":"B2094757D169A2FE4093","title":"港式茶餐厅","lon":"121.63091","lat":"31.22216","category":"72","category_name":"广东菜","address":"浦东新区龙东大道3000号张江集电港1号楼B座1楼(全家超市对面)"},{"poiid":"B2094655D36DA2FB4092","title":"吕三桥","lon":"121.64053","lat":"31.21732","category":"250","category_name":"公园户外","address":""},{"poiid":"B2094654DA6AAAFD429D","title":"唐人苑","lon":"121.64923","lat":"31.208265","category":"47","category_name":"住宅区","address":"唐镇路127弄"},{"poiid":"B2094654DA6AA5FC479C","title":"城市经典","lon":"121.629","lat":"31.2244","category":"47","category_name":"住宅区","address":"青桐路618弄"},{"poiid":"B2094655D26AA6FF439D","title":"明轩御膳(龙东大道店)","lon":"121.63064","lat":"31.22243","category":"72","category_name":"广东菜","address":"浦东新区龙东大道3000号龙东商务酒店1楼(张东路口)"},{"poiid":"B2094750D26AABFD4998","title":"金葵新城","lon":"121.634536","lat":"31.225202","category":"47","category_name":"住宅区","address":"浦东新区金葵路945弄"},{"poiid":"B2094757D068AAFD489C","title":"全家便利(龙东大道店)","lon":"121.633517","lat":"31.223027","category":"117","category_name":"便民商店/便利店","address":"上海浦东新区龙东大道3000号龙东商务酒店1幢群楼102室(张东路口)"},{"poiid":"B2094757D064A4FD4993","title":"张江名流豪庭","lon":"121.63859283","lat":"31.215198259","category":"500","category_name":"未知分类","address":"上海浦东新区春泉路45弄"}]