[{"poiid":"B2094757D06EAAF84399","title":"广兰路地铁站","lon":"121.61999759","lat":"31.210776628","category":"36","category_name":"地铁站","address":"上海轨道交通二号线广兰路站"},{"poiid":"B2094757D068A7F8409D","title":"展讯豪生酒店","lon":"121.62515517","lat":"31.206159597","category":"217","category_name":"旅馆招待所","address":"上海市浦东新区祖冲之路2288弄（近申江路）"},{"poiid":"B2094757D06FA0FF409F","title":"阳光花城","lon":"121.62379","lat":"31.207195","category":"500","category_name":"未知分类","address":"上海市浦东新区紫薇路667弄"},{"poiid":"B2094655D36DA6FD439B","title":"广兰路","lon":"121.61996","lat":"31.21077","category":"38","category_name":"公交车站","address":""},{"poiid":"B2094757D069A5FE489C","title":"威尔士健身会所(张江店)","lon":"121.62643","lat":"31.20966","category":"221","category_name":"健身中心","address":"浦东新区祖冲之路2288号(近申江路)"},{"poiid":"B2094757D069A1FB439B","title":"容源大酒店","lon":"121.620157963","lat":"31.2053299054","category":"72","category_name":"广东菜","address":"浦东新区广兰路1080号(紫薇路口)"},{"poiid":"B2094654DA6AA5F94892","title":"兰沁苑","lon":"121.62245","lat":"31.205448","category":"47","category_name":"住宅区","address":"紫薇路750弄"},{"poiid":"B2094757D069ABFC4092","title":"张江中学足球场","lon":"121.6172","lat":"31.20647","category":"253","category_name":"校园生活","address":"浦东新区江东路54号张江体育中心"},{"poiid":"B2094655D36DA0F54293","title":"玉兰香苑二期C块","lon":"121.63363854614","lat":"31.203943272246","category":"38","category_name":"公交车站","address":"益江路396弄"},{"poiid":"B2094655D265A5F4459D","title":"格林豪泰酒店上海张江店","lon":"121.62062","lat":"31.20499","category":"216","category_name":"经济型连锁酒店","address":"浦东新区广兰路1090号"},{"poiid":"B2094750D568ABF84299","title":"上海天之骄子","lon":"121.62937","lat":"31.211645","category":"47","category_name":"住宅区","address":"浦东祖冲之路2305号(盛夏路口)"},{"poiid":"B2094757D16EA1FB4692","title":"广兰公园","lon":"121.620380975","lat":"31.2052764771","category":"196","category_name":"公园","address":"浦东新区广兰路965号(近紫薇路)"},{"poiid":"B2094757D06AA3FB479E","title":"感恩堂","lon":"121.62321","lat":"31.21502","category":"500","category_name":"未知分类","address":"浦东新区丹桂路700号(丹桂路青桐路)"},{"poiid":"B2094655D36DA7FB449E","title":"祖冲之路申江路","lon":"121.6266","lat":"31.21147","category":"38","category_name":"公交车站","address":""},{"poiid":"B2094757D16BA6F94199","title":"钱万隆大酒店","lon":"121.624439975","lat":"31.207584531","category":"247","category_name":"餐饮美食","address":"上海广兰路778号"},{"poiid":"B2094757D064A5FE449E","title":"春港丽园","lon":"121.62296","lat":"31.201822","category":"260","category_name":"其他","address":"上海浦东新区益丰路55弄"},{"poiid":"B2094757D069A4FB429B","title":"香香川菜","lon":"121.616353","lat":"31.203218","category":"71","category_name":"四川菜","address":"浦东新区张江镇紫薇路217号(近张江路)"},{"poiid":"B2094757D069A3FC499C","title":"玉兰香苑2期","lon":"121.628673","lat":"31.199725","category":"47","category_name":"住宅区","address":"上海浦东张江益江路511弄"},{"poiid":"B2094757D06BA5FB4693","title":"苏武牧羊(张江店)","lon":"121.62132","lat":"31.20456","category":"86","category_name":"火锅店","address":"浦东新区广兰路1128号(近紫薇路)"},{"poiid":"B2094757D065ABFC4899","title":"张江有轨电车1路广兰路祖冲之路站","lon":"121.618309631","lat":"31.2099641454","category":"36","category_name":"地铁站","address":"上海浦东新区广兰路祖冲之路交会口"},{"poiid":"B2094654DA6AA6F4429A","title":"广兰名苑","lon":"121.62022","lat":"31.20352","category":"47","category_name":"住宅区","address":"上海市浦东新区广兰路1166弄"},{"poiid":"B2094655D36DA7FB4292","title":"紫薇路申江路","lon":"121.62439","lat":"31.20672","category":"38","category_name":"公交车站","address":""},{"poiid":"B2094757D16FA3FC439B","title":"世和商务中心","lon":"121.62624997","lat":"31.213459668","category":"500","category_name":"未知分类","address":"上海市浦东新区祖冲之路2277弄"},{"poiid":"B2094654DA6AA5FD449B","title":"贝越流明新苑","lon":"121.62178","lat":"31.202263","category":"47","category_name":"住宅区","address":"上海市浦东新区紫薇路228号"},{"poiid":"B2094757D16BA5FA4899","title":"红廊","lon":"121.62895","lat":"31.21183","category":"268","category_name":"自助","address":"浦东新区祖冲之路2288弄上海展讯豪生酒店1楼(近申江路)"},{"poiid":"B2094655D26BA0FE4293","title":"日月光水岸花园","lon":"121.62192","lat":"31.216284","category":"47","category_name":"住宅区","address":"浦东新区张江青桐路408弄(近丹桂路)"},{"poiid":"B2094654DA6AA5FD469E","title":"上海市张江中学(江东路)","lon":"121.61783","lat":"31.20693","category":"55","category_name":"中学","address":"浦东张江江东路54号"},{"poiid":"B2094655D36DA7FD449D","title":"张江路高科中路","lon":"121.62176","lat":"31.1991","category":"38","category_name":"公交车站","address":""},{"poiid":"B2094757D165A3F5459B","title":"辣翻天川菜馆","lon":"121.62999725","lat":"31.20569992","category":"71","category_name":"四川菜","address":"浦东新区盛夏路119号旁(近金秋路)"},{"poiid":"B2094752D76EABFE409E","title":"光头烧烤","lon":"121.625321","lat":"31.204643","category":"247","category_name":"餐饮美食","address":null},{"poiid":"B2094757D66CA6FA489F","title":"Howard Johnson","lon":"121.62408597","lat":"31.207421527","category":"500","category_name":"未知分类","address":"上海市浦东新区祖冲之路"},{"poiid":"B2094757D16AABFA419A","title":"will's 张江店","lon":"121.626645","lat":"31.210287","category":"500","category_name":"未知分类","address":"上海张江高科技园区祖冲之路2288号(展讯豪生酒店)"},{"poiid":"B2094757D76EA7FA429D","title":"苏州羊肉面馆 盛夏路店","lon":"121.6293","lat":"31.20596","category":"68","category_name":"快餐厅","address":"浦东新区盛夏路(近益江路)"},{"poiid":"B2094757D16EA5F4459B","title":"申江路祖冲之路","lon":"121.626783","lat":"31.211311","category":"500","category_name":"未知分类","address":"上海申江路祖冲之路"},{"poiid":"B2094751D56CA6F94499","title":"钱万隆","lon":"121.61791","lat":"31.21051","category":"76","category_name":"上海菜","address":"浦东新区广兰路778号"},{"poiid":"B2094757D16CA4FA4793","title":"coco一番屋","lon":"121.621215975","lat":"31.2096865802","category":"247","category_name":"餐饮美食","address":"上海久光地下一层"},{"poiid":"B2094757D168ABF5459D","title":"古桐三村","lon":"121.625","lat":"31.2062","category":"252","category_name":"楼宇机构","address":"上海市浦东新区张江高斯路1296弄60号401室。"},{"poiid":"B2094654DB69AAF5439F","title":"交江大楼","lon":"121.619659","lat":"31.211054","category":"46","category_name":"楼宇","address":"上海市浦东新区川北公路3042号"},{"poiid":"B2094753D468AAFB4992","title":"贝贝树幼儿园","lon":"121.621078","lat":"31.206233","category":"57","category_name":"幼儿园","address":"上海市 紫微路600号"},{"poiid":"B2094757D465A2F4429F","title":"龙江菜饺子馆","lon":"121.617213054","lat":"31.203894793","category":"68","category_name":"快餐厅","address":"浦东新区张江路678号(近紫薇路)"},{"poiid":"B2094757D465ABF84192","title":"重庆龙门鱼府","lon":"121.629337054","lat":"31.202154793","category":"86","category_name":"火锅店","address":"浦东新区盛夏路1105号(近高科中路)"},{"poiid":"B2094757DA6FA2F5469E","title":"张江国家数字出版基地","lon":"121.62893056869507","lat":"31.21069099597688","category":"252","category_name":"楼宇机构","address":"上海 上海市 盛夏路570号"},{"poiid":"B2094757D66DA3FC4399","title":"盛夏路560号","lon":"121.620759975","lat":"31.2099939874","category":"500","category_name":"未知分类","address":"上海盛夏路560号"},{"poiid":"B2094655D264A5F9469D","title":"移动申江路基站组办公楼","lon":"121.62125","lat":"31.20387","category":"46","category_name":"楼宇","address":"广兰路1140号"},{"poiid":"B2094757D465A0FB4593","title":"东北家乡菜浦东店","lon":"121.628631054","lat":"31.211942793","category":"82","category_name":"东北菜","address":"浦东新区益江路135弄2号(近盛夏路)"},{"poiid":"B2094654DB69A6FC409B","title":"张江镇中心小学","lon":"121.62035","lat":"31.21073","category":"56","category_name":"小学","address":"浦东新区张江新东街114弄4号"},{"poiid":"B2094655D36CA7F54098","title":"广兰路祖冲之路","lon":"121.61784","lat":"31.21093","category":"38","category_name":"公交车站","address":""},{"poiid":"B2094654DA6AA5FD4493","title":"中国移动通信张江营业厅","lon":"121.62125","lat":"31.20387","category":"151","category_name":"电讯营业厅","address":"浦东新区广兰路1140号"},{"poiid":"B209475CD26AAAFB459E","title":"星巴克（展想广场店）","lon":"121.631019","lat":"31.208768","category":"500","category_name":"未知分类","address":"上海市 上海市浦东新区张江高科祖冲之路2288号展想广场"},{"poiid":"B2094655D36DA0FA489E","title":"益江路","lon":"121.62522","lat":"31.20239","category":"38","category_name":"公交车站","address":""},{"poiid":"B2094757D06EAAF84399","title":"广兰路地铁站","lon":"121.61999759","lat":"31.210776628","category":"36","category_name":"地铁站","address":"上海轨道交通二号线广兰路站"},{"poiid":"B2094757D068A7F8409D","title":"展讯豪生酒店","lon":"121.62515517","lat":"31.206159597","category":"217","category_name":"旅馆招待所","address":"上海市浦东新区祖冲之路2288弄（近申江路）"},{"poiid":"B2094757D06FA0FF409F","title":"阳光花城","lon":"121.62379","lat":"31.207195","category":"500","category_name":"未知分类","address":"上海市浦东新区紫薇路667弄"},{"poiid":"B2094655D36DA6FD439B","title":"广兰路","lon":"121.61996","lat":"31.21077","category":"38","category_name":"公交车站","address":""},{"poiid":"B2094757D069A5FE489C","title":"威尔士健身会所(张江店)","lon":"121.62643","lat":"31.20966","category":"221","category_name":"健身中心","address":"浦东新区祖冲之路2288号(近申江路)"},{"poiid":"B2094757D069A1FB439B","title":"容源大酒店","lon":"121.620157963","lat":"31.2053299054","category":"72","category_name":"广东菜","address":"浦东新区广兰路1080号(紫薇路口)"},{"poiid":"B2094654DA6AA5F94892","title":"兰沁苑","lon":"121.62245","lat":"31.205448","category":"47","category_name":"住宅区","address":"紫薇路750弄"},{"poiid":"B2094757D069ABFC4092","title":"张江中学足球场","lon":"121.6172","lat":"31.20647","category":"253","category_name":"校园生活","address":"浦东新区江东路54号张江体育中心"},{"poiid":"B2094655D36DA0F54293","title":"玉兰香苑二期C块","lon":"121.63363854614","lat":"31.203943272246","category":"38","category_name":"公交车站","address":"益江路396弄"},{"poiid":"B2094655D265A5F4459D","title":"格林豪泰酒店上海张江店","lon":"121.62062","lat":"31.20499","category":"216","category_name":"经济型连锁酒店","address":"浦东新区广兰路1090号"},{"poiid":"B2094750D568ABF84299","title":"上海天之骄子","lon":"121.62937","lat":"31.211645","category":"47","category_name":"住宅区","address":"浦东祖冲之路2305号(盛夏路口)"},{"poiid":"B2094757D16EA1FB4692","title":"广兰公园","lon":"121.620380975","lat":"31.2052764771","category":"196","category_name":"公园","address":"浦东新区广兰路965号(近紫薇路)"},{"poiid":"B2094757D06AA3FB479E","title":"感恩堂","lon":"121.62321","lat":"31.21502","category":"500","category_name":"未知分类","address":"浦东新区丹桂路700号(丹桂路青桐路)"},{"poiid":"B2094655D36DA7FB449E","title":"祖冲之路申江路","lon":"121.6266","lat":"31.21147","category":"38","category_name":"公交车站","address":""},{"poiid":"B2094757D16BA6F94199","title":"钱万隆大酒店","lon":"121.624439975","lat":"31.207584531","category":"247","category_name":"餐饮美食","address":"上海广兰路778号"},{"poiid":"B2094757D064A5FE449E","title":"春港丽园","lon":"121.62296","lat":"31.201822","category":"260","category_name":"其他","address":"上海浦东新区益丰路55弄"},{"poiid":"B2094757D069A4FB429B","title":"香香川菜","lon":"121.616353","lat":"31.203218","category":"71","category_name":"四川菜","address":"浦东新区张江镇紫薇路217号(近张江路)"},{"poiid":"B2094757D069A3FC499C","title":"玉兰香苑2期","lon":"121.628673","lat":"31.199725","category":"47","category_name":"住宅区","address":"上海浦东张江益江路511弄"},{"poiid":"B2094757D06BA5FB4693","title":"苏武牧羊(张江店)","lon":"121.62132","lat":"31.20456","category":"86","category_name":"火锅店","address":"浦东新区广兰路1128号(近紫薇路)"},{"poiid":"B2094757D065ABFC4899","title":"张江有轨电车1路广兰路祖冲之路站","lon":"121.618309631","lat":"31.2099641454","category":"36","category_name":"地铁站","address":"上海浦东新区广兰路祖冲之路交会口"},{"poiid":"B2094654DA6AA6F4429A","title":"广兰名苑","lon":"121.62022","lat":"31.20352","category":"47","category_name":"住宅区","address":"上海市浦东新区广兰路1166弄"},{"poiid":"B2094655D36DA7FB4292","title":"紫薇路申江路","lon":"121.62439","lat":"31.20672","category":"38","category_name":"公交车站","address":""},{"poiid":"B2094757D16FA3FC439B","title":"世和商务中心","lon":"121.62624997","lat":"31.213459668","category":"500","category_name":"未知分类","address":"上海市浦东新区祖冲之路2277弄"},{"poiid":"B2094654DA6AA5FD449B","title":"贝越流明新苑","lon":"121.62178","lat":"31.202263","category":"47","category_name":"住宅区","address":"上海市浦东新区紫薇路228号"},{"poiid":"B2094757D16BA5FA4899","title":"红廊","lon":"121.62895","lat":"31.21183","category":"268","category_name":"自助","address":"浦东新区祖冲之路2288弄上海展讯豪生酒店1楼(近申江路)"},{"poiid":"B2094655D26BA0FE4293","title":"日月光水岸花园","lon":"121.62192","lat":"31.216284","category":"47","category_name":"住宅区","address":"浦东新区张江青桐路408弄(近丹桂路)"},{"poiid":"B2094654DA6AA5FD469E","title":"上海市张江中学(江东路)","lon":"121.61783","lat":"31.20693","category":"55","category_name":"中学","address":"浦东张江江东路54号"},{"poiid":"B2094655D36DA7FD449D","title":"张江路高科中路","lon":"121.62176","lat":"31.1991","category":"38","category_name":"公交车站","address":""},{"poiid":"B2094757D165A3F5459B","title":"辣翻天川菜馆","lon":"121.62999725","lat":"31.20569992","category":"71","category_name":"四川菜","address":"浦东新区盛夏路119号旁(近金秋路)"},{"poiid":"B2094752D76EABFE409E","title":"光头烧烤","lon":"121.625321","lat":"31.204643","category":"247","category_name":"餐饮美食","address":null},{"poiid":"B2094757D66CA6FA489F","title":"Howard Johnson","lon":"121.62408597","lat":"31.207421527","category":"500","category_name":"未知分类","address":"上海市浦东新区祖冲之路"},{"poiid":"B2094757D16AABFA419A","title":"will's 张江店","lon":"121.626645","lat":"31.210287","category":"500","category_name":"未知分类","address":"上海张江高科技园区祖冲之路2288号(展讯豪生酒店)"},{"poiid":"B2094757D76EA7FA429D","title":"苏州羊肉面馆 盛夏路店","lon":"121.6293","lat":"31.20596","category":"68","category_name":"快餐厅","address":"浦东新区盛夏路(近益江路)"},{"poiid":"B2094757D16EA5F4459B","title":"申江路祖冲之路","lon":"121.626783","lat":"31.211311","category":"500","category_name":"未知分类","address":"上海申江路祖冲之路"},{"poiid":"B2094751D56CA6F94499","title":"钱万隆","lon":"121.61791","lat":"31.21051","category":"76","category_name":"上海菜","address":"浦东新区广兰路778号"},{"poiid":"B2094757D16CA4FA4793","title":"coco一番屋","lon":"121.621215975","lat":"31.2096865802","category":"247","category_name":"餐饮美食","address":"上海久光地下一层"},{"poiid":"B2094757D168ABF5459D","title":"古桐三村","lon":"121.625","lat":"31.2062","category":"252","category_name":"楼宇机构","address":"上海市浦东新区张江高斯路1296弄60号401室。"},{"poiid":"B2094654DB69AAF5439F","title":"交江大楼","lon":"121.619659","lat":"31.211054","category":"46","category_name":"楼宇","address":"上海市浦东新区川北公路3042号"},{"poiid":"B2094753D468AAFB4992","title":"贝贝树幼儿园","lon":"121.621078","lat":"31.206233","category":"57","category_name":"幼儿园","address":"上海市 紫微路600号"},{"poiid":"B2094757D465A2F4429F","title":"龙江菜饺子馆","lon":"121.617213054","lat":"31.203894793","category":"68","category_name":"快餐厅","address":"浦东新区张江路678号(近紫薇路)"},{"poiid":"B2094757D465ABF84192","title":"重庆龙门鱼府","lon":"121.629337054","lat":"31.202154793","category":"86","category_name":"火锅店","address":"浦东新区盛夏路1105号(近高科中路)"},{"poiid":"B2094757DA6FA2F5469E","title":"张江国家数字出版基地","lon":"121.62893056869507","lat":"31.21069099597688","category":"252","category_name":"楼宇机构","address":"上海 上海市 盛夏路570号"},{"poiid":"B2094757D66DA3FC4399","title":"盛夏路560号","lon":"121.620759975","lat":"31.2099939874","category":"500","category_name":"未知分类","address":"上海盛夏路560号"},{"poiid":"B2094655D264A5F9469D","title":"移动申江路基站组办公楼","lon":"121.62125","lat":"31.20387","category":"46","category_name":"楼宇","address":"广兰路1140号"},{"poiid":"B2094757D465A0FB4593","title":"东北家乡菜浦东店","lon":"121.628631054","lat":"31.211942793","category":"82","category_name":"东北菜","address":"浦东新区益江路135弄2号(近盛夏路)"},{"poiid":"B2094654DB69A6FC409B","title":"张江镇中心小学","lon":"121.62035","lat":"31.21073","category":"56","category_name":"小学","address":"浦东新区张江新东街114弄4号"},{"poiid":"B2094655D36CA7F54098","title":"广兰路祖冲之路","lon":"121.61784","lat":"31.21093","category":"38","category_name":"公交车站","address":""},{"poiid":"B2094654DA6AA5FD4493","title":"中国移动通信张江营业厅","lon":"121.62125","lat":"31.20387","category":"151","category_name":"电讯营业厅","address":"浦东新区广兰路1140号"},{"poiid":"B209475CD26AAAFB459E","title":"星巴克（展想广场店）","lon":"121.631019","lat":"31.208768","category":"500","category_name":"未知分类","address":"上海市 上海市浦东新区张江高科祖冲之路2288号展想广场"},{"poiid":"B2094655D36DA0FA489E","title":"益江路","lon":"121.62522","lat":"31.20239","category":"38","category_name":"公交车站","address":""},{"poiid":"B2094757D06EAAF84399","title":"广兰路地铁站","lon":"121.61999759","lat":"31.210776628","category":"36","category_name":"地铁站","address":"上海轨道交通二号线广兰路站"},{"poiid":"B2094757D068A7F8409D","title":"展讯豪生酒店","lon":"121.62515517","lat":"31.206159597","category":"217","category_name":"旅馆招待所","address":"上海市浦东新区祖冲之路2288弄（近申江路）"},{"poiid":"B2094757D06FA0FF409F","title":"阳光花城","lon":"121.62379","lat":"31.207195","category":"500","category_name":"未知分类","address":"上海市浦东新区紫薇路667弄"},{"poiid":"B2094655D36DA6FD439B","title":"广兰路","lon":"121.61996","lat":"31.21077","category":"38","category_name":"公交车站","address":""},{"poiid":"B2094757D069A5FE489C","title":"威尔士健身会所(张江店)","lon":"121.62643","lat":"31.20966","category":"221","category_name":"健身中心","address":"浦东新区祖冲之路2288号(近申江路)"},{"poiid":"B2094757D069A1FB439B","title":"容源大酒店","lon":"121.620157963","lat":"31.2053299054","category":"72","category_name":"广东菜","address":"浦东新区广兰路1080号(紫薇路口)"},{"poiid":"B2094654DA6AA5F94892","title":"兰沁苑","lon":"121.62245","lat":"31.205448","category":"47","category_name":"住宅区","address":"紫薇路750弄"},{"poiid":"B2094757D069ABFC4092","title":"张江中学足球场","lon":"121.6172","lat":"31.20647","category":"253","category_name":"校园生活","address":"浦东新区江东路54号张江体育中心"},{"poiid":"B2094655D36DA0F54293","title":"玉兰香苑二期C块","lon":"121.63363854614","lat":"31.203943272246","category":"38","category_name":"公交车站","address":"益江路396弄"},{"poiid":"B2094655D265A5F4459D","title":"格林豪泰酒店上海张江店","lon":"121.62062","lat":"31.20499","category":"216","category_name":"经济型连锁酒店","address":"浦东新区广兰路1090号"},{"poiid":"B2094750D568ABF84299","title":"上海天之骄子","lon":"121.62937","lat":"31.211645","category":"47","category_name":"住宅区","address":"浦东祖冲之路2305号(盛夏路口)"},{"poiid":"B2094757D16EA1FB4692","title":"广兰公园","lon":"121.620380975","lat":"31.2052764771","category":"196","category_name":"公园","address":"浦东新区广兰路965号(近紫薇路)"},{"poiid":"B2094757D06AA3FB479E","title":"感恩堂","lon":"121.62321","lat":"31.21502","category":"500","category_name":"未知分类","address":"浦东新区丹桂路700号(丹桂路青桐路)"},{"poiid":"B2094655D36DA7FB449E","title":"祖冲之路申江路","lon":"121.6266","lat":"31.21147","category":"38","category_name":"公交车站","address":""},{"poiid":"B2094757D16BA6F94199","title":"钱万隆大酒店","lon":"121.624439975","lat":"31.207584531","category":"247","category_name":"餐饮美食","address":"上海广兰路778号"},{"poiid":"B2094757D064A5FE449E","title":"春港丽园","lon":"121.62296","lat":"31.201822","category":"260","category_name":"其他","address":"上海浦东新区益丰路55弄"},{"poiid":"B2094757D069A4FB429B","title":"香香川菜","lon":"121.616353","lat":"31.203218","category":"71","category_name":"四川菜","address":"浦东新区张江镇紫薇路217号(近张江路)"},{"poiid":"B2094757D069A3FC499C","title":"玉兰香苑2期","lon":"121.628673","lat":"31.199725","category":"47","category_name":"住宅区","address":"上海浦东张江益江路511弄"},{"poiid":"B2094757D06BA5FB4693","title":"苏武牧羊(张江店)","lon":"121.62132","lat":"31.20456","category":"86","category_name":"火锅店","address":"浦东新区广兰路1128号(近紫薇路)"},{"poiid":"B2094757D065ABFC4899","title":"张江有轨电车1路广兰路祖冲之路站","lon":"121.618309631","lat":"31.2099641454","category":"36","category_name":"地铁站","address":"上海浦东新区广兰路祖冲之路交会口"},{"poiid":"B2094654DA6AA6F4429A","title":"广兰名苑","lon":"121.62022","lat":"31.20352","category":"47","category_name":"住宅区","address":"上海市浦东新区广兰路1166弄"},{"poiid":"B2094655D36DA7FB4292","title":"紫薇路申江路","lon":"121.62439","lat":"31.20672","category":"38","category_name":"公交车站","address":""},{"poiid":"B2094757D16FA3FC439B","title":"世和商务中心","lon":"121.62624997","lat":"31.213459668","category":"500","category_name":"未知分类","address":"上海市浦东新区祖冲之路2277弄"},{"poiid":"B2094654DA6AA5FD449B","title":"贝越流明新苑","lon":"121.62178","lat":"31.202263","category":"47","category_name":"住宅区","address":"上海市浦东新区紫薇路228号"},{"poiid":"B2094757D16BA5FA4899","title":"红廊","lon":"121.62895","lat":"31.21183","category":"268","category_name":"自助","address":"浦东新区祖冲之路2288弄上海展讯豪生酒店1楼(近申江路)"},{"poiid":"B2094655D26BA0FE4293","title":"日月光水岸花园","lon":"121.62192","lat":"31.216284","category":"47","category_name":"住宅区","address":"浦东新区张江青桐路408弄(近丹桂路)"},{"poiid":"B2094654DA6AA5FD469E","title":"上海市张江中学(江东路)","lon":"121.61783","lat":"31.20693","category":"55","category_name":"中学","address":"浦东张江江东路54号"},{"poiid":"B2094655D36DA7FD449D","title":"张江路高科中路","lon":"121.62176","lat":"31.1991","category":"38","category_name":"公交车站","address":""},{"poiid":"B2094757D165A3F5459B","title":"辣翻天川菜馆","lon":"121.62999725","lat":"31.20569992","category":"71","category_name":"四川菜","address":"浦东新区盛夏路119号旁(近金秋路)"},{"poiid":"B2094752D76EABFE409E","title":"光头烧烤","lon":"121.625321","lat":"31.204643","category":"247","category_name":"餐饮美食","address":null},{"poiid":"B2094757D66CA6FA489F","title":"Howard Johnson","lon":"121.62408597","lat":"31.207421527","category":"500","category_name":"未知分类","address":"上海市浦东新区祖冲之路"},{"poiid":"B2094757D16AABFA419A","title":"will's 张江店","lon":"121.626645","lat":"31.210287","category":"500","category_name":"未知分类","address":"上海张江高科技园区祖冲之路2288号(展讯豪生酒店)"},{"poiid":"B2094757D76EA7FA429D","title":"苏州羊肉面馆 盛夏路店","lon":"121.6293","lat":"31.20596","category":"68","category_name":"快餐厅","address":"浦东新区盛夏路(近益江路)"},{"poiid":"B2094757D16EA5F4459B","title":"申江路祖冲之路","lon":"121.626783","lat":"31.211311","category":"500","category_name":"未知分类","address":"上海申江路祖冲之路"},{"poiid":"B2094751D56CA6F94499","title":"钱万隆","lon":"121.61791","lat":"31.21051","category":"76","category_name":"上海菜","address":"浦东新区广兰路778号"},{"poiid":"B2094757D16CA4FA4793","title":"coco一番屋","lon":"121.621215975","lat":"31.2096865802","category":"247","category_name":"餐饮美食","address":"上海久光地下一层"},{"poiid":"B2094757D168ABF5459D","title":"古桐三村","lon":"121.625","lat":"31.2062","category":"252","category_name":"楼宇机构","address":"上海市浦东新区张江高斯路1296弄60号401室。"},{"poiid":"B2094654DB69AAF5439F","title":"交江大楼","lon":"121.619659","lat":"31.211054","category":"46","category_name":"楼宇","address":"上海市浦东新区川北公路3042号"},{"poiid":"B2094753D468AAFB4992","title":"贝贝树幼儿园","lon":"121.621078","lat":"31.206233","category":"57","category_name":"幼儿园","address":"上海市 紫微路600号"},{"poiid":"B2094757D465A2F4429F","title":"龙江菜饺子馆","lon":"121.617213054","lat":"31.203894793","category":"68","category_name":"快餐厅","address":"浦东新区张江路678号(近紫薇路)"},{"poiid":"B2094757D465ABF84192","title":"重庆龙门鱼府","lon":"121.629337054","lat":"31.202154793","category":"86","category_name":"火锅店","address":"浦东新区盛夏路1105号(近高科中路)"},{"poiid":"B2094757DA6FA2F5469E","title":"张江国家数字出版基地","lon":"121.62893056869507","lat":"31.21069099597688","category":"252","category_name":"楼宇机构","address":"上海 上海市 盛夏路570号"},{"poiid":"B2094757D66DA3FC4399","title":"盛夏路560号","lon":"121.620759975","lat":"31.2099939874","category":"500","category_name":"未知分类","address":"上海盛夏路560号"},{"poiid":"B2094655D264A5F9469D","title":"移动申江路基站组办公楼","lon":"121.62125","lat":"31.20387","category":"46","category_name":"楼宇","address":"广兰路1140号"},{"poiid":"B2094757D465A0FB4593","title":"东北家乡菜浦东店","lon":"121.628631054","lat":"31.211942793","category":"82","category_name":"东北菜","address":"浦东新区益江路135弄2号(近盛夏路)"},{"poiid":"B2094654DB69A6FC409B","title":"张江镇中心小学","lon":"121.62035","lat":"31.21073","category":"56","category_name":"小学","address":"浦东新区张江新东街114弄4号"},{"poiid":"B2094655D36CA7F54098","title":"广兰路祖冲之路","lon":"121.61784","lat":"31.21093","category":"38","category_name":"公交车站","address":""},{"poiid":"B2094654DA6AA5FD4493","title":"中国移动通信张江营业厅","lon":"121.62125","lat":"31.20387","category":"151","category_name":"电讯营业厅","address":"浦东新区广兰路1140号"},{"poiid":"B209475CD26AAAFB459E","title":"星巴克（展想广场店）","lon":"121.631019","lat":"31.208768","category":"500","category_name":"未知分类","address":"上海市 上海市浦东新区张江高科祖冲之路2288号展想广场"},{"poiid":"B2094655D36DA0FA489E","title":"益江路","lon":"121.62522","lat":"31.20239","category":"38","category_name":"公交车站","address":""}]