[{"poiid":"B2094757D06EAAFA4799","title":"吴江路美食街","lon":"121.45953","lat":"31.22911","category":"68","category_name":"快餐厅","address":"静安区吴江路美食休闲购物(近石门一路)"},{"poiid":"B2094757D06EAAF9449E","title":"掌上韩品 吴江路店","lon":"121.4598384","lat":"31.2297555","category":"96","category_name":"韩国料理","address":"静安区吴江路200号(近南京西路)"},{"poiid":"B2094757D06EAAF94192","title":"伊秀手握寿司(吴江路店)","lon":"121.45843146","lat":"31.229081993","category":"95","category_name":"日本料理","address":"静安区吴江路269号湟普汇3楼304-305单元(泰兴路吴江路)"},{"poiid":"B2094753D76FAAFA449C","title":"上海滩国泰旗舰店","lon":"121.466011","lat":"31.216125","category":"249","category_name":"购物服务","address":"淮海中路868号"},{"poiid":"B209475CD564A7F84292","title":"上海滩新天地店","lon":"121.47463","lat":"31.22164","category":"119","category_name":"商场","address":"\"太仓路181弄新天地北里15号\r\n\""},{"poiid":"B209475CD564A7F8439E","title":"上海滩中信泰富店","lon":"121.45602","lat":"31.22851","category":"119","category_name":"商场","address":"\"南京西路1168号中信泰富广场，店铺号221.\r\n\""},{"poiid":"B2094757D66FA6FB4198","title":"COSTA COFFEE(吴江路店)","lon":"121.45886","lat":"31.22874","category":"65","category_name":"咖啡厅","address":"静安区吴江路269号(近茂名北路)"},{"poiid":"B2094655D268A3FB479D","title":"葡京茶餐厅(吴江路店)","lon":"121.45934","lat":"31.22889","category":"72","category_name":"广东菜","address":"静安区吴江路269号湟普汇303号商铺(近茂名北路)"},{"poiid":"B2094655D26FABFF419D","title":"静安小亭麻辣烫 吴江路店","lon":"121.459811054","lat":"31.229479793","category":"68","category_name":"快餐厅","address":"静安区吴江路269号湟普汇2楼(近茂名北路)"},{"poiid":"B2094757D465A4FA489B","title":"牛阵日式火锅 四季坊店","lon":"121.46003","lat":"31.22982","category":"95","category_name":"日本料理","address":"静安区吴江路169号四季坊242单元(近石门一路)"},{"poiid":"B2094750DA6BA1F54598","title":"斯利美SLM","lon":"121.45935","lat":"31.229806","category":"112","category_name":"糕饼店","address":"静安区吴江路169号四季坊149单元(近地铁2号线南京西路站)"},{"poiid":"B2094757D06EAAFE419A","title":"优衣库(南京西路店)","lon":"121.458728","lat":"31.229372","category":"141","category_name":"服装鞋帽皮具店","address":"上海市静安区南京西路969号（地铁2号线南京西路站1、4号出口）"},{"poiid":"B2094757D06EAAFF4298","title":"南京西路地铁站","lon":"121.459723","lat":"31.229734","category":"36","category_name":"地铁站","address":"上海轨道交通 二号线 轨交南京西路站 2"},{"poiid":"B2094757D16CA3F94793","title":"卡乐星","lon":"121.458848738","lat":"31.2292552793","category":"94","category_name":"西餐厅","address":"静安区吴江路169号四季坊150单元(近泰兴路)"},{"poiid":"B2094757D06EABF5469F","title":"COCO壱番屋(吴江路店)","lon":"121.45894768","lat":"31.228867623","category":"95","category_name":"日本料理","address":"静安区吴江路269号湟普汇2楼(近茂名北路)"},{"poiid":"B2094757D06EABF54199","title":"洋面屋五右卫门 吴江路店","lon":"121.4595113","lat":"31.2295151","category":"98","category_name":"意式菜品餐厅","address":"静安区吴江路169号四季坊2楼(近吴江路美食街)"},{"poiid":"B2094655D268A3FB479C","title":"小杨生煎 湟普汇店","lon":"121.459811054","lat":"31.229479793","category":"68","category_name":"快餐厅","address":"静安区吴江路269号2楼(近茂名北路)"},{"poiid":"B2094757D06AA5FE429E","title":"滋滋星","lon":"121.46021973","lat":"31.229662288","category":"99","category_name":"泰国／越南菜品餐厅","address":"静安区吴江路200号2楼(近南京西路)"},{"poiid":"B2094757D06FA6F9489C","title":"代官山(南京西路店)","lon":"121.45798903","lat":"31.228981173","category":"260","category_name":"其他","address":"静安区吴江路269号湟普汇208单元(近吴江路南京西路)"},{"poiid":"B2094757D469A2F9449D","title":"锅品面吧 吴江路店 Noodle Bar","lon":"121.460099","lat":"31.229882","category":"68","category_name":"快餐厅","address":"静安区吴江路202号(近泰兴路)"},{"poiid":"B2094757D06FA1FA4093","title":"伊秀寿司","lon":"121.45877773","lat":"31.229138276","category":"247","category_name":"餐饮美食","address":"上海市静安区吴江路"},{"poiid":"B2094752D56DAAF9469B","title":"点点心茶餐厅","lon":"121.459487","lat":"31.230247","category":"247","category_name":"餐饮美食","address":"南京西路889号2楼"},{"poiid":"B2094757D065AAFC419E","title":"力士相撲焼肉","lon":"121.459747738","lat":"31.2295532857","category":"500","category_name":"未知分类","address":"上海静安区江宁路四季坊"},{"poiid":"B2094757D06FA2FA449F","title":"西北郎烧烤(吴江路店)","lon":"121.46028","lat":"31.22956","category":"68","category_name":"快餐厅","address":"静安区吴江路休闲街200号2楼(近泰兴路)"},{"poiid":"B2094757D06FA2F5409F","title":"弄堂小馄饨","lon":"121.45834","lat":"31.22876","category":"68","category_name":"快餐厅","address":"静安区南京西路1025弄静安别墅107号(近茂名北路)"},{"poiid":"B2094757D06FA1F84492","title":"棒约翰比萨(四季坊店)","lon":"121.460259767","lat":"31.2294456435","category":"94","category_name":"西餐厅","address":"静安区吴江路169号四季坊108(泰兴路吴江路)"},{"poiid":"B2094757D06FA0F5479D","title":"蝶园(吴江路店)","lon":"121.45954","lat":"31.22913","category":"76","category_name":"上海菜","address":"静安区吴江路269号301-302室(近茂名北路)"},{"poiid":"B2094757D56CABFB419A","title":"顺风港湾","lon":"121.45971","lat":"31.229015","category":"76","category_name":"上海菜","address":"静安区泰兴路175号经典茂名裙房4楼(近吴江路)"},{"poiid":"B2094757D069A2FC439B","title":"稻•绿洲泰国时尚餐厅","lon":"121.45864873","lat":"31.228559264","category":"99","category_name":"泰国／越南菜品餐厅","address":"上海市静安区茂名北路吴江路269号皇普汇1楼"},{"poiid":"B2094654DB69A0FA499E","title":"凯司令西餐馆","lon":"121.45799135349","lat":"31.228824346383","category":"247","category_name":"餐饮美食","address":"静安区南京西路1001号3楼(近江宁路)"},{"poiid":"B2094757D06FA2F84198","title":"早安巴黎(吴江路店)","lon":"121.45957","lat":"31.22929","category":"112","category_name":"糕饼店","address":"静安区吴江路169号四季坊1楼114号单元(近石门一路)"},{"poiid":"B2094654DB6AA2FC459D","title":"一茶一坐(南京西路店)","lon":"121.458","lat":"31.22918","category":"260","category_name":"其他","address":"静安区南京西路996号2楼(近南汇路)"},{"poiid":"B2094757D06AA1FB429D","title":"上海少年儿童图书馆","lon":"121.458372567","lat":"31.2296641258","category":"181","category_name":"图书馆","address":"静安区南京西路962号(近茂名北路)"},{"poiid":"B2094757DB6FA1FF429A","title":"鲜芋仙(四季坊店)","lon":"121.4586149423584","lat":"31.229132465841996","category":"67","category_name":"甜品店","address":"静安区吴江路269号湟普汇1楼(近茂名北路)"},{"poiid":"B2094654DB64A6FE409D","title":"吉野家  吴江路店","lon":"121.45898087483408","lat":"31.22916178880581","category":"95","category_name":"日本料理","address":"静安区吴江路277号(近茂名北路)"},{"poiid":"B2094654DB6AA7F54993","title":"赛百味 吴江路店 Subway","lon":"121.459811054","lat":"31.229479793","category":"94","category_name":"西餐厅","address":"吴江路269号湟普汇1A101单元近茂名路"},{"poiid":"B2094757D06FA2FD4392","title":"卡卡圈坊","lon":"121.46009198","lat":"31.229713623","category":"67","category_name":"甜品店","address":"上海吴江路169号四季坊142单元"},{"poiid":"B2094757D06FA6F5439B","title":"炖品世家(吴江路店)","lon":"121.459060738","lat":"31.229006274","category":"72","category_name":"广东菜","address":"静安区吴江路269号湟普汇2楼204号商铺(近茂名北路)"},{"poiid":"B2094654DA6CA1F8429B","title":"沈家鱼头王","lon":"121.45962","lat":"31.22982","category":"76","category_name":"上海菜","address":"静安区泰兴路178号瑞泰大酒店2-3楼(近吴江路)"},{"poiid":"B2094757D06FA2FD449E","title":"85度C(吴江路店)","lon":"121.45957964","lat":"31.229537246","category":"112","category_name":"糕饼店","address":"静安区吴江路269号(近茂名北路)"},{"poiid":"B2094757D06FAAFE4192","title":"奥茉优格(吴江路店)","lon":"121.460049195","lat":"31.2294765546","category":"113","category_name":"冷饮店","address":"徐汇区石龙路569号2号楼(近上海南站)"},{"poiid":"B2094757D06FA2FC469F","title":"诚屋拉面","lon":"121.459298834","lat":"31.2292530263","category":"95","category_name":"日本料理","address":"静安区吴江路269号湟普汇212单元(近茂名北路)"},{"poiid":"B2094757D56DAAF44398","title":"代官山吴江路店","lon":"121.458543738","lat":"31.2291892779","category":"96","category_name":"韩国料理","address":"上海吴江路湟普汇"},{"poiid":"B2094757D469A2FD419F","title":"肯德基 吴江路店 KFC","lon":"121.458911054","lat":"31.229248793","category":"68","category_name":"快餐厅","address":"静安区吴江路269号经典茂名商城2楼(近茂名北路)"},{"poiid":"B2094752D26FA4F9489B","title":"点点心 港式茶餐厅","lon":"121.45932","lat":"31.230103","category":"500","category_name":"未知分类","address":null},{"poiid":"B2094655D26CAAFD469F","title":"Issimo","lon":"121.45899194611","lat":"31.229678177388","category":"94","category_name":"西餐厅","address":"静安区南京西路931号家合酒店2楼(近泰兴路)"},{"poiid":"B2094454D26BA2FB439D","title":"乐伯部队锅","lon":"121.459518","lat":"31.229896","category":"247","category_name":"餐饮美食","address":"上海市 吴江路四季坊"},{"poiid":"B2094757D065A6FD429F","title":"2号线南京西路站","lon":"121.458881738","lat":"31.2285002632","category":"500","category_name":"未知分类","address":"上海市静安区南京西路"},{"poiid":"B2094757D069A6FB4292","title":"中国移动南京西路营业厅","lon":"121.458921","lat":"31.230025","category":"151","category_name":"电讯营业厅","address":"南京西路936-938"},{"poiid":"B2094757DA68A0FB409A","title":"CHOCOOLATE（南京西路旗舰店）","lon":"121.458075866103","lat":"31.2290917247828","category":"255","category_name":"专卖店","address":"上海市静安区南京西路1009-1021号2-3层"},{"poiid":"B2094757D06EAAFA4799","title":"吴江路美食街","lon":"121.45953","lat":"31.22911","category":"68","category_name":"快餐厅","address":"静安区吴江路美食休闲购物(近石门一路)"},{"poiid":"B2094757D06EAAF9449E","title":"掌上韩品 吴江路店","lon":"121.4598384","lat":"31.2297555","category":"96","category_name":"韩国料理","address":"静安区吴江路200号(近南京西路)"},{"poiid":"B2094757D06EAAF94192","title":"伊秀手握寿司(吴江路店)","lon":"121.45843146","lat":"31.229081993","category":"95","category_name":"日本料理","address":"静安区吴江路269号湟普汇3楼304-305单元(泰兴路吴江路)"},{"poiid":"B2094753D76FAAFA449C","title":"上海滩国泰旗舰店","lon":"121.466011","lat":"31.216125","category":"249","category_name":"购物服务","address":"淮海中路868号"},{"poiid":"B209475CD564A7F84292","title":"上海滩新天地店","lon":"121.47463","lat":"31.22164","category":"119","category_name":"商场","address":"\"太仓路181弄新天地北里15号\r\n\""},{"poiid":"B209475CD564A7F8439E","title":"上海滩中信泰富店","lon":"121.45602","lat":"31.22851","category":"119","category_name":"商场","address":"\"南京西路1168号中信泰富广场，店铺号221.\r\n\""},{"poiid":"B2094757D66FA6FB4198","title":"COSTA COFFEE(吴江路店)","lon":"121.45886","lat":"31.22874","category":"65","category_name":"咖啡厅","address":"静安区吴江路269号(近茂名北路)"},{"poiid":"B2094655D268A3FB479D","title":"葡京茶餐厅(吴江路店)","lon":"121.45934","lat":"31.22889","category":"72","category_name":"广东菜","address":"静安区吴江路269号湟普汇303号商铺(近茂名北路)"},{"poiid":"B2094655D26FABFF419D","title":"静安小亭麻辣烫 吴江路店","lon":"121.459811054","lat":"31.229479793","category":"68","category_name":"快餐厅","address":"静安区吴江路269号湟普汇2楼(近茂名北路)"},{"poiid":"B2094757D465A4FA489B","title":"牛阵日式火锅 四季坊店","lon":"121.46003","lat":"31.22982","category":"95","category_name":"日本料理","address":"静安区吴江路169号四季坊242单元(近石门一路)"},{"poiid":"B2094750DA6BA1F54598","title":"斯利美SLM","lon":"121.45935","lat":"31.229806","category":"112","category_name":"糕饼店","address":"静安区吴江路169号四季坊149单元(近地铁2号线南京西路站)"},{"poiid":"B2094757D06EAAFE419A","title":"优衣库(南京西路店)","lon":"121.458728","lat":"31.229372","category":"141","category_name":"服装鞋帽皮具店","address":"上海市静安区南京西路969号（地铁2号线南京西路站1、4号出口）"},{"poiid":"B2094757D06EAAFF4298","title":"南京西路地铁站","lon":"121.459723","lat":"31.229734","category":"36","category_name":"地铁站","address":"上海轨道交通 二号线 轨交南京西路站 2"},{"poiid":"B2094757D16CA3F94793","title":"卡乐星","lon":"121.458848738","lat":"31.2292552793","category":"94","category_name":"西餐厅","address":"静安区吴江路169号四季坊150单元(近泰兴路)"},{"poiid":"B2094757D06EABF5469F","title":"COCO壱番屋(吴江路店)","lon":"121.45894768","lat":"31.228867623","category":"95","category_name":"日本料理","address":"静安区吴江路269号湟普汇2楼(近茂名北路)"},{"poiid":"B2094757D06EABF54199","title":"洋面屋五右卫门 吴江路店","lon":"121.4595113","lat":"31.2295151","category":"98","category_name":"意式菜品餐厅","address":"静安区吴江路169号四季坊2楼(近吴江路美食街)"},{"poiid":"B2094655D268A3FB479C","title":"小杨生煎 湟普汇店","lon":"121.459811054","lat":"31.229479793","category":"68","category_name":"快餐厅","address":"静安区吴江路269号2楼(近茂名北路)"},{"poiid":"B2094757D06AA5FE429E","title":"滋滋星","lon":"121.46021973","lat":"31.229662288","category":"99","category_name":"泰国／越南菜品餐厅","address":"静安区吴江路200号2楼(近南京西路)"},{"poiid":"B2094757D06FA6F9489C","title":"代官山(南京西路店)","lon":"121.45798903","lat":"31.228981173","category":"260","category_name":"其他","address":"静安区吴江路269号湟普汇208单元(近吴江路南京西路)"},{"poiid":"B2094757D469A2F9449D","title":"锅品面吧 吴江路店 Noodle Bar","lon":"121.460099","lat":"31.229882","category":"68","category_name":"快餐厅","address":"静安区吴江路202号(近泰兴路)"},{"poiid":"B2094757D06FA1FA4093","title":"伊秀寿司","lon":"121.45877773","lat":"31.229138276","category":"247","category_name":"餐饮美食","address":"上海市静安区吴江路"},{"poiid":"B2094752D56DAAF9469B","title":"点点心茶餐厅","lon":"121.459487","lat":"31.230247","category":"247","category_name":"餐饮美食","address":"南京西路889号2楼"},{"poiid":"B2094757D065AAFC419E","title":"力士相撲焼肉","lon":"121.459747738","lat":"31.2295532857","category":"500","category_name":"未知分类","address":"上海静安区江宁路四季坊"},{"poiid":"B2094757D06FA2FA449F","title":"西北郎烧烤(吴江路店)","lon":"121.46028","lat":"31.22956","category":"68","category_name":"快餐厅","address":"静安区吴江路休闲街200号2楼(近泰兴路)"},{"poiid":"B2094757D06FA2F5409F","title":"弄堂小馄饨","lon":"121.45834","lat":"31.22876","category":"68","category_name":"快餐厅","address":"静安区南京西路1025弄静安别墅107号(近茂名北路)"},{"poiid":"B2094757D06FA1F84492","title":"棒约翰比萨(四季坊店)","lon":"121.460259767","lat":"31.2294456435","category":"94","category_name":"西餐厅","address":"静安区吴江路169号四季坊108(泰兴路吴江路)"},{"poiid":"B2094757D06FA0F5479D","title":"蝶园(吴江路店)","lon":"121.45954","lat":"31.22913","category":"76","category_name":"上海菜","address":"静安区吴江路269号301-302室(近茂名北路)"},{"poiid":"B2094757D56CABFB419A","title":"顺风港湾","lon":"121.45971","lat":"31.229015","category":"76","category_name":"上海菜","address":"静安区泰兴路175号经典茂名裙房4楼(近吴江路)"},{"poiid":"B2094757D069A2FC439B","title":"稻•绿洲泰国时尚餐厅","lon":"121.45864873","lat":"31.228559264","category":"99","category_name":"泰国／越南菜品餐厅","address":"上海市静安区茂名北路吴江路269号皇普汇1楼"},{"poiid":"B2094654DB69A0FA499E","title":"凯司令西餐馆","lon":"121.45799135349","lat":"31.228824346383","category":"247","category_name":"餐饮美食","address":"静安区南京西路1001号3楼(近江宁路)"},{"poiid":"B2094757D06FA2F84198","title":"早安巴黎(吴江路店)","lon":"121.45957","lat":"31.22929","category":"112","category_name":"糕饼店","address":"静安区吴江路169号四季坊1楼114号单元(近石门一路)"},{"poiid":"B2094654DB6AA2FC459D","title":"一茶一坐(南京西路店)","lon":"121.458","lat":"31.22918","category":"260","category_name":"其他","address":"静安区南京西路996号2楼(近南汇路)"},{"poiid":"B2094757D06AA1FB429D","title":"上海少年儿童图书馆","lon":"121.458372567","lat":"31.2296641258","category":"181","category_name":"图书馆","address":"静安区南京西路962号(近茂名北路)"},{"poiid":"B2094757DB6FA1FF429A","title":"鲜芋仙(四季坊店)","lon":"121.4586149423584","lat":"31.229132465841996","category":"67","category_name":"甜品店","address":"静安区吴江路269号湟普汇1楼(近茂名北路)"},{"poiid":"B2094654DB64A6FE409D","title":"吉野家  吴江路店","lon":"121.45898087483408","lat":"31.22916178880581","category":"95","category_name":"日本料理","address":"静安区吴江路277号(近茂名北路)"},{"poiid":"B2094654DB6AA7F54993","title":"赛百味 吴江路店 Subway","lon":"121.459811054","lat":"31.229479793","category":"94","category_name":"西餐厅","address":"吴江路269号湟普汇1A101单元近茂名路"},{"poiid":"B2094757D06FA2FD4392","title":"卡卡圈坊","lon":"121.46009198","lat":"31.229713623","category":"67","category_name":"甜品店","address":"上海吴江路169号四季坊142单元"},{"poiid":"B2094757D06FA6F5439B","title":"炖品世家(吴江路店)","lon":"121.459060738","lat":"31.229006274","category":"72","category_name":"广东菜","address":"静安区吴江路269号湟普汇2楼204号商铺(近茂名北路)"},{"poiid":"B2094654DA6CA1F8429B","title":"沈家鱼头王","lon":"121.45962","lat":"31.22982","category":"76","category_name":"上海菜","address":"静安区泰兴路178号瑞泰大酒店2-3楼(近吴江路)"},{"poiid":"B2094757D06FA2FD449E","title":"85度C(吴江路店)","lon":"121.45957964","lat":"31.229537246","category":"112","category_name":"糕饼店","address":"静安区吴江路269号(近茂名北路)"},{"poiid":"B2094757D06FAAFE4192","title":"奥茉优格(吴江路店)","lon":"121.460049195","lat":"31.2294765546","category":"113","category_name":"冷饮店","address":"徐汇区石龙路569号2号楼(近上海南站)"},{"poiid":"B2094757D06FA2FC469F","title":"诚屋拉面","lon":"121.459298834","lat":"31.2292530263","category":"95","category_name":"日本料理","address":"静安区吴江路269号湟普汇212单元(近茂名北路)"},{"poiid":"B2094757D56DAAF44398","title":"代官山吴江路店","lon":"121.458543738","lat":"31.2291892779","category":"96","category_name":"韩国料理","address":"上海吴江路湟普汇"},{"poiid":"B2094757D469A2FD419F","title":"肯德基 吴江路店 KFC","lon":"121.458911054","lat":"31.229248793","category":"68","category_name":"快餐厅","address":"静安区吴江路269号经典茂名商城2楼(近茂名北路)"},{"poiid":"B2094752D26FA4F9489B","title":"点点心 港式茶餐厅","lon":"121.45932","lat":"31.230103","category":"500","category_name":"未知分类","address":null},{"poiid":"B2094655D26CAAFD469F","title":"Issimo","lon":"121.45899194611","lat":"31.229678177388","category":"94","category_name":"西餐厅","address":"静安区南京西路931号家合酒店2楼(近泰兴路)"},{"poiid":"B2094454D26BA2FB439D","title":"乐伯部队锅","lon":"121.459518","lat":"31.229896","category":"247","category_name":"餐饮美食","address":"上海市 吴江路四季坊"},{"poiid":"B2094757D065A6FD429F","title":"2号线南京西路站","lon":"121.458881738","lat":"31.2285002632","category":"500","category_name":"未知分类","address":"上海市静安区南京西路"},{"poiid":"B2094757D069A6FB4292","title":"中国移动南京西路营业厅","lon":"121.458921","lat":"31.230025","category":"151","category_name":"电讯营业厅","address":"南京西路936-938"},{"poiid":"B2094757DA68A0FB409A","title":"CHOCOOLATE（南京西路旗舰店）","lon":"121.458075866103","lat":"31.2290917247828","category":"255","category_name":"专卖店","address":"上海市静安区南京西路1009-1021号2-3层"},{"poiid":"B2094757D06EAAFA4799","title":"吴江路美食街","lon":"121.45953","lat":"31.22911","category":"68","category_name":"快餐厅","address":"静安区吴江路美食休闲购物(近石门一路)"},{"poiid":"B2094757D06EAAF9449E","title":"掌上韩品 吴江路店","lon":"121.4598384","lat":"31.2297555","category":"96","category_name":"韩国料理","address":"静安区吴江路200号(近南京西路)"},{"poiid":"B2094757D06EAAF94192","title":"伊秀手握寿司(吴江路店)","lon":"121.45843146","lat":"31.229081993","category":"95","category_name":"日本料理","address":"静安区吴江路269号湟普汇3楼304-305单元(泰兴路吴江路)"},{"poiid":"B2094753D76FAAFA449C","title":"上海滩国泰旗舰店","lon":"121.466011","lat":"31.216125","category":"249","category_name":"购物服务","address":"淮海中路868号"},{"poiid":"B209475CD564A7F84292","title":"上海滩新天地店","lon":"121.47463","lat":"31.22164","category":"119","category_name":"商场","address":"\"太仓路181弄新天地北里15号\r\n\""},{"poiid":"B209475CD564A7F8439E","title":"上海滩中信泰富店","lon":"121.45602","lat":"31.22851","category":"119","category_name":"商场","address":"\"南京西路1168号中信泰富广场，店铺号221.\r\n\""},{"poiid":"B2094757D66FA6FB4198","title":"COSTA COFFEE(吴江路店)","lon":"121.45886","lat":"31.22874","category":"65","category_name":"咖啡厅","address":"静安区吴江路269号(近茂名北路)"},{"poiid":"B2094655D268A3FB479D","title":"葡京茶餐厅(吴江路店)","lon":"121.45934","lat":"31.22889","category":"72","category_name":"广东菜","address":"静安区吴江路269号湟普汇303号商铺(近茂名北路)"},{"poiid":"B2094655D26FABFF419D","title":"静安小亭麻辣烫 吴江路店","lon":"121.459811054","lat":"31.229479793","category":"68","category_name":"快餐厅","address":"静安区吴江路269号湟普汇2楼(近茂名北路)"},{"poiid":"B2094757D465A4FA489B","title":"牛阵日式火锅 四季坊店","lon":"121.46003","lat":"31.22982","category":"95","category_name":"日本料理","address":"静安区吴江路169号四季坊242单元(近石门一路)"},{"poiid":"B2094750DA6BA1F54598","title":"斯利美SLM","lon":"121.45935","lat":"31.229806","category":"112","category_name":"糕饼店","address":"静安区吴江路169号四季坊149单元(近地铁2号线南京西路站)"},{"poiid":"B2094757D06EAAFE419A","title":"优衣库(南京西路店)","lon":"121.458728","lat":"31.229372","category":"141","category_name":"服装鞋帽皮具店","address":"上海市静安区南京西路969号（地铁2号线南京西路站1、4号出口）"},{"poiid":"B2094757D06EAAFF4298","title":"南京西路地铁站","lon":"121.459723","lat":"31.229734","category":"36","category_name":"地铁站","address":"上海轨道交通 二号线 轨交南京西路站 2"},{"poiid":"B2094757D16CA3F94793","title":"卡乐星","lon":"121.458848738","lat":"31.2292552793","category":"94","category_name":"西餐厅","address":"静安区吴江路169号四季坊150单元(近泰兴路)"},{"poiid":"B2094757D06EABF5469F","title":"COCO壱番屋(吴江路店)","lon":"121.45894768","lat":"31.228867623","category":"95","category_name":"日本料理","address":"静安区吴江路269号湟普汇2楼(近茂名北路)"},{"poiid":"B2094757D06EABF54199","title":"洋面屋五右卫门 吴江路店","lon":"121.4595113","lat":"31.2295151","category":"98","category_name":"意式菜品餐厅","address":"静安区吴江路169号四季坊2楼(近吴江路美食街)"},{"poiid":"B2094655D268A3FB479C","title":"小杨生煎 湟普汇店","lon":"121.459811054","lat":"31.229479793","category":"68","category_name":"快餐厅","address":"静安区吴江路269号2楼(近茂名北路)"},{"poiid":"B2094757D06AA5FE429E","title":"滋滋星","lon":"121.46021973","lat":"31.229662288","category":"99","category_name":"泰国／越南菜品餐厅","address":"静安区吴江路200号2楼(近南京西路)"},{"poiid":"B2094757D06FA6F9489C","title":"代官山(南京西路店)","lon":"121.45798903","lat":"31.228981173","category":"260","category_name":"其他","address":"静安区吴江路269号湟普汇208单元(近吴江路南京西路)"},{"poiid":"B2094757D469A2F9449D","title":"锅品面吧 吴江路店 Noodle Bar","lon":"121.460099","lat":"31.229882","category":"68","category_name":"快餐厅","address":"静安区吴江路202号(近泰兴路)"},{"poiid":"B2094757D06FA1FA4093","title":"伊秀寿司","lon":"121.45877773","lat":"31.229138276","category":"247","category_name":"餐饮美食","address":"上海市静安区吴江路"},{"poiid":"B2094752D56DAAF9469B","title":"点点心茶餐厅","lon":"121.459487","lat":"31.230247","category":"247","category_name":"餐饮美食","address":"南京西路889号2楼"},{"poiid":"B2094757D065AAFC419E","title":"力士相撲焼肉","lon":"121.459747738","lat":"31.2295532857","category":"500","category_name":"未知分类","address":"上海静安区江宁路四季坊"},{"poiid":"B2094757D06FA2FA449F","title":"西北郎烧烤(吴江路店)","lon":"121.46028","lat":"31.22956","category":"68","category_name":"快餐厅","address":"静安区吴江路休闲街200号2楼(近泰兴路)"},{"poiid":"B2094757D06FA2F5409F","title":"弄堂小馄饨","lon":"121.45834","lat":"31.22876","category":"68","category_name":"快餐厅","address":"静安区南京西路1025弄静安别墅107号(近茂名北路)"},{"poiid":"B2094757D06FA1F84492","title":"棒约翰比萨(四季坊店)","lon":"121.460259767","lat":"31.2294456435","category":"94","category_name":"西餐厅","address":"静安区吴江路169号四季坊108(泰兴路吴江路)"},{"poiid":"B2094757D06FA0F5479D","title":"蝶园(吴江路店)","lon":"121.45954","lat":"31.22913","category":"76","category_name":"上海菜","address":"静安区吴江路269号301-302室(近茂名北路)"},{"poiid":"B2094757D56CABFB419A","title":"顺风港湾","lon":"121.45971","lat":"31.229015","category":"76","category_name":"上海菜","address":"静安区泰兴路175号经典茂名裙房4楼(近吴江路)"},{"poiid":"B2094757D069A2FC439B","title":"稻•绿洲泰国时尚餐厅","lon":"121.45864873","lat":"31.228559264","category":"99","category_name":"泰国／越南菜品餐厅","address":"上海市静安区茂名北路吴江路269号皇普汇1楼"},{"poiid":"B2094654DB69A0FA499E","title":"凯司令西餐馆","lon":"121.45799135349","lat":"31.228824346383","category":"247","category_name":"餐饮美食","address":"静安区南京西路1001号3楼(近江宁路)"},{"poiid":"B2094757D06FA2F84198","title":"早安巴黎(吴江路店)","lon":"121.45957","lat":"31.22929","category":"112","category_name":"糕饼店","address":"静安区吴江路169号四季坊1楼114号单元(近石门一路)"},{"poiid":"B2094654DB6AA2FC459D","title":"一茶一坐(南京西路店)","lon":"121.458","lat":"31.22918","category":"260","category_name":"其他","address":"静安区南京西路996号2楼(近南汇路)"},{"poiid":"B2094757D06AA1FB429D","title":"上海少年儿童图书馆","lon":"121.458372567","lat":"31.2296641258","category":"181","category_name":"图书馆","address":"静安区南京西路962号(近茂名北路)"},{"poiid":"B2094757DB6FA1FF429A","title":"鲜芋仙(四季坊店)","lon":"121.4586149423584","lat":"31.229132465841996","category":"67","category_name":"甜品店","address":"静安区吴江路269号湟普汇1楼(近茂名北路)"},{"poiid":"B2094654DB64A6FE409D","title":"吉野家  吴江路店","lon":"121.45898087483408","lat":"31.22916178880581","category":"95","category_name":"日本料理","address":"静安区吴江路277号(近茂名北路)"},{"poiid":"B2094654DB6AA7F54993","title":"赛百味 吴江路店 Subway","lon":"121.459811054","lat":"31.229479793","category":"94","category_name":"西餐厅","address":"吴江路269号湟普汇1A101单元近茂名路"},{"poiid":"B2094757D06FA2FD4392","title":"卡卡圈坊","lon":"121.46009198","lat":"31.229713623","category":"67","category_name":"甜品店","address":"上海吴江路169号四季坊142单元"},{"poiid":"B2094757D06FA6F5439B","title":"炖品世家(吴江路店)","lon":"121.459060738","lat":"31.229006274","category":"72","category_name":"广东菜","address":"静安区吴江路269号湟普汇2楼204号商铺(近茂名北路)"},{"poiid":"B2094654DA6CA1F8429B","title":"沈家鱼头王","lon":"121.45962","lat":"31.22982","category":"76","category_name":"上海菜","address":"静安区泰兴路178号瑞泰大酒店2-3楼(近吴江路)"},{"poiid":"B2094757D06FA2FD449E","title":"85度C(吴江路店)","lon":"121.45957964","lat":"31.229537246","category":"112","category_name":"糕饼店","address":"静安区吴江路269号(近茂名北路)"},{"poiid":"B2094757D06FAAFE4192","title":"奥茉优格(吴江路店)","lon":"121.460049195","lat":"31.2294765546","category":"113","category_name":"冷饮店","address":"徐汇区石龙路569号2号楼(近上海南站)"},{"poiid":"B2094757D06FA2FC469F","title":"诚屋拉面","lon":"121.459298834","lat":"31.2292530263","category":"95","category_name":"日本料理","address":"静安区吴江路269号湟普汇212单元(近茂名北路)"},{"poiid":"B2094757D56DAAF44398","title":"代官山吴江路店","lon":"121.458543738","lat":"31.2291892779","category":"96","category_name":"韩国料理","address":"上海吴江路湟普汇"},{"poiid":"B2094757D469A2FD419F","title":"肯德基 吴江路店 KFC","lon":"121.458911054","lat":"31.229248793","category":"68","category_name":"快餐厅","address":"静安区吴江路269号经典茂名商城2楼(近茂名北路)"},{"poiid":"B2094752D26FA4F9489B","title":"点点心 港式茶餐厅","lon":"121.45932","lat":"31.230103","category":"500","category_name":"未知分类","address":null},{"poiid":"B2094655D26CAAFD469F","title":"Issimo","lon":"121.45899194611","lat":"31.229678177388","category":"94","category_name":"西餐厅","address":"静安区南京西路931号家合酒店2楼(近泰兴路)"},{"poiid":"B2094454D26BA2FB439D","title":"乐伯部队锅","lon":"121.459518","lat":"31.229896","category":"247","category_name":"餐饮美食","address":"上海市 吴江路四季坊"},{"poiid":"B2094757D065A6FD429F","title":"2号线南京西路站","lon":"121.458881738","lat":"31.2285002632","category":"500","category_name":"未知分类","address":"上海市静安区南京西路"},{"poiid":"B2094757D069A6FB4292","title":"中国移动南京西路营业厅","lon":"121.458921","lat":"31.230025","category":"151","category_name":"电讯营业厅","address":"南京西路936-938"},{"poiid":"B2094757DA68A0FB409A","title":"CHOCOOLATE（南京西路旗舰店）","lon":"121.458075866103","lat":"31.2290917247828","category":"255","category_name":"专卖店","address":"上海市静安区南京西路1009-1021号2-3层"},{"poiid":"B2094757D06EAAFA4799","title":"吴江路美食街","lon":"121.45953","lat":"31.22911","category":"68","category_name":"快餐厅","address":"静安区吴江路美食休闲购物(近石门一路)"},{"poiid":"B2094757D06EAAF9449E","title":"掌上韩品 吴江路店","lon":"121.4598384","lat":"31.2297555","category":"96","category_name":"韩国料理","address":"静安区吴江路200号(近南京西路)"},{"poiid":"B2094757D06EAAF94192","title":"伊秀手握寿司(吴江路店)","lon":"121.45843146","lat":"31.229081993","category":"95","category_name":"日本料理","address":"静安区吴江路269号湟普汇3楼304-305单元(泰兴路吴江路)"},{"poiid":"B2094753D76FAAFA449C","title":"上海滩国泰旗舰店","lon":"121.466011","lat":"31.216125","category":"249","category_name":"购物服务","address":"淮海中路868号"},{"poiid":"B209475CD564A7F84292","title":"上海滩新天地店","lon":"121.47463","lat":"31.22164","category":"119","category_name":"商场","address":"\"太仓路181弄新天地北里15号\r\n\""},{"poiid":"B209475CD564A7F8439E","title":"上海滩中信泰富店","lon":"121.45602","lat":"31.22851","category":"119","category_name":"商场","address":"\"南京西路1168号中信泰富广场，店铺号221.\r\n\""},{"poiid":"B2094757D66FA6FB4198","title":"COSTA COFFEE(吴江路店)","lon":"121.45886","lat":"31.22874","category":"65","category_name":"咖啡厅","address":"静安区吴江路269号(近茂名北路)"},{"poiid":"B2094655D268A3FB479D","title":"葡京茶餐厅(吴江路店)","lon":"121.45934","lat":"31.22889","category":"72","category_name":"广东菜","address":"静安区吴江路269号湟普汇303号商铺(近茂名北路)"},{"poiid":"B2094655D26FABFF419D","title":"静安小亭麻辣烫 吴江路店","lon":"121.459811054","lat":"31.229479793","category":"68","category_name":"快餐厅","address":"静安区吴江路269号湟普汇2楼(近茂名北路)"},{"poiid":"B2094757D465A4FA489B","title":"牛阵日式火锅 四季坊店","lon":"121.46003","lat":"31.22982","category":"95","category_name":"日本料理","address":"静安区吴江路169号四季坊242单元(近石门一路)"},{"poiid":"B2094750DA6BA1F54598","title":"斯利美SLM","lon":"121.45935","lat":"31.229806","category":"112","category_name":"糕饼店","address":"静安区吴江路169号四季坊149单元(近地铁2号线南京西路站)"},{"poiid":"B2094757D06EAAFE419A","title":"优衣库(南京西路店)","lon":"121.458728","lat":"31.229372","category":"141","category_name":"服装鞋帽皮具店","address":"上海市静安区南京西路969号（地铁2号线南京西路站1、4号出口）"},{"poiid":"B2094757D06EAAFF4298","title":"南京西路地铁站","lon":"121.459723","lat":"31.229734","category":"36","category_name":"地铁站","address":"上海轨道交通 二号线 轨交南京西路站 2"},{"poiid":"B2094757D16CA3F94793","title":"卡乐星","lon":"121.458848738","lat":"31.2292552793","category":"94","category_name":"西餐厅","address":"静安区吴江路169号四季坊150单元(近泰兴路)"},{"poiid":"B2094757D06EABF5469F","title":"COCO壱番屋(吴江路店)","lon":"121.45894768","lat":"31.228867623","category":"95","category_name":"日本料理","address":"静安区吴江路269号湟普汇2楼(近茂名北路)"},{"poiid":"B2094757D06EABF54199","title":"洋面屋五右卫门 吴江路店","lon":"121.4595113","lat":"31.2295151","category":"98","category_name":"意式菜品餐厅","address":"静安区吴江路169号四季坊2楼(近吴江路美食街)"},{"poiid":"B2094655D268A3FB479C","title":"小杨生煎 湟普汇店","lon":"121.459811054","lat":"31.229479793","category":"68","category_name":"快餐厅","address":"静安区吴江路269号2楼(近茂名北路)"},{"poiid":"B2094757D06AA5FE429E","title":"滋滋星","lon":"121.46021973","lat":"31.229662288","category":"99","category_name":"泰国／越南菜品餐厅","address":"静安区吴江路200号2楼(近南京西路)"},{"poiid":"B2094757D06FA6F9489C","title":"代官山(南京西路店)","lon":"121.45798903","lat":"31.228981173","category":"260","category_name":"其他","address":"静安区吴江路269号湟普汇208单元(近吴江路南京西路)"},{"poiid":"B2094757D469A2F9449D","title":"锅品面吧 吴江路店 Noodle Bar","lon":"121.460099","lat":"31.229882","category":"68","category_name":"快餐厅","address":"静安区吴江路202号(近泰兴路)"},{"poiid":"B2094757D06FA1FA4093","title":"伊秀寿司","lon":"121.45877773","lat":"31.229138276","category":"247","category_name":"餐饮美食","address":"上海市静安区吴江路"},{"poiid":"B2094752D56DAAF9469B","title":"点点心茶餐厅","lon":"121.459487","lat":"31.230247","category":"247","category_name":"餐饮美食","address":"南京西路889号2楼"},{"poiid":"B2094757D065AAFC419E","title":"力士相撲焼肉","lon":"121.459747738","lat":"31.2295532857","category":"500","category_name":"未知分类","address":"上海静安区江宁路四季坊"},{"poiid":"B2094757D06FA2FA449F","title":"西北郎烧烤(吴江路店)","lon":"121.46028","lat":"31.22956","category":"68","category_name":"快餐厅","address":"静安区吴江路休闲街200号2楼(近泰兴路)"},{"poiid":"B2094757D06FA2F5409F","title":"弄堂小馄饨","lon":"121.45834","lat":"31.22876","category":"68","category_name":"快餐厅","address":"静安区南京西路1025弄静安别墅107号(近茂名北路)"},{"poiid":"B2094757D06FA1F84492","title":"棒约翰比萨(四季坊店)","lon":"121.460259767","lat":"31.2294456435","category":"94","category_name":"西餐厅","address":"静安区吴江路169号四季坊108(泰兴路吴江路)"},{"poiid":"B2094757D06FA0F5479D","title":"蝶园(吴江路店)","lon":"121.45954","lat":"31.22913","category":"76","category_name":"上海菜","address":"静安区吴江路269号301-302室(近茂名北路)"},{"poiid":"B2094757D56CABFB419A","title":"顺风港湾","lon":"121.45971","lat":"31.229015","category":"76","category_name":"上海菜","address":"静安区泰兴路175号经典茂名裙房4楼(近吴江路)"},{"poiid":"B2094757D069A2FC439B","title":"稻•绿洲泰国时尚餐厅","lon":"121.45864873","lat":"31.228559264","category":"99","category_name":"泰国／越南菜品餐厅","address":"上海市静安区茂名北路吴江路269号皇普汇1楼"},{"poiid":"B2094654DB69A0FA499E","title":"凯司令西餐馆","lon":"121.45799135349","lat":"31.228824346383","category":"247","category_name":"餐饮美食","address":"静安区南京西路1001号3楼(近江宁路)"},{"poiid":"B2094757D06FA2F84198","title":"早安巴黎(吴江路店)","lon":"121.45957","lat":"31.22929","category":"112","category_name":"糕饼店","address":"静安区吴江路169号四季坊1楼114号单元(近石门一路)"},{"poiid":"B2094654DB6AA2FC459D","title":"一茶一坐(南京西路店)","lon":"121.458","lat":"31.22918","category":"260","category_name":"其他","address":"静安区南京西路996号2楼(近南汇路)"},{"poiid":"B2094757D06AA1FB429D","title":"上海少年儿童图书馆","lon":"121.458372567","lat":"31.2296641258","category":"181","category_name":"图书馆","address":"静安区南京西路962号(近茂名北路)"},{"poiid":"B2094757DB6FA1FF429A","title":"鲜芋仙(四季坊店)","lon":"121.4586149423584","lat":"31.229132465841996","category":"67","category_name":"甜品店","address":"静安区吴江路269号湟普汇1楼(近茂名北路)"},{"poiid":"B2094654DB64A6FE409D","title":"吉野家  吴江路店","lon":"121.45898087483408","lat":"31.22916178880581","category":"95","category_name":"日本料理","address":"静安区吴江路277号(近茂名北路)"},{"poiid":"B2094654DB6AA7F54993","title":"赛百味 吴江路店 Subway","lon":"121.459811054","lat":"31.229479793","category":"94","category_name":"西餐厅","address":"吴江路269号湟普汇1A101单元近茂名路"},{"poiid":"B2094757D06FA2FD4392","title":"卡卡圈坊","lon":"121.46009198","lat":"31.229713623","category":"67","category_name":"甜品店","address":"上海吴江路169号四季坊142单元"},{"poiid":"B2094757D06FA6F5439B","title":"炖品世家(吴江路店)","lon":"121.459060738","lat":"31.229006274","category":"72","category_name":"广东菜","address":"静安区吴江路269号湟普汇2楼204号商铺(近茂名北路)"},{"poiid":"B2094654DA6CA1F8429B","title":"沈家鱼头王","lon":"121.45962","lat":"31.22982","category":"76","category_name":"上海菜","address":"静安区泰兴路178号瑞泰大酒店2-3楼(近吴江路)"},{"poiid":"B2094757D06FA2FD449E","title":"85度C(吴江路店)","lon":"121.45957964","lat":"31.229537246","category":"112","category_name":"糕饼店","address":"静安区吴江路269号(近茂名北路)"},{"poiid":"B2094757D06FAAFE4192","title":"奥茉优格(吴江路店)","lon":"121.460049195","lat":"31.2294765546","category":"113","category_name":"冷饮店","address":"徐汇区石龙路569号2号楼(近上海南站)"},{"poiid":"B2094757D06FA2FC469F","title":"诚屋拉面","lon":"121.459298834","lat":"31.2292530263","category":"95","category_name":"日本料理","address":"静安区吴江路269号湟普汇212单元(近茂名北路)"},{"poiid":"B2094757D56DAAF44398","title":"代官山吴江路店","lon":"121.458543738","lat":"31.2291892779","category":"96","category_name":"韩国料理","address":"上海吴江路湟普汇"},{"poiid":"B2094757D469A2FD419F","title":"肯德基 吴江路店 KFC","lon":"121.458911054","lat":"31.229248793","category":"68","category_name":"快餐厅","address":"静安区吴江路269号经典茂名商城2楼(近茂名北路)"},{"poiid":"B2094752D26FA4F9489B","title":"点点心 港式茶餐厅","lon":"121.45932","lat":"31.230103","category":"500","category_name":"未知分类","address":null},{"poiid":"B2094655D26CAAFD469F","title":"Issimo","lon":"121.45899194611","lat":"31.229678177388","category":"94","category_name":"西餐厅","address":"静安区南京西路931号家合酒店2楼(近泰兴路)"},{"poiid":"B2094454D26BA2FB439D","title":"乐伯部队锅","lon":"121.459518","lat":"31.229896","category":"247","category_name":"餐饮美食","address":"上海市 吴江路四季坊"},{"poiid":"B2094757D065A6FD429F","title":"2号线南京西路站","lon":"121.458881738","lat":"31.2285002632","category":"500","category_name":"未知分类","address":"上海市静安区南京西路"},{"poiid":"B2094757D069A6FB4292","title":"中国移动南京西路营业厅","lon":"121.458921","lat":"31.230025","category":"151","category_name":"电讯营业厅","address":"南京西路936-938"},{"poiid":"B2094757DA68A0FB409A","title":"CHOCOOLATE（南京西路旗舰店）","lon":"121.458075866103","lat":"31.2290917247828","category":"255","category_name":"专卖店","address":"上海市静安区南京西路1009-1021号2-3层"},{"poiid":"B2094757D06EAAFA4799","title":"吴江路美食街","lon":"121.45953","lat":"31.22911","category":"68","category_name":"快餐厅","address":"静安区吴江路美食休闲购物(近石门一路)"},{"poiid":"B2094757D06EAAF9449E","title":"掌上韩品 吴江路店","lon":"121.4598384","lat":"31.2297555","category":"96","category_name":"韩国料理","address":"静安区吴江路200号(近南京西路)"},{"poiid":"B2094757D06EAAF94192","title":"伊秀手握寿司(吴江路店)","lon":"121.45843146","lat":"31.229081993","category":"95","category_name":"日本料理","address":"静安区吴江路269号湟普汇3楼304-305单元(泰兴路吴江路)"},{"poiid":"B2094753D76FAAFA449C","title":"上海滩国泰旗舰店","lon":"121.466011","lat":"31.216125","category":"249","category_name":"购物服务","address":"淮海中路868号"},{"poiid":"B209475CD564A7F84292","title":"上海滩新天地店","lon":"121.47463","lat":"31.22164","category":"119","category_name":"商场","address":"\"太仓路181弄新天地北里15号\r\n\""},{"poiid":"B209475CD564A7F8439E","title":"上海滩中信泰富店","lon":"121.45602","lat":"31.22851","category":"119","category_name":"商场","address":"\"南京西路1168号中信泰富广场，店铺号221.\r\n\""},{"poiid":"B2094757D66FA6FB4198","title":"COSTA COFFEE(吴江路店)","lon":"121.45886","lat":"31.22874","category":"65","category_name":"咖啡厅","address":"静安区吴江路269号(近茂名北路)"},{"poiid":"B2094655D268A3FB479D","title":"葡京茶餐厅(吴江路店)","lon":"121.45934","lat":"31.22889","category":"72","category_name":"广东菜","address":"静安区吴江路269号湟普汇303号商铺(近茂名北路)"},{"poiid":"B2094655D26FABFF419D","title":"静安小亭麻辣烫 吴江路店","lon":"121.459811054","lat":"31.229479793","category":"68","category_name":"快餐厅","address":"静安区吴江路269号湟普汇2楼(近茂名北路)"},{"poiid":"B2094757D465A4FA489B","title":"牛阵日式火锅 四季坊店","lon":"121.46003","lat":"31.22982","category":"95","category_name":"日本料理","address":"静安区吴江路169号四季坊242单元(近石门一路)"},{"poiid":"B2094750DA6BA1F54598","title":"斯利美SLM","lon":"121.45935","lat":"31.229806","category":"112","category_name":"糕饼店","address":"静安区吴江路169号四季坊149单元(近地铁2号线南京西路站)"},{"poiid":"B2094757D06EAAFE419A","title":"优衣库(南京西路店)","lon":"121.458728","lat":"31.229372","category":"141","category_name":"服装鞋帽皮具店","address":"上海市静安区南京西路969号（地铁2号线南京西路站1、4号出口）"},{"poiid":"B2094757D06EAAFF4298","title":"南京西路地铁站","lon":"121.459723","lat":"31.229734","category":"36","category_name":"地铁站","address":"上海轨道交通 二号线 轨交南京西路站 2"},{"poiid":"B2094757D16CA3F94793","title":"卡乐星","lon":"121.458848738","lat":"31.2292552793","category":"94","category_name":"西餐厅","address":"静安区吴江路169号四季坊150单元(近泰兴路)"},{"poiid":"B2094757D06EABF5469F","title":"COCO壱番屋(吴江路店)","lon":"121.45894768","lat":"31.228867623","category":"95","category_name":"日本料理","address":"静安区吴江路269号湟普汇2楼(近茂名北路)"},{"poiid":"B2094757D06EABF54199","title":"洋面屋五右卫门 吴江路店","lon":"121.4595113","lat":"31.2295151","category":"98","category_name":"意式菜品餐厅","address":"静安区吴江路169号四季坊2楼(近吴江路美食街)"},{"poiid":"B2094655D268A3FB479C","title":"小杨生煎 湟普汇店","lon":"121.459811054","lat":"31.229479793","category":"68","category_name":"快餐厅","address":"静安区吴江路269号2楼(近茂名北路)"},{"poiid":"B2094757D06AA5FE429E","title":"滋滋星","lon":"121.46021973","lat":"31.229662288","category":"99","category_name":"泰国／越南菜品餐厅","address":"静安区吴江路200号2楼(近南京西路)"},{"poiid":"B2094757D06FA6F9489C","title":"代官山(南京西路店)","lon":"121.45798903","lat":"31.228981173","category":"260","category_name":"其他","address":"静安区吴江路269号湟普汇208单元(近吴江路南京西路)"},{"poiid":"B2094757D469A2F9449D","title":"锅品面吧 吴江路店 Noodle Bar","lon":"121.460099","lat":"31.229882","category":"68","category_name":"快餐厅","address":"静安区吴江路202号(近泰兴路)"},{"poiid":"B2094757D06FA1FA4093","title":"伊秀寿司","lon":"121.45877773","lat":"31.229138276","category":"247","category_name":"餐饮美食","address":"上海市静安区吴江路"},{"poiid":"B2094752D56DAAF9469B","title":"点点心茶餐厅","lon":"121.459487","lat":"31.230247","category":"247","category_name":"餐饮美食","address":"南京西路889号2楼"},{"poiid":"B2094757D065AAFC419E","title":"力士相撲焼肉","lon":"121.459747738","lat":"31.2295532857","category":"500","category_name":"未知分类","address":"上海静安区江宁路四季坊"},{"poiid":"B2094757D06FA2FA449F","title":"西北郎烧烤(吴江路店)","lon":"121.46028","lat":"31.22956","category":"68","category_name":"快餐厅","address":"静安区吴江路休闲街200号2楼(近泰兴路)"},{"poiid":"B2094757D06FA2F5409F","title":"弄堂小馄饨","lon":"121.45834","lat":"31.22876","category":"68","category_name":"快餐厅","address":"静安区南京西路1025弄静安别墅107号(近茂名北路)"},{"poiid":"B2094757D06FA1F84492","title":"棒约翰比萨(四季坊店)","lon":"121.460259767","lat":"31.2294456435","category":"94","category_name":"西餐厅","address":"静安区吴江路169号四季坊108(泰兴路吴江路)"},{"poiid":"B2094757D06FA0F5479D","title":"蝶园(吴江路店)","lon":"121.45954","lat":"31.22913","category":"76","category_name":"上海菜","address":"静安区吴江路269号301-302室(近茂名北路)"},{"poiid":"B2094757D56CABFB419A","title":"顺风港湾","lon":"121.45971","lat":"31.229015","category":"76","category_name":"上海菜","address":"静安区泰兴路175号经典茂名裙房4楼(近吴江路)"},{"poiid":"B2094757D069A2FC439B","title":"稻•绿洲泰国时尚餐厅","lon":"121.45864873","lat":"31.228559264","category":"99","category_name":"泰国／越南菜品餐厅","address":"上海市静安区茂名北路吴江路269号皇普汇1楼"},{"poiid":"B2094654DB69A0FA499E","title":"凯司令西餐馆","lon":"121.45799135349","lat":"31.228824346383","category":"247","category_name":"餐饮美食","address":"静安区南京西路1001号3楼(近江宁路)"},{"poiid":"B2094757D06FA2F84198","title":"早安巴黎(吴江路店)","lon":"121.45957","lat":"31.22929","category":"112","category_name":"糕饼店","address":"静安区吴江路169号四季坊1楼114号单元(近石门一路)"},{"poiid":"B2094654DB6AA2FC459D","title":"一茶一坐(南京西路店)","lon":"121.458","lat":"31.22918","category":"260","category_name":"其他","address":"静安区南京西路996号2楼(近南汇路)"},{"poiid":"B2094757D06AA1FB429D","title":"上海少年儿童图书馆","lon":"121.458372567","lat":"31.2296641258","category":"181","category_name":"图书馆","address":"静安区南京西路962号(近茂名北路)"},{"poiid":"B2094757DB6FA1FF429A","title":"鲜芋仙(四季坊店)","lon":"121.4586149423584","lat":"31.229132465841996","category":"67","category_name":"甜品店","address":"静安区吴江路269号湟普汇1楼(近茂名北路)"},{"poiid":"B2094654DB64A6FE409D","title":"吉野家  吴江路店","lon":"121.45898087483408","lat":"31.22916178880581","category":"95","category_name":"日本料理","address":"静安区吴江路277号(近茂名北路)"},{"poiid":"B2094654DB6AA7F54993","title":"赛百味 吴江路店 Subway","lon":"121.459811054","lat":"31.229479793","category":"94","category_name":"西餐厅","address":"吴江路269号湟普汇1A101单元近茂名路"},{"poiid":"B2094757D06FA2FD4392","title":"卡卡圈坊","lon":"121.46009198","lat":"31.229713623","category":"67","category_name":"甜品店","address":"上海吴江路169号四季坊142单元"},{"poiid":"B2094757D06FA6F5439B","title":"炖品世家(吴江路店)","lon":"121.459060738","lat":"31.229006274","category":"72","category_name":"广东菜","address":"静安区吴江路269号湟普汇2楼204号商铺(近茂名北路)"},{"poiid":"B2094654DA6CA1F8429B","title":"沈家鱼头王","lon":"121.45962","lat":"31.22982","category":"76","category_name":"上海菜","address":"静安区泰兴路178号瑞泰大酒店2-3楼(近吴江路)"},{"poiid":"B2094757D06FA2FD449E","title":"85度C(吴江路店)","lon":"121.45957964","lat":"31.229537246","category":"112","category_name":"糕饼店","address":"静安区吴江路269号(近茂名北路)"},{"poiid":"B2094757D06FAAFE4192","title":"奥茉优格(吴江路店)","lon":"121.460049195","lat":"31.2294765546","category":"113","category_name":"冷饮店","address":"徐汇区石龙路569号2号楼(近上海南站)"},{"poiid":"B2094757D06FA2FC469F","title":"诚屋拉面","lon":"121.459298834","lat":"31.2292530263","category":"95","category_name":"日本料理","address":"静安区吴江路269号湟普汇212单元(近茂名北路)"},{"poiid":"B2094757D56DAAF44398","title":"代官山吴江路店","lon":"121.458543738","lat":"31.2291892779","category":"96","category_name":"韩国料理","address":"上海吴江路湟普汇"},{"poiid":"B2094757D469A2FD419F","title":"肯德基 吴江路店 KFC","lon":"121.458911054","lat":"31.229248793","category":"68","category_name":"快餐厅","address":"静安区吴江路269号经典茂名商城2楼(近茂名北路)"},{"poiid":"B2094752D26FA4F9489B","title":"点点心 港式茶餐厅","lon":"121.45932","lat":"31.230103","category":"500","category_name":"未知分类","address":null},{"poiid":"B2094655D26CAAFD469F","title":"Issimo","lon":"121.45899194611","lat":"31.229678177388","category":"94","category_name":"西餐厅","address":"静安区南京西路931号家合酒店2楼(近泰兴路)"},{"poiid":"B2094454D26BA2FB439D","title":"乐伯部队锅","lon":"121.459518","lat":"31.229896","category":"247","category_name":"餐饮美食","address":"上海市 吴江路四季坊"},{"poiid":"B2094757D065A6FD429F","title":"2号线南京西路站","lon":"121.458881738","lat":"31.2285002632","category":"500","category_name":"未知分类","address":"上海市静安区南京西路"},{"poiid":"B2094757D069A6FB4292","title":"中国移动南京西路营业厅","lon":"121.458921","lat":"31.230025","category":"151","category_name":"电讯营业厅","address":"南京西路936-938"},{"poiid":"B2094757DA68A0FB409A","title":"CHOCOOLATE（南京西路旗舰店）","lon":"121.458075866103","lat":"31.2290917247828","category":"255","category_name":"专卖店","address":"上海市静安区南京西路1009-1021号2-3层"}]