[{"poiid":"B2094654DA69A3FF4898","title":"上海市公安局出入境管理局","lon":"121.54994","lat":"31.22182","category":"252","category_name":"楼宇机构","address":"浦东新区民生路1500"},{"poiid":"B2094654DB6AA6F8409B","title":"上海淳大万丽酒店","lon":"121.55226","lat":"31.22385","category":"213","category_name":"五星级宾馆","address":"浦东新区长柳路100号(近迎春路)"},{"poiid":"B2094654DA69A2F54798","title":"世纪皇冠假日酒店","lon":"121.55118","lat":"31.22346","category":"213","category_name":"五星级宾馆","address":"浦东新区民生路1433号(近迎春路)"},{"poiid":"B2094654DA69A3FF4899","title":"上海浦东展览馆","lon":"121.54872","lat":"31.22144","category":"183","category_name":"展览馆","address":"浦东新区合欢路201号(迎春路口)"},{"poiid":"B2094655D26BA2F5439C","title":"浦东市民中心","lon":"121.54692","lat":"31.22326","category":"38","category_name":"公交车站","address":"合欢路2号"},{"poiid":"B2094654DB6BAAFC499A","title":"证大五道口广场","lon":"121.55026","lat":"31.22629","category":"45","category_name":"产业园区","address":"浦东新区民生路1199弄"},{"poiid":"B2094757D06FA0F44798","title":"上海浦东出入境检验检疫局","lon":"121.54857635","lat":"31.225637435","category":"500","category_name":"未知分类","address":"上海民生路1208号"},{"poiid":"B2094655D36DA0F8489F","title":"杨高中路地铁站","lon":"121.5487","lat":"31.22704","category":"36","category_name":"地铁站","address":"上海轨道交通 九号线 轨交杨高中路站 9"},{"poiid":"B2094654DB6BABF5459D","title":"世纪公园(二号门)","lon":"121.55191","lat":"31.21911","category":"680","category_name":"楼宇机构","address":"锦绣路901号"},{"poiid":"B2094757D069A3FE479C","title":"宝燕壹号","lon":"121.550677","lat":"31.224298","category":"75","category_name":"浙江菜","address":"浦东新区民生路1399号太平人寿大厦1-2楼(近丁香路)"},{"poiid":"B2094757D068A1FD409D","title":"和记小菜精菜坊","lon":"121.55141","lat":"31.22311","category":"76","category_name":"上海菜","address":"浦东新区民生路1433号世纪皇冠酒店3楼(近迎春路)"},{"poiid":"B2094757D06FAAFD499A","title":"中国银联","lon":"121.5502","lat":"31.22055","category":"46","category_name":"楼宇","address":"浦东新区含笑路36号银联大厦(含笑路民生路)"},{"poiid":"B2094757D068A0F4479C","title":"上海移动浦东大楼","lon":"121.549956738","lat":"31.2248151847","category":"500","category_name":"未知分类","address":"上海迎春路670号"},{"poiid":"B2094757D068A3FD439B","title":"上海人家精作坊(汇商店)","lon":"121.54943","lat":"31.22415","category":"76","category_name":"上海菜","address":"浦东新区民生路1286号汇商大厦3-4楼(丁香路口)"},{"poiid":"B2094757D16CA6FE409B","title":"世纪皇冠假日酒店咖啡园","lon":"121.551","lat":"31.22299","category":"268","category_name":"自助","address":"浦东新区民生路1433号上海世纪皇冠假日酒店1楼大堂(迎春路口)"},{"poiid":"B2094757D068A4F4489B","title":"上海移动民生大楼","lon":"121.55168467","lat":"31.2229133452","category":"46","category_name":"楼宇","address":"上海迎春路670号"},{"poiid":"B2094757D068A1F54693","title":"浦东新区青少年活动中心","lon":"121.54725","lat":"31.22036","category":"249","category_name":"购物服务","address":"上海浦东新区迎春路318号  "},{"poiid":"B2094757D664A2FC419A","title":"天家 浦东店","lon":"121.55253955661","lat":"31.225538360007","category":"95","category_name":"日本料理","address":"浦东新区长柳路105号(长柳路迎春路)"},{"poiid":"B2094757D06BA5FE4593","title":"万丽轩(淳大万丽店)","lon":"121.55297","lat":"31.22337","category":"72","category_name":"广东菜","address":"上海浦东新区长柳路100号淳大万丽酒店2楼(近迎春路)"},{"poiid":"B2094757D06FA5F94892","title":"金鹰大厦","lon":"121.556","lat":"31.2265","category":"46","category_name":"楼宇","address":"上海市平凉路1398号"},{"poiid":"B2094757D169A3FD489F","title":"世纪公园游乐园草坪","lon":"121.552391238","lat":"31.2227846414","category":"196","category_name":"公园","address":"上海世纪公园"},{"poiid":"B2094757D068A6F4459A","title":"富淳饭店(联洋店)","lon":"121.55282","lat":"31.22336","category":"72","category_name":"广东菜","address":"浦东新区长柳路100号淳大万丽酒店3楼(近迎春路)"},{"poiid":"B2094757D06AA4FA419E","title":"联洋年华","lon":"121.55396","lat":"31.224865","category":"500","category_name":"未知分类","address":"上海市浦东新区丁香路910号"},{"poiid":"B2094751D36CA5FD479C","title":"四季亭(民生路店)","lon":"121.55096","lat":"31.22329","category":"95","category_name":"日本料理","address":"浦东新区民生路1433号世纪皇冠假日酒店2楼(近迎春路路口)"},{"poiid":"B2094654DA69A2F44893","title":"太平人寿大厦","lon":"121.55068","lat":"31.22429","category":"46","category_name":"楼宇","address":"闸北区江场西路395号"},{"poiid":"B2094750D669A3F9499D","title":"古北汤馆","lon":"121.552215","lat":"31.224241","category":"247","category_name":"餐饮美食","address":"浦东新区长柳路58号(近迎春路)"},{"poiid":"B2094654DA69A2F44998","title":"联洋花园","lon":"121.55357","lat":"31.227642","category":"47","category_name":"住宅区","address":"丁香路901弄"},{"poiid":"B2094757D064A2F94792","title":"世纪紫澜","lon":"121.55291","lat":"31.21715","category":"72","category_name":"广东菜","address":"浦东新区锦绣路901号世纪公园2号门内"},{"poiid":"B2094757D16CAAFB419C","title":"上海银监局","lon":"121.54826773","lat":"31.224110169","category":"500","category_name":"未知分类","address":"上海合欢路35号"},{"poiid":"B2094654DA69A2F5479E","title":"中国移动旗舰店","lon":"121.55132","lat":"31.22282","category":"151","category_name":"电讯营业厅","address":"上海市浦东新区,迎春路670号(近民生路)"},{"poiid":"B2094654DB6BAAFC489D","title":"上海之窗御景园","lon":"121.55239","lat":"31.22157","category":"47","category_name":"住宅区","address":"锦绣路888弄1-29号"},{"poiid":"B2094757D069A5FF4398","title":"出入境管理局咖啡厅","lon":"121.549943794","lat":"31.2217617086","category":"260","category_name":"其他","address":"浦东新区民生路1500号上海出入境管理局1楼(含笑路民生路)"},{"poiid":"B2094655D26EA2F4409C","title":"长荣大厦","lon":"121.55006","lat":"31.22619","category":"46","category_name":"楼宇","address":"民生路1199弄证大五道口广场2号楼(南楼)"},{"poiid":"B2094757D66BA2FC439A","title":"淳大万丽日本餐厅","lon":"121.55266408","lat":"31.22380449","category":"95","category_name":"日本料理","address":"长柳路100号淳大万丽酒店1楼近迎春路"},{"poiid":"B2094757D064AAF4479F","title":"丽膳屋","lon":"121.55359","lat":"31.22334","category":"95","category_name":"日本料理","address":"上海浦东新区长柳路100号淳大万丽酒店1楼(近迎春路)  "},{"poiid":"B2094757D06BA3FD4692","title":"乐柚炭烤(迎春路店)","lon":"121.5552","lat":"31.22429","category":"96","category_name":"韩国料理","address":"浦东新区迎春路813号(近长柳路)"},{"poiid":"B2094757D16EA7FE469B","title":"世纪皇冠假日酒店宴会厅","lon":"121.55053","lat":"31.22346","category":"76","category_name":"上海菜","address":"民生路1433号世纪皇冠假日酒店5楼(近迎春路)"},{"poiid":"B2094750D364ABFA489A","title":"上海新国际会展中心","lon":"121.550224","lat":"31.223012","category":"500","category_name":"未知分类","address":"浦东"},{"poiid":"B2094750D56DA7F4499A","title":"星巴克（宏嘉大厦店）","lon":"121.550765","lat":"31.223958","category":"247","category_name":"餐饮美食","address":"福山路388号"},{"poiid":"B2094757DB68A5F4409B","title":"淳大万丽酒店咖啡厅 RENAISSANCE BRASSERIE","lon":"121.552807054","lat":"31.223998793","category":"268","category_name":"自助","address":"浦东新区长柳路100号淳大万丽酒店2楼(近迎春路)"},{"poiid":"B2094654DA69A2F5449C","title":"天安花园","lon":"121.55541","lat":"31.222439","category":"47","category_name":"住宅区","address":"上海市浦东新区锦绣路800号"},{"poiid":"B2094655D36DA0FB469F","title":"迎春路民生路","lon":"121.54995","lat":"31.22274","category":"38","category_name":"公交车站","address":""},{"poiid":"B2094655D36DA0FB4698","title":"迎春路长柳路","lon":"121.5527","lat":"31.22357","category":"38","category_name":"公交车站","address":""},{"poiid":"B2094757D068A5FD4893","title":"联洋社区","lon":"121.55323028","lat":"31.226751327","category":"47","category_name":"住宅区","address":"上海丁香路"},{"poiid":"B2094655D26DA5F5449B","title":"金鹰大厦A栋","lon":"121.55009","lat":"31.21998","category":"46","category_name":"楼宇","address":"民生路1518"},{"poiid":"B2094654DB6BABF5449F","title":"金鹰大厦B栋","lon":"121.55049","lat":"31.22056","category":"46","category_name":"楼宇","address":"民生路1518"},{"poiid":"B2094655D26EA3FF499C","title":"华丽家族花园","lon":"121.55773","lat":"31.22375","category":"47","category_name":"住宅区","address":"上海市浦东新区锦绣路666号"},{"poiid":"B2094655D265AAFA429F","title":"菌菇老鸭粉丝煲","lon":"121.55415","lat":"31.22366","category":"86","category_name":"火锅店","address":"浦东新区迎春路798号(近民生路)"},{"poiid":"B2094655D268ABFD469A","title":"上海海事法院","lon":"121.5491","lat":"31.223","category":"608","category_name":"法院","address":"迎春路567号"},{"poiid":"B2094750D26EABFB4292","title":"吞拿家","lon":"121.553944","lat":"31.224024","category":"95","category_name":"日本料理","address":"浦东新区迎春路805号(近长柳路)"},{"poiid":"B2094757D66CA7FA409F","title":"中国证监会上海证监局","lon":"121.54776273","lat":"31.22228513","category":"500","category_name":"未知分类","address":"上海市浦东新区迎春路555号"},{"poiid":"B2094757D16DA2FC419C","title":"和中堂足道(联洋店)","lon":"121.55368","lat":"31.22162","category":"149","category_name":"洗浴推拿场所","address":"浦东新区长柳路99号(近迎春路)"},{"poiid":"B2094757D66DA2FE419C","title":"中信银行(联洋支行)","lon":"121.55276333","lat":"31.221957573","category":"150","category_name":"银行","address":"上海长柳路"},{"poiid":"B2094757D169ABF94999","title":"上海市进才实验中学","lon":"121.55592597","lat":"31.224542927","category":"253","category_name":"校园生活","address":"浦东新区金松路191号(近迎春路)"},{"poiid":"B2094757D06AA1FC409D","title":"一兆韦德联洋店","lon":"121.55614113","lat":"31.226435661","category":"247","category_name":"餐饮美食","address":"浦东新区芳甸路333弄1号(锦绣路口)"},{"poiid":"B2094757D065A6F54998","title":"全家便利(迎春店)","lon":"121.55428","lat":"31.22341","category":"117","category_name":"便民商店/便利店","address":"上海浦东新区迎春路800号(近长柳路)  "},{"poiid":"B2094757D06FABF8449D","title":"移动民生营业厅","lon":"121.5513153","lat":"31.222822189","category":"260","category_name":"其他","address":"上海浦东新区迎春路670号"},{"poiid":"B2094757D168A0F4449A","title":"常湘苑","lon":"121.554724924","lat":"31.224290563","category":"77","category_name":"湖南菜","address":"浦东新区迎春路809号(近长柳路)"},{"poiid":"B2094757D065A6FF499A","title":"浦东新区档案馆","lon":"121.55373537","lat":"31.21936518","category":"253","category_name":"校园生活","address":"浦东新区合欢路201号"},{"poiid":"B2094757DA65A3F94198","title":"大拇指","lon":"121.55253955661","lat":"31.225538360007","category":"627","category_name":"一般地点标志","address":"丁香路"},{"poiid":"B2094655D264ABFC4193","title":"土控大楼","lon":"121.54897","lat":"31.22009","category":"46","category_name":"楼宇","address":"朝阳华威桥东北角"},{"poiid":"B2094757D569A3FD4798","title":"喜士多便利店(迎春路)","lon":"121.55341309","lat":"31.223919","category":"117","category_name":"便民商店/便利店","address":"迎春路773"},{"poiid":"B2094757D16FA1FB4593","title":"农业银行联洋支行","lon":"121.551678178","lat":"31.2233525035","category":"150","category_name":"银行","address":"上海民生路1433号"},{"poiid":"B2094752D26DA1FE419D","title":"御龙宴","lon":"121.54935","lat":"31.22479","category":"247","category_name":"餐饮美食","address":"浦东新区杨高中路(近南洋径路)"},{"poiid":"B2094655D26BA1F94193","title":"民生路丁香路","lon":"121.54952","lat":"31.22482","category":"38","category_name":"公交车站","address":""},{"poiid":"B2094757D569A2FF409C","title":"Cookies(锦绣路店)","lon":"121.55204","lat":"31.220745","category":"141","category_name":"服装鞋帽皮具店","address":"锦绣路888弄10号御景圆会所"},{"poiid":"B2094654DB6AA3FC429F","title":"金鹰大厦B栋咖啡厅","lon":"121.5505","lat":"31.22056","category":"247","category_name":"餐饮美食","address":"浦东新区民生路1518号金鹰大厦B栋底楼104(近丁香路)"},{"poiid":"B2094757D065AAFB409B","title":"7-ELEVEN(迎春店)","lon":"121.554584","lat":"31.223764","category":"117","category_name":"便民商店/便利店","address":"上海市浦东新区迎春路836号"},{"poiid":"B2094654DA69A2F5479D","title":"中国农业银行浦东联洋支行","lon":"121.55092","lat":"31.2234","category":"150","category_name":"银行","address":"浦东新区民生路1433号(民生路迎春路)"},{"poiid":"B2094757D66DA4F5429A","title":"蕴琦家","lon":"121.55381373","lat":"31.222349132","category":"500","category_name":"未知分类","address":null},{"poiid":"B2094655D264A5FB459D","title":"文献中心","lon":"121.54916","lat":"31.22156","category":"46","category_name":"楼宇","address":"迎春路520号"},{"poiid":"B2094757D16BA0FA419F","title":"名车坊","lon":"121.55317373","lat":"31.2205854","category":"500","category_name":"未知分类","address":"浦东新区锦绣路801号(近民生路)"},{"poiid":"B2094654DA69A2F5479B","title":"联洋新苑(北门)","lon":"121.55252","lat":"31.22325","category":"48","category_name":"楼宇大门","address":"迎春路736弄1-3号"},{"poiid":"B2094757DA6EAAFE4498","title":"上海检验公司3c资料认定鉴定部","lon":"121.550424999998","lat":"31.2227695999998","category":"263","category_name":"公司","address":"浦东新区民生路1403号2007室"},{"poiid":"B2094654DA69A2F5409C","title":"思妍丽(长柳路)","lon":"121.55306","lat":"31.22419","category":"255","category_name":"专卖店","address":"浦东新区长柳路109号"},{"poiid":"B2094757D16BA0FC4899","title":"思妍丽女子美容护肤中心(联洋长柳店)","lon":"121.55299735","lat":"31.22415223","category":"148","category_name":"美容美发店","address":"上海浦东新区长柳路109号(近世纪公园)"},{"poiid":"B2094752D76CA5FA469A","title":"久光百货","lon":"121.550705","lat":"31.22113","category":"249","category_name":"购物服务","address":null},{"poiid":"B209475CD16BA7FC4599","title":"平壤高丽饭店","lon":"121.556854","lat":"31.222526","category":"247","category_name":"餐饮美食","address":"上海市 上海市浦东新区长柳路88号"},{"poiid":"B2094654DA69A2F5449F","title":"克丽缇娜(迎春路)","lon":"121.55509","lat":"31.2239","category":"148","category_name":"美容美发店","address":"迎春路848"},{"poiid":"B2094757D569A0F84498","title":"999名酒坊","lon":"121.553487680002","lat":"31.2234752100001","category":"249","category_name":"购物服务","address":"浦东新区迎春路786号"},{"poiid":"B2094654DA69A2F5419A","title":"自然美(迎春路)","lon":"121.55334","lat":"31.2239","category":"255","category_name":"专卖店","address":"浦东新区迎春路767号(近长柳路)"},{"poiid":"B2094757D164A1F4459F","title":"百芙丽护发中心","lon":"121.553754","lat":"31.224004","category":"500","category_name":"未知分类","address":"上海迎春路791号"},{"poiid":"B2094757D16EA7FF419D","title":"evergreen","lon":"121.5537796","lat":"31.223737716","category":"500","category_name":"未知分类","address":"上海民生路1199弄2号"},{"poiid":"B2094757D16BA1F4439B","title":"上海保监局","lon":"121.549104868","lat":"31.2226334054","category":"500","category_name":"未知分类","address":"上海合欢路35号"},{"poiid":"B2094655D26BA5F8449D","title":"中国光大银行联洋支行","lon":"121.55425","lat":"31.2241","category":"150","category_name":"银行","address":"迎春路821、825"},{"poiid":"B2094654DA69A3FF4493","title":"上海因私出入境服务中心","lon":"121.55049","lat":"31.22056","category":"248","category_name":"生活娱乐","address":"民生路1518号金鹰大厦B栋702A"},{"poiid":"B2094655D268A6FA479D","title":"银联大厦(北门)","lon":"121.5494","lat":"31.22057","category":"49","category_name":"无中心点楼宇大门","address":"含笑路36"},{"poiid":"B2094655D26FAAF9489B","title":"有朋普洱茶庄联洋店","lon":"121.5512","lat":"31.22412","category":"255","category_name":"专卖店","address":"浦东新区民生路1403号上海信息大厦106室(民生路迎春路)"},{"poiid":"B2094757D168ABFB489B","title":"莫泰168上海迎春路店","lon":"121.55550883","lat":"31.224638906","category":"500","category_name":"未知分类","address":"上海市浦东新区迎春路873号(近金松路)"},{"poiid":"B2094757D06BA4FF4998","title":"家乐福联洋店","lon":"121.54872131","lat":"31.221565246","category":"247","category_name":"餐饮美食","address":"上海芳甸路300号"},{"poiid":"B2094757D065A2FD499D","title":"交通银行信用卡中心食堂","lon":"121.55541697","lat":"31.222351843","category":"500","category_name":"未知分类","address":"上海市浦东新区张江高科松涛路80号"},{"poiid":"B2094655D36DA0FB469E","title":"迎春路金松路","lon":"121.55574","lat":"31.22424","category":"38","category_name":"公交车站","address":""},{"poiid":"B2094654DA69A2F54199","title":"奔忆咖啡","lon":"121.55352","lat":"31.22394","category":"260","category_name":"其他","address":"浦东新区迎春路779号(近长柳路)"},{"poiid":"B2094654DA69A2F5469F","title":"中原地产世纪公园店","lon":"121.55375","lat":"31.22354","category":"248","category_name":"生活娱乐","address":"迎春路776"},{"poiid":"B2094757D065A2FA409C","title":"迪欧咖啡 民生店 DIO CAFE","lon":"121.549442054","lat":"31.225148793","category":"260","category_name":"其他","address":"浦东新区民生路1286号2楼(近丁香路)"},{"poiid":"B2094654DA69A3FF4292","title":"上海市浦东新区档案馆(上海市公安局出入境管理局西南)","lon":"121.54915","lat":"31.22157","category":"193","category_name":"档案馆","address":"迎春路520"},{"poiid":"B2094757D164A7F4459F","title":"艺术宝贝","lon":"121.550124738","lat":"31.2209301019","category":"249","category_name":"购物服务","address":"上海市浦东新区民生路1518号金鹰大厦2楼"},{"poiid":"B2094757D164ABFA489F","title":"盛典之约","lon":"121.55385873","lat":"31.224017167","category":"500","category_name":"未知分类","address":"上海市浦东新区民生路"},{"poiid":"B209475CD764A5F9409E","title":"上海人家 汇商店","lon":"121.549442054","lat":"31.225148793","category":"76","category_name":"上海菜","address":"民生路1286号汇商大厦3-4楼近丁香路"},{"poiid":"B2094655D26BABFA499D","title":"百盛(莘庄店)","lon":"121.55046","lat":"31.22597","category":"119","category_name":"商场","address":"莘庄都市路5001号仲盛商业中心(近莘朱路)"},{"poiid":"B2094655D36CA7F94799","title":"合欢路含笑路","lon":"121.54809","lat":"31.22015","category":"38","category_name":"公交车站","address":""},{"poiid":"B2094654DA69A2F5439C","title":"韩国超市","lon":"121.55559","lat":"31.22403","category":"118","category_name":"超级市场","address":""},{"poiid":"B2094654DA69A3FE499D","title":"上海善爱齿口腔门诊部","lon":"121.54899","lat":"31.22469","category":"162","category_name":"医院","address":"民生路1286号汇商大厦19层"},{"poiid":"B2094757D16FA0FB4899","title":"曼都发型(迎春店)","lon":"121.55558","lat":"31.22369","category":"148","category_name":"美容美发店","address":"浦东新区迎春路862号(近金松路)"},{"poiid":"B2094757D16EA5FF469D","title":"工商银行上海市联洋第二支行","lon":"121.55226135","lat":"31.225002288","category":"500","category_name":"未知分类","address":"上海浦东新区长柳路58号证大立方大厦底层"},{"poiid":"B2094757DA65AAF8469C","title":"炉边谈情","lon":"121.5541554","lat":"31.22779637","category":"247","category_name":"餐饮美食","address":"大拇指广场"},{"poiid":"B2094757D06AABFE439B","title":"上海出入境檢驗檢疫局","lon":"121.54858","lat":"31.225638","category":"500","category_name":"未知分类","address":"上海民生路1208號"},{"poiid":"B2094757D068A0FB469F","title":"亚太盛汇","lon":"121.55","lat":"31.2244","category":"249","category_name":"购物服务","address":"浦东新区世纪大道2002号科技馆地下铁(近二号线上海科技馆站)"},{"poiid":"B2094654DB6BAAFC479E","title":"上海之窗御景园(东二门)","lon":"121.55329","lat":"31.22249","category":"656","category_name":"大门","address":"锦绣路888弄1-29号"},{"poiid":"B2094757D16EABF5459F","title":"东方幼儿园丁香部","lon":"121.55326073","lat":"31.226997231","category":"500","category_name":"未知分类","address":"浦东新区丁香路911号(长柳路丁香路)"},{"poiid":"B2094757D06BA1F4499C","title":"芳华路","lon":"121.54811859","lat":"31.221250534","category":"500","category_name":"未知分类","address":"上海浦东新区"},{"poiid":"B2094655D26DA1FE4099","title":"商业中心","lon":"121.55046","lat":"31.22597","category":"46","category_name":"楼宇","address":"民生路1199弄证大五道口广场3号楼(东楼)"},{"poiid":"B2094757D66DA2F84593","title":"雅蕾舞蹈工作室(迎春路店)","lon":"121.55494","lat":"31.22367","category":"500","category_name":"未知分类","address":"浦东新区迎春路1275号2楼(近大拇指广场)"},{"poiid":"B2094654DA69A2F54393","title":"中国工商银行上海市联洋支行","lon":"121.55543","lat":"31.22399","category":"150","category_name":"银行","address":"浦东新区迎春路870号近金松路(金松路迎春路)"},{"poiid":"B2094655D36CA6F4479B","title":"丁香路长柳路","lon":"121.55291","lat":"31.22641","category":"38","category_name":"公交车站","address":""},{"poiid":"B2094655D26DAAF8489E","title":"全美测评软件系统北京有限公司","lon":"121.55068","lat":"31.22429","category":"263","category_name":"公司","address":"民生路1399号太平人寿大厦1层"},{"poiid":"B2094655D268A4FD4992","title":"华丽家族花园(边门)","lon":"121.55677","lat":"31.2226","category":"47","category_name":"住宅区","address":""},{"poiid":"B2094654DB6BABF5459B","title":"上海卓杰服饰有限公司","lon":"121.55049","lat":"31.22056","category":"263","category_name":"公司","address":"民生路1518号金鹰大厦B栋1901-1902"},{"poiid":"B2094654DA69A2F4489C","title":"太平人寿保险有限公司","lon":"121.55068","lat":"31.22429","category":"219","category_name":"其他","address":"民生路1399号太平人寿大厦4、7-10、17-18层"},{"poiid":"B2094655D264A0FB499E","title":"百安居莘庄店","lon":"121.55046","lat":"31.22597","category":"123","category_name":"家具建材市场","address":"莘庄都市路5001号仲盛商业中心"},{"poiid":"B2094757D16EA7FF479F","title":"上海音乐烟花节","lon":"121.54709373","lat":"31.224774183","category":"500","category_name":"未知分类","address":"上海世纪公园"},{"poiid":"B2094655D26EA3FE419E","title":"金融大厦(丁香路)","lon":"121.55002","lat":"31.22677","category":"46","category_name":"楼宇","address":"民生路1199弄证大五道口广场1号楼(北楼)"},{"poiid":"B2094655D26FABFD4998","title":"世纪公园(北门)","lon":"121.55784","lat":"31.2217","category":"680","category_name":"楼宇机构","address":""},{"poiid":"B2094757D568ABF44293","title":"同润商务园","lon":"121.547843","lat":"31.224555","category":"46","category_name":"楼宇","address":"浦东区丁香路716号"},{"poiid":"B2094655D26DA4F9499D","title":"上海市浦东新区商会","lon":"121.54899","lat":"31.22469","category":"250","category_name":"公园户外","address":"民生路1286号汇商大厦"},{"poiid":"B2094654DA69A2F5449D","title":"天安花园(北门)","lon":"121.55488","lat":"31.22388","category":"656","category_name":"大门","address":"锦绣路800弄"},{"poiid":"B2094654DA69A2F4489E","title":"上海之窗御景园(东门)","lon":"121.55377","lat":"31.22103","category":"656","category_name":"大门","address":"锦绣路888弄1-29号"},{"poiid":"B2094757D16DABFE4292","title":"锦绣路中石油加油站","lon":"121.54899873","lat":"31.219420069","category":"500","category_name":"未知分类","address":"上海锦绣路合欢路口"},{"poiid":"B2094757D168AAFE4399","title":"浦东新区档案馆食堂","lon":"121.54724","lat":"31.22285","category":"68","category_name":"快餐厅","address":"上海浦东新区合欢路201号B1楼  "},{"poiid":"B2094654DA69A2F5449E","title":"汉宇地产世纪分行(迎春路)","lon":"121.55516","lat":"31.22392","category":"248","category_name":"生活娱乐","address":"迎春路850号"},{"poiid":"B2094655D26FA4FC4692","title":"侨泰高尔夫俱乐部","lon":"121.55018","lat":"31.22525","category":"206","category_name":"高尔夫相关","address":"浦东新区丁香路778号"},{"poiid":"B2094757D169A5F8439D","title":"證大五道口廣場","lon":"121.54916673","lat":"31.227318238","category":"500","category_name":"未知分类","address":"上海市浦东新区民生路1199弄1號樓1902室"},{"poiid":"B2094654DA69A2F5479F","title":"上海之窗御景园(西门)","lon":"121.55153","lat":"31.22082","category":"656","category_name":"大门","address":"锦绣路888弄1-29号"},{"poiid":"B2094757D06BABFE499E","title":"工行联洋支行","lon":"121.55556469","lat":"31.22424699","category":"150","category_name":"银行","address":"上海迎春路870号"},{"poiid":"B2094655D26DABFA429A","title":"上海之窗御景园(南门)","lon":"121.55245","lat":"31.22043","category":"656","category_name":"大门","address":"锦绣路888弄1-29号"},{"poiid":"B2094757D164A1F8439B","title":"电信研究院","lon":"121.555608","lat":"31.224877","category":"253","category_name":"校园生活","address":"上海金松路88号"},{"poiid":"B2094654DA69A2F5439A","title":"联洋邮政所","lon":"121.55533","lat":"31.22443","category":"248","category_name":"生活娱乐","address":"迎春路869号"},{"poiid":"B2094757D568A4F94092","title":"美津浓丁香路店","lon":"121.5501864","lat":"31.22525667","category":"249","category_name":"购物服务","address":"浦东新区丁香路778号(丁香路合欢路)"},{"poiid":"B2094654DA69A2F5429F","title":"联洋年华(南门)","lon":"121.55478","lat":"31.22421","category":"656","category_name":"大门","address":"丁香路910弄"},{"poiid":"B2094757D66EA7F94293","title":"全家便利(民生三店)","lon":"121.549247738","lat":"31.2250481897","category":"249","category_name":"购物服务","address":"上海市浦东新区丁香路民生路"},{"poiid":"B2094757D06BABF5419E","title":"民生银行世纪公园支行","lon":"121.549205071","lat":"31.2259218749","category":"150","category_name":"银行","address":"上海民生路1888号"},{"poiid":"B2094757D06AA3FC479A","title":"支付宝上海","lon":"121.550265","lat":"31.226295","category":"500","category_name":"未知分类","address":"中国上海市浦东新区民生路1199号"},{"poiid":"B2094654DB6BAAFC4799","title":"华丽家族花园(北一号门)","lon":"121.55764","lat":"31.2247","category":"47","category_name":"住宅区","address":"锦绣路666弄"},{"poiid":"B2094654DA69A3FF419E","title":"上海人家壹号会所","lon":"121.54898","lat":"31.22469","category":"263","category_name":"公司","address":"民生路1286号汇商大厦203"},{"poiid":"B2094757D064A6FC419A","title":"794民生路丁香路站","lon":"121.548809","lat":"31.225051","category":"500","category_name":"未知分类","address":"上海民生路丁香路"},{"poiid":"B2094655D26DA4F54699","title":"联洋年华(西门)","lon":"121.55278","lat":"31.22466","category":"656","category_name":"大门","address":"丁香路910弄5幢7-8号"},{"poiid":"B2094654DA69A2F44898","title":"天安花园(南门)","lon":"121.55503","lat":"31.22111","category":"656","category_name":"大门","address":"锦绣路800弄1-38号"},{"poiid":"B2094757D164A2FC409D","title":"中国移动视频运营中心","lon":"121.54890673","lat":"31.224942187","category":"500","category_name":"未知分类","address":"上海浦东新区丁香路750号"},{"poiid":"B2094654DA69A2F54098","title":"联洋商务别墅(西门)","lon":"121.55578","lat":"31.22633","category":"47","category_name":"住宅区","address":"金松路99"},{"poiid":"B2094654DA69A3FE499E","title":"中国质量认证中心上海分中心","lon":"121.54868","lat":"31.2259","category":"250","category_name":"公园户外","address":""},{"poiid":"B2094757D16EA3FC499A","title":"恒生银行大拇指支行","lon":"121.5538972","lat":"31.2266081","category":"500","category_name":"未知分类","address":"上海市浦东新区迎春路1050号首层"},{"poiid":"B2094654DA69A3FF489C","title":"中国银行业监督管理委员会上海监管局","lon":"121.54772","lat":"31.22349","category":"150","category_name":"银行","address":"合欢路35号"},{"poiid":"B2094654DA69A3FF409B","title":"太平资产管理有限公司","lon":"121.54899","lat":"31.22469","category":"263","category_name":"公司","address":"民生路1286号汇商大厦17层、202"},{"poiid":"B2094654DA69A2F5409B","title":"联洋商务别墅","lon":"121.55625","lat":"31.22646","category":"47","category_name":"住宅区","address":"金松路99"},{"poiid":"B2094757D568A1FC449D","title":"浦东新区中小企业推进服务中心","lon":"121.54900174","lat":"31.22470296","category":"248","category_name":"生活娱乐","address":"民生路1286号汇商大厦808"},{"poiid":"B2094654DA69A2F4489A","title":"华丽家族花园(西大门)","lon":"121.55668","lat":"31.22282","category":"48","category_name":"楼宇大门","address":"锦绣路666弄"},{"poiid":"B2094655D26EA2FC4499","title":"佐登妮丝美容SPA生活馆(联洋店)","lon":"121.55778","lat":"31.2246","category":"148","category_name":"美容美发店","address":"浦东新区锦绣路666弄华丽家族花园小区18号1楼会所"},{"poiid":"B2094757D568A4F5409D","title":"昆仑好客(银联大厦西南)","lon":"121.54765462","lat":"31.21890788","category":"117","category_name":"便民商店/便利店","address":"中国上海市浦东新区锦绣路"},{"poiid":"B2094654DA69A3F84198","title":"世纪公园(3号门)售票处","lon":"121.55696","lat":"31.22128","category":"33","category_name":"公园景点售票处","address":""},{"poiid":"B2094655D26DA0FC4698","title":"长荣航空股份有限公司上海筹备处","lon":"121.55005","lat":"31.22618","category":"263","category_name":"公司","address":"民生路1199弄证大五道口广场长荣大厦5层"},{"poiid":"B2094757D66EA5FF4892","title":"点点宠物诊所","lon":"121.55495452","lat":"31.225942356","category":"668","category_name":"诊所","address":"上海浦东丁香路1171号"},{"poiid":"B2094655D26DA0FC4198","title":"智航信息处理(上海)有限公司","lon":"121.55005","lat":"31.22619","category":"263","category_name":"公司","address":"民生路1199弄证大五道口广场长荣大厦6-7层"},{"poiid":"B2094655D26DA0FC469B","title":"深圳永航国际船务代理有限公司上海分公司","lon":"121.55005","lat":"31.22619","category":"263","category_name":"公司","address":"民生路1199弄证大五道口广场长荣大厦8-11层"},{"poiid":"B2094654DA69A2F44993","title":"联洋年华(北门)","lon":"121.55278","lat":"31.2261","category":"656","category_name":"大门","address":"丁香路910弄1-24号"},{"poiid":"B2094655D268ABFD469E","title":"证大五道口金融中心","lon":"121.55009","lat":"31.22604","category":"219","category_name":"其他","address":"东新区丁香路"},{"poiid":"B2094654DA69A3FE499B","title":"上海市浦东土地发展(控股)公司","lon":"121.54741","lat":"31.22451","category":"263","category_name":"公司","address":"丁香路716"},{"poiid":"B2094752DB69A2FB409D","title":"仁恒河滨","lon":"121.554465","lat":"31.22766","category":"500","category_name":"未知分类","address":"上海市 丁香路1599弄"},{"poiid":"B2094757D168A3FA439F","title":"上海第二工业大学 河南宿舍","lon":"121.55812997","lat":"31.223754909","category":"500","category_name":"未知分类","address":"上海第二工业大学 河南宿舍"},{"poiid":"B2094654DA69A3FF4999","title":"上海市浦东新区学生艺术团","lon":"121.54718","lat":"31.21991","category":"189","category_name":"文艺团体","address":"迎春路318"},{"poiid":"B2094654DA69A2F4489B","title":"华丽家族花园(南门)","lon":"121.55779","lat":"31.22229","category":"48","category_name":"楼宇大门","address":"锦绣路666弄"},{"poiid":"B2094757D169A7FD479B","title":"中国雅虎","lon":"121.54928","lat":"31.227234","category":"500","category_name":"未知分类","address":"上海民生路1199弄1号楼"},{"poiid":"B2094757D569A1F84599","title":"同润商务园(北门)","lon":"121.54761882","lat":"31.22476535","category":"48","category_name":"楼宇大门","address":"丁香路716"},{"poiid":"B2094654DA69A2F4499C","title":"中邦晶座(北门)","lon":"121.55613","lat":"31.22698","category":"48","category_name":"楼宇大门","address":"丁香路1066号"},{"poiid":"B2094757D568A7FF419A","title":"出租车上下客站","lon":"121.54809028","lat":"31.2202889","category":"251","category_name":"出行住宿","address":"中国上海市浦东新区合欢路"},{"poiid":"B2094655D26DA0FC4699","title":"中国大地财产保险股份有限公司","lon":"121.55002","lat":"31.22676","category":"219","category_name":"其他","address":"民生路1199弄证大五道口广场金融大厦8层"},{"poiid":"B2094655D26DA7F9419D","title":"联洋花园(南二门)","lon":"121.55233","lat":"31.22648","category":"656","category_name":"大门","address":"丁香路901弄"},{"poiid":"B2094655D26DA1F94299","title":"联洋年华(东门)","lon":"121.55528","lat":"31.22597","category":"656","category_name":"大门","address":""},{"poiid":"B2094654DA69A2F44999","title":"联洋花园(南门)","lon":"121.55399","lat":"31.22714","category":"656","category_name":"大门","address":"丁香路999弄"}]