[{"poiid":"B2094655D26AAAFF419C","title":"彭浦第一摊巧玲炸鸡脯","lon":"121.44949","lat":"31.3082","category":"68","category_name":"快餐厅","address":"闸北区闻喜路820-2号(近共和新路)"},{"poiid":"B2094757D06EAAFE409D","title":"彭浦新村地铁站","lon":"121.44864778","lat":"31.306739129","category":"36","category_name":"地铁站","address":"上海轨道交通 一号线 轨交彭浦新村站 1"},{"poiid":"B2094757D06EAAFB439D","title":"彭浦新村","lon":"121.45090378","lat":"31.307888662","category":"47","category_name":"住宅区","address":"上海闻喜路555弄"},{"poiid":"B2094757D06FA2FC499A","title":"买卖提红玫瑰烤涮龙虾馆(闻喜路店)","lon":"121.44964","lat":"31.30809","category":"68","category_name":"快餐厅","address":"闸北区闻喜路860号(近共和新路)"},{"poiid":"B2094757D06FA6FB459F","title":"胖胖炸鸡腿","lon":"121.449648","lat":"31.308196","category":"68","category_name":"快餐厅","address":"闸北区闻喜路830号(近胖胖游戏电玩店)"},{"poiid":"B2094750D66CA1FC4692","title":"大有九记港式甜品","lon":"121.450462","lat":"31.307489","category":"247","category_name":"餐饮美食","address":"闸北区平顺路96号(近临汾路)"},{"poiid":"B2094750D664A4FD479F","title":"彭浦第一炸","lon":"121.449","lat":"31.308","category":"68","category_name":"快餐厅","address":"闸北区闻喜路866号(共和新路口)"},{"poiid":"B2094750D16BA6F9439F","title":"鲜芋仙","lon":"121.449943","lat":"31.30298","category":"247","category_name":"餐饮美食","address":"闸北区共和新路1998号大宁国际商业广场10座2楼201号商铺(近大宁路)"},{"poiid":"B2094757D06AA2FD449C","title":"闻喜路","lon":"121.44915095","lat":"31.3081137883","category":"500","category_name":"未知分类","address":"上海市闸北区闻喜路"},{"poiid":"B2094757D06FAAF5459A","title":"祥腾财富广场","lon":"121.45338429981","lat":"31.299858297168","category":"250","category_name":"公园户外","address":"上海市闸北区共和新路3088号"},{"poiid":"B2094757D06FABF9459F","title":"丰泽万佳红火大酒店","lon":"121.44959795","lat":"31.305212732","category":"76","category_name":"上海菜","address":"上海闸北区共和新路3703号共和国际商务广场C栋3楼(近场中路)"},{"poiid":"B2094757D06FA4F4499F","title":"唱享量贩式歌城(共和新路店)","lon":"121.44893","lat":"31.30536","category":"170","category_name":"KTV","address":"闸北区共和新路3737号C座5楼(近场中路)"},{"poiid":"B2094751D364A5FC429F","title":"闸北区图书馆分馆","lon":"121.45021","lat":"31.308407","category":"181","category_name":"图书馆","address":"闻喜路800号(近共和新路)"},{"poiid":"B2094757D064A3FB4793","title":"东联奥迪","lon":"121.45386395","lat":"31.305465737","category":"263","category_name":"公司","address":"上海市闸北区场中路"},{"poiid":"B2094654D465ABFD4892","title":"上海市民政第三精神病院","lon":"121.4566","lat":"31.30882","category":"162","category_name":"医院","address":"闸北区闻喜路590号(近岭南路)"},{"poiid":"B2094655D26AA0FA4899","title":"地铁彭浦新村站","lon":"121.44864","lat":"31.30675","category":"36","category_name":"地铁站","address":""},{"poiid":"B2094757D068A0FC429A","title":"永鼎大厦","lon":"121.45444","lat":"31.304861","category":"46","category_name":"楼宇","address":"徐汇区田林路300号"},{"poiid":"B2094757D465A1FD4399","title":"农夫烤鱼馆","lon":"121.44948","lat":"31.30804","category":"71","category_name":"四川菜","address":"闸北区临汾路998号(近共和新路)"},{"poiid":"B2094654D464A3F4409B","title":"美邦大楼","lon":"121.454","lat":"31.3049","category":"46","category_name":"楼宇","address":"上海江场西路160号"},{"poiid":"B2094757D06FA6FB4993","title":"原力健(共和国际店)","lon":"121.45015","lat":"31.30443","category":"148","category_name":"美容美发店","address":"闸北区共和新路3703号共和国际商务广场C栋4楼(近江场路)"},{"poiid":"B2094751D26FA6FB479C","title":"大锅羊肉汤热气涮羊肉","lon":"121.453926","lat":"31.306129","category":"247","category_name":"餐饮美食","address":"闸北区闻喜路840号(近共和新路)"},{"poiid":"B2094654D464A3F4409D","title":"华瑞大厦","lon":"121.454","lat":"31.3051","category":"46","category_name":"楼宇","address":"江场一路2;6;8;10;18号等"},{"poiid":"B2094757D66FA7FF4393","title":"闻喜路印度飞饼","lon":"121.44969","lat":"31.30767","category":"68","category_name":"快餐厅","address":"闸北区闻喜路820号迪亚天天门口(共和新路口)"},{"poiid":"B2094655D26AA4FD469F","title":"村夫烤鱼","lon":"121.4497","lat":"31.3082","category":"247","category_name":"餐饮美食","address":"闸北区三泉路415弄对面(近闻喜路)"},{"poiid":"B2094750DA68A4FA409F","title":"杭州扇贝王上海闻喜店","lon":"121.450256","lat":"31.308425","category":"247","category_name":"餐饮美食","address":null},{"poiid":"B2094757D065A2FA4592","title":"巨麦","lon":"121.455253","lat":"31.306372","category":"247","category_name":"餐饮美食","address":"闻喜路981号3楼"},{"poiid":"B2094654D465A4F84998","title":"名秀造型","lon":"121.45305","lat":"31.31064","category":"148","category_name":"美容美发店","address":"闸北区临汾路394号(近平顺路)"},{"poiid":"B2094654DB6AA6F9409F","title":"上海东联沪港汽车销售有限公司","lon":"121.45371","lat":"31.30512","category":"159","category_name":"汽车维修","address":"闸北区场中路1980号(近一号线彭浦新村站)"},{"poiid":"B2094655D26AA5F44293","title":"长安机动车驾驶员培训中心场中路分部","lon":"121.45325","lat":"31.30517","category":"247","category_name":"餐饮美食","address":"宝山区场中路1980号(近一号线彭浦新村站)"},{"poiid":"B2094757D065A3FC499D","title":"上岛咖啡","lon":"121.44973895","lat":"31.304959728","category":"65","category_name":"咖啡厅","address":"闸北区共和新路3703号共和国际C幢2楼(近场中路)"},{"poiid":"B2094757D06AA5FA479A","title":"永顺和苏州汤包馆(闻喜店)","lon":"121.4521159","lat":"31.307037569","category":"68","category_name":"快餐厅","address":"闸北区闻喜路851号(近共和新路)"},{"poiid":"B2094757D06AA3F5459C","title":"SPR咖啡(共和新路点店)","lon":"121.4535455","lat":"31.302849198","category":"65","category_name":"咖啡厅","address":"闸北区共和新路3703号共和国际商务广场1楼(近彭浦新村地铁站)"},{"poiid":"B2094654D465A4F84499","title":"彭五小区","lon":"121.45427","lat":"31.30998","category":"47","category_name":"住宅区","address":"彭浦新村340号"},{"poiid":"B2094750D76EA4FA449E","title":"霸王别姬","lon":"121.449","lat":"31.308","category":"86","category_name":"火锅店","address":"闸北区闻喜路840号(近地铁1号线彭浦新村站)"},{"poiid":"B2094655D26CA7FD449B","title":"海博大楼","lon":"121.44985","lat":"31.30331","category":"46","category_name":"楼宇","address":"共和新路3651号"},{"poiid":"B2094655D26CA1FD439F","title":"上海东联京沪汽车销售服务有限公司","lon":"121.45325","lat":"31.30517","category":"159","category_name":"汽车维修","address":"闸北区场中路1980号甲(近一号线彭浦新村站)"},{"poiid":"B2094655D26AA0FB419A","title":"彭浦新村街道医院","lon":"121.45263","lat":"31.30796","category":"162","category_name":"医院","address":"闸北区平顺路15号"},{"poiid":"B2094655D36CA1F9409F","title":"岭南路场中路","lon":"121.45529","lat":"31.30659","category":"38","category_name":"公交车站","address":""},{"poiid":"B2094654D56CA5F84599","title":"北郊站","lon":"121.45604","lat":"31.30207","category":"22","category_name":"火车站","address":"闸北区寿阳路1500"},{"poiid":"B2094757D069A5FC4699","title":"新好客来(共和新路店)","lon":"121.44782","lat":"31.30513","category":"76","category_name":"上海菜","address":"闸北区场中路2150号(近共和新路)"},{"poiid":"B2094750D26AA4FA479B","title":"万家红火大酒店","lon":"121.449935","lat":"31.304937","category":"247","category_name":"餐饮美食","address":"共和新路3703号C栋3F"},{"poiid":"B2094757D06BA2F8419C","title":"222路终点站臭豆腐","lon":"121.45259","lat":"31.309","category":"257","category_name":"中餐厅","address":"上海闸北区平顺路222路公交车终点站斜对面(近闻喜路)"},{"poiid":"B2094655D26CA1FE4299","title":"上海景和汽车销售有限公司","lon":"121.45179","lat":"31.30529","category":"158","category_name":"汽车销售","address":"场中路2020号(近共和新路高架)"},{"poiid":"B2094655D26FA0F8469F","title":"岭南路100弄小区","lon":"121.45645","lat":"31.3072","category":"47","category_name":"住宅区","address":"岭南路100弄1号-38号"},{"poiid":"B2094654D464A6F94692","title":"福建千里香馄饨(闻喜路)","lon":"121.45242","lat":"31.30834","category":"68","category_name":"快餐厅","address":"闸北区闻喜路(近共和新路)"},{"poiid":"B2094750D26AA6FA4492","title":"胖胖彭浦第一炸","lon":"121.448852","lat":"31.307781","category":"247","category_name":"餐饮美食","address":"闻喜路830号"},{"poiid":"B2094757D06FA5F8439B","title":"共和新路闻喜路站","lon":"121.44942816","lat":"31.305981997","category":"500","category_name":"未知分类","address":"上海一号线彭浦新村站下方,公交46,741,253,722,101等的闻喜路站"},{"poiid":"B2094654D465A4F8439A","title":"上海久隆模范中学","lon":"121.45465","lat":"31.30775","category":"55","category_name":"中学","address":"闸北区岭南路115号(岭南路闻喜路)"},{"poiid":"B2094654D465A4FF4998","title":"场中小区","lon":"121.45143","lat":"31.30644","category":"47","category_name":"住宅区","address":"场中路2107弄1-6号"},{"poiid":"B2094654D465A4FF479A","title":"彭浦地段医院","lon":"121.45263","lat":"31.30796","category":"162","category_name":"医院","address":"闸北区平顺路15号"},{"poiid":"B2094655D26AAAFF419C","title":"彭浦第一摊巧玲炸鸡脯","lon":"121.44949","lat":"31.3082","category":"68","category_name":"快餐厅","address":"闸北区闻喜路820-2号(近共和新路)"},{"poiid":"B2094757D06EAAFE409D","title":"彭浦新村地铁站","lon":"121.44864778","lat":"31.306739129","category":"36","category_name":"地铁站","address":"上海轨道交通 一号线 轨交彭浦新村站 1"},{"poiid":"B2094757D06EAAFB439D","title":"彭浦新村","lon":"121.45090378","lat":"31.307888662","category":"47","category_name":"住宅区","address":"上海闻喜路555弄"},{"poiid":"B2094757D06FA2FC499A","title":"买卖提红玫瑰烤涮龙虾馆(闻喜路店)","lon":"121.44964","lat":"31.30809","category":"68","category_name":"快餐厅","address":"闸北区闻喜路860号(近共和新路)"},{"poiid":"B2094757D06FA6FB459F","title":"胖胖炸鸡腿","lon":"121.449648","lat":"31.308196","category":"68","category_name":"快餐厅","address":"闸北区闻喜路830号(近胖胖游戏电玩店)"},{"poiid":"B2094750D66CA1FC4692","title":"大有九记港式甜品","lon":"121.450462","lat":"31.307489","category":"247","category_name":"餐饮美食","address":"闸北区平顺路96号(近临汾路)"},{"poiid":"B2094750D664A4FD479F","title":"彭浦第一炸","lon":"121.449","lat":"31.308","category":"68","category_name":"快餐厅","address":"闸北区闻喜路866号(共和新路口)"},{"poiid":"B2094750D16BA6F9439F","title":"鲜芋仙","lon":"121.449943","lat":"31.30298","category":"247","category_name":"餐饮美食","address":"闸北区共和新路1998号大宁国际商业广场10座2楼201号商铺(近大宁路)"},{"poiid":"B2094757D06AA2FD449C","title":"闻喜路","lon":"121.44915095","lat":"31.3081137883","category":"500","category_name":"未知分类","address":"上海市闸北区闻喜路"},{"poiid":"B2094757D06FAAF5459A","title":"祥腾财富广场","lon":"121.45338429981","lat":"31.299858297168","category":"250","category_name":"公园户外","address":"上海市闸北区共和新路3088号"},{"poiid":"B2094757D06FABF9459F","title":"丰泽万佳红火大酒店","lon":"121.44959795","lat":"31.305212732","category":"76","category_name":"上海菜","address":"上海闸北区共和新路3703号共和国际商务广场C栋3楼(近场中路)"},{"poiid":"B2094757D06FA4F4499F","title":"唱享量贩式歌城(共和新路店)","lon":"121.44893","lat":"31.30536","category":"170","category_name":"KTV","address":"闸北区共和新路3737号C座5楼(近场中路)"},{"poiid":"B2094751D364A5FC429F","title":"闸北区图书馆分馆","lon":"121.45021","lat":"31.308407","category":"181","category_name":"图书馆","address":"闻喜路800号(近共和新路)"},{"poiid":"B2094757D064A3FB4793","title":"东联奥迪","lon":"121.45386395","lat":"31.305465737","category":"263","category_name":"公司","address":"上海市闸北区场中路"},{"poiid":"B2094654D465ABFD4892","title":"上海市民政第三精神病院","lon":"121.4566","lat":"31.30882","category":"162","category_name":"医院","address":"闸北区闻喜路590号(近岭南路)"},{"poiid":"B2094655D26AA0FA4899","title":"地铁彭浦新村站","lon":"121.44864","lat":"31.30675","category":"36","category_name":"地铁站","address":""},{"poiid":"B2094757D068A0FC429A","title":"永鼎大厦","lon":"121.45444","lat":"31.304861","category":"46","category_name":"楼宇","address":"徐汇区田林路300号"},{"poiid":"B2094757D465A1FD4399","title":"农夫烤鱼馆","lon":"121.44948","lat":"31.30804","category":"71","category_name":"四川菜","address":"闸北区临汾路998号(近共和新路)"},{"poiid":"B2094654D464A3F4409B","title":"美邦大楼","lon":"121.454","lat":"31.3049","category":"46","category_name":"楼宇","address":"上海江场西路160号"},{"poiid":"B2094757D06FA6FB4993","title":"原力健(共和国际店)","lon":"121.45015","lat":"31.30443","category":"148","category_name":"美容美发店","address":"闸北区共和新路3703号共和国际商务广场C栋4楼(近江场路)"},{"poiid":"B2094751D26FA6FB479C","title":"大锅羊肉汤热气涮羊肉","lon":"121.453926","lat":"31.306129","category":"247","category_name":"餐饮美食","address":"闸北区闻喜路840号(近共和新路)"},{"poiid":"B2094654D464A3F4409D","title":"华瑞大厦","lon":"121.454","lat":"31.3051","category":"46","category_name":"楼宇","address":"江场一路2;6;8;10;18号等"},{"poiid":"B2094757D66FA7FF4393","title":"闻喜路印度飞饼","lon":"121.44969","lat":"31.30767","category":"68","category_name":"快餐厅","address":"闸北区闻喜路820号迪亚天天门口(共和新路口)"},{"poiid":"B2094655D26AA4FD469F","title":"村夫烤鱼","lon":"121.4497","lat":"31.3082","category":"247","category_name":"餐饮美食","address":"闸北区三泉路415弄对面(近闻喜路)"},{"poiid":"B2094750DA68A4FA409F","title":"杭州扇贝王上海闻喜店","lon":"121.450256","lat":"31.308425","category":"247","category_name":"餐饮美食","address":null},{"poiid":"B2094757D065A2FA4592","title":"巨麦","lon":"121.455253","lat":"31.306372","category":"247","category_name":"餐饮美食","address":"闻喜路981号3楼"},{"poiid":"B2094654D465A4F84998","title":"名秀造型","lon":"121.45305","lat":"31.31064","category":"148","category_name":"美容美发店","address":"闸北区临汾路394号(近平顺路)"},{"poiid":"B2094654DB6AA6F9409F","title":"上海东联沪港汽车销售有限公司","lon":"121.45371","lat":"31.30512","category":"159","category_name":"汽车维修","address":"闸北区场中路1980号(近一号线彭浦新村站)"},{"poiid":"B2094655D26AA5F44293","title":"长安机动车驾驶员培训中心场中路分部","lon":"121.45325","lat":"31.30517","category":"247","category_name":"餐饮美食","address":"宝山区场中路1980号(近一号线彭浦新村站)"},{"poiid":"B2094757D065A3FC499D","title":"上岛咖啡","lon":"121.44973895","lat":"31.304959728","category":"65","category_name":"咖啡厅","address":"闸北区共和新路3703号共和国际C幢2楼(近场中路)"},{"poiid":"B2094757D06AA5FA479A","title":"永顺和苏州汤包馆(闻喜店)","lon":"121.4521159","lat":"31.307037569","category":"68","category_name":"快餐厅","address":"闸北区闻喜路851号(近共和新路)"},{"poiid":"B2094757D06AA3F5459C","title":"SPR咖啡(共和新路点店)","lon":"121.4535455","lat":"31.302849198","category":"65","category_name":"咖啡厅","address":"闸北区共和新路3703号共和国际商务广场1楼(近彭浦新村地铁站)"},{"poiid":"B2094654D465A4F84499","title":"彭五小区","lon":"121.45427","lat":"31.30998","category":"47","category_name":"住宅区","address":"彭浦新村340号"},{"poiid":"B2094750D76EA4FA449E","title":"霸王别姬","lon":"121.449","lat":"31.308","category":"86","category_name":"火锅店","address":"闸北区闻喜路840号(近地铁1号线彭浦新村站)"},{"poiid":"B2094655D26CA7FD449B","title":"海博大楼","lon":"121.44985","lat":"31.30331","category":"46","category_name":"楼宇","address":"共和新路3651号"},{"poiid":"B2094655D26CA1FD439F","title":"上海东联京沪汽车销售服务有限公司","lon":"121.45325","lat":"31.30517","category":"159","category_name":"汽车维修","address":"闸北区场中路1980号甲(近一号线彭浦新村站)"},{"poiid":"B2094655D26AA0FB419A","title":"彭浦新村街道医院","lon":"121.45263","lat":"31.30796","category":"162","category_name":"医院","address":"闸北区平顺路15号"},{"poiid":"B2094655D36CA1F9409F","title":"岭南路场中路","lon":"121.45529","lat":"31.30659","category":"38","category_name":"公交车站","address":""},{"poiid":"B2094654D56CA5F84599","title":"北郊站","lon":"121.45604","lat":"31.30207","category":"22","category_name":"火车站","address":"闸北区寿阳路1500"},{"poiid":"B2094757D069A5FC4699","title":"新好客来(共和新路店)","lon":"121.44782","lat":"31.30513","category":"76","category_name":"上海菜","address":"闸北区场中路2150号(近共和新路)"},{"poiid":"B2094750D26AA4FA479B","title":"万家红火大酒店","lon":"121.449935","lat":"31.304937","category":"247","category_name":"餐饮美食","address":"共和新路3703号C栋3F"},{"poiid":"B2094757D06BA2F8419C","title":"222路终点站臭豆腐","lon":"121.45259","lat":"31.309","category":"257","category_name":"中餐厅","address":"上海闸北区平顺路222路公交车终点站斜对面(近闻喜路)"},{"poiid":"B2094655D26CA1FE4299","title":"上海景和汽车销售有限公司","lon":"121.45179","lat":"31.30529","category":"158","category_name":"汽车销售","address":"场中路2020号(近共和新路高架)"},{"poiid":"B2094655D26FA0F8469F","title":"岭南路100弄小区","lon":"121.45645","lat":"31.3072","category":"47","category_name":"住宅区","address":"岭南路100弄1号-38号"},{"poiid":"B2094654D464A6F94692","title":"福建千里香馄饨(闻喜路)","lon":"121.45242","lat":"31.30834","category":"68","category_name":"快餐厅","address":"闸北区闻喜路(近共和新路)"},{"poiid":"B2094750D26AA6FA4492","title":"胖胖彭浦第一炸","lon":"121.448852","lat":"31.307781","category":"247","category_name":"餐饮美食","address":"闻喜路830号"},{"poiid":"B2094757D06FA5F8439B","title":"共和新路闻喜路站","lon":"121.44942816","lat":"31.305981997","category":"500","category_name":"未知分类","address":"上海一号线彭浦新村站下方,公交46,741,253,722,101等的闻喜路站"},{"poiid":"B2094654D465A4F8439A","title":"上海久隆模范中学","lon":"121.45465","lat":"31.30775","category":"55","category_name":"中学","address":"闸北区岭南路115号(岭南路闻喜路)"},{"poiid":"B2094654D465A4FF4998","title":"场中小区","lon":"121.45143","lat":"31.30644","category":"47","category_name":"住宅区","address":"场中路2107弄1-6号"},{"poiid":"B2094654D465A4FF479A","title":"彭浦地段医院","lon":"121.45263","lat":"31.30796","category":"162","category_name":"医院","address":"闸北区平顺路15号"},{"poiid":"B2094655D26AAAFF419C","title":"彭浦第一摊巧玲炸鸡脯","lon":"121.44949","lat":"31.3082","category":"68","category_name":"快餐厅","address":"闸北区闻喜路820-2号(近共和新路)"},{"poiid":"B2094757D06EAAFE409D","title":"彭浦新村地铁站","lon":"121.44864778","lat":"31.306739129","category":"36","category_name":"地铁站","address":"上海轨道交通 一号线 轨交彭浦新村站 1"},{"poiid":"B2094757D06EAAFB439D","title":"彭浦新村","lon":"121.45090378","lat":"31.307888662","category":"47","category_name":"住宅区","address":"上海闻喜路555弄"},{"poiid":"B2094757D06FA2FC499A","title":"买卖提红玫瑰烤涮龙虾馆(闻喜路店)","lon":"121.44964","lat":"31.30809","category":"68","category_name":"快餐厅","address":"闸北区闻喜路860号(近共和新路)"},{"poiid":"B2094757D06FA6FB459F","title":"胖胖炸鸡腿","lon":"121.449648","lat":"31.308196","category":"68","category_name":"快餐厅","address":"闸北区闻喜路830号(近胖胖游戏电玩店)"},{"poiid":"B2094750D66CA1FC4692","title":"大有九记港式甜品","lon":"121.450462","lat":"31.307489","category":"247","category_name":"餐饮美食","address":"闸北区平顺路96号(近临汾路)"},{"poiid":"B2094750D664A4FD479F","title":"彭浦第一炸","lon":"121.449","lat":"31.308","category":"68","category_name":"快餐厅","address":"闸北区闻喜路866号(共和新路口)"},{"poiid":"B2094750D16BA6F9439F","title":"鲜芋仙","lon":"121.449943","lat":"31.30298","category":"247","category_name":"餐饮美食","address":"闸北区共和新路1998号大宁国际商业广场10座2楼201号商铺(近大宁路)"},{"poiid":"B2094757D06AA2FD449C","title":"闻喜路","lon":"121.44915095","lat":"31.3081137883","category":"500","category_name":"未知分类","address":"上海市闸北区闻喜路"},{"poiid":"B2094757D06FAAF5459A","title":"祥腾财富广场","lon":"121.45338429981","lat":"31.299858297168","category":"250","category_name":"公园户外","address":"上海市闸北区共和新路3088号"},{"poiid":"B2094757D06FABF9459F","title":"丰泽万佳红火大酒店","lon":"121.44959795","lat":"31.305212732","category":"76","category_name":"上海菜","address":"上海闸北区共和新路3703号共和国际商务广场C栋3楼(近场中路)"},{"poiid":"B2094757D06FA4F4499F","title":"唱享量贩式歌城(共和新路店)","lon":"121.44893","lat":"31.30536","category":"170","category_name":"KTV","address":"闸北区共和新路3737号C座5楼(近场中路)"},{"poiid":"B2094751D364A5FC429F","title":"闸北区图书馆分馆","lon":"121.45021","lat":"31.308407","category":"181","category_name":"图书馆","address":"闻喜路800号(近共和新路)"},{"poiid":"B2094757D064A3FB4793","title":"东联奥迪","lon":"121.45386395","lat":"31.305465737","category":"263","category_name":"公司","address":"上海市闸北区场中路"},{"poiid":"B2094654D465ABFD4892","title":"上海市民政第三精神病院","lon":"121.4566","lat":"31.30882","category":"162","category_name":"医院","address":"闸北区闻喜路590号(近岭南路)"},{"poiid":"B2094655D26AA0FA4899","title":"地铁彭浦新村站","lon":"121.44864","lat":"31.30675","category":"36","category_name":"地铁站","address":""},{"poiid":"B2094757D068A0FC429A","title":"永鼎大厦","lon":"121.45444","lat":"31.304861","category":"46","category_name":"楼宇","address":"徐汇区田林路300号"},{"poiid":"B2094757D465A1FD4399","title":"农夫烤鱼馆","lon":"121.44948","lat":"31.30804","category":"71","category_name":"四川菜","address":"闸北区临汾路998号(近共和新路)"},{"poiid":"B2094654D464A3F4409B","title":"美邦大楼","lon":"121.454","lat":"31.3049","category":"46","category_name":"楼宇","address":"上海江场西路160号"},{"poiid":"B2094757D06FA6FB4993","title":"原力健(共和国际店)","lon":"121.45015","lat":"31.30443","category":"148","category_name":"美容美发店","address":"闸北区共和新路3703号共和国际商务广场C栋4楼(近江场路)"},{"poiid":"B2094751D26FA6FB479C","title":"大锅羊肉汤热气涮羊肉","lon":"121.453926","lat":"31.306129","category":"247","category_name":"餐饮美食","address":"闸北区闻喜路840号(近共和新路)"},{"poiid":"B2094654D464A3F4409D","title":"华瑞大厦","lon":"121.454","lat":"31.3051","category":"46","category_name":"楼宇","address":"江场一路2;6;8;10;18号等"},{"poiid":"B2094757D66FA7FF4393","title":"闻喜路印度飞饼","lon":"121.44969","lat":"31.30767","category":"68","category_name":"快餐厅","address":"闸北区闻喜路820号迪亚天天门口(共和新路口)"},{"poiid":"B2094655D26AA4FD469F","title":"村夫烤鱼","lon":"121.4497","lat":"31.3082","category":"247","category_name":"餐饮美食","address":"闸北区三泉路415弄对面(近闻喜路)"},{"poiid":"B2094750DA68A4FA409F","title":"杭州扇贝王上海闻喜店","lon":"121.450256","lat":"31.308425","category":"247","category_name":"餐饮美食","address":null},{"poiid":"B2094757D065A2FA4592","title":"巨麦","lon":"121.455253","lat":"31.306372","category":"247","category_name":"餐饮美食","address":"闻喜路981号3楼"},{"poiid":"B2094654D465A4F84998","title":"名秀造型","lon":"121.45305","lat":"31.31064","category":"148","category_name":"美容美发店","address":"闸北区临汾路394号(近平顺路)"},{"poiid":"B2094654DB6AA6F9409F","title":"上海东联沪港汽车销售有限公司","lon":"121.45371","lat":"31.30512","category":"159","category_name":"汽车维修","address":"闸北区场中路1980号(近一号线彭浦新村站)"},{"poiid":"B2094655D26AA5F44293","title":"长安机动车驾驶员培训中心场中路分部","lon":"121.45325","lat":"31.30517","category":"247","category_name":"餐饮美食","address":"宝山区场中路1980号(近一号线彭浦新村站)"},{"poiid":"B2094757D065A3FC499D","title":"上岛咖啡","lon":"121.44973895","lat":"31.304959728","category":"65","category_name":"咖啡厅","address":"闸北区共和新路3703号共和国际C幢2楼(近场中路)"},{"poiid":"B2094757D06AA5FA479A","title":"永顺和苏州汤包馆(闻喜店)","lon":"121.4521159","lat":"31.307037569","category":"68","category_name":"快餐厅","address":"闸北区闻喜路851号(近共和新路)"},{"poiid":"B2094757D06AA3F5459C","title":"SPR咖啡(共和新路点店)","lon":"121.4535455","lat":"31.302849198","category":"65","category_name":"咖啡厅","address":"闸北区共和新路3703号共和国际商务广场1楼(近彭浦新村地铁站)"},{"poiid":"B2094654D465A4F84499","title":"彭五小区","lon":"121.45427","lat":"31.30998","category":"47","category_name":"住宅区","address":"彭浦新村340号"},{"poiid":"B2094750D76EA4FA449E","title":"霸王别姬","lon":"121.449","lat":"31.308","category":"86","category_name":"火锅店","address":"闸北区闻喜路840号(近地铁1号线彭浦新村站)"},{"poiid":"B2094655D26CA7FD449B","title":"海博大楼","lon":"121.44985","lat":"31.30331","category":"46","category_name":"楼宇","address":"共和新路3651号"},{"poiid":"B2094655D26CA1FD439F","title":"上海东联京沪汽车销售服务有限公司","lon":"121.45325","lat":"31.30517","category":"159","category_name":"汽车维修","address":"闸北区场中路1980号甲(近一号线彭浦新村站)"},{"poiid":"B2094655D26AA0FB419A","title":"彭浦新村街道医院","lon":"121.45263","lat":"31.30796","category":"162","category_name":"医院","address":"闸北区平顺路15号"},{"poiid":"B2094655D36CA1F9409F","title":"岭南路场中路","lon":"121.45529","lat":"31.30659","category":"38","category_name":"公交车站","address":""},{"poiid":"B2094654D56CA5F84599","title":"北郊站","lon":"121.45604","lat":"31.30207","category":"22","category_name":"火车站","address":"闸北区寿阳路1500"},{"poiid":"B2094757D069A5FC4699","title":"新好客来(共和新路店)","lon":"121.44782","lat":"31.30513","category":"76","category_name":"上海菜","address":"闸北区场中路2150号(近共和新路)"},{"poiid":"B2094750D26AA4FA479B","title":"万家红火大酒店","lon":"121.449935","lat":"31.304937","category":"247","category_name":"餐饮美食","address":"共和新路3703号C栋3F"},{"poiid":"B2094757D06BA2F8419C","title":"222路终点站臭豆腐","lon":"121.45259","lat":"31.309","category":"257","category_name":"中餐厅","address":"上海闸北区平顺路222路公交车终点站斜对面(近闻喜路)"},{"poiid":"B2094655D26CA1FE4299","title":"上海景和汽车销售有限公司","lon":"121.45179","lat":"31.30529","category":"158","category_name":"汽车销售","address":"场中路2020号(近共和新路高架)"},{"poiid":"B2094655D26FA0F8469F","title":"岭南路100弄小区","lon":"121.45645","lat":"31.3072","category":"47","category_name":"住宅区","address":"岭南路100弄1号-38号"},{"poiid":"B2094654D464A6F94692","title":"福建千里香馄饨(闻喜路)","lon":"121.45242","lat":"31.30834","category":"68","category_name":"快餐厅","address":"闸北区闻喜路(近共和新路)"},{"poiid":"B2094750D26AA6FA4492","title":"胖胖彭浦第一炸","lon":"121.448852","lat":"31.307781","category":"247","category_name":"餐饮美食","address":"闻喜路830号"},{"poiid":"B2094757D06FA5F8439B","title":"共和新路闻喜路站","lon":"121.44942816","lat":"31.305981997","category":"500","category_name":"未知分类","address":"上海一号线彭浦新村站下方,公交46,741,253,722,101等的闻喜路站"},{"poiid":"B2094654D465A4F8439A","title":"上海久隆模范中学","lon":"121.45465","lat":"31.30775","category":"55","category_name":"中学","address":"闸北区岭南路115号(岭南路闻喜路)"},{"poiid":"B2094654D465A4FF4998","title":"场中小区","lon":"121.45143","lat":"31.30644","category":"47","category_name":"住宅区","address":"场中路2107弄1-6号"},{"poiid":"B2094654D465A4FF479A","title":"彭浦地段医院","lon":"121.45263","lat":"31.30796","category":"162","category_name":"医院","address":"闸北区平顺路15号"},{"poiid":"B2094655D26AAAFF419C","title":"彭浦第一摊巧玲炸鸡脯","lon":"121.44949","lat":"31.3082","category":"68","category_name":"快餐厅","address":"闸北区闻喜路820-2号(近共和新路)"},{"poiid":"B2094757D06EAAFE409D","title":"彭浦新村地铁站","lon":"121.44864778","lat":"31.306739129","category":"36","category_name":"地铁站","address":"上海轨道交通 一号线 轨交彭浦新村站 1"},{"poiid":"B2094757D06EAAFB439D","title":"彭浦新村","lon":"121.45090378","lat":"31.307888662","category":"47","category_name":"住宅区","address":"上海闻喜路555弄"},{"poiid":"B2094757D06FA2FC499A","title":"买卖提红玫瑰烤涮龙虾馆(闻喜路店)","lon":"121.44964","lat":"31.30809","category":"68","category_name":"快餐厅","address":"闸北区闻喜路860号(近共和新路)"},{"poiid":"B2094757D06FA6FB459F","title":"胖胖炸鸡腿","lon":"121.449648","lat":"31.308196","category":"68","category_name":"快餐厅","address":"闸北区闻喜路830号(近胖胖游戏电玩店)"},{"poiid":"B2094750D66CA1FC4692","title":"大有九记港式甜品","lon":"121.450462","lat":"31.307489","category":"247","category_name":"餐饮美食","address":"闸北区平顺路96号(近临汾路)"},{"poiid":"B2094750D664A4FD479F","title":"彭浦第一炸","lon":"121.449","lat":"31.308","category":"68","category_name":"快餐厅","address":"闸北区闻喜路866号(共和新路口)"},{"poiid":"B2094750D16BA6F9439F","title":"鲜芋仙","lon":"121.449943","lat":"31.30298","category":"247","category_name":"餐饮美食","address":"闸北区共和新路1998号大宁国际商业广场10座2楼201号商铺(近大宁路)"},{"poiid":"B2094757D06AA2FD449C","title":"闻喜路","lon":"121.44915095","lat":"31.3081137883","category":"500","category_name":"未知分类","address":"上海市闸北区闻喜路"},{"poiid":"B2094757D06FAAF5459A","title":"祥腾财富广场","lon":"121.45338429981","lat":"31.299858297168","category":"250","category_name":"公园户外","address":"上海市闸北区共和新路3088号"},{"poiid":"B2094757D06FABF9459F","title":"丰泽万佳红火大酒店","lon":"121.44959795","lat":"31.305212732","category":"76","category_name":"上海菜","address":"上海闸北区共和新路3703号共和国际商务广场C栋3楼(近场中路)"},{"poiid":"B2094757D06FA4F4499F","title":"唱享量贩式歌城(共和新路店)","lon":"121.44893","lat":"31.30536","category":"170","category_name":"KTV","address":"闸北区共和新路3737号C座5楼(近场中路)"},{"poiid":"B2094751D364A5FC429F","title":"闸北区图书馆分馆","lon":"121.45021","lat":"31.308407","category":"181","category_name":"图书馆","address":"闻喜路800号(近共和新路)"},{"poiid":"B2094757D064A3FB4793","title":"东联奥迪","lon":"121.45386395","lat":"31.305465737","category":"263","category_name":"公司","address":"上海市闸北区场中路"},{"poiid":"B2094654D465ABFD4892","title":"上海市民政第三精神病院","lon":"121.4566","lat":"31.30882","category":"162","category_name":"医院","address":"闸北区闻喜路590号(近岭南路)"},{"poiid":"B2094655D26AA0FA4899","title":"地铁彭浦新村站","lon":"121.44864","lat":"31.30675","category":"36","category_name":"地铁站","address":""},{"poiid":"B2094757D068A0FC429A","title":"永鼎大厦","lon":"121.45444","lat":"31.304861","category":"46","category_name":"楼宇","address":"徐汇区田林路300号"},{"poiid":"B2094757D465A1FD4399","title":"农夫烤鱼馆","lon":"121.44948","lat":"31.30804","category":"71","category_name":"四川菜","address":"闸北区临汾路998号(近共和新路)"},{"poiid":"B2094654D464A3F4409B","title":"美邦大楼","lon":"121.454","lat":"31.3049","category":"46","category_name":"楼宇","address":"上海江场西路160号"},{"poiid":"B2094757D06FA6FB4993","title":"原力健(共和国际店)","lon":"121.45015","lat":"31.30443","category":"148","category_name":"美容美发店","address":"闸北区共和新路3703号共和国际商务广场C栋4楼(近江场路)"},{"poiid":"B2094751D26FA6FB479C","title":"大锅羊肉汤热气涮羊肉","lon":"121.453926","lat":"31.306129","category":"247","category_name":"餐饮美食","address":"闸北区闻喜路840号(近共和新路)"},{"poiid":"B2094654D464A3F4409D","title":"华瑞大厦","lon":"121.454","lat":"31.3051","category":"46","category_name":"楼宇","address":"江场一路2;6;8;10;18号等"},{"poiid":"B2094757D66FA7FF4393","title":"闻喜路印度飞饼","lon":"121.44969","lat":"31.30767","category":"68","category_name":"快餐厅","address":"闸北区闻喜路820号迪亚天天门口(共和新路口)"},{"poiid":"B2094655D26AA4FD469F","title":"村夫烤鱼","lon":"121.4497","lat":"31.3082","category":"247","category_name":"餐饮美食","address":"闸北区三泉路415弄对面(近闻喜路)"},{"poiid":"B2094750DA68A4FA409F","title":"杭州扇贝王上海闻喜店","lon":"121.450256","lat":"31.308425","category":"247","category_name":"餐饮美食","address":null},{"poiid":"B2094757D065A2FA4592","title":"巨麦","lon":"121.455253","lat":"31.306372","category":"247","category_name":"餐饮美食","address":"闻喜路981号3楼"},{"poiid":"B2094654D465A4F84998","title":"名秀造型","lon":"121.45305","lat":"31.31064","category":"148","category_name":"美容美发店","address":"闸北区临汾路394号(近平顺路)"},{"poiid":"B2094654DB6AA6F9409F","title":"上海东联沪港汽车销售有限公司","lon":"121.45371","lat":"31.30512","category":"159","category_name":"汽车维修","address":"闸北区场中路1980号(近一号线彭浦新村站)"},{"poiid":"B2094655D26AA5F44293","title":"长安机动车驾驶员培训中心场中路分部","lon":"121.45325","lat":"31.30517","category":"247","category_name":"餐饮美食","address":"宝山区场中路1980号(近一号线彭浦新村站)"},{"poiid":"B2094757D065A3FC499D","title":"上岛咖啡","lon":"121.44973895","lat":"31.304959728","category":"65","category_name":"咖啡厅","address":"闸北区共和新路3703号共和国际C幢2楼(近场中路)"},{"poiid":"B2094757D06AA5FA479A","title":"永顺和苏州汤包馆(闻喜店)","lon":"121.4521159","lat":"31.307037569","category":"68","category_name":"快餐厅","address":"闸北区闻喜路851号(近共和新路)"},{"poiid":"B2094757D06AA3F5459C","title":"SPR咖啡(共和新路点店)","lon":"121.4535455","lat":"31.302849198","category":"65","category_name":"咖啡厅","address":"闸北区共和新路3703号共和国际商务广场1楼(近彭浦新村地铁站)"},{"poiid":"B2094654D465A4F84499","title":"彭五小区","lon":"121.45427","lat":"31.30998","category":"47","category_name":"住宅区","address":"彭浦新村340号"},{"poiid":"B2094750D76EA4FA449E","title":"霸王别姬","lon":"121.449","lat":"31.308","category":"86","category_name":"火锅店","address":"闸北区闻喜路840号(近地铁1号线彭浦新村站)"},{"poiid":"B2094655D26CA7FD449B","title":"海博大楼","lon":"121.44985","lat":"31.30331","category":"46","category_name":"楼宇","address":"共和新路3651号"},{"poiid":"B2094655D26CA1FD439F","title":"上海东联京沪汽车销售服务有限公司","lon":"121.45325","lat":"31.30517","category":"159","category_name":"汽车维修","address":"闸北区场中路1980号甲(近一号线彭浦新村站)"},{"poiid":"B2094655D26AA0FB419A","title":"彭浦新村街道医院","lon":"121.45263","lat":"31.30796","category":"162","category_name":"医院","address":"闸北区平顺路15号"},{"poiid":"B2094655D36CA1F9409F","title":"岭南路场中路","lon":"121.45529","lat":"31.30659","category":"38","category_name":"公交车站","address":""},{"poiid":"B2094654D56CA5F84599","title":"北郊站","lon":"121.45604","lat":"31.30207","category":"22","category_name":"火车站","address":"闸北区寿阳路1500"},{"poiid":"B2094757D069A5FC4699","title":"新好客来(共和新路店)","lon":"121.44782","lat":"31.30513","category":"76","category_name":"上海菜","address":"闸北区场中路2150号(近共和新路)"},{"poiid":"B2094750D26AA4FA479B","title":"万家红火大酒店","lon":"121.449935","lat":"31.304937","category":"247","category_name":"餐饮美食","address":"共和新路3703号C栋3F"},{"poiid":"B2094757D06BA2F8419C","title":"222路终点站臭豆腐","lon":"121.45259","lat":"31.309","category":"257","category_name":"中餐厅","address":"上海闸北区平顺路222路公交车终点站斜对面(近闻喜路)"},{"poiid":"B2094655D26CA1FE4299","title":"上海景和汽车销售有限公司","lon":"121.45179","lat":"31.30529","category":"158","category_name":"汽车销售","address":"场中路2020号(近共和新路高架)"},{"poiid":"B2094655D26FA0F8469F","title":"岭南路100弄小区","lon":"121.45645","lat":"31.3072","category":"47","category_name":"住宅区","address":"岭南路100弄1号-38号"},{"poiid":"B2094654D464A6F94692","title":"福建千里香馄饨(闻喜路)","lon":"121.45242","lat":"31.30834","category":"68","category_name":"快餐厅","address":"闸北区闻喜路(近共和新路)"},{"poiid":"B2094750D26AA6FA4492","title":"胖胖彭浦第一炸","lon":"121.448852","lat":"31.307781","category":"247","category_name":"餐饮美食","address":"闻喜路830号"},{"poiid":"B2094757D06FA5F8439B","title":"共和新路闻喜路站","lon":"121.44942816","lat":"31.305981997","category":"500","category_name":"未知分类","address":"上海一号线彭浦新村站下方,公交46,741,253,722,101等的闻喜路站"},{"poiid":"B2094654D465A4F8439A","title":"上海久隆模范中学","lon":"121.45465","lat":"31.30775","category":"55","category_name":"中学","address":"闸北区岭南路115号(岭南路闻喜路)"},{"poiid":"B2094654D465A4FF4998","title":"场中小区","lon":"121.45143","lat":"31.30644","category":"47","category_name":"住宅区","address":"场中路2107弄1-6号"},{"poiid":"B2094654D465A4FF479A","title":"彭浦地段医院","lon":"121.45263","lat":"31.30796","category":"162","category_name":"医院","address":"闸北区平顺路15号"}]