[{"poiid":"B2094757D06EAAFA499A","title":"上海歌城(徐家汇店)","lon":"121.44864654","lat":"31.19801712","category":"170","category_name":"KTV","address":"徐汇区肇嘉浜路789号均瑶国际广场2-3楼(近高安路)"},{"poiid":"B2094654DB69ABF9469A","title":"三人行骨头王火锅(徐汇总店)","lon":"121.44548","lat":"31.19707","category":"86","category_name":"火锅店","address":"徐汇区肇嘉浜路879号(近宛平南路)"},{"poiid":"B2094654DA6DAAF8419F","title":"均瑶国际广场","lon":"121.44863","lat":"31.19802","category":"46","category_name":"楼宇","address":"徐汇区肇嘉浜路789号"},{"poiid":"B2094753D76FAAFA449C","title":"上海滩国泰旗舰店","lon":"121.466011","lat":"31.216125","category":"249","category_name":"购物服务","address":"淮海中路868号"},{"poiid":"B2094757D06FA3F84199","title":"三顾牛蛙馆(肇嘉浜路店)","lon":"121.44556","lat":"31.1966","category":"71","category_name":"四川菜","address":"徐汇区肇嘉浜路883号(宛平路口)"},{"poiid":"B2094757D06FA7FA479B","title":"复旦大学上海医学院第一教学楼","lon":"121.45016419","lat":"31.196352118","category":"500","category_name":"未知分类","address":"上海东安路130号"},{"poiid":"B2094757D06FA6F8439F","title":"复旦大学枫林校区第二教学楼","lon":"121.448604396","lat":"31.1959811913","category":"253","category_name":"校园生活","address":"上海市徐汇区东安路130号"},{"poiid":"B2094757D468ABF94692","title":"小南国 均瑶店","lon":"121.448066","lat":"31.198374","category":"76","category_name":"上海菜","address":"徐汇区肇嘉浜路789号均瑶国际广场5楼(近东安路)"},{"poiid":"B2094655D26EA7FC459F","title":"星巴克(均瑶店)","lon":"121.448641","lat":"31.198025","category":"260","category_name":"其他","address":"徐汇区肇嘉浜路789号均瑶国际广场1楼(近高安路)"},{"poiid":"B2094757D068A5F9499D","title":"复旦大学医科图书馆","lon":"121.44932102","lat":"31.196121364","category":"253","category_name":"校园生活","address":"上海徐汇区东安路130号复旦大学枫林校区内(西苑篮球场西侧)"},{"poiid":"B2094757D06FA0FE4098","title":"腾飞大厦","lon":"121.449","lat":"31.1946","category":"46","category_name":"楼宇","address":"行宫位于沈河北站一路41号"},{"poiid":"B2094750D76EA1FE4199","title":"渝香情(肇嘉浜路)","lon":"121.447","lat":"31.1979","category":"71","category_name":"四川菜","address":"徐汇区肇嘉浜路825号(近宛平南路)"},{"poiid":"B2094654DA6DA4F84198","title":"临江豪园","lon":"121.447","lat":"31.1944","category":"47","category_name":"住宅区","address":"上海市徐汇区宛平南路921号"},{"poiid":"B2094757D069A3F54599","title":"斜土路宛平南路","lon":"121.44817258","lat":"31.193041703","category":"500","category_name":"未知分类","address":"上海市徐汇区肇嘉浜路"},{"poiid":"B2094757D16DA0F54892","title":"徐汇营业厅","lon":"121.447819","lat":"31.197941","category":"150","category_name":"银行","address":"徐汇区肇嘉浜路807号五洲国际大厦102室"},{"poiid":"B2094757D068A1F8459F","title":"豪记茶餐厅","lon":"121.449034","lat":"31.197891","category":"72","category_name":"广东菜","address":"徐汇区肇嘉浜路789号均瑶国际广场1楼(近高安路)"},{"poiid":"B2094757D06FA5F8409C","title":"四海游龙(东安路店)","lon":"121.45073","lat":"31.1966","category":"68","category_name":"快餐厅","address":"徐汇区东安路40号(近青松城大酒店)"},{"poiid":"B2094757D16BA2FB409B","title":"Carl'sJr. (美罗城)","lon":"121.44802808","lat":"31.196717505","category":"500","category_name":"未知分类","address":"上海肇嘉浜路1111号美罗城B1-33"},{"poiid":"B2094757D069A3FA4299","title":"提香研磨咖啡","lon":"121.44662799152","lat":"31.193403622937","category":"260","category_name":"其他","address":"徐汇区宛平南路263号(近斜土路)"},{"poiid":"B2094757D16EA4FC4492","title":"吴记麻辣火锅","lon":"121.44694458","lat":"31.198324807","category":"247","category_name":"餐饮美食","address":"上海天钥桥路"},{"poiid":"B2094757D06FA2F9409F","title":"生仕鱼林港(肇嘉浜路店)","lon":"121.44753","lat":"31.19755","category":"86","category_name":"火锅店","address":"徐汇区肇嘉浜路825号(近宛平南路)"},{"poiid":"B2094654DA6DAAF9419A","title":"珊珊茶面馆 肇嘉浜路店","lon":"121.44794578047","lat":"31.19785511912","category":"68","category_name":"快餐厅","address":"徐汇区肇家浜路825号(近东安路)"},{"poiid":"B2094757D06FA7F54298","title":"徐家匯花園","lon":"121.44533538","lat":"31.196586608","category":"252","category_name":"楼宇机构","address":"上海宛平南路255弄"},{"poiid":"B2094655D36CA6F4459F","title":"东安路青松城","lon":"121.4484","lat":"31.1985","category":"38","category_name":"公交车站","address":""},{"poiid":"B2094757D168AAF94092","title":"好乐迪","lon":"121.44774758","lat":"31.196602773","category":"500","category_name":"未知分类","address":"上海市徐汇区宛平路"},{"poiid":"B2094757D16CA7F84099","title":"上海市律师协会","lon":"121.448656","lat":"31.198299","category":"46","category_name":"楼宇","address":"肇嘉浜路789号均瑶国际广场33,35层"},{"poiid":"B2094757D568ABF4479F","title":"青松城大酒店商务楼","lon":"121.449531","lat":"31.198129","category":"46","category_name":"楼宇","address":"东安路8"},{"poiid":"B2094655D26FA5FD4492","title":"谨斜小区","lon":"121.44878","lat":"31.193199","category":"47","category_name":"住宅区","address":"斜土路2167,2183,2365弄"},{"poiid":"B2094654DA6DAAF94198","title":"尚秀商务楼","lon":"121.44696","lat":"31.19771","category":"46","category_name":"楼宇","address":"崇文区夕照寺大街"},{"poiid":"B2094757D065A5F54092","title":"港匯普京","lon":"121.44799058","lat":"31.196674774","category":"500","category_name":"未知分类","address":"上海市徐汇区宛平路"},{"poiid":"B2094655D268A7F94899","title":"城建地产大厦","lon":"121.448","lat":"31.1963","category":"46","category_name":"楼宇","address":"上海市徐汇区南丹东路161号"},{"poiid":"B2094752D26AA0FA439D","title":"石锅坊","lon":"121.44927","lat":"31.194089","category":"247","category_name":"餐饮美食","address":"东安路258号"},{"poiid":"B2094750D46DAAFD4799","title":"姐弟俩土豆粉","lon":"121.447593","lat":"31.193534","category":"247","category_name":"餐饮美食","address":null},{"poiid":"B2094757D169A4F84792","title":"上海中医药大学附属龙华医院(徐汇总院)西十楼骨伤科病房","lon":"121.449571","lat":"31.194975","category":"162","category_name":"医院","address":"上海宛平南路725号西十楼"},{"poiid":"B2094757D169A2FA4192","title":"那不勒斯比萨","lon":"121.44894458","lat":"31.194344729","category":"94","category_name":"西餐厅","address":"徐汇区斜土路2066号(近东安路)"},{"poiid":"B2094654DA6DA0F4479B","title":"申峰大厦","lon":"121.448","lat":"31.1937","category":"46","category_name":"楼宇","address":"上海市徐汇区天钥桥路438号"},{"poiid":"B2094757D069A4FF439D","title":"萨利亚","lon":"121.44782058","lat":"31.196573772","category":"249","category_name":"购物服务","address":"上海市徐汇区天钥桥路"},{"poiid":"B2094654DA6DA0FA4099","title":"汇峰大厦","lon":"121.446","lat":"31.1937","category":"46","category_name":"楼宇","address":"天钥桥路380弄20"},{"poiid":"B2094757D064A4FE429C","title":"上海建筑科学研究院","lon":"121.44599914","lat":"31.195411682","category":"500","category_name":"未知分类","address":"上海徐汇区宛平南路75号"},{"poiid":"B2094757D66FA0FB4299","title":"争鲜回转寿司","lon":"121.447983586","lat":"31.1967087756","category":"247","category_name":"餐饮美食","address":"上海市徐汇区宛平路"},{"poiid":"B2094655D264A0F84798","title":"如家快捷酒店(上海徐家汇宛平南路店)","lon":"121.4455","lat":"31.19594","category":"216","category_name":"经济型连锁酒店","address":"上海市徐汇区宛平南路65号(近肇家浜路)"},{"poiid":"B2094757D06FA2FD439A","title":"7-ELEVEN(均瑶店)","lon":"121.448318572","lat":"31.1982087356","category":"117","category_name":"便民商店/便利店","address":"徐汇区肇嘉浜路789号均瑶国际广场内(近吴兴路)"},{"poiid":"B2094655D26CA4FA4793","title":"恒盛·阳光名苑","lon":"121.44986","lat":"31.19414","category":"47","category_name":"住宅区","address":"斜土路1975弄1-9号"},{"poiid":"B2094757D168A0F9409E","title":"德勤华永会计师事务所有限公司","lon":"121.447935586","lat":"31.1956107541","category":"46","category_name":"楼宇","address":"上海市黄浦区延安东路222号外滩中心30楼"},{"poiid":"B2094655D26BA2FC4999","title":"吴兴路","lon":"121.44664","lat":"31.19812","category":"38","category_name":"公交车站","address":""},{"poiid":"B2094751D569AAFD419B","title":"美罗城B1英国屋","lon":"121.44751","lat":"31.196396","category":"47","category_name":"住宅区","address":"美罗城"},{"poiid":"B2094753D268A1F5459B","title":"上海市徐家汇天主大教堂","lon":"121.44751","lat":"31.196396","category":"500","category_name":"未知分类","address":"上海市 上海市徐家汇天主大教堂"},{"poiid":"B2094654DA6DAAF9469E","title":"思妍丽(宛平南路)","lon":"121.44636","lat":"31.19463","category":"148","category_name":"美容美发店","address":"宛平南路99弄1号2层"},{"poiid":"B2094757D168A6FE4898","title":"韦博国际英语总部","lon":"121.447981586","lat":"31.1967544065","category":"500","category_name":"未知分类","address":"衡山路922号建汇大厦14楼"},{"poiid":"B2094757D16EA7FE4093","title":"李奥贝纳广告有限公司","lon":"121.44715118","lat":"31.196660995","category":"46","category_name":"楼宇","address":"上海淮海西路570号F栋2楼"},{"poiid":"B2094757D06EAAFA499A","title":"上海歌城(徐家汇店)","lon":"121.44864654","lat":"31.19801712","category":"170","category_name":"KTV","address":"徐汇区肇嘉浜路789号均瑶国际广场2-3楼(近高安路)"},{"poiid":"B2094654DB69ABF9469A","title":"三人行骨头王火锅(徐汇总店)","lon":"121.44548","lat":"31.19707","category":"86","category_name":"火锅店","address":"徐汇区肇嘉浜路879号(近宛平南路)"},{"poiid":"B2094654DA6DAAF8419F","title":"均瑶国际广场","lon":"121.44863","lat":"31.19802","category":"46","category_name":"楼宇","address":"徐汇区肇嘉浜路789号"},{"poiid":"B2094753D76FAAFA449C","title":"上海滩国泰旗舰店","lon":"121.466011","lat":"31.216125","category":"249","category_name":"购物服务","address":"淮海中路868号"},{"poiid":"B2094757D06FA3F84199","title":"三顾牛蛙馆(肇嘉浜路店)","lon":"121.44556","lat":"31.1966","category":"71","category_name":"四川菜","address":"徐汇区肇嘉浜路883号(宛平路口)"},{"poiid":"B2094757D06FA7FA479B","title":"复旦大学上海医学院第一教学楼","lon":"121.45016419","lat":"31.196352118","category":"500","category_name":"未知分类","address":"上海东安路130号"},{"poiid":"B2094757D06FA6F8439F","title":"复旦大学枫林校区第二教学楼","lon":"121.448604396","lat":"31.1959811913","category":"253","category_name":"校园生活","address":"上海市徐汇区东安路130号"},{"poiid":"B2094757D468ABF94692","title":"小南国 均瑶店","lon":"121.448066","lat":"31.198374","category":"76","category_name":"上海菜","address":"徐汇区肇嘉浜路789号均瑶国际广场5楼(近东安路)"},{"poiid":"B2094655D26EA7FC459F","title":"星巴克(均瑶店)","lon":"121.448641","lat":"31.198025","category":"260","category_name":"其他","address":"徐汇区肇嘉浜路789号均瑶国际广场1楼(近高安路)"},{"poiid":"B2094757D068A5F9499D","title":"复旦大学医科图书馆","lon":"121.44932102","lat":"31.196121364","category":"253","category_name":"校园生活","address":"上海徐汇区东安路130号复旦大学枫林校区内(西苑篮球场西侧)"},{"poiid":"B2094757D06FA0FE4098","title":"腾飞大厦","lon":"121.449","lat":"31.1946","category":"46","category_name":"楼宇","address":"行宫位于沈河北站一路41号"},{"poiid":"B2094750D76EA1FE4199","title":"渝香情(肇嘉浜路)","lon":"121.447","lat":"31.1979","category":"71","category_name":"四川菜","address":"徐汇区肇嘉浜路825号(近宛平南路)"},{"poiid":"B2094654DA6DA4F84198","title":"临江豪园","lon":"121.447","lat":"31.1944","category":"47","category_name":"住宅区","address":"上海市徐汇区宛平南路921号"},{"poiid":"B2094757D069A3F54599","title":"斜土路宛平南路","lon":"121.44817258","lat":"31.193041703","category":"500","category_name":"未知分类","address":"上海市徐汇区肇嘉浜路"},{"poiid":"B2094757D16DA0F54892","title":"徐汇营业厅","lon":"121.447819","lat":"31.197941","category":"150","category_name":"银行","address":"徐汇区肇嘉浜路807号五洲国际大厦102室"},{"poiid":"B2094757D068A1F8459F","title":"豪记茶餐厅","lon":"121.449034","lat":"31.197891","category":"72","category_name":"广东菜","address":"徐汇区肇嘉浜路789号均瑶国际广场1楼(近高安路)"},{"poiid":"B2094757D06FA5F8409C","title":"四海游龙(东安路店)","lon":"121.45073","lat":"31.1966","category":"68","category_name":"快餐厅","address":"徐汇区东安路40号(近青松城大酒店)"},{"poiid":"B2094757D16BA2FB409B","title":"Carl'sJr. (美罗城)","lon":"121.44802808","lat":"31.196717505","category":"500","category_name":"未知分类","address":"上海肇嘉浜路1111号美罗城B1-33"},{"poiid":"B2094757D069A3FA4299","title":"提香研磨咖啡","lon":"121.44662799152","lat":"31.193403622937","category":"260","category_name":"其他","address":"徐汇区宛平南路263号(近斜土路)"},{"poiid":"B2094757D16EA4FC4492","title":"吴记麻辣火锅","lon":"121.44694458","lat":"31.198324807","category":"247","category_name":"餐饮美食","address":"上海天钥桥路"},{"poiid":"B2094757D06FA2F9409F","title":"生仕鱼林港(肇嘉浜路店)","lon":"121.44753","lat":"31.19755","category":"86","category_name":"火锅店","address":"徐汇区肇嘉浜路825号(近宛平南路)"},{"poiid":"B2094654DA6DAAF9419A","title":"珊珊茶面馆 肇嘉浜路店","lon":"121.44794578047","lat":"31.19785511912","category":"68","category_name":"快餐厅","address":"徐汇区肇家浜路825号(近东安路)"},{"poiid":"B2094757D06FA7F54298","title":"徐家匯花園","lon":"121.44533538","lat":"31.196586608","category":"252","category_name":"楼宇机构","address":"上海宛平南路255弄"},{"poiid":"B2094655D36CA6F4459F","title":"东安路青松城","lon":"121.4484","lat":"31.1985","category":"38","category_name":"公交车站","address":""},{"poiid":"B2094757D168AAF94092","title":"好乐迪","lon":"121.44774758","lat":"31.196602773","category":"500","category_name":"未知分类","address":"上海市徐汇区宛平路"},{"poiid":"B2094757D16CA7F84099","title":"上海市律师协会","lon":"121.448656","lat":"31.198299","category":"46","category_name":"楼宇","address":"肇嘉浜路789号均瑶国际广场33,35层"},{"poiid":"B2094757D568ABF4479F","title":"青松城大酒店商务楼","lon":"121.449531","lat":"31.198129","category":"46","category_name":"楼宇","address":"东安路8"},{"poiid":"B2094655D26FA5FD4492","title":"谨斜小区","lon":"121.44878","lat":"31.193199","category":"47","category_name":"住宅区","address":"斜土路2167,2183,2365弄"},{"poiid":"B2094654DA6DAAF94198","title":"尚秀商务楼","lon":"121.44696","lat":"31.19771","category":"46","category_name":"楼宇","address":"崇文区夕照寺大街"},{"poiid":"B2094757D065A5F54092","title":"港匯普京","lon":"121.44799058","lat":"31.196674774","category":"500","category_name":"未知分类","address":"上海市徐汇区宛平路"},{"poiid":"B2094655D268A7F94899","title":"城建地产大厦","lon":"121.448","lat":"31.1963","category":"46","category_name":"楼宇","address":"上海市徐汇区南丹东路161号"},{"poiid":"B2094752D26AA0FA439D","title":"石锅坊","lon":"121.44927","lat":"31.194089","category":"247","category_name":"餐饮美食","address":"东安路258号"},{"poiid":"B2094750D46DAAFD4799","title":"姐弟俩土豆粉","lon":"121.447593","lat":"31.193534","category":"247","category_name":"餐饮美食","address":null},{"poiid":"B2094757D169A4F84792","title":"上海中医药大学附属龙华医院(徐汇总院)西十楼骨伤科病房","lon":"121.449571","lat":"31.194975","category":"162","category_name":"医院","address":"上海宛平南路725号西十楼"},{"poiid":"B2094757D169A2FA4192","title":"那不勒斯比萨","lon":"121.44894458","lat":"31.194344729","category":"94","category_name":"西餐厅","address":"徐汇区斜土路2066号(近东安路)"},{"poiid":"B2094654DA6DA0F4479B","title":"申峰大厦","lon":"121.448","lat":"31.1937","category":"46","category_name":"楼宇","address":"上海市徐汇区天钥桥路438号"},{"poiid":"B2094757D069A4FF439D","title":"萨利亚","lon":"121.44782058","lat":"31.196573772","category":"249","category_name":"购物服务","address":"上海市徐汇区天钥桥路"},{"poiid":"B2094654DA6DA0FA4099","title":"汇峰大厦","lon":"121.446","lat":"31.1937","category":"46","category_name":"楼宇","address":"天钥桥路380弄20"},{"poiid":"B2094757D064A4FE429C","title":"上海建筑科学研究院","lon":"121.44599914","lat":"31.195411682","category":"500","category_name":"未知分类","address":"上海徐汇区宛平南路75号"},{"poiid":"B2094757D66FA0FB4299","title":"争鲜回转寿司","lon":"121.447983586","lat":"31.1967087756","category":"247","category_name":"餐饮美食","address":"上海市徐汇区宛平路"},{"poiid":"B2094655D264A0F84798","title":"如家快捷酒店(上海徐家汇宛平南路店)","lon":"121.4455","lat":"31.19594","category":"216","category_name":"经济型连锁酒店","address":"上海市徐汇区宛平南路65号(近肇家浜路)"},{"poiid":"B2094757D06FA2FD439A","title":"7-ELEVEN(均瑶店)","lon":"121.448318572","lat":"31.1982087356","category":"117","category_name":"便民商店/便利店","address":"徐汇区肇嘉浜路789号均瑶国际广场内(近吴兴路)"},{"poiid":"B2094655D26CA4FA4793","title":"恒盛·阳光名苑","lon":"121.44986","lat":"31.19414","category":"47","category_name":"住宅区","address":"斜土路1975弄1-9号"},{"poiid":"B2094757D168A0F9409E","title":"德勤华永会计师事务所有限公司","lon":"121.447935586","lat":"31.1956107541","category":"46","category_name":"楼宇","address":"上海市黄浦区延安东路222号外滩中心30楼"},{"poiid":"B2094655D26BA2FC4999","title":"吴兴路","lon":"121.44664","lat":"31.19812","category":"38","category_name":"公交车站","address":""},{"poiid":"B2094751D569AAFD419B","title":"美罗城B1英国屋","lon":"121.44751","lat":"31.196396","category":"47","category_name":"住宅区","address":"美罗城"},{"poiid":"B2094753D268A1F5459B","title":"上海市徐家汇天主大教堂","lon":"121.44751","lat":"31.196396","category":"500","category_name":"未知分类","address":"上海市 上海市徐家汇天主大教堂"},{"poiid":"B2094654DA6DAAF9469E","title":"思妍丽(宛平南路)","lon":"121.44636","lat":"31.19463","category":"148","category_name":"美容美发店","address":"宛平南路99弄1号2层"},{"poiid":"B2094757D168A6FE4898","title":"韦博国际英语总部","lon":"121.447981586","lat":"31.1967544065","category":"500","category_name":"未知分类","address":"衡山路922号建汇大厦14楼"},{"poiid":"B2094757D16EA7FE4093","title":"李奥贝纳广告有限公司","lon":"121.44715118","lat":"31.196660995","category":"46","category_name":"楼宇","address":"上海淮海西路570号F栋2楼"},{"poiid":"B2094757D06EAAFA499A","title":"上海歌城(徐家汇店)","lon":"121.44864654","lat":"31.19801712","category":"170","category_name":"KTV","address":"徐汇区肇嘉浜路789号均瑶国际广场2-3楼(近高安路)"},{"poiid":"B2094654DB69ABF9469A","title":"三人行骨头王火锅(徐汇总店)","lon":"121.44548","lat":"31.19707","category":"86","category_name":"火锅店","address":"徐汇区肇嘉浜路879号(近宛平南路)"},{"poiid":"B2094654DA6DAAF8419F","title":"均瑶国际广场","lon":"121.44863","lat":"31.19802","category":"46","category_name":"楼宇","address":"徐汇区肇嘉浜路789号"},{"poiid":"B2094753D76FAAFA449C","title":"上海滩国泰旗舰店","lon":"121.466011","lat":"31.216125","category":"249","category_name":"购物服务","address":"淮海中路868号"},{"poiid":"B2094757D06FA3F84199","title":"三顾牛蛙馆(肇嘉浜路店)","lon":"121.44556","lat":"31.1966","category":"71","category_name":"四川菜","address":"徐汇区肇嘉浜路883号(宛平路口)"},{"poiid":"B2094757D06FA7FA479B","title":"复旦大学上海医学院第一教学楼","lon":"121.45016419","lat":"31.196352118","category":"500","category_name":"未知分类","address":"上海东安路130号"},{"poiid":"B2094757D06FA6F8439F","title":"复旦大学枫林校区第二教学楼","lon":"121.448604396","lat":"31.1959811913","category":"253","category_name":"校园生活","address":"上海市徐汇区东安路130号"},{"poiid":"B2094757D468ABF94692","title":"小南国 均瑶店","lon":"121.448066","lat":"31.198374","category":"76","category_name":"上海菜","address":"徐汇区肇嘉浜路789号均瑶国际广场5楼(近东安路)"},{"poiid":"B2094655D26EA7FC459F","title":"星巴克(均瑶店)","lon":"121.448641","lat":"31.198025","category":"260","category_name":"其他","address":"徐汇区肇嘉浜路789号均瑶国际广场1楼(近高安路)"},{"poiid":"B2094757D068A5F9499D","title":"复旦大学医科图书馆","lon":"121.44932102","lat":"31.196121364","category":"253","category_name":"校园生活","address":"上海徐汇区东安路130号复旦大学枫林校区内(西苑篮球场西侧)"},{"poiid":"B2094757D06FA0FE4098","title":"腾飞大厦","lon":"121.449","lat":"31.1946","category":"46","category_name":"楼宇","address":"行宫位于沈河北站一路41号"},{"poiid":"B2094750D76EA1FE4199","title":"渝香情(肇嘉浜路)","lon":"121.447","lat":"31.1979","category":"71","category_name":"四川菜","address":"徐汇区肇嘉浜路825号(近宛平南路)"},{"poiid":"B2094654DA6DA4F84198","title":"临江豪园","lon":"121.447","lat":"31.1944","category":"47","category_name":"住宅区","address":"上海市徐汇区宛平南路921号"},{"poiid":"B2094757D069A3F54599","title":"斜土路宛平南路","lon":"121.44817258","lat":"31.193041703","category":"500","category_name":"未知分类","address":"上海市徐汇区肇嘉浜路"},{"poiid":"B2094757D16DA0F54892","title":"徐汇营业厅","lon":"121.447819","lat":"31.197941","category":"150","category_name":"银行","address":"徐汇区肇嘉浜路807号五洲国际大厦102室"},{"poiid":"B2094757D068A1F8459F","title":"豪记茶餐厅","lon":"121.449034","lat":"31.197891","category":"72","category_name":"广东菜","address":"徐汇区肇嘉浜路789号均瑶国际广场1楼(近高安路)"},{"poiid":"B2094757D06FA5F8409C","title":"四海游龙(东安路店)","lon":"121.45073","lat":"31.1966","category":"68","category_name":"快餐厅","address":"徐汇区东安路40号(近青松城大酒店)"},{"poiid":"B2094757D16BA2FB409B","title":"Carl'sJr. (美罗城)","lon":"121.44802808","lat":"31.196717505","category":"500","category_name":"未知分类","address":"上海肇嘉浜路1111号美罗城B1-33"},{"poiid":"B2094757D069A3FA4299","title":"提香研磨咖啡","lon":"121.44662799152","lat":"31.193403622937","category":"260","category_name":"其他","address":"徐汇区宛平南路263号(近斜土路)"},{"poiid":"B2094757D16EA4FC4492","title":"吴记麻辣火锅","lon":"121.44694458","lat":"31.198324807","category":"247","category_name":"餐饮美食","address":"上海天钥桥路"},{"poiid":"B2094757D06FA2F9409F","title":"生仕鱼林港(肇嘉浜路店)","lon":"121.44753","lat":"31.19755","category":"86","category_name":"火锅店","address":"徐汇区肇嘉浜路825号(近宛平南路)"},{"poiid":"B2094654DA6DAAF9419A","title":"珊珊茶面馆 肇嘉浜路店","lon":"121.44794578047","lat":"31.19785511912","category":"68","category_name":"快餐厅","address":"徐汇区肇家浜路825号(近东安路)"},{"poiid":"B2094757D06FA7F54298","title":"徐家匯花園","lon":"121.44533538","lat":"31.196586608","category":"252","category_name":"楼宇机构","address":"上海宛平南路255弄"},{"poiid":"B2094655D36CA6F4459F","title":"东安路青松城","lon":"121.4484","lat":"31.1985","category":"38","category_name":"公交车站","address":""},{"poiid":"B2094757D168AAF94092","title":"好乐迪","lon":"121.44774758","lat":"31.196602773","category":"500","category_name":"未知分类","address":"上海市徐汇区宛平路"},{"poiid":"B2094757D16CA7F84099","title":"上海市律师协会","lon":"121.448656","lat":"31.198299","category":"46","category_name":"楼宇","address":"肇嘉浜路789号均瑶国际广场33,35层"},{"poiid":"B2094757D568ABF4479F","title":"青松城大酒店商务楼","lon":"121.449531","lat":"31.198129","category":"46","category_name":"楼宇","address":"东安路8"},{"poiid":"B2094655D26FA5FD4492","title":"谨斜小区","lon":"121.44878","lat":"31.193199","category":"47","category_name":"住宅区","address":"斜土路2167,2183,2365弄"},{"poiid":"B2094654DA6DAAF94198","title":"尚秀商务楼","lon":"121.44696","lat":"31.19771","category":"46","category_name":"楼宇","address":"崇文区夕照寺大街"},{"poiid":"B2094757D065A5F54092","title":"港匯普京","lon":"121.44799058","lat":"31.196674774","category":"500","category_name":"未知分类","address":"上海市徐汇区宛平路"},{"poiid":"B2094655D268A7F94899","title":"城建地产大厦","lon":"121.448","lat":"31.1963","category":"46","category_name":"楼宇","address":"上海市徐汇区南丹东路161号"},{"poiid":"B2094752D26AA0FA439D","title":"石锅坊","lon":"121.44927","lat":"31.194089","category":"247","category_name":"餐饮美食","address":"东安路258号"},{"poiid":"B2094750D46DAAFD4799","title":"姐弟俩土豆粉","lon":"121.447593","lat":"31.193534","category":"247","category_name":"餐饮美食","address":null},{"poiid":"B2094757D169A4F84792","title":"上海中医药大学附属龙华医院(徐汇总院)西十楼骨伤科病房","lon":"121.449571","lat":"31.194975","category":"162","category_name":"医院","address":"上海宛平南路725号西十楼"},{"poiid":"B2094757D169A2FA4192","title":"那不勒斯比萨","lon":"121.44894458","lat":"31.194344729","category":"94","category_name":"西餐厅","address":"徐汇区斜土路2066号(近东安路)"},{"poiid":"B2094654DA6DA0F4479B","title":"申峰大厦","lon":"121.448","lat":"31.1937","category":"46","category_name":"楼宇","address":"上海市徐汇区天钥桥路438号"},{"poiid":"B2094757D069A4FF439D","title":"萨利亚","lon":"121.44782058","lat":"31.196573772","category":"249","category_name":"购物服务","address":"上海市徐汇区天钥桥路"},{"poiid":"B2094654DA6DA0FA4099","title":"汇峰大厦","lon":"121.446","lat":"31.1937","category":"46","category_name":"楼宇","address":"天钥桥路380弄20"},{"poiid":"B2094757D064A4FE429C","title":"上海建筑科学研究院","lon":"121.44599914","lat":"31.195411682","category":"500","category_name":"未知分类","address":"上海徐汇区宛平南路75号"},{"poiid":"B2094757D66FA0FB4299","title":"争鲜回转寿司","lon":"121.447983586","lat":"31.1967087756","category":"247","category_name":"餐饮美食","address":"上海市徐汇区宛平路"},{"poiid":"B2094655D264A0F84798","title":"如家快捷酒店(上海徐家汇宛平南路店)","lon":"121.4455","lat":"31.19594","category":"216","category_name":"经济型连锁酒店","address":"上海市徐汇区宛平南路65号(近肇家浜路)"},{"poiid":"B2094757D06FA2FD439A","title":"7-ELEVEN(均瑶店)","lon":"121.448318572","lat":"31.1982087356","category":"117","category_name":"便民商店/便利店","address":"徐汇区肇嘉浜路789号均瑶国际广场内(近吴兴路)"},{"poiid":"B2094655D26CA4FA4793","title":"恒盛·阳光名苑","lon":"121.44986","lat":"31.19414","category":"47","category_name":"住宅区","address":"斜土路1975弄1-9号"},{"poiid":"B2094757D168A0F9409E","title":"德勤华永会计师事务所有限公司","lon":"121.447935586","lat":"31.1956107541","category":"46","category_name":"楼宇","address":"上海市黄浦区延安东路222号外滩中心30楼"},{"poiid":"B2094655D26BA2FC4999","title":"吴兴路","lon":"121.44664","lat":"31.19812","category":"38","category_name":"公交车站","address":""},{"poiid":"B2094751D569AAFD419B","title":"美罗城B1英国屋","lon":"121.44751","lat":"31.196396","category":"47","category_name":"住宅区","address":"美罗城"},{"poiid":"B2094753D268A1F5459B","title":"上海市徐家汇天主大教堂","lon":"121.44751","lat":"31.196396","category":"500","category_name":"未知分类","address":"上海市 上海市徐家汇天主大教堂"},{"poiid":"B2094654DA6DAAF9469E","title":"思妍丽(宛平南路)","lon":"121.44636","lat":"31.19463","category":"148","category_name":"美容美发店","address":"宛平南路99弄1号2层"},{"poiid":"B2094757D168A6FE4898","title":"韦博国际英语总部","lon":"121.447981586","lat":"31.1967544065","category":"500","category_name":"未知分类","address":"衡山路922号建汇大厦14楼"},{"poiid":"B2094757D16EA7FE4093","title":"李奥贝纳广告有限公司","lon":"121.44715118","lat":"31.196660995","category":"46","category_name":"楼宇","address":"上海淮海西路570号F栋2楼"},{"poiid":"B2094757D06EAAFA499A","title":"上海歌城(徐家汇店)","lon":"121.44864654","lat":"31.19801712","category":"170","category_name":"KTV","address":"徐汇区肇嘉浜路789号均瑶国际广场2-3楼(近高安路)"},{"poiid":"B2094654DB69ABF9469A","title":"三人行骨头王火锅(徐汇总店)","lon":"121.44548","lat":"31.19707","category":"86","category_name":"火锅店","address":"徐汇区肇嘉浜路879号(近宛平南路)"},{"poiid":"B2094654DA6DAAF8419F","title":"均瑶国际广场","lon":"121.44863","lat":"31.19802","category":"46","category_name":"楼宇","address":"徐汇区肇嘉浜路789号"},{"poiid":"B2094753D76FAAFA449C","title":"上海滩国泰旗舰店","lon":"121.466011","lat":"31.216125","category":"249","category_name":"购物服务","address":"淮海中路868号"},{"poiid":"B2094757D06FA3F84199","title":"三顾牛蛙馆(肇嘉浜路店)","lon":"121.44556","lat":"31.1966","category":"71","category_name":"四川菜","address":"徐汇区肇嘉浜路883号(宛平路口)"},{"poiid":"B2094757D06FA7FA479B","title":"复旦大学上海医学院第一教学楼","lon":"121.45016419","lat":"31.196352118","category":"500","category_name":"未知分类","address":"上海东安路130号"},{"poiid":"B2094757D06FA6F8439F","title":"复旦大学枫林校区第二教学楼","lon":"121.448604396","lat":"31.1959811913","category":"253","category_name":"校园生活","address":"上海市徐汇区东安路130号"},{"poiid":"B2094757D468ABF94692","title":"小南国 均瑶店","lon":"121.448066","lat":"31.198374","category":"76","category_name":"上海菜","address":"徐汇区肇嘉浜路789号均瑶国际广场5楼(近东安路)"},{"poiid":"B2094655D26EA7FC459F","title":"星巴克(均瑶店)","lon":"121.448641","lat":"31.198025","category":"260","category_name":"其他","address":"徐汇区肇嘉浜路789号均瑶国际广场1楼(近高安路)"},{"poiid":"B2094757D068A5F9499D","title":"复旦大学医科图书馆","lon":"121.44932102","lat":"31.196121364","category":"253","category_name":"校园生活","address":"上海徐汇区东安路130号复旦大学枫林校区内(西苑篮球场西侧)"},{"poiid":"B2094757D06FA0FE4098","title":"腾飞大厦","lon":"121.449","lat":"31.1946","category":"46","category_name":"楼宇","address":"行宫位于沈河北站一路41号"},{"poiid":"B2094750D76EA1FE4199","title":"渝香情(肇嘉浜路)","lon":"121.447","lat":"31.1979","category":"71","category_name":"四川菜","address":"徐汇区肇嘉浜路825号(近宛平南路)"},{"poiid":"B2094654DA6DA4F84198","title":"临江豪园","lon":"121.447","lat":"31.1944","category":"47","category_name":"住宅区","address":"上海市徐汇区宛平南路921号"},{"poiid":"B2094757D069A3F54599","title":"斜土路宛平南路","lon":"121.44817258","lat":"31.193041703","category":"500","category_name":"未知分类","address":"上海市徐汇区肇嘉浜路"},{"poiid":"B2094757D16DA0F54892","title":"徐汇营业厅","lon":"121.447819","lat":"31.197941","category":"150","category_name":"银行","address":"徐汇区肇嘉浜路807号五洲国际大厦102室"},{"poiid":"B2094757D068A1F8459F","title":"豪记茶餐厅","lon":"121.449034","lat":"31.197891","category":"72","category_name":"广东菜","address":"徐汇区肇嘉浜路789号均瑶国际广场1楼(近高安路)"},{"poiid":"B2094757D06FA5F8409C","title":"四海游龙(东安路店)","lon":"121.45073","lat":"31.1966","category":"68","category_name":"快餐厅","address":"徐汇区东安路40号(近青松城大酒店)"},{"poiid":"B2094757D16BA2FB409B","title":"Carl'sJr. (美罗城)","lon":"121.44802808","lat":"31.196717505","category":"500","category_name":"未知分类","address":"上海肇嘉浜路1111号美罗城B1-33"},{"poiid":"B2094757D069A3FA4299","title":"提香研磨咖啡","lon":"121.44662799152","lat":"31.193403622937","category":"260","category_name":"其他","address":"徐汇区宛平南路263号(近斜土路)"},{"poiid":"B2094757D16EA4FC4492","title":"吴记麻辣火锅","lon":"121.44694458","lat":"31.198324807","category":"247","category_name":"餐饮美食","address":"上海天钥桥路"},{"poiid":"B2094757D06FA2F9409F","title":"生仕鱼林港(肇嘉浜路店)","lon":"121.44753","lat":"31.19755","category":"86","category_name":"火锅店","address":"徐汇区肇嘉浜路825号(近宛平南路)"},{"poiid":"B2094654DA6DAAF9419A","title":"珊珊茶面馆 肇嘉浜路店","lon":"121.44794578047","lat":"31.19785511912","category":"68","category_name":"快餐厅","address":"徐汇区肇家浜路825号(近东安路)"},{"poiid":"B2094757D06FA7F54298","title":"徐家匯花園","lon":"121.44533538","lat":"31.196586608","category":"252","category_name":"楼宇机构","address":"上海宛平南路255弄"},{"poiid":"B2094655D36CA6F4459F","title":"东安路青松城","lon":"121.4484","lat":"31.1985","category":"38","category_name":"公交车站","address":""},{"poiid":"B2094757D168AAF94092","title":"好乐迪","lon":"121.44774758","lat":"31.196602773","category":"500","category_name":"未知分类","address":"上海市徐汇区宛平路"},{"poiid":"B2094757D16CA7F84099","title":"上海市律师协会","lon":"121.448656","lat":"31.198299","category":"46","category_name":"楼宇","address":"肇嘉浜路789号均瑶国际广场33,35层"},{"poiid":"B2094757D568ABF4479F","title":"青松城大酒店商务楼","lon":"121.449531","lat":"31.198129","category":"46","category_name":"楼宇","address":"东安路8"},{"poiid":"B2094655D26FA5FD4492","title":"谨斜小区","lon":"121.44878","lat":"31.193199","category":"47","category_name":"住宅区","address":"斜土路2167,2183,2365弄"},{"poiid":"B2094654DA6DAAF94198","title":"尚秀商务楼","lon":"121.44696","lat":"31.19771","category":"46","category_name":"楼宇","address":"崇文区夕照寺大街"},{"poiid":"B2094757D065A5F54092","title":"港匯普京","lon":"121.44799058","lat":"31.196674774","category":"500","category_name":"未知分类","address":"上海市徐汇区宛平路"},{"poiid":"B2094655D268A7F94899","title":"城建地产大厦","lon":"121.448","lat":"31.1963","category":"46","category_name":"楼宇","address":"上海市徐汇区南丹东路161号"},{"poiid":"B2094752D26AA0FA439D","title":"石锅坊","lon":"121.44927","lat":"31.194089","category":"247","category_name":"餐饮美食","address":"东安路258号"},{"poiid":"B2094750D46DAAFD4799","title":"姐弟俩土豆粉","lon":"121.447593","lat":"31.193534","category":"247","category_name":"餐饮美食","address":null},{"poiid":"B2094757D169A4F84792","title":"上海中医药大学附属龙华医院(徐汇总院)西十楼骨伤科病房","lon":"121.449571","lat":"31.194975","category":"162","category_name":"医院","address":"上海宛平南路725号西十楼"},{"poiid":"B2094757D169A2FA4192","title":"那不勒斯比萨","lon":"121.44894458","lat":"31.194344729","category":"94","category_name":"西餐厅","address":"徐汇区斜土路2066号(近东安路)"},{"poiid":"B2094654DA6DA0F4479B","title":"申峰大厦","lon":"121.448","lat":"31.1937","category":"46","category_name":"楼宇","address":"上海市徐汇区天钥桥路438号"},{"poiid":"B2094757D069A4FF439D","title":"萨利亚","lon":"121.44782058","lat":"31.196573772","category":"249","category_name":"购物服务","address":"上海市徐汇区天钥桥路"},{"poiid":"B2094654DA6DA0FA4099","title":"汇峰大厦","lon":"121.446","lat":"31.1937","category":"46","category_name":"楼宇","address":"天钥桥路380弄20"},{"poiid":"B2094757D064A4FE429C","title":"上海建筑科学研究院","lon":"121.44599914","lat":"31.195411682","category":"500","category_name":"未知分类","address":"上海徐汇区宛平南路75号"},{"poiid":"B2094757D66FA0FB4299","title":"争鲜回转寿司","lon":"121.447983586","lat":"31.1967087756","category":"247","category_name":"餐饮美食","address":"上海市徐汇区宛平路"},{"poiid":"B2094655D264A0F84798","title":"如家快捷酒店(上海徐家汇宛平南路店)","lon":"121.4455","lat":"31.19594","category":"216","category_name":"经济型连锁酒店","address":"上海市徐汇区宛平南路65号(近肇家浜路)"},{"poiid":"B2094757D06FA2FD439A","title":"7-ELEVEN(均瑶店)","lon":"121.448318572","lat":"31.1982087356","category":"117","category_name":"便民商店/便利店","address":"徐汇区肇嘉浜路789号均瑶国际广场内(近吴兴路)"},{"poiid":"B2094655D26CA4FA4793","title":"恒盛·阳光名苑","lon":"121.44986","lat":"31.19414","category":"47","category_name":"住宅区","address":"斜土路1975弄1-9号"},{"poiid":"B2094757D168A0F9409E","title":"德勤华永会计师事务所有限公司","lon":"121.447935586","lat":"31.1956107541","category":"46","category_name":"楼宇","address":"上海市黄浦区延安东路222号外滩中心30楼"},{"poiid":"B2094655D26BA2FC4999","title":"吴兴路","lon":"121.44664","lat":"31.19812","category":"38","category_name":"公交车站","address":""},{"poiid":"B2094751D569AAFD419B","title":"美罗城B1英国屋","lon":"121.44751","lat":"31.196396","category":"47","category_name":"住宅区","address":"美罗城"},{"poiid":"B2094753D268A1F5459B","title":"上海市徐家汇天主大教堂","lon":"121.44751","lat":"31.196396","category":"500","category_name":"未知分类","address":"上海市 上海市徐家汇天主大教堂"},{"poiid":"B2094654DA6DAAF9469E","title":"思妍丽(宛平南路)","lon":"121.44636","lat":"31.19463","category":"148","category_name":"美容美发店","address":"宛平南路99弄1号2层"},{"poiid":"B2094757D168A6FE4898","title":"韦博国际英语总部","lon":"121.447981586","lat":"31.1967544065","category":"500","category_name":"未知分类","address":"衡山路922号建汇大厦14楼"},{"poiid":"B2094757D16EA7FE4093","title":"李奥贝纳广告有限公司","lon":"121.44715118","lat":"31.196660995","category":"46","category_name":"楼宇","address":"上海淮海西路570号F栋2楼"}]