[{"poiid":"B2094757D06EABF44998","title":"宜家家居IKEA(徐汇商场)","lon":"121.43423790178304","lat":"31.178010857800547","category":"119","category_name":"商场","address":"上海徐汇区漕溪路126号(近中山西路)"},{"poiid":"B2094654DB69A0F54498","title":"宜家餐厅","lon":"121.435266054","lat":"31.176502793","category":"94","category_name":"西餐厅","address":"徐汇区漕溪路126号宜家家居2楼(近中山西路)"},{"poiid":"B2094654DA6DA1FF4492","title":"上海仁爱医院","lon":"121.43598","lat":"31.17551","category":"162","category_name":"医院","address":"徐汇区漕溪路133号仁爱医院内"},{"poiid":"B2094757D06EAAFB4393","title":"漕溪路地铁站","lon":"121.438054","lat":"31.176627","category":"36","category_name":"地铁站","address":"上海轨道交通 三号线 轨交漕溪路站 轻轨 3"},{"poiid":"B2094655D268A3F9479E","title":"漕溪路公交枢纽站","lon":"121.43729","lat":"31.1786","category":"38","category_name":"公交车站","address":"徐汇区漕溪路93号(近轻轨三号线漕溪路站)"},{"poiid":"B2094655D268A2F4499D","title":"上海体育场(二号门)","lon":"121.43698","lat":"31.18028","category":"224","category_name":"综合体育馆","address":""},{"poiid":"B2094757D06FA5F84793","title":"徐汇区青少年活动中心","lon":"121.434555054","lat":"31.1748218536","category":"260","category_name":"其他","address":"徐汇区田林东路8号(漕溪路田林东路)"},{"poiid":"B2094757D06FA0FF4198","title":"爱建园","lon":"121.4324","lat":"31.176199","category":"500","category_name":"未知分类","address":"徐汇区田林东路100弄爱建园内(近漕溪路)"},{"poiid":"B2094757D06FA5F44499","title":"东亚壁球馆","lon":"121.43781","lat":"31.17969","category":"220","category_name":"运动场所","address":"徐汇区中山南二路1500号(近零陵路)"},{"poiid":"B2094757D068A0F8449A","title":"华谊党校","lon":"121.435864639","lat":"31.1751585896","category":"46","category_name":"楼宇","address":"上海漕溪路165号"},{"poiid":"B2094757D16CA7F84798","title":"索尼产品技术服务中心","lon":"121.43560758","lat":"31.176297376","category":"260","category_name":"其他","address":"徐汇区漕溪路129-131号"},{"poiid":"B2094757D068A2F44793","title":"沪闵高架转内环高架","lon":"121.433752","lat":"31.177968","category":"500","category_name":"未知分类","address":"上海宜家家居附近"},{"poiid":"B2094654DB65A1F9499B","title":"上海旅游集散中心(上海市徐汇区漕河泾市容管理所西)","lon":"121.43862","lat":"31.17817","category":"248","category_name":"生活娱乐","address":"中山南二路2419"},{"poiid":"B2094757D068A7F5439B","title":"呷哺(漕溪路)","lon":"121.437984","lat":"31.177094","category":"86","category_name":"火锅店","address":"上海徐汇区吉美臣商城二楼"},{"poiid":"B2094654DA6DA1FF4399","title":"洛卡铁板烧烤","lon":"121.43594","lat":"31.17684","category":"87","category_name":"特色／地方风味餐厅","address":"徐汇区漕溪路123号(近中山西路)"},{"poiid":"B2094655D269A4FB439C","title":"统一撞球海盜馆","lon":"121.43625","lat":"31.17745","category":"171","category_name":"台球厅","address":"徐汇区漕溪路111号苏宁电器5楼(近地铁3号线漕溪路站)"},{"poiid":"B2094750D76EA4FA439F","title":"味千拉面(漕溪路地铁站店)","lon":"121.436","lat":"31.1759","category":"95","category_name":"日本料理","address":"徐汇区漕溪路地铁站2楼"},{"poiid":"B2094655D264A0FF409C","title":"万科华尔兹花园","lon":"121.434684","lat":"31.174519","category":"47","category_name":"住宅区","address":"上海市徐汇区漕宝路77弄"},{"poiid":"B2094757D068A2FF4493","title":"肯德基 KFC (漕东店)","lon":"121.438676","lat":"31.176462","category":"68","category_name":"快餐厅","address":"徐汇区轻轨三号线漕溪路站1楼(近3号出口)"},{"poiid":"B2094757D16DABFB469F","title":"宜家員工餐廳","lon":"121.436689386","lat":"31.1790545306","category":"500","category_name":"未知分类","address":"上海漕溪路126號2樓"},{"poiid":"B2094757D16FAAF9419D","title":"上海Sony服务中心","lon":"121.43580658","lat":"31.176643383","category":"500","category_name":"未知分类","address":"上海市漕溪路129号"},{"poiid":"B2094655D265A6FB4393","title":"宜家办公楼","lon":"121.43492","lat":"31.17754","category":"46","category_name":"楼宇","address":"漕溪路128号"},{"poiid":"B2094757D06FA6F44399","title":"好饰家(徐汇店)","lon":"121.43471959","lat":"31.174966384","category":"637","category_name":"房地产类公司","address":"徐汇区漕溪路198号(近田林东路)"},{"poiid":"B2094654DB6BA5F84598","title":"巴比馒头 漕溪店 Babi Food","lon":"121.435854054","lat":"31.177953793","category":"68","category_name":"快餐厅","address":"徐汇区漕溪路123号(近中山西路)"},{"poiid":"B2094757D165A5FF4699","title":"Ikea","lon":"121.43506958","lat":"31.178269415","category":"500","category_name":"未知分类","address":"上海Ikea"},{"poiid":"B2094654DA6DA1F84192","title":"东北一小院","lon":"121.43588","lat":"31.17458","category":"82","category_name":"东北菜","address":"徐汇区漕溪路169号(田东路口)"},{"poiid":"B2094757D06BA0FE409A","title":"益佳粥店","lon":"121.436243","lat":"31.176479","category":"68","category_name":"快餐厅","address":"徐汇区漕溪路125号"},{"poiid":"B2094654DA6DA1FF439C","title":"喜士多便利(漕溪路)","lon":"121.43593","lat":"31.17674","category":"117","category_name":"便民商店/便利店","address":"徐汇区漕溪北路718号中鑫百货内(近裕德路)"},{"poiid":"B2094655D36DA6FF449A","title":"漕溪路","lon":"121.43805","lat":"31.17663","category":"38","category_name":"公交车站","address":""},{"poiid":"B2094655D264A2FB4098","title":"经发商务中心","lon":"121.43594","lat":"31.17681","category":"46","category_name":"楼宇","address":"漕溪路123-3临"},{"poiid":"B2094753D36CA6FD449F","title":"口湘堂(漕溪路店)","lon":"121.436737","lat":"31.17659","category":"77","category_name":"湖南菜","address":"漕溪路123号"},{"poiid":"B2094757D064A4FD489B","title":"苏宁电器(漕溪路店)","lon":"121.43649","lat":"31.17723","category":"138","category_name":"家电电子卖场","address":"徐汇区漕溪路111号(近三号线漕溪路站)"},{"poiid":"B2094757D069A4FB469A","title":"韩朝阁(漕溪路店)","lon":"121.43812","lat":"31.17701","category":"96","category_name":"韩国料理","address":"徐汇区凯旋南路907号(近轻轨3号线漕溪路站)"},{"poiid":"B2094654DA6DA1FF4392","title":"皇家大厦","lon":"121.4365","lat":"31.17663","category":"46","category_name":"楼宇","address":"漕溪路125弄15"},{"poiid":"B2094757D16AABFD439B","title":"上外贤达图书馆(虹口校区)","lon":"121.435688586","lat":"31.1774023983","category":"181","category_name":"图书馆","address":"上海东体育会路390号教学楼7楼"},{"poiid":"B2094757D06AA6FC4993","title":"土山湾美术馆","lon":"121.43456","lat":"31.17495","category":"179","category_name":"音乐厅","address":"徐汇区田林东路8号(田东路田林东路)"},{"poiid":"B2094654DA6DA1FF4292","title":"上海靓妆服饰礼品市场","lon":"121.43622","lat":"31.17786","category":"120","category_name":"小商品市场","address":"徐汇区漕溪路99号(近轻轨3号线漕溪路站)"},{"poiid":"B2094757D568A6F9419C","title":"玲珑纹绣","lon":"121.436003","lat":"31.17695","category":"148","category_name":"美容美发店","address":"徐汇区漕溪路99号靓妆市场2楼215-217室(宜家对面)"},{"poiid":"B2094757D569A3FE489A","title":"宜家瑞典食品屋","lon":"121.4342419","lat":"31.17801194","category":"247","category_name":"餐饮美食","address":"徐汇区漕溪路126号宜家家居1楼(近中山西路)"},{"poiid":"B2094757D064A6F44693","title":"石锅部落","lon":"121.43804858","lat":"31.176410379","category":"96","category_name":"韩国料理","address":"徐汇区凯旋南路893号(近漕溪路)"},{"poiid":"B2094655D26BA2F84598","title":"田林东路","lon":"121.43546","lat":"31.17539","category":"38","category_name":"公交车站","address":""},{"poiid":"B2094757D165A3FE419E","title":"上海影城9号放映厅","lon":"121.435663586","lat":"31.1775084004","category":"248","category_name":"生活娱乐","address":"上海新华路160号1楼"},{"poiid":"B2094655D268A0FC419E","title":"文广舞蹈培训","lon":"121.43612","lat":"31.17673","category":"190","category_name":"培训机构","address":"漕溪路125弄25号徐汇都市型工业园区"},{"poiid":"B2094654DA6DA1FF4499","title":"可的好便利No.124","lon":"121.43675","lat":"31.17659","category":"117","category_name":"便民商店/便利店","address":"漕溪路123弄15号"},{"poiid":"B2094757D06AA7FA489D","title":"屈臣氏(漕溪店)","lon":"121.436674984","lat":"31.1777693211","category":"122","category_name":"个人用品/化妆品店","address":"徐汇区地铁3号线漕溪路站吉美臣商场1-2楼(漕溪路凯旋南路)"},{"poiid":"B2094757D568AAFF4892","title":"欧洲之星统领KTV","lon":"121.43634","lat":"31.17753889","category":"170","category_name":"KTV","address":"漕溪路111号"},{"poiid":"B2094757DA69A3F54692","title":"上海仁爱医院口腔种植牙中心","lon":"121.43598","lat":"31.17551","category":"162","category_name":"医院","address":"漕溪路133号"},{"poiid":"B2094655D265A6FE439D","title":"妯娌老鸭粉丝漕溪路店","lon":"121.43424","lat":"31.17801","category":"257","category_name":"中餐厅","address":"徐汇区凯旋南路901号(近漕溪路地铁站)"},{"poiid":"B2094654DA6DA1FF4493","title":"金浦大楼","lon":"121.43677","lat":"31.1754","category":"47","category_name":"住宅区","address":"上海漕溪路135号"},{"poiid":"B2094757D06BA6FA4499","title":"江苏省宜兴市","lon":"121.436155","lat":"31.176668","category":"500","category_name":"未知分类","address":"上海江苏省宜兴市"},{"poiid":"B2094757D06EABF44998","title":"宜家家居IKEA(徐汇商场)","lon":"121.43423790178304","lat":"31.178010857800547","category":"119","category_name":"商场","address":"上海徐汇区漕溪路126号(近中山西路)"},{"poiid":"B2094654DB69A0F54498","title":"宜家餐厅","lon":"121.435266054","lat":"31.176502793","category":"94","category_name":"西餐厅","address":"徐汇区漕溪路126号宜家家居2楼(近中山西路)"},{"poiid":"B2094654DA6DA1FF4492","title":"上海仁爱医院","lon":"121.43598","lat":"31.17551","category":"162","category_name":"医院","address":"徐汇区漕溪路133号仁爱医院内"},{"poiid":"B2094757D06EAAFB4393","title":"漕溪路地铁站","lon":"121.438054","lat":"31.176627","category":"36","category_name":"地铁站","address":"上海轨道交通 三号线 轨交漕溪路站 轻轨 3"},{"poiid":"B2094655D268A3F9479E","title":"漕溪路公交枢纽站","lon":"121.43729","lat":"31.1786","category":"38","category_name":"公交车站","address":"徐汇区漕溪路93号(近轻轨三号线漕溪路站)"},{"poiid":"B2094655D268A2F4499D","title":"上海体育场(二号门)","lon":"121.43698","lat":"31.18028","category":"224","category_name":"综合体育馆","address":""},{"poiid":"B2094757D06FA5F84793","title":"徐汇区青少年活动中心","lon":"121.434555054","lat":"31.1748218536","category":"260","category_name":"其他","address":"徐汇区田林东路8号(漕溪路田林东路)"},{"poiid":"B2094757D06FA0FF4198","title":"爱建园","lon":"121.4324","lat":"31.176199","category":"500","category_name":"未知分类","address":"徐汇区田林东路100弄爱建园内(近漕溪路)"},{"poiid":"B2094757D06FA5F44499","title":"东亚壁球馆","lon":"121.43781","lat":"31.17969","category":"220","category_name":"运动场所","address":"徐汇区中山南二路1500号(近零陵路)"},{"poiid":"B2094757D068A0F8449A","title":"华谊党校","lon":"121.435864639","lat":"31.1751585896","category":"46","category_name":"楼宇","address":"上海漕溪路165号"},{"poiid":"B2094757D16CA7F84798","title":"索尼产品技术服务中心","lon":"121.43560758","lat":"31.176297376","category":"260","category_name":"其他","address":"徐汇区漕溪路129-131号"},{"poiid":"B2094757D068A2F44793","title":"沪闵高架转内环高架","lon":"121.433752","lat":"31.177968","category":"500","category_name":"未知分类","address":"上海宜家家居附近"},{"poiid":"B2094654DB65A1F9499B","title":"上海旅游集散中心(上海市徐汇区漕河泾市容管理所西)","lon":"121.43862","lat":"31.17817","category":"248","category_name":"生活娱乐","address":"中山南二路2419"},{"poiid":"B2094757D068A7F5439B","title":"呷哺(漕溪路)","lon":"121.437984","lat":"31.177094","category":"86","category_name":"火锅店","address":"上海徐汇区吉美臣商城二楼"},{"poiid":"B2094654DA6DA1FF4399","title":"洛卡铁板烧烤","lon":"121.43594","lat":"31.17684","category":"87","category_name":"特色／地方风味餐厅","address":"徐汇区漕溪路123号(近中山西路)"},{"poiid":"B2094655D269A4FB439C","title":"统一撞球海盜馆","lon":"121.43625","lat":"31.17745","category":"171","category_name":"台球厅","address":"徐汇区漕溪路111号苏宁电器5楼(近地铁3号线漕溪路站)"},{"poiid":"B2094750D76EA4FA439F","title":"味千拉面(漕溪路地铁站店)","lon":"121.436","lat":"31.1759","category":"95","category_name":"日本料理","address":"徐汇区漕溪路地铁站2楼"},{"poiid":"B2094655D264A0FF409C","title":"万科华尔兹花园","lon":"121.434684","lat":"31.174519","category":"47","category_name":"住宅区","address":"上海市徐汇区漕宝路77弄"},{"poiid":"B2094757D068A2FF4493","title":"肯德基 KFC (漕东店)","lon":"121.438676","lat":"31.176462","category":"68","category_name":"快餐厅","address":"徐汇区轻轨三号线漕溪路站1楼(近3号出口)"},{"poiid":"B2094757D16DABFB469F","title":"宜家員工餐廳","lon":"121.436689386","lat":"31.1790545306","category":"500","category_name":"未知分类","address":"上海漕溪路126號2樓"},{"poiid":"B2094757D16FAAF9419D","title":"上海Sony服务中心","lon":"121.43580658","lat":"31.176643383","category":"500","category_name":"未知分类","address":"上海市漕溪路129号"},{"poiid":"B2094655D265A6FB4393","title":"宜家办公楼","lon":"121.43492","lat":"31.17754","category":"46","category_name":"楼宇","address":"漕溪路128号"},{"poiid":"B2094757D06FA6F44399","title":"好饰家(徐汇店)","lon":"121.43471959","lat":"31.174966384","category":"637","category_name":"房地产类公司","address":"徐汇区漕溪路198号(近田林东路)"},{"poiid":"B2094654DB6BA5F84598","title":"巴比馒头 漕溪店 Babi Food","lon":"121.435854054","lat":"31.177953793","category":"68","category_name":"快餐厅","address":"徐汇区漕溪路123号(近中山西路)"},{"poiid":"B2094757D165A5FF4699","title":"Ikea","lon":"121.43506958","lat":"31.178269415","category":"500","category_name":"未知分类","address":"上海Ikea"},{"poiid":"B2094654DA6DA1F84192","title":"东北一小院","lon":"121.43588","lat":"31.17458","category":"82","category_name":"东北菜","address":"徐汇区漕溪路169号(田东路口)"},{"poiid":"B2094757D06BA0FE409A","title":"益佳粥店","lon":"121.436243","lat":"31.176479","category":"68","category_name":"快餐厅","address":"徐汇区漕溪路125号"},{"poiid":"B2094654DA6DA1FF439C","title":"喜士多便利(漕溪路)","lon":"121.43593","lat":"31.17674","category":"117","category_name":"便民商店/便利店","address":"徐汇区漕溪北路718号中鑫百货内(近裕德路)"},{"poiid":"B2094655D36DA6FF449A","title":"漕溪路","lon":"121.43805","lat":"31.17663","category":"38","category_name":"公交车站","address":""},{"poiid":"B2094655D264A2FB4098","title":"经发商务中心","lon":"121.43594","lat":"31.17681","category":"46","category_name":"楼宇","address":"漕溪路123-3临"},{"poiid":"B2094753D36CA6FD449F","title":"口湘堂(漕溪路店)","lon":"121.436737","lat":"31.17659","category":"77","category_name":"湖南菜","address":"漕溪路123号"},{"poiid":"B2094757D064A4FD489B","title":"苏宁电器(漕溪路店)","lon":"121.43649","lat":"31.17723","category":"138","category_name":"家电电子卖场","address":"徐汇区漕溪路111号(近三号线漕溪路站)"},{"poiid":"B2094757D069A4FB469A","title":"韩朝阁(漕溪路店)","lon":"121.43812","lat":"31.17701","category":"96","category_name":"韩国料理","address":"徐汇区凯旋南路907号(近轻轨3号线漕溪路站)"},{"poiid":"B2094654DA6DA1FF4392","title":"皇家大厦","lon":"121.4365","lat":"31.17663","category":"46","category_name":"楼宇","address":"漕溪路125弄15"},{"poiid":"B2094757D16AABFD439B","title":"上外贤达图书馆(虹口校区)","lon":"121.435688586","lat":"31.1774023983","category":"181","category_name":"图书馆","address":"上海东体育会路390号教学楼7楼"},{"poiid":"B2094757D06AA6FC4993","title":"土山湾美术馆","lon":"121.43456","lat":"31.17495","category":"179","category_name":"音乐厅","address":"徐汇区田林东路8号(田东路田林东路)"},{"poiid":"B2094654DA6DA1FF4292","title":"上海靓妆服饰礼品市场","lon":"121.43622","lat":"31.17786","category":"120","category_name":"小商品市场","address":"徐汇区漕溪路99号(近轻轨3号线漕溪路站)"},{"poiid":"B2094757D568A6F9419C","title":"玲珑纹绣","lon":"121.436003","lat":"31.17695","category":"148","category_name":"美容美发店","address":"徐汇区漕溪路99号靓妆市场2楼215-217室(宜家对面)"},{"poiid":"B2094757D569A3FE489A","title":"宜家瑞典食品屋","lon":"121.4342419","lat":"31.17801194","category":"247","category_name":"餐饮美食","address":"徐汇区漕溪路126号宜家家居1楼(近中山西路)"},{"poiid":"B2094757D064A6F44693","title":"石锅部落","lon":"121.43804858","lat":"31.176410379","category":"96","category_name":"韩国料理","address":"徐汇区凯旋南路893号(近漕溪路)"},{"poiid":"B2094655D26BA2F84598","title":"田林东路","lon":"121.43546","lat":"31.17539","category":"38","category_name":"公交车站","address":""},{"poiid":"B2094757D165A3FE419E","title":"上海影城9号放映厅","lon":"121.435663586","lat":"31.1775084004","category":"248","category_name":"生活娱乐","address":"上海新华路160号1楼"},{"poiid":"B2094655D268A0FC419E","title":"文广舞蹈培训","lon":"121.43612","lat":"31.17673","category":"190","category_name":"培训机构","address":"漕溪路125弄25号徐汇都市型工业园区"},{"poiid":"B2094654DA6DA1FF4499","title":"可的好便利No.124","lon":"121.43675","lat":"31.17659","category":"117","category_name":"便民商店/便利店","address":"漕溪路123弄15号"},{"poiid":"B2094757D06AA7FA489D","title":"屈臣氏(漕溪店)","lon":"121.436674984","lat":"31.1777693211","category":"122","category_name":"个人用品/化妆品店","address":"徐汇区地铁3号线漕溪路站吉美臣商场1-2楼(漕溪路凯旋南路)"},{"poiid":"B2094757D568AAFF4892","title":"欧洲之星统领KTV","lon":"121.43634","lat":"31.17753889","category":"170","category_name":"KTV","address":"漕溪路111号"},{"poiid":"B2094757DA69A3F54692","title":"上海仁爱医院口腔种植牙中心","lon":"121.43598","lat":"31.17551","category":"162","category_name":"医院","address":"漕溪路133号"},{"poiid":"B2094655D265A6FE439D","title":"妯娌老鸭粉丝漕溪路店","lon":"121.43424","lat":"31.17801","category":"257","category_name":"中餐厅","address":"徐汇区凯旋南路901号(近漕溪路地铁站)"},{"poiid":"B2094654DA6DA1FF4493","title":"金浦大楼","lon":"121.43677","lat":"31.1754","category":"47","category_name":"住宅区","address":"上海漕溪路135号"},{"poiid":"B2094757D06BA6FA4499","title":"江苏省宜兴市","lon":"121.436155","lat":"31.176668","category":"500","category_name":"未知分类","address":"上海江苏省宜兴市"},{"poiid":"B2094757D06EABF44998","title":"宜家家居IKEA(徐汇商场)","lon":"121.43423790178304","lat":"31.178010857800547","category":"119","category_name":"商场","address":"上海徐汇区漕溪路126号(近中山西路)"},{"poiid":"B2094654DB69A0F54498","title":"宜家餐厅","lon":"121.435266054","lat":"31.176502793","category":"94","category_name":"西餐厅","address":"徐汇区漕溪路126号宜家家居2楼(近中山西路)"},{"poiid":"B2094654DA6DA1FF4492","title":"上海仁爱医院","lon":"121.43598","lat":"31.17551","category":"162","category_name":"医院","address":"徐汇区漕溪路133号仁爱医院内"},{"poiid":"B2094757D06EAAFB4393","title":"漕溪路地铁站","lon":"121.438054","lat":"31.176627","category":"36","category_name":"地铁站","address":"上海轨道交通 三号线 轨交漕溪路站 轻轨 3"},{"poiid":"B2094655D268A3F9479E","title":"漕溪路公交枢纽站","lon":"121.43729","lat":"31.1786","category":"38","category_name":"公交车站","address":"徐汇区漕溪路93号(近轻轨三号线漕溪路站)"},{"poiid":"B2094655D268A2F4499D","title":"上海体育场(二号门)","lon":"121.43698","lat":"31.18028","category":"224","category_name":"综合体育馆","address":""},{"poiid":"B2094757D06FA5F84793","title":"徐汇区青少年活动中心","lon":"121.434555054","lat":"31.1748218536","category":"260","category_name":"其他","address":"徐汇区田林东路8号(漕溪路田林东路)"},{"poiid":"B2094757D06FA0FF4198","title":"爱建园","lon":"121.4324","lat":"31.176199","category":"500","category_name":"未知分类","address":"徐汇区田林东路100弄爱建园内(近漕溪路)"},{"poiid":"B2094757D06FA5F44499","title":"东亚壁球馆","lon":"121.43781","lat":"31.17969","category":"220","category_name":"运动场所","address":"徐汇区中山南二路1500号(近零陵路)"},{"poiid":"B2094757D068A0F8449A","title":"华谊党校","lon":"121.435864639","lat":"31.1751585896","category":"46","category_name":"楼宇","address":"上海漕溪路165号"},{"poiid":"B2094757D16CA7F84798","title":"索尼产品技术服务中心","lon":"121.43560758","lat":"31.176297376","category":"260","category_name":"其他","address":"徐汇区漕溪路129-131号"},{"poiid":"B2094757D068A2F44793","title":"沪闵高架转内环高架","lon":"121.433752","lat":"31.177968","category":"500","category_name":"未知分类","address":"上海宜家家居附近"},{"poiid":"B2094654DB65A1F9499B","title":"上海旅游集散中心(上海市徐汇区漕河泾市容管理所西)","lon":"121.43862","lat":"31.17817","category":"248","category_name":"生活娱乐","address":"中山南二路2419"},{"poiid":"B2094757D068A7F5439B","title":"呷哺(漕溪路)","lon":"121.437984","lat":"31.177094","category":"86","category_name":"火锅店","address":"上海徐汇区吉美臣商城二楼"},{"poiid":"B2094654DA6DA1FF4399","title":"洛卡铁板烧烤","lon":"121.43594","lat":"31.17684","category":"87","category_name":"特色／地方风味餐厅","address":"徐汇区漕溪路123号(近中山西路)"},{"poiid":"B2094655D269A4FB439C","title":"统一撞球海盜馆","lon":"121.43625","lat":"31.17745","category":"171","category_name":"台球厅","address":"徐汇区漕溪路111号苏宁电器5楼(近地铁3号线漕溪路站)"},{"poiid":"B2094750D76EA4FA439F","title":"味千拉面(漕溪路地铁站店)","lon":"121.436","lat":"31.1759","category":"95","category_name":"日本料理","address":"徐汇区漕溪路地铁站2楼"},{"poiid":"B2094655D264A0FF409C","title":"万科华尔兹花园","lon":"121.434684","lat":"31.174519","category":"47","category_name":"住宅区","address":"上海市徐汇区漕宝路77弄"},{"poiid":"B2094757D068A2FF4493","title":"肯德基 KFC (漕东店)","lon":"121.438676","lat":"31.176462","category":"68","category_name":"快餐厅","address":"徐汇区轻轨三号线漕溪路站1楼(近3号出口)"},{"poiid":"B2094757D16DABFB469F","title":"宜家員工餐廳","lon":"121.436689386","lat":"31.1790545306","category":"500","category_name":"未知分类","address":"上海漕溪路126號2樓"},{"poiid":"B2094757D16FAAF9419D","title":"上海Sony服务中心","lon":"121.43580658","lat":"31.176643383","category":"500","category_name":"未知分类","address":"上海市漕溪路129号"},{"poiid":"B2094655D265A6FB4393","title":"宜家办公楼","lon":"121.43492","lat":"31.17754","category":"46","category_name":"楼宇","address":"漕溪路128号"},{"poiid":"B2094757D06FA6F44399","title":"好饰家(徐汇店)","lon":"121.43471959","lat":"31.174966384","category":"637","category_name":"房地产类公司","address":"徐汇区漕溪路198号(近田林东路)"},{"poiid":"B2094654DB6BA5F84598","title":"巴比馒头 漕溪店 Babi Food","lon":"121.435854054","lat":"31.177953793","category":"68","category_name":"快餐厅","address":"徐汇区漕溪路123号(近中山西路)"},{"poiid":"B2094757D165A5FF4699","title":"Ikea","lon":"121.43506958","lat":"31.178269415","category":"500","category_name":"未知分类","address":"上海Ikea"},{"poiid":"B2094654DA6DA1F84192","title":"东北一小院","lon":"121.43588","lat":"31.17458","category":"82","category_name":"东北菜","address":"徐汇区漕溪路169号(田东路口)"},{"poiid":"B2094757D06BA0FE409A","title":"益佳粥店","lon":"121.436243","lat":"31.176479","category":"68","category_name":"快餐厅","address":"徐汇区漕溪路125号"},{"poiid":"B2094654DA6DA1FF439C","title":"喜士多便利(漕溪路)","lon":"121.43593","lat":"31.17674","category":"117","category_name":"便民商店/便利店","address":"徐汇区漕溪北路718号中鑫百货内(近裕德路)"},{"poiid":"B2094655D36DA6FF449A","title":"漕溪路","lon":"121.43805","lat":"31.17663","category":"38","category_name":"公交车站","address":""},{"poiid":"B2094655D264A2FB4098","title":"经发商务中心","lon":"121.43594","lat":"31.17681","category":"46","category_name":"楼宇","address":"漕溪路123-3临"},{"poiid":"B2094753D36CA6FD449F","title":"口湘堂(漕溪路店)","lon":"121.436737","lat":"31.17659","category":"77","category_name":"湖南菜","address":"漕溪路123号"},{"poiid":"B2094757D064A4FD489B","title":"苏宁电器(漕溪路店)","lon":"121.43649","lat":"31.17723","category":"138","category_name":"家电电子卖场","address":"徐汇区漕溪路111号(近三号线漕溪路站)"},{"poiid":"B2094757D069A4FB469A","title":"韩朝阁(漕溪路店)","lon":"121.43812","lat":"31.17701","category":"96","category_name":"韩国料理","address":"徐汇区凯旋南路907号(近轻轨3号线漕溪路站)"},{"poiid":"B2094654DA6DA1FF4392","title":"皇家大厦","lon":"121.4365","lat":"31.17663","category":"46","category_name":"楼宇","address":"漕溪路125弄15"},{"poiid":"B2094757D16AABFD439B","title":"上外贤达图书馆(虹口校区)","lon":"121.435688586","lat":"31.1774023983","category":"181","category_name":"图书馆","address":"上海东体育会路390号教学楼7楼"},{"poiid":"B2094757D06AA6FC4993","title":"土山湾美术馆","lon":"121.43456","lat":"31.17495","category":"179","category_name":"音乐厅","address":"徐汇区田林东路8号(田东路田林东路)"},{"poiid":"B2094654DA6DA1FF4292","title":"上海靓妆服饰礼品市场","lon":"121.43622","lat":"31.17786","category":"120","category_name":"小商品市场","address":"徐汇区漕溪路99号(近轻轨3号线漕溪路站)"},{"poiid":"B2094757D568A6F9419C","title":"玲珑纹绣","lon":"121.436003","lat":"31.17695","category":"148","category_name":"美容美发店","address":"徐汇区漕溪路99号靓妆市场2楼215-217室(宜家对面)"},{"poiid":"B2094757D569A3FE489A","title":"宜家瑞典食品屋","lon":"121.4342419","lat":"31.17801194","category":"247","category_name":"餐饮美食","address":"徐汇区漕溪路126号宜家家居1楼(近中山西路)"},{"poiid":"B2094757D064A6F44693","title":"石锅部落","lon":"121.43804858","lat":"31.176410379","category":"96","category_name":"韩国料理","address":"徐汇区凯旋南路893号(近漕溪路)"},{"poiid":"B2094655D26BA2F84598","title":"田林东路","lon":"121.43546","lat":"31.17539","category":"38","category_name":"公交车站","address":""},{"poiid":"B2094757D165A3FE419E","title":"上海影城9号放映厅","lon":"121.435663586","lat":"31.1775084004","category":"248","category_name":"生活娱乐","address":"上海新华路160号1楼"},{"poiid":"B2094655D268A0FC419E","title":"文广舞蹈培训","lon":"121.43612","lat":"31.17673","category":"190","category_name":"培训机构","address":"漕溪路125弄25号徐汇都市型工业园区"},{"poiid":"B2094654DA6DA1FF4499","title":"可的好便利No.124","lon":"121.43675","lat":"31.17659","category":"117","category_name":"便民商店/便利店","address":"漕溪路123弄15号"},{"poiid":"B2094757D06AA7FA489D","title":"屈臣氏(漕溪店)","lon":"121.436674984","lat":"31.1777693211","category":"122","category_name":"个人用品/化妆品店","address":"徐汇区地铁3号线漕溪路站吉美臣商场1-2楼(漕溪路凯旋南路)"},{"poiid":"B2094757D568AAFF4892","title":"欧洲之星统领KTV","lon":"121.43634","lat":"31.17753889","category":"170","category_name":"KTV","address":"漕溪路111号"},{"poiid":"B2094757DA69A3F54692","title":"上海仁爱医院口腔种植牙中心","lon":"121.43598","lat":"31.17551","category":"162","category_name":"医院","address":"漕溪路133号"},{"poiid":"B2094655D265A6FE439D","title":"妯娌老鸭粉丝漕溪路店","lon":"121.43424","lat":"31.17801","category":"257","category_name":"中餐厅","address":"徐汇区凯旋南路901号(近漕溪路地铁站)"},{"poiid":"B2094654DA6DA1FF4493","title":"金浦大楼","lon":"121.43677","lat":"31.1754","category":"47","category_name":"住宅区","address":"上海漕溪路135号"},{"poiid":"B2094757D06BA6FA4499","title":"江苏省宜兴市","lon":"121.436155","lat":"31.176668","category":"500","category_name":"未知分类","address":"上海江苏省宜兴市"},{"poiid":"B2094757D06EABF44998","title":"宜家家居IKEA(徐汇商场)","lon":"121.43423790178304","lat":"31.178010857800547","category":"119","category_name":"商场","address":"上海徐汇区漕溪路126号(近中山西路)"},{"poiid":"B2094654DB69A0F54498","title":"宜家餐厅","lon":"121.435266054","lat":"31.176502793","category":"94","category_name":"西餐厅","address":"徐汇区漕溪路126号宜家家居2楼(近中山西路)"},{"poiid":"B2094654DA6DA1FF4492","title":"上海仁爱医院","lon":"121.43598","lat":"31.17551","category":"162","category_name":"医院","address":"徐汇区漕溪路133号仁爱医院内"},{"poiid":"B2094757D06EAAFB4393","title":"漕溪路地铁站","lon":"121.438054","lat":"31.176627","category":"36","category_name":"地铁站","address":"上海轨道交通 三号线 轨交漕溪路站 轻轨 3"},{"poiid":"B2094655D268A3F9479E","title":"漕溪路公交枢纽站","lon":"121.43729","lat":"31.1786","category":"38","category_name":"公交车站","address":"徐汇区漕溪路93号(近轻轨三号线漕溪路站)"},{"poiid":"B2094655D268A2F4499D","title":"上海体育场(二号门)","lon":"121.43698","lat":"31.18028","category":"224","category_name":"综合体育馆","address":""},{"poiid":"B2094757D06FA5F84793","title":"徐汇区青少年活动中心","lon":"121.434555054","lat":"31.1748218536","category":"260","category_name":"其他","address":"徐汇区田林东路8号(漕溪路田林东路)"},{"poiid":"B2094757D06FA0FF4198","title":"爱建园","lon":"121.4324","lat":"31.176199","category":"500","category_name":"未知分类","address":"徐汇区田林东路100弄爱建园内(近漕溪路)"},{"poiid":"B2094757D06FA5F44499","title":"东亚壁球馆","lon":"121.43781","lat":"31.17969","category":"220","category_name":"运动场所","address":"徐汇区中山南二路1500号(近零陵路)"},{"poiid":"B2094757D068A0F8449A","title":"华谊党校","lon":"121.435864639","lat":"31.1751585896","category":"46","category_name":"楼宇","address":"上海漕溪路165号"},{"poiid":"B2094757D16CA7F84798","title":"索尼产品技术服务中心","lon":"121.43560758","lat":"31.176297376","category":"260","category_name":"其他","address":"徐汇区漕溪路129-131号"},{"poiid":"B2094757D068A2F44793","title":"沪闵高架转内环高架","lon":"121.433752","lat":"31.177968","category":"500","category_name":"未知分类","address":"上海宜家家居附近"},{"poiid":"B2094654DB65A1F9499B","title":"上海旅游集散中心(上海市徐汇区漕河泾市容管理所西)","lon":"121.43862","lat":"31.17817","category":"248","category_name":"生活娱乐","address":"中山南二路2419"},{"poiid":"B2094757D068A7F5439B","title":"呷哺(漕溪路)","lon":"121.437984","lat":"31.177094","category":"86","category_name":"火锅店","address":"上海徐汇区吉美臣商城二楼"},{"poiid":"B2094654DA6DA1FF4399","title":"洛卡铁板烧烤","lon":"121.43594","lat":"31.17684","category":"87","category_name":"特色／地方风味餐厅","address":"徐汇区漕溪路123号(近中山西路)"},{"poiid":"B2094655D269A4FB439C","title":"统一撞球海盜馆","lon":"121.43625","lat":"31.17745","category":"171","category_name":"台球厅","address":"徐汇区漕溪路111号苏宁电器5楼(近地铁3号线漕溪路站)"},{"poiid":"B2094750D76EA4FA439F","title":"味千拉面(漕溪路地铁站店)","lon":"121.436","lat":"31.1759","category":"95","category_name":"日本料理","address":"徐汇区漕溪路地铁站2楼"},{"poiid":"B2094655D264A0FF409C","title":"万科华尔兹花园","lon":"121.434684","lat":"31.174519","category":"47","category_name":"住宅区","address":"上海市徐汇区漕宝路77弄"},{"poiid":"B2094757D068A2FF4493","title":"肯德基 KFC (漕东店)","lon":"121.438676","lat":"31.176462","category":"68","category_name":"快餐厅","address":"徐汇区轻轨三号线漕溪路站1楼(近3号出口)"},{"poiid":"B2094757D16DABFB469F","title":"宜家員工餐廳","lon":"121.436689386","lat":"31.1790545306","category":"500","category_name":"未知分类","address":"上海漕溪路126號2樓"},{"poiid":"B2094757D16FAAF9419D","title":"上海Sony服务中心","lon":"121.43580658","lat":"31.176643383","category":"500","category_name":"未知分类","address":"上海市漕溪路129号"},{"poiid":"B2094655D265A6FB4393","title":"宜家办公楼","lon":"121.43492","lat":"31.17754","category":"46","category_name":"楼宇","address":"漕溪路128号"},{"poiid":"B2094757D06FA6F44399","title":"好饰家(徐汇店)","lon":"121.43471959","lat":"31.174966384","category":"637","category_name":"房地产类公司","address":"徐汇区漕溪路198号(近田林东路)"},{"poiid":"B2094654DB6BA5F84598","title":"巴比馒头 漕溪店 Babi Food","lon":"121.435854054","lat":"31.177953793","category":"68","category_name":"快餐厅","address":"徐汇区漕溪路123号(近中山西路)"},{"poiid":"B2094757D165A5FF4699","title":"Ikea","lon":"121.43506958","lat":"31.178269415","category":"500","category_name":"未知分类","address":"上海Ikea"},{"poiid":"B2094654DA6DA1F84192","title":"东北一小院","lon":"121.43588","lat":"31.17458","category":"82","category_name":"东北菜","address":"徐汇区漕溪路169号(田东路口)"},{"poiid":"B2094757D06BA0FE409A","title":"益佳粥店","lon":"121.436243","lat":"31.176479","category":"68","category_name":"快餐厅","address":"徐汇区漕溪路125号"},{"poiid":"B2094654DA6DA1FF439C","title":"喜士多便利(漕溪路)","lon":"121.43593","lat":"31.17674","category":"117","category_name":"便民商店/便利店","address":"徐汇区漕溪北路718号中鑫百货内(近裕德路)"},{"poiid":"B2094655D36DA6FF449A","title":"漕溪路","lon":"121.43805","lat":"31.17663","category":"38","category_name":"公交车站","address":""},{"poiid":"B2094655D264A2FB4098","title":"经发商务中心","lon":"121.43594","lat":"31.17681","category":"46","category_name":"楼宇","address":"漕溪路123-3临"},{"poiid":"B2094753D36CA6FD449F","title":"口湘堂(漕溪路店)","lon":"121.436737","lat":"31.17659","category":"77","category_name":"湖南菜","address":"漕溪路123号"},{"poiid":"B2094757D064A4FD489B","title":"苏宁电器(漕溪路店)","lon":"121.43649","lat":"31.17723","category":"138","category_name":"家电电子卖场","address":"徐汇区漕溪路111号(近三号线漕溪路站)"},{"poiid":"B2094757D069A4FB469A","title":"韩朝阁(漕溪路店)","lon":"121.43812","lat":"31.17701","category":"96","category_name":"韩国料理","address":"徐汇区凯旋南路907号(近轻轨3号线漕溪路站)"},{"poiid":"B2094654DA6DA1FF4392","title":"皇家大厦","lon":"121.4365","lat":"31.17663","category":"46","category_name":"楼宇","address":"漕溪路125弄15"},{"poiid":"B2094757D16AABFD439B","title":"上外贤达图书馆(虹口校区)","lon":"121.435688586","lat":"31.1774023983","category":"181","category_name":"图书馆","address":"上海东体育会路390号教学楼7楼"},{"poiid":"B2094757D06AA6FC4993","title":"土山湾美术馆","lon":"121.43456","lat":"31.17495","category":"179","category_name":"音乐厅","address":"徐汇区田林东路8号(田东路田林东路)"},{"poiid":"B2094654DA6DA1FF4292","title":"上海靓妆服饰礼品市场","lon":"121.43622","lat":"31.17786","category":"120","category_name":"小商品市场","address":"徐汇区漕溪路99号(近轻轨3号线漕溪路站)"},{"poiid":"B2094757D568A6F9419C","title":"玲珑纹绣","lon":"121.436003","lat":"31.17695","category":"148","category_name":"美容美发店","address":"徐汇区漕溪路99号靓妆市场2楼215-217室(宜家对面)"},{"poiid":"B2094757D569A3FE489A","title":"宜家瑞典食品屋","lon":"121.4342419","lat":"31.17801194","category":"247","category_name":"餐饮美食","address":"徐汇区漕溪路126号宜家家居1楼(近中山西路)"},{"poiid":"B2094757D064A6F44693","title":"石锅部落","lon":"121.43804858","lat":"31.176410379","category":"96","category_name":"韩国料理","address":"徐汇区凯旋南路893号(近漕溪路)"},{"poiid":"B2094655D26BA2F84598","title":"田林东路","lon":"121.43546","lat":"31.17539","category":"38","category_name":"公交车站","address":""},{"poiid":"B2094757D165A3FE419E","title":"上海影城9号放映厅","lon":"121.435663586","lat":"31.1775084004","category":"248","category_name":"生活娱乐","address":"上海新华路160号1楼"},{"poiid":"B2094655D268A0FC419E","title":"文广舞蹈培训","lon":"121.43612","lat":"31.17673","category":"190","category_name":"培训机构","address":"漕溪路125弄25号徐汇都市型工业园区"},{"poiid":"B2094654DA6DA1FF4499","title":"可的好便利No.124","lon":"121.43675","lat":"31.17659","category":"117","category_name":"便民商店/便利店","address":"漕溪路123弄15号"},{"poiid":"B2094757D06AA7FA489D","title":"屈臣氏(漕溪店)","lon":"121.436674984","lat":"31.1777693211","category":"122","category_name":"个人用品/化妆品店","address":"徐汇区地铁3号线漕溪路站吉美臣商场1-2楼(漕溪路凯旋南路)"},{"poiid":"B2094757D568AAFF4892","title":"欧洲之星统领KTV","lon":"121.43634","lat":"31.17753889","category":"170","category_name":"KTV","address":"漕溪路111号"},{"poiid":"B2094757DA69A3F54692","title":"上海仁爱医院口腔种植牙中心","lon":"121.43598","lat":"31.17551","category":"162","category_name":"医院","address":"漕溪路133号"},{"poiid":"B2094655D265A6FE439D","title":"妯娌老鸭粉丝漕溪路店","lon":"121.43424","lat":"31.17801","category":"257","category_name":"中餐厅","address":"徐汇区凯旋南路901号(近漕溪路地铁站)"},{"poiid":"B2094654DA6DA1FF4493","title":"金浦大楼","lon":"121.43677","lat":"31.1754","category":"47","category_name":"住宅区","address":"上海漕溪路135号"},{"poiid":"B2094757D06BA6FA4499","title":"江苏省宜兴市","lon":"121.436155","lat":"31.176668","category":"500","category_name":"未知分类","address":"上海江苏省宜兴市"}]