[{"poiid":"B2094655D268ABF94898","title":"徐浦大桥","lon":"121.46894","lat":"31.12749","category":"250","category_name":"公园户外","address":"上海徐汇区环南二大道-浦东新区环南二大道"},{"poiid":"B2094757D06FA0FC429C","title":"龙吴路罗秀路","lon":"121.452246","lat":"31.135412","category":"260","category_name":"其他","address":"上海市徐汇区龙吴路罗秀路"},{"poiid":"B2094757D06FA1F5489B","title":"徐汇新城","lon":"121.453094482","lat":"31.1309185028","category":"47","category_name":"住宅区","address":"上海市徐汇区龙吴路1595号"},{"poiid":"B2094655D26BAAFD479F","title":"印象欧洲","lon":"121.462118","lat":"31.118556","category":"47","category_name":"住宅区","address":"华泾镇龙吴路2488号"},{"poiid":"B2094757D06FABFE4492","title":"中海瀛台","lon":"121.45292","lat":"31.140421","category":"500","category_name":"未知分类","address":"徐汇区龙瑞路77弄"},{"poiid":"B2094655D268A1FE489D","title":"华滨家园","lon":"121.45071","lat":"31.1392","category":"47","category_name":"住宅区","address":"龙吴路1323弄"},{"poiid":"B2094655D26FA3F4459D","title":"华泾绿苑","lon":"121.45804","lat":"31.1153","category":"47","category_name":"住宅区","address":"上海市徐汇区龙吴路2588弄"},{"poiid":"B2094757D06FA1FA489B","title":"紫阳花苑","lon":"121.45851978229","lat":"31.119646803034","category":"47","category_name":"住宅区","address":"紫阳花苑位于徐汇龙吴路2589号"},{"poiid":"B2094757D06FA2FA4192","title":"明丰新纪苑","lon":"121.45352","lat":"31.126495","category":"47","category_name":"住宅区","address":"上海市徐汇区华发路99弄"},{"poiid":"B2094757D06FA1FA4592","title":"上中路隧道","lon":"121.45757293","lat":"31.143583297","category":"38","category_name":"公交车站","address":"上海上中路隧道"},{"poiid":"B2094757D065A0FA4999","title":"馨宁公寓","lon":"121.44778","lat":"31.128372","category":"47","category_name":"住宅区","address":"上海华发路368弄"},{"poiid":"B2094655D36CA0F5449D","title":"华泾小区","lon":"121.467","lat":"31.1225","category":"47","category_name":"住宅区","address":"华泾路38弄"},{"poiid":"B2094654DB6CA5F8449D","title":"华欣家园","lon":"121.45748","lat":"31.11902","category":"47","category_name":"住宅区","address":"龙吴路2418号"},{"poiid":"B2094757D068A1F8419D","title":"上海市材料工程学校","lon":"121.446624394","lat":"31.1310546604","category":"52","category_name":"高等院校","address":"徐汇区罗秀新村136号(近龙吴路)"},{"poiid":"B2094655D26FAAFC479E","title":"徐汇臻园","lon":"121.45024","lat":"31.126078","category":"47","category_name":"住宅区","address":"上海市徐汇区华发路151号"},{"poiid":"B2094654DB6CA1FB409F","title":"华馨公寓","lon":"121.459","lat":"31.1407","category":"47","category_name":"住宅区","address":"上海市徐汇区罗秀路55弄"},{"poiid":"B2094750D66CA1FF469D","title":"华沁家园","lon":"121.449996","lat":"31.134494","category":"500","category_name":"未知分类","address":"上海徐汇区龙吴路1343弄"},{"poiid":"B2094655D264AAF44198","title":"上海市工业技术学校","lon":"121.45312","lat":"31.14674","category":"54","category_name":"职业技术学校","address":"喜泰支路8"},{"poiid":"B2094655D36CA1F8419E","title":"龙吴路华发路","lon":"121.45608","lat":"31.12669","category":"38","category_name":"公交车站","address":""},{"poiid":"B2094654DA65A6F44293","title":"上海市划船俱乐部","lon":"121.45666","lat":"31.13521","category":"220","category_name":"运动场所","address":"龙吴路1594"},{"poiid":"B2094654DA65A6F4449C","title":"港口渡口","lon":"121.45875","lat":"31.1334","category":"34","category_name":"港口码头","address":""},{"poiid":"B2094654DB6DA3FC439A","title":"华泾公园","lon":"121.4546","lat":"31.12032","category":"196","category_name":"公园","address":"徐汇区华泾路190号(近龙吴路)"},{"poiid":"B2094757D66DABF94898","title":"永达BUICK龙吴店","lon":"121.453904857","lat":"31.1345930549","category":"500","category_name":"未知分类","address":"上海市徐汇区罗秀路"},{"poiid":"B2094654DA65A6F54192","title":"上海市公安局徐汇分局交警支队对外办事窗口","lon":"121.45696","lat":"31.12466","category":"250","category_name":"公园户外","address":"龙吴路2138"},{"poiid":"B2094654DA65AAFB4199","title":"沿江农贸市场","lon":"121.46908","lat":"31.13523","category":"117","category_name":"便民商店/便利店","address":""},{"poiid":"B2094752D06DA2F44992","title":"浦东假日酒店","lon":"121.463451","lat":"31.128871","category":"247","category_name":"餐饮美食","address":"上海东方路899号"},{"poiid":"B2094757D064A0FA499E","title":"中海瀛台2期","lon":"121.45539347","lat":"31.13716525","category":"47","category_name":"住宅区","address":"上海龙瑞路77弄"},{"poiid":"B2094757D06FAAFA459E","title":"罗秀三村","lon":"121.452958","lat":"31.139931","category":"252","category_name":"楼宇机构","address":"罗秀路210号"},{"poiid":"B2094757D66EA1FE4498","title":"三林轮渡","lon":"121.4714002","lat":"31.128347421","category":"500","category_name":"未知分类","address":"上海三林路"},{"poiid":"B2094757D06FA5FE469D","title":"徐汇华园","lon":"121.45417","lat":"31.128843","category":"47","category_name":"住宅区","address":"上海华发路58弄"},{"poiid":"B2094750D26FABFA4793","title":"东湾小区","lon":"121.45731","lat":"31.12269","category":"251","category_name":"出行住宿","address":"东湾小区位于徐汇龙吴路2388弄"},{"poiid":"B2094654DB64A2F44292","title":"劳动新村居民委员会社区服务分中心","lon":"121.46918","lat":"31.1352","category":"248","category_name":"生活娱乐","address":""},{"poiid":"B2094751DA6EA4FA499A","title":"上海虹桥机场","lon":"121.464111","lat":"31.144684","category":"500","category_name":"未知分类","address":null},{"poiid":"B2094757D06FA6F8479C","title":"TONY WEAR(汤尼威尔)上海公司","lon":"121.457831","lat":"31.126421","category":"500","category_name":"未知分类","address":"上海龙吴路2046号"},{"poiid":"B2094757D66DABFA4693","title":"三林渡口","lon":"121.455088509","lat":"31.1312720848","category":"500","category_name":"未知分类","address":"上海沿江公路"},{"poiid":"B2094757D66FA7FB4498","title":"公交978立丰船厂站","lon":"121.472944","lat":"31.129123638","category":"500","category_name":"未知分类","address":"上海市浦东新区林浦路"},{"poiid":"B2094757D16FA7FD409A","title":"华育中学","lon":"121.453852857","lat":"31.1190827441","category":"55","category_name":"中学","address":"徐汇区龙吟路99号(近华济路)"},{"poiid":"B2094757D16CA1F8489D","title":"华发小区","lon":"121.45112485","lat":"31.128025923","category":"47","category_name":"住宅区","address":"华发小区位于徐汇华发路176号"},{"poiid":"B2094757D068A4FC479A","title":"外环高速","lon":"121.48478211","lat":"31.131006311","category":"260","category_name":"其他","address":"上海外环高速"},{"poiid":"B2094655D36CA1FB4799","title":"立丰船厂","lon":"121.47635","lat":"31.12738","category":"38","category_name":"公交车站","address":""},{"poiid":"B2094757D065A2F8429C","title":"新红园大酒店","lon":"121.455392643","lat":"31.1244974373","category":"76","category_name":"上海菜","address":"徐汇区华泾镇龙吟路9号(近华泾路)查看地图"},{"poiid":"B2094654DA65A6FB4598","title":"上海交通大学科技园海科园区商务楼","lon":"121.45404","lat":"31.13554","category":"46","category_name":"楼宇","address":"龙吴路1500-1502"},{"poiid":"B2094757D66DA6FA439A","title":"永达别克龙吴店","lon":"121.454446009","lat":"31.1340927463","category":"500","category_name":"未知分类","address":"上海市徐汇区罗秀路"},{"poiid":"B2094654DA65A6F54298","title":"上海良友海狮油脂实业有限公司","lon":"121.46038","lat":"31.12612","category":"263","category_name":"公司","address":"龙吴路2080号"},{"poiid":"B2094752D368ABFE4193","title":"浦东机场","lon":"121.470833","lat":"31.126741","category":"500","category_name":"未知分类","address":null},{"poiid":"B2094757D16AA7FB439F","title":"林昌中学","lon":"121.47444","lat":"31.13793","category":"55","category_name":"中学","address":"浦东新区三林镇久丰村"},{"poiid":"B2094757D165ABFA4393","title":"陈家桥","lon":"121.475102497","lat":"31.1278964213","category":"47","category_name":"住宅区","address":"上海林浦路环南二大道"},{"poiid":"B2094655D268ABF9489B","title":"龙吴路立交桥","lon":"121.45769","lat":"31.1244","category":"250","category_name":"公园户外","address":""},{"poiid":"B2094654DA65A6F5419C","title":"上海市公安局徐汇分局交警支队事故审理科","lon":"121.45696","lat":"31.12466","category":"250","category_name":"公园户外","address":"龙吴路2138"},{"poiid":"B2094757D665A0FA449E","title":"春寓餐厅","lon":"121.452380054","lat":"31.135435793","category":"76","category_name":"上海菜","address":"徐汇区罗秀路50号(近龙吴路)"},{"poiid":"B2094655D268ABF94898","title":"徐浦大桥","lon":"121.46894","lat":"31.12749","category":"250","category_name":"公园户外","address":"上海徐汇区环南二大道-浦东新区环南二大道"},{"poiid":"B2094757D06FA0FC429C","title":"龙吴路罗秀路","lon":"121.452246","lat":"31.135412","category":"260","category_name":"其他","address":"上海市徐汇区龙吴路罗秀路"},{"poiid":"B2094757D06FA1F5489B","title":"徐汇新城","lon":"121.453094482","lat":"31.1309185028","category":"47","category_name":"住宅区","address":"上海市徐汇区龙吴路1595号"},{"poiid":"B2094655D26BAAFD479F","title":"印象欧洲","lon":"121.462118","lat":"31.118556","category":"47","category_name":"住宅区","address":"华泾镇龙吴路2488号"},{"poiid":"B2094757D06FABFE4492","title":"中海瀛台","lon":"121.45292","lat":"31.140421","category":"500","category_name":"未知分类","address":"徐汇区龙瑞路77弄"},{"poiid":"B2094655D268A1FE489D","title":"华滨家园","lon":"121.45071","lat":"31.1392","category":"47","category_name":"住宅区","address":"龙吴路1323弄"},{"poiid":"B2094655D26FA3F4459D","title":"华泾绿苑","lon":"121.45804","lat":"31.1153","category":"47","category_name":"住宅区","address":"上海市徐汇区龙吴路2588弄"},{"poiid":"B2094757D06FA1FA489B","title":"紫阳花苑","lon":"121.45851978229","lat":"31.119646803034","category":"47","category_name":"住宅区","address":"紫阳花苑位于徐汇龙吴路2589号"},{"poiid":"B2094757D06FA2FA4192","title":"明丰新纪苑","lon":"121.45352","lat":"31.126495","category":"47","category_name":"住宅区","address":"上海市徐汇区华发路99弄"},{"poiid":"B2094757D06FA1FA4592","title":"上中路隧道","lon":"121.45757293","lat":"31.143583297","category":"38","category_name":"公交车站","address":"上海上中路隧道"},{"poiid":"B2094757D065A0FA4999","title":"馨宁公寓","lon":"121.44778","lat":"31.128372","category":"47","category_name":"住宅区","address":"上海华发路368弄"},{"poiid":"B2094655D36CA0F5449D","title":"华泾小区","lon":"121.467","lat":"31.1225","category":"47","category_name":"住宅区","address":"华泾路38弄"},{"poiid":"B2094654DB6CA5F8449D","title":"华欣家园","lon":"121.45748","lat":"31.11902","category":"47","category_name":"住宅区","address":"龙吴路2418号"},{"poiid":"B2094757D068A1F8419D","title":"上海市材料工程学校","lon":"121.446624394","lat":"31.1310546604","category":"52","category_name":"高等院校","address":"徐汇区罗秀新村136号(近龙吴路)"},{"poiid":"B2094655D26FAAFC479E","title":"徐汇臻园","lon":"121.45024","lat":"31.126078","category":"47","category_name":"住宅区","address":"上海市徐汇区华发路151号"},{"poiid":"B2094654DB6CA1FB409F","title":"华馨公寓","lon":"121.459","lat":"31.1407","category":"47","category_name":"住宅区","address":"上海市徐汇区罗秀路55弄"},{"poiid":"B2094750D66CA1FF469D","title":"华沁家园","lon":"121.449996","lat":"31.134494","category":"500","category_name":"未知分类","address":"上海徐汇区龙吴路1343弄"},{"poiid":"B2094655D264AAF44198","title":"上海市工业技术学校","lon":"121.45312","lat":"31.14674","category":"54","category_name":"职业技术学校","address":"喜泰支路8"},{"poiid":"B2094655D36CA1F8419E","title":"龙吴路华发路","lon":"121.45608","lat":"31.12669","category":"38","category_name":"公交车站","address":""},{"poiid":"B2094654DA65A6F44293","title":"上海市划船俱乐部","lon":"121.45666","lat":"31.13521","category":"220","category_name":"运动场所","address":"龙吴路1594"},{"poiid":"B2094654DA65A6F4449C","title":"港口渡口","lon":"121.45875","lat":"31.1334","category":"34","category_name":"港口码头","address":""},{"poiid":"B2094654DB6DA3FC439A","title":"华泾公园","lon":"121.4546","lat":"31.12032","category":"196","category_name":"公园","address":"徐汇区华泾路190号(近龙吴路)"},{"poiid":"B2094757D66DABF94898","title":"永达BUICK龙吴店","lon":"121.453904857","lat":"31.1345930549","category":"500","category_name":"未知分类","address":"上海市徐汇区罗秀路"},{"poiid":"B2094654DA65A6F54192","title":"上海市公安局徐汇分局交警支队对外办事窗口","lon":"121.45696","lat":"31.12466","category":"250","category_name":"公园户外","address":"龙吴路2138"},{"poiid":"B2094654DA65AAFB4199","title":"沿江农贸市场","lon":"121.46908","lat":"31.13523","category":"117","category_name":"便民商店/便利店","address":""},{"poiid":"B2094752D06DA2F44992","title":"浦东假日酒店","lon":"121.463451","lat":"31.128871","category":"247","category_name":"餐饮美食","address":"上海东方路899号"},{"poiid":"B2094757D064A0FA499E","title":"中海瀛台2期","lon":"121.45539347","lat":"31.13716525","category":"47","category_name":"住宅区","address":"上海龙瑞路77弄"},{"poiid":"B2094757D06FAAFA459E","title":"罗秀三村","lon":"121.452958","lat":"31.139931","category":"252","category_name":"楼宇机构","address":"罗秀路210号"},{"poiid":"B2094757D66EA1FE4498","title":"三林轮渡","lon":"121.4714002","lat":"31.128347421","category":"500","category_name":"未知分类","address":"上海三林路"},{"poiid":"B2094757D06FA5FE469D","title":"徐汇华园","lon":"121.45417","lat":"31.128843","category":"47","category_name":"住宅区","address":"上海华发路58弄"},{"poiid":"B2094750D26FABFA4793","title":"东湾小区","lon":"121.45731","lat":"31.12269","category":"251","category_name":"出行住宿","address":"东湾小区位于徐汇龙吴路2388弄"},{"poiid":"B2094654DB64A2F44292","title":"劳动新村居民委员会社区服务分中心","lon":"121.46918","lat":"31.1352","category":"248","category_name":"生活娱乐","address":""},{"poiid":"B2094751DA6EA4FA499A","title":"上海虹桥机场","lon":"121.464111","lat":"31.144684","category":"500","category_name":"未知分类","address":null},{"poiid":"B2094757D06FA6F8479C","title":"TONY WEAR(汤尼威尔)上海公司","lon":"121.457831","lat":"31.126421","category":"500","category_name":"未知分类","address":"上海龙吴路2046号"},{"poiid":"B2094757D66DABFA4693","title":"三林渡口","lon":"121.455088509","lat":"31.1312720848","category":"500","category_name":"未知分类","address":"上海沿江公路"},{"poiid":"B2094757D66FA7FB4498","title":"公交978立丰船厂站","lon":"121.472944","lat":"31.129123638","category":"500","category_name":"未知分类","address":"上海市浦东新区林浦路"},{"poiid":"B2094757D16FA7FD409A","title":"华育中学","lon":"121.453852857","lat":"31.1190827441","category":"55","category_name":"中学","address":"徐汇区龙吟路99号(近华济路)"},{"poiid":"B2094757D16CA1F8489D","title":"华发小区","lon":"121.45112485","lat":"31.128025923","category":"47","category_name":"住宅区","address":"华发小区位于徐汇华发路176号"},{"poiid":"B2094757D068A4FC479A","title":"外环高速","lon":"121.48478211","lat":"31.131006311","category":"260","category_name":"其他","address":"上海外环高速"},{"poiid":"B2094655D36CA1FB4799","title":"立丰船厂","lon":"121.47635","lat":"31.12738","category":"38","category_name":"公交车站","address":""},{"poiid":"B2094757D065A2F8429C","title":"新红园大酒店","lon":"121.455392643","lat":"31.1244974373","category":"76","category_name":"上海菜","address":"徐汇区华泾镇龙吟路9号(近华泾路)查看地图"},{"poiid":"B2094654DA65A6FB4598","title":"上海交通大学科技园海科园区商务楼","lon":"121.45404","lat":"31.13554","category":"46","category_name":"楼宇","address":"龙吴路1500-1502"},{"poiid":"B2094757D66DA6FA439A","title":"永达别克龙吴店","lon":"121.454446009","lat":"31.1340927463","category":"500","category_name":"未知分类","address":"上海市徐汇区罗秀路"},{"poiid":"B2094654DA65A6F54298","title":"上海良友海狮油脂实业有限公司","lon":"121.46038","lat":"31.12612","category":"263","category_name":"公司","address":"龙吴路2080号"},{"poiid":"B2094752D368ABFE4193","title":"浦东机场","lon":"121.470833","lat":"31.126741","category":"500","category_name":"未知分类","address":null},{"poiid":"B2094757D16AA7FB439F","title":"林昌中学","lon":"121.47444","lat":"31.13793","category":"55","category_name":"中学","address":"浦东新区三林镇久丰村"},{"poiid":"B2094757D165ABFA4393","title":"陈家桥","lon":"121.475102497","lat":"31.1278964213","category":"47","category_name":"住宅区","address":"上海林浦路环南二大道"},{"poiid":"B2094655D268ABF9489B","title":"龙吴路立交桥","lon":"121.45769","lat":"31.1244","category":"250","category_name":"公园户外","address":""},{"poiid":"B2094654DA65A6F5419C","title":"上海市公安局徐汇分局交警支队事故审理科","lon":"121.45696","lat":"31.12466","category":"250","category_name":"公园户外","address":"龙吴路2138"},{"poiid":"B2094757D665A0FA449E","title":"春寓餐厅","lon":"121.452380054","lat":"31.135435793","category":"76","category_name":"上海菜","address":"徐汇区罗秀路50号(近龙吴路)"},{"poiid":"B2094655D268ABF94898","title":"徐浦大桥","lon":"121.46894","lat":"31.12749","category":"250","category_name":"公园户外","address":"上海徐汇区环南二大道-浦东新区环南二大道"},{"poiid":"B2094757D06FA0FC429C","title":"龙吴路罗秀路","lon":"121.452246","lat":"31.135412","category":"260","category_name":"其他","address":"上海市徐汇区龙吴路罗秀路"},{"poiid":"B2094757D06FA1F5489B","title":"徐汇新城","lon":"121.453094482","lat":"31.1309185028","category":"47","category_name":"住宅区","address":"上海市徐汇区龙吴路1595号"},{"poiid":"B2094655D26BAAFD479F","title":"印象欧洲","lon":"121.462118","lat":"31.118556","category":"47","category_name":"住宅区","address":"华泾镇龙吴路2488号"},{"poiid":"B2094757D06FABFE4492","title":"中海瀛台","lon":"121.45292","lat":"31.140421","category":"500","category_name":"未知分类","address":"徐汇区龙瑞路77弄"},{"poiid":"B2094655D268A1FE489D","title":"华滨家园","lon":"121.45071","lat":"31.1392","category":"47","category_name":"住宅区","address":"龙吴路1323弄"},{"poiid":"B2094655D26FA3F4459D","title":"华泾绿苑","lon":"121.45804","lat":"31.1153","category":"47","category_name":"住宅区","address":"上海市徐汇区龙吴路2588弄"},{"poiid":"B2094757D06FA1FA489B","title":"紫阳花苑","lon":"121.45851978229","lat":"31.119646803034","category":"47","category_name":"住宅区","address":"紫阳花苑位于徐汇龙吴路2589号"},{"poiid":"B2094757D06FA2FA4192","title":"明丰新纪苑","lon":"121.45352","lat":"31.126495","category":"47","category_name":"住宅区","address":"上海市徐汇区华发路99弄"},{"poiid":"B2094757D06FA1FA4592","title":"上中路隧道","lon":"121.45757293","lat":"31.143583297","category":"38","category_name":"公交车站","address":"上海上中路隧道"},{"poiid":"B2094757D065A0FA4999","title":"馨宁公寓","lon":"121.44778","lat":"31.128372","category":"47","category_name":"住宅区","address":"上海华发路368弄"},{"poiid":"B2094655D36CA0F5449D","title":"华泾小区","lon":"121.467","lat":"31.1225","category":"47","category_name":"住宅区","address":"华泾路38弄"},{"poiid":"B2094654DB6CA5F8449D","title":"华欣家园","lon":"121.45748","lat":"31.11902","category":"47","category_name":"住宅区","address":"龙吴路2418号"},{"poiid":"B2094757D068A1F8419D","title":"上海市材料工程学校","lon":"121.446624394","lat":"31.1310546604","category":"52","category_name":"高等院校","address":"徐汇区罗秀新村136号(近龙吴路)"},{"poiid":"B2094655D26FAAFC479E","title":"徐汇臻园","lon":"121.45024","lat":"31.126078","category":"47","category_name":"住宅区","address":"上海市徐汇区华发路151号"},{"poiid":"B2094654DB6CA1FB409F","title":"华馨公寓","lon":"121.459","lat":"31.1407","category":"47","category_name":"住宅区","address":"上海市徐汇区罗秀路55弄"},{"poiid":"B2094750D66CA1FF469D","title":"华沁家园","lon":"121.449996","lat":"31.134494","category":"500","category_name":"未知分类","address":"上海徐汇区龙吴路1343弄"},{"poiid":"B2094655D264AAF44198","title":"上海市工业技术学校","lon":"121.45312","lat":"31.14674","category":"54","category_name":"职业技术学校","address":"喜泰支路8"},{"poiid":"B2094655D36CA1F8419E","title":"龙吴路华发路","lon":"121.45608","lat":"31.12669","category":"38","category_name":"公交车站","address":""},{"poiid":"B2094654DA65A6F44293","title":"上海市划船俱乐部","lon":"121.45666","lat":"31.13521","category":"220","category_name":"运动场所","address":"龙吴路1594"},{"poiid":"B2094654DA65A6F4449C","title":"港口渡口","lon":"121.45875","lat":"31.1334","category":"34","category_name":"港口码头","address":""},{"poiid":"B2094654DB6DA3FC439A","title":"华泾公园","lon":"121.4546","lat":"31.12032","category":"196","category_name":"公园","address":"徐汇区华泾路190号(近龙吴路)"},{"poiid":"B2094757D66DABF94898","title":"永达BUICK龙吴店","lon":"121.453904857","lat":"31.1345930549","category":"500","category_name":"未知分类","address":"上海市徐汇区罗秀路"},{"poiid":"B2094654DA65A6F54192","title":"上海市公安局徐汇分局交警支队对外办事窗口","lon":"121.45696","lat":"31.12466","category":"250","category_name":"公园户外","address":"龙吴路2138"},{"poiid":"B2094654DA65AAFB4199","title":"沿江农贸市场","lon":"121.46908","lat":"31.13523","category":"117","category_name":"便民商店/便利店","address":""},{"poiid":"B2094752D06DA2F44992","title":"浦东假日酒店","lon":"121.463451","lat":"31.128871","category":"247","category_name":"餐饮美食","address":"上海东方路899号"},{"poiid":"B2094757D064A0FA499E","title":"中海瀛台2期","lon":"121.45539347","lat":"31.13716525","category":"47","category_name":"住宅区","address":"上海龙瑞路77弄"},{"poiid":"B2094757D06FAAFA459E","title":"罗秀三村","lon":"121.452958","lat":"31.139931","category":"252","category_name":"楼宇机构","address":"罗秀路210号"},{"poiid":"B2094757D66EA1FE4498","title":"三林轮渡","lon":"121.4714002","lat":"31.128347421","category":"500","category_name":"未知分类","address":"上海三林路"},{"poiid":"B2094757D06FA5FE469D","title":"徐汇华园","lon":"121.45417","lat":"31.128843","category":"47","category_name":"住宅区","address":"上海华发路58弄"},{"poiid":"B2094750D26FABFA4793","title":"东湾小区","lon":"121.45731","lat":"31.12269","category":"251","category_name":"出行住宿","address":"东湾小区位于徐汇龙吴路2388弄"},{"poiid":"B2094654DB64A2F44292","title":"劳动新村居民委员会社区服务分中心","lon":"121.46918","lat":"31.1352","category":"248","category_name":"生活娱乐","address":""},{"poiid":"B2094751DA6EA4FA499A","title":"上海虹桥机场","lon":"121.464111","lat":"31.144684","category":"500","category_name":"未知分类","address":null},{"poiid":"B2094757D06FA6F8479C","title":"TONY WEAR(汤尼威尔)上海公司","lon":"121.457831","lat":"31.126421","category":"500","category_name":"未知分类","address":"上海龙吴路2046号"},{"poiid":"B2094757D66DABFA4693","title":"三林渡口","lon":"121.455088509","lat":"31.1312720848","category":"500","category_name":"未知分类","address":"上海沿江公路"},{"poiid":"B2094757D66FA7FB4498","title":"公交978立丰船厂站","lon":"121.472944","lat":"31.129123638","category":"500","category_name":"未知分类","address":"上海市浦东新区林浦路"},{"poiid":"B2094757D16FA7FD409A","title":"华育中学","lon":"121.453852857","lat":"31.1190827441","category":"55","category_name":"中学","address":"徐汇区龙吟路99号(近华济路)"},{"poiid":"B2094757D16CA1F8489D","title":"华发小区","lon":"121.45112485","lat":"31.128025923","category":"47","category_name":"住宅区","address":"华发小区位于徐汇华发路176号"},{"poiid":"B2094757D068A4FC479A","title":"外环高速","lon":"121.48478211","lat":"31.131006311","category":"260","category_name":"其他","address":"上海外环高速"},{"poiid":"B2094655D36CA1FB4799","title":"立丰船厂","lon":"121.47635","lat":"31.12738","category":"38","category_name":"公交车站","address":""},{"poiid":"B2094757D065A2F8429C","title":"新红园大酒店","lon":"121.455392643","lat":"31.1244974373","category":"76","category_name":"上海菜","address":"徐汇区华泾镇龙吟路9号(近华泾路)查看地图"},{"poiid":"B2094654DA65A6FB4598","title":"上海交通大学科技园海科园区商务楼","lon":"121.45404","lat":"31.13554","category":"46","category_name":"楼宇","address":"龙吴路1500-1502"},{"poiid":"B2094757D66DA6FA439A","title":"永达别克龙吴店","lon":"121.454446009","lat":"31.1340927463","category":"500","category_name":"未知分类","address":"上海市徐汇区罗秀路"},{"poiid":"B2094654DA65A6F54298","title":"上海良友海狮油脂实业有限公司","lon":"121.46038","lat":"31.12612","category":"263","category_name":"公司","address":"龙吴路2080号"},{"poiid":"B2094752D368ABFE4193","title":"浦东机场","lon":"121.470833","lat":"31.126741","category":"500","category_name":"未知分类","address":null},{"poiid":"B2094757D16AA7FB439F","title":"林昌中学","lon":"121.47444","lat":"31.13793","category":"55","category_name":"中学","address":"浦东新区三林镇久丰村"},{"poiid":"B2094757D165ABFA4393","title":"陈家桥","lon":"121.475102497","lat":"31.1278964213","category":"47","category_name":"住宅区","address":"上海林浦路环南二大道"},{"poiid":"B2094655D268ABF9489B","title":"龙吴路立交桥","lon":"121.45769","lat":"31.1244","category":"250","category_name":"公园户外","address":""},{"poiid":"B2094654DA65A6F5419C","title":"上海市公安局徐汇分局交警支队事故审理科","lon":"121.45696","lat":"31.12466","category":"250","category_name":"公园户外","address":"龙吴路2138"},{"poiid":"B2094757D665A0FA449E","title":"春寓餐厅","lon":"121.452380054","lat":"31.135435793","category":"76","category_name":"上海菜","address":"徐汇区罗秀路50号(近龙吴路)"},{"poiid":"B2094655D268ABF94898","title":"徐浦大桥","lon":"121.46894","lat":"31.12749","category":"250","category_name":"公园户外","address":"上海徐汇区环南二大道-浦东新区环南二大道"},{"poiid":"B2094757D06FA0FC429C","title":"龙吴路罗秀路","lon":"121.452246","lat":"31.135412","category":"260","category_name":"其他","address":"上海市徐汇区龙吴路罗秀路"},{"poiid":"B2094757D06FA1F5489B","title":"徐汇新城","lon":"121.453094482","lat":"31.1309185028","category":"47","category_name":"住宅区","address":"上海市徐汇区龙吴路1595号"},{"poiid":"B2094655D26BAAFD479F","title":"印象欧洲","lon":"121.462118","lat":"31.118556","category":"47","category_name":"住宅区","address":"华泾镇龙吴路2488号"},{"poiid":"B2094757D06FABFE4492","title":"中海瀛台","lon":"121.45292","lat":"31.140421","category":"500","category_name":"未知分类","address":"徐汇区龙瑞路77弄"},{"poiid":"B2094655D268A1FE489D","title":"华滨家园","lon":"121.45071","lat":"31.1392","category":"47","category_name":"住宅区","address":"龙吴路1323弄"},{"poiid":"B2094655D26FA3F4459D","title":"华泾绿苑","lon":"121.45804","lat":"31.1153","category":"47","category_name":"住宅区","address":"上海市徐汇区龙吴路2588弄"},{"poiid":"B2094757D06FA1FA489B","title":"紫阳花苑","lon":"121.45851978229","lat":"31.119646803034","category":"47","category_name":"住宅区","address":"紫阳花苑位于徐汇龙吴路2589号"},{"poiid":"B2094757D06FA2FA4192","title":"明丰新纪苑","lon":"121.45352","lat":"31.126495","category":"47","category_name":"住宅区","address":"上海市徐汇区华发路99弄"},{"poiid":"B2094757D06FA1FA4592","title":"上中路隧道","lon":"121.45757293","lat":"31.143583297","category":"38","category_name":"公交车站","address":"上海上中路隧道"},{"poiid":"B2094757D065A0FA4999","title":"馨宁公寓","lon":"121.44778","lat":"31.128372","category":"47","category_name":"住宅区","address":"上海华发路368弄"},{"poiid":"B2094655D36CA0F5449D","title":"华泾小区","lon":"121.467","lat":"31.1225","category":"47","category_name":"住宅区","address":"华泾路38弄"},{"poiid":"B2094654DB6CA5F8449D","title":"华欣家园","lon":"121.45748","lat":"31.11902","category":"47","category_name":"住宅区","address":"龙吴路2418号"},{"poiid":"B2094757D068A1F8419D","title":"上海市材料工程学校","lon":"121.446624394","lat":"31.1310546604","category":"52","category_name":"高等院校","address":"徐汇区罗秀新村136号(近龙吴路)"},{"poiid":"B2094655D26FAAFC479E","title":"徐汇臻园","lon":"121.45024","lat":"31.126078","category":"47","category_name":"住宅区","address":"上海市徐汇区华发路151号"},{"poiid":"B2094654DB6CA1FB409F","title":"华馨公寓","lon":"121.459","lat":"31.1407","category":"47","category_name":"住宅区","address":"上海市徐汇区罗秀路55弄"},{"poiid":"B2094750D66CA1FF469D","title":"华沁家园","lon":"121.449996","lat":"31.134494","category":"500","category_name":"未知分类","address":"上海徐汇区龙吴路1343弄"},{"poiid":"B2094655D264AAF44198","title":"上海市工业技术学校","lon":"121.45312","lat":"31.14674","category":"54","category_name":"职业技术学校","address":"喜泰支路8"},{"poiid":"B2094655D36CA1F8419E","title":"龙吴路华发路","lon":"121.45608","lat":"31.12669","category":"38","category_name":"公交车站","address":""},{"poiid":"B2094654DA65A6F44293","title":"上海市划船俱乐部","lon":"121.45666","lat":"31.13521","category":"220","category_name":"运动场所","address":"龙吴路1594"},{"poiid":"B2094654DA65A6F4449C","title":"港口渡口","lon":"121.45875","lat":"31.1334","category":"34","category_name":"港口码头","address":""},{"poiid":"B2094654DB6DA3FC439A","title":"华泾公园","lon":"121.4546","lat":"31.12032","category":"196","category_name":"公园","address":"徐汇区华泾路190号(近龙吴路)"},{"poiid":"B2094757D66DABF94898","title":"永达BUICK龙吴店","lon":"121.453904857","lat":"31.1345930549","category":"500","category_name":"未知分类","address":"上海市徐汇区罗秀路"},{"poiid":"B2094654DA65A6F54192","title":"上海市公安局徐汇分局交警支队对外办事窗口","lon":"121.45696","lat":"31.12466","category":"250","category_name":"公园户外","address":"龙吴路2138"},{"poiid":"B2094654DA65AAFB4199","title":"沿江农贸市场","lon":"121.46908","lat":"31.13523","category":"117","category_name":"便民商店/便利店","address":""},{"poiid":"B2094752D06DA2F44992","title":"浦东假日酒店","lon":"121.463451","lat":"31.128871","category":"247","category_name":"餐饮美食","address":"上海东方路899号"},{"poiid":"B2094757D064A0FA499E","title":"中海瀛台2期","lon":"121.45539347","lat":"31.13716525","category":"47","category_name":"住宅区","address":"上海龙瑞路77弄"},{"poiid":"B2094757D06FAAFA459E","title":"罗秀三村","lon":"121.452958","lat":"31.139931","category":"252","category_name":"楼宇机构","address":"罗秀路210号"},{"poiid":"B2094757D66EA1FE4498","title":"三林轮渡","lon":"121.4714002","lat":"31.128347421","category":"500","category_name":"未知分类","address":"上海三林路"},{"poiid":"B2094757D06FA5FE469D","title":"徐汇华园","lon":"121.45417","lat":"31.128843","category":"47","category_name":"住宅区","address":"上海华发路58弄"},{"poiid":"B2094750D26FABFA4793","title":"东湾小区","lon":"121.45731","lat":"31.12269","category":"251","category_name":"出行住宿","address":"东湾小区位于徐汇龙吴路2388弄"},{"poiid":"B2094654DB64A2F44292","title":"劳动新村居民委员会社区服务分中心","lon":"121.46918","lat":"31.1352","category":"248","category_name":"生活娱乐","address":""},{"poiid":"B2094751DA6EA4FA499A","title":"上海虹桥机场","lon":"121.464111","lat":"31.144684","category":"500","category_name":"未知分类","address":null},{"poiid":"B2094757D06FA6F8479C","title":"TONY WEAR(汤尼威尔)上海公司","lon":"121.457831","lat":"31.126421","category":"500","category_name":"未知分类","address":"上海龙吴路2046号"},{"poiid":"B2094757D66DABFA4693","title":"三林渡口","lon":"121.455088509","lat":"31.1312720848","category":"500","category_name":"未知分类","address":"上海沿江公路"},{"poiid":"B2094757D66FA7FB4498","title":"公交978立丰船厂站","lon":"121.472944","lat":"31.129123638","category":"500","category_name":"未知分类","address":"上海市浦东新区林浦路"},{"poiid":"B2094757D16FA7FD409A","title":"华育中学","lon":"121.453852857","lat":"31.1190827441","category":"55","category_name":"中学","address":"徐汇区龙吟路99号(近华济路)"},{"poiid":"B2094757D16CA1F8489D","title":"华发小区","lon":"121.45112485","lat":"31.128025923","category":"47","category_name":"住宅区","address":"华发小区位于徐汇华发路176号"},{"poiid":"B2094757D068A4FC479A","title":"外环高速","lon":"121.48478211","lat":"31.131006311","category":"260","category_name":"其他","address":"上海外环高速"},{"poiid":"B2094655D36CA1FB4799","title":"立丰船厂","lon":"121.47635","lat":"31.12738","category":"38","category_name":"公交车站","address":""},{"poiid":"B2094757D065A2F8429C","title":"新红园大酒店","lon":"121.455392643","lat":"31.1244974373","category":"76","category_name":"上海菜","address":"徐汇区华泾镇龙吟路9号(近华泾路)查看地图"},{"poiid":"B2094654DA65A6FB4598","title":"上海交通大学科技园海科园区商务楼","lon":"121.45404","lat":"31.13554","category":"46","category_name":"楼宇","address":"龙吴路1500-1502"},{"poiid":"B2094757D66DA6FA439A","title":"永达别克龙吴店","lon":"121.454446009","lat":"31.1340927463","category":"500","category_name":"未知分类","address":"上海市徐汇区罗秀路"},{"poiid":"B2094654DA65A6F54298","title":"上海良友海狮油脂实业有限公司","lon":"121.46038","lat":"31.12612","category":"263","category_name":"公司","address":"龙吴路2080号"},{"poiid":"B2094752D368ABFE4193","title":"浦东机场","lon":"121.470833","lat":"31.126741","category":"500","category_name":"未知分类","address":null},{"poiid":"B2094757D16AA7FB439F","title":"林昌中学","lon":"121.47444","lat":"31.13793","category":"55","category_name":"中学","address":"浦东新区三林镇久丰村"},{"poiid":"B2094757D165ABFA4393","title":"陈家桥","lon":"121.475102497","lat":"31.1278964213","category":"47","category_name":"住宅区","address":"上海林浦路环南二大道"},{"poiid":"B2094655D268ABF9489B","title":"龙吴路立交桥","lon":"121.45769","lat":"31.1244","category":"250","category_name":"公园户外","address":""},{"poiid":"B2094654DA65A6F5419C","title":"上海市公安局徐汇分局交警支队事故审理科","lon":"121.45696","lat":"31.12466","category":"250","category_name":"公园户外","address":"龙吴路2138"},{"poiid":"B2094757D665A0FA449E","title":"春寓餐厅","lon":"121.452380054","lat":"31.135435793","category":"76","category_name":"上海菜","address":"徐汇区罗秀路50号(近龙吴路)"}]