[{"poiid":"B2094757D06FABF54493","title":"上海国家会计学院","lon":"121.288928","lat":"31.175844","category":"671","category_name":"高校中心点","address":"上海市青浦区蟠龙路200号"},{"poiid":"B2094757D06EAAFA439F","title":"徐泾东地铁站","lon":"121.29818261","lat":"31.187621956","category":"36","category_name":"地铁站","address":"上海轨道交通 二号线 轨交徐泾东站 2"},{"poiid":"B2094757D069A1FC499E","title":"徐泾","lon":"121.275662","lat":"31.169619","category":"260","category_name":"其他","address":"上海徐泾"},{"poiid":"B2094757D06FA4F9489A","title":"西郊庄园","lon":"121.28551","lat":"31.20104","category":"47","category_name":"住宅区","address":"上海市闵行区华漕镇金丰路588弄"},{"poiid":"B2094757D06FA0F8489E","title":"家乐福(徐泾店)","lon":"121.28492","lat":"31.16685","category":"118","category_name":"超级市场","address":"上海青浦区徐泾镇沪青平公路1829号"},{"poiid":"B2094757D068A3FB4493","title":"徐泾西园","lon":"121.271432508","lat":"31.1796537296","category":"260","category_name":"其他","address":"青浦区诸陆西路1883号"},{"poiid":"B2094757D069A3F4469B","title":"必胜客(徐泾家乐福店)","lon":"121.28289156","lat":"31.168771351","category":"68","category_name":"快餐厅","address":"上海市青浦区徐泾家乐福一楼"},{"poiid":"B2094757D069A6FF4499","title":"G15沈海高速崧泽高架路收费站","lon":"121.28071856","lat":"31.187516158","category":"267","category_name":"收费站","address":"上海青浦区G15沈海高速崧泽高架路出口"},{"poiid":"B2094655D36CA6F9469D","title":"二号线徐泾东站","lon":"121.29863","lat":"31.18794","category":"38","category_name":"公交车站","address":""},{"poiid":"B2094757D664A6F4479E","title":"肯德基 育才路店 KFC","lon":"121.276026054","lat":"31.169893793","category":"68","category_name":"快餐厅","address":"青浦区育才路259号"},{"poiid":"B2094757D168AAF9479E","title":"徐泾","lon":"121.27403156","lat":"31.17301044","category":"500","category_name":"未知分类","address":"上海青浦区"},{"poiid":"B2094655D36DA7F44193","title":"菘泽大道","lon":"121.28165","lat":"31.18853","category":"38","category_name":"公交车站","address":""},{"poiid":"B2094654D56AA4FD459F","title":"思念土菜坊","lon":"121.2775","lat":"31.17434","category":"76","category_name":"上海菜","address":"青浦区徐泾镇盈港东路1504号(近徐泾中路)"},{"poiid":"B2094757D065A1F4469A","title":"85度C(京华店)","lon":"121.274680791","lat":"31.170422071","category":"112","category_name":"糕饼店","address":"青浦区徐泾镇京华路(近肯德基)"},{"poiid":"B2094757D66DABFB419C","title":"迪丰集团","lon":"121.27259356","lat":"31.192406849","category":"263","category_name":"公司","address":"上海市青浦区徐径镇双联路168号"},{"poiid":"B2094654D56AA5FD439C","title":"蟠龙庵","lon":"121.27604","lat":"31.18696","category":"244","category_name":"寺庙道观","address":"青浦区徐泾镇蟠龙村(崧泽大道蟠龙路)"},{"poiid":"B2094655D26BA5FA4193","title":"绿中海Ⅱ梦公元","lon":"121.26656","lat":"31.17905","category":"47","category_name":"住宅区","address":"明珠路"},{"poiid":"B2094757D568A0F8439F","title":"上海国家会计学院信息中心","lon":"121.2805642","lat":"31.185955","category":"52","category_name":"高等院校","address":"蟠龙路200号"},{"poiid":"B2094654D56AABF84192","title":"上海国家会计学院第三教学楼","lon":"121.2936","lat":"31.17995","category":"52","category_name":"高等院校","address":""},{"poiid":"B2094752D26BA5F5429E","title":"上海虹桥机场","lon":"121.283213125","lat":"31.17120225","category":"500","category_name":"未知分类","address":"上海虹桥机场"},{"poiid":"B2094654D56AA6F8499E","title":"西郊玫瑰湾","lon":"121.281","lat":"31.1801","category":"47","category_name":"住宅区","address":"上海市青浦区徐泾中路980号"},{"poiid":"B2094654D56AA6F44993","title":"尤妮佳生活用品(中国)有限公司","lon":"121.28352","lat":"31.18437","category":"263","category_name":"公司","address":"蟠中路358"},{"poiid":"B2094654D56AA5F54699","title":"西郊名邸","lon":"121.283","lat":"31.1799","category":"47","category_name":"住宅区","address":"西郊名邸位于青浦徐泾中路858弄(沪青平沿线)"},{"poiid":"B2094654D56AA4FC4498","title":"西郊大公馆","lon":"121.29517","lat":"31.181421","category":"47","category_name":"住宅区","address":"青浦区盈港东路333弄"},{"poiid":"B2094654D56AA6F5409B","title":"上海扬洋体育用品有限公司(蟠中路)","lon":"121.28","lat":"31.18285","category":"263","category_name":"公司","address":"蟠中路528"},{"poiid":"B2094757D168A3FB449D","title":"罗家新苑","lon":"121.29334956","lat":"31.1850936954","category":"47","category_name":"住宅区","address":"上海市青浦区徐民东路"},{"poiid":"B2094655D264A1F84793","title":"上海家化技术中心办公楼","lon":"121.28519","lat":"31.17788","category":"46","category_name":"楼宇","address":"徐泾镇徐泾中路518号"},{"poiid":"B2094757D568A4F9429C","title":"G15崧泽高架路收费站","lon":"121.280546","lat":"31.188235","category":"267","category_name":"收费站","address":"中国上海市青浦区诸陆东路"},{"poiid":"B2094654D56AABFF419F","title":"骅伦工业小区","lon":"121.27626","lat":"31.18503","category":"47","category_name":"住宅区","address":"诸陆东路1699号"},{"poiid":"B2094757D16EA3FD4199","title":"崧泽大道华徐公路","lon":"121.27324799","lat":"31.18501567","category":"500","category_name":"未知分类","address":"上海崧泽大道华徐公路"},{"poiid":"B2094655D36DA6FC479A","title":"蟠龙居委会","lon":"121.27475","lat":"31.18563","category":"38","category_name":"公交车站","address":""},{"poiid":"B2094757D169A7F44599","title":"何先生豆浆","lon":"121.27756456","lat":"31.1757404982","category":"87","category_name":"特色／地方风味餐厅","address":"青浦区盈港东路1560号"},{"poiid":"B2094654D56AA5F5469A","title":"兰州正宗牛肉拉面(蟠龙路)","lon":"121.28595","lat":"31.17917","category":"90","category_name":"清真餐馆","address":""},{"poiid":"B2094654D56AABFF4193","title":"径通实业","lon":"121.27829","lat":"31.18574","category":"263","category_name":"公司","address":"蟠中路"},{"poiid":"B2094757D66BA7FD4898","title":"思念小龙虾","lon":"121.286443","lat":"31.188851","category":"269","category_name":"烧烤","address":"盈港东路1518号近华徐公路"},{"poiid":"B2094757D66CA6FB4892","title":"徐泾文体中心","lon":"121.27492956","lat":"31.1754314917","category":"500","category_name":"未知分类","address":"上海青浦区徐泾镇诚爱路58号"},{"poiid":"B2094655D265A7FB4193","title":"迪卡侬徐泾店","lon":"121.28445","lat":"31.16868","category":"140","category_name":"体育用品店","address":"青浦区沪青平公路1821号(A5嘉金高速口)"},{"poiid":"B2094655D36DA1F4419A","title":"西园公墓","lon":"121.27449","lat":"31.18185","category":"620","category_name":"丧葬","address":""},{"poiid":"B2094757D168ABFF449D","title":"松江区九亭镇九泾路","lon":"121.281900475","lat":"31.1765400722","category":"46","category_name":"楼宇","address":"上海九泾路"},{"poiid":"B2094757D569A3FD439A","title":"上海国家会计学院休息室","lon":"121.28810493","lat":"31.17747423","category":"52","category_name":"高等院校","address":"蟠龙路"},{"poiid":"B2094654DB6BA0FA449D","title":"中国外运上海物流中心","lon":"121.28804","lat":"31.1856","category":"248","category_name":"生活娱乐","address":"蟠中路369"},{"poiid":"B2094654D56AA6F5489B","title":"徐泾中学","lon":"121.27439","lat":"31.1752","category":"55","category_name":"中学","address":"诚爱路"},{"poiid":"B2094757D16CA4F44098","title":"上海家化股份联合有限公司中央工厂","lon":"121.283696758","lat":"31.1775728068","category":"263","category_name":"公司","address":"上海青浦区徐泾镇盈港东路1118号"},{"poiid":"B2094654D56AA6F5409F","title":"上海佳齐服饰用品有限公司(蟠中路)","lon":"121.27691","lat":"31.18155","category":"263","category_name":"公司","address":"蟠中路758号"},{"poiid":"B2094654D56AA6F5419A","title":"上海东王子包装有限公司","lon":"121.28268","lat":"31.17954","category":"263","category_name":"公司","address":"徐民路525"},{"poiid":"B2094654D56AA6F5439F","title":"西郊家化苑","lon":"121.28489","lat":"31.176594","category":"47","category_name":"住宅区","address":"徐泾中路519弄"},{"poiid":"B2094654D56AA4FC449A","title":"国际会议中心(行政教研楼东北)","lon":"121.29274","lat":"31.18022","category":"185","category_name":"会展中心","address":""},{"poiid":"B2094757D164A1FC489A","title":"西郊美德苑","lon":"121.2835534459","lat":"31.17664326758","category":"500","category_name":"未知分类","address":"上海青浦区徐泾镇明珠路育才路"},{"poiid":"B2094654D56AA6FA459A","title":"上海英国学校","lon":"121.278","lat":"31.19609","category":"55","category_name":"中学","address":"闵行区华漕镇金光路588号"},{"poiid":"B2094750D464A7FE4993","title":"玉兰清苑","lon":"121.296809","lat":"31.197307","category":"47","category_name":"住宅区","address":"青浦区龙联路58弄玉兰清苑"},{"poiid":"B2094757D06FABF54493","title":"上海国家会计学院","lon":"121.288928","lat":"31.175844","category":"671","category_name":"高校中心点","address":"上海市青浦区蟠龙路200号"},{"poiid":"B2094757D06EAAFA439F","title":"徐泾东地铁站","lon":"121.29818261","lat":"31.187621956","category":"36","category_name":"地铁站","address":"上海轨道交通 二号线 轨交徐泾东站 2"},{"poiid":"B2094757D069A1FC499E","title":"徐泾","lon":"121.275662","lat":"31.169619","category":"260","category_name":"其他","address":"上海徐泾"},{"poiid":"B2094757D06FA4F9489A","title":"西郊庄园","lon":"121.28551","lat":"31.20104","category":"47","category_name":"住宅区","address":"上海市闵行区华漕镇金丰路588弄"},{"poiid":"B2094757D06FA0F8489E","title":"家乐福(徐泾店)","lon":"121.28492","lat":"31.16685","category":"118","category_name":"超级市场","address":"上海青浦区徐泾镇沪青平公路1829号"},{"poiid":"B2094757D068A3FB4493","title":"徐泾西园","lon":"121.271432508","lat":"31.1796537296","category":"260","category_name":"其他","address":"青浦区诸陆西路1883号"},{"poiid":"B2094757D069A3F4469B","title":"必胜客(徐泾家乐福店)","lon":"121.28289156","lat":"31.168771351","category":"68","category_name":"快餐厅","address":"上海市青浦区徐泾家乐福一楼"},{"poiid":"B2094757D069A6FF4499","title":"G15沈海高速崧泽高架路收费站","lon":"121.28071856","lat":"31.187516158","category":"267","category_name":"收费站","address":"上海青浦区G15沈海高速崧泽高架路出口"},{"poiid":"B2094655D36CA6F9469D","title":"二号线徐泾东站","lon":"121.29863","lat":"31.18794","category":"38","category_name":"公交车站","address":""},{"poiid":"B2094757D664A6F4479E","title":"肯德基 育才路店 KFC","lon":"121.276026054","lat":"31.169893793","category":"68","category_name":"快餐厅","address":"青浦区育才路259号"},{"poiid":"B2094757D168AAF9479E","title":"徐泾","lon":"121.27403156","lat":"31.17301044","category":"500","category_name":"未知分类","address":"上海青浦区"},{"poiid":"B2094655D36DA7F44193","title":"菘泽大道","lon":"121.28165","lat":"31.18853","category":"38","category_name":"公交车站","address":""},{"poiid":"B2094654D56AA4FD459F","title":"思念土菜坊","lon":"121.2775","lat":"31.17434","category":"76","category_name":"上海菜","address":"青浦区徐泾镇盈港东路1504号(近徐泾中路)"},{"poiid":"B2094757D065A1F4469A","title":"85度C(京华店)","lon":"121.274680791","lat":"31.170422071","category":"112","category_name":"糕饼店","address":"青浦区徐泾镇京华路(近肯德基)"},{"poiid":"B2094757D66DABFB419C","title":"迪丰集团","lon":"121.27259356","lat":"31.192406849","category":"263","category_name":"公司","address":"上海市青浦区徐径镇双联路168号"},{"poiid":"B2094654D56AA5FD439C","title":"蟠龙庵","lon":"121.27604","lat":"31.18696","category":"244","category_name":"寺庙道观","address":"青浦区徐泾镇蟠龙村(崧泽大道蟠龙路)"},{"poiid":"B2094655D26BA5FA4193","title":"绿中海Ⅱ梦公元","lon":"121.26656","lat":"31.17905","category":"47","category_name":"住宅区","address":"明珠路"},{"poiid":"B2094757D568A0F8439F","title":"上海国家会计学院信息中心","lon":"121.2805642","lat":"31.185955","category":"52","category_name":"高等院校","address":"蟠龙路200号"},{"poiid":"B2094654D56AABF84192","title":"上海国家会计学院第三教学楼","lon":"121.2936","lat":"31.17995","category":"52","category_name":"高等院校","address":""},{"poiid":"B2094752D26BA5F5429E","title":"上海虹桥机场","lon":"121.283213125","lat":"31.17120225","category":"500","category_name":"未知分类","address":"上海虹桥机场"},{"poiid":"B2094654D56AA6F8499E","title":"西郊玫瑰湾","lon":"121.281","lat":"31.1801","category":"47","category_name":"住宅区","address":"上海市青浦区徐泾中路980号"},{"poiid":"B2094654D56AA6F44993","title":"尤妮佳生活用品(中国)有限公司","lon":"121.28352","lat":"31.18437","category":"263","category_name":"公司","address":"蟠中路358"},{"poiid":"B2094654D56AA5F54699","title":"西郊名邸","lon":"121.283","lat":"31.1799","category":"47","category_name":"住宅区","address":"西郊名邸位于青浦徐泾中路858弄(沪青平沿线)"},{"poiid":"B2094654D56AA4FC4498","title":"西郊大公馆","lon":"121.29517","lat":"31.181421","category":"47","category_name":"住宅区","address":"青浦区盈港东路333弄"},{"poiid":"B2094654D56AA6F5409B","title":"上海扬洋体育用品有限公司(蟠中路)","lon":"121.28","lat":"31.18285","category":"263","category_name":"公司","address":"蟠中路528"},{"poiid":"B2094757D168A3FB449D","title":"罗家新苑","lon":"121.29334956","lat":"31.1850936954","category":"47","category_name":"住宅区","address":"上海市青浦区徐民东路"},{"poiid":"B2094655D264A1F84793","title":"上海家化技术中心办公楼","lon":"121.28519","lat":"31.17788","category":"46","category_name":"楼宇","address":"徐泾镇徐泾中路518号"},{"poiid":"B2094757D568A4F9429C","title":"G15崧泽高架路收费站","lon":"121.280546","lat":"31.188235","category":"267","category_name":"收费站","address":"中国上海市青浦区诸陆东路"},{"poiid":"B2094654D56AABFF419F","title":"骅伦工业小区","lon":"121.27626","lat":"31.18503","category":"47","category_name":"住宅区","address":"诸陆东路1699号"},{"poiid":"B2094757D16EA3FD4199","title":"崧泽大道华徐公路","lon":"121.27324799","lat":"31.18501567","category":"500","category_name":"未知分类","address":"上海崧泽大道华徐公路"},{"poiid":"B2094655D36DA6FC479A","title":"蟠龙居委会","lon":"121.27475","lat":"31.18563","category":"38","category_name":"公交车站","address":""},{"poiid":"B2094757D169A7F44599","title":"何先生豆浆","lon":"121.27756456","lat":"31.1757404982","category":"87","category_name":"特色／地方风味餐厅","address":"青浦区盈港东路1560号"},{"poiid":"B2094654D56AA5F5469A","title":"兰州正宗牛肉拉面(蟠龙路)","lon":"121.28595","lat":"31.17917","category":"90","category_name":"清真餐馆","address":""},{"poiid":"B2094654D56AABFF4193","title":"径通实业","lon":"121.27829","lat":"31.18574","category":"263","category_name":"公司","address":"蟠中路"},{"poiid":"B2094757D66BA7FD4898","title":"思念小龙虾","lon":"121.286443","lat":"31.188851","category":"269","category_name":"烧烤","address":"盈港东路1518号近华徐公路"},{"poiid":"B2094757D66CA6FB4892","title":"徐泾文体中心","lon":"121.27492956","lat":"31.1754314917","category":"500","category_name":"未知分类","address":"上海青浦区徐泾镇诚爱路58号"},{"poiid":"B2094655D265A7FB4193","title":"迪卡侬徐泾店","lon":"121.28445","lat":"31.16868","category":"140","category_name":"体育用品店","address":"青浦区沪青平公路1821号(A5嘉金高速口)"},{"poiid":"B2094655D36DA1F4419A","title":"西园公墓","lon":"121.27449","lat":"31.18185","category":"620","category_name":"丧葬","address":""},{"poiid":"B2094757D168ABFF449D","title":"松江区九亭镇九泾路","lon":"121.281900475","lat":"31.1765400722","category":"46","category_name":"楼宇","address":"上海九泾路"},{"poiid":"B2094757D569A3FD439A","title":"上海国家会计学院休息室","lon":"121.28810493","lat":"31.17747423","category":"52","category_name":"高等院校","address":"蟠龙路"},{"poiid":"B2094654DB6BA0FA449D","title":"中国外运上海物流中心","lon":"121.28804","lat":"31.1856","category":"248","category_name":"生活娱乐","address":"蟠中路369"},{"poiid":"B2094654D56AA6F5489B","title":"徐泾中学","lon":"121.27439","lat":"31.1752","category":"55","category_name":"中学","address":"诚爱路"},{"poiid":"B2094757D16CA4F44098","title":"上海家化股份联合有限公司中央工厂","lon":"121.283696758","lat":"31.1775728068","category":"263","category_name":"公司","address":"上海青浦区徐泾镇盈港东路1118号"},{"poiid":"B2094654D56AA6F5409F","title":"上海佳齐服饰用品有限公司(蟠中路)","lon":"121.27691","lat":"31.18155","category":"263","category_name":"公司","address":"蟠中路758号"},{"poiid":"B2094654D56AA6F5419A","title":"上海东王子包装有限公司","lon":"121.28268","lat":"31.17954","category":"263","category_name":"公司","address":"徐民路525"},{"poiid":"B2094654D56AA6F5439F","title":"西郊家化苑","lon":"121.28489","lat":"31.176594","category":"47","category_name":"住宅区","address":"徐泾中路519弄"},{"poiid":"B2094654D56AA4FC449A","title":"国际会议中心(行政教研楼东北)","lon":"121.29274","lat":"31.18022","category":"185","category_name":"会展中心","address":""},{"poiid":"B2094757D164A1FC489A","title":"西郊美德苑","lon":"121.2835534459","lat":"31.17664326758","category":"500","category_name":"未知分类","address":"上海青浦区徐泾镇明珠路育才路"},{"poiid":"B2094654D56AA6FA459A","title":"上海英国学校","lon":"121.278","lat":"31.19609","category":"55","category_name":"中学","address":"闵行区华漕镇金光路588号"},{"poiid":"B2094750D464A7FE4993","title":"玉兰清苑","lon":"121.296809","lat":"31.197307","category":"47","category_name":"住宅区","address":"青浦区龙联路58弄玉兰清苑"},{"poiid":"B2094757D06FABF54493","title":"上海国家会计学院","lon":"121.288928","lat":"31.175844","category":"671","category_name":"高校中心点","address":"上海市青浦区蟠龙路200号"},{"poiid":"B2094757D06EAAFA439F","title":"徐泾东地铁站","lon":"121.29818261","lat":"31.187621956","category":"36","category_name":"地铁站","address":"上海轨道交通 二号线 轨交徐泾东站 2"},{"poiid":"B2094757D069A1FC499E","title":"徐泾","lon":"121.275662","lat":"31.169619","category":"260","category_name":"其他","address":"上海徐泾"},{"poiid":"B2094757D06FA4F9489A","title":"西郊庄园","lon":"121.28551","lat":"31.20104","category":"47","category_name":"住宅区","address":"上海市闵行区华漕镇金丰路588弄"},{"poiid":"B2094757D06FA0F8489E","title":"家乐福(徐泾店)","lon":"121.28492","lat":"31.16685","category":"118","category_name":"超级市场","address":"上海青浦区徐泾镇沪青平公路1829号"},{"poiid":"B2094757D068A3FB4493","title":"徐泾西园","lon":"121.271432508","lat":"31.1796537296","category":"260","category_name":"其他","address":"青浦区诸陆西路1883号"},{"poiid":"B2094757D069A3F4469B","title":"必胜客(徐泾家乐福店)","lon":"121.28289156","lat":"31.168771351","category":"68","category_name":"快餐厅","address":"上海市青浦区徐泾家乐福一楼"},{"poiid":"B2094757D069A6FF4499","title":"G15沈海高速崧泽高架路收费站","lon":"121.28071856","lat":"31.187516158","category":"267","category_name":"收费站","address":"上海青浦区G15沈海高速崧泽高架路出口"},{"poiid":"B2094655D36CA6F9469D","title":"二号线徐泾东站","lon":"121.29863","lat":"31.18794","category":"38","category_name":"公交车站","address":""},{"poiid":"B2094757D664A6F4479E","title":"肯德基 育才路店 KFC","lon":"121.276026054","lat":"31.169893793","category":"68","category_name":"快餐厅","address":"青浦区育才路259号"},{"poiid":"B2094757D168AAF9479E","title":"徐泾","lon":"121.27403156","lat":"31.17301044","category":"500","category_name":"未知分类","address":"上海青浦区"},{"poiid":"B2094655D36DA7F44193","title":"菘泽大道","lon":"121.28165","lat":"31.18853","category":"38","category_name":"公交车站","address":""},{"poiid":"B2094654D56AA4FD459F","title":"思念土菜坊","lon":"121.2775","lat":"31.17434","category":"76","category_name":"上海菜","address":"青浦区徐泾镇盈港东路1504号(近徐泾中路)"},{"poiid":"B2094757D065A1F4469A","title":"85度C(京华店)","lon":"121.274680791","lat":"31.170422071","category":"112","category_name":"糕饼店","address":"青浦区徐泾镇京华路(近肯德基)"},{"poiid":"B2094757D66DABFB419C","title":"迪丰集团","lon":"121.27259356","lat":"31.192406849","category":"263","category_name":"公司","address":"上海市青浦区徐径镇双联路168号"},{"poiid":"B2094654D56AA5FD439C","title":"蟠龙庵","lon":"121.27604","lat":"31.18696","category":"244","category_name":"寺庙道观","address":"青浦区徐泾镇蟠龙村(崧泽大道蟠龙路)"},{"poiid":"B2094655D26BA5FA4193","title":"绿中海Ⅱ梦公元","lon":"121.26656","lat":"31.17905","category":"47","category_name":"住宅区","address":"明珠路"},{"poiid":"B2094757D568A0F8439F","title":"上海国家会计学院信息中心","lon":"121.2805642","lat":"31.185955","category":"52","category_name":"高等院校","address":"蟠龙路200号"},{"poiid":"B2094654D56AABF84192","title":"上海国家会计学院第三教学楼","lon":"121.2936","lat":"31.17995","category":"52","category_name":"高等院校","address":""},{"poiid":"B2094752D26BA5F5429E","title":"上海虹桥机场","lon":"121.283213125","lat":"31.17120225","category":"500","category_name":"未知分类","address":"上海虹桥机场"},{"poiid":"B2094654D56AA6F8499E","title":"西郊玫瑰湾","lon":"121.281","lat":"31.1801","category":"47","category_name":"住宅区","address":"上海市青浦区徐泾中路980号"},{"poiid":"B2094654D56AA6F44993","title":"尤妮佳生活用品(中国)有限公司","lon":"121.28352","lat":"31.18437","category":"263","category_name":"公司","address":"蟠中路358"},{"poiid":"B2094654D56AA5F54699","title":"西郊名邸","lon":"121.283","lat":"31.1799","category":"47","category_name":"住宅区","address":"西郊名邸位于青浦徐泾中路858弄(沪青平沿线)"},{"poiid":"B2094654D56AA4FC4498","title":"西郊大公馆","lon":"121.29517","lat":"31.181421","category":"47","category_name":"住宅区","address":"青浦区盈港东路333弄"},{"poiid":"B2094654D56AA6F5409B","title":"上海扬洋体育用品有限公司(蟠中路)","lon":"121.28","lat":"31.18285","category":"263","category_name":"公司","address":"蟠中路528"},{"poiid":"B2094757D168A3FB449D","title":"罗家新苑","lon":"121.29334956","lat":"31.1850936954","category":"47","category_name":"住宅区","address":"上海市青浦区徐民东路"},{"poiid":"B2094655D264A1F84793","title":"上海家化技术中心办公楼","lon":"121.28519","lat":"31.17788","category":"46","category_name":"楼宇","address":"徐泾镇徐泾中路518号"},{"poiid":"B2094757D568A4F9429C","title":"G15崧泽高架路收费站","lon":"121.280546","lat":"31.188235","category":"267","category_name":"收费站","address":"中国上海市青浦区诸陆东路"},{"poiid":"B2094654D56AABFF419F","title":"骅伦工业小区","lon":"121.27626","lat":"31.18503","category":"47","category_name":"住宅区","address":"诸陆东路1699号"},{"poiid":"B2094757D16EA3FD4199","title":"崧泽大道华徐公路","lon":"121.27324799","lat":"31.18501567","category":"500","category_name":"未知分类","address":"上海崧泽大道华徐公路"},{"poiid":"B2094655D36DA6FC479A","title":"蟠龙居委会","lon":"121.27475","lat":"31.18563","category":"38","category_name":"公交车站","address":""},{"poiid":"B2094757D169A7F44599","title":"何先生豆浆","lon":"121.27756456","lat":"31.1757404982","category":"87","category_name":"特色／地方风味餐厅","address":"青浦区盈港东路1560号"},{"poiid":"B2094654D56AA5F5469A","title":"兰州正宗牛肉拉面(蟠龙路)","lon":"121.28595","lat":"31.17917","category":"90","category_name":"清真餐馆","address":""},{"poiid":"B2094654D56AABFF4193","title":"径通实业","lon":"121.27829","lat":"31.18574","category":"263","category_name":"公司","address":"蟠中路"},{"poiid":"B2094757D66BA7FD4898","title":"思念小龙虾","lon":"121.286443","lat":"31.188851","category":"269","category_name":"烧烤","address":"盈港东路1518号近华徐公路"},{"poiid":"B2094757D66CA6FB4892","title":"徐泾文体中心","lon":"121.27492956","lat":"31.1754314917","category":"500","category_name":"未知分类","address":"上海青浦区徐泾镇诚爱路58号"},{"poiid":"B2094655D265A7FB4193","title":"迪卡侬徐泾店","lon":"121.28445","lat":"31.16868","category":"140","category_name":"体育用品店","address":"青浦区沪青平公路1821号(A5嘉金高速口)"},{"poiid":"B2094655D36DA1F4419A","title":"西园公墓","lon":"121.27449","lat":"31.18185","category":"620","category_name":"丧葬","address":""},{"poiid":"B2094757D168ABFF449D","title":"松江区九亭镇九泾路","lon":"121.281900475","lat":"31.1765400722","category":"46","category_name":"楼宇","address":"上海九泾路"},{"poiid":"B2094757D569A3FD439A","title":"上海国家会计学院休息室","lon":"121.28810493","lat":"31.17747423","category":"52","category_name":"高等院校","address":"蟠龙路"},{"poiid":"B2094654DB6BA0FA449D","title":"中国外运上海物流中心","lon":"121.28804","lat":"31.1856","category":"248","category_name":"生活娱乐","address":"蟠中路369"},{"poiid":"B2094654D56AA6F5489B","title":"徐泾中学","lon":"121.27439","lat":"31.1752","category":"55","category_name":"中学","address":"诚爱路"},{"poiid":"B2094757D16CA4F44098","title":"上海家化股份联合有限公司中央工厂","lon":"121.283696758","lat":"31.1775728068","category":"263","category_name":"公司","address":"上海青浦区徐泾镇盈港东路1118号"},{"poiid":"B2094654D56AA6F5409F","title":"上海佳齐服饰用品有限公司(蟠中路)","lon":"121.27691","lat":"31.18155","category":"263","category_name":"公司","address":"蟠中路758号"},{"poiid":"B2094654D56AA6F5419A","title":"上海东王子包装有限公司","lon":"121.28268","lat":"31.17954","category":"263","category_name":"公司","address":"徐民路525"},{"poiid":"B2094654D56AA6F5439F","title":"西郊家化苑","lon":"121.28489","lat":"31.176594","category":"47","category_name":"住宅区","address":"徐泾中路519弄"},{"poiid":"B2094654D56AA4FC449A","title":"国际会议中心(行政教研楼东北)","lon":"121.29274","lat":"31.18022","category":"185","category_name":"会展中心","address":""},{"poiid":"B2094757D164A1FC489A","title":"西郊美德苑","lon":"121.2835534459","lat":"31.17664326758","category":"500","category_name":"未知分类","address":"上海青浦区徐泾镇明珠路育才路"},{"poiid":"B2094654D56AA6FA459A","title":"上海英国学校","lon":"121.278","lat":"31.19609","category":"55","category_name":"中学","address":"闵行区华漕镇金光路588号"},{"poiid":"B2094750D464A7FE4993","title":"玉兰清苑","lon":"121.296809","lat":"31.197307","category":"47","category_name":"住宅区","address":"青浦区龙联路58弄玉兰清苑"},{"poiid":"B2094757D06FABF54493","title":"上海国家会计学院","lon":"121.288928","lat":"31.175844","category":"671","category_name":"高校中心点","address":"上海市青浦区蟠龙路200号"},{"poiid":"B2094757D06EAAFA439F","title":"徐泾东地铁站","lon":"121.29818261","lat":"31.187621956","category":"36","category_name":"地铁站","address":"上海轨道交通 二号线 轨交徐泾东站 2"},{"poiid":"B2094757D069A1FC499E","title":"徐泾","lon":"121.275662","lat":"31.169619","category":"260","category_name":"其他","address":"上海徐泾"},{"poiid":"B2094757D06FA4F9489A","title":"西郊庄园","lon":"121.28551","lat":"31.20104","category":"47","category_name":"住宅区","address":"上海市闵行区华漕镇金丰路588弄"},{"poiid":"B2094757D06FA0F8489E","title":"家乐福(徐泾店)","lon":"121.28492","lat":"31.16685","category":"118","category_name":"超级市场","address":"上海青浦区徐泾镇沪青平公路1829号"},{"poiid":"B2094757D068A3FB4493","title":"徐泾西园","lon":"121.271432508","lat":"31.1796537296","category":"260","category_name":"其他","address":"青浦区诸陆西路1883号"},{"poiid":"B2094757D069A3F4469B","title":"必胜客(徐泾家乐福店)","lon":"121.28289156","lat":"31.168771351","category":"68","category_name":"快餐厅","address":"上海市青浦区徐泾家乐福一楼"},{"poiid":"B2094757D069A6FF4499","title":"G15沈海高速崧泽高架路收费站","lon":"121.28071856","lat":"31.187516158","category":"267","category_name":"收费站","address":"上海青浦区G15沈海高速崧泽高架路出口"},{"poiid":"B2094655D36CA6F9469D","title":"二号线徐泾东站","lon":"121.29863","lat":"31.18794","category":"38","category_name":"公交车站","address":""},{"poiid":"B2094757D664A6F4479E","title":"肯德基 育才路店 KFC","lon":"121.276026054","lat":"31.169893793","category":"68","category_name":"快餐厅","address":"青浦区育才路259号"},{"poiid":"B2094757D168AAF9479E","title":"徐泾","lon":"121.27403156","lat":"31.17301044","category":"500","category_name":"未知分类","address":"上海青浦区"},{"poiid":"B2094655D36DA7F44193","title":"菘泽大道","lon":"121.28165","lat":"31.18853","category":"38","category_name":"公交车站","address":""},{"poiid":"B2094654D56AA4FD459F","title":"思念土菜坊","lon":"121.2775","lat":"31.17434","category":"76","category_name":"上海菜","address":"青浦区徐泾镇盈港东路1504号(近徐泾中路)"},{"poiid":"B2094757D065A1F4469A","title":"85度C(京华店)","lon":"121.274680791","lat":"31.170422071","category":"112","category_name":"糕饼店","address":"青浦区徐泾镇京华路(近肯德基)"},{"poiid":"B2094757D66DABFB419C","title":"迪丰集团","lon":"121.27259356","lat":"31.192406849","category":"263","category_name":"公司","address":"上海市青浦区徐径镇双联路168号"},{"poiid":"B2094654D56AA5FD439C","title":"蟠龙庵","lon":"121.27604","lat":"31.18696","category":"244","category_name":"寺庙道观","address":"青浦区徐泾镇蟠龙村(崧泽大道蟠龙路)"},{"poiid":"B2094655D26BA5FA4193","title":"绿中海Ⅱ梦公元","lon":"121.26656","lat":"31.17905","category":"47","category_name":"住宅区","address":"明珠路"},{"poiid":"B2094757D568A0F8439F","title":"上海国家会计学院信息中心","lon":"121.2805642","lat":"31.185955","category":"52","category_name":"高等院校","address":"蟠龙路200号"},{"poiid":"B2094654D56AABF84192","title":"上海国家会计学院第三教学楼","lon":"121.2936","lat":"31.17995","category":"52","category_name":"高等院校","address":""},{"poiid":"B2094752D26BA5F5429E","title":"上海虹桥机场","lon":"121.283213125","lat":"31.17120225","category":"500","category_name":"未知分类","address":"上海虹桥机场"},{"poiid":"B2094654D56AA6F8499E","title":"西郊玫瑰湾","lon":"121.281","lat":"31.1801","category":"47","category_name":"住宅区","address":"上海市青浦区徐泾中路980号"},{"poiid":"B2094654D56AA6F44993","title":"尤妮佳生活用品(中国)有限公司","lon":"121.28352","lat":"31.18437","category":"263","category_name":"公司","address":"蟠中路358"},{"poiid":"B2094654D56AA5F54699","title":"西郊名邸","lon":"121.283","lat":"31.1799","category":"47","category_name":"住宅区","address":"西郊名邸位于青浦徐泾中路858弄(沪青平沿线)"},{"poiid":"B2094654D56AA4FC4498","title":"西郊大公馆","lon":"121.29517","lat":"31.181421","category":"47","category_name":"住宅区","address":"青浦区盈港东路333弄"},{"poiid":"B2094654D56AA6F5409B","title":"上海扬洋体育用品有限公司(蟠中路)","lon":"121.28","lat":"31.18285","category":"263","category_name":"公司","address":"蟠中路528"},{"poiid":"B2094757D168A3FB449D","title":"罗家新苑","lon":"121.29334956","lat":"31.1850936954","category":"47","category_name":"住宅区","address":"上海市青浦区徐民东路"},{"poiid":"B2094655D264A1F84793","title":"上海家化技术中心办公楼","lon":"121.28519","lat":"31.17788","category":"46","category_name":"楼宇","address":"徐泾镇徐泾中路518号"},{"poiid":"B2094757D568A4F9429C","title":"G15崧泽高架路收费站","lon":"121.280546","lat":"31.188235","category":"267","category_name":"收费站","address":"中国上海市青浦区诸陆东路"},{"poiid":"B2094654D56AABFF419F","title":"骅伦工业小区","lon":"121.27626","lat":"31.18503","category":"47","category_name":"住宅区","address":"诸陆东路1699号"},{"poiid":"B2094757D16EA3FD4199","title":"崧泽大道华徐公路","lon":"121.27324799","lat":"31.18501567","category":"500","category_name":"未知分类","address":"上海崧泽大道华徐公路"},{"poiid":"B2094655D36DA6FC479A","title":"蟠龙居委会","lon":"121.27475","lat":"31.18563","category":"38","category_name":"公交车站","address":""},{"poiid":"B2094757D169A7F44599","title":"何先生豆浆","lon":"121.27756456","lat":"31.1757404982","category":"87","category_name":"特色／地方风味餐厅","address":"青浦区盈港东路1560号"},{"poiid":"B2094654D56AA5F5469A","title":"兰州正宗牛肉拉面(蟠龙路)","lon":"121.28595","lat":"31.17917","category":"90","category_name":"清真餐馆","address":""},{"poiid":"B2094654D56AABFF4193","title":"径通实业","lon":"121.27829","lat":"31.18574","category":"263","category_name":"公司","address":"蟠中路"},{"poiid":"B2094757D66BA7FD4898","title":"思念小龙虾","lon":"121.286443","lat":"31.188851","category":"269","category_name":"烧烤","address":"盈港东路1518号近华徐公路"},{"poiid":"B2094757D66CA6FB4892","title":"徐泾文体中心","lon":"121.27492956","lat":"31.1754314917","category":"500","category_name":"未知分类","address":"上海青浦区徐泾镇诚爱路58号"},{"poiid":"B2094655D265A7FB4193","title":"迪卡侬徐泾店","lon":"121.28445","lat":"31.16868","category":"140","category_name":"体育用品店","address":"青浦区沪青平公路1821号(A5嘉金高速口)"},{"poiid":"B2094655D36DA1F4419A","title":"西园公墓","lon":"121.27449","lat":"31.18185","category":"620","category_name":"丧葬","address":""},{"poiid":"B2094757D168ABFF449D","title":"松江区九亭镇九泾路","lon":"121.281900475","lat":"31.1765400722","category":"46","category_name":"楼宇","address":"上海九泾路"},{"poiid":"B2094757D569A3FD439A","title":"上海国家会计学院休息室","lon":"121.28810493","lat":"31.17747423","category":"52","category_name":"高等院校","address":"蟠龙路"},{"poiid":"B2094654DB6BA0FA449D","title":"中国外运上海物流中心","lon":"121.28804","lat":"31.1856","category":"248","category_name":"生活娱乐","address":"蟠中路369"},{"poiid":"B2094654D56AA6F5489B","title":"徐泾中学","lon":"121.27439","lat":"31.1752","category":"55","category_name":"中学","address":"诚爱路"},{"poiid":"B2094757D16CA4F44098","title":"上海家化股份联合有限公司中央工厂","lon":"121.283696758","lat":"31.1775728068","category":"263","category_name":"公司","address":"上海青浦区徐泾镇盈港东路1118号"},{"poiid":"B2094654D56AA6F5409F","title":"上海佳齐服饰用品有限公司(蟠中路)","lon":"121.27691","lat":"31.18155","category":"263","category_name":"公司","address":"蟠中路758号"},{"poiid":"B2094654D56AA6F5419A","title":"上海东王子包装有限公司","lon":"121.28268","lat":"31.17954","category":"263","category_name":"公司","address":"徐民路525"},{"poiid":"B2094654D56AA6F5439F","title":"西郊家化苑","lon":"121.28489","lat":"31.176594","category":"47","category_name":"住宅区","address":"徐泾中路519弄"},{"poiid":"B2094654D56AA4FC449A","title":"国际会议中心(行政教研楼东北)","lon":"121.29274","lat":"31.18022","category":"185","category_name":"会展中心","address":""},{"poiid":"B2094757D164A1FC489A","title":"西郊美德苑","lon":"121.2835534459","lat":"31.17664326758","category":"500","category_name":"未知分类","address":"上海青浦区徐泾镇明珠路育才路"},{"poiid":"B2094654D56AA6FA459A","title":"上海英国学校","lon":"121.278","lat":"31.19609","category":"55","category_name":"中学","address":"闵行区华漕镇金光路588号"},{"poiid":"B2094750D464A7FE4993","title":"玉兰清苑","lon":"121.296809","lat":"31.197307","category":"47","category_name":"住宅区","address":"青浦区龙联路58弄玉兰清苑"}]