[{"poiid":"B2094757D06EAAFA4398","title":"凯德·嘉茂购物广场(七宝)","lon":"121.339686","lat":"31.164475","category":"119","category_name":"商场","address":"上海闵行区七莘路3655号(近沪星路)"},{"poiid":"B2094757D06FA1F5449D","title":"七宝大光明影城","lon":"121.34048578","lat":"31.165400143","category":"178","category_name":"电影院","address":"上海市闵行区七莘路3655号凯德七宝购物广场3楼(家乐福楼上)"},{"poiid":"B2094757D064A3FD419B","title":"虹桥机场(2号航站楼)","lon":"121.32525056","lat":"31.1613781955","category":"500","category_name":"未知分类","address":"上海市闵行区嘉闵高架路出口"},{"poiid":"B2094757D06FA3FF419D","title":"星巴克(七莘路店)","lon":"121.339685","lat":"31.164463","category":"260","category_name":"其他","address":"闵行区七莘路3655号嘉茂购物广场1楼S1-01/02商铺(近沪星路)"},{"poiid":"B2094757D16DA3F5499C","title":"好乐迪KTV","lon":"121.34295776","lat":"31.1626887231","category":"170","category_name":"KTV","address":"上海七宝嘉茂广场三楼"},{"poiid":"B2094757DA69A2FE449A","title":"维多利亚庄园","lon":"121.32690765483","lat":"31.168343013611","category":"251","category_name":"出行住宿","address":"闵行区沪青平公路1209号(中春路口)查看地图"},{"poiid":"B2094757D06FA3FB459B","title":"奥林匹克花园","lon":"121.334701","lat":"31.152401","category":"47","category_name":"住宅区","address":"松江区九亭镇涞寅路106弄"},{"poiid":"B2094757D06FA1F44999","title":"永富茶餐厅","lon":"121.34223","lat":"31.165382","category":"111","category_name":"休闲餐饮场所","address":"闵行区七莘路3655号嘉茂购物广场1楼65室(近沪星路)"},{"poiid":"B2094757D06FA6FA4999","title":"利星行奔驰4S店","lon":"121.332189","lat":"31.167201","category":"500","category_name":"未知分类","address":"上海闵行区沪青平公路989号"},{"poiid":"B2094750D165A6FC409D","title":"巴黎春天七宝店","lon":"121.340065","lat":"31.162313","category":"249","category_name":"购物服务","address":"闵行区七莘路3755号巴黎春天内(近沪星路)"},{"poiid":"B2094757D06FA5FC489C","title":"PANKOO釜山料理(七宝店)","lon":"121.33968","lat":"31.16447","category":"96","category_name":"韩国料理","address":"闵行区七莘路3655号嘉茂购物广场4楼(近沪星路)"},{"poiid":"B2094757D06FAAFA439B","title":"满记甜品(七宝店)","lon":"121.33968","lat":"31.16446","category":"67","category_name":"甜品店","address":"闵行区七莘路3655号七宝七宝购物广场1楼K12号商铺(近沪星路)"},{"poiid":"B2094757D065A6F9439E","title":"高点(七宝)","lon":"121.33792756","lat":"31.1646382642","category":"500","category_name":"未知分类","address":"闵行区沪星路289弄2号4楼(近七莘路)"},{"poiid":"B2094655D36DA7FF469C","title":"中春路沪青平公路","lon":"121.33084","lat":"31.16465","category":"38","category_name":"公交车站","address":""},{"poiid":"B2094654DB6BA0F9489F","title":"STARBUCKS COFFEE","lon":"121.3422","lat":"31.16545","category":"65","category_name":"咖啡厅","address":""},{"poiid":"B2094757D068A2F54298","title":"狮子山香港餐厅 七莘路店","lon":"121.341962054","lat":"31.165375793","category":"72","category_name":"广东菜","address":"闵行区七莘路3655号嘉茂购物广场2楼02-13号(近沪星路)"},{"poiid":"B2094757D065A2F4419C","title":"七莘路沪青平公路","lon":"121.3379139","lat":"31.1714665","category":"500","category_name":"未知分类","address":"上海七莘路沪青平公路"},{"poiid":"B2094757D068A1F8419C","title":"蜀府 七宝嘉茂店","lon":"121.34144067764","lat":"31.165222041858","category":"71","category_name":"四川菜","address":"闵行区七莘路3655号凯德七宝购物广场4楼"},{"poiid":"B2094654DB65A4FC449B","title":"莫泰168连锁旅店(中春路店)","lon":"121.33355","lat":"31.16245","category":"216","category_name":"经济型连锁酒店","address":"上海市闵行区沪星路399号（近中春路）"},{"poiid":"B2094757D06AA6F84993","title":"大都会高尔夫俱乐部","lon":"121.33493249","lat":"31.165317995","category":"260","category_name":"其他","address":"闵行区七宝镇中春路9988号(近沪青平公路)"},{"poiid":"B2094655D26FA2FD409F","title":"嘉茂购物广场","lon":"121.33986","lat":"31.16437","category":"119","category_name":"商场","address":"七莘路3655号(近沪青平公路)"},{"poiid":"B2094757D069A3F84199","title":"甜蜜蜜(七宝巴黎春天店)","lon":"121.341062","lat":"31.165562","category":"257","category_name":"中餐厅","address":"闵行区七莘路3755号巴黎春天2楼69-2号(近沪星路)"},{"poiid":"B2094757D068A5FA429D","title":"呷哺呷哺","lon":"121.34187972","lat":"31.1649394805","category":"86","category_name":"火锅店","address":"闵行区七莘路3655号嘉茂购物广场1楼58-59号商铺"},{"poiid":"B2094757D068AAFE479C","title":"味千拉面(嘉茂店)","lon":"121.3419","lat":"31.16462","category":"95","category_name":"日本料理","address":"闵行区七莘路3655号嘉茂购物广场1楼66/67铺位(近沪星路)"},{"poiid":"B2094654DB65A7F54499","title":"巴贝拉 七宝龙城店 Babela's Kitchen","lon":"121.342154054","lat":"31.165384793","category":"247","category_name":"餐饮美食","address":"七莘路3655号嘉茂购物广场(龙城购物中心)48B室近沪星路"},{"poiid":"B2094757DB69A6FC4898","title":"七宝巴黎春天","lon":"121.33549588","lat":"31.16424632","category":"500","category_name":"未知分类","address":"巴黎春天"},{"poiid":"B2094757D069A6FE469A","title":"中大九里德","lon":"121.32385681244","lat":"31.159818520381","category":"47","category_name":"住宅区","address":"上海松江九亭涞坊路650弄"},{"poiid":"B2094757D069A0FE4493","title":"汤姆熊(七宝店)","lon":"121.341889","lat":"31.165002","category":"173","category_name":"游戏厅","address":"上海七宝嘉茂店"},{"poiid":"B2094757D16BAAFC4298","title":"和颐酒店虹桥枢纽店","lon":"121.33807436","lat":"31.1645016613","category":"36","category_name":"地铁站","address":"沪星路18号和颐酒店内(近七莘路)"},{"poiid":"B2094654DB64A6F5469D","title":"家乐福(七宝店)","lon":"121.34049","lat":"31.16482","category":"118","category_name":"超级市场","address":"闵行区七莘路3655号嘉茂购物广场2楼(近沪星路)"},{"poiid":"B2094751D369A6FC499D","title":"御彩轩中餐会所","lon":"121.3358","lat":"31.16375","category":"72","category_name":"广东菜","address":"闵行区沪星路289弄顺恒国际商业广场27号(近巴黎春天)"},{"poiid":"B2094757D16BA6FB449B","title":"大都会高尔夫","lon":"121.3312","lat":"31.16414","category":"96","category_name":"韩国料理","address":"闵行区中春路9988号"},{"poiid":"B2094757D069A4F5459E","title":"东风日产绅协店","lon":"121.330477","lat":"31.166305","category":"158","category_name":"汽车销售","address":"上海中春路9998号"},{"poiid":"B2094757DA64A0FE4792","title":"顺恒国际商业广场","lon":"121.33466","lat":"31.162578","category":"252","category_name":"楼宇机构","address":"沪星路299弄东（近七莘路吴中路）"},{"poiid":"B2094757D16BA4F44492","title":"麦当劳七宝餐厅","lon":"121.33264856","lat":"31.1619342072","category":"500","category_name":"未知分类","address":"上海七宝"},{"poiid":"B2094757D064A3FA419D","title":"万科上海中心","lon":"121.34234142","lat":"31.165143933","category":"500","category_name":"未知分类","address":"上海七莘路3568号"},{"poiid":"B2094750D26DA4FE439E","title":"宝燕壹号 七莘路店","lon":"121.339685","lat":"31.164463","category":"75","category_name":"浙江菜","address":"闵行区七莘路3655号嘉茂购物广场2楼40-42号商铺(近沪星路)"},{"poiid":"B2094750D365A6F9439C","title":"迪卡侬(七宝店)","lon":"121.33768601586917","lat":"31.164230555781682","category":"118","category_name":"超级市场","address":"闵行区沪星路289弄2号顺恒国际广场"},{"poiid":"B2094757D66DA0F4439D","title":"阿玛尼","lon":"121.33383156","lat":"31.16255522","category":"500","category_name":"未知分类","address":"上海九亭大街"},{"poiid":"B2094655D36DA1FA439D","title":"和风家园","lon":"121.33195","lat":"31.16327","category":"47","category_name":"住宅区","address":"中春路9966号"},{"poiid":"B2094751D368AAF44399","title":"雅科(七宝店)","lon":"121.33968","lat":"31.16446","category":"76","category_name":"上海菜","address":"闵行区七莘路3655号凯德七宝购物广场4楼"},{"poiid":"B2094757D064AAF44793","title":"七宝巴黎春天弘历皇朝","lon":"121.34100856","lat":"31.165599284","category":"500","category_name":"未知分类","address":"上海市闵行区七莘路"},{"poiid":"B209475CD16EA4FC4692","title":"世纪沪星影城","lon":"121.338867","lat":"31.162738","category":"178","category_name":"电影院","address":"上海市 闵行区沪星路289弄29号顺恒国际广场C栋4楼"},{"poiid":"B2094757D16DABFB4693","title":"园邸铁板烧日式火锅","lon":"121.33184","lat":"31.16425","category":"247","category_name":"餐饮美食","address":"上海闵行区中春路9988号大都会高尔夫球俱乐部內  "},{"poiid":"B2094757D069A7FB429D","title":"万科优诗美地","lon":"121.33768359","lat":"31.157590384","category":"500","category_name":"未知分类","address":"上海中春路8888弄"},{"poiid":"B2094654DA64A1F5419A","title":"上海国利汽车真皮饰件有限公司","lon":"121.33217","lat":"31.1619","category":"263","category_name":"公司","address":"闵行区中春路9219号"},{"poiid":"B2094757D06AA4FA439D","title":"上海市儿童福利院","lon":"121.32912445","lat":"31.166282653","category":"260","category_name":"其他","address":"上海中春路9977号"},{"poiid":"B2094757D065A4F94898","title":"秀寿司","lon":"121.34528","lat":"31.16053","category":"95","category_name":"日本料理","address":"闵行区七莘路3333弄万科城市花园9区21号103室"},{"poiid":"B2094757D064A2F8409C","title":"斗香园(七宝凯德店)","lon":"121.34053286","lat":"31.1630780313","category":"500","category_name":"未知分类","address":"上海闵行区七莘路3655号凯德七宝购物广场1F"},{"poiid":"B2094757D66DA0F94398","title":"万得城","lon":"121.33768876","lat":"31.1646130636","category":"500","category_name":"未知分类","address":"上海沪星路289弄1号"},{"poiid":"B2094757D06EAAFA4398","title":"凯德·嘉茂购物广场(七宝)","lon":"121.339686","lat":"31.164475","category":"119","category_name":"商场","address":"上海闵行区七莘路3655号(近沪星路)"},{"poiid":"B2094757D06FA1F5449D","title":"七宝大光明影城","lon":"121.34048578","lat":"31.165400143","category":"178","category_name":"电影院","address":"上海市闵行区七莘路3655号凯德七宝购物广场3楼(家乐福楼上)"},{"poiid":"B2094757D064A3FD419B","title":"虹桥机场(2号航站楼)","lon":"121.32525056","lat":"31.1613781955","category":"500","category_name":"未知分类","address":"上海市闵行区嘉闵高架路出口"},{"poiid":"B2094757D06FA3FF419D","title":"星巴克(七莘路店)","lon":"121.339685","lat":"31.164463","category":"260","category_name":"其他","address":"闵行区七莘路3655号嘉茂购物广场1楼S1-01/02商铺(近沪星路)"},{"poiid":"B2094757D16DA3F5499C","title":"好乐迪KTV","lon":"121.34295776","lat":"31.1626887231","category":"170","category_name":"KTV","address":"上海七宝嘉茂广场三楼"},{"poiid":"B2094757DA69A2FE449A","title":"维多利亚庄园","lon":"121.32690765483","lat":"31.168343013611","category":"251","category_name":"出行住宿","address":"闵行区沪青平公路1209号(中春路口)查看地图"},{"poiid":"B2094757D06FA3FB459B","title":"奥林匹克花园","lon":"121.334701","lat":"31.152401","category":"47","category_name":"住宅区","address":"松江区九亭镇涞寅路106弄"},{"poiid":"B2094757D06FA1F44999","title":"永富茶餐厅","lon":"121.34223","lat":"31.165382","category":"111","category_name":"休闲餐饮场所","address":"闵行区七莘路3655号嘉茂购物广场1楼65室(近沪星路)"},{"poiid":"B2094757D06FA6FA4999","title":"利星行奔驰4S店","lon":"121.332189","lat":"31.167201","category":"500","category_name":"未知分类","address":"上海闵行区沪青平公路989号"},{"poiid":"B2094750D165A6FC409D","title":"巴黎春天七宝店","lon":"121.340065","lat":"31.162313","category":"249","category_name":"购物服务","address":"闵行区七莘路3755号巴黎春天内(近沪星路)"},{"poiid":"B2094757D06FA5FC489C","title":"PANKOO釜山料理(七宝店)","lon":"121.33968","lat":"31.16447","category":"96","category_name":"韩国料理","address":"闵行区七莘路3655号嘉茂购物广场4楼(近沪星路)"},{"poiid":"B2094757D06FAAFA439B","title":"满记甜品(七宝店)","lon":"121.33968","lat":"31.16446","category":"67","category_name":"甜品店","address":"闵行区七莘路3655号七宝七宝购物广场1楼K12号商铺(近沪星路)"},{"poiid":"B2094757D065A6F9439E","title":"高点(七宝)","lon":"121.33792756","lat":"31.1646382642","category":"500","category_name":"未知分类","address":"闵行区沪星路289弄2号4楼(近七莘路)"},{"poiid":"B2094655D36DA7FF469C","title":"中春路沪青平公路","lon":"121.33084","lat":"31.16465","category":"38","category_name":"公交车站","address":""},{"poiid":"B2094654DB6BA0F9489F","title":"STARBUCKS COFFEE","lon":"121.3422","lat":"31.16545","category":"65","category_name":"咖啡厅","address":""},{"poiid":"B2094757D068A2F54298","title":"狮子山香港餐厅 七莘路店","lon":"121.341962054","lat":"31.165375793","category":"72","category_name":"广东菜","address":"闵行区七莘路3655号嘉茂购物广场2楼02-13号(近沪星路)"},{"poiid":"B2094757D065A2F4419C","title":"七莘路沪青平公路","lon":"121.3379139","lat":"31.1714665","category":"500","category_name":"未知分类","address":"上海七莘路沪青平公路"},{"poiid":"B2094757D068A1F8419C","title":"蜀府 七宝嘉茂店","lon":"121.34144067764","lat":"31.165222041858","category":"71","category_name":"四川菜","address":"闵行区七莘路3655号凯德七宝购物广场4楼"},{"poiid":"B2094654DB65A4FC449B","title":"莫泰168连锁旅店(中春路店)","lon":"121.33355","lat":"31.16245","category":"216","category_name":"经济型连锁酒店","address":"上海市闵行区沪星路399号（近中春路）"},{"poiid":"B2094757D06AA6F84993","title":"大都会高尔夫俱乐部","lon":"121.33493249","lat":"31.165317995","category":"260","category_name":"其他","address":"闵行区七宝镇中春路9988号(近沪青平公路)"},{"poiid":"B2094655D26FA2FD409F","title":"嘉茂购物广场","lon":"121.33986","lat":"31.16437","category":"119","category_name":"商场","address":"七莘路3655号(近沪青平公路)"},{"poiid":"B2094757D069A3F84199","title":"甜蜜蜜(七宝巴黎春天店)","lon":"121.341062","lat":"31.165562","category":"257","category_name":"中餐厅","address":"闵行区七莘路3755号巴黎春天2楼69-2号(近沪星路)"},{"poiid":"B2094757D068A5FA429D","title":"呷哺呷哺","lon":"121.34187972","lat":"31.1649394805","category":"86","category_name":"火锅店","address":"闵行区七莘路3655号嘉茂购物广场1楼58-59号商铺"},{"poiid":"B2094757D068AAFE479C","title":"味千拉面(嘉茂店)","lon":"121.3419","lat":"31.16462","category":"95","category_name":"日本料理","address":"闵行区七莘路3655号嘉茂购物广场1楼66/67铺位(近沪星路)"},{"poiid":"B2094654DB65A7F54499","title":"巴贝拉 七宝龙城店 Babela's Kitchen","lon":"121.342154054","lat":"31.165384793","category":"247","category_name":"餐饮美食","address":"七莘路3655号嘉茂购物广场(龙城购物中心)48B室近沪星路"},{"poiid":"B2094757DB69A6FC4898","title":"七宝巴黎春天","lon":"121.33549588","lat":"31.16424632","category":"500","category_name":"未知分类","address":"巴黎春天"},{"poiid":"B2094757D069A6FE469A","title":"中大九里德","lon":"121.32385681244","lat":"31.159818520381","category":"47","category_name":"住宅区","address":"上海松江九亭涞坊路650弄"},{"poiid":"B2094757D069A0FE4493","title":"汤姆熊(七宝店)","lon":"121.341889","lat":"31.165002","category":"173","category_name":"游戏厅","address":"上海七宝嘉茂店"},{"poiid":"B2094757D16BAAFC4298","title":"和颐酒店虹桥枢纽店","lon":"121.33807436","lat":"31.1645016613","category":"36","category_name":"地铁站","address":"沪星路18号和颐酒店内(近七莘路)"},{"poiid":"B2094654DB64A6F5469D","title":"家乐福(七宝店)","lon":"121.34049","lat":"31.16482","category":"118","category_name":"超级市场","address":"闵行区七莘路3655号嘉茂购物广场2楼(近沪星路)"},{"poiid":"B2094751D369A6FC499D","title":"御彩轩中餐会所","lon":"121.3358","lat":"31.16375","category":"72","category_name":"广东菜","address":"闵行区沪星路289弄顺恒国际商业广场27号(近巴黎春天)"},{"poiid":"B2094757D16BA6FB449B","title":"大都会高尔夫","lon":"121.3312","lat":"31.16414","category":"96","category_name":"韩国料理","address":"闵行区中春路9988号"},{"poiid":"B2094757D069A4F5459E","title":"东风日产绅协店","lon":"121.330477","lat":"31.166305","category":"158","category_name":"汽车销售","address":"上海中春路9998号"},{"poiid":"B2094757DA64A0FE4792","title":"顺恒国际商业广场","lon":"121.33466","lat":"31.162578","category":"252","category_name":"楼宇机构","address":"沪星路299弄东（近七莘路吴中路）"},{"poiid":"B2094757D16BA4F44492","title":"麦当劳七宝餐厅","lon":"121.33264856","lat":"31.1619342072","category":"500","category_name":"未知分类","address":"上海七宝"},{"poiid":"B2094757D064A3FA419D","title":"万科上海中心","lon":"121.34234142","lat":"31.165143933","category":"500","category_name":"未知分类","address":"上海七莘路3568号"},{"poiid":"B2094750D26DA4FE439E","title":"宝燕壹号 七莘路店","lon":"121.339685","lat":"31.164463","category":"75","category_name":"浙江菜","address":"闵行区七莘路3655号嘉茂购物广场2楼40-42号商铺(近沪星路)"},{"poiid":"B2094750D365A6F9439C","title":"迪卡侬(七宝店)","lon":"121.33768601586917","lat":"31.164230555781682","category":"118","category_name":"超级市场","address":"闵行区沪星路289弄2号顺恒国际广场"},{"poiid":"B2094757D66DA0F4439D","title":"阿玛尼","lon":"121.33383156","lat":"31.16255522","category":"500","category_name":"未知分类","address":"上海九亭大街"},{"poiid":"B2094655D36DA1FA439D","title":"和风家园","lon":"121.33195","lat":"31.16327","category":"47","category_name":"住宅区","address":"中春路9966号"},{"poiid":"B2094751D368AAF44399","title":"雅科(七宝店)","lon":"121.33968","lat":"31.16446","category":"76","category_name":"上海菜","address":"闵行区七莘路3655号凯德七宝购物广场4楼"},{"poiid":"B2094757D064AAF44793","title":"七宝巴黎春天弘历皇朝","lon":"121.34100856","lat":"31.165599284","category":"500","category_name":"未知分类","address":"上海市闵行区七莘路"},{"poiid":"B209475CD16EA4FC4692","title":"世纪沪星影城","lon":"121.338867","lat":"31.162738","category":"178","category_name":"电影院","address":"上海市 闵行区沪星路289弄29号顺恒国际广场C栋4楼"},{"poiid":"B2094757D16DABFB4693","title":"园邸铁板烧日式火锅","lon":"121.33184","lat":"31.16425","category":"247","category_name":"餐饮美食","address":"上海闵行区中春路9988号大都会高尔夫球俱乐部內  "},{"poiid":"B2094757D069A7FB429D","title":"万科优诗美地","lon":"121.33768359","lat":"31.157590384","category":"500","category_name":"未知分类","address":"上海中春路8888弄"},{"poiid":"B2094654DA64A1F5419A","title":"上海国利汽车真皮饰件有限公司","lon":"121.33217","lat":"31.1619","category":"263","category_name":"公司","address":"闵行区中春路9219号"},{"poiid":"B2094757D06AA4FA439D","title":"上海市儿童福利院","lon":"121.32912445","lat":"31.166282653","category":"260","category_name":"其他","address":"上海中春路9977号"},{"poiid":"B2094757D065A4F94898","title":"秀寿司","lon":"121.34528","lat":"31.16053","category":"95","category_name":"日本料理","address":"闵行区七莘路3333弄万科城市花园9区21号103室"},{"poiid":"B2094757D064A2F8409C","title":"斗香园(七宝凯德店)","lon":"121.34053286","lat":"31.1630780313","category":"500","category_name":"未知分类","address":"上海闵行区七莘路3655号凯德七宝购物广场1F"},{"poiid":"B2094757D66DA0F94398","title":"万得城","lon":"121.33768876","lat":"31.1646130636","category":"500","category_name":"未知分类","address":"上海沪星路289弄1号"},{"poiid":"B2094757D06EAAFA4398","title":"凯德·嘉茂购物广场(七宝)","lon":"121.339686","lat":"31.164475","category":"119","category_name":"商场","address":"上海闵行区七莘路3655号(近沪星路)"},{"poiid":"B2094757D06FA1F5449D","title":"七宝大光明影城","lon":"121.34048578","lat":"31.165400143","category":"178","category_name":"电影院","address":"上海市闵行区七莘路3655号凯德七宝购物广场3楼(家乐福楼上)"},{"poiid":"B2094757D064A3FD419B","title":"虹桥机场(2号航站楼)","lon":"121.32525056","lat":"31.1613781955","category":"500","category_name":"未知分类","address":"上海市闵行区嘉闵高架路出口"},{"poiid":"B2094757D06FA3FF419D","title":"星巴克(七莘路店)","lon":"121.339685","lat":"31.164463","category":"260","category_name":"其他","address":"闵行区七莘路3655号嘉茂购物广场1楼S1-01/02商铺(近沪星路)"},{"poiid":"B2094757D16DA3F5499C","title":"好乐迪KTV","lon":"121.34295776","lat":"31.1626887231","category":"170","category_name":"KTV","address":"上海七宝嘉茂广场三楼"},{"poiid":"B2094757DA69A2FE449A","title":"维多利亚庄园","lon":"121.32690765483","lat":"31.168343013611","category":"251","category_name":"出行住宿","address":"闵行区沪青平公路1209号(中春路口)查看地图"},{"poiid":"B2094757D06FA3FB459B","title":"奥林匹克花园","lon":"121.334701","lat":"31.152401","category":"47","category_name":"住宅区","address":"松江区九亭镇涞寅路106弄"},{"poiid":"B2094757D06FA1F44999","title":"永富茶餐厅","lon":"121.34223","lat":"31.165382","category":"111","category_name":"休闲餐饮场所","address":"闵行区七莘路3655号嘉茂购物广场1楼65室(近沪星路)"},{"poiid":"B2094757D06FA6FA4999","title":"利星行奔驰4S店","lon":"121.332189","lat":"31.167201","category":"500","category_name":"未知分类","address":"上海闵行区沪青平公路989号"},{"poiid":"B2094750D165A6FC409D","title":"巴黎春天七宝店","lon":"121.340065","lat":"31.162313","category":"249","category_name":"购物服务","address":"闵行区七莘路3755号巴黎春天内(近沪星路)"},{"poiid":"B2094757D06FA5FC489C","title":"PANKOO釜山料理(七宝店)","lon":"121.33968","lat":"31.16447","category":"96","category_name":"韩国料理","address":"闵行区七莘路3655号嘉茂购物广场4楼(近沪星路)"},{"poiid":"B2094757D06FAAFA439B","title":"满记甜品(七宝店)","lon":"121.33968","lat":"31.16446","category":"67","category_name":"甜品店","address":"闵行区七莘路3655号七宝七宝购物广场1楼K12号商铺(近沪星路)"},{"poiid":"B2094757D065A6F9439E","title":"高点(七宝)","lon":"121.33792756","lat":"31.1646382642","category":"500","category_name":"未知分类","address":"闵行区沪星路289弄2号4楼(近七莘路)"},{"poiid":"B2094655D36DA7FF469C","title":"中春路沪青平公路","lon":"121.33084","lat":"31.16465","category":"38","category_name":"公交车站","address":""},{"poiid":"B2094654DB6BA0F9489F","title":"STARBUCKS COFFEE","lon":"121.3422","lat":"31.16545","category":"65","category_name":"咖啡厅","address":""},{"poiid":"B2094757D068A2F54298","title":"狮子山香港餐厅 七莘路店","lon":"121.341962054","lat":"31.165375793","category":"72","category_name":"广东菜","address":"闵行区七莘路3655号嘉茂购物广场2楼02-13号(近沪星路)"},{"poiid":"B2094757D065A2F4419C","title":"七莘路沪青平公路","lon":"121.3379139","lat":"31.1714665","category":"500","category_name":"未知分类","address":"上海七莘路沪青平公路"},{"poiid":"B2094757D068A1F8419C","title":"蜀府 七宝嘉茂店","lon":"121.34144067764","lat":"31.165222041858","category":"71","category_name":"四川菜","address":"闵行区七莘路3655号凯德七宝购物广场4楼"},{"poiid":"B2094654DB65A4FC449B","title":"莫泰168连锁旅店(中春路店)","lon":"121.33355","lat":"31.16245","category":"216","category_name":"经济型连锁酒店","address":"上海市闵行区沪星路399号（近中春路）"},{"poiid":"B2094757D06AA6F84993","title":"大都会高尔夫俱乐部","lon":"121.33493249","lat":"31.165317995","category":"260","category_name":"其他","address":"闵行区七宝镇中春路9988号(近沪青平公路)"},{"poiid":"B2094655D26FA2FD409F","title":"嘉茂购物广场","lon":"121.33986","lat":"31.16437","category":"119","category_name":"商场","address":"七莘路3655号(近沪青平公路)"},{"poiid":"B2094757D069A3F84199","title":"甜蜜蜜(七宝巴黎春天店)","lon":"121.341062","lat":"31.165562","category":"257","category_name":"中餐厅","address":"闵行区七莘路3755号巴黎春天2楼69-2号(近沪星路)"},{"poiid":"B2094757D068A5FA429D","title":"呷哺呷哺","lon":"121.34187972","lat":"31.1649394805","category":"86","category_name":"火锅店","address":"闵行区七莘路3655号嘉茂购物广场1楼58-59号商铺"},{"poiid":"B2094757D068AAFE479C","title":"味千拉面(嘉茂店)","lon":"121.3419","lat":"31.16462","category":"95","category_name":"日本料理","address":"闵行区七莘路3655号嘉茂购物广场1楼66/67铺位(近沪星路)"},{"poiid":"B2094654DB65A7F54499","title":"巴贝拉 七宝龙城店 Babela's Kitchen","lon":"121.342154054","lat":"31.165384793","category":"247","category_name":"餐饮美食","address":"七莘路3655号嘉茂购物广场(龙城购物中心)48B室近沪星路"},{"poiid":"B2094757DB69A6FC4898","title":"七宝巴黎春天","lon":"121.33549588","lat":"31.16424632","category":"500","category_name":"未知分类","address":"巴黎春天"},{"poiid":"B2094757D069A6FE469A","title":"中大九里德","lon":"121.32385681244","lat":"31.159818520381","category":"47","category_name":"住宅区","address":"上海松江九亭涞坊路650弄"},{"poiid":"B2094757D069A0FE4493","title":"汤姆熊(七宝店)","lon":"121.341889","lat":"31.165002","category":"173","category_name":"游戏厅","address":"上海七宝嘉茂店"},{"poiid":"B2094757D16BAAFC4298","title":"和颐酒店虹桥枢纽店","lon":"121.33807436","lat":"31.1645016613","category":"36","category_name":"地铁站","address":"沪星路18号和颐酒店内(近七莘路)"},{"poiid":"B2094654DB64A6F5469D","title":"家乐福(七宝店)","lon":"121.34049","lat":"31.16482","category":"118","category_name":"超级市场","address":"闵行区七莘路3655号嘉茂购物广场2楼(近沪星路)"},{"poiid":"B2094751D369A6FC499D","title":"御彩轩中餐会所","lon":"121.3358","lat":"31.16375","category":"72","category_name":"广东菜","address":"闵行区沪星路289弄顺恒国际商业广场27号(近巴黎春天)"},{"poiid":"B2094757D16BA6FB449B","title":"大都会高尔夫","lon":"121.3312","lat":"31.16414","category":"96","category_name":"韩国料理","address":"闵行区中春路9988号"},{"poiid":"B2094757D069A4F5459E","title":"东风日产绅协店","lon":"121.330477","lat":"31.166305","category":"158","category_name":"汽车销售","address":"上海中春路9998号"},{"poiid":"B2094757DA64A0FE4792","title":"顺恒国际商业广场","lon":"121.33466","lat":"31.162578","category":"252","category_name":"楼宇机构","address":"沪星路299弄东（近七莘路吴中路）"},{"poiid":"B2094757D16BA4F44492","title":"麦当劳七宝餐厅","lon":"121.33264856","lat":"31.1619342072","category":"500","category_name":"未知分类","address":"上海七宝"},{"poiid":"B2094757D064A3FA419D","title":"万科上海中心","lon":"121.34234142","lat":"31.165143933","category":"500","category_name":"未知分类","address":"上海七莘路3568号"},{"poiid":"B2094750D26DA4FE439E","title":"宝燕壹号 七莘路店","lon":"121.339685","lat":"31.164463","category":"75","category_name":"浙江菜","address":"闵行区七莘路3655号嘉茂购物广场2楼40-42号商铺(近沪星路)"},{"poiid":"B2094750D365A6F9439C","title":"迪卡侬(七宝店)","lon":"121.33768601586917","lat":"31.164230555781682","category":"118","category_name":"超级市场","address":"闵行区沪星路289弄2号顺恒国际广场"},{"poiid":"B2094757D66DA0F4439D","title":"阿玛尼","lon":"121.33383156","lat":"31.16255522","category":"500","category_name":"未知分类","address":"上海九亭大街"},{"poiid":"B2094655D36DA1FA439D","title":"和风家园","lon":"121.33195","lat":"31.16327","category":"47","category_name":"住宅区","address":"中春路9966号"},{"poiid":"B2094751D368AAF44399","title":"雅科(七宝店)","lon":"121.33968","lat":"31.16446","category":"76","category_name":"上海菜","address":"闵行区七莘路3655号凯德七宝购物广场4楼"},{"poiid":"B2094757D064AAF44793","title":"七宝巴黎春天弘历皇朝","lon":"121.34100856","lat":"31.165599284","category":"500","category_name":"未知分类","address":"上海市闵行区七莘路"},{"poiid":"B209475CD16EA4FC4692","title":"世纪沪星影城","lon":"121.338867","lat":"31.162738","category":"178","category_name":"电影院","address":"上海市 闵行区沪星路289弄29号顺恒国际广场C栋4楼"},{"poiid":"B2094757D16DABFB4693","title":"园邸铁板烧日式火锅","lon":"121.33184","lat":"31.16425","category":"247","category_name":"餐饮美食","address":"上海闵行区中春路9988号大都会高尔夫球俱乐部內  "},{"poiid":"B2094757D069A7FB429D","title":"万科优诗美地","lon":"121.33768359","lat":"31.157590384","category":"500","category_name":"未知分类","address":"上海中春路8888弄"},{"poiid":"B2094654DA64A1F5419A","title":"上海国利汽车真皮饰件有限公司","lon":"121.33217","lat":"31.1619","category":"263","category_name":"公司","address":"闵行区中春路9219号"},{"poiid":"B2094757D06AA4FA439D","title":"上海市儿童福利院","lon":"121.32912445","lat":"31.166282653","category":"260","category_name":"其他","address":"上海中春路9977号"},{"poiid":"B2094757D065A4F94898","title":"秀寿司","lon":"121.34528","lat":"31.16053","category":"95","category_name":"日本料理","address":"闵行区七莘路3333弄万科城市花园9区21号103室"},{"poiid":"B2094757D064A2F8409C","title":"斗香园(七宝凯德店)","lon":"121.34053286","lat":"31.1630780313","category":"500","category_name":"未知分类","address":"上海闵行区七莘路3655号凯德七宝购物广场1F"},{"poiid":"B2094757D66DA0F94398","title":"万得城","lon":"121.33768876","lat":"31.1646130636","category":"500","category_name":"未知分类","address":"上海沪星路289弄1号"},{"poiid":"B2094757D06EAAFA4398","title":"凯德·嘉茂购物广场(七宝)","lon":"121.339686","lat":"31.164475","category":"119","category_name":"商场","address":"上海闵行区七莘路3655号(近沪星路)"},{"poiid":"B2094757D06FA1F5449D","title":"七宝大光明影城","lon":"121.34048578","lat":"31.165400143","category":"178","category_name":"电影院","address":"上海市闵行区七莘路3655号凯德七宝购物广场3楼(家乐福楼上)"},{"poiid":"B2094757D064A3FD419B","title":"虹桥机场(2号航站楼)","lon":"121.32525056","lat":"31.1613781955","category":"500","category_name":"未知分类","address":"上海市闵行区嘉闵高架路出口"},{"poiid":"B2094757D06FA3FF419D","title":"星巴克(七莘路店)","lon":"121.339685","lat":"31.164463","category":"260","category_name":"其他","address":"闵行区七莘路3655号嘉茂购物广场1楼S1-01/02商铺(近沪星路)"},{"poiid":"B2094757D16DA3F5499C","title":"好乐迪KTV","lon":"121.34295776","lat":"31.1626887231","category":"170","category_name":"KTV","address":"上海七宝嘉茂广场三楼"},{"poiid":"B2094757DA69A2FE449A","title":"维多利亚庄园","lon":"121.32690765483","lat":"31.168343013611","category":"251","category_name":"出行住宿","address":"闵行区沪青平公路1209号(中春路口)查看地图"},{"poiid":"B2094757D06FA3FB459B","title":"奥林匹克花园","lon":"121.334701","lat":"31.152401","category":"47","category_name":"住宅区","address":"松江区九亭镇涞寅路106弄"},{"poiid":"B2094757D06FA1F44999","title":"永富茶餐厅","lon":"121.34223","lat":"31.165382","category":"111","category_name":"休闲餐饮场所","address":"闵行区七莘路3655号嘉茂购物广场1楼65室(近沪星路)"},{"poiid":"B2094757D06FA6FA4999","title":"利星行奔驰4S店","lon":"121.332189","lat":"31.167201","category":"500","category_name":"未知分类","address":"上海闵行区沪青平公路989号"},{"poiid":"B2094750D165A6FC409D","title":"巴黎春天七宝店","lon":"121.340065","lat":"31.162313","category":"249","category_name":"购物服务","address":"闵行区七莘路3755号巴黎春天内(近沪星路)"},{"poiid":"B2094757D06FA5FC489C","title":"PANKOO釜山料理(七宝店)","lon":"121.33968","lat":"31.16447","category":"96","category_name":"韩国料理","address":"闵行区七莘路3655号嘉茂购物广场4楼(近沪星路)"},{"poiid":"B2094757D06FAAFA439B","title":"满记甜品(七宝店)","lon":"121.33968","lat":"31.16446","category":"67","category_name":"甜品店","address":"闵行区七莘路3655号七宝七宝购物广场1楼K12号商铺(近沪星路)"},{"poiid":"B2094757D065A6F9439E","title":"高点(七宝)","lon":"121.33792756","lat":"31.1646382642","category":"500","category_name":"未知分类","address":"闵行区沪星路289弄2号4楼(近七莘路)"},{"poiid":"B2094655D36DA7FF469C","title":"中春路沪青平公路","lon":"121.33084","lat":"31.16465","category":"38","category_name":"公交车站","address":""},{"poiid":"B2094654DB6BA0F9489F","title":"STARBUCKS COFFEE","lon":"121.3422","lat":"31.16545","category":"65","category_name":"咖啡厅","address":""},{"poiid":"B2094757D068A2F54298","title":"狮子山香港餐厅 七莘路店","lon":"121.341962054","lat":"31.165375793","category":"72","category_name":"广东菜","address":"闵行区七莘路3655号嘉茂购物广场2楼02-13号(近沪星路)"},{"poiid":"B2094757D065A2F4419C","title":"七莘路沪青平公路","lon":"121.3379139","lat":"31.1714665","category":"500","category_name":"未知分类","address":"上海七莘路沪青平公路"},{"poiid":"B2094757D068A1F8419C","title":"蜀府 七宝嘉茂店","lon":"121.34144067764","lat":"31.165222041858","category":"71","category_name":"四川菜","address":"闵行区七莘路3655号凯德七宝购物广场4楼"},{"poiid":"B2094654DB65A4FC449B","title":"莫泰168连锁旅店(中春路店)","lon":"121.33355","lat":"31.16245","category":"216","category_name":"经济型连锁酒店","address":"上海市闵行区沪星路399号（近中春路）"},{"poiid":"B2094757D06AA6F84993","title":"大都会高尔夫俱乐部","lon":"121.33493249","lat":"31.165317995","category":"260","category_name":"其他","address":"闵行区七宝镇中春路9988号(近沪青平公路)"},{"poiid":"B2094655D26FA2FD409F","title":"嘉茂购物广场","lon":"121.33986","lat":"31.16437","category":"119","category_name":"商场","address":"七莘路3655号(近沪青平公路)"},{"poiid":"B2094757D069A3F84199","title":"甜蜜蜜(七宝巴黎春天店)","lon":"121.341062","lat":"31.165562","category":"257","category_name":"中餐厅","address":"闵行区七莘路3755号巴黎春天2楼69-2号(近沪星路)"},{"poiid":"B2094757D068A5FA429D","title":"呷哺呷哺","lon":"121.34187972","lat":"31.1649394805","category":"86","category_name":"火锅店","address":"闵行区七莘路3655号嘉茂购物广场1楼58-59号商铺"},{"poiid":"B2094757D068AAFE479C","title":"味千拉面(嘉茂店)","lon":"121.3419","lat":"31.16462","category":"95","category_name":"日本料理","address":"闵行区七莘路3655号嘉茂购物广场1楼66/67铺位(近沪星路)"},{"poiid":"B2094654DB65A7F54499","title":"巴贝拉 七宝龙城店 Babela's Kitchen","lon":"121.342154054","lat":"31.165384793","category":"247","category_name":"餐饮美食","address":"七莘路3655号嘉茂购物广场(龙城购物中心)48B室近沪星路"},{"poiid":"B2094757DB69A6FC4898","title":"七宝巴黎春天","lon":"121.33549588","lat":"31.16424632","category":"500","category_name":"未知分类","address":"巴黎春天"},{"poiid":"B2094757D069A6FE469A","title":"中大九里德","lon":"121.32385681244","lat":"31.159818520381","category":"47","category_name":"住宅区","address":"上海松江九亭涞坊路650弄"},{"poiid":"B2094757D069A0FE4493","title":"汤姆熊(七宝店)","lon":"121.341889","lat":"31.165002","category":"173","category_name":"游戏厅","address":"上海七宝嘉茂店"},{"poiid":"B2094757D16BAAFC4298","title":"和颐酒店虹桥枢纽店","lon":"121.33807436","lat":"31.1645016613","category":"36","category_name":"地铁站","address":"沪星路18号和颐酒店内(近七莘路)"},{"poiid":"B2094654DB64A6F5469D","title":"家乐福(七宝店)","lon":"121.34049","lat":"31.16482","category":"118","category_name":"超级市场","address":"闵行区七莘路3655号嘉茂购物广场2楼(近沪星路)"},{"poiid":"B2094751D369A6FC499D","title":"御彩轩中餐会所","lon":"121.3358","lat":"31.16375","category":"72","category_name":"广东菜","address":"闵行区沪星路289弄顺恒国际商业广场27号(近巴黎春天)"},{"poiid":"B2094757D16BA6FB449B","title":"大都会高尔夫","lon":"121.3312","lat":"31.16414","category":"96","category_name":"韩国料理","address":"闵行区中春路9988号"},{"poiid":"B2094757D069A4F5459E","title":"东风日产绅协店","lon":"121.330477","lat":"31.166305","category":"158","category_name":"汽车销售","address":"上海中春路9998号"},{"poiid":"B2094757DA64A0FE4792","title":"顺恒国际商业广场","lon":"121.33466","lat":"31.162578","category":"252","category_name":"楼宇机构","address":"沪星路299弄东（近七莘路吴中路）"},{"poiid":"B2094757D16BA4F44492","title":"麦当劳七宝餐厅","lon":"121.33264856","lat":"31.1619342072","category":"500","category_name":"未知分类","address":"上海七宝"},{"poiid":"B2094757D064A3FA419D","title":"万科上海中心","lon":"121.34234142","lat":"31.165143933","category":"500","category_name":"未知分类","address":"上海七莘路3568号"},{"poiid":"B2094750D26DA4FE439E","title":"宝燕壹号 七莘路店","lon":"121.339685","lat":"31.164463","category":"75","category_name":"浙江菜","address":"闵行区七莘路3655号嘉茂购物广场2楼40-42号商铺(近沪星路)"},{"poiid":"B2094750D365A6F9439C","title":"迪卡侬(七宝店)","lon":"121.33768601586917","lat":"31.164230555781682","category":"118","category_name":"超级市场","address":"闵行区沪星路289弄2号顺恒国际广场"},{"poiid":"B2094757D66DA0F4439D","title":"阿玛尼","lon":"121.33383156","lat":"31.16255522","category":"500","category_name":"未知分类","address":"上海九亭大街"},{"poiid":"B2094655D36DA1FA439D","title":"和风家园","lon":"121.33195","lat":"31.16327","category":"47","category_name":"住宅区","address":"中春路9966号"},{"poiid":"B2094751D368AAF44399","title":"雅科(七宝店)","lon":"121.33968","lat":"31.16446","category":"76","category_name":"上海菜","address":"闵行区七莘路3655号凯德七宝购物广场4楼"},{"poiid":"B2094757D064AAF44793","title":"七宝巴黎春天弘历皇朝","lon":"121.34100856","lat":"31.165599284","category":"500","category_name":"未知分类","address":"上海市闵行区七莘路"},{"poiid":"B209475CD16EA4FC4692","title":"世纪沪星影城","lon":"121.338867","lat":"31.162738","category":"178","category_name":"电影院","address":"上海市 闵行区沪星路289弄29号顺恒国际广场C栋4楼"},{"poiid":"B2094757D16DABFB4693","title":"园邸铁板烧日式火锅","lon":"121.33184","lat":"31.16425","category":"247","category_name":"餐饮美食","address":"上海闵行区中春路9988号大都会高尔夫球俱乐部內  "},{"poiid":"B2094757D069A7FB429D","title":"万科优诗美地","lon":"121.33768359","lat":"31.157590384","category":"500","category_name":"未知分类","address":"上海中春路8888弄"},{"poiid":"B2094654DA64A1F5419A","title":"上海国利汽车真皮饰件有限公司","lon":"121.33217","lat":"31.1619","category":"263","category_name":"公司","address":"闵行区中春路9219号"},{"poiid":"B2094757D06AA4FA439D","title":"上海市儿童福利院","lon":"121.32912445","lat":"31.166282653","category":"260","category_name":"其他","address":"上海中春路9977号"},{"poiid":"B2094757D065A4F94898","title":"秀寿司","lon":"121.34528","lat":"31.16053","category":"95","category_name":"日本料理","address":"闵行区七莘路3333弄万科城市花园9区21号103室"},{"poiid":"B2094757D064A2F8409C","title":"斗香园(七宝凯德店)","lon":"121.34053286","lat":"31.1630780313","category":"500","category_name":"未知分类","address":"上海闵行区七莘路3655号凯德七宝购物广场1F"},{"poiid":"B2094757D66DA0F94398","title":"万得城","lon":"121.33768876","lat":"31.1646130636","category":"500","category_name":"未知分类","address":"上海沪星路289弄1号"}]