[{"poiid":"B2094757D06FABF54493","title":"上海国家会计学院","lon":"121.288928","lat":"31.175844","category":"671","category_name":"高校中心点","address":"上海市青浦区蟠龙路200号"},{"poiid":"B2094757D069A1FC499E","title":"徐泾","lon":"121.275662","lat":"31.169619","category":"260","category_name":"其他","address":"上海徐泾"},{"poiid":"B2094757D06FA0F8489E","title":"家乐福(徐泾店)","lon":"121.28492","lat":"31.16685","category":"118","category_name":"超级市场","address":"上海青浦区徐泾镇沪青平公路1829号"},{"poiid":"B2094757D06FA6FD459A","title":"上海西郊假日酒店","lon":"121.271294675","lat":"31.1661988428","category":"217","category_name":"旅馆招待所","address":"上海市沪青平公路2000号(近明珠路)"},{"poiid":"B2094757D069A3F4469B","title":"必胜客(徐泾家乐福店)","lon":"121.28289156","lat":"31.168771351","category":"68","category_name":"快餐厅","address":"上海市青浦区徐泾家乐福一楼"},{"poiid":"B2094757D069AAF9459B","title":"上海豪都国际花园","lon":"121.27668","lat":"31.162035","category":"47","category_name":"住宅区","address":"上海市青浦区徐泾镇沪青平公路1881号"},{"poiid":"B2094757D664A6F4479E","title":"肯德基 育才路店 KFC","lon":"121.276026054","lat":"31.169893793","category":"68","category_name":"快餐厅","address":"青浦区育才路259号"},{"poiid":"B2094757D068A3FB4493","title":"徐泾西园","lon":"121.271432508","lat":"31.1796537296","category":"260","category_name":"其他","address":"青浦区诸陆西路1883号"},{"poiid":"B2094757D065A1F4469A","title":"85度C(京华店)","lon":"121.274680791","lat":"31.170422071","category":"112","category_name":"糕饼店","address":"青浦区徐泾镇京华路(近肯德基)"},{"poiid":"B2094752D26BA5F5429E","title":"上海虹桥机场","lon":"121.283213125","lat":"31.17120225","category":"500","category_name":"未知分类","address":"上海虹桥机场"},{"poiid":"B2094757D168AAF9479E","title":"徐泾","lon":"121.27403156","lat":"31.17301044","category":"500","category_name":"未知分类","address":"上海青浦区"},{"poiid":"B2094757D068A2FE4893","title":"捷克住宅小区","lon":"121.28497788889","lat":"31.16487780953","category":"47","category_name":"住宅区","address":"上海市青浦区徐泾镇联民路88弄"},{"poiid":"B2094655D265A7FB4193","title":"迪卡侬徐泾店","lon":"121.28445","lat":"31.16868","category":"140","category_name":"体育用品店","address":"青浦区沪青平公路1821号(A5嘉金高速口)"},{"poiid":"B2094654D56AA4FD459F","title":"思念土菜坊","lon":"121.2775","lat":"31.17434","category":"76","category_name":"上海菜","address":"青浦区徐泾镇盈港东路1504号(近徐泾中路)"},{"poiid":"B2094757D16AA5F44393","title":"徐泾新区","lon":"121.26916015","lat":"31.167532424","category":"47","category_name":"住宅区","address":"上海青浦区徐泾镇徐育路明珠路西侧"},{"poiid":"B2094757D568A0F94698","title":"上海西郊商务区","lon":"121.2804789","lat":"31.16992194","category":"46","category_name":"楼宇","address":"江西路1555弄"},{"poiid":"B2094757DA65A5FB479B","title":"上海新虹桥智选假日酒店（原上海新虹桥快捷假日酒店）","lon":"121.276276","lat":"31.166505","category":"215","category_name":"三星级宾馆","address":"沪青平公路1917号(京华路路口,青浦城区)"},{"poiid":"B2094757D66BA2F5409C","title":"好家福酒店","lon":"121.27723129344","lat":"31.167171959944","category":"76","category_name":"上海菜","address":"闵行区沪青平公路1915号"},{"poiid":"B2094757D465A6F8439C","title":"争鲜回转寿司 徐泾店","lon":"121.28009","lat":"31.16813","category":"95","category_name":"日本料理","address":"青浦区沪青平公路1829号家乐福3楼(近嘉金高速公路)"},{"poiid":"B2094654D56AA5FD4592","title":"宏颖酒家","lon":"121.27957","lat":"31.17246","category":"257","category_name":"中餐厅","address":"华徐公路"},{"poiid":"B2094655D36CA0FA439D","title":"家乐福","lon":"121.28229","lat":"31.16911","category":"38","category_name":"公交车站","address":""},{"poiid":"B2094654D56AA5FD4598","title":"上海西郊徐泾经济城","lon":"121.28247","lat":"31.16971","category":"45","category_name":"产业园区","address":"沪青平公路1818号"},{"poiid":"B2094757D16CA6F84598","title":"一番屋","lon":"121.28345","lat":"31.16781","category":"95","category_name":"日本料理","address":"青浦区沪青平公路1829号家乐福1楼128号(近嘉金高速公路)"},{"poiid":"B2094757D168A3F4419E","title":"永和大王(沪青平公路店)","lon":"121.28405736","lat":"31.16778693","category":"68","category_name":"快餐厅","address":"上海近郊近郊青浦区沪青平公路1829号家乐福1楼(近嘉金高速公路)  "},{"poiid":"B2094757D065A5F44792","title":"徐泾小学","lon":"121.275433","lat":"31.169615","category":"56","category_name":"小学","address":"上海徐民路京华路"},{"poiid":"B2094757D164A1FC4698","title":"广虹馨苑","lon":"121.2768","lat":"31.173304","category":"47","category_name":"住宅区","address":"上海青浦区徐泾镇盈港东路1529弄"},{"poiid":"B2094757D16AA2F84393","title":"万得城(徐泾店)","lon":"121.28432256","lat":"31.1677313294","category":"500","category_name":"未知分类","address":"上海青浦区徐泾镇沪青平公路1817弄1-6号(1楼)及1819号(2至3楼)，永业购物中心"},{"poiid":"B2094654D56AA5FE439B","title":"皖南小吃(旺旺幼儿园东)","lon":"121.27809","lat":"31.16973","category":"68","category_name":"快餐厅","address":"京华路"},{"poiid":"B2094655D26BA0FA409E","title":"永业购物中心","lon":"121.28456","lat":"31.16873","category":"119","category_name":"商场","address":""},{"poiid":"B2094757D169A7F44599","title":"何先生豆浆","lon":"121.27756456","lat":"31.1757404982","category":"87","category_name":"特色／地方风味餐厅","address":"青浦区盈港东路1560号"},{"poiid":"B2094750D26EABFF419D","title":"振新佳苑","lon":"121.27735066108","lat":"31.174196767786","category":"47","category_name":"住宅区","address":"青浦区明珠路785弄"},{"poiid":"B2094654D56AA6F5489F","title":"徐泾影剧院","lon":"121.275516","lat":"31.17374","category":"178","category_name":"电影院","address":"青浦区徐泾镇徐泾中路938号"},{"poiid":"B2094654D56AA5FF459D","title":"黑珍珠(京华路)","lon":"121.27444","lat":"31.17137","category":"68","category_name":"快餐厅","address":"青浦区徐泾镇京华路232号"},{"poiid":"B2094757D16BA2FD4492","title":"傣妹(徐泾店)","lon":"121.282947","lat":"31.167962","category":"247","category_name":"餐饮美食","address":"上海家乐福徐泾店"},{"poiid":"B2094654DB69A4FD4992","title":"锦江之星(徐泾店)","lon":"121.27659","lat":"31.16734","category":"216","category_name":"经济型连锁酒店","address":"青浦区徐泾镇京华路28号"},{"poiid":"B2094655D26BA4F8409E","title":"百安居","lon":"121.28467","lat":"31.16876","category":"123","category_name":"家具建材市场","address":""},{"poiid":"B2094757D66CA6FB4892","title":"徐泾文体中心","lon":"121.27492956","lat":"31.1754314917","category":"500","category_name":"未知分类","address":"上海青浦区徐泾镇诚爱路58号"},{"poiid":"B2094654D56AA5FE429D","title":"清秀桑拿浴馆","lon":"121.27832","lat":"31.17085","category":"149","category_name":"洗浴推拿场所","address":"育才路"},{"poiid":"B2094654D56AA5FD479C","title":"新美美酒楼","lon":"121.27734","lat":"31.17397","category":"70","category_name":"综合酒楼","address":"徐泾中路815"},{"poiid":"B2094757D164A1FC4299","title":"韩罗缘-韩式料理","lon":"121.27625945","lat":"31.1740642325","category":"96","category_name":"韩国料理","address":"青浦区徐泾镇盈港东路1506号(上海银行西侧)"},{"poiid":"B2094654D56AA5FE459A","title":"广虹商苑","lon":"121.27692","lat":"31.168602","category":"47","category_name":"住宅区","address":"振泾路218号"},{"poiid":"B2094654D56AA6F5489B","title":"徐泾中学","lon":"121.27439","lat":"31.1752","category":"55","category_name":"中学","address":"诚爱路"},{"poiid":"B2094751D36FAAFB489B","title":"红宝石(京华路店)","lon":"121.27389","lat":"31.17238","category":"67","category_name":"甜品店","address":"青浦区徐泾镇京华路294号(近盈港东路)"},{"poiid":"B2094654D56AA5FF489C","title":"毛家湘味楼","lon":"121.275302054","lat":"31.172833793","category":"77","category_name":"湖南菜","address":"青浦区徐径镇京华路255号(京华路徐泾中路)"},{"poiid":"B2094757D065A3FB489D","title":"星科金朋半导体","lon":"121.28361511","lat":"31.169303894","category":"500","category_name":"未知分类","address":"上海盈港东路1388号"},{"poiid":"B2094757D169A5F4419E","title":"徐泾镇盈港东路1379号乐拍","lon":"121.28002456","lat":"31.1746704757","category":"500","category_name":"未知分类","address":"上海徐泾镇盈港东路1379号乐拍"},{"poiid":"B2094654D56AA4FD469F","title":"上海西郊经济技术开发总公司","lon":"121.27891","lat":"31.17271","category":"263","category_name":"公司","address":"华徐公路105号"},{"poiid":"B2094654DB6BA0FA4398","title":"好德便利","lon":"121.2769","lat":"31.17373","category":"117","category_name":"便民商店/便利店","address":"徐泾中路"},{"poiid":"B2094757D46DABFF4898","title":"均记小厨","lon":"121.2781366","lat":"31.1745161","category":"76","category_name":"上海菜","address":"青浦区盈港东路1352号(近华徐公路)"},{"poiid":"B2094757D465A7FE469A","title":"大娘水饺 徐泾家乐福店","lon":"121.28009","lat":"31.16813","category":"87","category_name":"特色／地方风味餐厅","address":"青浦区沪青平公路1829号徐泾家乐福3楼(近高径路)"},{"poiid":"B2094757D06FABF54493","title":"上海国家会计学院","lon":"121.288928","lat":"31.175844","category":"671","category_name":"高校中心点","address":"上海市青浦区蟠龙路200号"},{"poiid":"B2094757D069A1FC499E","title":"徐泾","lon":"121.275662","lat":"31.169619","category":"260","category_name":"其他","address":"上海徐泾"},{"poiid":"B2094757D06FA0F8489E","title":"家乐福(徐泾店)","lon":"121.28492","lat":"31.16685","category":"118","category_name":"超级市场","address":"上海青浦区徐泾镇沪青平公路1829号"},{"poiid":"B2094757D06FA6FD459A","title":"上海西郊假日酒店","lon":"121.271294675","lat":"31.1661988428","category":"217","category_name":"旅馆招待所","address":"上海市沪青平公路2000号(近明珠路)"},{"poiid":"B2094757D069A3F4469B","title":"必胜客(徐泾家乐福店)","lon":"121.28289156","lat":"31.168771351","category":"68","category_name":"快餐厅","address":"上海市青浦区徐泾家乐福一楼"},{"poiid":"B2094757D069AAF9459B","title":"上海豪都国际花园","lon":"121.27668","lat":"31.162035","category":"47","category_name":"住宅区","address":"上海市青浦区徐泾镇沪青平公路1881号"},{"poiid":"B2094757D664A6F4479E","title":"肯德基 育才路店 KFC","lon":"121.276026054","lat":"31.169893793","category":"68","category_name":"快餐厅","address":"青浦区育才路259号"},{"poiid":"B2094757D068A3FB4493","title":"徐泾西园","lon":"121.271432508","lat":"31.1796537296","category":"260","category_name":"其他","address":"青浦区诸陆西路1883号"},{"poiid":"B2094757D065A1F4469A","title":"85度C(京华店)","lon":"121.274680791","lat":"31.170422071","category":"112","category_name":"糕饼店","address":"青浦区徐泾镇京华路(近肯德基)"},{"poiid":"B2094752D26BA5F5429E","title":"上海虹桥机场","lon":"121.283213125","lat":"31.17120225","category":"500","category_name":"未知分类","address":"上海虹桥机场"},{"poiid":"B2094757D168AAF9479E","title":"徐泾","lon":"121.27403156","lat":"31.17301044","category":"500","category_name":"未知分类","address":"上海青浦区"},{"poiid":"B2094757D068A2FE4893","title":"捷克住宅小区","lon":"121.28497788889","lat":"31.16487780953","category":"47","category_name":"住宅区","address":"上海市青浦区徐泾镇联民路88弄"},{"poiid":"B2094655D265A7FB4193","title":"迪卡侬徐泾店","lon":"121.28445","lat":"31.16868","category":"140","category_name":"体育用品店","address":"青浦区沪青平公路1821号(A5嘉金高速口)"},{"poiid":"B2094654D56AA4FD459F","title":"思念土菜坊","lon":"121.2775","lat":"31.17434","category":"76","category_name":"上海菜","address":"青浦区徐泾镇盈港东路1504号(近徐泾中路)"},{"poiid":"B2094757D16AA5F44393","title":"徐泾新区","lon":"121.26916015","lat":"31.167532424","category":"47","category_name":"住宅区","address":"上海青浦区徐泾镇徐育路明珠路西侧"},{"poiid":"B2094757D568A0F94698","title":"上海西郊商务区","lon":"121.2804789","lat":"31.16992194","category":"46","category_name":"楼宇","address":"江西路1555弄"},{"poiid":"B2094757DA65A5FB479B","title":"上海新虹桥智选假日酒店（原上海新虹桥快捷假日酒店）","lon":"121.276276","lat":"31.166505","category":"215","category_name":"三星级宾馆","address":"沪青平公路1917号(京华路路口,青浦城区)"},{"poiid":"B2094757D66BA2F5409C","title":"好家福酒店","lon":"121.27723129344","lat":"31.167171959944","category":"76","category_name":"上海菜","address":"闵行区沪青平公路1915号"},{"poiid":"B2094757D465A6F8439C","title":"争鲜回转寿司 徐泾店","lon":"121.28009","lat":"31.16813","category":"95","category_name":"日本料理","address":"青浦区沪青平公路1829号家乐福3楼(近嘉金高速公路)"},{"poiid":"B2094654D56AA5FD4592","title":"宏颖酒家","lon":"121.27957","lat":"31.17246","category":"257","category_name":"中餐厅","address":"华徐公路"},{"poiid":"B2094655D36CA0FA439D","title":"家乐福","lon":"121.28229","lat":"31.16911","category":"38","category_name":"公交车站","address":""},{"poiid":"B2094654D56AA5FD4598","title":"上海西郊徐泾经济城","lon":"121.28247","lat":"31.16971","category":"45","category_name":"产业园区","address":"沪青平公路1818号"},{"poiid":"B2094757D16CA6F84598","title":"一番屋","lon":"121.28345","lat":"31.16781","category":"95","category_name":"日本料理","address":"青浦区沪青平公路1829号家乐福1楼128号(近嘉金高速公路)"},{"poiid":"B2094757D168A3F4419E","title":"永和大王(沪青平公路店)","lon":"121.28405736","lat":"31.16778693","category":"68","category_name":"快餐厅","address":"上海近郊近郊青浦区沪青平公路1829号家乐福1楼(近嘉金高速公路)  "},{"poiid":"B2094757D065A5F44792","title":"徐泾小学","lon":"121.275433","lat":"31.169615","category":"56","category_name":"小学","address":"上海徐民路京华路"},{"poiid":"B2094757D164A1FC4698","title":"广虹馨苑","lon":"121.2768","lat":"31.173304","category":"47","category_name":"住宅区","address":"上海青浦区徐泾镇盈港东路1529弄"},{"poiid":"B2094757D16AA2F84393","title":"万得城(徐泾店)","lon":"121.28432256","lat":"31.1677313294","category":"500","category_name":"未知分类","address":"上海青浦区徐泾镇沪青平公路1817弄1-6号(1楼)及1819号(2至3楼)，永业购物中心"},{"poiid":"B2094654D56AA5FE439B","title":"皖南小吃(旺旺幼儿园东)","lon":"121.27809","lat":"31.16973","category":"68","category_name":"快餐厅","address":"京华路"},{"poiid":"B2094655D26BA0FA409E","title":"永业购物中心","lon":"121.28456","lat":"31.16873","category":"119","category_name":"商场","address":""},{"poiid":"B2094757D169A7F44599","title":"何先生豆浆","lon":"121.27756456","lat":"31.1757404982","category":"87","category_name":"特色／地方风味餐厅","address":"青浦区盈港东路1560号"},{"poiid":"B2094750D26EABFF419D","title":"振新佳苑","lon":"121.27735066108","lat":"31.174196767786","category":"47","category_name":"住宅区","address":"青浦区明珠路785弄"},{"poiid":"B2094654D56AA6F5489F","title":"徐泾影剧院","lon":"121.275516","lat":"31.17374","category":"178","category_name":"电影院","address":"青浦区徐泾镇徐泾中路938号"},{"poiid":"B2094654D56AA5FF459D","title":"黑珍珠(京华路)","lon":"121.27444","lat":"31.17137","category":"68","category_name":"快餐厅","address":"青浦区徐泾镇京华路232号"},{"poiid":"B2094757D16BA2FD4492","title":"傣妹(徐泾店)","lon":"121.282947","lat":"31.167962","category":"247","category_name":"餐饮美食","address":"上海家乐福徐泾店"},{"poiid":"B2094654DB69A4FD4992","title":"锦江之星(徐泾店)","lon":"121.27659","lat":"31.16734","category":"216","category_name":"经济型连锁酒店","address":"青浦区徐泾镇京华路28号"},{"poiid":"B2094655D26BA4F8409E","title":"百安居","lon":"121.28467","lat":"31.16876","category":"123","category_name":"家具建材市场","address":""},{"poiid":"B2094757D66CA6FB4892","title":"徐泾文体中心","lon":"121.27492956","lat":"31.1754314917","category":"500","category_name":"未知分类","address":"上海青浦区徐泾镇诚爱路58号"},{"poiid":"B2094654D56AA5FE429D","title":"清秀桑拿浴馆","lon":"121.27832","lat":"31.17085","category":"149","category_name":"洗浴推拿场所","address":"育才路"},{"poiid":"B2094654D56AA5FD479C","title":"新美美酒楼","lon":"121.27734","lat":"31.17397","category":"70","category_name":"综合酒楼","address":"徐泾中路815"},{"poiid":"B2094757D164A1FC4299","title":"韩罗缘-韩式料理","lon":"121.27625945","lat":"31.1740642325","category":"96","category_name":"韩国料理","address":"青浦区徐泾镇盈港东路1506号(上海银行西侧)"},{"poiid":"B2094654D56AA5FE459A","title":"广虹商苑","lon":"121.27692","lat":"31.168602","category":"47","category_name":"住宅区","address":"振泾路218号"},{"poiid":"B2094654D56AA6F5489B","title":"徐泾中学","lon":"121.27439","lat":"31.1752","category":"55","category_name":"中学","address":"诚爱路"},{"poiid":"B2094751D36FAAFB489B","title":"红宝石(京华路店)","lon":"121.27389","lat":"31.17238","category":"67","category_name":"甜品店","address":"青浦区徐泾镇京华路294号(近盈港东路)"},{"poiid":"B2094654D56AA5FF489C","title":"毛家湘味楼","lon":"121.275302054","lat":"31.172833793","category":"77","category_name":"湖南菜","address":"青浦区徐径镇京华路255号(京华路徐泾中路)"},{"poiid":"B2094757D065A3FB489D","title":"星科金朋半导体","lon":"121.28361511","lat":"31.169303894","category":"500","category_name":"未知分类","address":"上海盈港东路1388号"},{"poiid":"B2094757D169A5F4419E","title":"徐泾镇盈港东路1379号乐拍","lon":"121.28002456","lat":"31.1746704757","category":"500","category_name":"未知分类","address":"上海徐泾镇盈港东路1379号乐拍"},{"poiid":"B2094654D56AA4FD469F","title":"上海西郊经济技术开发总公司","lon":"121.27891","lat":"31.17271","category":"263","category_name":"公司","address":"华徐公路105号"},{"poiid":"B2094654DB6BA0FA4398","title":"好德便利","lon":"121.2769","lat":"31.17373","category":"117","category_name":"便民商店/便利店","address":"徐泾中路"},{"poiid":"B2094757D46DABFF4898","title":"均记小厨","lon":"121.2781366","lat":"31.1745161","category":"76","category_name":"上海菜","address":"青浦区盈港东路1352号(近华徐公路)"},{"poiid":"B2094757D465A7FE469A","title":"大娘水饺 徐泾家乐福店","lon":"121.28009","lat":"31.16813","category":"87","category_name":"特色／地方风味餐厅","address":"青浦区沪青平公路1829号徐泾家乐福3楼(近高径路)"},{"poiid":"B2094757D06FABF54493","title":"上海国家会计学院","lon":"121.288928","lat":"31.175844","category":"671","category_name":"高校中心点","address":"上海市青浦区蟠龙路200号"},{"poiid":"B2094757D069A1FC499E","title":"徐泾","lon":"121.275662","lat":"31.169619","category":"260","category_name":"其他","address":"上海徐泾"},{"poiid":"B2094757D06FA0F8489E","title":"家乐福(徐泾店)","lon":"121.28492","lat":"31.16685","category":"118","category_name":"超级市场","address":"上海青浦区徐泾镇沪青平公路1829号"},{"poiid":"B2094757D06FA6FD459A","title":"上海西郊假日酒店","lon":"121.271294675","lat":"31.1661988428","category":"217","category_name":"旅馆招待所","address":"上海市沪青平公路2000号(近明珠路)"},{"poiid":"B2094757D069A3F4469B","title":"必胜客(徐泾家乐福店)","lon":"121.28289156","lat":"31.168771351","category":"68","category_name":"快餐厅","address":"上海市青浦区徐泾家乐福一楼"},{"poiid":"B2094757D069AAF9459B","title":"上海豪都国际花园","lon":"121.27668","lat":"31.162035","category":"47","category_name":"住宅区","address":"上海市青浦区徐泾镇沪青平公路1881号"},{"poiid":"B2094757D664A6F4479E","title":"肯德基 育才路店 KFC","lon":"121.276026054","lat":"31.169893793","category":"68","category_name":"快餐厅","address":"青浦区育才路259号"},{"poiid":"B2094757D068A3FB4493","title":"徐泾西园","lon":"121.271432508","lat":"31.1796537296","category":"260","category_name":"其他","address":"青浦区诸陆西路1883号"},{"poiid":"B2094757D065A1F4469A","title":"85度C(京华店)","lon":"121.274680791","lat":"31.170422071","category":"112","category_name":"糕饼店","address":"青浦区徐泾镇京华路(近肯德基)"},{"poiid":"B2094752D26BA5F5429E","title":"上海虹桥机场","lon":"121.283213125","lat":"31.17120225","category":"500","category_name":"未知分类","address":"上海虹桥机场"},{"poiid":"B2094757D168AAF9479E","title":"徐泾","lon":"121.27403156","lat":"31.17301044","category":"500","category_name":"未知分类","address":"上海青浦区"},{"poiid":"B2094757D068A2FE4893","title":"捷克住宅小区","lon":"121.28497788889","lat":"31.16487780953","category":"47","category_name":"住宅区","address":"上海市青浦区徐泾镇联民路88弄"},{"poiid":"B2094655D265A7FB4193","title":"迪卡侬徐泾店","lon":"121.28445","lat":"31.16868","category":"140","category_name":"体育用品店","address":"青浦区沪青平公路1821号(A5嘉金高速口)"},{"poiid":"B2094654D56AA4FD459F","title":"思念土菜坊","lon":"121.2775","lat":"31.17434","category":"76","category_name":"上海菜","address":"青浦区徐泾镇盈港东路1504号(近徐泾中路)"},{"poiid":"B2094757D16AA5F44393","title":"徐泾新区","lon":"121.26916015","lat":"31.167532424","category":"47","category_name":"住宅区","address":"上海青浦区徐泾镇徐育路明珠路西侧"},{"poiid":"B2094757D568A0F94698","title":"上海西郊商务区","lon":"121.2804789","lat":"31.16992194","category":"46","category_name":"楼宇","address":"江西路1555弄"},{"poiid":"B2094757DA65A5FB479B","title":"上海新虹桥智选假日酒店（原上海新虹桥快捷假日酒店）","lon":"121.276276","lat":"31.166505","category":"215","category_name":"三星级宾馆","address":"沪青平公路1917号(京华路路口,青浦城区)"},{"poiid":"B2094757D66BA2F5409C","title":"好家福酒店","lon":"121.27723129344","lat":"31.167171959944","category":"76","category_name":"上海菜","address":"闵行区沪青平公路1915号"},{"poiid":"B2094757D465A6F8439C","title":"争鲜回转寿司 徐泾店","lon":"121.28009","lat":"31.16813","category":"95","category_name":"日本料理","address":"青浦区沪青平公路1829号家乐福3楼(近嘉金高速公路)"},{"poiid":"B2094654D56AA5FD4592","title":"宏颖酒家","lon":"121.27957","lat":"31.17246","category":"257","category_name":"中餐厅","address":"华徐公路"},{"poiid":"B2094655D36CA0FA439D","title":"家乐福","lon":"121.28229","lat":"31.16911","category":"38","category_name":"公交车站","address":""},{"poiid":"B2094654D56AA5FD4598","title":"上海西郊徐泾经济城","lon":"121.28247","lat":"31.16971","category":"45","category_name":"产业园区","address":"沪青平公路1818号"},{"poiid":"B2094757D16CA6F84598","title":"一番屋","lon":"121.28345","lat":"31.16781","category":"95","category_name":"日本料理","address":"青浦区沪青平公路1829号家乐福1楼128号(近嘉金高速公路)"},{"poiid":"B2094757D168A3F4419E","title":"永和大王(沪青平公路店)","lon":"121.28405736","lat":"31.16778693","category":"68","category_name":"快餐厅","address":"上海近郊近郊青浦区沪青平公路1829号家乐福1楼(近嘉金高速公路)  "},{"poiid":"B2094757D065A5F44792","title":"徐泾小学","lon":"121.275433","lat":"31.169615","category":"56","category_name":"小学","address":"上海徐民路京华路"},{"poiid":"B2094757D164A1FC4698","title":"广虹馨苑","lon":"121.2768","lat":"31.173304","category":"47","category_name":"住宅区","address":"上海青浦区徐泾镇盈港东路1529弄"},{"poiid":"B2094757D16AA2F84393","title":"万得城(徐泾店)","lon":"121.28432256","lat":"31.1677313294","category":"500","category_name":"未知分类","address":"上海青浦区徐泾镇沪青平公路1817弄1-6号(1楼)及1819号(2至3楼)，永业购物中心"},{"poiid":"B2094654D56AA5FE439B","title":"皖南小吃(旺旺幼儿园东)","lon":"121.27809","lat":"31.16973","category":"68","category_name":"快餐厅","address":"京华路"},{"poiid":"B2094655D26BA0FA409E","title":"永业购物中心","lon":"121.28456","lat":"31.16873","category":"119","category_name":"商场","address":""},{"poiid":"B2094757D169A7F44599","title":"何先生豆浆","lon":"121.27756456","lat":"31.1757404982","category":"87","category_name":"特色／地方风味餐厅","address":"青浦区盈港东路1560号"},{"poiid":"B2094750D26EABFF419D","title":"振新佳苑","lon":"121.27735066108","lat":"31.174196767786","category":"47","category_name":"住宅区","address":"青浦区明珠路785弄"},{"poiid":"B2094654D56AA6F5489F","title":"徐泾影剧院","lon":"121.275516","lat":"31.17374","category":"178","category_name":"电影院","address":"青浦区徐泾镇徐泾中路938号"},{"poiid":"B2094654D56AA5FF459D","title":"黑珍珠(京华路)","lon":"121.27444","lat":"31.17137","category":"68","category_name":"快餐厅","address":"青浦区徐泾镇京华路232号"},{"poiid":"B2094757D16BA2FD4492","title":"傣妹(徐泾店)","lon":"121.282947","lat":"31.167962","category":"247","category_name":"餐饮美食","address":"上海家乐福徐泾店"},{"poiid":"B2094654DB69A4FD4992","title":"锦江之星(徐泾店)","lon":"121.27659","lat":"31.16734","category":"216","category_name":"经济型连锁酒店","address":"青浦区徐泾镇京华路28号"},{"poiid":"B2094655D26BA4F8409E","title":"百安居","lon":"121.28467","lat":"31.16876","category":"123","category_name":"家具建材市场","address":""},{"poiid":"B2094757D66CA6FB4892","title":"徐泾文体中心","lon":"121.27492956","lat":"31.1754314917","category":"500","category_name":"未知分类","address":"上海青浦区徐泾镇诚爱路58号"},{"poiid":"B2094654D56AA5FE429D","title":"清秀桑拿浴馆","lon":"121.27832","lat":"31.17085","category":"149","category_name":"洗浴推拿场所","address":"育才路"},{"poiid":"B2094654D56AA5FD479C","title":"新美美酒楼","lon":"121.27734","lat":"31.17397","category":"70","category_name":"综合酒楼","address":"徐泾中路815"},{"poiid":"B2094757D164A1FC4299","title":"韩罗缘-韩式料理","lon":"121.27625945","lat":"31.1740642325","category":"96","category_name":"韩国料理","address":"青浦区徐泾镇盈港东路1506号(上海银行西侧)"},{"poiid":"B2094654D56AA5FE459A","title":"广虹商苑","lon":"121.27692","lat":"31.168602","category":"47","category_name":"住宅区","address":"振泾路218号"},{"poiid":"B2094654D56AA6F5489B","title":"徐泾中学","lon":"121.27439","lat":"31.1752","category":"55","category_name":"中学","address":"诚爱路"},{"poiid":"B2094751D36FAAFB489B","title":"红宝石(京华路店)","lon":"121.27389","lat":"31.17238","category":"67","category_name":"甜品店","address":"青浦区徐泾镇京华路294号(近盈港东路)"},{"poiid":"B2094654D56AA5FF489C","title":"毛家湘味楼","lon":"121.275302054","lat":"31.172833793","category":"77","category_name":"湖南菜","address":"青浦区徐径镇京华路255号(京华路徐泾中路)"},{"poiid":"B2094757D065A3FB489D","title":"星科金朋半导体","lon":"121.28361511","lat":"31.169303894","category":"500","category_name":"未知分类","address":"上海盈港东路1388号"},{"poiid":"B2094757D169A5F4419E","title":"徐泾镇盈港东路1379号乐拍","lon":"121.28002456","lat":"31.1746704757","category":"500","category_name":"未知分类","address":"上海徐泾镇盈港东路1379号乐拍"},{"poiid":"B2094654D56AA4FD469F","title":"上海西郊经济技术开发总公司","lon":"121.27891","lat":"31.17271","category":"263","category_name":"公司","address":"华徐公路105号"},{"poiid":"B2094654DB6BA0FA4398","title":"好德便利","lon":"121.2769","lat":"31.17373","category":"117","category_name":"便民商店/便利店","address":"徐泾中路"},{"poiid":"B2094757D46DABFF4898","title":"均记小厨","lon":"121.2781366","lat":"31.1745161","category":"76","category_name":"上海菜","address":"青浦区盈港东路1352号(近华徐公路)"},{"poiid":"B2094757D465A7FE469A","title":"大娘水饺 徐泾家乐福店","lon":"121.28009","lat":"31.16813","category":"87","category_name":"特色／地方风味餐厅","address":"青浦区沪青平公路1829号徐泾家乐福3楼(近高径路)"},{"poiid":"B2094757D06FABF54493","title":"上海国家会计学院","lon":"121.288928","lat":"31.175844","category":"671","category_name":"高校中心点","address":"上海市青浦区蟠龙路200号"},{"poiid":"B2094757D069A1FC499E","title":"徐泾","lon":"121.275662","lat":"31.169619","category":"260","category_name":"其他","address":"上海徐泾"},{"poiid":"B2094757D06FA0F8489E","title":"家乐福(徐泾店)","lon":"121.28492","lat":"31.16685","category":"118","category_name":"超级市场","address":"上海青浦区徐泾镇沪青平公路1829号"},{"poiid":"B2094757D06FA6FD459A","title":"上海西郊假日酒店","lon":"121.271294675","lat":"31.1661988428","category":"217","category_name":"旅馆招待所","address":"上海市沪青平公路2000号(近明珠路)"},{"poiid":"B2094757D069A3F4469B","title":"必胜客(徐泾家乐福店)","lon":"121.28289156","lat":"31.168771351","category":"68","category_name":"快餐厅","address":"上海市青浦区徐泾家乐福一楼"},{"poiid":"B2094757D069AAF9459B","title":"上海豪都国际花园","lon":"121.27668","lat":"31.162035","category":"47","category_name":"住宅区","address":"上海市青浦区徐泾镇沪青平公路1881号"},{"poiid":"B2094757D664A6F4479E","title":"肯德基 育才路店 KFC","lon":"121.276026054","lat":"31.169893793","category":"68","category_name":"快餐厅","address":"青浦区育才路259号"},{"poiid":"B2094757D068A3FB4493","title":"徐泾西园","lon":"121.271432508","lat":"31.1796537296","category":"260","category_name":"其他","address":"青浦区诸陆西路1883号"},{"poiid":"B2094757D065A1F4469A","title":"85度C(京华店)","lon":"121.274680791","lat":"31.170422071","category":"112","category_name":"糕饼店","address":"青浦区徐泾镇京华路(近肯德基)"},{"poiid":"B2094752D26BA5F5429E","title":"上海虹桥机场","lon":"121.283213125","lat":"31.17120225","category":"500","category_name":"未知分类","address":"上海虹桥机场"},{"poiid":"B2094757D168AAF9479E","title":"徐泾","lon":"121.27403156","lat":"31.17301044","category":"500","category_name":"未知分类","address":"上海青浦区"},{"poiid":"B2094757D068A2FE4893","title":"捷克住宅小区","lon":"121.28497788889","lat":"31.16487780953","category":"47","category_name":"住宅区","address":"上海市青浦区徐泾镇联民路88弄"},{"poiid":"B2094655D265A7FB4193","title":"迪卡侬徐泾店","lon":"121.28445","lat":"31.16868","category":"140","category_name":"体育用品店","address":"青浦区沪青平公路1821号(A5嘉金高速口)"},{"poiid":"B2094654D56AA4FD459F","title":"思念土菜坊","lon":"121.2775","lat":"31.17434","category":"76","category_name":"上海菜","address":"青浦区徐泾镇盈港东路1504号(近徐泾中路)"},{"poiid":"B2094757D16AA5F44393","title":"徐泾新区","lon":"121.26916015","lat":"31.167532424","category":"47","category_name":"住宅区","address":"上海青浦区徐泾镇徐育路明珠路西侧"},{"poiid":"B2094757D568A0F94698","title":"上海西郊商务区","lon":"121.2804789","lat":"31.16992194","category":"46","category_name":"楼宇","address":"江西路1555弄"},{"poiid":"B2094757DA65A5FB479B","title":"上海新虹桥智选假日酒店（原上海新虹桥快捷假日酒店）","lon":"121.276276","lat":"31.166505","category":"215","category_name":"三星级宾馆","address":"沪青平公路1917号(京华路路口,青浦城区)"},{"poiid":"B2094757D66BA2F5409C","title":"好家福酒店","lon":"121.27723129344","lat":"31.167171959944","category":"76","category_name":"上海菜","address":"闵行区沪青平公路1915号"},{"poiid":"B2094757D465A6F8439C","title":"争鲜回转寿司 徐泾店","lon":"121.28009","lat":"31.16813","category":"95","category_name":"日本料理","address":"青浦区沪青平公路1829号家乐福3楼(近嘉金高速公路)"},{"poiid":"B2094654D56AA5FD4592","title":"宏颖酒家","lon":"121.27957","lat":"31.17246","category":"257","category_name":"中餐厅","address":"华徐公路"},{"poiid":"B2094655D36CA0FA439D","title":"家乐福","lon":"121.28229","lat":"31.16911","category":"38","category_name":"公交车站","address":""},{"poiid":"B2094654D56AA5FD4598","title":"上海西郊徐泾经济城","lon":"121.28247","lat":"31.16971","category":"45","category_name":"产业园区","address":"沪青平公路1818号"},{"poiid":"B2094757D16CA6F84598","title":"一番屋","lon":"121.28345","lat":"31.16781","category":"95","category_name":"日本料理","address":"青浦区沪青平公路1829号家乐福1楼128号(近嘉金高速公路)"},{"poiid":"B2094757D168A3F4419E","title":"永和大王(沪青平公路店)","lon":"121.28405736","lat":"31.16778693","category":"68","category_name":"快餐厅","address":"上海近郊近郊青浦区沪青平公路1829号家乐福1楼(近嘉金高速公路)  "},{"poiid":"B2094757D065A5F44792","title":"徐泾小学","lon":"121.275433","lat":"31.169615","category":"56","category_name":"小学","address":"上海徐民路京华路"},{"poiid":"B2094757D164A1FC4698","title":"广虹馨苑","lon":"121.2768","lat":"31.173304","category":"47","category_name":"住宅区","address":"上海青浦区徐泾镇盈港东路1529弄"},{"poiid":"B2094757D16AA2F84393","title":"万得城(徐泾店)","lon":"121.28432256","lat":"31.1677313294","category":"500","category_name":"未知分类","address":"上海青浦区徐泾镇沪青平公路1817弄1-6号(1楼)及1819号(2至3楼)，永业购物中心"},{"poiid":"B2094654D56AA5FE439B","title":"皖南小吃(旺旺幼儿园东)","lon":"121.27809","lat":"31.16973","category":"68","category_name":"快餐厅","address":"京华路"},{"poiid":"B2094655D26BA0FA409E","title":"永业购物中心","lon":"121.28456","lat":"31.16873","category":"119","category_name":"商场","address":""},{"poiid":"B2094757D169A7F44599","title":"何先生豆浆","lon":"121.27756456","lat":"31.1757404982","category":"87","category_name":"特色／地方风味餐厅","address":"青浦区盈港东路1560号"},{"poiid":"B2094750D26EABFF419D","title":"振新佳苑","lon":"121.27735066108","lat":"31.174196767786","category":"47","category_name":"住宅区","address":"青浦区明珠路785弄"},{"poiid":"B2094654D56AA6F5489F","title":"徐泾影剧院","lon":"121.275516","lat":"31.17374","category":"178","category_name":"电影院","address":"青浦区徐泾镇徐泾中路938号"},{"poiid":"B2094654D56AA5FF459D","title":"黑珍珠(京华路)","lon":"121.27444","lat":"31.17137","category":"68","category_name":"快餐厅","address":"青浦区徐泾镇京华路232号"},{"poiid":"B2094757D16BA2FD4492","title":"傣妹(徐泾店)","lon":"121.282947","lat":"31.167962","category":"247","category_name":"餐饮美食","address":"上海家乐福徐泾店"},{"poiid":"B2094654DB69A4FD4992","title":"锦江之星(徐泾店)","lon":"121.27659","lat":"31.16734","category":"216","category_name":"经济型连锁酒店","address":"青浦区徐泾镇京华路28号"},{"poiid":"B2094655D26BA4F8409E","title":"百安居","lon":"121.28467","lat":"31.16876","category":"123","category_name":"家具建材市场","address":""},{"poiid":"B2094757D66CA6FB4892","title":"徐泾文体中心","lon":"121.27492956","lat":"31.1754314917","category":"500","category_name":"未知分类","address":"上海青浦区徐泾镇诚爱路58号"},{"poiid":"B2094654D56AA5FE429D","title":"清秀桑拿浴馆","lon":"121.27832","lat":"31.17085","category":"149","category_name":"洗浴推拿场所","address":"育才路"},{"poiid":"B2094654D56AA5FD479C","title":"新美美酒楼","lon":"121.27734","lat":"31.17397","category":"70","category_name":"综合酒楼","address":"徐泾中路815"},{"poiid":"B2094757D164A1FC4299","title":"韩罗缘-韩式料理","lon":"121.27625945","lat":"31.1740642325","category":"96","category_name":"韩国料理","address":"青浦区徐泾镇盈港东路1506号(上海银行西侧)"},{"poiid":"B2094654D56AA5FE459A","title":"广虹商苑","lon":"121.27692","lat":"31.168602","category":"47","category_name":"住宅区","address":"振泾路218号"},{"poiid":"B2094654D56AA6F5489B","title":"徐泾中学","lon":"121.27439","lat":"31.1752","category":"55","category_name":"中学","address":"诚爱路"},{"poiid":"B2094751D36FAAFB489B","title":"红宝石(京华路店)","lon":"121.27389","lat":"31.17238","category":"67","category_name":"甜品店","address":"青浦区徐泾镇京华路294号(近盈港东路)"},{"poiid":"B2094654D56AA5FF489C","title":"毛家湘味楼","lon":"121.275302054","lat":"31.172833793","category":"77","category_name":"湖南菜","address":"青浦区徐径镇京华路255号(京华路徐泾中路)"},{"poiid":"B2094757D065A3FB489D","title":"星科金朋半导体","lon":"121.28361511","lat":"31.169303894","category":"500","category_name":"未知分类","address":"上海盈港东路1388号"},{"poiid":"B2094757D169A5F4419E","title":"徐泾镇盈港东路1379号乐拍","lon":"121.28002456","lat":"31.1746704757","category":"500","category_name":"未知分类","address":"上海徐泾镇盈港东路1379号乐拍"},{"poiid":"B2094654D56AA4FD469F","title":"上海西郊经济技术开发总公司","lon":"121.27891","lat":"31.17271","category":"263","category_name":"公司","address":"华徐公路105号"},{"poiid":"B2094654DB6BA0FA4398","title":"好德便利","lon":"121.2769","lat":"31.17373","category":"117","category_name":"便民商店/便利店","address":"徐泾中路"},{"poiid":"B2094757D46DABFF4898","title":"均记小厨","lon":"121.2781366","lat":"31.1745161","category":"76","category_name":"上海菜","address":"青浦区盈港东路1352号(近华徐公路)"},{"poiid":"B2094757D465A7FE469A","title":"大娘水饺 徐泾家乐福店","lon":"121.28009","lat":"31.16813","category":"87","category_name":"特色／地方风味餐厅","address":"青浦区沪青平公路1829号徐泾家乐福3楼(近高径路)"}]