[{"poiid":"B2094757D06EAAFB4599","title":"夏朵西餐厅","lon":"121.44222758","lat":"31.191409672","category":"94","category_name":"西餐厅","address":"徐汇区天钥桥路214号哈尼美食广场3楼(近南丹东路)"},{"poiid":"B2094655D26EA6F94899","title":"德林酸菜鱼(南丹店)","lon":"121.44148","lat":"31.19023","category":"257","category_name":"中餐厅","address":"徐汇区南丹东路157号(近天钥桥路)"},{"poiid":"B2094654DB6AA2FF439B","title":"吴记老锅底麻辣火锅(天钥桥路店)","lon":"121.44203","lat":"31.19098","category":"86","category_name":"火锅店","address":"徐汇区天钥桥路212号(近辛耕路)"},{"poiid":"B2094751DA6DA3FD469F","title":"台湾美食街","lon":"121.438873","lat":"31.190506","category":"91","category_name":"台湾菜","address":"徐汇区漕溪北路333号百脑汇二期5楼(近徐家汇地铁站4、5号出口)"},{"poiid":"B2094757D06FA3FD4692","title":"和记小菜 南丹店","lon":"121.43830584704","lat":"31.188882741901","category":"76","category_name":"上海菜","address":"徐汇区南丹东路188号(近天钥桥路)"},{"poiid":"B2094757D06EAAFD4998","title":"PANKOO釜山料理(天钥桥店)","lon":"121.44188","lat":"31.19158","category":"96","category_name":"韩国料理","address":"上海徐汇区天钥桥路131号永新坊B1楼(近辛耕路)"},{"poiid":"B2094757D06EAAF44999","title":"鲜芋仙(天钥桥路店)","lon":"121.442054686","lat":"31.1897338393","category":"67","category_name":"甜品店","address":"徐汇区天钥桥路307号(南丹东路口)"},{"poiid":"B2094757D06FA3F8459C","title":"上海大饭堂","lon":"121.44217","lat":"31.18985","category":"76","category_name":"上海菜","address":"徐汇区天钥桥路220号(近南丹东路)"},{"poiid":"B2094757D06FA0FA4193","title":"lemon grass 柠檬草泰菜","lon":"121.44238281","lat":"31.191249847","category":"110","category_name":"其他亚洲菜","address":"上海天钥桥路131号永新坊地下一楼06室"},{"poiid":"B2094757D06FA3F5439A","title":"扬歌量贩式KTV(天钥桥路店)","lon":"121.4415","lat":"31.19231","category":"170","category_name":"KTV","address":"徐汇区天钥桥路88号汇联商厦4-5楼(近肇嘉浜路)"},{"poiid":"B2094757DA68ABFA429D","title":"豆捞坊 徐汇店 Dolar Shop","lon":"121.441896054","lat":"31.191227793","category":"86","category_name":"火锅店","address":"徐汇区天钥桥路214号哈尼美食广场4-5楼(近南丹东路)"},{"poiid":"B2094757D06FA1F54693","title":"腾飞广场","lon":"121.44219","lat":"31.19006","category":"119","category_name":"商场","address":"徐汇区天钥桥路333号腾飞大厦内(近南丹东路)"},{"poiid":"B2094757D06FA3FC469E","title":"香辣虾爆爆椒干锅三绝(天钥桥路店)","lon":"121.442201586","lat":"31.1906066563","category":"71","category_name":"四川菜","address":"徐汇区天钥桥路315号3楼(近南丹路口)"},{"poiid":"B2094654DA6DA0FF499C","title":"避风塘 天钥桥路店","lon":"121.442166054","lat":"31.188890793","category":"72","category_name":"广东菜","address":"徐汇区天钥桥路333号腾飞大厦1-2楼(近南丹东路)"},{"poiid":"B2094655D268A1F84193","title":"中金国际广场","lon":"121.4387","lat":"31.19066","category":"46","category_name":"楼宇","address":"崇文区夕照寺大街"},{"poiid":"B2094757D06FA1FE469F","title":"芋贵人(永新坊店)","lon":"121.441357186","lat":"31.1920914853","category":"67","category_name":"甜品店","address":"徐汇区天钥桥路133号永新坊1楼08A店铺"},{"poiid":"B2094757D06FA2FA479A","title":"季诺(徐汇店)","lon":"121.4389","lat":"31.19179","category":"94","category_name":"西餐厅","address":"徐汇区漕溪北路33号2楼(近虹桥路)"},{"poiid":"B2094757D06FA7F8459E","title":"英国屋","lon":"121.4399958","lat":"31.1925024","category":"95","category_name":"日本料理","address":"徐汇区肇嘉浜路1111号美罗城B1楼41号商铺(近漕溪北路)"},{"poiid":"B2094757D06FA3F9479A","title":"太平洋数码广场(一期)","lon":"121.43893","lat":"31.19192","category":"138","category_name":"家电电子卖场","address":"上海徐汇区漕溪北路41号(近虹桥路)"},{"poiid":"B2094757D068A1FA459E","title":"蛙蟹外传","lon":"121.44201","lat":"31.19065","category":"71","category_name":"四川菜","address":"徐汇区天钥桥路220号(近南丹东路)"},{"poiid":"B2094757D06FA7F4499F","title":"豪厨","lon":"121.44250558","lat":"31.190080646","category":"72","category_name":"广东菜","address":"徐汇区南丹东路118号1楼(近天钥桥路)"},{"poiid":"B2094757D06FABFF4992","title":"天圣酸菜鱼火锅(南丹东路店)","lon":"121.44196","lat":"31.18986","category":"86","category_name":"火锅店","address":"徐汇区南丹东路157号(近天钥桥路)"},{"poiid":"B209475DD36DA3F44792","title":"辣府火锅 徐汇店","lon":"121.442474","lat":"31.190034","category":"247","category_name":"餐饮美食","address":"上海市徐汇区南丹东路108号2楼"},{"poiid":"B2094757D66FA1FE419E","title":"呷铺呷铺","lon":"121.44111858","lat":"31.191994683","category":"247","category_name":"餐饮美食","address":"上海天钥桥路辛耕路"},{"poiid":"B2094654DB6AA3FC449A","title":"金轩大厦","lon":"121.43918","lat":"31.18889","category":"46","category_name":"楼宇","address":"北京西路1028号,江宁路168号"},{"poiid":"B2094757D068A3FE4299","title":"食特美烧肉(徐家汇店)","lon":"121.44232","lat":"31.19044","category":"269","category_name":"烧烤","address":"上海徐汇区天钥桥路214号3楼(近南丹东路)  "},{"poiid":"B2094654DB6BA5F8419F","title":"萨莉亚 徐汇店 Saizeriya","lon":"121.44215200924","lat":"31.189608329","category":"94","category_name":"西餐厅","address":"徐汇区南丹东路108号2楼202室(近天钥桥路)"},{"poiid":"B2094757D068A6F84999","title":"阿玛尼护肤造型中心(天钥桥路店)","lon":"121.441825","lat":"31.191802","category":"148","category_name":"美容美发店","address":"上海徐汇区天钥桥路130号(近辛耕路)"},{"poiid":"B2094757D068ABFA4992","title":"莱诗邸","lon":"121.43973","lat":"31.190178","category":"47","category_name":"住宅区","address":"上海徐汇区南丹东路223弄(近漕溪北路)"},{"poiid":"B2094757D06FA3FE4692","title":"徐家汇百老汇二期","lon":"121.43871964","lat":"31.190653006","category":"138","category_name":"家电电子卖场","address":"上海漕溪北路339号"},{"poiid":"B2094752DA6AABFE4298","title":"弗拉明戈万国手工啤酒餐厅","lon":"121.440231","lat":"31.190414","category":"500","category_name":"未知分类","address":"上海市 上海市徐汇区南丹东路"},{"poiid":"B2094757D069A0FC449A","title":"康骏保健中心(南丹路店)","lon":"121.44","lat":"31.18916","category":"500","category_name":"未知分类","address":"上海徐汇区南丹东路209号  "},{"poiid":"B2094654DA6DA0FB459A","title":"亚历山大瑜珈馆","lon":"121.44171","lat":"31.18898","category":"221","category_name":"健身中心","address":"天钥桥路318"},{"poiid":"B2094757D068A6FF449C","title":"真功夫 漕溪北路店","lon":"121.438867054","lat":"31.192969793","category":"68","category_name":"快餐厅","address":"徐汇区漕溪北路99弄综合楼(近南丹路预计5月23号营业)"},{"poiid":"B2094753D46BA3FE449E","title":"水蜜儿创意甜品店","lon":"121.438652","lat":"31.191101","category":"500","category_name":"未知分类","address":"上海市 上海市漕溪北路339号百脑汇二期B1"},{"poiid":"B2094757D16CA6F54193","title":"はなまる","lon":"121.43872576","lat":"31.191208138","category":"500","category_name":"未知分类","address":"上海美罗城五番街"},{"poiid":"B2094753D765A6F54098","title":"家在塔拉","lon":"121.441993","lat":"31.190996","category":"247","category_name":"餐饮美食","address":"上海市 徐汇区天钥桥路214号4楼"},{"poiid":"B2094750D66DA5FD4692","title":"天圣巫山烤全鱼","lon":"121.438926","lat":"31.189409","category":"247","category_name":"餐饮美食","address":null},{"poiid":"B2094752D368A7FC409D","title":"台塑王品","lon":"121.438644","lat":"31.189725","category":"247","category_name":"餐饮美食","address":null},{"poiid":"B2094750D768A1F9459D","title":"八间","lon":"121.439","lat":"31.1891","category":"95","category_name":"日本料理","address":"徐汇区南丹东路238号新东亚酒店1楼(近天钥桥路)"},{"poiid":"B2094757D064A5F94298","title":"天一日本料理","lon":"121.44207698","lat":"31.191609475","category":"95","category_name":"日本料理","address":"徐汇区天钥桥路133号永新坊B1楼"},{"poiid":"B2094655D26BA2F8469A","title":"天钥桥路辛耕路","lon":"121.44194","lat":"31.19189","category":"38","category_name":"公交车站","address":"上海天钥桥路辛耕路车站"},{"poiid":"B2094753D269ABFD4298","title":"上海老站","lon":"121.438856","lat":"31.189558","category":"500","category_name":"未知分类","address":"上海市 上海市漕溪北路201号"},{"poiid":"B2094752D665A1FB4799","title":"鎌倉ＰＡＳＴＡ","lon":"121.438941","lat":"31.189423","category":"247","category_name":"餐饮美食","address":"徐家汇美罗城五番街"},{"poiid":"B2094750DA6FABFD4593","title":"耶里夏利","lon":"121.438812","lat":"31.189483","category":"247","category_name":"餐饮美食","address":null},{"poiid":"B2094757D068ABF4499F","title":"阿波特西班牙餐厅","lon":"121.442362571","lat":"31.1900596732","category":"94","category_name":"西餐厅","address":"徐汇区南丹东路129号(近天钥桥路)"},{"poiid":"B209475CD769A0FF449F","title":"Pasta Inn","lon":"121.43845470101928","lat":"31.190811237399725","category":"247","category_name":"餐饮美食","address":"上海市徐汇区漕溪北路399号百脑汇二期台北东区B1"},{"poiid":"B2094654DA6DA0FA419B","title":"久隆大厦","lon":"121.44021","lat":"31.18919","category":"46","category_name":"楼宇","address":"朝阳亚运村北炎黄艺术馆旁"},{"poiid":"B2094757D06FA0F4459E","title":"京星港式餐厅","lon":"121.44230377","lat":"31.189875292","category":"72","category_name":"广东菜","address":"徐汇区天钥桥路313号2楼(南丹东路口)"},{"poiid":"B2094757D66EA4F9459D","title":"西堤","lon":"121.43969358","lat":"31.189633637","category":"500","category_name":"未知分类","address":"上海市徐汇区蒲西路"},{"poiid":"B2094757D06EAAFB4599","title":"夏朵西餐厅","lon":"121.44222758","lat":"31.191409672","category":"94","category_name":"西餐厅","address":"徐汇区天钥桥路214号哈尼美食广场3楼(近南丹东路)"},{"poiid":"B2094655D26EA6F94899","title":"德林酸菜鱼(南丹店)","lon":"121.44148","lat":"31.19023","category":"257","category_name":"中餐厅","address":"徐汇区南丹东路157号(近天钥桥路)"},{"poiid":"B2094654DB6AA2FF439B","title":"吴记老锅底麻辣火锅(天钥桥路店)","lon":"121.44203","lat":"31.19098","category":"86","category_name":"火锅店","address":"徐汇区天钥桥路212号(近辛耕路)"},{"poiid":"B2094751DA6DA3FD469F","title":"台湾美食街","lon":"121.438873","lat":"31.190506","category":"91","category_name":"台湾菜","address":"徐汇区漕溪北路333号百脑汇二期5楼(近徐家汇地铁站4、5号出口)"},{"poiid":"B2094757D06FA3FD4692","title":"和记小菜 南丹店","lon":"121.43830584704","lat":"31.188882741901","category":"76","category_name":"上海菜","address":"徐汇区南丹东路188号(近天钥桥路)"},{"poiid":"B2094757D06EAAFD4998","title":"PANKOO釜山料理(天钥桥店)","lon":"121.44188","lat":"31.19158","category":"96","category_name":"韩国料理","address":"上海徐汇区天钥桥路131号永新坊B1楼(近辛耕路)"},{"poiid":"B2094757D06EAAF44999","title":"鲜芋仙(天钥桥路店)","lon":"121.442054686","lat":"31.1897338393","category":"67","category_name":"甜品店","address":"徐汇区天钥桥路307号(南丹东路口)"},{"poiid":"B2094757D06FA3F8459C","title":"上海大饭堂","lon":"121.44217","lat":"31.18985","category":"76","category_name":"上海菜","address":"徐汇区天钥桥路220号(近南丹东路)"},{"poiid":"B2094757D06FA0FA4193","title":"lemon grass 柠檬草泰菜","lon":"121.44238281","lat":"31.191249847","category":"110","category_name":"其他亚洲菜","address":"上海天钥桥路131号永新坊地下一楼06室"},{"poiid":"B2094757D06FA3F5439A","title":"扬歌量贩式KTV(天钥桥路店)","lon":"121.4415","lat":"31.19231","category":"170","category_name":"KTV","address":"徐汇区天钥桥路88号汇联商厦4-5楼(近肇嘉浜路)"},{"poiid":"B2094757DA68ABFA429D","title":"豆捞坊 徐汇店 Dolar Shop","lon":"121.441896054","lat":"31.191227793","category":"86","category_name":"火锅店","address":"徐汇区天钥桥路214号哈尼美食广场4-5楼(近南丹东路)"},{"poiid":"B2094757D06FA1F54693","title":"腾飞广场","lon":"121.44219","lat":"31.19006","category":"119","category_name":"商场","address":"徐汇区天钥桥路333号腾飞大厦内(近南丹东路)"},{"poiid":"B2094757D06FA3FC469E","title":"香辣虾爆爆椒干锅三绝(天钥桥路店)","lon":"121.442201586","lat":"31.1906066563","category":"71","category_name":"四川菜","address":"徐汇区天钥桥路315号3楼(近南丹路口)"},{"poiid":"B2094654DA6DA0FF499C","title":"避风塘 天钥桥路店","lon":"121.442166054","lat":"31.188890793","category":"72","category_name":"广东菜","address":"徐汇区天钥桥路333号腾飞大厦1-2楼(近南丹东路)"},{"poiid":"B2094655D268A1F84193","title":"中金国际广场","lon":"121.4387","lat":"31.19066","category":"46","category_name":"楼宇","address":"崇文区夕照寺大街"},{"poiid":"B2094757D06FA1FE469F","title":"芋贵人(永新坊店)","lon":"121.441357186","lat":"31.1920914853","category":"67","category_name":"甜品店","address":"徐汇区天钥桥路133号永新坊1楼08A店铺"},{"poiid":"B2094757D06FA2FA479A","title":"季诺(徐汇店)","lon":"121.4389","lat":"31.19179","category":"94","category_name":"西餐厅","address":"徐汇区漕溪北路33号2楼(近虹桥路)"},{"poiid":"B2094757D06FA7F8459E","title":"英国屋","lon":"121.4399958","lat":"31.1925024","category":"95","category_name":"日本料理","address":"徐汇区肇嘉浜路1111号美罗城B1楼41号商铺(近漕溪北路)"},{"poiid":"B2094757D06FA3F9479A","title":"太平洋数码广场(一期)","lon":"121.43893","lat":"31.19192","category":"138","category_name":"家电电子卖场","address":"上海徐汇区漕溪北路41号(近虹桥路)"},{"poiid":"B2094757D068A1FA459E","title":"蛙蟹外传","lon":"121.44201","lat":"31.19065","category":"71","category_name":"四川菜","address":"徐汇区天钥桥路220号(近南丹东路)"},{"poiid":"B2094757D06FA7F4499F","title":"豪厨","lon":"121.44250558","lat":"31.190080646","category":"72","category_name":"广东菜","address":"徐汇区南丹东路118号1楼(近天钥桥路)"},{"poiid":"B2094757D06FABFF4992","title":"天圣酸菜鱼火锅(南丹东路店)","lon":"121.44196","lat":"31.18986","category":"86","category_name":"火锅店","address":"徐汇区南丹东路157号(近天钥桥路)"},{"poiid":"B209475DD36DA3F44792","title":"辣府火锅 徐汇店","lon":"121.442474","lat":"31.190034","category":"247","category_name":"餐饮美食","address":"上海市徐汇区南丹东路108号2楼"},{"poiid":"B2094757D66FA1FE419E","title":"呷铺呷铺","lon":"121.44111858","lat":"31.191994683","category":"247","category_name":"餐饮美食","address":"上海天钥桥路辛耕路"},{"poiid":"B2094654DB6AA3FC449A","title":"金轩大厦","lon":"121.43918","lat":"31.18889","category":"46","category_name":"楼宇","address":"北京西路1028号,江宁路168号"},{"poiid":"B2094757D068A3FE4299","title":"食特美烧肉(徐家汇店)","lon":"121.44232","lat":"31.19044","category":"269","category_name":"烧烤","address":"上海徐汇区天钥桥路214号3楼(近南丹东路)  "},{"poiid":"B2094654DB6BA5F8419F","title":"萨莉亚 徐汇店 Saizeriya","lon":"121.44215200924","lat":"31.189608329","category":"94","category_name":"西餐厅","address":"徐汇区南丹东路108号2楼202室(近天钥桥路)"},{"poiid":"B2094757D068A6F84999","title":"阿玛尼护肤造型中心(天钥桥路店)","lon":"121.441825","lat":"31.191802","category":"148","category_name":"美容美发店","address":"上海徐汇区天钥桥路130号(近辛耕路)"},{"poiid":"B2094757D068ABFA4992","title":"莱诗邸","lon":"121.43973","lat":"31.190178","category":"47","category_name":"住宅区","address":"上海徐汇区南丹东路223弄(近漕溪北路)"},{"poiid":"B2094757D06FA3FE4692","title":"徐家汇百老汇二期","lon":"121.43871964","lat":"31.190653006","category":"138","category_name":"家电电子卖场","address":"上海漕溪北路339号"},{"poiid":"B2094752DA6AABFE4298","title":"弗拉明戈万国手工啤酒餐厅","lon":"121.440231","lat":"31.190414","category":"500","category_name":"未知分类","address":"上海市 上海市徐汇区南丹东路"},{"poiid":"B2094757D069A0FC449A","title":"康骏保健中心(南丹路店)","lon":"121.44","lat":"31.18916","category":"500","category_name":"未知分类","address":"上海徐汇区南丹东路209号  "},{"poiid":"B2094654DA6DA0FB459A","title":"亚历山大瑜珈馆","lon":"121.44171","lat":"31.18898","category":"221","category_name":"健身中心","address":"天钥桥路318"},{"poiid":"B2094757D068A6FF449C","title":"真功夫 漕溪北路店","lon":"121.438867054","lat":"31.192969793","category":"68","category_name":"快餐厅","address":"徐汇区漕溪北路99弄综合楼(近南丹路预计5月23号营业)"},{"poiid":"B2094753D46BA3FE449E","title":"水蜜儿创意甜品店","lon":"121.438652","lat":"31.191101","category":"500","category_name":"未知分类","address":"上海市 上海市漕溪北路339号百脑汇二期B1"},{"poiid":"B2094757D16CA6F54193","title":"はなまる","lon":"121.43872576","lat":"31.191208138","category":"500","category_name":"未知分类","address":"上海美罗城五番街"},{"poiid":"B2094753D765A6F54098","title":"家在塔拉","lon":"121.441993","lat":"31.190996","category":"247","category_name":"餐饮美食","address":"上海市 徐汇区天钥桥路214号4楼"},{"poiid":"B2094750D66DA5FD4692","title":"天圣巫山烤全鱼","lon":"121.438926","lat":"31.189409","category":"247","category_name":"餐饮美食","address":null},{"poiid":"B2094752D368A7FC409D","title":"台塑王品","lon":"121.438644","lat":"31.189725","category":"247","category_name":"餐饮美食","address":null},{"poiid":"B2094750D768A1F9459D","title":"八间","lon":"121.439","lat":"31.1891","category":"95","category_name":"日本料理","address":"徐汇区南丹东路238号新东亚酒店1楼(近天钥桥路)"},{"poiid":"B2094757D064A5F94298","title":"天一日本料理","lon":"121.44207698","lat":"31.191609475","category":"95","category_name":"日本料理","address":"徐汇区天钥桥路133号永新坊B1楼"},{"poiid":"B2094655D26BA2F8469A","title":"天钥桥路辛耕路","lon":"121.44194","lat":"31.19189","category":"38","category_name":"公交车站","address":"上海天钥桥路辛耕路车站"},{"poiid":"B2094753D269ABFD4298","title":"上海老站","lon":"121.438856","lat":"31.189558","category":"500","category_name":"未知分类","address":"上海市 上海市漕溪北路201号"},{"poiid":"B2094752D665A1FB4799","title":"鎌倉ＰＡＳＴＡ","lon":"121.438941","lat":"31.189423","category":"247","category_name":"餐饮美食","address":"徐家汇美罗城五番街"},{"poiid":"B2094750DA6FABFD4593","title":"耶里夏利","lon":"121.438812","lat":"31.189483","category":"247","category_name":"餐饮美食","address":null},{"poiid":"B2094757D068ABF4499F","title":"阿波特西班牙餐厅","lon":"121.442362571","lat":"31.1900596732","category":"94","category_name":"西餐厅","address":"徐汇区南丹东路129号(近天钥桥路)"},{"poiid":"B209475CD769A0FF449F","title":"Pasta Inn","lon":"121.43845470101928","lat":"31.190811237399725","category":"247","category_name":"餐饮美食","address":"上海市徐汇区漕溪北路399号百脑汇二期台北东区B1"},{"poiid":"B2094654DA6DA0FA419B","title":"久隆大厦","lon":"121.44021","lat":"31.18919","category":"46","category_name":"楼宇","address":"朝阳亚运村北炎黄艺术馆旁"},{"poiid":"B2094757D06FA0F4459E","title":"京星港式餐厅","lon":"121.44230377","lat":"31.189875292","category":"72","category_name":"广东菜","address":"徐汇区天钥桥路313号2楼(南丹东路口)"},{"poiid":"B2094757D66EA4F9459D","title":"西堤","lon":"121.43969358","lat":"31.189633637","category":"500","category_name":"未知分类","address":"上海市徐汇区蒲西路"},{"poiid":"B2094757D06EAAFB4599","title":"夏朵西餐厅","lon":"121.44222758","lat":"31.191409672","category":"94","category_name":"西餐厅","address":"徐汇区天钥桥路214号哈尼美食广场3楼(近南丹东路)"},{"poiid":"B2094655D26EA6F94899","title":"德林酸菜鱼(南丹店)","lon":"121.44148","lat":"31.19023","category":"257","category_name":"中餐厅","address":"徐汇区南丹东路157号(近天钥桥路)"},{"poiid":"B2094654DB6AA2FF439B","title":"吴记老锅底麻辣火锅(天钥桥路店)","lon":"121.44203","lat":"31.19098","category":"86","category_name":"火锅店","address":"徐汇区天钥桥路212号(近辛耕路)"},{"poiid":"B2094751DA6DA3FD469F","title":"台湾美食街","lon":"121.438873","lat":"31.190506","category":"91","category_name":"台湾菜","address":"徐汇区漕溪北路333号百脑汇二期5楼(近徐家汇地铁站4、5号出口)"},{"poiid":"B2094757D06FA3FD4692","title":"和记小菜 南丹店","lon":"121.43830584704","lat":"31.188882741901","category":"76","category_name":"上海菜","address":"徐汇区南丹东路188号(近天钥桥路)"},{"poiid":"B2094757D06EAAFD4998","title":"PANKOO釜山料理(天钥桥店)","lon":"121.44188","lat":"31.19158","category":"96","category_name":"韩国料理","address":"上海徐汇区天钥桥路131号永新坊B1楼(近辛耕路)"},{"poiid":"B2094757D06EAAF44999","title":"鲜芋仙(天钥桥路店)","lon":"121.442054686","lat":"31.1897338393","category":"67","category_name":"甜品店","address":"徐汇区天钥桥路307号(南丹东路口)"},{"poiid":"B2094757D06FA3F8459C","title":"上海大饭堂","lon":"121.44217","lat":"31.18985","category":"76","category_name":"上海菜","address":"徐汇区天钥桥路220号(近南丹东路)"},{"poiid":"B2094757D06FA0FA4193","title":"lemon grass 柠檬草泰菜","lon":"121.44238281","lat":"31.191249847","category":"110","category_name":"其他亚洲菜","address":"上海天钥桥路131号永新坊地下一楼06室"},{"poiid":"B2094757D06FA3F5439A","title":"扬歌量贩式KTV(天钥桥路店)","lon":"121.4415","lat":"31.19231","category":"170","category_name":"KTV","address":"徐汇区天钥桥路88号汇联商厦4-5楼(近肇嘉浜路)"},{"poiid":"B2094757DA68ABFA429D","title":"豆捞坊 徐汇店 Dolar Shop","lon":"121.441896054","lat":"31.191227793","category":"86","category_name":"火锅店","address":"徐汇区天钥桥路214号哈尼美食广场4-5楼(近南丹东路)"},{"poiid":"B2094757D06FA1F54693","title":"腾飞广场","lon":"121.44219","lat":"31.19006","category":"119","category_name":"商场","address":"徐汇区天钥桥路333号腾飞大厦内(近南丹东路)"},{"poiid":"B2094757D06FA3FC469E","title":"香辣虾爆爆椒干锅三绝(天钥桥路店)","lon":"121.442201586","lat":"31.1906066563","category":"71","category_name":"四川菜","address":"徐汇区天钥桥路315号3楼(近南丹路口)"},{"poiid":"B2094654DA6DA0FF499C","title":"避风塘 天钥桥路店","lon":"121.442166054","lat":"31.188890793","category":"72","category_name":"广东菜","address":"徐汇区天钥桥路333号腾飞大厦1-2楼(近南丹东路)"},{"poiid":"B2094655D268A1F84193","title":"中金国际广场","lon":"121.4387","lat":"31.19066","category":"46","category_name":"楼宇","address":"崇文区夕照寺大街"},{"poiid":"B2094757D06FA1FE469F","title":"芋贵人(永新坊店)","lon":"121.441357186","lat":"31.1920914853","category":"67","category_name":"甜品店","address":"徐汇区天钥桥路133号永新坊1楼08A店铺"},{"poiid":"B2094757D06FA2FA479A","title":"季诺(徐汇店)","lon":"121.4389","lat":"31.19179","category":"94","category_name":"西餐厅","address":"徐汇区漕溪北路33号2楼(近虹桥路)"},{"poiid":"B2094757D06FA7F8459E","title":"英国屋","lon":"121.4399958","lat":"31.1925024","category":"95","category_name":"日本料理","address":"徐汇区肇嘉浜路1111号美罗城B1楼41号商铺(近漕溪北路)"},{"poiid":"B2094757D06FA3F9479A","title":"太平洋数码广场(一期)","lon":"121.43893","lat":"31.19192","category":"138","category_name":"家电电子卖场","address":"上海徐汇区漕溪北路41号(近虹桥路)"},{"poiid":"B2094757D068A1FA459E","title":"蛙蟹外传","lon":"121.44201","lat":"31.19065","category":"71","category_name":"四川菜","address":"徐汇区天钥桥路220号(近南丹东路)"},{"poiid":"B2094757D06FA7F4499F","title":"豪厨","lon":"121.44250558","lat":"31.190080646","category":"72","category_name":"广东菜","address":"徐汇区南丹东路118号1楼(近天钥桥路)"},{"poiid":"B2094757D06FABFF4992","title":"天圣酸菜鱼火锅(南丹东路店)","lon":"121.44196","lat":"31.18986","category":"86","category_name":"火锅店","address":"徐汇区南丹东路157号(近天钥桥路)"},{"poiid":"B209475DD36DA3F44792","title":"辣府火锅 徐汇店","lon":"121.442474","lat":"31.190034","category":"247","category_name":"餐饮美食","address":"上海市徐汇区南丹东路108号2楼"},{"poiid":"B2094757D66FA1FE419E","title":"呷铺呷铺","lon":"121.44111858","lat":"31.191994683","category":"247","category_name":"餐饮美食","address":"上海天钥桥路辛耕路"},{"poiid":"B2094654DB6AA3FC449A","title":"金轩大厦","lon":"121.43918","lat":"31.18889","category":"46","category_name":"楼宇","address":"北京西路1028号,江宁路168号"},{"poiid":"B2094757D068A3FE4299","title":"食特美烧肉(徐家汇店)","lon":"121.44232","lat":"31.19044","category":"269","category_name":"烧烤","address":"上海徐汇区天钥桥路214号3楼(近南丹东路)  "},{"poiid":"B2094654DB6BA5F8419F","title":"萨莉亚 徐汇店 Saizeriya","lon":"121.44215200924","lat":"31.189608329","category":"94","category_name":"西餐厅","address":"徐汇区南丹东路108号2楼202室(近天钥桥路)"},{"poiid":"B2094757D068A6F84999","title":"阿玛尼护肤造型中心(天钥桥路店)","lon":"121.441825","lat":"31.191802","category":"148","category_name":"美容美发店","address":"上海徐汇区天钥桥路130号(近辛耕路)"},{"poiid":"B2094757D068ABFA4992","title":"莱诗邸","lon":"121.43973","lat":"31.190178","category":"47","category_name":"住宅区","address":"上海徐汇区南丹东路223弄(近漕溪北路)"},{"poiid":"B2094757D06FA3FE4692","title":"徐家汇百老汇二期","lon":"121.43871964","lat":"31.190653006","category":"138","category_name":"家电电子卖场","address":"上海漕溪北路339号"},{"poiid":"B2094752DA6AABFE4298","title":"弗拉明戈万国手工啤酒餐厅","lon":"121.440231","lat":"31.190414","category":"500","category_name":"未知分类","address":"上海市 上海市徐汇区南丹东路"},{"poiid":"B2094757D069A0FC449A","title":"康骏保健中心(南丹路店)","lon":"121.44","lat":"31.18916","category":"500","category_name":"未知分类","address":"上海徐汇区南丹东路209号  "},{"poiid":"B2094654DA6DA0FB459A","title":"亚历山大瑜珈馆","lon":"121.44171","lat":"31.18898","category":"221","category_name":"健身中心","address":"天钥桥路318"},{"poiid":"B2094757D068A6FF449C","title":"真功夫 漕溪北路店","lon":"121.438867054","lat":"31.192969793","category":"68","category_name":"快餐厅","address":"徐汇区漕溪北路99弄综合楼(近南丹路预计5月23号营业)"},{"poiid":"B2094753D46BA3FE449E","title":"水蜜儿创意甜品店","lon":"121.438652","lat":"31.191101","category":"500","category_name":"未知分类","address":"上海市 上海市漕溪北路339号百脑汇二期B1"},{"poiid":"B2094757D16CA6F54193","title":"はなまる","lon":"121.43872576","lat":"31.191208138","category":"500","category_name":"未知分类","address":"上海美罗城五番街"},{"poiid":"B2094753D765A6F54098","title":"家在塔拉","lon":"121.441993","lat":"31.190996","category":"247","category_name":"餐饮美食","address":"上海市 徐汇区天钥桥路214号4楼"},{"poiid":"B2094750D66DA5FD4692","title":"天圣巫山烤全鱼","lon":"121.438926","lat":"31.189409","category":"247","category_name":"餐饮美食","address":null},{"poiid":"B2094752D368A7FC409D","title":"台塑王品","lon":"121.438644","lat":"31.189725","category":"247","category_name":"餐饮美食","address":null},{"poiid":"B2094750D768A1F9459D","title":"八间","lon":"121.439","lat":"31.1891","category":"95","category_name":"日本料理","address":"徐汇区南丹东路238号新东亚酒店1楼(近天钥桥路)"},{"poiid":"B2094757D064A5F94298","title":"天一日本料理","lon":"121.44207698","lat":"31.191609475","category":"95","category_name":"日本料理","address":"徐汇区天钥桥路133号永新坊B1楼"},{"poiid":"B2094655D26BA2F8469A","title":"天钥桥路辛耕路","lon":"121.44194","lat":"31.19189","category":"38","category_name":"公交车站","address":"上海天钥桥路辛耕路车站"},{"poiid":"B2094753D269ABFD4298","title":"上海老站","lon":"121.438856","lat":"31.189558","category":"500","category_name":"未知分类","address":"上海市 上海市漕溪北路201号"},{"poiid":"B2094752D665A1FB4799","title":"鎌倉ＰＡＳＴＡ","lon":"121.438941","lat":"31.189423","category":"247","category_name":"餐饮美食","address":"徐家汇美罗城五番街"},{"poiid":"B2094750DA6FABFD4593","title":"耶里夏利","lon":"121.438812","lat":"31.189483","category":"247","category_name":"餐饮美食","address":null},{"poiid":"B2094757D068ABF4499F","title":"阿波特西班牙餐厅","lon":"121.442362571","lat":"31.1900596732","category":"94","category_name":"西餐厅","address":"徐汇区南丹东路129号(近天钥桥路)"},{"poiid":"B209475CD769A0FF449F","title":"Pasta Inn","lon":"121.43845470101928","lat":"31.190811237399725","category":"247","category_name":"餐饮美食","address":"上海市徐汇区漕溪北路399号百脑汇二期台北东区B1"},{"poiid":"B2094654DA6DA0FA419B","title":"久隆大厦","lon":"121.44021","lat":"31.18919","category":"46","category_name":"楼宇","address":"朝阳亚运村北炎黄艺术馆旁"},{"poiid":"B2094757D06FA0F4459E","title":"京星港式餐厅","lon":"121.44230377","lat":"31.189875292","category":"72","category_name":"广东菜","address":"徐汇区天钥桥路313号2楼(南丹东路口)"},{"poiid":"B2094757D66EA4F9459D","title":"西堤","lon":"121.43969358","lat":"31.189633637","category":"500","category_name":"未知分类","address":"上海市徐汇区蒲西路"},{"poiid":"B2094757D06EAAFB4599","title":"夏朵西餐厅","lon":"121.44222758","lat":"31.191409672","category":"94","category_name":"西餐厅","address":"徐汇区天钥桥路214号哈尼美食广场3楼(近南丹东路)"},{"poiid":"B2094655D26EA6F94899","title":"德林酸菜鱼(南丹店)","lon":"121.44148","lat":"31.19023","category":"257","category_name":"中餐厅","address":"徐汇区南丹东路157号(近天钥桥路)"},{"poiid":"B2094654DB6AA2FF439B","title":"吴记老锅底麻辣火锅(天钥桥路店)","lon":"121.44203","lat":"31.19098","category":"86","category_name":"火锅店","address":"徐汇区天钥桥路212号(近辛耕路)"},{"poiid":"B2094751DA6DA3FD469F","title":"台湾美食街","lon":"121.438873","lat":"31.190506","category":"91","category_name":"台湾菜","address":"徐汇区漕溪北路333号百脑汇二期5楼(近徐家汇地铁站4、5号出口)"},{"poiid":"B2094757D06FA3FD4692","title":"和记小菜 南丹店","lon":"121.43830584704","lat":"31.188882741901","category":"76","category_name":"上海菜","address":"徐汇区南丹东路188号(近天钥桥路)"},{"poiid":"B2094757D06EAAFD4998","title":"PANKOO釜山料理(天钥桥店)","lon":"121.44188","lat":"31.19158","category":"96","category_name":"韩国料理","address":"上海徐汇区天钥桥路131号永新坊B1楼(近辛耕路)"},{"poiid":"B2094757D06EAAF44999","title":"鲜芋仙(天钥桥路店)","lon":"121.442054686","lat":"31.1897338393","category":"67","category_name":"甜品店","address":"徐汇区天钥桥路307号(南丹东路口)"},{"poiid":"B2094757D06FA3F8459C","title":"上海大饭堂","lon":"121.44217","lat":"31.18985","category":"76","category_name":"上海菜","address":"徐汇区天钥桥路220号(近南丹东路)"},{"poiid":"B2094757D06FA0FA4193","title":"lemon grass 柠檬草泰菜","lon":"121.44238281","lat":"31.191249847","category":"110","category_name":"其他亚洲菜","address":"上海天钥桥路131号永新坊地下一楼06室"},{"poiid":"B2094757D06FA3F5439A","title":"扬歌量贩式KTV(天钥桥路店)","lon":"121.4415","lat":"31.19231","category":"170","category_name":"KTV","address":"徐汇区天钥桥路88号汇联商厦4-5楼(近肇嘉浜路)"},{"poiid":"B2094757DA68ABFA429D","title":"豆捞坊 徐汇店 Dolar Shop","lon":"121.441896054","lat":"31.191227793","category":"86","category_name":"火锅店","address":"徐汇区天钥桥路214号哈尼美食广场4-5楼(近南丹东路)"},{"poiid":"B2094757D06FA1F54693","title":"腾飞广场","lon":"121.44219","lat":"31.19006","category":"119","category_name":"商场","address":"徐汇区天钥桥路333号腾飞大厦内(近南丹东路)"},{"poiid":"B2094757D06FA3FC469E","title":"香辣虾爆爆椒干锅三绝(天钥桥路店)","lon":"121.442201586","lat":"31.1906066563","category":"71","category_name":"四川菜","address":"徐汇区天钥桥路315号3楼(近南丹路口)"},{"poiid":"B2094654DA6DA0FF499C","title":"避风塘 天钥桥路店","lon":"121.442166054","lat":"31.188890793","category":"72","category_name":"广东菜","address":"徐汇区天钥桥路333号腾飞大厦1-2楼(近南丹东路)"},{"poiid":"B2094655D268A1F84193","title":"中金国际广场","lon":"121.4387","lat":"31.19066","category":"46","category_name":"楼宇","address":"崇文区夕照寺大街"},{"poiid":"B2094757D06FA1FE469F","title":"芋贵人(永新坊店)","lon":"121.441357186","lat":"31.1920914853","category":"67","category_name":"甜品店","address":"徐汇区天钥桥路133号永新坊1楼08A店铺"},{"poiid":"B2094757D06FA2FA479A","title":"季诺(徐汇店)","lon":"121.4389","lat":"31.19179","category":"94","category_name":"西餐厅","address":"徐汇区漕溪北路33号2楼(近虹桥路)"},{"poiid":"B2094757D06FA7F8459E","title":"英国屋","lon":"121.4399958","lat":"31.1925024","category":"95","category_name":"日本料理","address":"徐汇区肇嘉浜路1111号美罗城B1楼41号商铺(近漕溪北路)"},{"poiid":"B2094757D06FA3F9479A","title":"太平洋数码广场(一期)","lon":"121.43893","lat":"31.19192","category":"138","category_name":"家电电子卖场","address":"上海徐汇区漕溪北路41号(近虹桥路)"},{"poiid":"B2094757D068A1FA459E","title":"蛙蟹外传","lon":"121.44201","lat":"31.19065","category":"71","category_name":"四川菜","address":"徐汇区天钥桥路220号(近南丹东路)"},{"poiid":"B2094757D06FA7F4499F","title":"豪厨","lon":"121.44250558","lat":"31.190080646","category":"72","category_name":"广东菜","address":"徐汇区南丹东路118号1楼(近天钥桥路)"},{"poiid":"B2094757D06FABFF4992","title":"天圣酸菜鱼火锅(南丹东路店)","lon":"121.44196","lat":"31.18986","category":"86","category_name":"火锅店","address":"徐汇区南丹东路157号(近天钥桥路)"},{"poiid":"B209475DD36DA3F44792","title":"辣府火锅 徐汇店","lon":"121.442474","lat":"31.190034","category":"247","category_name":"餐饮美食","address":"上海市徐汇区南丹东路108号2楼"},{"poiid":"B2094757D66FA1FE419E","title":"呷铺呷铺","lon":"121.44111858","lat":"31.191994683","category":"247","category_name":"餐饮美食","address":"上海天钥桥路辛耕路"},{"poiid":"B2094654DB6AA3FC449A","title":"金轩大厦","lon":"121.43918","lat":"31.18889","category":"46","category_name":"楼宇","address":"北京西路1028号,江宁路168号"},{"poiid":"B2094757D068A3FE4299","title":"食特美烧肉(徐家汇店)","lon":"121.44232","lat":"31.19044","category":"269","category_name":"烧烤","address":"上海徐汇区天钥桥路214号3楼(近南丹东路)  "},{"poiid":"B2094654DB6BA5F8419F","title":"萨莉亚 徐汇店 Saizeriya","lon":"121.44215200924","lat":"31.189608329","category":"94","category_name":"西餐厅","address":"徐汇区南丹东路108号2楼202室(近天钥桥路)"},{"poiid":"B2094757D068A6F84999","title":"阿玛尼护肤造型中心(天钥桥路店)","lon":"121.441825","lat":"31.191802","category":"148","category_name":"美容美发店","address":"上海徐汇区天钥桥路130号(近辛耕路)"},{"poiid":"B2094757D068ABFA4992","title":"莱诗邸","lon":"121.43973","lat":"31.190178","category":"47","category_name":"住宅区","address":"上海徐汇区南丹东路223弄(近漕溪北路)"},{"poiid":"B2094757D06FA3FE4692","title":"徐家汇百老汇二期","lon":"121.43871964","lat":"31.190653006","category":"138","category_name":"家电电子卖场","address":"上海漕溪北路339号"},{"poiid":"B2094752DA6AABFE4298","title":"弗拉明戈万国手工啤酒餐厅","lon":"121.440231","lat":"31.190414","category":"500","category_name":"未知分类","address":"上海市 上海市徐汇区南丹东路"},{"poiid":"B2094757D069A0FC449A","title":"康骏保健中心(南丹路店)","lon":"121.44","lat":"31.18916","category":"500","category_name":"未知分类","address":"上海徐汇区南丹东路209号  "},{"poiid":"B2094654DA6DA0FB459A","title":"亚历山大瑜珈馆","lon":"121.44171","lat":"31.18898","category":"221","category_name":"健身中心","address":"天钥桥路318"},{"poiid":"B2094757D068A6FF449C","title":"真功夫 漕溪北路店","lon":"121.438867054","lat":"31.192969793","category":"68","category_name":"快餐厅","address":"徐汇区漕溪北路99弄综合楼(近南丹路预计5月23号营业)"},{"poiid":"B2094753D46BA3FE449E","title":"水蜜儿创意甜品店","lon":"121.438652","lat":"31.191101","category":"500","category_name":"未知分类","address":"上海市 上海市漕溪北路339号百脑汇二期B1"},{"poiid":"B2094757D16CA6F54193","title":"はなまる","lon":"121.43872576","lat":"31.191208138","category":"500","category_name":"未知分类","address":"上海美罗城五番街"},{"poiid":"B2094753D765A6F54098","title":"家在塔拉","lon":"121.441993","lat":"31.190996","category":"247","category_name":"餐饮美食","address":"上海市 徐汇区天钥桥路214号4楼"},{"poiid":"B2094750D66DA5FD4692","title":"天圣巫山烤全鱼","lon":"121.438926","lat":"31.189409","category":"247","category_name":"餐饮美食","address":null},{"poiid":"B2094752D368A7FC409D","title":"台塑王品","lon":"121.438644","lat":"31.189725","category":"247","category_name":"餐饮美食","address":null},{"poiid":"B2094750D768A1F9459D","title":"八间","lon":"121.439","lat":"31.1891","category":"95","category_name":"日本料理","address":"徐汇区南丹东路238号新东亚酒店1楼(近天钥桥路)"},{"poiid":"B2094757D064A5F94298","title":"天一日本料理","lon":"121.44207698","lat":"31.191609475","category":"95","category_name":"日本料理","address":"徐汇区天钥桥路133号永新坊B1楼"},{"poiid":"B2094655D26BA2F8469A","title":"天钥桥路辛耕路","lon":"121.44194","lat":"31.19189","category":"38","category_name":"公交车站","address":"上海天钥桥路辛耕路车站"},{"poiid":"B2094753D269ABFD4298","title":"上海老站","lon":"121.438856","lat":"31.189558","category":"500","category_name":"未知分类","address":"上海市 上海市漕溪北路201号"},{"poiid":"B2094752D665A1FB4799","title":"鎌倉ＰＡＳＴＡ","lon":"121.438941","lat":"31.189423","category":"247","category_name":"餐饮美食","address":"徐家汇美罗城五番街"},{"poiid":"B2094750DA6FABFD4593","title":"耶里夏利","lon":"121.438812","lat":"31.189483","category":"247","category_name":"餐饮美食","address":null},{"poiid":"B2094757D068ABF4499F","title":"阿波特西班牙餐厅","lon":"121.442362571","lat":"31.1900596732","category":"94","category_name":"西餐厅","address":"徐汇区南丹东路129号(近天钥桥路)"},{"poiid":"B209475CD769A0FF449F","title":"Pasta Inn","lon":"121.43845470101928","lat":"31.190811237399725","category":"247","category_name":"餐饮美食","address":"上海市徐汇区漕溪北路399号百脑汇二期台北东区B1"},{"poiid":"B2094654DA6DA0FA419B","title":"久隆大厦","lon":"121.44021","lat":"31.18919","category":"46","category_name":"楼宇","address":"朝阳亚运村北炎黄艺术馆旁"},{"poiid":"B2094757D06FA0F4459E","title":"京星港式餐厅","lon":"121.44230377","lat":"31.189875292","category":"72","category_name":"广东菜","address":"徐汇区天钥桥路313号2楼(南丹东路口)"},{"poiid":"B2094757D66EA4F9459D","title":"西堤","lon":"121.43969358","lat":"31.189633637","category":"500","category_name":"未知分类","address":"上海市徐汇区蒲西路"}]