[{"poiid":"B2094753DB6DA2FF4792","title":"稻香(iapm店)","lon":"121.458999","lat":"31.215892","category":"247","category_name":"餐饮美食","address":"卢湾区淮海中路999号环贸IAPM商场三层301号铺"},{"poiid":"B2094654DA6EA2FA459D","title":"博多新记 复兴店","lon":"121.4576526721","lat":"31.21277515026","category":"72","category_name":"广东菜","address":"徐汇区复兴中路1252弄15号2楼(近襄阳南路)"},{"poiid":"B2094757D06EAAFB4093","title":"陕西南路地铁站","lon":"121.45824382","lat":"31.215062494","category":"36","category_name":"地铁站","address":"上海轨道交通 一号线 十号线 轨交陕西南路站 1 10"},{"poiid":"B2094753D76FAAFA449C","title":"上海滩国泰旗舰店","lon":"121.466011","lat":"31.216125","category":"249","category_name":"购物服务","address":"淮海中路868号"},{"poiid":"B209475CD564A7F84292","title":"上海滩新天地店","lon":"121.47463","lat":"31.22164","category":"119","category_name":"商场","address":"\"太仓路181弄新天地北里15号\r\n\""},{"poiid":"B209475CD564A7F8439E","title":"上海滩中信泰富店","lon":"121.45602","lat":"31.22851","category":"119","category_name":"商场","address":"\"南京西路1168号中信泰富广场，店铺号221.\r\n\""},{"poiid":"B2094757D06FA1FC419E","title":"小桥流水精菜坊(淮海路店)","lon":"121.45936","lat":"31.21639","category":"76","category_name":"上海菜","address":"卢湾区淮海中路923号2-3楼(百盛对面)"},{"poiid":"B2094751DA6CA1FB4298","title":"Baker One","lon":"121.45824","lat":"31.21444","category":"67","category_name":"甜品店","address":"卢湾区南昌路559号1楼(近襄阳南路)"},{"poiid":"B2094757D06FA6FD4198","title":"山间堂民间瓦缸煨汤(淮海店)","lon":"121.45814","lat":"31.21621","category":"260","category_name":"其他","address":"徐汇区淮海中路1008号2楼(近襄阳北路)"},{"poiid":"B2094654DA6EA1FE499F","title":"竹屋川菜","lon":"121.46006400887","lat":"31.214710755142","category":"71","category_name":"四川菜","address":"卢湾区陕西南路145-3号(南昌路口)"},{"poiid":"B2094751D26AA3F5449D","title":"掌上韩品","lon":"121.459297","lat":"31.215394","category":"96","category_name":"韩国料理","address":"卢湾区陕西南路145号(近南昌路)"},{"poiid":"B2094753DA6FAAFF469B","title":"iapm","lon":"121.458961","lat":"31.216442","category":"500","category_name":"未知分类","address":"上海市 淮海路陕西路"},{"poiid":"B2094750D76FA3FB4698","title":"滩悦(淮海路店)","lon":"121.457","lat":"31.2143","category":"76","category_name":"上海菜","address":"卢湾区襄阳南路102号3楼(近南昌路)"},{"poiid":"B2094750D768A6FA4899","title":"林记小馆(襄阳南路店)","lon":"121.457","lat":"31.2143","category":"72","category_name":"广东菜","address":"徐汇区襄阳南路102号(近淮海路)"},{"poiid":"B2094757D06FA2F44699","title":"康师傅私房牛肉面(淮海中路店)","lon":"121.45862","lat":"31.21636","category":"68","category_name":"快餐厅","address":"徐汇区淮海中路988号黄金商厦2楼(近陕西南路)"},{"poiid":"B209475CD664A0FA4398","title":"Stay Real Cafe by GABEE","lon":"121.457015","lat":"31.215112","category":"500","category_name":"未知分类","address":"上海市 iapm lg2-246"},{"poiid":"B209475CD76AAAF9409E","title":"甜兮兮","lon":"121.459022","lat":"31.216119","category":"500","category_name":"未知分类","address":"上海市 环茂广场LG2"},{"poiid":"B2094757D065A3F84698","title":"虹桥火车站A16检票口","lon":"121.45851925","lat":"31.214354796","category":"22","category_name":"火车站","address":"上海虹桥火车站"},{"poiid":"B2094753DA65ABFF4892","title":"香港稻香","lon":"121.457664","lat":"31.215404","category":"247","category_name":"餐饮美食","address":"上海市 上海市淮海中路999號APM商場3樓301室"},{"poiid":"B2094655D36DA6FE439B","title":"陕西南路","lon":"121.45822","lat":"31.2151","category":"38","category_name":"公交车站","address":""},{"poiid":"B2094750D76CAAFE4298","title":"拿渡麻辣香锅(淮海路巴黎春天店)","lon":"121.459","lat":"31.2167","category":"71","category_name":"四川菜","address":"卢湾区淮海中路939号巴黎春天内(近陕西南路)"},{"poiid":"B2094757D06FA2F54798","title":"陕西南路复兴中路口","lon":"121.459220886","lat":"31.2131328583","category":"260","category_name":"其他","address":"上海陕西南路复兴中路口"},{"poiid":"B2094757D068A2FA4099","title":"巨鹿路","lon":"121.46028137","lat":"31.215452194","category":"260","category_name":"其他","address":"上海卢湾区巨鹿路"},{"poiid":"B209475CDB6BA0FA479D","title":"甜兮兮 | Sweet CC","lon":"121.457908","lat":"31.215703","category":"500","category_name":"未知分类","address":"上海市 iapm环贸商城LG2层236商铺"},{"poiid":"B2094750D76FA1FE429B","title":"咔喱咖喱(淮海店)","lon":"121.459","lat":"31.2167","category":"95","category_name":"日本料理","address":"卢湾区淮海中路939号巴黎春天内(近陕西南路)"},{"poiid":"B2094750DA6EA4FB4398","title":"徐汇中心医院","lon":"121.458412","lat":"31.216621","category":"162","category_name":"医院","address":"淮海中路966号"},{"poiid":"B2094750D76EA5FC4693","title":"小杨生煎(淮海中路店)","lon":"121.459","lat":"31.2167","category":"68","category_name":"快餐厅","address":"卢湾区淮海中路939号巴黎春天内(近陕西南路)"},{"poiid":"B209475CD364ABFF4399","title":"上海环贸广场iapm","lon":"121.457824","lat":"31.215875","category":"500","category_name":"未知分类","address":"上海市 上海市徐汇区淮海中路"},{"poiid":"B209475CD169A2FD4098","title":"成隆行蟹王府","lon":"121.457008","lat":"31.215003","category":"247","category_name":"餐饮美食","address":"上海市 汾阳路1号"},{"poiid":"B209475CD465A0F4419D","title":"麵屋武藏","lon":"121.457809","lat":"31.215791","category":"500","category_name":"未知分类","address":"上海市 淮海中路999号iapm"},{"poiid":"B2094753D26AAAF44893","title":"大咀茶餐厅","lon":"121.45771","lat":"31.214161","category":"500","category_name":"未知分类","address":"上海市 陕西南路117号5楼"},{"poiid":"B2094753DA65ABF44892","title":"无印良品环贸iapm旗舰店","lon":"121.458007","lat":"31.21507","category":"500","category_name":"未知分类","address":"上海市 上海市徐汇区淮海中路999号上海环贸广场 3F"},{"poiid":"B2094757D16DA2FA419A","title":"淮海坊","lon":"121.46008","lat":"31.216351","category":"47","category_name":"住宅区","address":"淮海中路925弄11-15号,927弄1-146号"},{"poiid":"B2094757D06FA5FA479A","title":"吉野家(陕西南路店)","lon":"121.46013","lat":"31.2152","category":"95","category_name":"日本料理","address":"卢湾区陕西南路141号(近南昌路)"},{"poiid":"B209475CD76FA1FD489B","title":"STAGE 上海iapm","lon":"121.457992","lat":"31.214294","category":"500","category_name":"未知分类","address":"上海市 上海市淮海中路環貿廣場IAPM LG2-273~275"},{"poiid":"B209475CD768A2FA439B","title":"stay real café","lon":"121.457015","lat":"31.215112","category":"500","category_name":"未知分类","address":"上海市 环贸广场 iapm"},{"poiid":"B209475DD46BA3FB4998","title":"查厘士港式茶餐厅","lon":"121.45861","lat":"31.216394","category":"247","category_name":"餐饮美食","address":"上海市 iapm对面"},{"poiid":"B2094753DB64ABF44699","title":"Greyhound Café","lon":"121.457822","lat":"31.215891","category":"99","category_name":"泰国／越南菜品餐厅","address":"上海市徐汇区淮海中路999号环贸iapm商场L5-503室"},{"poiid":"B2094757D06FA7F5419D","title":"85度C(陕西南路店)","lon":"121.459662648","lat":"31.2157876213","category":"112","category_name":"糕饼店","address":"卢湾区陕西南路141号(近巴黎春天淮海店)"},{"poiid":"B209475CD464A3FC4493","title":"Apple Store 淮海路iapm店","lon":"121.457527","lat":"31.216035","category":"500","category_name":"未知分类","address":"上海市 徐汇区淮海中路999号"},{"poiid":"B2094757D468ABFC419C","title":"吴越人家面馆 陕西南路店","lon":"121.459669","lat":"31.215655","category":"68","category_name":"快餐厅","address":"卢湾区陕西南路141号2楼(近南昌路)"},{"poiid":"B2094751DA6DA0FF4293","title":"Quinn\\'s cafe 晴咖啡","lon":"121.460342","lat":"31.213989","category":"247","category_name":"餐饮美食","address":"上海市陕西南路165号"},{"poiid":"B2094757D768A4FE449B","title":"老娘舅 淮海中路店","lon":"121.458253054","lat":"31.216596793","category":"68","category_name":"快餐厅","address":"徐汇区淮海中路988号黄金世界商厦1楼(近陕西南路)"},{"poiid":"B2094750D66EA5FE4893","title":"OPA","lon":"121.459159","lat":"31.216171","category":"627","category_name":"一般地点标志","address":"卢湾区淮海中路900号"},{"poiid":"B2094757D06AA0F94492","title":"新吉柯德土菜馆","lon":"121.460006","lat":"31.214986","category":"247","category_name":"餐饮美食","address":"上海陕西南路145号"},{"poiid":"B2094753DA64A6F84398","title":"大咀港式茶餐厅","lon":"121.460014","lat":"31.215612","category":"500","category_name":"未知分类","address":"上海市 陕西南路117号5楼"},{"poiid":"B2094655D36CA0F54192","title":"淮海中路陕西南路","lon":"121.45852","lat":"31.21658","category":"38","category_name":"公交车站","address":""},{"poiid":"B2094757D06AA1FB479C","title":"陋室汤包","lon":"121.45783","lat":"31.21405","category":"68","category_name":"快餐厅","address":"卢湾区南昌路601号(近襄阳南路)"},{"poiid":"B2094750D464A6F84193","title":"Grace Studio","lon":"121.460456","lat":"31.215869","category":"248","category_name":"生活娱乐","address":"淮海中路927弄淮海坊93号"},{"poiid":"B209475CD664A1FF4198","title":"STAYREAL CAFÉ","lon":"121.45903","lat":"31.216117","category":"500","category_name":"未知分类","address":"上海市 淮海中路999号环贸广场"},{"poiid":"B2094753DB6DA2FF4792","title":"稻香(iapm店)","lon":"121.458999","lat":"31.215892","category":"247","category_name":"餐饮美食","address":"卢湾区淮海中路999号环贸IAPM商场三层301号铺"},{"poiid":"B2094654DA6EA2FA459D","title":"博多新记 复兴店","lon":"121.4576526721","lat":"31.21277515026","category":"72","category_name":"广东菜","address":"徐汇区复兴中路1252弄15号2楼(近襄阳南路)"},{"poiid":"B2094757D06EAAFB4093","title":"陕西南路地铁站","lon":"121.45824382","lat":"31.215062494","category":"36","category_name":"地铁站","address":"上海轨道交通 一号线 十号线 轨交陕西南路站 1 10"},{"poiid":"B2094753D76FAAFA449C","title":"上海滩国泰旗舰店","lon":"121.466011","lat":"31.216125","category":"249","category_name":"购物服务","address":"淮海中路868号"},{"poiid":"B209475CD564A7F84292","title":"上海滩新天地店","lon":"121.47463","lat":"31.22164","category":"119","category_name":"商场","address":"\"太仓路181弄新天地北里15号\r\n\""},{"poiid":"B209475CD564A7F8439E","title":"上海滩中信泰富店","lon":"121.45602","lat":"31.22851","category":"119","category_name":"商场","address":"\"南京西路1168号中信泰富广场，店铺号221.\r\n\""},{"poiid":"B2094757D06FA1FC419E","title":"小桥流水精菜坊(淮海路店)","lon":"121.45936","lat":"31.21639","category":"76","category_name":"上海菜","address":"卢湾区淮海中路923号2-3楼(百盛对面)"},{"poiid":"B2094751DA6CA1FB4298","title":"Baker One","lon":"121.45824","lat":"31.21444","category":"67","category_name":"甜品店","address":"卢湾区南昌路559号1楼(近襄阳南路)"},{"poiid":"B2094757D06FA6FD4198","title":"山间堂民间瓦缸煨汤(淮海店)","lon":"121.45814","lat":"31.21621","category":"260","category_name":"其他","address":"徐汇区淮海中路1008号2楼(近襄阳北路)"},{"poiid":"B2094654DA6EA1FE499F","title":"竹屋川菜","lon":"121.46006400887","lat":"31.214710755142","category":"71","category_name":"四川菜","address":"卢湾区陕西南路145-3号(南昌路口)"},{"poiid":"B2094751D26AA3F5449D","title":"掌上韩品","lon":"121.459297","lat":"31.215394","category":"96","category_name":"韩国料理","address":"卢湾区陕西南路145号(近南昌路)"},{"poiid":"B2094753DA6FAAFF469B","title":"iapm","lon":"121.458961","lat":"31.216442","category":"500","category_name":"未知分类","address":"上海市 淮海路陕西路"},{"poiid":"B2094750D76FA3FB4698","title":"滩悦(淮海路店)","lon":"121.457","lat":"31.2143","category":"76","category_name":"上海菜","address":"卢湾区襄阳南路102号3楼(近南昌路)"},{"poiid":"B2094750D768A6FA4899","title":"林记小馆(襄阳南路店)","lon":"121.457","lat":"31.2143","category":"72","category_name":"广东菜","address":"徐汇区襄阳南路102号(近淮海路)"},{"poiid":"B2094757D06FA2F44699","title":"康师傅私房牛肉面(淮海中路店)","lon":"121.45862","lat":"31.21636","category":"68","category_name":"快餐厅","address":"徐汇区淮海中路988号黄金商厦2楼(近陕西南路)"},{"poiid":"B209475CD664A0FA4398","title":"Stay Real Cafe by GABEE","lon":"121.457015","lat":"31.215112","category":"500","category_name":"未知分类","address":"上海市 iapm lg2-246"},{"poiid":"B209475CD76AAAF9409E","title":"甜兮兮","lon":"121.459022","lat":"31.216119","category":"500","category_name":"未知分类","address":"上海市 环茂广场LG2"},{"poiid":"B2094757D065A3F84698","title":"虹桥火车站A16检票口","lon":"121.45851925","lat":"31.214354796","category":"22","category_name":"火车站","address":"上海虹桥火车站"},{"poiid":"B2094753DA65ABFF4892","title":"香港稻香","lon":"121.457664","lat":"31.215404","category":"247","category_name":"餐饮美食","address":"上海市 上海市淮海中路999號APM商場3樓301室"},{"poiid":"B2094655D36DA6FE439B","title":"陕西南路","lon":"121.45822","lat":"31.2151","category":"38","category_name":"公交车站","address":""},{"poiid":"B2094750D76CAAFE4298","title":"拿渡麻辣香锅(淮海路巴黎春天店)","lon":"121.459","lat":"31.2167","category":"71","category_name":"四川菜","address":"卢湾区淮海中路939号巴黎春天内(近陕西南路)"},{"poiid":"B2094757D06FA2F54798","title":"陕西南路复兴中路口","lon":"121.459220886","lat":"31.2131328583","category":"260","category_name":"其他","address":"上海陕西南路复兴中路口"},{"poiid":"B2094757D068A2FA4099","title":"巨鹿路","lon":"121.46028137","lat":"31.215452194","category":"260","category_name":"其他","address":"上海卢湾区巨鹿路"},{"poiid":"B209475CDB6BA0FA479D","title":"甜兮兮 | Sweet CC","lon":"121.457908","lat":"31.215703","category":"500","category_name":"未知分类","address":"上海市 iapm环贸商城LG2层236商铺"},{"poiid":"B2094750D76FA1FE429B","title":"咔喱咖喱(淮海店)","lon":"121.459","lat":"31.2167","category":"95","category_name":"日本料理","address":"卢湾区淮海中路939号巴黎春天内(近陕西南路)"},{"poiid":"B2094750DA6EA4FB4398","title":"徐汇中心医院","lon":"121.458412","lat":"31.216621","category":"162","category_name":"医院","address":"淮海中路966号"},{"poiid":"B2094750D76EA5FC4693","title":"小杨生煎(淮海中路店)","lon":"121.459","lat":"31.2167","category":"68","category_name":"快餐厅","address":"卢湾区淮海中路939号巴黎春天内(近陕西南路)"},{"poiid":"B209475CD364ABFF4399","title":"上海环贸广场iapm","lon":"121.457824","lat":"31.215875","category":"500","category_name":"未知分类","address":"上海市 上海市徐汇区淮海中路"},{"poiid":"B209475CD169A2FD4098","title":"成隆行蟹王府","lon":"121.457008","lat":"31.215003","category":"247","category_name":"餐饮美食","address":"上海市 汾阳路1号"},{"poiid":"B209475CD465A0F4419D","title":"麵屋武藏","lon":"121.457809","lat":"31.215791","category":"500","category_name":"未知分类","address":"上海市 淮海中路999号iapm"},{"poiid":"B2094753D26AAAF44893","title":"大咀茶餐厅","lon":"121.45771","lat":"31.214161","category":"500","category_name":"未知分类","address":"上海市 陕西南路117号5楼"},{"poiid":"B2094753DA65ABF44892","title":"无印良品环贸iapm旗舰店","lon":"121.458007","lat":"31.21507","category":"500","category_name":"未知分类","address":"上海市 上海市徐汇区淮海中路999号上海环贸广场 3F"},{"poiid":"B2094757D16DA2FA419A","title":"淮海坊","lon":"121.46008","lat":"31.216351","category":"47","category_name":"住宅区","address":"淮海中路925弄11-15号,927弄1-146号"},{"poiid":"B2094757D06FA5FA479A","title":"吉野家(陕西南路店)","lon":"121.46013","lat":"31.2152","category":"95","category_name":"日本料理","address":"卢湾区陕西南路141号(近南昌路)"},{"poiid":"B209475CD76FA1FD489B","title":"STAGE 上海iapm","lon":"121.457992","lat":"31.214294","category":"500","category_name":"未知分类","address":"上海市 上海市淮海中路環貿廣場IAPM LG2-273~275"},{"poiid":"B209475CD768A2FA439B","title":"stay real café","lon":"121.457015","lat":"31.215112","category":"500","category_name":"未知分类","address":"上海市 环贸广场 iapm"},{"poiid":"B209475DD46BA3FB4998","title":"查厘士港式茶餐厅","lon":"121.45861","lat":"31.216394","category":"247","category_name":"餐饮美食","address":"上海市 iapm对面"},{"poiid":"B2094753DB64ABF44699","title":"Greyhound Café","lon":"121.457822","lat":"31.215891","category":"99","category_name":"泰国／越南菜品餐厅","address":"上海市徐汇区淮海中路999号环贸iapm商场L5-503室"},{"poiid":"B2094757D06FA7F5419D","title":"85度C(陕西南路店)","lon":"121.459662648","lat":"31.2157876213","category":"112","category_name":"糕饼店","address":"卢湾区陕西南路141号(近巴黎春天淮海店)"},{"poiid":"B209475CD464A3FC4493","title":"Apple Store 淮海路iapm店","lon":"121.457527","lat":"31.216035","category":"500","category_name":"未知分类","address":"上海市 徐汇区淮海中路999号"},{"poiid":"B2094757D468ABFC419C","title":"吴越人家面馆 陕西南路店","lon":"121.459669","lat":"31.215655","category":"68","category_name":"快餐厅","address":"卢湾区陕西南路141号2楼(近南昌路)"},{"poiid":"B2094751DA6DA0FF4293","title":"Quinn\\'s cafe 晴咖啡","lon":"121.460342","lat":"31.213989","category":"247","category_name":"餐饮美食","address":"上海市陕西南路165号"},{"poiid":"B2094757D768A4FE449B","title":"老娘舅 淮海中路店","lon":"121.458253054","lat":"31.216596793","category":"68","category_name":"快餐厅","address":"徐汇区淮海中路988号黄金世界商厦1楼(近陕西南路)"},{"poiid":"B2094750D66EA5FE4893","title":"OPA","lon":"121.459159","lat":"31.216171","category":"627","category_name":"一般地点标志","address":"卢湾区淮海中路900号"},{"poiid":"B2094757D06AA0F94492","title":"新吉柯德土菜馆","lon":"121.460006","lat":"31.214986","category":"247","category_name":"餐饮美食","address":"上海陕西南路145号"},{"poiid":"B2094753DA64A6F84398","title":"大咀港式茶餐厅","lon":"121.460014","lat":"31.215612","category":"500","category_name":"未知分类","address":"上海市 陕西南路117号5楼"},{"poiid":"B2094655D36CA0F54192","title":"淮海中路陕西南路","lon":"121.45852","lat":"31.21658","category":"38","category_name":"公交车站","address":""},{"poiid":"B2094757D06AA1FB479C","title":"陋室汤包","lon":"121.45783","lat":"31.21405","category":"68","category_name":"快餐厅","address":"卢湾区南昌路601号(近襄阳南路)"},{"poiid":"B2094750D464A6F84193","title":"Grace Studio","lon":"121.460456","lat":"31.215869","category":"248","category_name":"生活娱乐","address":"淮海中路927弄淮海坊93号"},{"poiid":"B209475CD664A1FF4198","title":"STAYREAL CAFÉ","lon":"121.45903","lat":"31.216117","category":"500","category_name":"未知分类","address":"上海市 淮海中路999号环贸广场"},{"poiid":"B2094753DB6DA2FF4792","title":"稻香(iapm店)","lon":"121.458999","lat":"31.215892","category":"247","category_name":"餐饮美食","address":"卢湾区淮海中路999号环贸IAPM商场三层301号铺"},{"poiid":"B2094654DA6EA2FA459D","title":"博多新记 复兴店","lon":"121.4576526721","lat":"31.21277515026","category":"72","category_name":"广东菜","address":"徐汇区复兴中路1252弄15号2楼(近襄阳南路)"},{"poiid":"B2094757D06EAAFB4093","title":"陕西南路地铁站","lon":"121.45824382","lat":"31.215062494","category":"36","category_name":"地铁站","address":"上海轨道交通 一号线 十号线 轨交陕西南路站 1 10"},{"poiid":"B2094753D76FAAFA449C","title":"上海滩国泰旗舰店","lon":"121.466011","lat":"31.216125","category":"249","category_name":"购物服务","address":"淮海中路868号"},{"poiid":"B209475CD564A7F84292","title":"上海滩新天地店","lon":"121.47463","lat":"31.22164","category":"119","category_name":"商场","address":"\"太仓路181弄新天地北里15号\r\n\""},{"poiid":"B209475CD564A7F8439E","title":"上海滩中信泰富店","lon":"121.45602","lat":"31.22851","category":"119","category_name":"商场","address":"\"南京西路1168号中信泰富广场，店铺号221.\r\n\""},{"poiid":"B2094757D06FA1FC419E","title":"小桥流水精菜坊(淮海路店)","lon":"121.45936","lat":"31.21639","category":"76","category_name":"上海菜","address":"卢湾区淮海中路923号2-3楼(百盛对面)"},{"poiid":"B2094751DA6CA1FB4298","title":"Baker One","lon":"121.45824","lat":"31.21444","category":"67","category_name":"甜品店","address":"卢湾区南昌路559号1楼(近襄阳南路)"},{"poiid":"B2094757D06FA6FD4198","title":"山间堂民间瓦缸煨汤(淮海店)","lon":"121.45814","lat":"31.21621","category":"260","category_name":"其他","address":"徐汇区淮海中路1008号2楼(近襄阳北路)"},{"poiid":"B2094654DA6EA1FE499F","title":"竹屋川菜","lon":"121.46006400887","lat":"31.214710755142","category":"71","category_name":"四川菜","address":"卢湾区陕西南路145-3号(南昌路口)"},{"poiid":"B2094751D26AA3F5449D","title":"掌上韩品","lon":"121.459297","lat":"31.215394","category":"96","category_name":"韩国料理","address":"卢湾区陕西南路145号(近南昌路)"},{"poiid":"B2094753DA6FAAFF469B","title":"iapm","lon":"121.458961","lat":"31.216442","category":"500","category_name":"未知分类","address":"上海市 淮海路陕西路"},{"poiid":"B2094750D76FA3FB4698","title":"滩悦(淮海路店)","lon":"121.457","lat":"31.2143","category":"76","category_name":"上海菜","address":"卢湾区襄阳南路102号3楼(近南昌路)"},{"poiid":"B2094750D768A6FA4899","title":"林记小馆(襄阳南路店)","lon":"121.457","lat":"31.2143","category":"72","category_name":"广东菜","address":"徐汇区襄阳南路102号(近淮海路)"},{"poiid":"B2094757D06FA2F44699","title":"康师傅私房牛肉面(淮海中路店)","lon":"121.45862","lat":"31.21636","category":"68","category_name":"快餐厅","address":"徐汇区淮海中路988号黄金商厦2楼(近陕西南路)"},{"poiid":"B209475CD664A0FA4398","title":"Stay Real Cafe by GABEE","lon":"121.457015","lat":"31.215112","category":"500","category_name":"未知分类","address":"上海市 iapm lg2-246"},{"poiid":"B209475CD76AAAF9409E","title":"甜兮兮","lon":"121.459022","lat":"31.216119","category":"500","category_name":"未知分类","address":"上海市 环茂广场LG2"},{"poiid":"B2094757D065A3F84698","title":"虹桥火车站A16检票口","lon":"121.45851925","lat":"31.214354796","category":"22","category_name":"火车站","address":"上海虹桥火车站"},{"poiid":"B2094753DA65ABFF4892","title":"香港稻香","lon":"121.457664","lat":"31.215404","category":"247","category_name":"餐饮美食","address":"上海市 上海市淮海中路999號APM商場3樓301室"},{"poiid":"B2094655D36DA6FE439B","title":"陕西南路","lon":"121.45822","lat":"31.2151","category":"38","category_name":"公交车站","address":""},{"poiid":"B2094750D76CAAFE4298","title":"拿渡麻辣香锅(淮海路巴黎春天店)","lon":"121.459","lat":"31.2167","category":"71","category_name":"四川菜","address":"卢湾区淮海中路939号巴黎春天内(近陕西南路)"},{"poiid":"B2094757D06FA2F54798","title":"陕西南路复兴中路口","lon":"121.459220886","lat":"31.2131328583","category":"260","category_name":"其他","address":"上海陕西南路复兴中路口"},{"poiid":"B2094757D068A2FA4099","title":"巨鹿路","lon":"121.46028137","lat":"31.215452194","category":"260","category_name":"其他","address":"上海卢湾区巨鹿路"},{"poiid":"B209475CDB6BA0FA479D","title":"甜兮兮 | Sweet CC","lon":"121.457908","lat":"31.215703","category":"500","category_name":"未知分类","address":"上海市 iapm环贸商城LG2层236商铺"},{"poiid":"B2094750D76FA1FE429B","title":"咔喱咖喱(淮海店)","lon":"121.459","lat":"31.2167","category":"95","category_name":"日本料理","address":"卢湾区淮海中路939号巴黎春天内(近陕西南路)"},{"poiid":"B2094750DA6EA4FB4398","title":"徐汇中心医院","lon":"121.458412","lat":"31.216621","category":"162","category_name":"医院","address":"淮海中路966号"},{"poiid":"B2094750D76EA5FC4693","title":"小杨生煎(淮海中路店)","lon":"121.459","lat":"31.2167","category":"68","category_name":"快餐厅","address":"卢湾区淮海中路939号巴黎春天内(近陕西南路)"},{"poiid":"B209475CD364ABFF4399","title":"上海环贸广场iapm","lon":"121.457824","lat":"31.215875","category":"500","category_name":"未知分类","address":"上海市 上海市徐汇区淮海中路"},{"poiid":"B209475CD169A2FD4098","title":"成隆行蟹王府","lon":"121.457008","lat":"31.215003","category":"247","category_name":"餐饮美食","address":"上海市 汾阳路1号"},{"poiid":"B209475CD465A0F4419D","title":"麵屋武藏","lon":"121.457809","lat":"31.215791","category":"500","category_name":"未知分类","address":"上海市 淮海中路999号iapm"},{"poiid":"B2094753D26AAAF44893","title":"大咀茶餐厅","lon":"121.45771","lat":"31.214161","category":"500","category_name":"未知分类","address":"上海市 陕西南路117号5楼"},{"poiid":"B2094753DA65ABF44892","title":"无印良品环贸iapm旗舰店","lon":"121.458007","lat":"31.21507","category":"500","category_name":"未知分类","address":"上海市 上海市徐汇区淮海中路999号上海环贸广场 3F"},{"poiid":"B2094757D16DA2FA419A","title":"淮海坊","lon":"121.46008","lat":"31.216351","category":"47","category_name":"住宅区","address":"淮海中路925弄11-15号,927弄1-146号"},{"poiid":"B2094757D06FA5FA479A","title":"吉野家(陕西南路店)","lon":"121.46013","lat":"31.2152","category":"95","category_name":"日本料理","address":"卢湾区陕西南路141号(近南昌路)"},{"poiid":"B209475CD76FA1FD489B","title":"STAGE 上海iapm","lon":"121.457992","lat":"31.214294","category":"500","category_name":"未知分类","address":"上海市 上海市淮海中路環貿廣場IAPM LG2-273~275"},{"poiid":"B209475CD768A2FA439B","title":"stay real café","lon":"121.457015","lat":"31.215112","category":"500","category_name":"未知分类","address":"上海市 环贸广场 iapm"},{"poiid":"B209475DD46BA3FB4998","title":"查厘士港式茶餐厅","lon":"121.45861","lat":"31.216394","category":"247","category_name":"餐饮美食","address":"上海市 iapm对面"},{"poiid":"B2094753DB64ABF44699","title":"Greyhound Café","lon":"121.457822","lat":"31.215891","category":"99","category_name":"泰国／越南菜品餐厅","address":"上海市徐汇区淮海中路999号环贸iapm商场L5-503室"},{"poiid":"B2094757D06FA7F5419D","title":"85度C(陕西南路店)","lon":"121.459662648","lat":"31.2157876213","category":"112","category_name":"糕饼店","address":"卢湾区陕西南路141号(近巴黎春天淮海店)"},{"poiid":"B209475CD464A3FC4493","title":"Apple Store 淮海路iapm店","lon":"121.457527","lat":"31.216035","category":"500","category_name":"未知分类","address":"上海市 徐汇区淮海中路999号"},{"poiid":"B2094757D468ABFC419C","title":"吴越人家面馆 陕西南路店","lon":"121.459669","lat":"31.215655","category":"68","category_name":"快餐厅","address":"卢湾区陕西南路141号2楼(近南昌路)"},{"poiid":"B2094751DA6DA0FF4293","title":"Quinn\\'s cafe 晴咖啡","lon":"121.460342","lat":"31.213989","category":"247","category_name":"餐饮美食","address":"上海市陕西南路165号"},{"poiid":"B2094757D768A4FE449B","title":"老娘舅 淮海中路店","lon":"121.458253054","lat":"31.216596793","category":"68","category_name":"快餐厅","address":"徐汇区淮海中路988号黄金世界商厦1楼(近陕西南路)"},{"poiid":"B2094750D66EA5FE4893","title":"OPA","lon":"121.459159","lat":"31.216171","category":"627","category_name":"一般地点标志","address":"卢湾区淮海中路900号"},{"poiid":"B2094757D06AA0F94492","title":"新吉柯德土菜馆","lon":"121.460006","lat":"31.214986","category":"247","category_name":"餐饮美食","address":"上海陕西南路145号"},{"poiid":"B2094753DA64A6F84398","title":"大咀港式茶餐厅","lon":"121.460014","lat":"31.215612","category":"500","category_name":"未知分类","address":"上海市 陕西南路117号5楼"},{"poiid":"B2094655D36CA0F54192","title":"淮海中路陕西南路","lon":"121.45852","lat":"31.21658","category":"38","category_name":"公交车站","address":""},{"poiid":"B2094757D06AA1FB479C","title":"陋室汤包","lon":"121.45783","lat":"31.21405","category":"68","category_name":"快餐厅","address":"卢湾区南昌路601号(近襄阳南路)"},{"poiid":"B2094750D464A6F84193","title":"Grace Studio","lon":"121.460456","lat":"31.215869","category":"248","category_name":"生活娱乐","address":"淮海中路927弄淮海坊93号"},{"poiid":"B209475CD664A1FF4198","title":"STAYREAL CAFÉ","lon":"121.45903","lat":"31.216117","category":"500","category_name":"未知分类","address":"上海市 淮海中路999号环贸广场"},{"poiid":"B2094753DB6DA2FF4792","title":"稻香(iapm店)","lon":"121.458999","lat":"31.215892","category":"247","category_name":"餐饮美食","address":"卢湾区淮海中路999号环贸IAPM商场三层301号铺"},{"poiid":"B2094654DA6EA2FA459D","title":"博多新记 复兴店","lon":"121.4576526721","lat":"31.21277515026","category":"72","category_name":"广东菜","address":"徐汇区复兴中路1252弄15号2楼(近襄阳南路)"},{"poiid":"B2094757D06EAAFB4093","title":"陕西南路地铁站","lon":"121.45824382","lat":"31.215062494","category":"36","category_name":"地铁站","address":"上海轨道交通 一号线 十号线 轨交陕西南路站 1 10"},{"poiid":"B2094753D76FAAFA449C","title":"上海滩国泰旗舰店","lon":"121.466011","lat":"31.216125","category":"249","category_name":"购物服务","address":"淮海中路868号"},{"poiid":"B209475CD564A7F84292","title":"上海滩新天地店","lon":"121.47463","lat":"31.22164","category":"119","category_name":"商场","address":"\"太仓路181弄新天地北里15号\r\n\""},{"poiid":"B209475CD564A7F8439E","title":"上海滩中信泰富店","lon":"121.45602","lat":"31.22851","category":"119","category_name":"商场","address":"\"南京西路1168号中信泰富广场，店铺号221.\r\n\""},{"poiid":"B2094757D06FA1FC419E","title":"小桥流水精菜坊(淮海路店)","lon":"121.45936","lat":"31.21639","category":"76","category_name":"上海菜","address":"卢湾区淮海中路923号2-3楼(百盛对面)"},{"poiid":"B2094751DA6CA1FB4298","title":"Baker One","lon":"121.45824","lat":"31.21444","category":"67","category_name":"甜品店","address":"卢湾区南昌路559号1楼(近襄阳南路)"},{"poiid":"B2094757D06FA6FD4198","title":"山间堂民间瓦缸煨汤(淮海店)","lon":"121.45814","lat":"31.21621","category":"260","category_name":"其他","address":"徐汇区淮海中路1008号2楼(近襄阳北路)"},{"poiid":"B2094654DA6EA1FE499F","title":"竹屋川菜","lon":"121.46006400887","lat":"31.214710755142","category":"71","category_name":"四川菜","address":"卢湾区陕西南路145-3号(南昌路口)"},{"poiid":"B2094751D26AA3F5449D","title":"掌上韩品","lon":"121.459297","lat":"31.215394","category":"96","category_name":"韩国料理","address":"卢湾区陕西南路145号(近南昌路)"},{"poiid":"B2094753DA6FAAFF469B","title":"iapm","lon":"121.458961","lat":"31.216442","category":"500","category_name":"未知分类","address":"上海市 淮海路陕西路"},{"poiid":"B2094750D76FA3FB4698","title":"滩悦(淮海路店)","lon":"121.457","lat":"31.2143","category":"76","category_name":"上海菜","address":"卢湾区襄阳南路102号3楼(近南昌路)"},{"poiid":"B2094750D768A6FA4899","title":"林记小馆(襄阳南路店)","lon":"121.457","lat":"31.2143","category":"72","category_name":"广东菜","address":"徐汇区襄阳南路102号(近淮海路)"},{"poiid":"B2094757D06FA2F44699","title":"康师傅私房牛肉面(淮海中路店)","lon":"121.45862","lat":"31.21636","category":"68","category_name":"快餐厅","address":"徐汇区淮海中路988号黄金商厦2楼(近陕西南路)"},{"poiid":"B209475CD664A0FA4398","title":"Stay Real Cafe by GABEE","lon":"121.457015","lat":"31.215112","category":"500","category_name":"未知分类","address":"上海市 iapm lg2-246"},{"poiid":"B209475CD76AAAF9409E","title":"甜兮兮","lon":"121.459022","lat":"31.216119","category":"500","category_name":"未知分类","address":"上海市 环茂广场LG2"},{"poiid":"B2094757D065A3F84698","title":"虹桥火车站A16检票口","lon":"121.45851925","lat":"31.214354796","category":"22","category_name":"火车站","address":"上海虹桥火车站"},{"poiid":"B2094753DA65ABFF4892","title":"香港稻香","lon":"121.457664","lat":"31.215404","category":"247","category_name":"餐饮美食","address":"上海市 上海市淮海中路999號APM商場3樓301室"},{"poiid":"B2094655D36DA6FE439B","title":"陕西南路","lon":"121.45822","lat":"31.2151","category":"38","category_name":"公交车站","address":""},{"poiid":"B2094750D76CAAFE4298","title":"拿渡麻辣香锅(淮海路巴黎春天店)","lon":"121.459","lat":"31.2167","category":"71","category_name":"四川菜","address":"卢湾区淮海中路939号巴黎春天内(近陕西南路)"},{"poiid":"B2094757D06FA2F54798","title":"陕西南路复兴中路口","lon":"121.459220886","lat":"31.2131328583","category":"260","category_name":"其他","address":"上海陕西南路复兴中路口"},{"poiid":"B2094757D068A2FA4099","title":"巨鹿路","lon":"121.46028137","lat":"31.215452194","category":"260","category_name":"其他","address":"上海卢湾区巨鹿路"},{"poiid":"B209475CDB6BA0FA479D","title":"甜兮兮 | Sweet CC","lon":"121.457908","lat":"31.215703","category":"500","category_name":"未知分类","address":"上海市 iapm环贸商城LG2层236商铺"},{"poiid":"B2094750D76FA1FE429B","title":"咔喱咖喱(淮海店)","lon":"121.459","lat":"31.2167","category":"95","category_name":"日本料理","address":"卢湾区淮海中路939号巴黎春天内(近陕西南路)"},{"poiid":"B2094750DA6EA4FB4398","title":"徐汇中心医院","lon":"121.458412","lat":"31.216621","category":"162","category_name":"医院","address":"淮海中路966号"},{"poiid":"B2094750D76EA5FC4693","title":"小杨生煎(淮海中路店)","lon":"121.459","lat":"31.2167","category":"68","category_name":"快餐厅","address":"卢湾区淮海中路939号巴黎春天内(近陕西南路)"},{"poiid":"B209475CD364ABFF4399","title":"上海环贸广场iapm","lon":"121.457824","lat":"31.215875","category":"500","category_name":"未知分类","address":"上海市 上海市徐汇区淮海中路"},{"poiid":"B209475CD169A2FD4098","title":"成隆行蟹王府","lon":"121.457008","lat":"31.215003","category":"247","category_name":"餐饮美食","address":"上海市 汾阳路1号"},{"poiid":"B209475CD465A0F4419D","title":"麵屋武藏","lon":"121.457809","lat":"31.215791","category":"500","category_name":"未知分类","address":"上海市 淮海中路999号iapm"},{"poiid":"B2094753D26AAAF44893","title":"大咀茶餐厅","lon":"121.45771","lat":"31.214161","category":"500","category_name":"未知分类","address":"上海市 陕西南路117号5楼"},{"poiid":"B2094753DA65ABF44892","title":"无印良品环贸iapm旗舰店","lon":"121.458007","lat":"31.21507","category":"500","category_name":"未知分类","address":"上海市 上海市徐汇区淮海中路999号上海环贸广场 3F"},{"poiid":"B2094757D16DA2FA419A","title":"淮海坊","lon":"121.46008","lat":"31.216351","category":"47","category_name":"住宅区","address":"淮海中路925弄11-15号,927弄1-146号"},{"poiid":"B2094757D06FA5FA479A","title":"吉野家(陕西南路店)","lon":"121.46013","lat":"31.2152","category":"95","category_name":"日本料理","address":"卢湾区陕西南路141号(近南昌路)"},{"poiid":"B209475CD76FA1FD489B","title":"STAGE 上海iapm","lon":"121.457992","lat":"31.214294","category":"500","category_name":"未知分类","address":"上海市 上海市淮海中路環貿廣場IAPM LG2-273~275"},{"poiid":"B209475CD768A2FA439B","title":"stay real café","lon":"121.457015","lat":"31.215112","category":"500","category_name":"未知分类","address":"上海市 环贸广场 iapm"},{"poiid":"B209475DD46BA3FB4998","title":"查厘士港式茶餐厅","lon":"121.45861","lat":"31.216394","category":"247","category_name":"餐饮美食","address":"上海市 iapm对面"},{"poiid":"B2094753DB64ABF44699","title":"Greyhound Café","lon":"121.457822","lat":"31.215891","category":"99","category_name":"泰国／越南菜品餐厅","address":"上海市徐汇区淮海中路999号环贸iapm商场L5-503室"},{"poiid":"B2094757D06FA7F5419D","title":"85度C(陕西南路店)","lon":"121.459662648","lat":"31.2157876213","category":"112","category_name":"糕饼店","address":"卢湾区陕西南路141号(近巴黎春天淮海店)"},{"poiid":"B209475CD464A3FC4493","title":"Apple Store 淮海路iapm店","lon":"121.457527","lat":"31.216035","category":"500","category_name":"未知分类","address":"上海市 徐汇区淮海中路999号"},{"poiid":"B2094757D468ABFC419C","title":"吴越人家面馆 陕西南路店","lon":"121.459669","lat":"31.215655","category":"68","category_name":"快餐厅","address":"卢湾区陕西南路141号2楼(近南昌路)"},{"poiid":"B2094751DA6DA0FF4293","title":"Quinn\\'s cafe 晴咖啡","lon":"121.460342","lat":"31.213989","category":"247","category_name":"餐饮美食","address":"上海市陕西南路165号"},{"poiid":"B2094757D768A4FE449B","title":"老娘舅 淮海中路店","lon":"121.458253054","lat":"31.216596793","category":"68","category_name":"快餐厅","address":"徐汇区淮海中路988号黄金世界商厦1楼(近陕西南路)"},{"poiid":"B2094750D66EA5FE4893","title":"OPA","lon":"121.459159","lat":"31.216171","category":"627","category_name":"一般地点标志","address":"卢湾区淮海中路900号"},{"poiid":"B2094757D06AA0F94492","title":"新吉柯德土菜馆","lon":"121.460006","lat":"31.214986","category":"247","category_name":"餐饮美食","address":"上海陕西南路145号"},{"poiid":"B2094753DA64A6F84398","title":"大咀港式茶餐厅","lon":"121.460014","lat":"31.215612","category":"500","category_name":"未知分类","address":"上海市 陕西南路117号5楼"},{"poiid":"B2094655D36CA0F54192","title":"淮海中路陕西南路","lon":"121.45852","lat":"31.21658","category":"38","category_name":"公交车站","address":""},{"poiid":"B2094757D06AA1FB479C","title":"陋室汤包","lon":"121.45783","lat":"31.21405","category":"68","category_name":"快餐厅","address":"卢湾区南昌路601号(近襄阳南路)"},{"poiid":"B2094750D464A6F84193","title":"Grace Studio","lon":"121.460456","lat":"31.215869","category":"248","category_name":"生活娱乐","address":"淮海中路927弄淮海坊93号"},{"poiid":"B209475CD664A1FF4198","title":"STAYREAL CAFÉ","lon":"121.45903","lat":"31.216117","category":"500","category_name":"未知分类","address":"上海市 淮海中路999号环贸广场"},{"poiid":"B2094753DB6DA2FF4792","title":"稻香(iapm店)","lon":"121.458999","lat":"31.215892","category":"247","category_name":"餐饮美食","address":"卢湾区淮海中路999号环贸IAPM商场三层301号铺"},{"poiid":"B2094654DA6EA2FA459D","title":"博多新记 复兴店","lon":"121.4576526721","lat":"31.21277515026","category":"72","category_name":"广东菜","address":"徐汇区复兴中路1252弄15号2楼(近襄阳南路)"},{"poiid":"B2094757D06EAAFB4093","title":"陕西南路地铁站","lon":"121.45824382","lat":"31.215062494","category":"36","category_name":"地铁站","address":"上海轨道交通 一号线 十号线 轨交陕西南路站 1 10"},{"poiid":"B2094753D76FAAFA449C","title":"上海滩国泰旗舰店","lon":"121.466011","lat":"31.216125","category":"249","category_name":"购物服务","address":"淮海中路868号"},{"poiid":"B209475CD564A7F84292","title":"上海滩新天地店","lon":"121.47463","lat":"31.22164","category":"119","category_name":"商场","address":"\"太仓路181弄新天地北里15号\r\n\""},{"poiid":"B209475CD564A7F8439E","title":"上海滩中信泰富店","lon":"121.45602","lat":"31.22851","category":"119","category_name":"商场","address":"\"南京西路1168号中信泰富广场，店铺号221.\r\n\""},{"poiid":"B2094757D06FA1FC419E","title":"小桥流水精菜坊(淮海路店)","lon":"121.45936","lat":"31.21639","category":"76","category_name":"上海菜","address":"卢湾区淮海中路923号2-3楼(百盛对面)"},{"poiid":"B2094751DA6CA1FB4298","title":"Baker One","lon":"121.45824","lat":"31.21444","category":"67","category_name":"甜品店","address":"卢湾区南昌路559号1楼(近襄阳南路)"},{"poiid":"B2094757D06FA6FD4198","title":"山间堂民间瓦缸煨汤(淮海店)","lon":"121.45814","lat":"31.21621","category":"260","category_name":"其他","address":"徐汇区淮海中路1008号2楼(近襄阳北路)"},{"poiid":"B2094654DA6EA1FE499F","title":"竹屋川菜","lon":"121.46006400887","lat":"31.214710755142","category":"71","category_name":"四川菜","address":"卢湾区陕西南路145-3号(南昌路口)"},{"poiid":"B2094751D26AA3F5449D","title":"掌上韩品","lon":"121.459297","lat":"31.215394","category":"96","category_name":"韩国料理","address":"卢湾区陕西南路145号(近南昌路)"},{"poiid":"B2094753DA6FAAFF469B","title":"iapm","lon":"121.458961","lat":"31.216442","category":"500","category_name":"未知分类","address":"上海市 淮海路陕西路"},{"poiid":"B2094750D76FA3FB4698","title":"滩悦(淮海路店)","lon":"121.457","lat":"31.2143","category":"76","category_name":"上海菜","address":"卢湾区襄阳南路102号3楼(近南昌路)"},{"poiid":"B2094750D768A6FA4899","title":"林记小馆(襄阳南路店)","lon":"121.457","lat":"31.2143","category":"72","category_name":"广东菜","address":"徐汇区襄阳南路102号(近淮海路)"},{"poiid":"B2094757D06FA2F44699","title":"康师傅私房牛肉面(淮海中路店)","lon":"121.45862","lat":"31.21636","category":"68","category_name":"快餐厅","address":"徐汇区淮海中路988号黄金商厦2楼(近陕西南路)"},{"poiid":"B209475CD664A0FA4398","title":"Stay Real Cafe by GABEE","lon":"121.457015","lat":"31.215112","category":"500","category_name":"未知分类","address":"上海市 iapm lg2-246"},{"poiid":"B209475CD76AAAF9409E","title":"甜兮兮","lon":"121.459022","lat":"31.216119","category":"500","category_name":"未知分类","address":"上海市 环茂广场LG2"},{"poiid":"B2094757D065A3F84698","title":"虹桥火车站A16检票口","lon":"121.45851925","lat":"31.214354796","category":"22","category_name":"火车站","address":"上海虹桥火车站"},{"poiid":"B2094753DA65ABFF4892","title":"香港稻香","lon":"121.457664","lat":"31.215404","category":"247","category_name":"餐饮美食","address":"上海市 上海市淮海中路999號APM商場3樓301室"},{"poiid":"B2094655D36DA6FE439B","title":"陕西南路","lon":"121.45822","lat":"31.2151","category":"38","category_name":"公交车站","address":""},{"poiid":"B2094750D76CAAFE4298","title":"拿渡麻辣香锅(淮海路巴黎春天店)","lon":"121.459","lat":"31.2167","category":"71","category_name":"四川菜","address":"卢湾区淮海中路939号巴黎春天内(近陕西南路)"},{"poiid":"B2094757D06FA2F54798","title":"陕西南路复兴中路口","lon":"121.459220886","lat":"31.2131328583","category":"260","category_name":"其他","address":"上海陕西南路复兴中路口"},{"poiid":"B2094757D068A2FA4099","title":"巨鹿路","lon":"121.46028137","lat":"31.215452194","category":"260","category_name":"其他","address":"上海卢湾区巨鹿路"},{"poiid":"B209475CDB6BA0FA479D","title":"甜兮兮 | Sweet CC","lon":"121.457908","lat":"31.215703","category":"500","category_name":"未知分类","address":"上海市 iapm环贸商城LG2层236商铺"},{"poiid":"B2094750D76FA1FE429B","title":"咔喱咖喱(淮海店)","lon":"121.459","lat":"31.2167","category":"95","category_name":"日本料理","address":"卢湾区淮海中路939号巴黎春天内(近陕西南路)"},{"poiid":"B2094750DA6EA4FB4398","title":"徐汇中心医院","lon":"121.458412","lat":"31.216621","category":"162","category_name":"医院","address":"淮海中路966号"},{"poiid":"B2094750D76EA5FC4693","title":"小杨生煎(淮海中路店)","lon":"121.459","lat":"31.2167","category":"68","category_name":"快餐厅","address":"卢湾区淮海中路939号巴黎春天内(近陕西南路)"},{"poiid":"B209475CD364ABFF4399","title":"上海环贸广场iapm","lon":"121.457824","lat":"31.215875","category":"500","category_name":"未知分类","address":"上海市 上海市徐汇区淮海中路"},{"poiid":"B209475CD169A2FD4098","title":"成隆行蟹王府","lon":"121.457008","lat":"31.215003","category":"247","category_name":"餐饮美食","address":"上海市 汾阳路1号"},{"poiid":"B209475CD465A0F4419D","title":"麵屋武藏","lon":"121.457809","lat":"31.215791","category":"500","category_name":"未知分类","address":"上海市 淮海中路999号iapm"},{"poiid":"B2094753D26AAAF44893","title":"大咀茶餐厅","lon":"121.45771","lat":"31.214161","category":"500","category_name":"未知分类","address":"上海市 陕西南路117号5楼"},{"poiid":"B2094753DA65ABF44892","title":"无印良品环贸iapm旗舰店","lon":"121.458007","lat":"31.21507","category":"500","category_name":"未知分类","address":"上海市 上海市徐汇区淮海中路999号上海环贸广场 3F"},{"poiid":"B2094757D16DA2FA419A","title":"淮海坊","lon":"121.46008","lat":"31.216351","category":"47","category_name":"住宅区","address":"淮海中路925弄11-15号,927弄1-146号"},{"poiid":"B2094757D06FA5FA479A","title":"吉野家(陕西南路店)","lon":"121.46013","lat":"31.2152","category":"95","category_name":"日本料理","address":"卢湾区陕西南路141号(近南昌路)"},{"poiid":"B209475CD76FA1FD489B","title":"STAGE 上海iapm","lon":"121.457992","lat":"31.214294","category":"500","category_name":"未知分类","address":"上海市 上海市淮海中路環貿廣場IAPM LG2-273~275"},{"poiid":"B209475CD768A2FA439B","title":"stay real café","lon":"121.457015","lat":"31.215112","category":"500","category_name":"未知分类","address":"上海市 环贸广场 iapm"},{"poiid":"B209475DD46BA3FB4998","title":"查厘士港式茶餐厅","lon":"121.45861","lat":"31.216394","category":"247","category_name":"餐饮美食","address":"上海市 iapm对面"},{"poiid":"B2094753DB64ABF44699","title":"Greyhound Café","lon":"121.457822","lat":"31.215891","category":"99","category_name":"泰国／越南菜品餐厅","address":"上海市徐汇区淮海中路999号环贸iapm商场L5-503室"},{"poiid":"B2094757D06FA7F5419D","title":"85度C(陕西南路店)","lon":"121.459662648","lat":"31.2157876213","category":"112","category_name":"糕饼店","address":"卢湾区陕西南路141号(近巴黎春天淮海店)"},{"poiid":"B209475CD464A3FC4493","title":"Apple Store 淮海路iapm店","lon":"121.457527","lat":"31.216035","category":"500","category_name":"未知分类","address":"上海市 徐汇区淮海中路999号"},{"poiid":"B2094757D468ABFC419C","title":"吴越人家面馆 陕西南路店","lon":"121.459669","lat":"31.215655","category":"68","category_name":"快餐厅","address":"卢湾区陕西南路141号2楼(近南昌路)"},{"poiid":"B2094751DA6DA0FF4293","title":"Quinn\\'s cafe 晴咖啡","lon":"121.460342","lat":"31.213989","category":"247","category_name":"餐饮美食","address":"上海市陕西南路165号"},{"poiid":"B2094757D768A4FE449B","title":"老娘舅 淮海中路店","lon":"121.458253054","lat":"31.216596793","category":"68","category_name":"快餐厅","address":"徐汇区淮海中路988号黄金世界商厦1楼(近陕西南路)"},{"poiid":"B2094750D66EA5FE4893","title":"OPA","lon":"121.459159","lat":"31.216171","category":"627","category_name":"一般地点标志","address":"卢湾区淮海中路900号"},{"poiid":"B2094757D06AA0F94492","title":"新吉柯德土菜馆","lon":"121.460006","lat":"31.214986","category":"247","category_name":"餐饮美食","address":"上海陕西南路145号"},{"poiid":"B2094753DA64A6F84398","title":"大咀港式茶餐厅","lon":"121.460014","lat":"31.215612","category":"500","category_name":"未知分类","address":"上海市 陕西南路117号5楼"},{"poiid":"B2094655D36CA0F54192","title":"淮海中路陕西南路","lon":"121.45852","lat":"31.21658","category":"38","category_name":"公交车站","address":""},{"poiid":"B2094757D06AA1FB479C","title":"陋室汤包","lon":"121.45783","lat":"31.21405","category":"68","category_name":"快餐厅","address":"卢湾区南昌路601号(近襄阳南路)"},{"poiid":"B2094750D464A6F84193","title":"Grace Studio","lon":"121.460456","lat":"31.215869","category":"248","category_name":"生活娱乐","address":"淮海中路927弄淮海坊93号"},{"poiid":"B209475CD664A1FF4198","title":"STAYREAL CAFÉ","lon":"121.45903","lat":"31.216117","category":"500","category_name":"未知分类","address":"上海市 淮海中路999号环贸广场"}]