[{"poiid":"B2094757D06FAAFE419F","title":"后滩公园","lon":"121.4758535","lat":"31.184998305","category":"196","category_name":"公园","address":"上海浦东新区世博会园B片区"},{"poiid":"B2094757D06FA3F8479F","title":"世博会意大利馆","lon":"121.47576","lat":"31.1841","category":"260","category_name":"其他","address":"上海浦东新区世博大道上钢路口(原上海世博会C片区)"},{"poiid":"B2094752D264A0FC479C","title":"巧克力开心乐园","lon":"121.475159","lat":"31.181213","category":"248","category_name":"生活娱乐","address":"博成路100号"},{"poiid":"B2094757D065ABFB439D","title":"绿地万豪酒店","lon":"121.47298469159864","lat":"31.192103398628525","category":"213","category_name":"五星级宾馆","address":"卢湾区江滨路99号(近打浦路)"},{"poiid":"B2094757D06FA0FA499E","title":"世博会非洲联合馆","lon":"121.47401428","lat":"31.182336807","category":"260","category_name":"其他","address":"上海浦东新区博成路上钢路口(原上海世博会C片区)"},{"poiid":"B2094655D265A6F5429C","title":"海外滩中心","lon":"121.47417","lat":"31.19376","category":"46","category_name":"楼宇","address":"卢湾区龙华东路886号"},{"poiid":"B2094655D26EA7F84093","title":"卢浦大桥","lon":"121.48255","lat":"31.18603","category":"250","category_name":"公园户外","address":"卢湾区鲁班路909号"},{"poiid":"B2094757D06FA2FA449D","title":"上海世博会博物馆 - 上海世博会纪念展","lon":"121.48130635","lat":"31.1936099525","category":"182","category_name":"博物馆","address":"卢湾区局门路原世博会城市足迹馆内(近龙华东路)"},{"poiid":"B2094753D76BA0FD4593","title":"K11购物艺术中心","lon":"121.474906","lat":"31.194225","category":"500","category_name":"未知分类","address":"上海市 上海市淮海中路300号"},{"poiid":"B2094757D06FA7F5409F","title":"南园公园","lon":"121.4752825","lat":"31.193345331","category":"196","category_name":"公园","address":"上海卢湾区龙华东路800号(打浦路口)"},{"poiid":"B2094757D06FA5F8499C","title":"宝钢大舞台","lon":"121.484091043","lat":"31.1868936206","category":"260","category_name":"其他","address":"上海浦东新区世博公园"},{"poiid":"B2094757D06AA3F9449C","title":"江滨路观江平台～","lon":"121.47499573","lat":"31.192089987","category":"500","category_name":"未知分类","address":"上海卢湾区"},{"poiid":"B2094757D068A7F4479A","title":"南园滨江绿地","lon":"121.47228412","lat":"31.194327672","category":"500","category_name":"未知分类","address":"卢湾区龙华东路800号(打浦路口)"},{"poiid":"B2094757D068A2FC439C","title":"星港酒楼","lon":"121.47484","lat":"31.19505","category":"76","category_name":"上海菜","address":"卢湾区打浦路603号农工商超市5楼(近中山南一路)"},{"poiid":"B2094757D56DAAFD4998","title":"冰星飞扬（世博）羽毛球馆","lon":"121.47396326065063","lat":"31.180634737769793","category":"248","category_name":"生活娱乐","address":"浦东新区后滩路139号(近国展路)"},{"poiid":"B2094752D26EA5F8479E","title":"世博希腊馆","lon":"121.477208","lat":"31.185743","category":"500","category_name":"未知分类","address":null},{"poiid":"B2094757D064A4FE4198","title":"海外滩","lon":"121.472043738","lat":"31.1922194905","category":"500","category_name":"未知分类","address":"上海龙华东路868号"},{"poiid":"B2094757D66CA1FF4692","title":"南滨江","lon":"121.46897173","lat":"31.184909334","category":"500","category_name":"未知分类","address":"上海市徐汇区瑞宁路"},{"poiid":"B2094750D365A3FB489B","title":"上海意大利中心","lon":"121.47582388308","lat":"31.183763362212","category":"646","category_name":"文化体育类公司","address":"浦东新区世博大道2095号(近塘子泾路)"},{"poiid":"B2094751D16CABFE4593","title":"海外滩舒适堡","lon":"121.473662","lat":"31.193563","category":"248","category_name":"生活娱乐","address":"徐汇区龙华东路868号绿地海外滩中心B1楼(近打浦路)"},{"poiid":"B2094753D768A2FF469F","title":"小辉哥火锅（乐城店）","lon":"121.47583","lat":"31.182259","category":"247","category_name":"餐饮美食","address":"上海市徐汇区中山南二路699号2栋304—305"},{"poiid":"B2094752D06DA3F9459D","title":"飞行家主题园","lon":"121.475925","lat":"31.180498","category":"250","category_name":"公园户外","address":"上海市浦东新区国展路311号"},{"poiid":"B2094752DA69A1F5449B","title":"博大汽车公园","lon":"121.472341","lat":"31.179505","category":"500","category_name":"未知分类","address":"上海市 国展路189号"},{"poiid":"B2094655D26BA0FA409C","title":"中心广场(意大利馆东)","lon":"121.47659","lat":"31.18368","category":"201","category_name":"城市广场","address":"上海世博园区"},{"poiid":"B2094750DB64A5FE459B","title":"Rose Queen Coffee","lon":"121.47404","lat":"31.19128","category":"260","category_name":"其他","address":"卢湾区打浦路688号(近江滨路)"},{"poiid":"B2094654DA6DA4FA419D","title":"卢湾城市花园","lon":"121.4775","lat":"31.19385","category":"47","category_name":"住宅区","address":"上海市卢湾区鲁班路738弄"},{"poiid":"B2094757D06FA0FA469A","title":"打浦桥隧道","lon":"121.47177124","lat":"31.194749832","category":"500","category_name":"未知分类","address":"上海打浦桥隧道"},{"poiid":"B2094757D168A0FE4393","title":"绿地万豪28楼行政餐厅","lon":"121.472935738","lat":"31.1918104818","category":"500","category_name":"未知分类","address":"上海市卢湾区江滨路99号"},{"poiid":"B2094752DB6AA0FB469A","title":"上海海之宝体育运动中心","lon":"121.4775055492","lat":"31.179249091782","category":"230","category_name":"足球场","address":"上海浦东新区国展路410号（近上钢路）"},{"poiid":"B2094757D06FAAF4429D","title":"麦盛莉(耀华店)","lon":"121.4763831","lat":"31.176898854","category":"76","category_name":"上海菜","address":"浦东新区耀华路488号(西营路口)"},{"poiid":"B2094752D365A4FD4993","title":"2062新能源主题公园","lon":"121.480274","lat":"31.182386","category":"250","category_name":"公园户外","address":"世博园C片区"},{"poiid":"B2094655D26BAAFD469F","title":"德中同行之家","lon":"121.47682","lat":"31.18237","category":"183","category_name":"展览馆","address":"上海世博园区"},{"poiid":"B2094654DA6DA4FA429B","title":"紫荆新苑","lon":"121.47836","lat":"31.192335","category":"47","category_name":"住宅区","address":"紫荆新苑位于卢湾鲁班路797号"},{"poiid":"B2094757DB6FA5FE489B","title":"地铁9号线徐家汇站","lon":"121.4773750945231","lat":"31.18166830842563","category":"500","category_name":"未知分类","address":"徐家汇"},{"poiid":"B2094753D76BA0FF4399","title":"上海世博洲际酒店","lon":"121.472961","lat":"31.184413","category":"500","category_name":"未知分类","address":"上海市 上海浦东新区雪野路1188号"},{"poiid":"B2094757D06AA4FD4299","title":"世博会后滩广场","lon":"121.472229","lat":"31.181316375","category":"500","category_name":"未知分类","address":"上海世博会C片区"},{"poiid":"B2094753D665AAF94899","title":"田子坊","lon":"121.472808","lat":"31.185895","category":"500","category_name":"未知分类","address":"上海市 泰康路"},{"poiid":"B2094655D265A1FF4793","title":"丰收日","lon":"121.47794","lat":"31.18171","category":"257","category_name":"中餐厅","address":"上海世博园区"},{"poiid":"B2094655D36DA2F94593","title":"打浦路隧道","lon":"121.47834","lat":"31.18261","category":"250","category_name":"公园户外","address":""},{"poiid":"B2094757D069A3FE4292","title":"龙腾大道南滨江","lon":"121.47991373","lat":"31.180792247","category":"260","category_name":"其他","address":"上海市徐汇区龙腾大道"},{"poiid":"B2094757D66CA2FF429A","title":"马可孛罗","lon":"121.47337973","lat":"31.183959314","category":"500","category_name":"未知分类","address":"上海昌里路近历城路"},{"poiid":"B2094757D06AA5FD499D","title":"四号线大木桥路站","lon":"121.473038838","lat":"31.1900380441","category":"500","category_name":"未知分类","address":"上海四号线"},{"poiid":"B2094757D069A2F9429A","title":"786路公交","lon":"121.47825758","lat":"31.188280152","category":"38","category_name":"公交车站","address":"上海文化广场—南码头路昌里东路"},{"poiid":"B2094757D06FA0FB4892","title":"世博会英国馆","lon":"121.47699","lat":"31.18422","category":"260","category_name":"其他","address":"上海浦东新区世博大道塘子泾路口(原上海世博会C片区)"},{"poiid":"B209475CD165A6F5459D","title":"飞行家主题乐园","lon":"121.476776","lat":"31.181634","category":"500","category_name":"未知分类","address":"上海市 国展路311号"},{"poiid":"B2094757D068A6FB459C","title":"世博会墨西哥馆","lon":"121.47791","lat":"31.17884","category":"260","category_name":"其他","address":"上海浦东新区国展路近上钢路(原上海世博会C片区)"},{"poiid":"B209475CD66DA6FC4198","title":"辣府","lon":"121.474594","lat":"31.19452","category":"247","category_name":"餐饮美食","address":"上海市 打浦路603号"},{"poiid":"B2094757D16BABFA4598","title":"半淞园路街道","lon":"121.478567938","lat":"31.1869877791","category":"500","category_name":"未知分类","address":"上海西藏南路1360号"},{"poiid":"B2094757D06FA0FF409C","title":"世博会卢森堡大公国馆","lon":"121.47599792","lat":"31.183130264","category":"260","category_name":"其他","address":"上海浦东新区上钢路博成路口(原上海世博会C片区)"},{"poiid":"B2094655D26FA5F44792","title":"农工商超市No.0119","lon":"121.4751","lat":"31.19522","category":"118","category_name":"超级市场","address":"打浦路603"},{"poiid":"B2094757D06FAAFE419F","title":"后滩公园","lon":"121.4758535","lat":"31.184998305","category":"196","category_name":"公园","address":"上海浦东新区世博会园B片区"},{"poiid":"B2094757D06FA3F8479F","title":"世博会意大利馆","lon":"121.47576","lat":"31.1841","category":"260","category_name":"其他","address":"上海浦东新区世博大道上钢路口(原上海世博会C片区)"},{"poiid":"B2094752D264A0FC479C","title":"巧克力开心乐园","lon":"121.475159","lat":"31.181213","category":"248","category_name":"生活娱乐","address":"博成路100号"},{"poiid":"B2094757D065ABFB439D","title":"绿地万豪酒店","lon":"121.47298469159864","lat":"31.192103398628525","category":"213","category_name":"五星级宾馆","address":"卢湾区江滨路99号(近打浦路)"},{"poiid":"B2094757D06FA0FA499E","title":"世博会非洲联合馆","lon":"121.47401428","lat":"31.182336807","category":"260","category_name":"其他","address":"上海浦东新区博成路上钢路口(原上海世博会C片区)"},{"poiid":"B2094655D265A6F5429C","title":"海外滩中心","lon":"121.47417","lat":"31.19376","category":"46","category_name":"楼宇","address":"卢湾区龙华东路886号"},{"poiid":"B2094655D26EA7F84093","title":"卢浦大桥","lon":"121.48255","lat":"31.18603","category":"250","category_name":"公园户外","address":"卢湾区鲁班路909号"},{"poiid":"B2094757D06FA2FA449D","title":"上海世博会博物馆 - 上海世博会纪念展","lon":"121.48130635","lat":"31.1936099525","category":"182","category_name":"博物馆","address":"卢湾区局门路原世博会城市足迹馆内(近龙华东路)"},{"poiid":"B2094753D76BA0FD4593","title":"K11购物艺术中心","lon":"121.474906","lat":"31.194225","category":"500","category_name":"未知分类","address":"上海市 上海市淮海中路300号"},{"poiid":"B2094757D06FA7F5409F","title":"南园公园","lon":"121.4752825","lat":"31.193345331","category":"196","category_name":"公园","address":"上海卢湾区龙华东路800号(打浦路口)"},{"poiid":"B2094757D06FA5F8499C","title":"宝钢大舞台","lon":"121.484091043","lat":"31.1868936206","category":"260","category_name":"其他","address":"上海浦东新区世博公园"},{"poiid":"B2094757D06AA3F9449C","title":"江滨路观江平台～","lon":"121.47499573","lat":"31.192089987","category":"500","category_name":"未知分类","address":"上海卢湾区"},{"poiid":"B2094757D068A7F4479A","title":"南园滨江绿地","lon":"121.47228412","lat":"31.194327672","category":"500","category_name":"未知分类","address":"卢湾区龙华东路800号(打浦路口)"},{"poiid":"B2094757D068A2FC439C","title":"星港酒楼","lon":"121.47484","lat":"31.19505","category":"76","category_name":"上海菜","address":"卢湾区打浦路603号农工商超市5楼(近中山南一路)"},{"poiid":"B2094757D56DAAFD4998","title":"冰星飞扬（世博）羽毛球馆","lon":"121.47396326065063","lat":"31.180634737769793","category":"248","category_name":"生活娱乐","address":"浦东新区后滩路139号(近国展路)"},{"poiid":"B2094752D26EA5F8479E","title":"世博希腊馆","lon":"121.477208","lat":"31.185743","category":"500","category_name":"未知分类","address":null},{"poiid":"B2094757D064A4FE4198","title":"海外滩","lon":"121.472043738","lat":"31.1922194905","category":"500","category_name":"未知分类","address":"上海龙华东路868号"},{"poiid":"B2094757D66CA1FF4692","title":"南滨江","lon":"121.46897173","lat":"31.184909334","category":"500","category_name":"未知分类","address":"上海市徐汇区瑞宁路"},{"poiid":"B2094750D365A3FB489B","title":"上海意大利中心","lon":"121.47582388308","lat":"31.183763362212","category":"646","category_name":"文化体育类公司","address":"浦东新区世博大道2095号(近塘子泾路)"},{"poiid":"B2094751D16CABFE4593","title":"海外滩舒适堡","lon":"121.473662","lat":"31.193563","category":"248","category_name":"生活娱乐","address":"徐汇区龙华东路868号绿地海外滩中心B1楼(近打浦路)"},{"poiid":"B2094753D768A2FF469F","title":"小辉哥火锅（乐城店）","lon":"121.47583","lat":"31.182259","category":"247","category_name":"餐饮美食","address":"上海市徐汇区中山南二路699号2栋304—305"},{"poiid":"B2094752D06DA3F9459D","title":"飞行家主题园","lon":"121.475925","lat":"31.180498","category":"250","category_name":"公园户外","address":"上海市浦东新区国展路311号"},{"poiid":"B2094752DA69A1F5449B","title":"博大汽车公园","lon":"121.472341","lat":"31.179505","category":"500","category_name":"未知分类","address":"上海市 国展路189号"},{"poiid":"B2094655D26BA0FA409C","title":"中心广场(意大利馆东)","lon":"121.47659","lat":"31.18368","category":"201","category_name":"城市广场","address":"上海世博园区"},{"poiid":"B2094750DB64A5FE459B","title":"Rose Queen Coffee","lon":"121.47404","lat":"31.19128","category":"260","category_name":"其他","address":"卢湾区打浦路688号(近江滨路)"},{"poiid":"B2094654DA6DA4FA419D","title":"卢湾城市花园","lon":"121.4775","lat":"31.19385","category":"47","category_name":"住宅区","address":"上海市卢湾区鲁班路738弄"},{"poiid":"B2094757D06FA0FA469A","title":"打浦桥隧道","lon":"121.47177124","lat":"31.194749832","category":"500","category_name":"未知分类","address":"上海打浦桥隧道"},{"poiid":"B2094757D168A0FE4393","title":"绿地万豪28楼行政餐厅","lon":"121.472935738","lat":"31.1918104818","category":"500","category_name":"未知分类","address":"上海市卢湾区江滨路99号"},{"poiid":"B2094752DB6AA0FB469A","title":"上海海之宝体育运动中心","lon":"121.4775055492","lat":"31.179249091782","category":"230","category_name":"足球场","address":"上海浦东新区国展路410号（近上钢路）"},{"poiid":"B2094757D06FAAF4429D","title":"麦盛莉(耀华店)","lon":"121.4763831","lat":"31.176898854","category":"76","category_name":"上海菜","address":"浦东新区耀华路488号(西营路口)"},{"poiid":"B2094752D365A4FD4993","title":"2062新能源主题公园","lon":"121.480274","lat":"31.182386","category":"250","category_name":"公园户外","address":"世博园C片区"},{"poiid":"B2094655D26BAAFD469F","title":"德中同行之家","lon":"121.47682","lat":"31.18237","category":"183","category_name":"展览馆","address":"上海世博园区"},{"poiid":"B2094654DA6DA4FA429B","title":"紫荆新苑","lon":"121.47836","lat":"31.192335","category":"47","category_name":"住宅区","address":"紫荆新苑位于卢湾鲁班路797号"},{"poiid":"B2094757DB6FA5FE489B","title":"地铁9号线徐家汇站","lon":"121.4773750945231","lat":"31.18166830842563","category":"500","category_name":"未知分类","address":"徐家汇"},{"poiid":"B2094753D76BA0FF4399","title":"上海世博洲际酒店","lon":"121.472961","lat":"31.184413","category":"500","category_name":"未知分类","address":"上海市 上海浦东新区雪野路1188号"},{"poiid":"B2094757D06AA4FD4299","title":"世博会后滩广场","lon":"121.472229","lat":"31.181316375","category":"500","category_name":"未知分类","address":"上海世博会C片区"},{"poiid":"B2094753D665AAF94899","title":"田子坊","lon":"121.472808","lat":"31.185895","category":"500","category_name":"未知分类","address":"上海市 泰康路"},{"poiid":"B2094655D265A1FF4793","title":"丰收日","lon":"121.47794","lat":"31.18171","category":"257","category_name":"中餐厅","address":"上海世博园区"},{"poiid":"B2094655D36DA2F94593","title":"打浦路隧道","lon":"121.47834","lat":"31.18261","category":"250","category_name":"公园户外","address":""},{"poiid":"B2094757D069A3FE4292","title":"龙腾大道南滨江","lon":"121.47991373","lat":"31.180792247","category":"260","category_name":"其他","address":"上海市徐汇区龙腾大道"},{"poiid":"B2094757D66CA2FF429A","title":"马可孛罗","lon":"121.47337973","lat":"31.183959314","category":"500","category_name":"未知分类","address":"上海昌里路近历城路"},{"poiid":"B2094757D06AA5FD499D","title":"四号线大木桥路站","lon":"121.473038838","lat":"31.1900380441","category":"500","category_name":"未知分类","address":"上海四号线"},{"poiid":"B2094757D069A2F9429A","title":"786路公交","lon":"121.47825758","lat":"31.188280152","category":"38","category_name":"公交车站","address":"上海文化广场—南码头路昌里东路"},{"poiid":"B2094757D06FA0FB4892","title":"世博会英国馆","lon":"121.47699","lat":"31.18422","category":"260","category_name":"其他","address":"上海浦东新区世博大道塘子泾路口(原上海世博会C片区)"},{"poiid":"B209475CD165A6F5459D","title":"飞行家主题乐园","lon":"121.476776","lat":"31.181634","category":"500","category_name":"未知分类","address":"上海市 国展路311号"},{"poiid":"B2094757D068A6FB459C","title":"世博会墨西哥馆","lon":"121.47791","lat":"31.17884","category":"260","category_name":"其他","address":"上海浦东新区国展路近上钢路(原上海世博会C片区)"},{"poiid":"B209475CD66DA6FC4198","title":"辣府","lon":"121.474594","lat":"31.19452","category":"247","category_name":"餐饮美食","address":"上海市 打浦路603号"},{"poiid":"B2094757D16BABFA4598","title":"半淞园路街道","lon":"121.478567938","lat":"31.1869877791","category":"500","category_name":"未知分类","address":"上海西藏南路1360号"},{"poiid":"B2094757D06FA0FF409C","title":"世博会卢森堡大公国馆","lon":"121.47599792","lat":"31.183130264","category":"260","category_name":"其他","address":"上海浦东新区上钢路博成路口(原上海世博会C片区)"},{"poiid":"B2094655D26FA5F44792","title":"农工商超市No.0119","lon":"121.4751","lat":"31.19522","category":"118","category_name":"超级市场","address":"打浦路603"},{"poiid":"B2094757D06FAAFE419F","title":"后滩公园","lon":"121.4758535","lat":"31.184998305","category":"196","category_name":"公园","address":"上海浦东新区世博会园B片区"},{"poiid":"B2094757D06FA3F8479F","title":"世博会意大利馆","lon":"121.47576","lat":"31.1841","category":"260","category_name":"其他","address":"上海浦东新区世博大道上钢路口(原上海世博会C片区)"},{"poiid":"B2094752D264A0FC479C","title":"巧克力开心乐园","lon":"121.475159","lat":"31.181213","category":"248","category_name":"生活娱乐","address":"博成路100号"},{"poiid":"B2094757D065ABFB439D","title":"绿地万豪酒店","lon":"121.47298469159864","lat":"31.192103398628525","category":"213","category_name":"五星级宾馆","address":"卢湾区江滨路99号(近打浦路)"},{"poiid":"B2094757D06FA0FA499E","title":"世博会非洲联合馆","lon":"121.47401428","lat":"31.182336807","category":"260","category_name":"其他","address":"上海浦东新区博成路上钢路口(原上海世博会C片区)"},{"poiid":"B2094655D265A6F5429C","title":"海外滩中心","lon":"121.47417","lat":"31.19376","category":"46","category_name":"楼宇","address":"卢湾区龙华东路886号"},{"poiid":"B2094655D26EA7F84093","title":"卢浦大桥","lon":"121.48255","lat":"31.18603","category":"250","category_name":"公园户外","address":"卢湾区鲁班路909号"},{"poiid":"B2094757D06FA2FA449D","title":"上海世博会博物馆 - 上海世博会纪念展","lon":"121.48130635","lat":"31.1936099525","category":"182","category_name":"博物馆","address":"卢湾区局门路原世博会城市足迹馆内(近龙华东路)"},{"poiid":"B2094753D76BA0FD4593","title":"K11购物艺术中心","lon":"121.474906","lat":"31.194225","category":"500","category_name":"未知分类","address":"上海市 上海市淮海中路300号"},{"poiid":"B2094757D06FA7F5409F","title":"南园公园","lon":"121.4752825","lat":"31.193345331","category":"196","category_name":"公园","address":"上海卢湾区龙华东路800号(打浦路口)"},{"poiid":"B2094757D06FA5F8499C","title":"宝钢大舞台","lon":"121.484091043","lat":"31.1868936206","category":"260","category_name":"其他","address":"上海浦东新区世博公园"},{"poiid":"B2094757D06AA3F9449C","title":"江滨路观江平台～","lon":"121.47499573","lat":"31.192089987","category":"500","category_name":"未知分类","address":"上海卢湾区"},{"poiid":"B2094757D068A7F4479A","title":"南园滨江绿地","lon":"121.47228412","lat":"31.194327672","category":"500","category_name":"未知分类","address":"卢湾区龙华东路800号(打浦路口)"},{"poiid":"B2094757D068A2FC439C","title":"星港酒楼","lon":"121.47484","lat":"31.19505","category":"76","category_name":"上海菜","address":"卢湾区打浦路603号农工商超市5楼(近中山南一路)"},{"poiid":"B2094757D56DAAFD4998","title":"冰星飞扬（世博）羽毛球馆","lon":"121.47396326065063","lat":"31.180634737769793","category":"248","category_name":"生活娱乐","address":"浦东新区后滩路139号(近国展路)"},{"poiid":"B2094752D26EA5F8479E","title":"世博希腊馆","lon":"121.477208","lat":"31.185743","category":"500","category_name":"未知分类","address":null},{"poiid":"B2094757D064A4FE4198","title":"海外滩","lon":"121.472043738","lat":"31.1922194905","category":"500","category_name":"未知分类","address":"上海龙华东路868号"},{"poiid":"B2094757D66CA1FF4692","title":"南滨江","lon":"121.46897173","lat":"31.184909334","category":"500","category_name":"未知分类","address":"上海市徐汇区瑞宁路"},{"poiid":"B2094750D365A3FB489B","title":"上海意大利中心","lon":"121.47582388308","lat":"31.183763362212","category":"646","category_name":"文化体育类公司","address":"浦东新区世博大道2095号(近塘子泾路)"},{"poiid":"B2094751D16CABFE4593","title":"海外滩舒适堡","lon":"121.473662","lat":"31.193563","category":"248","category_name":"生活娱乐","address":"徐汇区龙华东路868号绿地海外滩中心B1楼(近打浦路)"},{"poiid":"B2094753D768A2FF469F","title":"小辉哥火锅（乐城店）","lon":"121.47583","lat":"31.182259","category":"247","category_name":"餐饮美食","address":"上海市徐汇区中山南二路699号2栋304—305"},{"poiid":"B2094752D06DA3F9459D","title":"飞行家主题园","lon":"121.475925","lat":"31.180498","category":"250","category_name":"公园户外","address":"上海市浦东新区国展路311号"},{"poiid":"B2094752DA69A1F5449B","title":"博大汽车公园","lon":"121.472341","lat":"31.179505","category":"500","category_name":"未知分类","address":"上海市 国展路189号"},{"poiid":"B2094655D26BA0FA409C","title":"中心广场(意大利馆东)","lon":"121.47659","lat":"31.18368","category":"201","category_name":"城市广场","address":"上海世博园区"},{"poiid":"B2094750DB64A5FE459B","title":"Rose Queen Coffee","lon":"121.47404","lat":"31.19128","category":"260","category_name":"其他","address":"卢湾区打浦路688号(近江滨路)"},{"poiid":"B2094654DA6DA4FA419D","title":"卢湾城市花园","lon":"121.4775","lat":"31.19385","category":"47","category_name":"住宅区","address":"上海市卢湾区鲁班路738弄"},{"poiid":"B2094757D06FA0FA469A","title":"打浦桥隧道","lon":"121.47177124","lat":"31.194749832","category":"500","category_name":"未知分类","address":"上海打浦桥隧道"},{"poiid":"B2094757D168A0FE4393","title":"绿地万豪28楼行政餐厅","lon":"121.472935738","lat":"31.1918104818","category":"500","category_name":"未知分类","address":"上海市卢湾区江滨路99号"},{"poiid":"B2094752DB6AA0FB469A","title":"上海海之宝体育运动中心","lon":"121.4775055492","lat":"31.179249091782","category":"230","category_name":"足球场","address":"上海浦东新区国展路410号（近上钢路）"},{"poiid":"B2094757D06FAAF4429D","title":"麦盛莉(耀华店)","lon":"121.4763831","lat":"31.176898854","category":"76","category_name":"上海菜","address":"浦东新区耀华路488号(西营路口)"},{"poiid":"B2094752D365A4FD4993","title":"2062新能源主题公园","lon":"121.480274","lat":"31.182386","category":"250","category_name":"公园户外","address":"世博园C片区"},{"poiid":"B2094655D26BAAFD469F","title":"德中同行之家","lon":"121.47682","lat":"31.18237","category":"183","category_name":"展览馆","address":"上海世博园区"},{"poiid":"B2094654DA6DA4FA429B","title":"紫荆新苑","lon":"121.47836","lat":"31.192335","category":"47","category_name":"住宅区","address":"紫荆新苑位于卢湾鲁班路797号"},{"poiid":"B2094757DB6FA5FE489B","title":"地铁9号线徐家汇站","lon":"121.4773750945231","lat":"31.18166830842563","category":"500","category_name":"未知分类","address":"徐家汇"},{"poiid":"B2094753D76BA0FF4399","title":"上海世博洲际酒店","lon":"121.472961","lat":"31.184413","category":"500","category_name":"未知分类","address":"上海市 上海浦东新区雪野路1188号"},{"poiid":"B2094757D06AA4FD4299","title":"世博会后滩广场","lon":"121.472229","lat":"31.181316375","category":"500","category_name":"未知分类","address":"上海世博会C片区"},{"poiid":"B2094753D665AAF94899","title":"田子坊","lon":"121.472808","lat":"31.185895","category":"500","category_name":"未知分类","address":"上海市 泰康路"},{"poiid":"B2094655D265A1FF4793","title":"丰收日","lon":"121.47794","lat":"31.18171","category":"257","category_name":"中餐厅","address":"上海世博园区"},{"poiid":"B2094655D36DA2F94593","title":"打浦路隧道","lon":"121.47834","lat":"31.18261","category":"250","category_name":"公园户外","address":""},{"poiid":"B2094757D069A3FE4292","title":"龙腾大道南滨江","lon":"121.47991373","lat":"31.180792247","category":"260","category_name":"其他","address":"上海市徐汇区龙腾大道"},{"poiid":"B2094757D66CA2FF429A","title":"马可孛罗","lon":"121.47337973","lat":"31.183959314","category":"500","category_name":"未知分类","address":"上海昌里路近历城路"},{"poiid":"B2094757D06AA5FD499D","title":"四号线大木桥路站","lon":"121.473038838","lat":"31.1900380441","category":"500","category_name":"未知分类","address":"上海四号线"},{"poiid":"B2094757D069A2F9429A","title":"786路公交","lon":"121.47825758","lat":"31.188280152","category":"38","category_name":"公交车站","address":"上海文化广场—南码头路昌里东路"},{"poiid":"B2094757D06FA0FB4892","title":"世博会英国馆","lon":"121.47699","lat":"31.18422","category":"260","category_name":"其他","address":"上海浦东新区世博大道塘子泾路口(原上海世博会C片区)"},{"poiid":"B209475CD165A6F5459D","title":"飞行家主题乐园","lon":"121.476776","lat":"31.181634","category":"500","category_name":"未知分类","address":"上海市 国展路311号"},{"poiid":"B2094757D068A6FB459C","title":"世博会墨西哥馆","lon":"121.47791","lat":"31.17884","category":"260","category_name":"其他","address":"上海浦东新区国展路近上钢路(原上海世博会C片区)"},{"poiid":"B209475CD66DA6FC4198","title":"辣府","lon":"121.474594","lat":"31.19452","category":"247","category_name":"餐饮美食","address":"上海市 打浦路603号"},{"poiid":"B2094757D16BABFA4598","title":"半淞园路街道","lon":"121.478567938","lat":"31.1869877791","category":"500","category_name":"未知分类","address":"上海西藏南路1360号"},{"poiid":"B2094757D06FA0FF409C","title":"世博会卢森堡大公国馆","lon":"121.47599792","lat":"31.183130264","category":"260","category_name":"其他","address":"上海浦东新区上钢路博成路口(原上海世博会C片区)"},{"poiid":"B2094655D26FA5F44792","title":"农工商超市No.0119","lon":"121.4751","lat":"31.19522","category":"118","category_name":"超级市场","address":"打浦路603"},{"poiid":"B2094757D06FAAFE419F","title":"后滩公园","lon":"121.4758535","lat":"31.184998305","category":"196","category_name":"公园","address":"上海浦东新区世博会园B片区"},{"poiid":"B2094757D06FA3F8479F","title":"世博会意大利馆","lon":"121.47576","lat":"31.1841","category":"260","category_name":"其他","address":"上海浦东新区世博大道上钢路口(原上海世博会C片区)"},{"poiid":"B2094752D264A0FC479C","title":"巧克力开心乐园","lon":"121.475159","lat":"31.181213","category":"248","category_name":"生活娱乐","address":"博成路100号"},{"poiid":"B2094757D065ABFB439D","title":"绿地万豪酒店","lon":"121.47298469159864","lat":"31.192103398628525","category":"213","category_name":"五星级宾馆","address":"卢湾区江滨路99号(近打浦路)"},{"poiid":"B2094757D06FA0FA499E","title":"世博会非洲联合馆","lon":"121.47401428","lat":"31.182336807","category":"260","category_name":"其他","address":"上海浦东新区博成路上钢路口(原上海世博会C片区)"},{"poiid":"B2094655D265A6F5429C","title":"海外滩中心","lon":"121.47417","lat":"31.19376","category":"46","category_name":"楼宇","address":"卢湾区龙华东路886号"},{"poiid":"B2094655D26EA7F84093","title":"卢浦大桥","lon":"121.48255","lat":"31.18603","category":"250","category_name":"公园户外","address":"卢湾区鲁班路909号"},{"poiid":"B2094757D06FA2FA449D","title":"上海世博会博物馆 - 上海世博会纪念展","lon":"121.48130635","lat":"31.1936099525","category":"182","category_name":"博物馆","address":"卢湾区局门路原世博会城市足迹馆内(近龙华东路)"},{"poiid":"B2094753D76BA0FD4593","title":"K11购物艺术中心","lon":"121.474906","lat":"31.194225","category":"500","category_name":"未知分类","address":"上海市 上海市淮海中路300号"},{"poiid":"B2094757D06FA7F5409F","title":"南园公园","lon":"121.4752825","lat":"31.193345331","category":"196","category_name":"公园","address":"上海卢湾区龙华东路800号(打浦路口)"},{"poiid":"B2094757D06FA5F8499C","title":"宝钢大舞台","lon":"121.484091043","lat":"31.1868936206","category":"260","category_name":"其他","address":"上海浦东新区世博公园"},{"poiid":"B2094757D06AA3F9449C","title":"江滨路观江平台～","lon":"121.47499573","lat":"31.192089987","category":"500","category_name":"未知分类","address":"上海卢湾区"},{"poiid":"B2094757D068A7F4479A","title":"南园滨江绿地","lon":"121.47228412","lat":"31.194327672","category":"500","category_name":"未知分类","address":"卢湾区龙华东路800号(打浦路口)"},{"poiid":"B2094757D068A2FC439C","title":"星港酒楼","lon":"121.47484","lat":"31.19505","category":"76","category_name":"上海菜","address":"卢湾区打浦路603号农工商超市5楼(近中山南一路)"},{"poiid":"B2094757D56DAAFD4998","title":"冰星飞扬（世博）羽毛球馆","lon":"121.47396326065063","lat":"31.180634737769793","category":"248","category_name":"生活娱乐","address":"浦东新区后滩路139号(近国展路)"},{"poiid":"B2094752D26EA5F8479E","title":"世博希腊馆","lon":"121.477208","lat":"31.185743","category":"500","category_name":"未知分类","address":null},{"poiid":"B2094757D064A4FE4198","title":"海外滩","lon":"121.472043738","lat":"31.1922194905","category":"500","category_name":"未知分类","address":"上海龙华东路868号"},{"poiid":"B2094757D66CA1FF4692","title":"南滨江","lon":"121.46897173","lat":"31.184909334","category":"500","category_name":"未知分类","address":"上海市徐汇区瑞宁路"},{"poiid":"B2094750D365A3FB489B","title":"上海意大利中心","lon":"121.47582388308","lat":"31.183763362212","category":"646","category_name":"文化体育类公司","address":"浦东新区世博大道2095号(近塘子泾路)"},{"poiid":"B2094751D16CABFE4593","title":"海外滩舒适堡","lon":"121.473662","lat":"31.193563","category":"248","category_name":"生活娱乐","address":"徐汇区龙华东路868号绿地海外滩中心B1楼(近打浦路)"},{"poiid":"B2094753D768A2FF469F","title":"小辉哥火锅（乐城店）","lon":"121.47583","lat":"31.182259","category":"247","category_name":"餐饮美食","address":"上海市徐汇区中山南二路699号2栋304—305"},{"poiid":"B2094752D06DA3F9459D","title":"飞行家主题园","lon":"121.475925","lat":"31.180498","category":"250","category_name":"公园户外","address":"上海市浦东新区国展路311号"},{"poiid":"B2094752DA69A1F5449B","title":"博大汽车公园","lon":"121.472341","lat":"31.179505","category":"500","category_name":"未知分类","address":"上海市 国展路189号"},{"poiid":"B2094655D26BA0FA409C","title":"中心广场(意大利馆东)","lon":"121.47659","lat":"31.18368","category":"201","category_name":"城市广场","address":"上海世博园区"},{"poiid":"B2094750DB64A5FE459B","title":"Rose Queen Coffee","lon":"121.47404","lat":"31.19128","category":"260","category_name":"其他","address":"卢湾区打浦路688号(近江滨路)"},{"poiid":"B2094654DA6DA4FA419D","title":"卢湾城市花园","lon":"121.4775","lat":"31.19385","category":"47","category_name":"住宅区","address":"上海市卢湾区鲁班路738弄"},{"poiid":"B2094757D06FA0FA469A","title":"打浦桥隧道","lon":"121.47177124","lat":"31.194749832","category":"500","category_name":"未知分类","address":"上海打浦桥隧道"},{"poiid":"B2094757D168A0FE4393","title":"绿地万豪28楼行政餐厅","lon":"121.472935738","lat":"31.1918104818","category":"500","category_name":"未知分类","address":"上海市卢湾区江滨路99号"},{"poiid":"B2094752DB6AA0FB469A","title":"上海海之宝体育运动中心","lon":"121.4775055492","lat":"31.179249091782","category":"230","category_name":"足球场","address":"上海浦东新区国展路410号（近上钢路）"},{"poiid":"B2094757D06FAAF4429D","title":"麦盛莉(耀华店)","lon":"121.4763831","lat":"31.176898854","category":"76","category_name":"上海菜","address":"浦东新区耀华路488号(西营路口)"},{"poiid":"B2094752D365A4FD4993","title":"2062新能源主题公园","lon":"121.480274","lat":"31.182386","category":"250","category_name":"公园户外","address":"世博园C片区"},{"poiid":"B2094655D26BAAFD469F","title":"德中同行之家","lon":"121.47682","lat":"31.18237","category":"183","category_name":"展览馆","address":"上海世博园区"},{"poiid":"B2094654DA6DA4FA429B","title":"紫荆新苑","lon":"121.47836","lat":"31.192335","category":"47","category_name":"住宅区","address":"紫荆新苑位于卢湾鲁班路797号"},{"poiid":"B2094757DB6FA5FE489B","title":"地铁9号线徐家汇站","lon":"121.4773750945231","lat":"31.18166830842563","category":"500","category_name":"未知分类","address":"徐家汇"},{"poiid":"B2094753D76BA0FF4399","title":"上海世博洲际酒店","lon":"121.472961","lat":"31.184413","category":"500","category_name":"未知分类","address":"上海市 上海浦东新区雪野路1188号"},{"poiid":"B2094757D06AA4FD4299","title":"世博会后滩广场","lon":"121.472229","lat":"31.181316375","category":"500","category_name":"未知分类","address":"上海世博会C片区"},{"poiid":"B2094753D665AAF94899","title":"田子坊","lon":"121.472808","lat":"31.185895","category":"500","category_name":"未知分类","address":"上海市 泰康路"},{"poiid":"B2094655D265A1FF4793","title":"丰收日","lon":"121.47794","lat":"31.18171","category":"257","category_name":"中餐厅","address":"上海世博园区"},{"poiid":"B2094655D36DA2F94593","title":"打浦路隧道","lon":"121.47834","lat":"31.18261","category":"250","category_name":"公园户外","address":""},{"poiid":"B2094757D069A3FE4292","title":"龙腾大道南滨江","lon":"121.47991373","lat":"31.180792247","category":"260","category_name":"其他","address":"上海市徐汇区龙腾大道"},{"poiid":"B2094757D66CA2FF429A","title":"马可孛罗","lon":"121.47337973","lat":"31.183959314","category":"500","category_name":"未知分类","address":"上海昌里路近历城路"},{"poiid":"B2094757D06AA5FD499D","title":"四号线大木桥路站","lon":"121.473038838","lat":"31.1900380441","category":"500","category_name":"未知分类","address":"上海四号线"},{"poiid":"B2094757D069A2F9429A","title":"786路公交","lon":"121.47825758","lat":"31.188280152","category":"38","category_name":"公交车站","address":"上海文化广场—南码头路昌里东路"},{"poiid":"B2094757D06FA0FB4892","title":"世博会英国馆","lon":"121.47699","lat":"31.18422","category":"260","category_name":"其他","address":"上海浦东新区世博大道塘子泾路口(原上海世博会C片区)"},{"poiid":"B209475CD165A6F5459D","title":"飞行家主题乐园","lon":"121.476776","lat":"31.181634","category":"500","category_name":"未知分类","address":"上海市 国展路311号"},{"poiid":"B2094757D068A6FB459C","title":"世博会墨西哥馆","lon":"121.47791","lat":"31.17884","category":"260","category_name":"其他","address":"上海浦东新区国展路近上钢路(原上海世博会C片区)"},{"poiid":"B209475CD66DA6FC4198","title":"辣府","lon":"121.474594","lat":"31.19452","category":"247","category_name":"餐饮美食","address":"上海市 打浦路603号"},{"poiid":"B2094757D16BABFA4598","title":"半淞园路街道","lon":"121.478567938","lat":"31.1869877791","category":"500","category_name":"未知分类","address":"上海西藏南路1360号"},{"poiid":"B2094757D06FA0FF409C","title":"世博会卢森堡大公国馆","lon":"121.47599792","lat":"31.183130264","category":"260","category_name":"其他","address":"上海浦东新区上钢路博成路口(原上海世博会C片区)"},{"poiid":"B2094655D26FA5F44792","title":"农工商超市No.0119","lon":"121.4751","lat":"31.19522","category":"118","category_name":"超级市场","address":"打浦路603"},{"poiid":"B2094757D06FAAFE419F","title":"后滩公园","lon":"121.4758535","lat":"31.184998305","category":"196","category_name":"公园","address":"上海浦东新区世博会园B片区"},{"poiid":"B2094757D06FA3F8479F","title":"世博会意大利馆","lon":"121.47576","lat":"31.1841","category":"260","category_name":"其他","address":"上海浦东新区世博大道上钢路口(原上海世博会C片区)"},{"poiid":"B2094752D264A0FC479C","title":"巧克力开心乐园","lon":"121.475159","lat":"31.181213","category":"248","category_name":"生活娱乐","address":"博成路100号"},{"poiid":"B2094757D065ABFB439D","title":"绿地万豪酒店","lon":"121.47298469159864","lat":"31.192103398628525","category":"213","category_name":"五星级宾馆","address":"卢湾区江滨路99号(近打浦路)"},{"poiid":"B2094757D06FA0FA499E","title":"世博会非洲联合馆","lon":"121.47401428","lat":"31.182336807","category":"260","category_name":"其他","address":"上海浦东新区博成路上钢路口(原上海世博会C片区)"},{"poiid":"B2094655D265A6F5429C","title":"海外滩中心","lon":"121.47417","lat":"31.19376","category":"46","category_name":"楼宇","address":"卢湾区龙华东路886号"},{"poiid":"B2094655D26EA7F84093","title":"卢浦大桥","lon":"121.48255","lat":"31.18603","category":"250","category_name":"公园户外","address":"卢湾区鲁班路909号"},{"poiid":"B2094757D06FA2FA449D","title":"上海世博会博物馆 - 上海世博会纪念展","lon":"121.48130635","lat":"31.1936099525","category":"182","category_name":"博物馆","address":"卢湾区局门路原世博会城市足迹馆内(近龙华东路)"},{"poiid":"B2094753D76BA0FD4593","title":"K11购物艺术中心","lon":"121.474906","lat":"31.194225","category":"500","category_name":"未知分类","address":"上海市 上海市淮海中路300号"},{"poiid":"B2094757D06FA7F5409F","title":"南园公园","lon":"121.4752825","lat":"31.193345331","category":"196","category_name":"公园","address":"上海卢湾区龙华东路800号(打浦路口)"},{"poiid":"B2094757D06FA5F8499C","title":"宝钢大舞台","lon":"121.484091043","lat":"31.1868936206","category":"260","category_name":"其他","address":"上海浦东新区世博公园"},{"poiid":"B2094757D06AA3F9449C","title":"江滨路观江平台～","lon":"121.47499573","lat":"31.192089987","category":"500","category_name":"未知分类","address":"上海卢湾区"},{"poiid":"B2094757D068A7F4479A","title":"南园滨江绿地","lon":"121.47228412","lat":"31.194327672","category":"500","category_name":"未知分类","address":"卢湾区龙华东路800号(打浦路口)"},{"poiid":"B2094757D068A2FC439C","title":"星港酒楼","lon":"121.47484","lat":"31.19505","category":"76","category_name":"上海菜","address":"卢湾区打浦路603号农工商超市5楼(近中山南一路)"},{"poiid":"B2094757D56DAAFD4998","title":"冰星飞扬（世博）羽毛球馆","lon":"121.47396326065063","lat":"31.180634737769793","category":"248","category_name":"生活娱乐","address":"浦东新区后滩路139号(近国展路)"},{"poiid":"B2094752D26EA5F8479E","title":"世博希腊馆","lon":"121.477208","lat":"31.185743","category":"500","category_name":"未知分类","address":null},{"poiid":"B2094757D064A4FE4198","title":"海外滩","lon":"121.472043738","lat":"31.1922194905","category":"500","category_name":"未知分类","address":"上海龙华东路868号"},{"poiid":"B2094757D66CA1FF4692","title":"南滨江","lon":"121.46897173","lat":"31.184909334","category":"500","category_name":"未知分类","address":"上海市徐汇区瑞宁路"},{"poiid":"B2094750D365A3FB489B","title":"上海意大利中心","lon":"121.47582388308","lat":"31.183763362212","category":"646","category_name":"文化体育类公司","address":"浦东新区世博大道2095号(近塘子泾路)"},{"poiid":"B2094751D16CABFE4593","title":"海外滩舒适堡","lon":"121.473662","lat":"31.193563","category":"248","category_name":"生活娱乐","address":"徐汇区龙华东路868号绿地海外滩中心B1楼(近打浦路)"},{"poiid":"B2094753D768A2FF469F","title":"小辉哥火锅（乐城店）","lon":"121.47583","lat":"31.182259","category":"247","category_name":"餐饮美食","address":"上海市徐汇区中山南二路699号2栋304—305"},{"poiid":"B2094752D06DA3F9459D","title":"飞行家主题园","lon":"121.475925","lat":"31.180498","category":"250","category_name":"公园户外","address":"上海市浦东新区国展路311号"},{"poiid":"B2094752DA69A1F5449B","title":"博大汽车公园","lon":"121.472341","lat":"31.179505","category":"500","category_name":"未知分类","address":"上海市 国展路189号"},{"poiid":"B2094655D26BA0FA409C","title":"中心广场(意大利馆东)","lon":"121.47659","lat":"31.18368","category":"201","category_name":"城市广场","address":"上海世博园区"},{"poiid":"B2094750DB64A5FE459B","title":"Rose Queen Coffee","lon":"121.47404","lat":"31.19128","category":"260","category_name":"其他","address":"卢湾区打浦路688号(近江滨路)"},{"poiid":"B2094654DA6DA4FA419D","title":"卢湾城市花园","lon":"121.4775","lat":"31.19385","category":"47","category_name":"住宅区","address":"上海市卢湾区鲁班路738弄"},{"poiid":"B2094757D06FA0FA469A","title":"打浦桥隧道","lon":"121.47177124","lat":"31.194749832","category":"500","category_name":"未知分类","address":"上海打浦桥隧道"},{"poiid":"B2094757D168A0FE4393","title":"绿地万豪28楼行政餐厅","lon":"121.472935738","lat":"31.1918104818","category":"500","category_name":"未知分类","address":"上海市卢湾区江滨路99号"},{"poiid":"B2094752DB6AA0FB469A","title":"上海海之宝体育运动中心","lon":"121.4775055492","lat":"31.179249091782","category":"230","category_name":"足球场","address":"上海浦东新区国展路410号（近上钢路）"},{"poiid":"B2094757D06FAAF4429D","title":"麦盛莉(耀华店)","lon":"121.4763831","lat":"31.176898854","category":"76","category_name":"上海菜","address":"浦东新区耀华路488号(西营路口)"},{"poiid":"B2094752D365A4FD4993","title":"2062新能源主题公园","lon":"121.480274","lat":"31.182386","category":"250","category_name":"公园户外","address":"世博园C片区"},{"poiid":"B2094655D26BAAFD469F","title":"德中同行之家","lon":"121.47682","lat":"31.18237","category":"183","category_name":"展览馆","address":"上海世博园区"},{"poiid":"B2094654DA6DA4FA429B","title":"紫荆新苑","lon":"121.47836","lat":"31.192335","category":"47","category_name":"住宅区","address":"紫荆新苑位于卢湾鲁班路797号"},{"poiid":"B2094757DB6FA5FE489B","title":"地铁9号线徐家汇站","lon":"121.4773750945231","lat":"31.18166830842563","category":"500","category_name":"未知分类","address":"徐家汇"},{"poiid":"B2094753D76BA0FF4399","title":"上海世博洲际酒店","lon":"121.472961","lat":"31.184413","category":"500","category_name":"未知分类","address":"上海市 上海浦东新区雪野路1188号"},{"poiid":"B2094757D06AA4FD4299","title":"世博会后滩广场","lon":"121.472229","lat":"31.181316375","category":"500","category_name":"未知分类","address":"上海世博会C片区"},{"poiid":"B2094753D665AAF94899","title":"田子坊","lon":"121.472808","lat":"31.185895","category":"500","category_name":"未知分类","address":"上海市 泰康路"},{"poiid":"B2094655D265A1FF4793","title":"丰收日","lon":"121.47794","lat":"31.18171","category":"257","category_name":"中餐厅","address":"上海世博园区"},{"poiid":"B2094655D36DA2F94593","title":"打浦路隧道","lon":"121.47834","lat":"31.18261","category":"250","category_name":"公园户外","address":""},{"poiid":"B2094757D069A3FE4292","title":"龙腾大道南滨江","lon":"121.47991373","lat":"31.180792247","category":"260","category_name":"其他","address":"上海市徐汇区龙腾大道"},{"poiid":"B2094757D66CA2FF429A","title":"马可孛罗","lon":"121.47337973","lat":"31.183959314","category":"500","category_name":"未知分类","address":"上海昌里路近历城路"},{"poiid":"B2094757D06AA5FD499D","title":"四号线大木桥路站","lon":"121.473038838","lat":"31.1900380441","category":"500","category_name":"未知分类","address":"上海四号线"},{"poiid":"B2094757D069A2F9429A","title":"786路公交","lon":"121.47825758","lat":"31.188280152","category":"38","category_name":"公交车站","address":"上海文化广场—南码头路昌里东路"},{"poiid":"B2094757D06FA0FB4892","title":"世博会英国馆","lon":"121.47699","lat":"31.18422","category":"260","category_name":"其他","address":"上海浦东新区世博大道塘子泾路口(原上海世博会C片区)"},{"poiid":"B209475CD165A6F5459D","title":"飞行家主题乐园","lon":"121.476776","lat":"31.181634","category":"500","category_name":"未知分类","address":"上海市 国展路311号"},{"poiid":"B2094757D068A6FB459C","title":"世博会墨西哥馆","lon":"121.47791","lat":"31.17884","category":"260","category_name":"其他","address":"上海浦东新区国展路近上钢路(原上海世博会C片区)"},{"poiid":"B209475CD66DA6FC4198","title":"辣府","lon":"121.474594","lat":"31.19452","category":"247","category_name":"餐饮美食","address":"上海市 打浦路603号"},{"poiid":"B2094757D16BABFA4598","title":"半淞园路街道","lon":"121.478567938","lat":"31.1869877791","category":"500","category_name":"未知分类","address":"上海西藏南路1360号"},{"poiid":"B2094757D06FA0FF409C","title":"世博会卢森堡大公国馆","lon":"121.47599792","lat":"31.183130264","category":"260","category_name":"其他","address":"上海浦东新区上钢路博成路口(原上海世博会C片区)"},{"poiid":"B2094655D26FA5F44792","title":"农工商超市No.0119","lon":"121.4751","lat":"31.19522","category":"118","category_name":"超级市场","address":"打浦路603"}]