[{"poiid":"B2094655D36CA2FF499D","title":"青村","lon":"121.58021","lat":"30.92378","category":"38","category_name":"公交车站","address":""},{"poiid":"B2094757D569A6FF4199","title":"青村小镇","lon":"121.5753","lat":"30.925316","category":"47","category_name":"住宅区","address":"奉贤区青村镇南明路近南奉公路"},{"poiid":"B2094757D065AAFD499E","title":"北唐新苑","lon":"121.58171","lat":"30.931516","category":"47","category_name":"住宅区","address":"上海市奉贤区青村镇南明路191号"},{"poiid":"B2094757D569A1FF409A","title":"青港工业园","lon":"121.59221842","lat":"30.92283719","category":"45","category_name":"产业园区","address":"中国上海市奉贤区光大路"},{"poiid":"B2094757D16AABFC489B","title":"青村世外桃源","lon":"121.59889215","lat":"30.930520027","category":"500","category_name":"未知分类","address":"近郊奉贤青村镇西吴村桃源弄118号(近325省道)"},{"poiid":"B2094655D36CA2F8409F","title":"青村镇","lon":"121.58619","lat":"30.92381","category":"38","category_name":"公交车站","address":"枕浦路27弄"},{"poiid":"B2094655D26EA1FF4899","title":"北港苑小区","lon":"121.58276","lat":"30.92923","category":"47","category_name":"住宅区","address":"青村镇人民路445号"},{"poiid":"B2094752D769A6FB499F","title":"浦东国际机场","lon":"121.587824","lat":"30.925274","category":"627","category_name":"一般地点标志","address":null},{"poiid":"B2094655D265A7FB419D","title":"大宝人和饭店","lon":"121.58526","lat":"30.92394","category":"257","category_name":"中餐厅","address":"青村镇南奉公路2642号"},{"poiid":"B2094654DB65A2FC4793","title":"金色童年幼儿园","lon":"121.58795","lat":"30.92071","category":"57","category_name":"幼儿园","address":"青村南路53"},{"poiid":"B2094654DB64AAFC499B","title":"青村中学","lon":"121.58515","lat":"30.92123","category":"55","category_name":"中学","address":""},{"poiid":"B2094654DB64ABF54792","title":"奉贤区青村小学","lon":"121.58259","lat":"30.92763","category":"56","category_name":"小学","address":""},{"poiid":"B2094757D569A1FE489D","title":"法莱尔鞋服广场","lon":"121.58316189","lat":"30.92358805","category":"119","category_name":"商场","address":"中国上海市奉贤区南奉公路"},{"poiid":"B2094655D26BA1F84099","title":"南奉公路青村镇","lon":"121.5819","lat":"30.92377","category":"38","category_name":"公交车站","address":""},{"poiid":"B2094757D165A2FF489C","title":"青村镇卫生院","lon":"121.58165615","lat":"30.923547854","category":"162","category_name":"医院","address":"上海近郊奉贤县文卫路15号  "},{"poiid":"B2094757D569A7F54893","title":"东方龙商场","lon":"121.58150119","lat":"30.92393039","category":"119","category_name":"商场","address":"中国上海市奉贤区南奉公路"},{"poiid":"B2094757D66CA7FC4699","title":"文峰奉贤店","lon":"121.585012","lat":"30.923854","category":"500","category_name":"未知分类","address":"上海奉贤区南奉公路人民路路口"},{"poiid":"B2094757D065A5FF4693","title":"奉贤区青村镇政府","lon":"121.581694","lat":"30.923398","category":"500","category_name":"未知分类","address":"上海南奉公路2815号"},{"poiid":"B2094757D569A2FE479C","title":"复兴大药房","lon":"121.58222304","lat":"30.92394911","category":"162","category_name":"医院","address":"中国上海市奉贤区南奉公路"},{"poiid":"B2094655D26EA0FA4792","title":"青村镇敬老院","lon":"121.5842","lat":"30.92746","category":"615","category_name":"敬老院","address":"北港村387"},{"poiid":"B2094655D26BA1F84199","title":"南奉公路航塘公路","lon":"121.60715","lat":"30.91965","category":"38","category_name":"公交车站","address":""},{"poiid":"B2094757D568A5FB429B","title":"青村镇社区居委老年活动室","lon":"121.58498427","lat":"30.92355957","category":"248","category_name":"生活娱乐","address":"南奉公路2649"},{"poiid":"B2094655D26BA6FE4599","title":"青村天主堂","lon":"121.57989","lat":"30.92356","category":"245","category_name":"教堂","address":"南奉公路2895"},{"poiid":"B2094654DB64AAFC499E","title":"北唐新苑4号门","lon":"121.57833","lat":"30.92803","category":"47","category_name":"住宅区","address":""},{"poiid":"B2094654DB64AAFC4992","title":"北唐新苑5号门","lon":"121.57805","lat":"30.92727","category":"47","category_name":"住宅区","address":""},{"poiid":"B2094654DB68A2FA4399","title":"中国农业银行(南奉公路)","lon":"121.58209","lat":"30.92393","category":"150","category_name":"银行","address":"青村镇"},{"poiid":"B2094654DB68A2FA4098","title":"青村派出所","lon":"121.58115","lat":"30.92316","category":"609","category_name":"警察局","address":"奉贤区青村镇城乡路4号"},{"poiid":"B2094655D26EA0FB409A","title":"上海农村商业银行青村支行","lon":"121.58197","lat":"30.9235","category":"150","category_name":"银行","address":"青村镇"},{"poiid":"B2094655D264A5FC4693","title":"北港和景苑","lon":"121.57732","lat":"30.928932","category":"47","category_name":"住宅区","address":"奉贤区南明路158号"},{"poiid":"B2094757D16FA5FB419E","title":"世外桃园野战营","lon":"121.60007115","lat":"30.93907724","category":"260","category_name":"其他","address":"上海近郊奉贤青村镇桃园场118号(航塘公路西侧)  "},{"poiid":"B2094655D26FA1F9409E","title":"北唐新苑2号门","lon":"121.57593","lat":"30.92954","category":"47","category_name":"住宅区","address":""},{"poiid":"B2094757D16CA7FB409E","title":"奉贤生态园","lon":"121.58201","lat":"30.92317","category":"260","category_name":"其他","address":"近郊奉贤区青村镇(近碧海金沙)"},{"poiid":"B2094757D568A4F94099","title":"青村足浴","lon":"121.58030979","lat":"30.92355577","category":"149","category_name":"洗浴推拿场所","address":"南奉公路2875"},{"poiid":"B2094655D26BABFE489B","title":"克莉丝汀南奉公路二店","lon":"121.608","lat":"30.91942","category":"112","category_name":"糕饼店","address":"近郊奉贤区南奉公路890弄14号(近卜蜂莲花南桥店)"},{"poiid":"B2094654DB64AAFC499D","title":"北唐新苑3号门","lon":"121.57642","lat":"30.92921","category":"47","category_name":"住宅区","address":""},{"poiid":"B2094654DB64AAFC499C","title":"北唐新苑1号门","lon":"121.575","lat":"30.92787","category":"47","category_name":"住宅区","address":""},{"poiid":"B2094655D26FA1F84498","title":"青村幼儿园","lon":"121.57587","lat":"30.92891","category":"57","category_name":"幼儿园","address":"近郊奉贤区青村镇镇南路1号"},{"poiid":"B2094757D569A3FC409E","title":"青村二手电器出售","lon":"121.57798394","lat":"30.92363444","category":"138","category_name":"家电电子卖场","address":"南奉公路2985号"},{"poiid":"B2094655D265A1F8409C","title":"上海腾源钢材经营部","lon":"121.57812","lat":"30.92362","category":"123","category_name":"家具建材市场","address":"南奉公路2975号"},{"poiid":"B2094655D26BA6FA4798","title":"上海力邦医疗器械有限公司","lon":"121.60583","lat":"30.91977","category":"263","category_name":"公司","address":""},{"poiid":"B2094654DB68A4F5479A","title":"上海恒业化工有限公司","lon":"121.59159","lat":"30.91223","category":"263","category_name":"公司","address":""},{"poiid":"B2094655D26FA1F8419A","title":"上海龙澳家具有限公司","lon":"121.60768","lat":"30.91919","category":"263","category_name":"公司","address":"南奉公路1529"}]