[{"poiid":"B2094654DA6EA7FF409A","title":"大肠面","lon":"121.48144","lat":"31.21834","category":"68","category_name":"快餐厅","address":"卢湾区复兴中路59号(吉安路东台路间)"},{"poiid":"B2094750D26EABF8459A","title":"上海虹桥机场","lon":"121.48","lat":"31.22","category":"21","category_name":"飞机场","address":"上海长宁区虹桥路2550号"},{"poiid":"B2094757D16AA5F94593","title":"好乐迪","lon":"121.47968292","lat":"31.220613479","category":"500","category_name":"未知分类","address":"上海卢湾区顺昌路2号"},{"poiid":"B2094753D76FAAFA449C","title":"上海滩国泰旗舰店","lon":"121.466011","lat":"31.216125","category":"249","category_name":"购物服务","address":"淮海中路868号"},{"poiid":"B209475CD564A7F84292","title":"上海滩新天地店","lon":"121.47463","lat":"31.22164","category":"119","category_name":"商场","address":"\"太仓路181弄新天地北里15号\r\n\""},{"poiid":"B209475CD564A7F8439E","title":"上海滩中信泰富店","lon":"121.45602","lat":"31.22851","category":"119","category_name":"商场","address":"\"南京西路1168号中信泰富广场，店铺号221.\r\n\""},{"poiid":"B209475CD564A7F84392","title":"上海滩浦东香格里拉店","lon":"121.50058","lat":"31.23634","category":"119","category_name":"商场","address":"浦东富成路33号香格里拉酒店内大堂层"},{"poiid":"B2094757D06FA6F5499C","title":"翠湖天地御苑","lon":"121.47715","lat":"31.21806","category":"47","category_name":"住宅区","address":"黄浦区东门路168号2楼252号(近中华路豫园)"},{"poiid":"B2094757D06FA2FA4292","title":"普华永道中心","lon":"121.47667706","lat":"31.2208910235","category":"46","category_name":"楼宇","address":"上海卢湾区湖滨路202号"},{"poiid":"B2094757D064A3FC4299","title":"POST餐厅","lon":"121.47842","lat":"31.21808","category":"94","category_name":"西餐厅","address":"卢湾区顺昌路168弄翠湖天地10号会所2楼(自忠路)"},{"poiid":"B2094757D068A1F94392","title":"新天地南里","lon":"121.48018047","lat":"31.217756111","category":"119","category_name":"商场","address":"上海卢湾区兴业路123弄"},{"poiid":"B2094757D06FAAFA499D","title":"法藏讲寺","lon":"121.48161","lat":"31.21755","category":"244","category_name":"寺庙道观","address":"上海卢湾区吉安路271号(近复兴中路)"},{"poiid":"B2094751D26DABFA459F","title":"新天地摩罗街","lon":"121.479576","lat":"31.217754","category":"500","category_name":"未知分类","address":null},{"poiid":"B2094654DA6EABFB4493","title":"东台路古玩市场(自忠路)","lon":"121.48128","lat":"31.22059","category":"134","category_name":"古玩字画店","address":"自忠路28"},{"poiid":"B2094750D26FA5F84792","title":"宁静名猫生活馆","lon":"121.480108","lat":"31.217455","category":"260","category_name":"其他","address":"黄浦区西藏南路765号永惠大厦1303室(近方斜路)"},{"poiid":"B209475DDB64AAFA4193","title":"云南云海肴","lon":"121.479309","lat":"31.217967","category":"247","category_name":"餐饮美食","address":"上海市 新天地兴业路123弄1号楼03单元"},{"poiid":"B2094757D66BA3F94698","title":"伊莎贝尔 Trattoria Isabelle","lon":"121.479601054","lat":"31.221654793","category":"98","category_name":"意式菜品餐厅","address":"卢湾区吉安路11号(湖滨路崇德路间)"},{"poiid":"B2094654DA6EABF54498","title":"翠湖天地","lon":"121.47864","lat":"31.21832","category":"47","category_name":"住宅区","address":"长宁区镇宁路111号"},{"poiid":"B2094757D068A4F8479B","title":"肯德基 KFC (中华店)","lon":"121.47820043","lat":"31.217946738","category":"68","category_name":"快餐厅","address":"黄浦区中华路1405号(文庙旁)"},{"poiid":"B2094757D065A0F5429C","title":"榄香","lon":"121.47851996","lat":"31.218682691","category":"247","category_name":"餐饮美食","address":"上海中环广场二楼"},{"poiid":"B2094751D36BA5FF469F","title":"上海南站","lon":"121.48","lat":"31.22","category":"195","category_name":"游乐场","address":"上海徐家汇"},{"poiid":"B2094752D26BA2FF4499","title":"耀华路地铁站","lon":"121.479828","lat":"31.218002","category":"36","category_name":"地铁站","address":null},{"poiid":"B209475DDB64AAFA4399","title":"云南云海肴","lon":"121.479309","lat":"31.217967","category":"247","category_name":"餐饮美食","address":"上海市 新天地兴业路123弄1号楼03单元"},{"poiid":"B2094654DA6EABF5449A","title":"太平桥公园","lon":"121.47679","lat":"31.2197","category":"196","category_name":"公园","address":"淮海中路"},{"poiid":"B2094757DB6FA5FA4798","title":"地铁八号线","lon":"121.4801134782591","lat":"31.21684147290736","category":"500","category_name":"未知分类","address":"陆家浜路站"},{"poiid":"B2094655D36CA0FB4392","title":"济南路复兴中路","lon":"121.47947","lat":"31.21833","category":"38","category_name":"公交车站","address":""},{"poiid":"B2094751D56DA5FC489F","title":"麟笼坊","lon":"121.477961","lat":"31.217917","category":"247","category_name":"餐饮美食","address":null},{"poiid":"B209475CD26CA5FD4092","title":"Simply life bakery cafe","lon":"121.478713","lat":"31.218133","category":"500","category_name":"未知分类","address":"上海市 新天地"},{"poiid":"B2094757D06AA3FF4492","title":"上海滩餐厅","lon":"121.47940063","lat":"31.219118118","category":"217","category_name":"旅馆招待所","address":"上海市黄浦区黄陂南路333号"},{"poiid":"B209475CD468A1FC4899","title":"大福屋","lon":"121.478874","lat":"31.216972","category":"500","category_name":"未知分类","address":"上海市 上海市卢湾区新天地"},{"poiid":"B2094757D068A4F9489F","title":"BerryBear Frozen Yogurt","lon":"121.479574738","lat":"31.2173970267","category":"113","category_name":"冷饮店","address":"上海卢湾区兴业路123弄新天地南里6号楼3楼327-3单元"},{"poiid":"B2094757D065A6F9429B","title":"复兴中路吉安路","lon":"121.478979638","lat":"31.2180810412","category":"500","category_name":"未知分类","address":"上海复兴中路吉安路"},{"poiid":"B2094757D16FA1FB469F","title":"太平湖绿地","lon":"121.47711773","lat":"31.219893079","category":"500","category_name":"未知分类","address":"上海ShanghaiLuwanHubin Rd"},{"poiid":"B2094757D66FA6FE4599","title":"西贡庭","lon":"121.47892573","lat":"31.218769055","category":"500","category_name":"未知分类","address":"上海市古羊路399号"},{"poiid":"B2094655D265A6FD4998","title":"景安里小区(西门)","lon":"121.47948","lat":"31.21856","category":"47","category_name":"住宅区","address":"济南路185弄1-28号"},{"poiid":"B2094654DA6EAAFD499A","title":"光明便利No.191","lon":"121.47908","lat":"31.21953","category":"117","category_name":"便民商店/便利店","address":"自忠路133-135"},{"poiid":"B2094654DA6EABFB499B","title":"上海市比乐中学","lon":"121.47971","lat":"31.22154","category":"55","category_name":"中学","address":"卢湾区崇德路43号(近顺昌路)"},{"poiid":"B2094757D16AA7FD439F","title":"Moon Stake","lon":"121.478447436","lat":"31.2187479038","category":"500","category_name":"未知分类","address":"上海新天地南里1楼"},{"poiid":"B2094655D265A6F94499","title":"景安里小区","lon":"121.47961","lat":"31.2186","category":"47","category_name":"住宅区","address":"济南路185弄1-28号"},{"poiid":"B2094757D465A7FF499B","title":"新新美食林","lon":"121.48006393688","lat":"31.219839547289","category":"68","category_name":"快餐厅","address":"卢湾区自忠路75号(近吉安路)"},{"poiid":"B2094757D66DA0FC409C","title":"舒适堡","lon":"121.476330738","lat":"31.2202470874","category":"500","category_name":"未知分类","address":"卢湾区淮海中路1号(近西藏南路)"},{"poiid":"B2094654DA6EAAF5479E","title":"顺昌饮食店","lon":"121.478","lat":"31.21922","category":"68","category_name":"快餐厅","address":"卢湾区顺昌路(近徐家汇路)"},{"poiid":"B2094757D66DA2FA4592","title":"D3","lon":"121.4792737","lat":"31.218431899","category":"500","category_name":"未知分类","address":"上海新天地"},{"poiid":"B2094655D26CA7FB4992","title":"翠湖天地(东门)","lon":"121.47914","lat":"31.21857","category":"656","category_name":"大门","address":"济南路168弄1-15号"},{"poiid":"B2094753D46AA0FF4698","title":"上海滩","lon":"121.479728","lat":"31.219394","category":"500","category_name":"未知分类","address":"上海市 上海市黄陂南路333号"},{"poiid":"B2094757D66FA2FF4199","title":"吉安路自忠路","lon":"121.47998873","lat":"31.21946207","category":"500","category_name":"未知分类","address":"上海吉安路自忠路126弄号"},{"poiid":"B2094757DA65A5FB419C","title":"格林豪泰(上海复兴中路新天地快捷酒店)","lon":"121.4786196","lat":"31.21725163","category":"216","category_name":"经济型连锁酒店","address":"上海市黄浦区复兴中路199号（近顺昌路）"},{"poiid":"B2094654DB6BA4FA499A","title":"良友金伴自忠路店","lon":"121.47985","lat":"31.21979","category":"117","category_name":"便民商店/便利店","address":"自忠路87"},{"poiid":"B209475DD26CABFF4199","title":"糖贵妃甜品","lon":"121.479598","lat":"31.217428","category":"247","category_name":"餐饮美食","address":"上海市 新天地店"},{"poiid":"B2094752DA6CABFC4593","title":"青籁养身GreenMassage","lon":"121.47840140377","lat":"31.219403615179","category":"248","category_name":"生活娱乐","address":"太仓路58号"},{"poiid":"B2094654DA6EA7FF409A","title":"大肠面","lon":"121.48144","lat":"31.21834","category":"68","category_name":"快餐厅","address":"卢湾区复兴中路59号(吉安路东台路间)"},{"poiid":"B2094750D26EABF8459A","title":"上海虹桥机场","lon":"121.48","lat":"31.22","category":"21","category_name":"飞机场","address":"上海长宁区虹桥路2550号"},{"poiid":"B2094757D16AA5F94593","title":"好乐迪","lon":"121.47968292","lat":"31.220613479","category":"500","category_name":"未知分类","address":"上海卢湾区顺昌路2号"},{"poiid":"B2094753D76FAAFA449C","title":"上海滩国泰旗舰店","lon":"121.466011","lat":"31.216125","category":"249","category_name":"购物服务","address":"淮海中路868号"},{"poiid":"B209475CD564A7F84292","title":"上海滩新天地店","lon":"121.47463","lat":"31.22164","category":"119","category_name":"商场","address":"\"太仓路181弄新天地北里15号\r\n\""},{"poiid":"B209475CD564A7F8439E","title":"上海滩中信泰富店","lon":"121.45602","lat":"31.22851","category":"119","category_name":"商场","address":"\"南京西路1168号中信泰富广场，店铺号221.\r\n\""},{"poiid":"B209475CD564A7F84392","title":"上海滩浦东香格里拉店","lon":"121.50058","lat":"31.23634","category":"119","category_name":"商场","address":"浦东富成路33号香格里拉酒店内大堂层"},{"poiid":"B2094757D06FA6F5499C","title":"翠湖天地御苑","lon":"121.47715","lat":"31.21806","category":"47","category_name":"住宅区","address":"黄浦区东门路168号2楼252号(近中华路豫园)"},{"poiid":"B2094757D06FA2FA4292","title":"普华永道中心","lon":"121.47667706","lat":"31.2208910235","category":"46","category_name":"楼宇","address":"上海卢湾区湖滨路202号"},{"poiid":"B2094757D064A3FC4299","title":"POST餐厅","lon":"121.47842","lat":"31.21808","category":"94","category_name":"西餐厅","address":"卢湾区顺昌路168弄翠湖天地10号会所2楼(自忠路)"},{"poiid":"B2094757D068A1F94392","title":"新天地南里","lon":"121.48018047","lat":"31.217756111","category":"119","category_name":"商场","address":"上海卢湾区兴业路123弄"},{"poiid":"B2094757D06FAAFA499D","title":"法藏讲寺","lon":"121.48161","lat":"31.21755","category":"244","category_name":"寺庙道观","address":"上海卢湾区吉安路271号(近复兴中路)"},{"poiid":"B2094751D26DABFA459F","title":"新天地摩罗街","lon":"121.479576","lat":"31.217754","category":"500","category_name":"未知分类","address":null},{"poiid":"B2094654DA6EABFB4493","title":"东台路古玩市场(自忠路)","lon":"121.48128","lat":"31.22059","category":"134","category_name":"古玩字画店","address":"自忠路28"},{"poiid":"B2094750D26FA5F84792","title":"宁静名猫生活馆","lon":"121.480108","lat":"31.217455","category":"260","category_name":"其他","address":"黄浦区西藏南路765号永惠大厦1303室(近方斜路)"},{"poiid":"B209475DDB64AAFA4193","title":"云南云海肴","lon":"121.479309","lat":"31.217967","category":"247","category_name":"餐饮美食","address":"上海市 新天地兴业路123弄1号楼03单元"},{"poiid":"B2094757D66BA3F94698","title":"伊莎贝尔 Trattoria Isabelle","lon":"121.479601054","lat":"31.221654793","category":"98","category_name":"意式菜品餐厅","address":"卢湾区吉安路11号(湖滨路崇德路间)"},{"poiid":"B2094654DA6EABF54498","title":"翠湖天地","lon":"121.47864","lat":"31.21832","category":"47","category_name":"住宅区","address":"长宁区镇宁路111号"},{"poiid":"B2094757D068A4F8479B","title":"肯德基 KFC (中华店)","lon":"121.47820043","lat":"31.217946738","category":"68","category_name":"快餐厅","address":"黄浦区中华路1405号(文庙旁)"},{"poiid":"B2094757D065A0F5429C","title":"榄香","lon":"121.47851996","lat":"31.218682691","category":"247","category_name":"餐饮美食","address":"上海中环广场二楼"},{"poiid":"B2094751D36BA5FF469F","title":"上海南站","lon":"121.48","lat":"31.22","category":"195","category_name":"游乐场","address":"上海徐家汇"},{"poiid":"B2094752D26BA2FF4499","title":"耀华路地铁站","lon":"121.479828","lat":"31.218002","category":"36","category_name":"地铁站","address":null},{"poiid":"B209475DDB64AAFA4399","title":"云南云海肴","lon":"121.479309","lat":"31.217967","category":"247","category_name":"餐饮美食","address":"上海市 新天地兴业路123弄1号楼03单元"},{"poiid":"B2094654DA6EABF5449A","title":"太平桥公园","lon":"121.47679","lat":"31.2197","category":"196","category_name":"公园","address":"淮海中路"},{"poiid":"B2094757DB6FA5FA4798","title":"地铁八号线","lon":"121.4801134782591","lat":"31.21684147290736","category":"500","category_name":"未知分类","address":"陆家浜路站"},{"poiid":"B2094655D36CA0FB4392","title":"济南路复兴中路","lon":"121.47947","lat":"31.21833","category":"38","category_name":"公交车站","address":""},{"poiid":"B2094751D56DA5FC489F","title":"麟笼坊","lon":"121.477961","lat":"31.217917","category":"247","category_name":"餐饮美食","address":null},{"poiid":"B209475CD26CA5FD4092","title":"Simply life bakery cafe","lon":"121.478713","lat":"31.218133","category":"500","category_name":"未知分类","address":"上海市 新天地"},{"poiid":"B2094757D06AA3FF4492","title":"上海滩餐厅","lon":"121.47940063","lat":"31.219118118","category":"217","category_name":"旅馆招待所","address":"上海市黄浦区黄陂南路333号"},{"poiid":"B209475CD468A1FC4899","title":"大福屋","lon":"121.478874","lat":"31.216972","category":"500","category_name":"未知分类","address":"上海市 上海市卢湾区新天地"},{"poiid":"B2094757D068A4F9489F","title":"BerryBear Frozen Yogurt","lon":"121.479574738","lat":"31.2173970267","category":"113","category_name":"冷饮店","address":"上海卢湾区兴业路123弄新天地南里6号楼3楼327-3单元"},{"poiid":"B2094757D065A6F9429B","title":"复兴中路吉安路","lon":"121.478979638","lat":"31.2180810412","category":"500","category_name":"未知分类","address":"上海复兴中路吉安路"},{"poiid":"B2094757D16FA1FB469F","title":"太平湖绿地","lon":"121.47711773","lat":"31.219893079","category":"500","category_name":"未知分类","address":"上海ShanghaiLuwanHubin Rd"},{"poiid":"B2094757D66FA6FE4599","title":"西贡庭","lon":"121.47892573","lat":"31.218769055","category":"500","category_name":"未知分类","address":"上海市古羊路399号"},{"poiid":"B2094655D265A6FD4998","title":"景安里小区(西门)","lon":"121.47948","lat":"31.21856","category":"47","category_name":"住宅区","address":"济南路185弄1-28号"},{"poiid":"B2094654DA6EAAFD499A","title":"光明便利No.191","lon":"121.47908","lat":"31.21953","category":"117","category_name":"便民商店/便利店","address":"自忠路133-135"},{"poiid":"B2094654DA6EABFB499B","title":"上海市比乐中学","lon":"121.47971","lat":"31.22154","category":"55","category_name":"中学","address":"卢湾区崇德路43号(近顺昌路)"},{"poiid":"B2094757D16AA7FD439F","title":"Moon Stake","lon":"121.478447436","lat":"31.2187479038","category":"500","category_name":"未知分类","address":"上海新天地南里1楼"},{"poiid":"B2094655D265A6F94499","title":"景安里小区","lon":"121.47961","lat":"31.2186","category":"47","category_name":"住宅区","address":"济南路185弄1-28号"},{"poiid":"B2094757D465A7FF499B","title":"新新美食林","lon":"121.48006393688","lat":"31.219839547289","category":"68","category_name":"快餐厅","address":"卢湾区自忠路75号(近吉安路)"},{"poiid":"B2094757D66DA0FC409C","title":"舒适堡","lon":"121.476330738","lat":"31.2202470874","category":"500","category_name":"未知分类","address":"卢湾区淮海中路1号(近西藏南路)"},{"poiid":"B2094654DA6EAAF5479E","title":"顺昌饮食店","lon":"121.478","lat":"31.21922","category":"68","category_name":"快餐厅","address":"卢湾区顺昌路(近徐家汇路)"},{"poiid":"B2094757D66DA2FA4592","title":"D3","lon":"121.4792737","lat":"31.218431899","category":"500","category_name":"未知分类","address":"上海新天地"},{"poiid":"B2094655D26CA7FB4992","title":"翠湖天地(东门)","lon":"121.47914","lat":"31.21857","category":"656","category_name":"大门","address":"济南路168弄1-15号"},{"poiid":"B2094753D46AA0FF4698","title":"上海滩","lon":"121.479728","lat":"31.219394","category":"500","category_name":"未知分类","address":"上海市 上海市黄陂南路333号"},{"poiid":"B2094757D66FA2FF4199","title":"吉安路自忠路","lon":"121.47998873","lat":"31.21946207","category":"500","category_name":"未知分类","address":"上海吉安路自忠路126弄号"},{"poiid":"B2094757DA65A5FB419C","title":"格林豪泰(上海复兴中路新天地快捷酒店)","lon":"121.4786196","lat":"31.21725163","category":"216","category_name":"经济型连锁酒店","address":"上海市黄浦区复兴中路199号（近顺昌路）"},{"poiid":"B2094654DB6BA4FA499A","title":"良友金伴自忠路店","lon":"121.47985","lat":"31.21979","category":"117","category_name":"便民商店/便利店","address":"自忠路87"},{"poiid":"B209475DD26CABFF4199","title":"糖贵妃甜品","lon":"121.479598","lat":"31.217428","category":"247","category_name":"餐饮美食","address":"上海市 新天地店"},{"poiid":"B2094752DA6CABFC4593","title":"青籁养身GreenMassage","lon":"121.47840140377","lat":"31.219403615179","category":"248","category_name":"生活娱乐","address":"太仓路58号"},{"poiid":"B2094654DA6EA7FF409A","title":"大肠面","lon":"121.48144","lat":"31.21834","category":"68","category_name":"快餐厅","address":"卢湾区复兴中路59号(吉安路东台路间)"},{"poiid":"B2094750D26EABF8459A","title":"上海虹桥机场","lon":"121.48","lat":"31.22","category":"21","category_name":"飞机场","address":"上海长宁区虹桥路2550号"},{"poiid":"B2094757D16AA5F94593","title":"好乐迪","lon":"121.47968292","lat":"31.220613479","category":"500","category_name":"未知分类","address":"上海卢湾区顺昌路2号"},{"poiid":"B2094753D76FAAFA449C","title":"上海滩国泰旗舰店","lon":"121.466011","lat":"31.216125","category":"249","category_name":"购物服务","address":"淮海中路868号"},{"poiid":"B209475CD564A7F84292","title":"上海滩新天地店","lon":"121.47463","lat":"31.22164","category":"119","category_name":"商场","address":"\"太仓路181弄新天地北里15号\r\n\""},{"poiid":"B209475CD564A7F8439E","title":"上海滩中信泰富店","lon":"121.45602","lat":"31.22851","category":"119","category_name":"商场","address":"\"南京西路1168号中信泰富广场，店铺号221.\r\n\""},{"poiid":"B209475CD564A7F84392","title":"上海滩浦东香格里拉店","lon":"121.50058","lat":"31.23634","category":"119","category_name":"商场","address":"浦东富成路33号香格里拉酒店内大堂层"},{"poiid":"B2094757D06FA6F5499C","title":"翠湖天地御苑","lon":"121.47715","lat":"31.21806","category":"47","category_name":"住宅区","address":"黄浦区东门路168号2楼252号(近中华路豫园)"},{"poiid":"B2094757D06FA2FA4292","title":"普华永道中心","lon":"121.47667706","lat":"31.2208910235","category":"46","category_name":"楼宇","address":"上海卢湾区湖滨路202号"},{"poiid":"B2094757D064A3FC4299","title":"POST餐厅","lon":"121.47842","lat":"31.21808","category":"94","category_name":"西餐厅","address":"卢湾区顺昌路168弄翠湖天地10号会所2楼(自忠路)"},{"poiid":"B2094757D068A1F94392","title":"新天地南里","lon":"121.48018047","lat":"31.217756111","category":"119","category_name":"商场","address":"上海卢湾区兴业路123弄"},{"poiid":"B2094757D06FAAFA499D","title":"法藏讲寺","lon":"121.48161","lat":"31.21755","category":"244","category_name":"寺庙道观","address":"上海卢湾区吉安路271号(近复兴中路)"},{"poiid":"B2094751D26DABFA459F","title":"新天地摩罗街","lon":"121.479576","lat":"31.217754","category":"500","category_name":"未知分类","address":null},{"poiid":"B2094654DA6EABFB4493","title":"东台路古玩市场(自忠路)","lon":"121.48128","lat":"31.22059","category":"134","category_name":"古玩字画店","address":"自忠路28"},{"poiid":"B2094750D26FA5F84792","title":"宁静名猫生活馆","lon":"121.480108","lat":"31.217455","category":"260","category_name":"其他","address":"黄浦区西藏南路765号永惠大厦1303室(近方斜路)"},{"poiid":"B209475DDB64AAFA4193","title":"云南云海肴","lon":"121.479309","lat":"31.217967","category":"247","category_name":"餐饮美食","address":"上海市 新天地兴业路123弄1号楼03单元"},{"poiid":"B2094757D66BA3F94698","title":"伊莎贝尔 Trattoria Isabelle","lon":"121.479601054","lat":"31.221654793","category":"98","category_name":"意式菜品餐厅","address":"卢湾区吉安路11号(湖滨路崇德路间)"},{"poiid":"B2094654DA6EABF54498","title":"翠湖天地","lon":"121.47864","lat":"31.21832","category":"47","category_name":"住宅区","address":"长宁区镇宁路111号"},{"poiid":"B2094757D068A4F8479B","title":"肯德基 KFC (中华店)","lon":"121.47820043","lat":"31.217946738","category":"68","category_name":"快餐厅","address":"黄浦区中华路1405号(文庙旁)"},{"poiid":"B2094757D065A0F5429C","title":"榄香","lon":"121.47851996","lat":"31.218682691","category":"247","category_name":"餐饮美食","address":"上海中环广场二楼"},{"poiid":"B2094751D36BA5FF469F","title":"上海南站","lon":"121.48","lat":"31.22","category":"195","category_name":"游乐场","address":"上海徐家汇"},{"poiid":"B2094752D26BA2FF4499","title":"耀华路地铁站","lon":"121.479828","lat":"31.218002","category":"36","category_name":"地铁站","address":null},{"poiid":"B209475DDB64AAFA4399","title":"云南云海肴","lon":"121.479309","lat":"31.217967","category":"247","category_name":"餐饮美食","address":"上海市 新天地兴业路123弄1号楼03单元"},{"poiid":"B2094654DA6EABF5449A","title":"太平桥公园","lon":"121.47679","lat":"31.2197","category":"196","category_name":"公园","address":"淮海中路"},{"poiid":"B2094757DB6FA5FA4798","title":"地铁八号线","lon":"121.4801134782591","lat":"31.21684147290736","category":"500","category_name":"未知分类","address":"陆家浜路站"},{"poiid":"B2094655D36CA0FB4392","title":"济南路复兴中路","lon":"121.47947","lat":"31.21833","category":"38","category_name":"公交车站","address":""},{"poiid":"B2094751D56DA5FC489F","title":"麟笼坊","lon":"121.477961","lat":"31.217917","category":"247","category_name":"餐饮美食","address":null},{"poiid":"B209475CD26CA5FD4092","title":"Simply life bakery cafe","lon":"121.478713","lat":"31.218133","category":"500","category_name":"未知分类","address":"上海市 新天地"},{"poiid":"B2094757D06AA3FF4492","title":"上海滩餐厅","lon":"121.47940063","lat":"31.219118118","category":"217","category_name":"旅馆招待所","address":"上海市黄浦区黄陂南路333号"},{"poiid":"B209475CD468A1FC4899","title":"大福屋","lon":"121.478874","lat":"31.216972","category":"500","category_name":"未知分类","address":"上海市 上海市卢湾区新天地"},{"poiid":"B2094757D068A4F9489F","title":"BerryBear Frozen Yogurt","lon":"121.479574738","lat":"31.2173970267","category":"113","category_name":"冷饮店","address":"上海卢湾区兴业路123弄新天地南里6号楼3楼327-3单元"},{"poiid":"B2094757D065A6F9429B","title":"复兴中路吉安路","lon":"121.478979638","lat":"31.2180810412","category":"500","category_name":"未知分类","address":"上海复兴中路吉安路"},{"poiid":"B2094757D16FA1FB469F","title":"太平湖绿地","lon":"121.47711773","lat":"31.219893079","category":"500","category_name":"未知分类","address":"上海ShanghaiLuwanHubin Rd"},{"poiid":"B2094757D66FA6FE4599","title":"西贡庭","lon":"121.47892573","lat":"31.218769055","category":"500","category_name":"未知分类","address":"上海市古羊路399号"},{"poiid":"B2094655D265A6FD4998","title":"景安里小区(西门)","lon":"121.47948","lat":"31.21856","category":"47","category_name":"住宅区","address":"济南路185弄1-28号"},{"poiid":"B2094654DA6EAAFD499A","title":"光明便利No.191","lon":"121.47908","lat":"31.21953","category":"117","category_name":"便民商店/便利店","address":"自忠路133-135"},{"poiid":"B2094654DA6EABFB499B","title":"上海市比乐中学","lon":"121.47971","lat":"31.22154","category":"55","category_name":"中学","address":"卢湾区崇德路43号(近顺昌路)"},{"poiid":"B2094757D16AA7FD439F","title":"Moon Stake","lon":"121.478447436","lat":"31.2187479038","category":"500","category_name":"未知分类","address":"上海新天地南里1楼"},{"poiid":"B2094655D265A6F94499","title":"景安里小区","lon":"121.47961","lat":"31.2186","category":"47","category_name":"住宅区","address":"济南路185弄1-28号"},{"poiid":"B2094757D465A7FF499B","title":"新新美食林","lon":"121.48006393688","lat":"31.219839547289","category":"68","category_name":"快餐厅","address":"卢湾区自忠路75号(近吉安路)"},{"poiid":"B2094757D66DA0FC409C","title":"舒适堡","lon":"121.476330738","lat":"31.2202470874","category":"500","category_name":"未知分类","address":"卢湾区淮海中路1号(近西藏南路)"},{"poiid":"B2094654DA6EAAF5479E","title":"顺昌饮食店","lon":"121.478","lat":"31.21922","category":"68","category_name":"快餐厅","address":"卢湾区顺昌路(近徐家汇路)"},{"poiid":"B2094757D66DA2FA4592","title":"D3","lon":"121.4792737","lat":"31.218431899","category":"500","category_name":"未知分类","address":"上海新天地"},{"poiid":"B2094655D26CA7FB4992","title":"翠湖天地(东门)","lon":"121.47914","lat":"31.21857","category":"656","category_name":"大门","address":"济南路168弄1-15号"},{"poiid":"B2094753D46AA0FF4698","title":"上海滩","lon":"121.479728","lat":"31.219394","category":"500","category_name":"未知分类","address":"上海市 上海市黄陂南路333号"},{"poiid":"B2094757D66FA2FF4199","title":"吉安路自忠路","lon":"121.47998873","lat":"31.21946207","category":"500","category_name":"未知分类","address":"上海吉安路自忠路126弄号"},{"poiid":"B2094757DA65A5FB419C","title":"格林豪泰(上海复兴中路新天地快捷酒店)","lon":"121.4786196","lat":"31.21725163","category":"216","category_name":"经济型连锁酒店","address":"上海市黄浦区复兴中路199号（近顺昌路）"},{"poiid":"B2094654DB6BA4FA499A","title":"良友金伴自忠路店","lon":"121.47985","lat":"31.21979","category":"117","category_name":"便民商店/便利店","address":"自忠路87"},{"poiid":"B209475DD26CABFF4199","title":"糖贵妃甜品","lon":"121.479598","lat":"31.217428","category":"247","category_name":"餐饮美食","address":"上海市 新天地店"},{"poiid":"B2094752DA6CABFC4593","title":"青籁养身GreenMassage","lon":"121.47840140377","lat":"31.219403615179","category":"248","category_name":"生活娱乐","address":"太仓路58号"},{"poiid":"B2094654DA6EA7FF409A","title":"大肠面","lon":"121.48144","lat":"31.21834","category":"68","category_name":"快餐厅","address":"卢湾区复兴中路59号(吉安路东台路间)"},{"poiid":"B2094750D26EABF8459A","title":"上海虹桥机场","lon":"121.48","lat":"31.22","category":"21","category_name":"飞机场","address":"上海长宁区虹桥路2550号"},{"poiid":"B2094757D16AA5F94593","title":"好乐迪","lon":"121.47968292","lat":"31.220613479","category":"500","category_name":"未知分类","address":"上海卢湾区顺昌路2号"},{"poiid":"B2094753D76FAAFA449C","title":"上海滩国泰旗舰店","lon":"121.466011","lat":"31.216125","category":"249","category_name":"购物服务","address":"淮海中路868号"},{"poiid":"B209475CD564A7F84292","title":"上海滩新天地店","lon":"121.47463","lat":"31.22164","category":"119","category_name":"商场","address":"\"太仓路181弄新天地北里15号\r\n\""},{"poiid":"B209475CD564A7F8439E","title":"上海滩中信泰富店","lon":"121.45602","lat":"31.22851","category":"119","category_name":"商场","address":"\"南京西路1168号中信泰富广场，店铺号221.\r\n\""},{"poiid":"B209475CD564A7F84392","title":"上海滩浦东香格里拉店","lon":"121.50058","lat":"31.23634","category":"119","category_name":"商场","address":"浦东富成路33号香格里拉酒店内大堂层"},{"poiid":"B2094757D06FA6F5499C","title":"翠湖天地御苑","lon":"121.47715","lat":"31.21806","category":"47","category_name":"住宅区","address":"黄浦区东门路168号2楼252号(近中华路豫园)"},{"poiid":"B2094757D06FA2FA4292","title":"普华永道中心","lon":"121.47667706","lat":"31.2208910235","category":"46","category_name":"楼宇","address":"上海卢湾区湖滨路202号"},{"poiid":"B2094757D064A3FC4299","title":"POST餐厅","lon":"121.47842","lat":"31.21808","category":"94","category_name":"西餐厅","address":"卢湾区顺昌路168弄翠湖天地10号会所2楼(自忠路)"},{"poiid":"B2094757D068A1F94392","title":"新天地南里","lon":"121.48018047","lat":"31.217756111","category":"119","category_name":"商场","address":"上海卢湾区兴业路123弄"},{"poiid":"B2094757D06FAAFA499D","title":"法藏讲寺","lon":"121.48161","lat":"31.21755","category":"244","category_name":"寺庙道观","address":"上海卢湾区吉安路271号(近复兴中路)"},{"poiid":"B2094751D26DABFA459F","title":"新天地摩罗街","lon":"121.479576","lat":"31.217754","category":"500","category_name":"未知分类","address":null},{"poiid":"B2094654DA6EABFB4493","title":"东台路古玩市场(自忠路)","lon":"121.48128","lat":"31.22059","category":"134","category_name":"古玩字画店","address":"自忠路28"},{"poiid":"B2094750D26FA5F84792","title":"宁静名猫生活馆","lon":"121.480108","lat":"31.217455","category":"260","category_name":"其他","address":"黄浦区西藏南路765号永惠大厦1303室(近方斜路)"},{"poiid":"B209475DDB64AAFA4193","title":"云南云海肴","lon":"121.479309","lat":"31.217967","category":"247","category_name":"餐饮美食","address":"上海市 新天地兴业路123弄1号楼03单元"},{"poiid":"B2094757D66BA3F94698","title":"伊莎贝尔 Trattoria Isabelle","lon":"121.479601054","lat":"31.221654793","category":"98","category_name":"意式菜品餐厅","address":"卢湾区吉安路11号(湖滨路崇德路间)"},{"poiid":"B2094654DA6EABF54498","title":"翠湖天地","lon":"121.47864","lat":"31.21832","category":"47","category_name":"住宅区","address":"长宁区镇宁路111号"},{"poiid":"B2094757D068A4F8479B","title":"肯德基 KFC (中华店)","lon":"121.47820043","lat":"31.217946738","category":"68","category_name":"快餐厅","address":"黄浦区中华路1405号(文庙旁)"},{"poiid":"B2094757D065A0F5429C","title":"榄香","lon":"121.47851996","lat":"31.218682691","category":"247","category_name":"餐饮美食","address":"上海中环广场二楼"},{"poiid":"B2094751D36BA5FF469F","title":"上海南站","lon":"121.48","lat":"31.22","category":"195","category_name":"游乐场","address":"上海徐家汇"},{"poiid":"B2094752D26BA2FF4499","title":"耀华路地铁站","lon":"121.479828","lat":"31.218002","category":"36","category_name":"地铁站","address":null},{"poiid":"B209475DDB64AAFA4399","title":"云南云海肴","lon":"121.479309","lat":"31.217967","category":"247","category_name":"餐饮美食","address":"上海市 新天地兴业路123弄1号楼03单元"},{"poiid":"B2094654DA6EABF5449A","title":"太平桥公园","lon":"121.47679","lat":"31.2197","category":"196","category_name":"公园","address":"淮海中路"},{"poiid":"B2094757DB6FA5FA4798","title":"地铁八号线","lon":"121.4801134782591","lat":"31.21684147290736","category":"500","category_name":"未知分类","address":"陆家浜路站"},{"poiid":"B2094655D36CA0FB4392","title":"济南路复兴中路","lon":"121.47947","lat":"31.21833","category":"38","category_name":"公交车站","address":""},{"poiid":"B2094751D56DA5FC489F","title":"麟笼坊","lon":"121.477961","lat":"31.217917","category":"247","category_name":"餐饮美食","address":null},{"poiid":"B209475CD26CA5FD4092","title":"Simply life bakery cafe","lon":"121.478713","lat":"31.218133","category":"500","category_name":"未知分类","address":"上海市 新天地"},{"poiid":"B2094757D06AA3FF4492","title":"上海滩餐厅","lon":"121.47940063","lat":"31.219118118","category":"217","category_name":"旅馆招待所","address":"上海市黄浦区黄陂南路333号"},{"poiid":"B209475CD468A1FC4899","title":"大福屋","lon":"121.478874","lat":"31.216972","category":"500","category_name":"未知分类","address":"上海市 上海市卢湾区新天地"},{"poiid":"B2094757D068A4F9489F","title":"BerryBear Frozen Yogurt","lon":"121.479574738","lat":"31.2173970267","category":"113","category_name":"冷饮店","address":"上海卢湾区兴业路123弄新天地南里6号楼3楼327-3单元"},{"poiid":"B2094757D065A6F9429B","title":"复兴中路吉安路","lon":"121.478979638","lat":"31.2180810412","category":"500","category_name":"未知分类","address":"上海复兴中路吉安路"},{"poiid":"B2094757D16FA1FB469F","title":"太平湖绿地","lon":"121.47711773","lat":"31.219893079","category":"500","category_name":"未知分类","address":"上海ShanghaiLuwanHubin Rd"},{"poiid":"B2094757D66FA6FE4599","title":"西贡庭","lon":"121.47892573","lat":"31.218769055","category":"500","category_name":"未知分类","address":"上海市古羊路399号"},{"poiid":"B2094655D265A6FD4998","title":"景安里小区(西门)","lon":"121.47948","lat":"31.21856","category":"47","category_name":"住宅区","address":"济南路185弄1-28号"},{"poiid":"B2094654DA6EAAFD499A","title":"光明便利No.191","lon":"121.47908","lat":"31.21953","category":"117","category_name":"便民商店/便利店","address":"自忠路133-135"},{"poiid":"B2094654DA6EABFB499B","title":"上海市比乐中学","lon":"121.47971","lat":"31.22154","category":"55","category_name":"中学","address":"卢湾区崇德路43号(近顺昌路)"},{"poiid":"B2094757D16AA7FD439F","title":"Moon Stake","lon":"121.478447436","lat":"31.2187479038","category":"500","category_name":"未知分类","address":"上海新天地南里1楼"},{"poiid":"B2094655D265A6F94499","title":"景安里小区","lon":"121.47961","lat":"31.2186","category":"47","category_name":"住宅区","address":"济南路185弄1-28号"},{"poiid":"B2094757D465A7FF499B","title":"新新美食林","lon":"121.48006393688","lat":"31.219839547289","category":"68","category_name":"快餐厅","address":"卢湾区自忠路75号(近吉安路)"},{"poiid":"B2094757D66DA0FC409C","title":"舒适堡","lon":"121.476330738","lat":"31.2202470874","category":"500","category_name":"未知分类","address":"卢湾区淮海中路1号(近西藏南路)"},{"poiid":"B2094654DA6EAAF5479E","title":"顺昌饮食店","lon":"121.478","lat":"31.21922","category":"68","category_name":"快餐厅","address":"卢湾区顺昌路(近徐家汇路)"},{"poiid":"B2094757D66DA2FA4592","title":"D3","lon":"121.4792737","lat":"31.218431899","category":"500","category_name":"未知分类","address":"上海新天地"},{"poiid":"B2094655D26CA7FB4992","title":"翠湖天地(东门)","lon":"121.47914","lat":"31.21857","category":"656","category_name":"大门","address":"济南路168弄1-15号"},{"poiid":"B2094753D46AA0FF4698","title":"上海滩","lon":"121.479728","lat":"31.219394","category":"500","category_name":"未知分类","address":"上海市 上海市黄陂南路333号"},{"poiid":"B2094757D66FA2FF4199","title":"吉安路自忠路","lon":"121.47998873","lat":"31.21946207","category":"500","category_name":"未知分类","address":"上海吉安路自忠路126弄号"},{"poiid":"B2094757DA65A5FB419C","title":"格林豪泰(上海复兴中路新天地快捷酒店)","lon":"121.4786196","lat":"31.21725163","category":"216","category_name":"经济型连锁酒店","address":"上海市黄浦区复兴中路199号（近顺昌路）"},{"poiid":"B2094654DB6BA4FA499A","title":"良友金伴自忠路店","lon":"121.47985","lat":"31.21979","category":"117","category_name":"便民商店/便利店","address":"自忠路87"},{"poiid":"B209475DD26CABFF4199","title":"糖贵妃甜品","lon":"121.479598","lat":"31.217428","category":"247","category_name":"餐饮美食","address":"上海市 新天地店"},{"poiid":"B2094752DA6CABFC4593","title":"青籁养身GreenMassage","lon":"121.47840140377","lat":"31.219403615179","category":"248","category_name":"生活娱乐","address":"太仓路58号"}]