[{"poiid":"B2094654DB64A4FC469D","title":"上海交通大学(闵行校区)","lon":"121.43073","lat":"31.01765","category":"671","category_name":"高校中心点","address":"闵行区东川路800号上海交通大学内(近永平路)"},{"poiid":"B2094757D06FA0FD409E","title":"上海交通大学东上院","lon":"121.43097598","lat":"31.019636672","category":"52","category_name":"高等院校","address":"上海闵行区东川路800号上海交通大学闵行校区"},{"poiid":"B2094757D06FA4FA4499","title":"上海交通大学菁菁堂","lon":"121.42978692","lat":"31.017888915","category":"178","category_name":"电影院","address":"闵行区东川路800号上海交通大学校区"},{"poiid":"B2094757D06FA2F5429F","title":"上海交大闵行校区拖鞋门","lon":"121.43095039","lat":"31.017577126","category":"500","category_name":"未知分类","address":"上海市东川路800号"},{"poiid":"B2094757D068A3FE4199","title":"思源湖","lon":"121.430137634","lat":"31.0201702118","category":"234","category_name":"海滨浴场","address":"闵行区东川路800号上海交通大学拖鞋门内(近永平路)"},{"poiid":"B2094757D06FA2FF479F","title":"上海交通大学东中院","lon":"121.43776435","lat":"31.023405148","category":"253","category_name":"校园生活","address":"上海闵行区东川路800号上海交通大学闵行校区"},{"poiid":"B2094757D068ABFF449D","title":"上海交通大学陈瑞球楼","lon":"121.43767007","lat":"31.024972687","category":"253","category_name":"校园生活","address":"上海闵行区东川路800号上海交通大学闵行校区"},{"poiid":"B2094757D06FA3FC4498","title":"上海交通大学包玉刚图书馆","lon":"121.43020189","lat":"31.021687445","category":"253","category_name":"校园生活","address":"上海闵行区东川路800号上海交通大学闵行校区"},{"poiid":"B2094757D06FA4F9429D","title":"上海交通大学东下院","lon":"121.43689785","lat":"31.0239478291","category":"253","category_name":"校园生活","address":"上海闵行区东川路800号上海交通大学闵行校区"},{"poiid":"B2094757D06FA1F54293","title":"上海交通大学第一餐饮大楼(闵行校区)","lon":"121.43191","lat":"31.0217","category":"253","category_name":"校园生活","address":"上海闵行区东川路800号上海交通大学闵行校区"},{"poiid":"B2094757D06FA4FB4599","title":"上海交通大学下院","lon":"121.4311441","lat":"31.021094838","category":"253","category_name":"校园生活","address":"上海闵行区东川路800号"},{"poiid":"B2094757D06BA7FC449B","title":"甜魔咖啡 交大店 Timo Coffee","lon":"121.4325478","lat":"31.0178311","category":"65","category_name":"咖啡厅","address":"闵行区东川路800号上海交通大学内"},{"poiid":"B2094654DB6EAAFF4092","title":"第二餐饮大楼","lon":"121.43634","lat":"31.02269","category":"257","category_name":"中餐厅","address":""},{"poiid":"B2094750D664A5FB409E","title":"大学路韩国料理","lon":"121.432","lat":"31.0172","category":"96","category_name":"韩国料理","address":"闵行区东川路(安宁路东川路)"},{"poiid":"B2094757D165A5FE409C","title":"可口可乐中国总部","lon":"121.436242228","lat":"31.0205795082","category":"500","category_name":"未知分类","address":"上海闵行区东川路800号"},{"poiid":"B2094757D169AAF8419F","title":"上海交通大学光彪楼博雅厅","lon":"121.437901128","lat":"31.0234186666","category":"500","category_name":"未知分类","address":"上海东川路800号"},{"poiid":"B2094757D66CA2FA4193","title":"上海交通大学学术活动中心宾馆","lon":"121.43309783","lat":"31.01861763","category":"76","category_name":"上海菜","address":"闵行区东川路800号上海交通大学校区内(近永平路)"},{"poiid":"B2094757D66DA3F5479F","title":"天使的礼物咖啡店","lon":"121.43254852","lat":"31.014183044","category":"65","category_name":"咖啡厅","address":"闵行区永平路142号(近交通大学)"},{"poiid":"B2094654DB6AA7FF419F","title":"留园","lon":"121.43172","lat":"31.01908","category":"76","category_name":"上海菜","address":"闵行区东川路880号上海交大校内(近交通大学)"},{"poiid":"B2094757D068A0F44892","title":"蜀香村川菜(东川路店)","lon":"121.43301","lat":"31.0167","category":"71","category_name":"四川菜","address":"闵行区东川路811弄1号(近交通大学)"},{"poiid":"B2094757D069A2F94598","title":"院儿咖啡","lon":"121.43259079","lat":"31.01356043","category":"260","category_name":"其他","address":"闵行区永平路90号(近德宏路)"},{"poiid":"B2094654DB65A6FF469A","title":"大学路 闵行店","lon":"121.43059","lat":"31.01701","category":"96","category_name":"韩国料理","address":"闵行区东川路811弄23-24号(近交通大学)"},{"poiid":"B2094750D76FA3F4459C","title":"小雨点围着锅台吃","lon":"121.432","lat":"31.0154","category":"82","category_name":"东北菜","address":"闵行区永平路114号"},{"poiid":"B2094757D06AA7F94693","title":"老妈厨房","lon":"121.43478605","lat":"31.017570695","category":"91","category_name":"台湾菜","address":"闵行区东川路811弄39号(近闵行交大)"},{"poiid":"B2094654DB65A7F4499A","title":"阿康烧烤 交大店","lon":"121.430010054","lat":"31.017358793","category":"68","category_name":"快餐厅","address":"闵行区永平路194号"},{"poiid":"B2094654DB6FA3FC4499","title":"北欧丽景","lon":"121.42962","lat":"31.01656","category":"47","category_name":"住宅区","address":"北欧丽景-东川花园二期位于闵行东川路755弄"},{"poiid":"B2094757D16DAAFA409B","title":"真康自助乐烤","lon":"121.43182","lat":"31.01564","category":"68","category_name":"快餐厅","address":"闵行区永平路200-204号(近交通大学)"},{"poiid":"B2094750DA65A1FD429E","title":"上海交通大学南区体育场","lon":"121.433372","lat":"31.019886","category":"253","category_name":"校园生活","address":"上海闵行区东川路800号上海交通大学闵行校区"},{"poiid":"B2094757D16FA6FD4999","title":"东北饺子王","lon":"121.43563","lat":"31.02045","category":"247","category_name":"餐饮美食","address":"闵行区东川路889号(近交通大学)"},{"poiid":"B2094757D568A4F8499B","title":"交大闵行校区第二餐饮大楼","lon":"121.4349739","lat":"31.02481806","category":"257","category_name":"中餐厅","address":"闵行区东川路800号上海交通大学内(近永平路)"},{"poiid":"B2094757D065A3FA4899","title":"交大华联生活中心","lon":"121.43202112","lat":"31.024255217","category":"500","category_name":"未知分类","address":"上海市闵行区东川路800号"},{"poiid":"B2094757D169A4F9419D","title":"御陕坊","lon":"121.432984128","lat":"31.0129414512","category":"84","category_name":"西北菜","address":"闵行区永平路41号(近交通大学)"},{"poiid":"B2094757D16DA7FA409B","title":"新疆人特色菜","lon":"121.42879","lat":"31.01626","category":"90","category_name":"清真餐馆","address":"闵行区东川路897-22号"},{"poiid":"B2094655D26FA1FC4092","title":"哈乐餐厅","lon":"121.43172","lat":"31.01908","category":"68","category_name":"快餐厅","address":"闵行区东川路800号上海交通大学南区宿舍群内(近永平路)"},{"poiid":"B2094757D16EA3F8479C","title":"釜斯麦自助烤肉","lon":"121.43232","lat":"31.01451","category":"68","category_name":"快餐厅","address":"闵行区永平路158号(近交大闵行校区)"},{"poiid":"B2094757D16BA0FD4499","title":"昌吉州第一中学","lon":"121.434319","lat":"31.019652","category":"55","category_name":"中学","address":"昌吉州新疆维吾尔自治区昌吉回族自治州昌吉市北京北路82号"},{"poiid":"B2094750D76FA4FC439A","title":"朴氏韩国料理","lon":"121.431","lat":"31.0164","category":"96","category_name":"韩国料理","address":"闵行区永平路233-235号(近东川路)"},{"poiid":"B2094655D26AA6FB479E","title":"交大鸡蛋灌饼","lon":"121.43172","lat":"31.01908","category":"68","category_name":"快餐厅","address":"闵行区东川路800号上海交通大学华联生活中心(近永平路)"},{"poiid":"B2094757D464AAF54398","title":"西部高地 HIGH LAND","lon":"121.429608","lat":"31.016678","category":"47","category_name":"住宅区","address":"闵行区东川路847号(交大拖鞋门斜对面)"},{"poiid":"B2094757D164A6FF459B","title":"上海交通大学包玉刚图书馆史哲借阅区","lon":"121.433097","lat":"31.018617","category":"181","category_name":"图书馆","address":"上海市闵行区东川路800上海交通大学"},{"poiid":"B2094654DB65A6FF449B","title":"MANNA","lon":"121.43172","lat":"31.01908","category":"96","category_name":"韩国料理","address":"闵行区东川路800号上海交通大学第五餐饮大楼内(近永平路)"},{"poiid":"B2094757D065A1F84998","title":"新疆餐厅","lon":"121.43199","lat":"31.01881","category":"90","category_name":"清真餐馆","address":"闵行区东川路800号上海交通大学第二餐饮食堂2楼(近永平路)"},{"poiid":"B2094750D664A0FD429D","title":"冰火四季","lon":"121.431","lat":"31.0174","category":"68","category_name":"快餐厅","address":"闵行区东川路800号上海交通大学内(近永平路)"},{"poiid":"B2094757D16EA6FA4398","title":"上海交通大学铁生馆","lon":"121.433668128","lat":"31.023486668","category":"500","category_name":"未知分类","address":"上海市闵行区东川路800号"},{"poiid":"B2094654DB6FA3FC459D","title":"寻常人家","lon":"121.43115","lat":"31.01659","category":"77","category_name":"湖南菜","address":"闵行区永平路(近东川路)"},{"poiid":"B2094750D76DA5FE4998","title":"宝の船居酒屋","lon":"121.431","lat":"31.0174","category":"95","category_name":"日本料理","address":"闵行区东川路800号上海交通大学对面(近北欧丽景)"},{"poiid":"B2094757D06BA5F94198","title":"四海游龙(永平店)","lon":"121.432143","lat":"31.015132","category":"68","category_name":"快餐厅","address":"闵行区永平路(近交大闵行校区)"},{"poiid":"B2094655D26AA7F94098","title":"仰思坪","lon":"121.43172","lat":"31.01908","category":"247","category_name":"餐饮美食","address":"闵行区东川路800号上海交通大学思源湖边上(近永平路)"},{"poiid":"B2094757D065AAFB4893","title":"上海交通大学上院100","lon":"121.431437848","lat":"31.0199738358","category":"500","category_name":"未知分类","address":"上海闵行区东川路800号"},{"poiid":"B2094654DB6EAAFA409B","title":"好第坊","lon":"121.43308","lat":"31.01494","category":"47","category_name":"住宅区","address":"东川路865弄"},{"poiid":"B2094654DB64A4FC469D","title":"上海交通大学(闵行校区)","lon":"121.43073","lat":"31.01765","category":"671","category_name":"高校中心点","address":"闵行区东川路800号上海交通大学内(近永平路)"},{"poiid":"B2094757D06FA0FD409E","title":"上海交通大学东上院","lon":"121.43097598","lat":"31.019636672","category":"52","category_name":"高等院校","address":"上海闵行区东川路800号上海交通大学闵行校区"},{"poiid":"B2094757D06FA4FA4499","title":"上海交通大学菁菁堂","lon":"121.42978692","lat":"31.017888915","category":"178","category_name":"电影院","address":"闵行区东川路800号上海交通大学校区"},{"poiid":"B2094757D06FA2F5429F","title":"上海交大闵行校区拖鞋门","lon":"121.43095039","lat":"31.017577126","category":"500","category_name":"未知分类","address":"上海市东川路800号"},{"poiid":"B2094757D068A3FE4199","title":"思源湖","lon":"121.430137634","lat":"31.0201702118","category":"234","category_name":"海滨浴场","address":"闵行区东川路800号上海交通大学拖鞋门内(近永平路)"},{"poiid":"B2094757D06FA2FF479F","title":"上海交通大学东中院","lon":"121.43776435","lat":"31.023405148","category":"253","category_name":"校园生活","address":"上海闵行区东川路800号上海交通大学闵行校区"},{"poiid":"B2094757D068ABFF449D","title":"上海交通大学陈瑞球楼","lon":"121.43767007","lat":"31.024972687","category":"253","category_name":"校园生活","address":"上海闵行区东川路800号上海交通大学闵行校区"},{"poiid":"B2094757D06FA3FC4498","title":"上海交通大学包玉刚图书馆","lon":"121.43020189","lat":"31.021687445","category":"253","category_name":"校园生活","address":"上海闵行区东川路800号上海交通大学闵行校区"},{"poiid":"B2094757D06FA4F9429D","title":"上海交通大学东下院","lon":"121.43689785","lat":"31.0239478291","category":"253","category_name":"校园生活","address":"上海闵行区东川路800号上海交通大学闵行校区"},{"poiid":"B2094757D06FA1F54293","title":"上海交通大学第一餐饮大楼(闵行校区)","lon":"121.43191","lat":"31.0217","category":"253","category_name":"校园生活","address":"上海闵行区东川路800号上海交通大学闵行校区"},{"poiid":"B2094757D06FA4FB4599","title":"上海交通大学下院","lon":"121.4311441","lat":"31.021094838","category":"253","category_name":"校园生活","address":"上海闵行区东川路800号"},{"poiid":"B2094757D06BA7FC449B","title":"甜魔咖啡 交大店 Timo Coffee","lon":"121.4325478","lat":"31.0178311","category":"65","category_name":"咖啡厅","address":"闵行区东川路800号上海交通大学内"},{"poiid":"B2094654DB6EAAFF4092","title":"第二餐饮大楼","lon":"121.43634","lat":"31.02269","category":"257","category_name":"中餐厅","address":""},{"poiid":"B2094750D664A5FB409E","title":"大学路韩国料理","lon":"121.432","lat":"31.0172","category":"96","category_name":"韩国料理","address":"闵行区东川路(安宁路东川路)"},{"poiid":"B2094757D165A5FE409C","title":"可口可乐中国总部","lon":"121.436242228","lat":"31.0205795082","category":"500","category_name":"未知分类","address":"上海闵行区东川路800号"},{"poiid":"B2094757D169AAF8419F","title":"上海交通大学光彪楼博雅厅","lon":"121.437901128","lat":"31.0234186666","category":"500","category_name":"未知分类","address":"上海东川路800号"},{"poiid":"B2094757D66CA2FA4193","title":"上海交通大学学术活动中心宾馆","lon":"121.43309783","lat":"31.01861763","category":"76","category_name":"上海菜","address":"闵行区东川路800号上海交通大学校区内(近永平路)"},{"poiid":"B2094757D66DA3F5479F","title":"天使的礼物咖啡店","lon":"121.43254852","lat":"31.014183044","category":"65","category_name":"咖啡厅","address":"闵行区永平路142号(近交通大学)"},{"poiid":"B2094654DB6AA7FF419F","title":"留园","lon":"121.43172","lat":"31.01908","category":"76","category_name":"上海菜","address":"闵行区东川路880号上海交大校内(近交通大学)"},{"poiid":"B2094757D068A0F44892","title":"蜀香村川菜(东川路店)","lon":"121.43301","lat":"31.0167","category":"71","category_name":"四川菜","address":"闵行区东川路811弄1号(近交通大学)"},{"poiid":"B2094757D069A2F94598","title":"院儿咖啡","lon":"121.43259079","lat":"31.01356043","category":"260","category_name":"其他","address":"闵行区永平路90号(近德宏路)"},{"poiid":"B2094654DB65A6FF469A","title":"大学路 闵行店","lon":"121.43059","lat":"31.01701","category":"96","category_name":"韩国料理","address":"闵行区东川路811弄23-24号(近交通大学)"},{"poiid":"B2094750D76FA3F4459C","title":"小雨点围着锅台吃","lon":"121.432","lat":"31.0154","category":"82","category_name":"东北菜","address":"闵行区永平路114号"},{"poiid":"B2094757D06AA7F94693","title":"老妈厨房","lon":"121.43478605","lat":"31.017570695","category":"91","category_name":"台湾菜","address":"闵行区东川路811弄39号(近闵行交大)"},{"poiid":"B2094654DB65A7F4499A","title":"阿康烧烤 交大店","lon":"121.430010054","lat":"31.017358793","category":"68","category_name":"快餐厅","address":"闵行区永平路194号"},{"poiid":"B2094654DB6FA3FC4499","title":"北欧丽景","lon":"121.42962","lat":"31.01656","category":"47","category_name":"住宅区","address":"北欧丽景-东川花园二期位于闵行东川路755弄"},{"poiid":"B2094757D16DAAFA409B","title":"真康自助乐烤","lon":"121.43182","lat":"31.01564","category":"68","category_name":"快餐厅","address":"闵行区永平路200-204号(近交通大学)"},{"poiid":"B2094750DA65A1FD429E","title":"上海交通大学南区体育场","lon":"121.433372","lat":"31.019886","category":"253","category_name":"校园生活","address":"上海闵行区东川路800号上海交通大学闵行校区"},{"poiid":"B2094757D16FA6FD4999","title":"东北饺子王","lon":"121.43563","lat":"31.02045","category":"247","category_name":"餐饮美食","address":"闵行区东川路889号(近交通大学)"},{"poiid":"B2094757D568A4F8499B","title":"交大闵行校区第二餐饮大楼","lon":"121.4349739","lat":"31.02481806","category":"257","category_name":"中餐厅","address":"闵行区东川路800号上海交通大学内(近永平路)"},{"poiid":"B2094757D065A3FA4899","title":"交大华联生活中心","lon":"121.43202112","lat":"31.024255217","category":"500","category_name":"未知分类","address":"上海市闵行区东川路800号"},{"poiid":"B2094757D169A4F9419D","title":"御陕坊","lon":"121.432984128","lat":"31.0129414512","category":"84","category_name":"西北菜","address":"闵行区永平路41号(近交通大学)"},{"poiid":"B2094757D16DA7FA409B","title":"新疆人特色菜","lon":"121.42879","lat":"31.01626","category":"90","category_name":"清真餐馆","address":"闵行区东川路897-22号"},{"poiid":"B2094655D26FA1FC4092","title":"哈乐餐厅","lon":"121.43172","lat":"31.01908","category":"68","category_name":"快餐厅","address":"闵行区东川路800号上海交通大学南区宿舍群内(近永平路)"},{"poiid":"B2094757D16EA3F8479C","title":"釜斯麦自助烤肉","lon":"121.43232","lat":"31.01451","category":"68","category_name":"快餐厅","address":"闵行区永平路158号(近交大闵行校区)"},{"poiid":"B2094757D16BA0FD4499","title":"昌吉州第一中学","lon":"121.434319","lat":"31.019652","category":"55","category_name":"中学","address":"昌吉州新疆维吾尔自治区昌吉回族自治州昌吉市北京北路82号"},{"poiid":"B2094750D76FA4FC439A","title":"朴氏韩国料理","lon":"121.431","lat":"31.0164","category":"96","category_name":"韩国料理","address":"闵行区永平路233-235号(近东川路)"},{"poiid":"B2094655D26AA6FB479E","title":"交大鸡蛋灌饼","lon":"121.43172","lat":"31.01908","category":"68","category_name":"快餐厅","address":"闵行区东川路800号上海交通大学华联生活中心(近永平路)"},{"poiid":"B2094757D464AAF54398","title":"西部高地 HIGH LAND","lon":"121.429608","lat":"31.016678","category":"47","category_name":"住宅区","address":"闵行区东川路847号(交大拖鞋门斜对面)"},{"poiid":"B2094757D164A6FF459B","title":"上海交通大学包玉刚图书馆史哲借阅区","lon":"121.433097","lat":"31.018617","category":"181","category_name":"图书馆","address":"上海市闵行区东川路800上海交通大学"},{"poiid":"B2094654DB65A6FF449B","title":"MANNA","lon":"121.43172","lat":"31.01908","category":"96","category_name":"韩国料理","address":"闵行区东川路800号上海交通大学第五餐饮大楼内(近永平路)"},{"poiid":"B2094757D065A1F84998","title":"新疆餐厅","lon":"121.43199","lat":"31.01881","category":"90","category_name":"清真餐馆","address":"闵行区东川路800号上海交通大学第二餐饮食堂2楼(近永平路)"},{"poiid":"B2094750D664A0FD429D","title":"冰火四季","lon":"121.431","lat":"31.0174","category":"68","category_name":"快餐厅","address":"闵行区东川路800号上海交通大学内(近永平路)"},{"poiid":"B2094757D16EA6FA4398","title":"上海交通大学铁生馆","lon":"121.433668128","lat":"31.023486668","category":"500","category_name":"未知分类","address":"上海市闵行区东川路800号"},{"poiid":"B2094654DB6FA3FC459D","title":"寻常人家","lon":"121.43115","lat":"31.01659","category":"77","category_name":"湖南菜","address":"闵行区永平路(近东川路)"},{"poiid":"B2094750D76DA5FE4998","title":"宝の船居酒屋","lon":"121.431","lat":"31.0174","category":"95","category_name":"日本料理","address":"闵行区东川路800号上海交通大学对面(近北欧丽景)"},{"poiid":"B2094757D06BA5F94198","title":"四海游龙(永平店)","lon":"121.432143","lat":"31.015132","category":"68","category_name":"快餐厅","address":"闵行区永平路(近交大闵行校区)"},{"poiid":"B2094655D26AA7F94098","title":"仰思坪","lon":"121.43172","lat":"31.01908","category":"247","category_name":"餐饮美食","address":"闵行区东川路800号上海交通大学思源湖边上(近永平路)"},{"poiid":"B2094757D065AAFB4893","title":"上海交通大学上院100","lon":"121.431437848","lat":"31.0199738358","category":"500","category_name":"未知分类","address":"上海闵行区东川路800号"},{"poiid":"B2094654DB6EAAFA409B","title":"好第坊","lon":"121.43308","lat":"31.01494","category":"47","category_name":"住宅区","address":"东川路865弄"},{"poiid":"B2094654DB64A4FC469D","title":"上海交通大学(闵行校区)","lon":"121.43073","lat":"31.01765","category":"671","category_name":"高校中心点","address":"闵行区东川路800号上海交通大学内(近永平路)"},{"poiid":"B2094757D06FA0FD409E","title":"上海交通大学东上院","lon":"121.43097598","lat":"31.019636672","category":"52","category_name":"高等院校","address":"上海闵行区东川路800号上海交通大学闵行校区"},{"poiid":"B2094757D06FA4FA4499","title":"上海交通大学菁菁堂","lon":"121.42978692","lat":"31.017888915","category":"178","category_name":"电影院","address":"闵行区东川路800号上海交通大学校区"},{"poiid":"B2094757D06FA2F5429F","title":"上海交大闵行校区拖鞋门","lon":"121.43095039","lat":"31.017577126","category":"500","category_name":"未知分类","address":"上海市东川路800号"},{"poiid":"B2094757D068A3FE4199","title":"思源湖","lon":"121.430137634","lat":"31.0201702118","category":"234","category_name":"海滨浴场","address":"闵行区东川路800号上海交通大学拖鞋门内(近永平路)"},{"poiid":"B2094757D06FA2FF479F","title":"上海交通大学东中院","lon":"121.43776435","lat":"31.023405148","category":"253","category_name":"校园生活","address":"上海闵行区东川路800号上海交通大学闵行校区"},{"poiid":"B2094757D068ABFF449D","title":"上海交通大学陈瑞球楼","lon":"121.43767007","lat":"31.024972687","category":"253","category_name":"校园生活","address":"上海闵行区东川路800号上海交通大学闵行校区"},{"poiid":"B2094757D06FA3FC4498","title":"上海交通大学包玉刚图书馆","lon":"121.43020189","lat":"31.021687445","category":"253","category_name":"校园生活","address":"上海闵行区东川路800号上海交通大学闵行校区"},{"poiid":"B2094757D06FA4F9429D","title":"上海交通大学东下院","lon":"121.43689785","lat":"31.0239478291","category":"253","category_name":"校园生活","address":"上海闵行区东川路800号上海交通大学闵行校区"},{"poiid":"B2094757D06FA1F54293","title":"上海交通大学第一餐饮大楼(闵行校区)","lon":"121.43191","lat":"31.0217","category":"253","category_name":"校园生活","address":"上海闵行区东川路800号上海交通大学闵行校区"},{"poiid":"B2094757D06FA4FB4599","title":"上海交通大学下院","lon":"121.4311441","lat":"31.021094838","category":"253","category_name":"校园生活","address":"上海闵行区东川路800号"},{"poiid":"B2094757D06BA7FC449B","title":"甜魔咖啡 交大店 Timo Coffee","lon":"121.4325478","lat":"31.0178311","category":"65","category_name":"咖啡厅","address":"闵行区东川路800号上海交通大学内"},{"poiid":"B2094654DB6EAAFF4092","title":"第二餐饮大楼","lon":"121.43634","lat":"31.02269","category":"257","category_name":"中餐厅","address":""},{"poiid":"B2094750D664A5FB409E","title":"大学路韩国料理","lon":"121.432","lat":"31.0172","category":"96","category_name":"韩国料理","address":"闵行区东川路(安宁路东川路)"},{"poiid":"B2094757D165A5FE409C","title":"可口可乐中国总部","lon":"121.436242228","lat":"31.0205795082","category":"500","category_name":"未知分类","address":"上海闵行区东川路800号"},{"poiid":"B2094757D169AAF8419F","title":"上海交通大学光彪楼博雅厅","lon":"121.437901128","lat":"31.0234186666","category":"500","category_name":"未知分类","address":"上海东川路800号"},{"poiid":"B2094757D66CA2FA4193","title":"上海交通大学学术活动中心宾馆","lon":"121.43309783","lat":"31.01861763","category":"76","category_name":"上海菜","address":"闵行区东川路800号上海交通大学校区内(近永平路)"},{"poiid":"B2094757D66DA3F5479F","title":"天使的礼物咖啡店","lon":"121.43254852","lat":"31.014183044","category":"65","category_name":"咖啡厅","address":"闵行区永平路142号(近交通大学)"},{"poiid":"B2094654DB6AA7FF419F","title":"留园","lon":"121.43172","lat":"31.01908","category":"76","category_name":"上海菜","address":"闵行区东川路880号上海交大校内(近交通大学)"},{"poiid":"B2094757D068A0F44892","title":"蜀香村川菜(东川路店)","lon":"121.43301","lat":"31.0167","category":"71","category_name":"四川菜","address":"闵行区东川路811弄1号(近交通大学)"},{"poiid":"B2094757D069A2F94598","title":"院儿咖啡","lon":"121.43259079","lat":"31.01356043","category":"260","category_name":"其他","address":"闵行区永平路90号(近德宏路)"},{"poiid":"B2094654DB65A6FF469A","title":"大学路 闵行店","lon":"121.43059","lat":"31.01701","category":"96","category_name":"韩国料理","address":"闵行区东川路811弄23-24号(近交通大学)"},{"poiid":"B2094750D76FA3F4459C","title":"小雨点围着锅台吃","lon":"121.432","lat":"31.0154","category":"82","category_name":"东北菜","address":"闵行区永平路114号"},{"poiid":"B2094757D06AA7F94693","title":"老妈厨房","lon":"121.43478605","lat":"31.017570695","category":"91","category_name":"台湾菜","address":"闵行区东川路811弄39号(近闵行交大)"},{"poiid":"B2094654DB65A7F4499A","title":"阿康烧烤 交大店","lon":"121.430010054","lat":"31.017358793","category":"68","category_name":"快餐厅","address":"闵行区永平路194号"},{"poiid":"B2094654DB6FA3FC4499","title":"北欧丽景","lon":"121.42962","lat":"31.01656","category":"47","category_name":"住宅区","address":"北欧丽景-东川花园二期位于闵行东川路755弄"},{"poiid":"B2094757D16DAAFA409B","title":"真康自助乐烤","lon":"121.43182","lat":"31.01564","category":"68","category_name":"快餐厅","address":"闵行区永平路200-204号(近交通大学)"},{"poiid":"B2094750DA65A1FD429E","title":"上海交通大学南区体育场","lon":"121.433372","lat":"31.019886","category":"253","category_name":"校园生活","address":"上海闵行区东川路800号上海交通大学闵行校区"},{"poiid":"B2094757D16FA6FD4999","title":"东北饺子王","lon":"121.43563","lat":"31.02045","category":"247","category_name":"餐饮美食","address":"闵行区东川路889号(近交通大学)"},{"poiid":"B2094757D568A4F8499B","title":"交大闵行校区第二餐饮大楼","lon":"121.4349739","lat":"31.02481806","category":"257","category_name":"中餐厅","address":"闵行区东川路800号上海交通大学内(近永平路)"},{"poiid":"B2094757D065A3FA4899","title":"交大华联生活中心","lon":"121.43202112","lat":"31.024255217","category":"500","category_name":"未知分类","address":"上海市闵行区东川路800号"},{"poiid":"B2094757D169A4F9419D","title":"御陕坊","lon":"121.432984128","lat":"31.0129414512","category":"84","category_name":"西北菜","address":"闵行区永平路41号(近交通大学)"},{"poiid":"B2094757D16DA7FA409B","title":"新疆人特色菜","lon":"121.42879","lat":"31.01626","category":"90","category_name":"清真餐馆","address":"闵行区东川路897-22号"},{"poiid":"B2094655D26FA1FC4092","title":"哈乐餐厅","lon":"121.43172","lat":"31.01908","category":"68","category_name":"快餐厅","address":"闵行区东川路800号上海交通大学南区宿舍群内(近永平路)"},{"poiid":"B2094757D16EA3F8479C","title":"釜斯麦自助烤肉","lon":"121.43232","lat":"31.01451","category":"68","category_name":"快餐厅","address":"闵行区永平路158号(近交大闵行校区)"},{"poiid":"B2094757D16BA0FD4499","title":"昌吉州第一中学","lon":"121.434319","lat":"31.019652","category":"55","category_name":"中学","address":"昌吉州新疆维吾尔自治区昌吉回族自治州昌吉市北京北路82号"},{"poiid":"B2094750D76FA4FC439A","title":"朴氏韩国料理","lon":"121.431","lat":"31.0164","category":"96","category_name":"韩国料理","address":"闵行区永平路233-235号(近东川路)"},{"poiid":"B2094655D26AA6FB479E","title":"交大鸡蛋灌饼","lon":"121.43172","lat":"31.01908","category":"68","category_name":"快餐厅","address":"闵行区东川路800号上海交通大学华联生活中心(近永平路)"},{"poiid":"B2094757D464AAF54398","title":"西部高地 HIGH LAND","lon":"121.429608","lat":"31.016678","category":"47","category_name":"住宅区","address":"闵行区东川路847号(交大拖鞋门斜对面)"},{"poiid":"B2094757D164A6FF459B","title":"上海交通大学包玉刚图书馆史哲借阅区","lon":"121.433097","lat":"31.018617","category":"181","category_name":"图书馆","address":"上海市闵行区东川路800上海交通大学"},{"poiid":"B2094654DB65A6FF449B","title":"MANNA","lon":"121.43172","lat":"31.01908","category":"96","category_name":"韩国料理","address":"闵行区东川路800号上海交通大学第五餐饮大楼内(近永平路)"},{"poiid":"B2094757D065A1F84998","title":"新疆餐厅","lon":"121.43199","lat":"31.01881","category":"90","category_name":"清真餐馆","address":"闵行区东川路800号上海交通大学第二餐饮食堂2楼(近永平路)"},{"poiid":"B2094750D664A0FD429D","title":"冰火四季","lon":"121.431","lat":"31.0174","category":"68","category_name":"快餐厅","address":"闵行区东川路800号上海交通大学内(近永平路)"},{"poiid":"B2094757D16EA6FA4398","title":"上海交通大学铁生馆","lon":"121.433668128","lat":"31.023486668","category":"500","category_name":"未知分类","address":"上海市闵行区东川路800号"},{"poiid":"B2094654DB6FA3FC459D","title":"寻常人家","lon":"121.43115","lat":"31.01659","category":"77","category_name":"湖南菜","address":"闵行区永平路(近东川路)"},{"poiid":"B2094750D76DA5FE4998","title":"宝の船居酒屋","lon":"121.431","lat":"31.0174","category":"95","category_name":"日本料理","address":"闵行区东川路800号上海交通大学对面(近北欧丽景)"},{"poiid":"B2094757D06BA5F94198","title":"四海游龙(永平店)","lon":"121.432143","lat":"31.015132","category":"68","category_name":"快餐厅","address":"闵行区永平路(近交大闵行校区)"},{"poiid":"B2094655D26AA7F94098","title":"仰思坪","lon":"121.43172","lat":"31.01908","category":"247","category_name":"餐饮美食","address":"闵行区东川路800号上海交通大学思源湖边上(近永平路)"},{"poiid":"B2094757D065AAFB4893","title":"上海交通大学上院100","lon":"121.431437848","lat":"31.0199738358","category":"500","category_name":"未知分类","address":"上海闵行区东川路800号"},{"poiid":"B2094654DB6EAAFA409B","title":"好第坊","lon":"121.43308","lat":"31.01494","category":"47","category_name":"住宅区","address":"东川路865弄"},{"poiid":"B2094654DB64A4FC469D","title":"上海交通大学(闵行校区)","lon":"121.43073","lat":"31.01765","category":"671","category_name":"高校中心点","address":"闵行区东川路800号上海交通大学内(近永平路)"},{"poiid":"B2094757D06FA0FD409E","title":"上海交通大学东上院","lon":"121.43097598","lat":"31.019636672","category":"52","category_name":"高等院校","address":"上海闵行区东川路800号上海交通大学闵行校区"},{"poiid":"B2094757D06FA4FA4499","title":"上海交通大学菁菁堂","lon":"121.42978692","lat":"31.017888915","category":"178","category_name":"电影院","address":"闵行区东川路800号上海交通大学校区"},{"poiid":"B2094757D06FA2F5429F","title":"上海交大闵行校区拖鞋门","lon":"121.43095039","lat":"31.017577126","category":"500","category_name":"未知分类","address":"上海市东川路800号"},{"poiid":"B2094757D068A3FE4199","title":"思源湖","lon":"121.430137634","lat":"31.0201702118","category":"234","category_name":"海滨浴场","address":"闵行区东川路800号上海交通大学拖鞋门内(近永平路)"},{"poiid":"B2094757D06FA2FF479F","title":"上海交通大学东中院","lon":"121.43776435","lat":"31.023405148","category":"253","category_name":"校园生活","address":"上海闵行区东川路800号上海交通大学闵行校区"},{"poiid":"B2094757D068ABFF449D","title":"上海交通大学陈瑞球楼","lon":"121.43767007","lat":"31.024972687","category":"253","category_name":"校园生活","address":"上海闵行区东川路800号上海交通大学闵行校区"},{"poiid":"B2094757D06FA3FC4498","title":"上海交通大学包玉刚图书馆","lon":"121.43020189","lat":"31.021687445","category":"253","category_name":"校园生活","address":"上海闵行区东川路800号上海交通大学闵行校区"},{"poiid":"B2094757D06FA4F9429D","title":"上海交通大学东下院","lon":"121.43689785","lat":"31.0239478291","category":"253","category_name":"校园生活","address":"上海闵行区东川路800号上海交通大学闵行校区"},{"poiid":"B2094757D06FA1F54293","title":"上海交通大学第一餐饮大楼(闵行校区)","lon":"121.43191","lat":"31.0217","category":"253","category_name":"校园生活","address":"上海闵行区东川路800号上海交通大学闵行校区"},{"poiid":"B2094757D06FA4FB4599","title":"上海交通大学下院","lon":"121.4311441","lat":"31.021094838","category":"253","category_name":"校园生活","address":"上海闵行区东川路800号"},{"poiid":"B2094757D06BA7FC449B","title":"甜魔咖啡 交大店 Timo Coffee","lon":"121.4325478","lat":"31.0178311","category":"65","category_name":"咖啡厅","address":"闵行区东川路800号上海交通大学内"},{"poiid":"B2094654DB6EAAFF4092","title":"第二餐饮大楼","lon":"121.43634","lat":"31.02269","category":"257","category_name":"中餐厅","address":""},{"poiid":"B2094750D664A5FB409E","title":"大学路韩国料理","lon":"121.432","lat":"31.0172","category":"96","category_name":"韩国料理","address":"闵行区东川路(安宁路东川路)"},{"poiid":"B2094757D165A5FE409C","title":"可口可乐中国总部","lon":"121.436242228","lat":"31.0205795082","category":"500","category_name":"未知分类","address":"上海闵行区东川路800号"},{"poiid":"B2094757D169AAF8419F","title":"上海交通大学光彪楼博雅厅","lon":"121.437901128","lat":"31.0234186666","category":"500","category_name":"未知分类","address":"上海东川路800号"},{"poiid":"B2094757D66CA2FA4193","title":"上海交通大学学术活动中心宾馆","lon":"121.43309783","lat":"31.01861763","category":"76","category_name":"上海菜","address":"闵行区东川路800号上海交通大学校区内(近永平路)"},{"poiid":"B2094757D66DA3F5479F","title":"天使的礼物咖啡店","lon":"121.43254852","lat":"31.014183044","category":"65","category_name":"咖啡厅","address":"闵行区永平路142号(近交通大学)"},{"poiid":"B2094654DB6AA7FF419F","title":"留园","lon":"121.43172","lat":"31.01908","category":"76","category_name":"上海菜","address":"闵行区东川路880号上海交大校内(近交通大学)"},{"poiid":"B2094757D068A0F44892","title":"蜀香村川菜(东川路店)","lon":"121.43301","lat":"31.0167","category":"71","category_name":"四川菜","address":"闵行区东川路811弄1号(近交通大学)"},{"poiid":"B2094757D069A2F94598","title":"院儿咖啡","lon":"121.43259079","lat":"31.01356043","category":"260","category_name":"其他","address":"闵行区永平路90号(近德宏路)"},{"poiid":"B2094654DB65A6FF469A","title":"大学路 闵行店","lon":"121.43059","lat":"31.01701","category":"96","category_name":"韩国料理","address":"闵行区东川路811弄23-24号(近交通大学)"},{"poiid":"B2094750D76FA3F4459C","title":"小雨点围着锅台吃","lon":"121.432","lat":"31.0154","category":"82","category_name":"东北菜","address":"闵行区永平路114号"},{"poiid":"B2094757D06AA7F94693","title":"老妈厨房","lon":"121.43478605","lat":"31.017570695","category":"91","category_name":"台湾菜","address":"闵行区东川路811弄39号(近闵行交大)"},{"poiid":"B2094654DB65A7F4499A","title":"阿康烧烤 交大店","lon":"121.430010054","lat":"31.017358793","category":"68","category_name":"快餐厅","address":"闵行区永平路194号"},{"poiid":"B2094654DB6FA3FC4499","title":"北欧丽景","lon":"121.42962","lat":"31.01656","category":"47","category_name":"住宅区","address":"北欧丽景-东川花园二期位于闵行东川路755弄"},{"poiid":"B2094757D16DAAFA409B","title":"真康自助乐烤","lon":"121.43182","lat":"31.01564","category":"68","category_name":"快餐厅","address":"闵行区永平路200-204号(近交通大学)"},{"poiid":"B2094750DA65A1FD429E","title":"上海交通大学南区体育场","lon":"121.433372","lat":"31.019886","category":"253","category_name":"校园生活","address":"上海闵行区东川路800号上海交通大学闵行校区"},{"poiid":"B2094757D16FA6FD4999","title":"东北饺子王","lon":"121.43563","lat":"31.02045","category":"247","category_name":"餐饮美食","address":"闵行区东川路889号(近交通大学)"},{"poiid":"B2094757D568A4F8499B","title":"交大闵行校区第二餐饮大楼","lon":"121.4349739","lat":"31.02481806","category":"257","category_name":"中餐厅","address":"闵行区东川路800号上海交通大学内(近永平路)"},{"poiid":"B2094757D065A3FA4899","title":"交大华联生活中心","lon":"121.43202112","lat":"31.024255217","category":"500","category_name":"未知分类","address":"上海市闵行区东川路800号"},{"poiid":"B2094757D169A4F9419D","title":"御陕坊","lon":"121.432984128","lat":"31.0129414512","category":"84","category_name":"西北菜","address":"闵行区永平路41号(近交通大学)"},{"poiid":"B2094757D16DA7FA409B","title":"新疆人特色菜","lon":"121.42879","lat":"31.01626","category":"90","category_name":"清真餐馆","address":"闵行区东川路897-22号"},{"poiid":"B2094655D26FA1FC4092","title":"哈乐餐厅","lon":"121.43172","lat":"31.01908","category":"68","category_name":"快餐厅","address":"闵行区东川路800号上海交通大学南区宿舍群内(近永平路)"},{"poiid":"B2094757D16EA3F8479C","title":"釜斯麦自助烤肉","lon":"121.43232","lat":"31.01451","category":"68","category_name":"快餐厅","address":"闵行区永平路158号(近交大闵行校区)"},{"poiid":"B2094757D16BA0FD4499","title":"昌吉州第一中学","lon":"121.434319","lat":"31.019652","category":"55","category_name":"中学","address":"昌吉州新疆维吾尔自治区昌吉回族自治州昌吉市北京北路82号"},{"poiid":"B2094750D76FA4FC439A","title":"朴氏韩国料理","lon":"121.431","lat":"31.0164","category":"96","category_name":"韩国料理","address":"闵行区永平路233-235号(近东川路)"},{"poiid":"B2094655D26AA6FB479E","title":"交大鸡蛋灌饼","lon":"121.43172","lat":"31.01908","category":"68","category_name":"快餐厅","address":"闵行区东川路800号上海交通大学华联生活中心(近永平路)"},{"poiid":"B2094757D464AAF54398","title":"西部高地 HIGH LAND","lon":"121.429608","lat":"31.016678","category":"47","category_name":"住宅区","address":"闵行区东川路847号(交大拖鞋门斜对面)"},{"poiid":"B2094757D164A6FF459B","title":"上海交通大学包玉刚图书馆史哲借阅区","lon":"121.433097","lat":"31.018617","category":"181","category_name":"图书馆","address":"上海市闵行区东川路800上海交通大学"},{"poiid":"B2094654DB65A6FF449B","title":"MANNA","lon":"121.43172","lat":"31.01908","category":"96","category_name":"韩国料理","address":"闵行区东川路800号上海交通大学第五餐饮大楼内(近永平路)"},{"poiid":"B2094757D065A1F84998","title":"新疆餐厅","lon":"121.43199","lat":"31.01881","category":"90","category_name":"清真餐馆","address":"闵行区东川路800号上海交通大学第二餐饮食堂2楼(近永平路)"},{"poiid":"B2094750D664A0FD429D","title":"冰火四季","lon":"121.431","lat":"31.0174","category":"68","category_name":"快餐厅","address":"闵行区东川路800号上海交通大学内(近永平路)"},{"poiid":"B2094757D16EA6FA4398","title":"上海交通大学铁生馆","lon":"121.433668128","lat":"31.023486668","category":"500","category_name":"未知分类","address":"上海市闵行区东川路800号"},{"poiid":"B2094654DB6FA3FC459D","title":"寻常人家","lon":"121.43115","lat":"31.01659","category":"77","category_name":"湖南菜","address":"闵行区永平路(近东川路)"},{"poiid":"B2094750D76DA5FE4998","title":"宝の船居酒屋","lon":"121.431","lat":"31.0174","category":"95","category_name":"日本料理","address":"闵行区东川路800号上海交通大学对面(近北欧丽景)"},{"poiid":"B2094757D06BA5F94198","title":"四海游龙(永平店)","lon":"121.432143","lat":"31.015132","category":"68","category_name":"快餐厅","address":"闵行区永平路(近交大闵行校区)"},{"poiid":"B2094655D26AA7F94098","title":"仰思坪","lon":"121.43172","lat":"31.01908","category":"247","category_name":"餐饮美食","address":"闵行区东川路800号上海交通大学思源湖边上(近永平路)"},{"poiid":"B2094757D065AAFB4893","title":"上海交通大学上院100","lon":"121.431437848","lat":"31.0199738358","category":"500","category_name":"未知分类","address":"上海闵行区东川路800号"},{"poiid":"B2094654DB6EAAFA409B","title":"好第坊","lon":"121.43308","lat":"31.01494","category":"47","category_name":"住宅区","address":"东川路865弄"}]