[{"poiid":"B2094757D66EA3F84392","title":"虹桥机场北彩虹桥","lon":"121.380809686","lat":"31.1975813926","category":"21","category_name":"飞机场","address":"上海虹桥机场2号航站楼"},{"poiid":"B2094757D06FA1FE4492","title":"西郊宾馆","lon":"121.38651","lat":"31.19694","category":"213","category_name":"五星级宾馆","address":"长宁区虹桥路1921号(近虹许路)"},{"poiid":"B2094654DB69A0F9479D","title":"王朝大酒楼(虹桥店)","lon":"121.37808","lat":"31.19264","category":"257","category_name":"中餐厅","address":"上海长宁区虹桥路2260号(近剑河路)"},{"poiid":"B2094757D06FAAFC4293","title":"彼德西餐","lon":"121.38339","lat":"31.19292","category":"94","category_name":"西餐厅","address":"长宁区虹梅路3911号SOHO3911休闲街7号别墅(近虹桥路)"},{"poiid":"B2094757D169A5FC4893","title":"西郊宾馆7号楼水上餐厅","lon":"121.37832858","lat":"31.201840875","category":"217","category_name":"旅馆招待所","address":"上海市长宁区虹桥路1921号"},{"poiid":"B2094655D269AAFC479C","title":"西郊宾馆宴会厅","lon":"121.3817","lat":"31.20044","category":"247","category_name":"餐饮美食","address":"长宁区虹桥路1921号西郊宾馆内(近虹许路)查看地图"},{"poiid":"B2094655D26DA2F5499D","title":"希腊餐厅 虹梅路店 Greek Taverna","lon":"121.383009054","lat":"31.193537793","category":"94","category_name":"西餐厅","address":"长宁区虹梅路3911号SOHO3911休闲街1号别墅(近虹桥路)"},{"poiid":"B2094757D06BA3F8439A","title":"晶浦会西郊会所","lon":"121.385306586","lat":"31.1970257818","category":"500","category_name":"未知分类","address":"虹桥路1970号近虹梅路"},{"poiid":"B2094757D06EAAF84599","title":"龙溪路地铁站","lon":"121.37988978","lat":"31.194287116","category":"36","category_name":"地铁站","address":"上海轨道交通 十号线 轨交龙溪路站 10"},{"poiid":"B2094757D465A1FE499C","title":"名豪鱼翅海鲜酒家 虹桥店","lon":"121.38368575468","lat":"31.192560657425","category":"72","category_name":"广东菜","address":"长宁区虹梅北路3883号(近延安西路)"},{"poiid":"B2094757D069A0F94299","title":"皇家泰厨","lon":"121.38404","lat":"31.19285","category":"99","category_name":"泰国／越南菜品餐厅","address":"长宁区虹梅路3911号SOHO3911休闲街3号别墅(近虹桥路)"},{"poiid":"B2094757D06BA1FD4298","title":"西郊百联电影院","lon":"121.37847158","lat":"31.193721717","category":"178","category_name":"电影院","address":"上海市长宁区"},{"poiid":"B2094654D56BA6FD469D","title":"晶采轩","lon":"121.38524","lat":"31.19789","category":"72","category_name":"广东菜","address":"长宁区虹桥路1937号(近虹许路)"},{"poiid":"B2094757D069A2F44799","title":"锅德港式极品肥牛海鲜火锅(虹梅店)","lon":"121.38441","lat":"31.19239","category":"86","category_name":"火锅店","address":"长宁区虹梅路3901号1楼(近虹桥路)"},{"poiid":"B2094757D06BA5FB419C","title":"地铁十号线(龙溪路站)","lon":"121.38004158","lat":"31.19352586","category":"36","category_name":"地铁站","address":"上海龙溪路虹桥路"},{"poiid":"B2094757D468A4F84593","title":"西郊公馆","lon":"121.3849008","lat":"31.1970511","category":"72","category_name":"广东菜","address":"长宁区虹桥路1950号(近西郊宾馆)"},{"poiid":"B2094654D56BA6FD469E","title":"香港农圃饭店","lon":"121.38324","lat":"31.19682","category":"72","category_name":"广东菜","address":"上海长宁区虹桥路1999号(近虹梅路)  "},{"poiid":"B2094655D26EA6F84999","title":"印度小厨(虹梅店)","lon":"121.38325","lat":"31.19355","category":"257","category_name":"中餐厅","address":"长宁区虹梅路3911号SOHO3911休闲街8号别墅(近虹桥路)"},{"poiid":"B2094654D56AABF44993","title":"王子公寓","lon":"121.38029","lat":"31.192511","category":"47","category_name":"住宅区","address":"王子公寓位于长宁虹桥路2222弄"},{"poiid":"B2094655D36CA7F8489E","title":"虹梅路","lon":"121.38061","lat":"31.19464","category":"38","category_name":"公交车站","address":"2007号"},{"poiid":"B2094757D16CA4F94493","title":"布卡拉 BUKHARA","lon":"121.384310054","lat":"31.191769793","category":"102","category_name":"印度风味","address":"闵行区虹梅路3729号(近延安西路)"},{"poiid":"B2094654D56BA6FD469F","title":"西郊体育中心","lon":"121.38497","lat":"31.19785","category":"224","category_name":"综合体育馆","address":"徐汇区虹桥路1949号(近虹梅路)"},{"poiid":"B2094757D664A3FF4399","title":"慕光日本料理 Hikari","lon":"121.3832673","lat":"31.1937276","category":"95","category_name":"日本料理","address":"闵行区虹梅路3911号SOHO3911休闲街"},{"poiid":"B2094655D26EA4FF429A","title":"赤坂亭日式烧肉法式铁板烧","lon":"121.38445","lat":"31.19185","category":"247","category_name":"餐饮美食","address":"闵行区虹梅路3725号森晟世洋国际广场(近延安西路)"},{"poiid":"B2094757D06BA2FD429E","title":"席家花园(虹梅路店)","lon":"121.38415","lat":"31.19258","category":"47","category_name":"住宅区","address":"长宁区虹梅路3911号SOHO3911休闲街2号别墅(近虹桥路)"},{"poiid":"B2094757D06BA3FE4992","title":"Bubba's Texas-style BBQ(虹桥路店)","lon":"121.37549","lat":"31.19147","category":"94","category_name":"西餐厅","address":"长宁区虹桥路2262号(剑河路口)"},{"poiid":"B2094654D564A1FD499B","title":"森晟世洋国际广场","lon":"121.38414","lat":"31.19131","category":"119","category_name":"商场","address":"西直门北大街58号(东北角,西二环边)"},{"poiid":"B2094654D569AAF4449D","title":"虹桥商务大厦","lon":"121.383","lat":"31.1969","category":"46","category_name":"楼宇","address":"长宁区虹桥路2270号"},{"poiid":"B2094654DB6BA7FD479B","title":"梦曼特西餐馆(虹梅路)","lon":"121.38318","lat":"31.19371","category":"94","category_name":"西餐厅","address":"长宁区虹梅路3911号SOHO3911休闲街(近虹桥路)"},{"poiid":"B2094654D569ABF4499C","title":"温莎公寓","lon":"121.381","lat":"31.1967","category":"47","category_name":"住宅区","address":"虹桥路2290号"},{"poiid":"B2094654D569AAF44599","title":"新滨铁板烧 New Hama Teppanyaki","lon":"121.37690694119","lat":"31.192314439953","category":"87","category_name":"特色／地方风味餐厅","address":"长宁区虹桥路2260号孔府别墅内(虹梅路剑河路间)"},{"poiid":"B2094654D569AAF5419A","title":"温莎花园","lon":"121.381","lat":"31.1979","category":"47","category_name":"住宅区","address":"虹桥路2279号"},{"poiid":"B2094757D66BA0FD4598","title":"鼎邦俪池私人会所","lon":"121.375898054","lat":"31.197669793","category":"268","category_name":"自助","address":"长宁区青溪路288弄(近龙溪路)查看地图"},{"poiid":"B2094750D76FABFE499D","title":"ころりOboo(虹梅路店)","lon":"121.383","lat":"31.1936","category":"95","category_name":"日本料理","address":"闵行区虹梅路3911号4号别墅2楼SOHO3911休闲街(近延安西路)"},{"poiid":"B2094757DB69A3F4489F","title":"武警医院","lon":"121.3830202570115","lat":"31.19466067267026","category":"162","category_name":"医院","address":"虹许路831号"},{"poiid":"B2094757D069A3F4429B","title":"西郊明苑别墅会所","lon":"121.37866","lat":"31.19651","category":"148","category_name":"美容美发店","address":"上海长宁区龙溪路189号(近虹井路)  "},{"poiid":"B2094655D26DA7F8409D","title":"金虹别墅(东门)","lon":"121.38173","lat":"31.19612","category":"47","category_name":"住宅区","address":"龙溪路1"},{"poiid":"B2094654D569AAF54093","title":"温莎豪园","lon":"121.38","lat":"31.1991","category":"47","category_name":"住宅区","address":"剑河路2222弄"},{"poiid":"B2094654DB6BA0FE4498","title":"明苑别墅","lon":"121.37931","lat":"31.19739","category":"47","category_name":"住宅区","address":"龙溪路189号"},{"poiid":"B2094654DB6BA7FD469E","title":"西郊宾馆花园别墅南门(虹桥路)","lon":"121.38309","lat":"31.19645","category":"47","category_name":"住宅区","address":"长宁区虹桥路2065号"},{"poiid":"B2094655D26EA5FA499D","title":"沙华多利 虹梅店 Pasta Fresca Da Salvatore","lon":"121.3846870497","lat":"31.192252632645","category":"98","category_name":"意式菜品餐厅","address":"闵行区虹梅路3896号中洋公寓内(近延安西路)"},{"poiid":"B2094654D56BA6FE4298","title":"上海市民办新虹桥中学","lon":"121.37981","lat":"31.19321","category":"55","category_name":"中学","address":"长宁区虹桥路2206号"},{"poiid":"B2094757D064A2FB459D","title":"日月会所","lon":"121.38001058","lat":"31.191443172","category":"500","category_name":"未知分类","address":"虹桥路2222弄37号王子公寓近虹梅路"},{"poiid":"B2094654D56BA6FD4592","title":"宋庆龄幼儿园国际部","lon":"121.3842","lat":"31.19447","category":"57","category_name":"幼儿园","address":"闵行区虹梅路3908号(近延安西路)"},{"poiid":"B2094654DB65A4F84098","title":"明苑别墅(东门)","lon":"121.37963","lat":"31.19792","category":"47","category_name":"住宅区","address":"龙溪路189"},{"poiid":"B2094752D36EA7FF419D","title":"西郊一號","lon":"121.381072","lat":"31.199565","category":"247","category_name":"餐饮美食","address":"虹橋路1950號"},{"poiid":"B2094757D169AAF5409F","title":"上海法拉利俱乐部","lon":"121.382823586","lat":"31.1959997617","category":"500","category_name":"未知分类","address":"长宁区虹桥路2109号金虹别墅C2"},{"poiid":"B2094655D265A5F84192","title":"上海西郊水族馆","lon":"121.38368","lat":"31.19797","category":"199","category_name":"水族馆","address":"程家桥"},{"poiid":"B2094750D76CA5F54498","title":"口袋蛋糕","lon":"121.383","lat":"31.1937","category":"67","category_name":"甜品店","address":"长宁区虹梅路3911号SOHO3911休闲街11栋102室(近虹桥路)"},{"poiid":"B2094750D76EA4FF4699","title":"西郊宾馆牡丹厅","lon":"121.387","lat":"31.1984","category":"268","category_name":"自助","address":"长宁区虹桥路1921号7号楼"},{"poiid":"B2094757D66EA3F84392","title":"虹桥机场北彩虹桥","lon":"121.380809686","lat":"31.1975813926","category":"21","category_name":"飞机场","address":"上海虹桥机场2号航站楼"},{"poiid":"B2094757D06FA1FE4492","title":"西郊宾馆","lon":"121.38651","lat":"31.19694","category":"213","category_name":"五星级宾馆","address":"长宁区虹桥路1921号(近虹许路)"},{"poiid":"B2094654DB69A0F9479D","title":"王朝大酒楼(虹桥店)","lon":"121.37808","lat":"31.19264","category":"257","category_name":"中餐厅","address":"上海长宁区虹桥路2260号(近剑河路)"},{"poiid":"B2094757D06FAAFC4293","title":"彼德西餐","lon":"121.38339","lat":"31.19292","category":"94","category_name":"西餐厅","address":"长宁区虹梅路3911号SOHO3911休闲街7号别墅(近虹桥路)"},{"poiid":"B2094757D169A5FC4893","title":"西郊宾馆7号楼水上餐厅","lon":"121.37832858","lat":"31.201840875","category":"217","category_name":"旅馆招待所","address":"上海市长宁区虹桥路1921号"},{"poiid":"B2094655D269AAFC479C","title":"西郊宾馆宴会厅","lon":"121.3817","lat":"31.20044","category":"247","category_name":"餐饮美食","address":"长宁区虹桥路1921号西郊宾馆内(近虹许路)查看地图"},{"poiid":"B2094655D26DA2F5499D","title":"希腊餐厅 虹梅路店 Greek Taverna","lon":"121.383009054","lat":"31.193537793","category":"94","category_name":"西餐厅","address":"长宁区虹梅路3911号SOHO3911休闲街1号别墅(近虹桥路)"},{"poiid":"B2094757D06BA3F8439A","title":"晶浦会西郊会所","lon":"121.385306586","lat":"31.1970257818","category":"500","category_name":"未知分类","address":"虹桥路1970号近虹梅路"},{"poiid":"B2094757D06EAAF84599","title":"龙溪路地铁站","lon":"121.37988978","lat":"31.194287116","category":"36","category_name":"地铁站","address":"上海轨道交通 十号线 轨交龙溪路站 10"},{"poiid":"B2094757D465A1FE499C","title":"名豪鱼翅海鲜酒家 虹桥店","lon":"121.38368575468","lat":"31.192560657425","category":"72","category_name":"广东菜","address":"长宁区虹梅北路3883号(近延安西路)"},{"poiid":"B2094757D069A0F94299","title":"皇家泰厨","lon":"121.38404","lat":"31.19285","category":"99","category_name":"泰国／越南菜品餐厅","address":"长宁区虹梅路3911号SOHO3911休闲街3号别墅(近虹桥路)"},{"poiid":"B2094757D06BA1FD4298","title":"西郊百联电影院","lon":"121.37847158","lat":"31.193721717","category":"178","category_name":"电影院","address":"上海市长宁区"},{"poiid":"B2094654D56BA6FD469D","title":"晶采轩","lon":"121.38524","lat":"31.19789","category":"72","category_name":"广东菜","address":"长宁区虹桥路1937号(近虹许路)"},{"poiid":"B2094757D069A2F44799","title":"锅德港式极品肥牛海鲜火锅(虹梅店)","lon":"121.38441","lat":"31.19239","category":"86","category_name":"火锅店","address":"长宁区虹梅路3901号1楼(近虹桥路)"},{"poiid":"B2094757D06BA5FB419C","title":"地铁十号线(龙溪路站)","lon":"121.38004158","lat":"31.19352586","category":"36","category_name":"地铁站","address":"上海龙溪路虹桥路"},{"poiid":"B2094757D468A4F84593","title":"西郊公馆","lon":"121.3849008","lat":"31.1970511","category":"72","category_name":"广东菜","address":"长宁区虹桥路1950号(近西郊宾馆)"},{"poiid":"B2094654D56BA6FD469E","title":"香港农圃饭店","lon":"121.38324","lat":"31.19682","category":"72","category_name":"广东菜","address":"上海长宁区虹桥路1999号(近虹梅路)  "},{"poiid":"B2094655D26EA6F84999","title":"印度小厨(虹梅店)","lon":"121.38325","lat":"31.19355","category":"257","category_name":"中餐厅","address":"长宁区虹梅路3911号SOHO3911休闲街8号别墅(近虹桥路)"},{"poiid":"B2094654D56AABF44993","title":"王子公寓","lon":"121.38029","lat":"31.192511","category":"47","category_name":"住宅区","address":"王子公寓位于长宁虹桥路2222弄"},{"poiid":"B2094655D36CA7F8489E","title":"虹梅路","lon":"121.38061","lat":"31.19464","category":"38","category_name":"公交车站","address":"2007号"},{"poiid":"B2094757D16CA4F94493","title":"布卡拉 BUKHARA","lon":"121.384310054","lat":"31.191769793","category":"102","category_name":"印度风味","address":"闵行区虹梅路3729号(近延安西路)"},{"poiid":"B2094654D56BA6FD469F","title":"西郊体育中心","lon":"121.38497","lat":"31.19785","category":"224","category_name":"综合体育馆","address":"徐汇区虹桥路1949号(近虹梅路)"},{"poiid":"B2094757D664A3FF4399","title":"慕光日本料理 Hikari","lon":"121.3832673","lat":"31.1937276","category":"95","category_name":"日本料理","address":"闵行区虹梅路3911号SOHO3911休闲街"},{"poiid":"B2094655D26EA4FF429A","title":"赤坂亭日式烧肉法式铁板烧","lon":"121.38445","lat":"31.19185","category":"247","category_name":"餐饮美食","address":"闵行区虹梅路3725号森晟世洋国际广场(近延安西路)"},{"poiid":"B2094757D06BA2FD429E","title":"席家花园(虹梅路店)","lon":"121.38415","lat":"31.19258","category":"47","category_name":"住宅区","address":"长宁区虹梅路3911号SOHO3911休闲街2号别墅(近虹桥路)"},{"poiid":"B2094757D06BA3FE4992","title":"Bubba's Texas-style BBQ(虹桥路店)","lon":"121.37549","lat":"31.19147","category":"94","category_name":"西餐厅","address":"长宁区虹桥路2262号(剑河路口)"},{"poiid":"B2094654D564A1FD499B","title":"森晟世洋国际广场","lon":"121.38414","lat":"31.19131","category":"119","category_name":"商场","address":"西直门北大街58号(东北角,西二环边)"},{"poiid":"B2094654D569AAF4449D","title":"虹桥商务大厦","lon":"121.383","lat":"31.1969","category":"46","category_name":"楼宇","address":"长宁区虹桥路2270号"},{"poiid":"B2094654DB6BA7FD479B","title":"梦曼特西餐馆(虹梅路)","lon":"121.38318","lat":"31.19371","category":"94","category_name":"西餐厅","address":"长宁区虹梅路3911号SOHO3911休闲街(近虹桥路)"},{"poiid":"B2094654D569ABF4499C","title":"温莎公寓","lon":"121.381","lat":"31.1967","category":"47","category_name":"住宅区","address":"虹桥路2290号"},{"poiid":"B2094654D569AAF44599","title":"新滨铁板烧 New Hama Teppanyaki","lon":"121.37690694119","lat":"31.192314439953","category":"87","category_name":"特色／地方风味餐厅","address":"长宁区虹桥路2260号孔府别墅内(虹梅路剑河路间)"},{"poiid":"B2094654D569AAF5419A","title":"温莎花园","lon":"121.381","lat":"31.1979","category":"47","category_name":"住宅区","address":"虹桥路2279号"},{"poiid":"B2094757D66BA0FD4598","title":"鼎邦俪池私人会所","lon":"121.375898054","lat":"31.197669793","category":"268","category_name":"自助","address":"长宁区青溪路288弄(近龙溪路)查看地图"},{"poiid":"B2094750D76FABFE499D","title":"ころりOboo(虹梅路店)","lon":"121.383","lat":"31.1936","category":"95","category_name":"日本料理","address":"闵行区虹梅路3911号4号别墅2楼SOHO3911休闲街(近延安西路)"},{"poiid":"B2094757DB69A3F4489F","title":"武警医院","lon":"121.3830202570115","lat":"31.19466067267026","category":"162","category_name":"医院","address":"虹许路831号"},{"poiid":"B2094757D069A3F4429B","title":"西郊明苑别墅会所","lon":"121.37866","lat":"31.19651","category":"148","category_name":"美容美发店","address":"上海长宁区龙溪路189号(近虹井路)  "},{"poiid":"B2094655D26DA7F8409D","title":"金虹别墅(东门)","lon":"121.38173","lat":"31.19612","category":"47","category_name":"住宅区","address":"龙溪路1"},{"poiid":"B2094654D569AAF54093","title":"温莎豪园","lon":"121.38","lat":"31.1991","category":"47","category_name":"住宅区","address":"剑河路2222弄"},{"poiid":"B2094654DB6BA0FE4498","title":"明苑别墅","lon":"121.37931","lat":"31.19739","category":"47","category_name":"住宅区","address":"龙溪路189号"},{"poiid":"B2094654DB6BA7FD469E","title":"西郊宾馆花园别墅南门(虹桥路)","lon":"121.38309","lat":"31.19645","category":"47","category_name":"住宅区","address":"长宁区虹桥路2065号"},{"poiid":"B2094655D26EA5FA499D","title":"沙华多利 虹梅店 Pasta Fresca Da Salvatore","lon":"121.3846870497","lat":"31.192252632645","category":"98","category_name":"意式菜品餐厅","address":"闵行区虹梅路3896号中洋公寓内(近延安西路)"},{"poiid":"B2094654D56BA6FE4298","title":"上海市民办新虹桥中学","lon":"121.37981","lat":"31.19321","category":"55","category_name":"中学","address":"长宁区虹桥路2206号"},{"poiid":"B2094757D064A2FB459D","title":"日月会所","lon":"121.38001058","lat":"31.191443172","category":"500","category_name":"未知分类","address":"虹桥路2222弄37号王子公寓近虹梅路"},{"poiid":"B2094654D56BA6FD4592","title":"宋庆龄幼儿园国际部","lon":"121.3842","lat":"31.19447","category":"57","category_name":"幼儿园","address":"闵行区虹梅路3908号(近延安西路)"},{"poiid":"B2094654DB65A4F84098","title":"明苑别墅(东门)","lon":"121.37963","lat":"31.19792","category":"47","category_name":"住宅区","address":"龙溪路189"},{"poiid":"B2094752D36EA7FF419D","title":"西郊一號","lon":"121.381072","lat":"31.199565","category":"247","category_name":"餐饮美食","address":"虹橋路1950號"},{"poiid":"B2094757D169AAF5409F","title":"上海法拉利俱乐部","lon":"121.382823586","lat":"31.1959997617","category":"500","category_name":"未知分类","address":"长宁区虹桥路2109号金虹别墅C2"},{"poiid":"B2094655D265A5F84192","title":"上海西郊水族馆","lon":"121.38368","lat":"31.19797","category":"199","category_name":"水族馆","address":"程家桥"},{"poiid":"B2094750D76CA5F54498","title":"口袋蛋糕","lon":"121.383","lat":"31.1937","category":"67","category_name":"甜品店","address":"长宁区虹梅路3911号SOHO3911休闲街11栋102室(近虹桥路)"},{"poiid":"B2094750D76EA4FF4699","title":"西郊宾馆牡丹厅","lon":"121.387","lat":"31.1984","category":"268","category_name":"自助","address":"长宁区虹桥路1921号7号楼"},{"poiid":"B2094757D66EA3F84392","title":"虹桥机场北彩虹桥","lon":"121.380809686","lat":"31.1975813926","category":"21","category_name":"飞机场","address":"上海虹桥机场2号航站楼"},{"poiid":"B2094757D06FA1FE4492","title":"西郊宾馆","lon":"121.38651","lat":"31.19694","category":"213","category_name":"五星级宾馆","address":"长宁区虹桥路1921号(近虹许路)"},{"poiid":"B2094654DB69A0F9479D","title":"王朝大酒楼(虹桥店)","lon":"121.37808","lat":"31.19264","category":"257","category_name":"中餐厅","address":"上海长宁区虹桥路2260号(近剑河路)"},{"poiid":"B2094757D06FAAFC4293","title":"彼德西餐","lon":"121.38339","lat":"31.19292","category":"94","category_name":"西餐厅","address":"长宁区虹梅路3911号SOHO3911休闲街7号别墅(近虹桥路)"},{"poiid":"B2094757D169A5FC4893","title":"西郊宾馆7号楼水上餐厅","lon":"121.37832858","lat":"31.201840875","category":"217","category_name":"旅馆招待所","address":"上海市长宁区虹桥路1921号"},{"poiid":"B2094655D269AAFC479C","title":"西郊宾馆宴会厅","lon":"121.3817","lat":"31.20044","category":"247","category_name":"餐饮美食","address":"长宁区虹桥路1921号西郊宾馆内(近虹许路)查看地图"},{"poiid":"B2094655D26DA2F5499D","title":"希腊餐厅 虹梅路店 Greek Taverna","lon":"121.383009054","lat":"31.193537793","category":"94","category_name":"西餐厅","address":"长宁区虹梅路3911号SOHO3911休闲街1号别墅(近虹桥路)"},{"poiid":"B2094757D06BA3F8439A","title":"晶浦会西郊会所","lon":"121.385306586","lat":"31.1970257818","category":"500","category_name":"未知分类","address":"虹桥路1970号近虹梅路"},{"poiid":"B2094757D06EAAF84599","title":"龙溪路地铁站","lon":"121.37988978","lat":"31.194287116","category":"36","category_name":"地铁站","address":"上海轨道交通 十号线 轨交龙溪路站 10"},{"poiid":"B2094757D465A1FE499C","title":"名豪鱼翅海鲜酒家 虹桥店","lon":"121.38368575468","lat":"31.192560657425","category":"72","category_name":"广东菜","address":"长宁区虹梅北路3883号(近延安西路)"},{"poiid":"B2094757D069A0F94299","title":"皇家泰厨","lon":"121.38404","lat":"31.19285","category":"99","category_name":"泰国／越南菜品餐厅","address":"长宁区虹梅路3911号SOHO3911休闲街3号别墅(近虹桥路)"},{"poiid":"B2094757D06BA1FD4298","title":"西郊百联电影院","lon":"121.37847158","lat":"31.193721717","category":"178","category_name":"电影院","address":"上海市长宁区"},{"poiid":"B2094654D56BA6FD469D","title":"晶采轩","lon":"121.38524","lat":"31.19789","category":"72","category_name":"广东菜","address":"长宁区虹桥路1937号(近虹许路)"},{"poiid":"B2094757D069A2F44799","title":"锅德港式极品肥牛海鲜火锅(虹梅店)","lon":"121.38441","lat":"31.19239","category":"86","category_name":"火锅店","address":"长宁区虹梅路3901号1楼(近虹桥路)"},{"poiid":"B2094757D06BA5FB419C","title":"地铁十号线(龙溪路站)","lon":"121.38004158","lat":"31.19352586","category":"36","category_name":"地铁站","address":"上海龙溪路虹桥路"},{"poiid":"B2094757D468A4F84593","title":"西郊公馆","lon":"121.3849008","lat":"31.1970511","category":"72","category_name":"广东菜","address":"长宁区虹桥路1950号(近西郊宾馆)"},{"poiid":"B2094654D56BA6FD469E","title":"香港农圃饭店","lon":"121.38324","lat":"31.19682","category":"72","category_name":"广东菜","address":"上海长宁区虹桥路1999号(近虹梅路)  "},{"poiid":"B2094655D26EA6F84999","title":"印度小厨(虹梅店)","lon":"121.38325","lat":"31.19355","category":"257","category_name":"中餐厅","address":"长宁区虹梅路3911号SOHO3911休闲街8号别墅(近虹桥路)"},{"poiid":"B2094654D56AABF44993","title":"王子公寓","lon":"121.38029","lat":"31.192511","category":"47","category_name":"住宅区","address":"王子公寓位于长宁虹桥路2222弄"},{"poiid":"B2094655D36CA7F8489E","title":"虹梅路","lon":"121.38061","lat":"31.19464","category":"38","category_name":"公交车站","address":"2007号"},{"poiid":"B2094757D16CA4F94493","title":"布卡拉 BUKHARA","lon":"121.384310054","lat":"31.191769793","category":"102","category_name":"印度风味","address":"闵行区虹梅路3729号(近延安西路)"},{"poiid":"B2094654D56BA6FD469F","title":"西郊体育中心","lon":"121.38497","lat":"31.19785","category":"224","category_name":"综合体育馆","address":"徐汇区虹桥路1949号(近虹梅路)"},{"poiid":"B2094757D664A3FF4399","title":"慕光日本料理 Hikari","lon":"121.3832673","lat":"31.1937276","category":"95","category_name":"日本料理","address":"闵行区虹梅路3911号SOHO3911休闲街"},{"poiid":"B2094655D26EA4FF429A","title":"赤坂亭日式烧肉法式铁板烧","lon":"121.38445","lat":"31.19185","category":"247","category_name":"餐饮美食","address":"闵行区虹梅路3725号森晟世洋国际广场(近延安西路)"},{"poiid":"B2094757D06BA2FD429E","title":"席家花园(虹梅路店)","lon":"121.38415","lat":"31.19258","category":"47","category_name":"住宅区","address":"长宁区虹梅路3911号SOHO3911休闲街2号别墅(近虹桥路)"},{"poiid":"B2094757D06BA3FE4992","title":"Bubba's Texas-style BBQ(虹桥路店)","lon":"121.37549","lat":"31.19147","category":"94","category_name":"西餐厅","address":"长宁区虹桥路2262号(剑河路口)"},{"poiid":"B2094654D564A1FD499B","title":"森晟世洋国际广场","lon":"121.38414","lat":"31.19131","category":"119","category_name":"商场","address":"西直门北大街58号(东北角,西二环边)"},{"poiid":"B2094654D569AAF4449D","title":"虹桥商务大厦","lon":"121.383","lat":"31.1969","category":"46","category_name":"楼宇","address":"长宁区虹桥路2270号"},{"poiid":"B2094654DB6BA7FD479B","title":"梦曼特西餐馆(虹梅路)","lon":"121.38318","lat":"31.19371","category":"94","category_name":"西餐厅","address":"长宁区虹梅路3911号SOHO3911休闲街(近虹桥路)"},{"poiid":"B2094654D569ABF4499C","title":"温莎公寓","lon":"121.381","lat":"31.1967","category":"47","category_name":"住宅区","address":"虹桥路2290号"},{"poiid":"B2094654D569AAF44599","title":"新滨铁板烧 New Hama Teppanyaki","lon":"121.37690694119","lat":"31.192314439953","category":"87","category_name":"特色／地方风味餐厅","address":"长宁区虹桥路2260号孔府别墅内(虹梅路剑河路间)"},{"poiid":"B2094654D569AAF5419A","title":"温莎花园","lon":"121.381","lat":"31.1979","category":"47","category_name":"住宅区","address":"虹桥路2279号"},{"poiid":"B2094757D66BA0FD4598","title":"鼎邦俪池私人会所","lon":"121.375898054","lat":"31.197669793","category":"268","category_name":"自助","address":"长宁区青溪路288弄(近龙溪路)查看地图"},{"poiid":"B2094750D76FABFE499D","title":"ころりOboo(虹梅路店)","lon":"121.383","lat":"31.1936","category":"95","category_name":"日本料理","address":"闵行区虹梅路3911号4号别墅2楼SOHO3911休闲街(近延安西路)"},{"poiid":"B2094757DB69A3F4489F","title":"武警医院","lon":"121.3830202570115","lat":"31.19466067267026","category":"162","category_name":"医院","address":"虹许路831号"},{"poiid":"B2094757D069A3F4429B","title":"西郊明苑别墅会所","lon":"121.37866","lat":"31.19651","category":"148","category_name":"美容美发店","address":"上海长宁区龙溪路189号(近虹井路)  "},{"poiid":"B2094655D26DA7F8409D","title":"金虹别墅(东门)","lon":"121.38173","lat":"31.19612","category":"47","category_name":"住宅区","address":"龙溪路1"},{"poiid":"B2094654D569AAF54093","title":"温莎豪园","lon":"121.38","lat":"31.1991","category":"47","category_name":"住宅区","address":"剑河路2222弄"},{"poiid":"B2094654DB6BA0FE4498","title":"明苑别墅","lon":"121.37931","lat":"31.19739","category":"47","category_name":"住宅区","address":"龙溪路189号"},{"poiid":"B2094654DB6BA7FD469E","title":"西郊宾馆花园别墅南门(虹桥路)","lon":"121.38309","lat":"31.19645","category":"47","category_name":"住宅区","address":"长宁区虹桥路2065号"},{"poiid":"B2094655D26EA5FA499D","title":"沙华多利 虹梅店 Pasta Fresca Da Salvatore","lon":"121.3846870497","lat":"31.192252632645","category":"98","category_name":"意式菜品餐厅","address":"闵行区虹梅路3896号中洋公寓内(近延安西路)"},{"poiid":"B2094654D56BA6FE4298","title":"上海市民办新虹桥中学","lon":"121.37981","lat":"31.19321","category":"55","category_name":"中学","address":"长宁区虹桥路2206号"},{"poiid":"B2094757D064A2FB459D","title":"日月会所","lon":"121.38001058","lat":"31.191443172","category":"500","category_name":"未知分类","address":"虹桥路2222弄37号王子公寓近虹梅路"},{"poiid":"B2094654D56BA6FD4592","title":"宋庆龄幼儿园国际部","lon":"121.3842","lat":"31.19447","category":"57","category_name":"幼儿园","address":"闵行区虹梅路3908号(近延安西路)"},{"poiid":"B2094654DB65A4F84098","title":"明苑别墅(东门)","lon":"121.37963","lat":"31.19792","category":"47","category_name":"住宅区","address":"龙溪路189"},{"poiid":"B2094752D36EA7FF419D","title":"西郊一號","lon":"121.381072","lat":"31.199565","category":"247","category_name":"餐饮美食","address":"虹橋路1950號"},{"poiid":"B2094757D169AAF5409F","title":"上海法拉利俱乐部","lon":"121.382823586","lat":"31.1959997617","category":"500","category_name":"未知分类","address":"长宁区虹桥路2109号金虹别墅C2"},{"poiid":"B2094655D265A5F84192","title":"上海西郊水族馆","lon":"121.38368","lat":"31.19797","category":"199","category_name":"水族馆","address":"程家桥"},{"poiid":"B2094750D76CA5F54498","title":"口袋蛋糕","lon":"121.383","lat":"31.1937","category":"67","category_name":"甜品店","address":"长宁区虹梅路3911号SOHO3911休闲街11栋102室(近虹桥路)"},{"poiid":"B2094750D76EA4FF4699","title":"西郊宾馆牡丹厅","lon":"121.387","lat":"31.1984","category":"268","category_name":"自助","address":"长宁区虹桥路1921号7号楼"},{"poiid":"B2094757D66EA3F84392","title":"虹桥机场北彩虹桥","lon":"121.380809686","lat":"31.1975813926","category":"21","category_name":"飞机场","address":"上海虹桥机场2号航站楼"},{"poiid":"B2094757D06FA1FE4492","title":"西郊宾馆","lon":"121.38651","lat":"31.19694","category":"213","category_name":"五星级宾馆","address":"长宁区虹桥路1921号(近虹许路)"},{"poiid":"B2094654DB69A0F9479D","title":"王朝大酒楼(虹桥店)","lon":"121.37808","lat":"31.19264","category":"257","category_name":"中餐厅","address":"上海长宁区虹桥路2260号(近剑河路)"},{"poiid":"B2094757D06FAAFC4293","title":"彼德西餐","lon":"121.38339","lat":"31.19292","category":"94","category_name":"西餐厅","address":"长宁区虹梅路3911号SOHO3911休闲街7号别墅(近虹桥路)"},{"poiid":"B2094757D169A5FC4893","title":"西郊宾馆7号楼水上餐厅","lon":"121.37832858","lat":"31.201840875","category":"217","category_name":"旅馆招待所","address":"上海市长宁区虹桥路1921号"},{"poiid":"B2094655D269AAFC479C","title":"西郊宾馆宴会厅","lon":"121.3817","lat":"31.20044","category":"247","category_name":"餐饮美食","address":"长宁区虹桥路1921号西郊宾馆内(近虹许路)查看地图"},{"poiid":"B2094655D26DA2F5499D","title":"希腊餐厅 虹梅路店 Greek Taverna","lon":"121.383009054","lat":"31.193537793","category":"94","category_name":"西餐厅","address":"长宁区虹梅路3911号SOHO3911休闲街1号别墅(近虹桥路)"},{"poiid":"B2094757D06BA3F8439A","title":"晶浦会西郊会所","lon":"121.385306586","lat":"31.1970257818","category":"500","category_name":"未知分类","address":"虹桥路1970号近虹梅路"},{"poiid":"B2094757D06EAAF84599","title":"龙溪路地铁站","lon":"121.37988978","lat":"31.194287116","category":"36","category_name":"地铁站","address":"上海轨道交通 十号线 轨交龙溪路站 10"},{"poiid":"B2094757D465A1FE499C","title":"名豪鱼翅海鲜酒家 虹桥店","lon":"121.38368575468","lat":"31.192560657425","category":"72","category_name":"广东菜","address":"长宁区虹梅北路3883号(近延安西路)"},{"poiid":"B2094757D069A0F94299","title":"皇家泰厨","lon":"121.38404","lat":"31.19285","category":"99","category_name":"泰国／越南菜品餐厅","address":"长宁区虹梅路3911号SOHO3911休闲街3号别墅(近虹桥路)"},{"poiid":"B2094757D06BA1FD4298","title":"西郊百联电影院","lon":"121.37847158","lat":"31.193721717","category":"178","category_name":"电影院","address":"上海市长宁区"},{"poiid":"B2094654D56BA6FD469D","title":"晶采轩","lon":"121.38524","lat":"31.19789","category":"72","category_name":"广东菜","address":"长宁区虹桥路1937号(近虹许路)"},{"poiid":"B2094757D069A2F44799","title":"锅德港式极品肥牛海鲜火锅(虹梅店)","lon":"121.38441","lat":"31.19239","category":"86","category_name":"火锅店","address":"长宁区虹梅路3901号1楼(近虹桥路)"},{"poiid":"B2094757D06BA5FB419C","title":"地铁十号线(龙溪路站)","lon":"121.38004158","lat":"31.19352586","category":"36","category_name":"地铁站","address":"上海龙溪路虹桥路"},{"poiid":"B2094757D468A4F84593","title":"西郊公馆","lon":"121.3849008","lat":"31.1970511","category":"72","category_name":"广东菜","address":"长宁区虹桥路1950号(近西郊宾馆)"},{"poiid":"B2094654D56BA6FD469E","title":"香港农圃饭店","lon":"121.38324","lat":"31.19682","category":"72","category_name":"广东菜","address":"上海长宁区虹桥路1999号(近虹梅路)  "},{"poiid":"B2094655D26EA6F84999","title":"印度小厨(虹梅店)","lon":"121.38325","lat":"31.19355","category":"257","category_name":"中餐厅","address":"长宁区虹梅路3911号SOHO3911休闲街8号别墅(近虹桥路)"},{"poiid":"B2094654D56AABF44993","title":"王子公寓","lon":"121.38029","lat":"31.192511","category":"47","category_name":"住宅区","address":"王子公寓位于长宁虹桥路2222弄"},{"poiid":"B2094655D36CA7F8489E","title":"虹梅路","lon":"121.38061","lat":"31.19464","category":"38","category_name":"公交车站","address":"2007号"},{"poiid":"B2094757D16CA4F94493","title":"布卡拉 BUKHARA","lon":"121.384310054","lat":"31.191769793","category":"102","category_name":"印度风味","address":"闵行区虹梅路3729号(近延安西路)"},{"poiid":"B2094654D56BA6FD469F","title":"西郊体育中心","lon":"121.38497","lat":"31.19785","category":"224","category_name":"综合体育馆","address":"徐汇区虹桥路1949号(近虹梅路)"},{"poiid":"B2094757D664A3FF4399","title":"慕光日本料理 Hikari","lon":"121.3832673","lat":"31.1937276","category":"95","category_name":"日本料理","address":"闵行区虹梅路3911号SOHO3911休闲街"},{"poiid":"B2094655D26EA4FF429A","title":"赤坂亭日式烧肉法式铁板烧","lon":"121.38445","lat":"31.19185","category":"247","category_name":"餐饮美食","address":"闵行区虹梅路3725号森晟世洋国际广场(近延安西路)"},{"poiid":"B2094757D06BA2FD429E","title":"席家花园(虹梅路店)","lon":"121.38415","lat":"31.19258","category":"47","category_name":"住宅区","address":"长宁区虹梅路3911号SOHO3911休闲街2号别墅(近虹桥路)"},{"poiid":"B2094757D06BA3FE4992","title":"Bubba's Texas-style BBQ(虹桥路店)","lon":"121.37549","lat":"31.19147","category":"94","category_name":"西餐厅","address":"长宁区虹桥路2262号(剑河路口)"},{"poiid":"B2094654D564A1FD499B","title":"森晟世洋国际广场","lon":"121.38414","lat":"31.19131","category":"119","category_name":"商场","address":"西直门北大街58号(东北角,西二环边)"},{"poiid":"B2094654D569AAF4449D","title":"虹桥商务大厦","lon":"121.383","lat":"31.1969","category":"46","category_name":"楼宇","address":"长宁区虹桥路2270号"},{"poiid":"B2094654DB6BA7FD479B","title":"梦曼特西餐馆(虹梅路)","lon":"121.38318","lat":"31.19371","category":"94","category_name":"西餐厅","address":"长宁区虹梅路3911号SOHO3911休闲街(近虹桥路)"},{"poiid":"B2094654D569ABF4499C","title":"温莎公寓","lon":"121.381","lat":"31.1967","category":"47","category_name":"住宅区","address":"虹桥路2290号"},{"poiid":"B2094654D569AAF44599","title":"新滨铁板烧 New Hama Teppanyaki","lon":"121.37690694119","lat":"31.192314439953","category":"87","category_name":"特色／地方风味餐厅","address":"长宁区虹桥路2260号孔府别墅内(虹梅路剑河路间)"},{"poiid":"B2094654D569AAF5419A","title":"温莎花园","lon":"121.381","lat":"31.1979","category":"47","category_name":"住宅区","address":"虹桥路2279号"},{"poiid":"B2094757D66BA0FD4598","title":"鼎邦俪池私人会所","lon":"121.375898054","lat":"31.197669793","category":"268","category_name":"自助","address":"长宁区青溪路288弄(近龙溪路)查看地图"},{"poiid":"B2094750D76FABFE499D","title":"ころりOboo(虹梅路店)","lon":"121.383","lat":"31.1936","category":"95","category_name":"日本料理","address":"闵行区虹梅路3911号4号别墅2楼SOHO3911休闲街(近延安西路)"},{"poiid":"B2094757DB69A3F4489F","title":"武警医院","lon":"121.3830202570115","lat":"31.19466067267026","category":"162","category_name":"医院","address":"虹许路831号"},{"poiid":"B2094757D069A3F4429B","title":"西郊明苑别墅会所","lon":"121.37866","lat":"31.19651","category":"148","category_name":"美容美发店","address":"上海长宁区龙溪路189号(近虹井路)  "},{"poiid":"B2094655D26DA7F8409D","title":"金虹别墅(东门)","lon":"121.38173","lat":"31.19612","category":"47","category_name":"住宅区","address":"龙溪路1"},{"poiid":"B2094654D569AAF54093","title":"温莎豪园","lon":"121.38","lat":"31.1991","category":"47","category_name":"住宅区","address":"剑河路2222弄"},{"poiid":"B2094654DB6BA0FE4498","title":"明苑别墅","lon":"121.37931","lat":"31.19739","category":"47","category_name":"住宅区","address":"龙溪路189号"},{"poiid":"B2094654DB6BA7FD469E","title":"西郊宾馆花园别墅南门(虹桥路)","lon":"121.38309","lat":"31.19645","category":"47","category_name":"住宅区","address":"长宁区虹桥路2065号"},{"poiid":"B2094655D26EA5FA499D","title":"沙华多利 虹梅店 Pasta Fresca Da Salvatore","lon":"121.3846870497","lat":"31.192252632645","category":"98","category_name":"意式菜品餐厅","address":"闵行区虹梅路3896号中洋公寓内(近延安西路)"},{"poiid":"B2094654D56BA6FE4298","title":"上海市民办新虹桥中学","lon":"121.37981","lat":"31.19321","category":"55","category_name":"中学","address":"长宁区虹桥路2206号"},{"poiid":"B2094757D064A2FB459D","title":"日月会所","lon":"121.38001058","lat":"31.191443172","category":"500","category_name":"未知分类","address":"虹桥路2222弄37号王子公寓近虹梅路"},{"poiid":"B2094654D56BA6FD4592","title":"宋庆龄幼儿园国际部","lon":"121.3842","lat":"31.19447","category":"57","category_name":"幼儿园","address":"闵行区虹梅路3908号(近延安西路)"},{"poiid":"B2094654DB65A4F84098","title":"明苑别墅(东门)","lon":"121.37963","lat":"31.19792","category":"47","category_name":"住宅区","address":"龙溪路189"},{"poiid":"B2094752D36EA7FF419D","title":"西郊一號","lon":"121.381072","lat":"31.199565","category":"247","category_name":"餐饮美食","address":"虹橋路1950號"},{"poiid":"B2094757D169AAF5409F","title":"上海法拉利俱乐部","lon":"121.382823586","lat":"31.1959997617","category":"500","category_name":"未知分类","address":"长宁区虹桥路2109号金虹别墅C2"},{"poiid":"B2094655D265A5F84192","title":"上海西郊水族馆","lon":"121.38368","lat":"31.19797","category":"199","category_name":"水族馆","address":"程家桥"},{"poiid":"B2094750D76CA5F54498","title":"口袋蛋糕","lon":"121.383","lat":"31.1937","category":"67","category_name":"甜品店","address":"长宁区虹梅路3911号SOHO3911休闲街11栋102室(近虹桥路)"},{"poiid":"B2094750D76EA4FF4699","title":"西郊宾馆牡丹厅","lon":"121.387","lat":"31.1984","category":"268","category_name":"自助","address":"长宁区虹桥路1921号7号楼"}]