[{"poiid":"B2094757D06BA7FE489E","title":"金领国际","lon":"121.680493","lat":"31.253423","category":"252","category_name":"楼宇机构","address":"浦东新区川沙路1666号"},{"poiid":"B2094757DA64A3FF4192","title":"恒生商业广场","lon":"121.680043","lat":"31.241123","category":"252","category_name":"楼宇机构","address":"浦东新区上丰路(近金枫公园)"},{"poiid":"B2094757D66EA1F8459A","title":"招商银行信用卡中心","lon":"121.67261178","lat":"31.247633065","category":"150","category_name":"银行","address":"上海华东路来安路"},{"poiid":"B2094655D36CA6F54999","title":"大湾","lon":"121.68476","lat":"31.24371","category":"38","category_name":"公交车站","address":""},{"poiid":"B2094757D16CA1FF419E","title":"龚路","lon":"121.684123","lat":"31.261737","category":"500","category_name":"未知分类","address":"上海市浦东新区川沙路816号(金海路口)"},{"poiid":"B2094654DA6AAAFE489C","title":"金盛佳苑","lon":"121.68645","lat":"31.242142","category":"47","category_name":"住宅区","address":"胜利路30弄"},{"poiid":"B2094757D064A6FB469D","title":"同馨苑","lon":"121.684","lat":"31.2496","category":"252","category_name":"楼宇机构","address":"云雅路337号等单号"},{"poiid":"B2094654DA6AAAFE4798","title":"鑫港苑","lon":"121.68105","lat":"31.241295","category":"47","category_name":"住宅区","address":"上海浦东新区虹盛路250弄"},{"poiid":"B2094654DA6BA1FF4492","title":"同景苑","lon":"121.67756","lat":"31.24457","category":"47","category_name":"住宅区","address":"上海云雅路400弄"},{"poiid":"B2094757D16EA4F9479D","title":"上海期货交易所","lon":"121.679198747","lat":"31.2485499627","category":"263","category_name":"公司","address":"上海来安路996号"},{"poiid":"B2094655D26BA2FE439A","title":"王港","lon":"121.68574","lat":"31.23727","category":"38","category_name":"公交车站","address":""},{"poiid":"B2094654DA6AAAFE489F","title":"环庆新苑","lon":"121.68788","lat":"31.245167","category":"47","category_name":"住宅区","address":"胜利路169弄"},{"poiid":"B2094757D16CA1F9499F","title":"阳光喜悦大酒店","lon":"121.698734054","lat":"31.246485793","category":"76","category_name":"上海菜","address":"浦东新区胜利路836号26栋(顾江路口)"},{"poiid":"B2094750DB65A2F5429E","title":"肯德基(恒生广场店)","lon":"121.680969","lat":"31.239988","category":"68","category_name":"快餐厅","address":"浦东新区上丰路1772-1784号1楼恒生商业广场内(近王港路)"},{"poiid":"B2094654DA6AAAFE479B","title":"金枫公寓","lon":"121.68266","lat":"31.238955","category":"47","category_name":"住宅区","address":"虹盛东路39弄"},{"poiid":"B2094654DA6AAAFE4999","title":"兰州正宗牛肉拉面(胜利路)","lon":"121.69078","lat":"31.24442","category":"90","category_name":"清真餐馆","address":""},{"poiid":"B2094655D36CA1FC479B","title":"胜利路顾江路","lon":"121.70025","lat":"31.24675","category":"38","category_name":"公交车站","address":""},{"poiid":"B2094757D06BA7F4439F","title":"中国太平共享服务中心","lon":"121.67594917","lat":"31.232002288","category":"500","category_name":"未知分类","address":"上海张江卡园三路"},{"poiid":"B2094654DA6AAAFF4292","title":"上海新发创运工业园(东胜路)","lon":"121.69203","lat":"31.24213","category":"45","category_name":"产业园区","address":"东胜路38号"},{"poiid":"B2094655D36CA6FD4699","title":"龚华路龚丰路","lon":"121.68848","lat":"31.25777","category":"38","category_name":"公交车站","address":""},{"poiid":"B2094654DA6AAAFE4893","title":"园区之家","lon":"121.68945","lat":"31.24339","category":"248","category_name":"生活娱乐","address":""},{"poiid":"B2094757D568AAF8479F","title":"金杨高层区项目","lon":"121.694014","lat":"31.245544","category":"47","category_name":"住宅区","address":"龙东大道胜利路836号"},{"poiid":"B2094750DA69AAFA469D","title":"大湾名苑","lon":"121.692224","lat":"31.252076","category":"47","category_name":"住宅区","address":"浦东新区川沙路2015弄"},{"poiid":"B2094757D16BA0FE479E","title":"张江现代医疗器械园区","lon":"121.704831085","lat":"31.2421823455","category":"500","category_name":"未知分类","address":"上海市浦东新区瑞庆路528号"},{"poiid":"B2094757D465A4FD439D","title":"吉祥馄饨 王港店 Gll Wonton","lon":"121.684522054","lat":"31.243890793","category":"247","category_name":"餐饮美食","address":"浦东新区上丰路1961号(近川沙路)"},{"poiid":"B2094757D065ABF44192","title":"悌埃保温制品(上海)有限公司","lon":"121.68988308","lat":"31.243742379","category":"249","category_name":"购物服务","address":"上海浦东新区东胜路38号A6"},{"poiid":"B2094757D065A2FB4993","title":"川沙路 虹星路","lon":"121.682857","lat":"31.249544","category":"500","category_name":"未知分类","address":"上海川沙路,虹星路"},{"poiid":"B2094655D36CA1FC479E","title":"胜利路庆达路","lon":"121.69657","lat":"31.24504","category":"38","category_name":"公交车站","address":""},{"poiid":"B2094757D16FA7FF409A","title":"金枫公园","lon":"121.68068","lat":"31.24207","category":"196","category_name":"公园","address":"浦东新区虹盛路(近彩雅路)"},{"poiid":"B2094654DA6AAAFE489B","title":"川沙家具市场","lon":"121.68444","lat":"31.24386","category":"123","category_name":"家具建材市场","address":"州川沙路2060号"},{"poiid":"B2094655D36CA7F5469D","title":"顾江路凯庆路","lon":"121.70135","lat":"31.24393","category":"38","category_name":"公交车站","address":""},{"poiid":"B2094654DB64A3F4469F","title":"如家酒店","lon":"121.68334","lat":"31.23436","category":"216","category_name":"经济型连锁酒店","address":"浦东新区龙东大道5385号"},{"poiid":"B2094751D369A2F9479A","title":"四海游龙(恒生广场店)","lon":"121.68064","lat":"31.24087","category":"68","category_name":"快餐厅","address":"浦东新区虹盛路253号恒生商业广场1楼(近金枫公园)"},{"poiid":"B2094655D36CA1F84593","title":"龙东大道东升路","lon":"121.69485","lat":"31.2361","category":"38","category_name":"公交车站","address":""},{"poiid":"B2094752D26CA6FE499A","title":"芒不颠港式甜品(恒生商业广场店)","lon":"121.68047","lat":"31.24116","category":"67","category_name":"甜品店","address":"浦东新区虹盛路261号恒生商业广场内(近上丰路)"},{"poiid":"B2094654D569A2F54399","title":"徽宁酒家","lon":"121.68392","lat":"31.24925","category":"257","category_name":"中餐厅","address":""},{"poiid":"B2094751D36AA0F5429E","title":"野人岛烤肉(上丰路店)","lon":"121.67899","lat":"31.24094","category":"68","category_name":"快餐厅","address":"浦东新区上丰路1750-1762号恒生商业广场2-8号3楼(近张江银行卡产业园)"},{"poiid":"B2094757D169A3FE459E","title":"星星之火农家乐","lon":"121.69819945","lat":"31.2484827588","category":"260","category_name":"其他","address":"上海浦东星火"},{"poiid":"B2094750D76DAAFC489E","title":"蜀膳传火锅传奇(恒生广场店)","lon":"121.683","lat":"31.2368","category":"86","category_name":"火锅店","address":"浦东新区虹盛路253号恒生商业广场2楼(近上丰路)"},{"poiid":"B2094654DA6BA3FC4499","title":"华昌小区","lon":"121.68414","lat":"31.238461","category":"47","category_name":"住宅区","address":"上海市浦东新区川沙路2278弄"},{"poiid":"B2094757D06FAAFF449D","title":"张江现代医疗器械园","lon":"121.70703125","lat":"31.242294311","category":"46","category_name":"楼宇","address":"上海张江东区仁庆路"},{"poiid":"B2094654DA6BA1FF469D","title":"金枫豪苑","lon":"121.68059","lat":"31.238508","category":"47","category_name":"住宅区","address":"金枫豪苑位于浦东虹盛路160弄"},{"poiid":"B2094757D569A1F84293","title":"世昶生活广场","lon":"121.6849817","lat":"31.240985","category":"249","category_name":"购物服务","address":"嘉定安亭新源路58号"},{"poiid":"B2094654DA6AAAFF419C","title":"胜利餐厅(胜利路)","lon":"121.69926","lat":"31.24617","category":"257","category_name":"中餐厅","address":""},{"poiid":"B2094751D269A0FD4299","title":"喜粤美膳","lon":"121.677719","lat":"31.2401","category":"72","category_name":"广东菜","address":"浦东新区王港路177号恒生商业广场内(近上丰路)"},{"poiid":"B2094757D769A7FB4898","title":"湘色满园","lon":"121.677368054","lat":"31.243344793","category":"77","category_name":"湖南菜","address":"浦东新区云雅路356号(近王巷路)"},{"poiid":"B2094654DA6AAAFE4693","title":"虹盛小区","lon":"121.68169","lat":"31.237766","category":"47","category_name":"住宅区","address":"虹盛路107弄"},{"poiid":"B2094753D664A4F4449D","title":"山珍王国","lon":"121.682327","lat":"31.246904","category":"500","category_name":"未知分类","address":"上海市 上海市浦东新区乐昌路109号"},{"poiid":"B2094654DA6AAAFF4198","title":"上海东方久乐汽车安全气囊有限公司","lon":"121.69639","lat":"31.24608","category":"263","category_name":"公司","address":"庆达路219"},{"poiid":"B2094654DA6BA1FF4293","title":"来伊份No.543","lon":"121.6827","lat":"31.24257","category":"255","category_name":"专卖店","address":""},{"poiid":"B2094757D06BA7FE489E","title":"金领国际","lon":"121.680493","lat":"31.253423","category":"252","category_name":"楼宇机构","address":"浦东新区川沙路1666号"},{"poiid":"B2094757DA64A3FF4192","title":"恒生商业广场","lon":"121.680043","lat":"31.241123","category":"252","category_name":"楼宇机构","address":"浦东新区上丰路(近金枫公园)"},{"poiid":"B2094757D66EA1F8459A","title":"招商银行信用卡中心","lon":"121.67261178","lat":"31.247633065","category":"150","category_name":"银行","address":"上海华东路来安路"},{"poiid":"B2094655D36CA6F54999","title":"大湾","lon":"121.68476","lat":"31.24371","category":"38","category_name":"公交车站","address":""},{"poiid":"B2094757D16CA1FF419E","title":"龚路","lon":"121.684123","lat":"31.261737","category":"500","category_name":"未知分类","address":"上海市浦东新区川沙路816号(金海路口)"},{"poiid":"B2094654DA6AAAFE489C","title":"金盛佳苑","lon":"121.68645","lat":"31.242142","category":"47","category_name":"住宅区","address":"胜利路30弄"},{"poiid":"B2094757D064A6FB469D","title":"同馨苑","lon":"121.684","lat":"31.2496","category":"252","category_name":"楼宇机构","address":"云雅路337号等单号"},{"poiid":"B2094654DA6AAAFE4798","title":"鑫港苑","lon":"121.68105","lat":"31.241295","category":"47","category_name":"住宅区","address":"上海浦东新区虹盛路250弄"},{"poiid":"B2094654DA6BA1FF4492","title":"同景苑","lon":"121.67756","lat":"31.24457","category":"47","category_name":"住宅区","address":"上海云雅路400弄"},{"poiid":"B2094757D16EA4F9479D","title":"上海期货交易所","lon":"121.679198747","lat":"31.2485499627","category":"263","category_name":"公司","address":"上海来安路996号"},{"poiid":"B2094655D26BA2FE439A","title":"王港","lon":"121.68574","lat":"31.23727","category":"38","category_name":"公交车站","address":""},{"poiid":"B2094654DA6AAAFE489F","title":"环庆新苑","lon":"121.68788","lat":"31.245167","category":"47","category_name":"住宅区","address":"胜利路169弄"},{"poiid":"B2094757D16CA1F9499F","title":"阳光喜悦大酒店","lon":"121.698734054","lat":"31.246485793","category":"76","category_name":"上海菜","address":"浦东新区胜利路836号26栋(顾江路口)"},{"poiid":"B2094750DB65A2F5429E","title":"肯德基(恒生广场店)","lon":"121.680969","lat":"31.239988","category":"68","category_name":"快餐厅","address":"浦东新区上丰路1772-1784号1楼恒生商业广场内(近王港路)"},{"poiid":"B2094654DA6AAAFE479B","title":"金枫公寓","lon":"121.68266","lat":"31.238955","category":"47","category_name":"住宅区","address":"虹盛东路39弄"},{"poiid":"B2094654DA6AAAFE4999","title":"兰州正宗牛肉拉面(胜利路)","lon":"121.69078","lat":"31.24442","category":"90","category_name":"清真餐馆","address":""},{"poiid":"B2094655D36CA1FC479B","title":"胜利路顾江路","lon":"121.70025","lat":"31.24675","category":"38","category_name":"公交车站","address":""},{"poiid":"B2094757D06BA7F4439F","title":"中国太平共享服务中心","lon":"121.67594917","lat":"31.232002288","category":"500","category_name":"未知分类","address":"上海张江卡园三路"},{"poiid":"B2094654DA6AAAFF4292","title":"上海新发创运工业园(东胜路)","lon":"121.69203","lat":"31.24213","category":"45","category_name":"产业园区","address":"东胜路38号"},{"poiid":"B2094655D36CA6FD4699","title":"龚华路龚丰路","lon":"121.68848","lat":"31.25777","category":"38","category_name":"公交车站","address":""},{"poiid":"B2094654DA6AAAFE4893","title":"园区之家","lon":"121.68945","lat":"31.24339","category":"248","category_name":"生活娱乐","address":""},{"poiid":"B2094757D568AAF8479F","title":"金杨高层区项目","lon":"121.694014","lat":"31.245544","category":"47","category_name":"住宅区","address":"龙东大道胜利路836号"},{"poiid":"B2094750DA69AAFA469D","title":"大湾名苑","lon":"121.692224","lat":"31.252076","category":"47","category_name":"住宅区","address":"浦东新区川沙路2015弄"},{"poiid":"B2094757D16BA0FE479E","title":"张江现代医疗器械园区","lon":"121.704831085","lat":"31.2421823455","category":"500","category_name":"未知分类","address":"上海市浦东新区瑞庆路528号"},{"poiid":"B2094757D465A4FD439D","title":"吉祥馄饨 王港店 Gll Wonton","lon":"121.684522054","lat":"31.243890793","category":"247","category_name":"餐饮美食","address":"浦东新区上丰路1961号(近川沙路)"},{"poiid":"B2094757D065ABF44192","title":"悌埃保温制品(上海)有限公司","lon":"121.68988308","lat":"31.243742379","category":"249","category_name":"购物服务","address":"上海浦东新区东胜路38号A6"},{"poiid":"B2094757D065A2FB4993","title":"川沙路 虹星路","lon":"121.682857","lat":"31.249544","category":"500","category_name":"未知分类","address":"上海川沙路,虹星路"},{"poiid":"B2094655D36CA1FC479E","title":"胜利路庆达路","lon":"121.69657","lat":"31.24504","category":"38","category_name":"公交车站","address":""},{"poiid":"B2094757D16FA7FF409A","title":"金枫公园","lon":"121.68068","lat":"31.24207","category":"196","category_name":"公园","address":"浦东新区虹盛路(近彩雅路)"},{"poiid":"B2094654DA6AAAFE489B","title":"川沙家具市场","lon":"121.68444","lat":"31.24386","category":"123","category_name":"家具建材市场","address":"州川沙路2060号"},{"poiid":"B2094655D36CA7F5469D","title":"顾江路凯庆路","lon":"121.70135","lat":"31.24393","category":"38","category_name":"公交车站","address":""},{"poiid":"B2094654DB64A3F4469F","title":"如家酒店","lon":"121.68334","lat":"31.23436","category":"216","category_name":"经济型连锁酒店","address":"浦东新区龙东大道5385号"},{"poiid":"B2094751D369A2F9479A","title":"四海游龙(恒生广场店)","lon":"121.68064","lat":"31.24087","category":"68","category_name":"快餐厅","address":"浦东新区虹盛路253号恒生商业广场1楼(近金枫公园)"},{"poiid":"B2094655D36CA1F84593","title":"龙东大道东升路","lon":"121.69485","lat":"31.2361","category":"38","category_name":"公交车站","address":""},{"poiid":"B2094752D26CA6FE499A","title":"芒不颠港式甜品(恒生商业广场店)","lon":"121.68047","lat":"31.24116","category":"67","category_name":"甜品店","address":"浦东新区虹盛路261号恒生商业广场内(近上丰路)"},{"poiid":"B2094654D569A2F54399","title":"徽宁酒家","lon":"121.68392","lat":"31.24925","category":"257","category_name":"中餐厅","address":""},{"poiid":"B2094751D36AA0F5429E","title":"野人岛烤肉(上丰路店)","lon":"121.67899","lat":"31.24094","category":"68","category_name":"快餐厅","address":"浦东新区上丰路1750-1762号恒生商业广场2-8号3楼(近张江银行卡产业园)"},{"poiid":"B2094757D169A3FE459E","title":"星星之火农家乐","lon":"121.69819945","lat":"31.2484827588","category":"260","category_name":"其他","address":"上海浦东星火"},{"poiid":"B2094750D76DAAFC489E","title":"蜀膳传火锅传奇(恒生广场店)","lon":"121.683","lat":"31.2368","category":"86","category_name":"火锅店","address":"浦东新区虹盛路253号恒生商业广场2楼(近上丰路)"},{"poiid":"B2094654DA6BA3FC4499","title":"华昌小区","lon":"121.68414","lat":"31.238461","category":"47","category_name":"住宅区","address":"上海市浦东新区川沙路2278弄"},{"poiid":"B2094757D06FAAFF449D","title":"张江现代医疗器械园","lon":"121.70703125","lat":"31.242294311","category":"46","category_name":"楼宇","address":"上海张江东区仁庆路"},{"poiid":"B2094654DA6BA1FF469D","title":"金枫豪苑","lon":"121.68059","lat":"31.238508","category":"47","category_name":"住宅区","address":"金枫豪苑位于浦东虹盛路160弄"},{"poiid":"B2094757D569A1F84293","title":"世昶生活广场","lon":"121.6849817","lat":"31.240985","category":"249","category_name":"购物服务","address":"嘉定安亭新源路58号"},{"poiid":"B2094654DA6AAAFF419C","title":"胜利餐厅(胜利路)","lon":"121.69926","lat":"31.24617","category":"257","category_name":"中餐厅","address":""},{"poiid":"B2094751D269A0FD4299","title":"喜粤美膳","lon":"121.677719","lat":"31.2401","category":"72","category_name":"广东菜","address":"浦东新区王港路177号恒生商业广场内(近上丰路)"},{"poiid":"B2094757D769A7FB4898","title":"湘色满园","lon":"121.677368054","lat":"31.243344793","category":"77","category_name":"湖南菜","address":"浦东新区云雅路356号(近王巷路)"},{"poiid":"B2094654DA6AAAFE4693","title":"虹盛小区","lon":"121.68169","lat":"31.237766","category":"47","category_name":"住宅区","address":"虹盛路107弄"},{"poiid":"B2094753D664A4F4449D","title":"山珍王国","lon":"121.682327","lat":"31.246904","category":"500","category_name":"未知分类","address":"上海市 上海市浦东新区乐昌路109号"},{"poiid":"B2094654DA6AAAFF4198","title":"上海东方久乐汽车安全气囊有限公司","lon":"121.69639","lat":"31.24608","category":"263","category_name":"公司","address":"庆达路219"},{"poiid":"B2094654DA6BA1FF4293","title":"来伊份No.543","lon":"121.6827","lat":"31.24257","category":"255","category_name":"专卖店","address":""},{"poiid":"B2094757D06BA7FE489E","title":"金领国际","lon":"121.680493","lat":"31.253423","category":"252","category_name":"楼宇机构","address":"浦东新区川沙路1666号"},{"poiid":"B2094757DA64A3FF4192","title":"恒生商业广场","lon":"121.680043","lat":"31.241123","category":"252","category_name":"楼宇机构","address":"浦东新区上丰路(近金枫公园)"},{"poiid":"B2094757D66EA1F8459A","title":"招商银行信用卡中心","lon":"121.67261178","lat":"31.247633065","category":"150","category_name":"银行","address":"上海华东路来安路"},{"poiid":"B2094655D36CA6F54999","title":"大湾","lon":"121.68476","lat":"31.24371","category":"38","category_name":"公交车站","address":""},{"poiid":"B2094757D16CA1FF419E","title":"龚路","lon":"121.684123","lat":"31.261737","category":"500","category_name":"未知分类","address":"上海市浦东新区川沙路816号(金海路口)"},{"poiid":"B2094654DA6AAAFE489C","title":"金盛佳苑","lon":"121.68645","lat":"31.242142","category":"47","category_name":"住宅区","address":"胜利路30弄"},{"poiid":"B2094757D064A6FB469D","title":"同馨苑","lon":"121.684","lat":"31.2496","category":"252","category_name":"楼宇机构","address":"云雅路337号等单号"},{"poiid":"B2094654DA6AAAFE4798","title":"鑫港苑","lon":"121.68105","lat":"31.241295","category":"47","category_name":"住宅区","address":"上海浦东新区虹盛路250弄"},{"poiid":"B2094654DA6BA1FF4492","title":"同景苑","lon":"121.67756","lat":"31.24457","category":"47","category_name":"住宅区","address":"上海云雅路400弄"},{"poiid":"B2094757D16EA4F9479D","title":"上海期货交易所","lon":"121.679198747","lat":"31.2485499627","category":"263","category_name":"公司","address":"上海来安路996号"},{"poiid":"B2094655D26BA2FE439A","title":"王港","lon":"121.68574","lat":"31.23727","category":"38","category_name":"公交车站","address":""},{"poiid":"B2094654DA6AAAFE489F","title":"环庆新苑","lon":"121.68788","lat":"31.245167","category":"47","category_name":"住宅区","address":"胜利路169弄"},{"poiid":"B2094757D16CA1F9499F","title":"阳光喜悦大酒店","lon":"121.698734054","lat":"31.246485793","category":"76","category_name":"上海菜","address":"浦东新区胜利路836号26栋(顾江路口)"},{"poiid":"B2094750DB65A2F5429E","title":"肯德基(恒生广场店)","lon":"121.680969","lat":"31.239988","category":"68","category_name":"快餐厅","address":"浦东新区上丰路1772-1784号1楼恒生商业广场内(近王港路)"},{"poiid":"B2094654DA6AAAFE479B","title":"金枫公寓","lon":"121.68266","lat":"31.238955","category":"47","category_name":"住宅区","address":"虹盛东路39弄"},{"poiid":"B2094654DA6AAAFE4999","title":"兰州正宗牛肉拉面(胜利路)","lon":"121.69078","lat":"31.24442","category":"90","category_name":"清真餐馆","address":""},{"poiid":"B2094655D36CA1FC479B","title":"胜利路顾江路","lon":"121.70025","lat":"31.24675","category":"38","category_name":"公交车站","address":""},{"poiid":"B2094757D06BA7F4439F","title":"中国太平共享服务中心","lon":"121.67594917","lat":"31.232002288","category":"500","category_name":"未知分类","address":"上海张江卡园三路"},{"poiid":"B2094654DA6AAAFF4292","title":"上海新发创运工业园(东胜路)","lon":"121.69203","lat":"31.24213","category":"45","category_name":"产业园区","address":"东胜路38号"},{"poiid":"B2094655D36CA6FD4699","title":"龚华路龚丰路","lon":"121.68848","lat":"31.25777","category":"38","category_name":"公交车站","address":""},{"poiid":"B2094654DA6AAAFE4893","title":"园区之家","lon":"121.68945","lat":"31.24339","category":"248","category_name":"生活娱乐","address":""},{"poiid":"B2094757D568AAF8479F","title":"金杨高层区项目","lon":"121.694014","lat":"31.245544","category":"47","category_name":"住宅区","address":"龙东大道胜利路836号"},{"poiid":"B2094750DA69AAFA469D","title":"大湾名苑","lon":"121.692224","lat":"31.252076","category":"47","category_name":"住宅区","address":"浦东新区川沙路2015弄"},{"poiid":"B2094757D16BA0FE479E","title":"张江现代医疗器械园区","lon":"121.704831085","lat":"31.2421823455","category":"500","category_name":"未知分类","address":"上海市浦东新区瑞庆路528号"},{"poiid":"B2094757D465A4FD439D","title":"吉祥馄饨 王港店 Gll Wonton","lon":"121.684522054","lat":"31.243890793","category":"247","category_name":"餐饮美食","address":"浦东新区上丰路1961号(近川沙路)"},{"poiid":"B2094757D065ABF44192","title":"悌埃保温制品(上海)有限公司","lon":"121.68988308","lat":"31.243742379","category":"249","category_name":"购物服务","address":"上海浦东新区东胜路38号A6"},{"poiid":"B2094757D065A2FB4993","title":"川沙路 虹星路","lon":"121.682857","lat":"31.249544","category":"500","category_name":"未知分类","address":"上海川沙路,虹星路"},{"poiid":"B2094655D36CA1FC479E","title":"胜利路庆达路","lon":"121.69657","lat":"31.24504","category":"38","category_name":"公交车站","address":""},{"poiid":"B2094757D16FA7FF409A","title":"金枫公园","lon":"121.68068","lat":"31.24207","category":"196","category_name":"公园","address":"浦东新区虹盛路(近彩雅路)"},{"poiid":"B2094654DA6AAAFE489B","title":"川沙家具市场","lon":"121.68444","lat":"31.24386","category":"123","category_name":"家具建材市场","address":"州川沙路2060号"},{"poiid":"B2094655D36CA7F5469D","title":"顾江路凯庆路","lon":"121.70135","lat":"31.24393","category":"38","category_name":"公交车站","address":""},{"poiid":"B2094654DB64A3F4469F","title":"如家酒店","lon":"121.68334","lat":"31.23436","category":"216","category_name":"经济型连锁酒店","address":"浦东新区龙东大道5385号"},{"poiid":"B2094751D369A2F9479A","title":"四海游龙(恒生广场店)","lon":"121.68064","lat":"31.24087","category":"68","category_name":"快餐厅","address":"浦东新区虹盛路253号恒生商业广场1楼(近金枫公园)"},{"poiid":"B2094655D36CA1F84593","title":"龙东大道东升路","lon":"121.69485","lat":"31.2361","category":"38","category_name":"公交车站","address":""},{"poiid":"B2094752D26CA6FE499A","title":"芒不颠港式甜品(恒生商业广场店)","lon":"121.68047","lat":"31.24116","category":"67","category_name":"甜品店","address":"浦东新区虹盛路261号恒生商业广场内(近上丰路)"},{"poiid":"B2094654D569A2F54399","title":"徽宁酒家","lon":"121.68392","lat":"31.24925","category":"257","category_name":"中餐厅","address":""},{"poiid":"B2094751D36AA0F5429E","title":"野人岛烤肉(上丰路店)","lon":"121.67899","lat":"31.24094","category":"68","category_name":"快餐厅","address":"浦东新区上丰路1750-1762号恒生商业广场2-8号3楼(近张江银行卡产业园)"},{"poiid":"B2094757D169A3FE459E","title":"星星之火农家乐","lon":"121.69819945","lat":"31.2484827588","category":"260","category_name":"其他","address":"上海浦东星火"},{"poiid":"B2094750D76DAAFC489E","title":"蜀膳传火锅传奇(恒生广场店)","lon":"121.683","lat":"31.2368","category":"86","category_name":"火锅店","address":"浦东新区虹盛路253号恒生商业广场2楼(近上丰路)"},{"poiid":"B2094654DA6BA3FC4499","title":"华昌小区","lon":"121.68414","lat":"31.238461","category":"47","category_name":"住宅区","address":"上海市浦东新区川沙路2278弄"},{"poiid":"B2094757D06FAAFF449D","title":"张江现代医疗器械园","lon":"121.70703125","lat":"31.242294311","category":"46","category_name":"楼宇","address":"上海张江东区仁庆路"},{"poiid":"B2094654DA6BA1FF469D","title":"金枫豪苑","lon":"121.68059","lat":"31.238508","category":"47","category_name":"住宅区","address":"金枫豪苑位于浦东虹盛路160弄"},{"poiid":"B2094757D569A1F84293","title":"世昶生活广场","lon":"121.6849817","lat":"31.240985","category":"249","category_name":"购物服务","address":"嘉定安亭新源路58号"},{"poiid":"B2094654DA6AAAFF419C","title":"胜利餐厅(胜利路)","lon":"121.69926","lat":"31.24617","category":"257","category_name":"中餐厅","address":""},{"poiid":"B2094751D269A0FD4299","title":"喜粤美膳","lon":"121.677719","lat":"31.2401","category":"72","category_name":"广东菜","address":"浦东新区王港路177号恒生商业广场内(近上丰路)"},{"poiid":"B2094757D769A7FB4898","title":"湘色满园","lon":"121.677368054","lat":"31.243344793","category":"77","category_name":"湖南菜","address":"浦东新区云雅路356号(近王巷路)"},{"poiid":"B2094654DA6AAAFE4693","title":"虹盛小区","lon":"121.68169","lat":"31.237766","category":"47","category_name":"住宅区","address":"虹盛路107弄"},{"poiid":"B2094753D664A4F4449D","title":"山珍王国","lon":"121.682327","lat":"31.246904","category":"500","category_name":"未知分类","address":"上海市 上海市浦东新区乐昌路109号"},{"poiid":"B2094654DA6AAAFF4198","title":"上海东方久乐汽车安全气囊有限公司","lon":"121.69639","lat":"31.24608","category":"263","category_name":"公司","address":"庆达路219"},{"poiid":"B2094654DA6BA1FF4293","title":"来伊份No.543","lon":"121.6827","lat":"31.24257","category":"255","category_name":"专卖店","address":""},{"poiid":"B2094757D06BA7FE489E","title":"金领国际","lon":"121.680493","lat":"31.253423","category":"252","category_name":"楼宇机构","address":"浦东新区川沙路1666号"},{"poiid":"B2094757DA64A3FF4192","title":"恒生商业广场","lon":"121.680043","lat":"31.241123","category":"252","category_name":"楼宇机构","address":"浦东新区上丰路(近金枫公园)"},{"poiid":"B2094757D66EA1F8459A","title":"招商银行信用卡中心","lon":"121.67261178","lat":"31.247633065","category":"150","category_name":"银行","address":"上海华东路来安路"},{"poiid":"B2094655D36CA6F54999","title":"大湾","lon":"121.68476","lat":"31.24371","category":"38","category_name":"公交车站","address":""},{"poiid":"B2094757D16CA1FF419E","title":"龚路","lon":"121.684123","lat":"31.261737","category":"500","category_name":"未知分类","address":"上海市浦东新区川沙路816号(金海路口)"},{"poiid":"B2094654DA6AAAFE489C","title":"金盛佳苑","lon":"121.68645","lat":"31.242142","category":"47","category_name":"住宅区","address":"胜利路30弄"},{"poiid":"B2094757D064A6FB469D","title":"同馨苑","lon":"121.684","lat":"31.2496","category":"252","category_name":"楼宇机构","address":"云雅路337号等单号"},{"poiid":"B2094654DA6AAAFE4798","title":"鑫港苑","lon":"121.68105","lat":"31.241295","category":"47","category_name":"住宅区","address":"上海浦东新区虹盛路250弄"},{"poiid":"B2094654DA6BA1FF4492","title":"同景苑","lon":"121.67756","lat":"31.24457","category":"47","category_name":"住宅区","address":"上海云雅路400弄"},{"poiid":"B2094757D16EA4F9479D","title":"上海期货交易所","lon":"121.679198747","lat":"31.2485499627","category":"263","category_name":"公司","address":"上海来安路996号"},{"poiid":"B2094655D26BA2FE439A","title":"王港","lon":"121.68574","lat":"31.23727","category":"38","category_name":"公交车站","address":""},{"poiid":"B2094654DA6AAAFE489F","title":"环庆新苑","lon":"121.68788","lat":"31.245167","category":"47","category_name":"住宅区","address":"胜利路169弄"},{"poiid":"B2094757D16CA1F9499F","title":"阳光喜悦大酒店","lon":"121.698734054","lat":"31.246485793","category":"76","category_name":"上海菜","address":"浦东新区胜利路836号26栋(顾江路口)"},{"poiid":"B2094750DB65A2F5429E","title":"肯德基(恒生广场店)","lon":"121.680969","lat":"31.239988","category":"68","category_name":"快餐厅","address":"浦东新区上丰路1772-1784号1楼恒生商业广场内(近王港路)"},{"poiid":"B2094654DA6AAAFE479B","title":"金枫公寓","lon":"121.68266","lat":"31.238955","category":"47","category_name":"住宅区","address":"虹盛东路39弄"},{"poiid":"B2094654DA6AAAFE4999","title":"兰州正宗牛肉拉面(胜利路)","lon":"121.69078","lat":"31.24442","category":"90","category_name":"清真餐馆","address":""},{"poiid":"B2094655D36CA1FC479B","title":"胜利路顾江路","lon":"121.70025","lat":"31.24675","category":"38","category_name":"公交车站","address":""},{"poiid":"B2094757D06BA7F4439F","title":"中国太平共享服务中心","lon":"121.67594917","lat":"31.232002288","category":"500","category_name":"未知分类","address":"上海张江卡园三路"},{"poiid":"B2094654DA6AAAFF4292","title":"上海新发创运工业园(东胜路)","lon":"121.69203","lat":"31.24213","category":"45","category_name":"产业园区","address":"东胜路38号"},{"poiid":"B2094655D36CA6FD4699","title":"龚华路龚丰路","lon":"121.68848","lat":"31.25777","category":"38","category_name":"公交车站","address":""},{"poiid":"B2094654DA6AAAFE4893","title":"园区之家","lon":"121.68945","lat":"31.24339","category":"248","category_name":"生活娱乐","address":""},{"poiid":"B2094757D568AAF8479F","title":"金杨高层区项目","lon":"121.694014","lat":"31.245544","category":"47","category_name":"住宅区","address":"龙东大道胜利路836号"},{"poiid":"B2094750DA69AAFA469D","title":"大湾名苑","lon":"121.692224","lat":"31.252076","category":"47","category_name":"住宅区","address":"浦东新区川沙路2015弄"},{"poiid":"B2094757D16BA0FE479E","title":"张江现代医疗器械园区","lon":"121.704831085","lat":"31.2421823455","category":"500","category_name":"未知分类","address":"上海市浦东新区瑞庆路528号"},{"poiid":"B2094757D465A4FD439D","title":"吉祥馄饨 王港店 Gll Wonton","lon":"121.684522054","lat":"31.243890793","category":"247","category_name":"餐饮美食","address":"浦东新区上丰路1961号(近川沙路)"},{"poiid":"B2094757D065ABF44192","title":"悌埃保温制品(上海)有限公司","lon":"121.68988308","lat":"31.243742379","category":"249","category_name":"购物服务","address":"上海浦东新区东胜路38号A6"},{"poiid":"B2094757D065A2FB4993","title":"川沙路 虹星路","lon":"121.682857","lat":"31.249544","category":"500","category_name":"未知分类","address":"上海川沙路,虹星路"},{"poiid":"B2094655D36CA1FC479E","title":"胜利路庆达路","lon":"121.69657","lat":"31.24504","category":"38","category_name":"公交车站","address":""},{"poiid":"B2094757D16FA7FF409A","title":"金枫公园","lon":"121.68068","lat":"31.24207","category":"196","category_name":"公园","address":"浦东新区虹盛路(近彩雅路)"},{"poiid":"B2094654DA6AAAFE489B","title":"川沙家具市场","lon":"121.68444","lat":"31.24386","category":"123","category_name":"家具建材市场","address":"州川沙路2060号"},{"poiid":"B2094655D36CA7F5469D","title":"顾江路凯庆路","lon":"121.70135","lat":"31.24393","category":"38","category_name":"公交车站","address":""},{"poiid":"B2094654DB64A3F4469F","title":"如家酒店","lon":"121.68334","lat":"31.23436","category":"216","category_name":"经济型连锁酒店","address":"浦东新区龙东大道5385号"},{"poiid":"B2094751D369A2F9479A","title":"四海游龙(恒生广场店)","lon":"121.68064","lat":"31.24087","category":"68","category_name":"快餐厅","address":"浦东新区虹盛路253号恒生商业广场1楼(近金枫公园)"},{"poiid":"B2094655D36CA1F84593","title":"龙东大道东升路","lon":"121.69485","lat":"31.2361","category":"38","category_name":"公交车站","address":""},{"poiid":"B2094752D26CA6FE499A","title":"芒不颠港式甜品(恒生商业广场店)","lon":"121.68047","lat":"31.24116","category":"67","category_name":"甜品店","address":"浦东新区虹盛路261号恒生商业广场内(近上丰路)"},{"poiid":"B2094654D569A2F54399","title":"徽宁酒家","lon":"121.68392","lat":"31.24925","category":"257","category_name":"中餐厅","address":""},{"poiid":"B2094751D36AA0F5429E","title":"野人岛烤肉(上丰路店)","lon":"121.67899","lat":"31.24094","category":"68","category_name":"快餐厅","address":"浦东新区上丰路1750-1762号恒生商业广场2-8号3楼(近张江银行卡产业园)"},{"poiid":"B2094757D169A3FE459E","title":"星星之火农家乐","lon":"121.69819945","lat":"31.2484827588","category":"260","category_name":"其他","address":"上海浦东星火"},{"poiid":"B2094750D76DAAFC489E","title":"蜀膳传火锅传奇(恒生广场店)","lon":"121.683","lat":"31.2368","category":"86","category_name":"火锅店","address":"浦东新区虹盛路253号恒生商业广场2楼(近上丰路)"},{"poiid":"B2094654DA6BA3FC4499","title":"华昌小区","lon":"121.68414","lat":"31.238461","category":"47","category_name":"住宅区","address":"上海市浦东新区川沙路2278弄"},{"poiid":"B2094757D06FAAFF449D","title":"张江现代医疗器械园","lon":"121.70703125","lat":"31.242294311","category":"46","category_name":"楼宇","address":"上海张江东区仁庆路"},{"poiid":"B2094654DA6BA1FF469D","title":"金枫豪苑","lon":"121.68059","lat":"31.238508","category":"47","category_name":"住宅区","address":"金枫豪苑位于浦东虹盛路160弄"},{"poiid":"B2094757D569A1F84293","title":"世昶生活广场","lon":"121.6849817","lat":"31.240985","category":"249","category_name":"购物服务","address":"嘉定安亭新源路58号"},{"poiid":"B2094654DA6AAAFF419C","title":"胜利餐厅(胜利路)","lon":"121.69926","lat":"31.24617","category":"257","category_name":"中餐厅","address":""},{"poiid":"B2094751D269A0FD4299","title":"喜粤美膳","lon":"121.677719","lat":"31.2401","category":"72","category_name":"广东菜","address":"浦东新区王港路177号恒生商业广场内(近上丰路)"},{"poiid":"B2094757D769A7FB4898","title":"湘色满园","lon":"121.677368054","lat":"31.243344793","category":"77","category_name":"湖南菜","address":"浦东新区云雅路356号(近王巷路)"},{"poiid":"B2094654DA6AAAFE4693","title":"虹盛小区","lon":"121.68169","lat":"31.237766","category":"47","category_name":"住宅区","address":"虹盛路107弄"},{"poiid":"B2094753D664A4F4449D","title":"山珍王国","lon":"121.682327","lat":"31.246904","category":"500","category_name":"未知分类","address":"上海市 上海市浦东新区乐昌路109号"},{"poiid":"B2094654DA6AAAFF4198","title":"上海东方久乐汽车安全气囊有限公司","lon":"121.69639","lat":"31.24608","category":"263","category_name":"公司","address":"庆达路219"},{"poiid":"B2094654DA6BA1FF4293","title":"来伊份No.543","lon":"121.6827","lat":"31.24257","category":"255","category_name":"专卖店","address":""}]