[{"poiid":"B2094655D269ABFD469B","title":"静安寺","lon":"121.44552","lat":"31.22324","category":"244","category_name":"寺庙道观","address":"静安区南京西路1686号(近静安寺)"},{"poiid":"B2094655D26EA2FD4592","title":"巴厘岛","lon":"121.44594","lat":"31.22133","category":"110","category_name":"其他亚洲菜","address":"静安区华山路189号静安公园3号门(近延安路高架)"},{"poiid":"B2094655D269A4F5449A","title":"希尔顿酒店","lon":"121.44522","lat":"31.2193","category":"247","category_name":"餐饮美食","address":"静安区华山路250号(近延安西路)"},{"poiid":"B2094753D76FAAFA449C","title":"上海滩国泰旗舰店","lon":"121.466011","lat":"31.216125","category":"249","category_name":"购物服务","address":"淮海中路868号"},{"poiid":"B209475CD564A7F84292","title":"上海滩新天地店","lon":"121.47463","lat":"31.22164","category":"119","category_name":"商场","address":"\"太仓路181弄新天地北里15号\r\n\""},{"poiid":"B209475CD564A7F8439E","title":"上海滩中信泰富店","lon":"121.45602","lat":"31.22851","category":"119","category_name":"商场","address":"\"南京西路1168号中信泰富广场，店铺号221.\r\n\""},{"poiid":"B2094654DB65A6F4469D","title":"上海国际贵都大饭店","lon":"121.44453","lat":"31.21998","category":"213","category_name":"五星级宾馆","address":"北京西路1028号,江宁路168号"},{"poiid":"B2094757D06EAAFE429B","title":"会德丰国际广场(Wheelock Square)","lon":"121.44492732","lat":"31.221689318","category":"46","category_name":"楼宇","address":"上海静安区南京西路1717号"},{"poiid":"B2094654DB69A7FD419B","title":"金桂皇朝","lon":"121.446597054","lat":"31.223581793","category":"72","category_name":"广东菜","address":"静安区南京西路1618号久光百货8楼806-7号(近静安寺)"},{"poiid":"B2094757D06EAAFF469B","title":"静安寺地铁站","lon":"121.446432","lat":"31.223208","category":"36","category_name":"地铁站","address":"上海轨道交通 二号线 七号线 轨交静安寺站 2 7"},{"poiid":"B2094757D06FAAF8419C","title":"DOZO创作和食居酒屋","lon":"121.444619386","lat":"31.2216995642","category":"95","category_name":"日本料理","address":"静安区南京西路1717号会德丰国际广场南院2楼(近华山路)"},{"poiid":"B2094757D069A5FF4299","title":"1788国际大厦(Eco City)","lon":"121.445082286","lat":"31.2224787794","category":"252","category_name":"楼宇机构","address":"上海南京西路1788号"},{"poiid":"B2094654DB69A6FB4798","title":"豆捞坊火锅(静安店)","lon":"121.44467","lat":"31.22254","category":"86","category_name":"火锅店","address":"静安区南京西路1728号百乐门大酒店20-21楼(近华山路)"},{"poiid":"B2094655D268A2FA409B","title":"多乐星 旗舰店 Donut King","lon":"121.445782054","lat":"31.222489793","category":"65","category_name":"咖啡厅","address":"静安区南京西路1649号静安公园内(久光百货对面)"},{"poiid":"B2094757D069A5FF469B","title":"蓝亭日本料理","lon":"121.445683586","lat":"31.223171293","category":"95","category_name":"日本料理","address":"静安区南京西路1618号久光百货B1层SB01号(近华山路)"},{"poiid":"B2094757D06FA7FA4899","title":"苏浙汇(静安店)","lon":"121.4476","lat":"31.22033","category":"76","category_name":"上海菜","address":"静安区延安中路1121号(近华山路)"},{"poiid":"B2094654D564ABFF489D","title":"我家餐厅 MY HOME","lon":"121.44573848552","lat":"31.219784895865","category":"76","category_name":"上海菜","address":"静安区华山路229弄7号(近延安西路)"},{"poiid":"B2094757D06FA4FD4298","title":"锅比盆大(华山旗舰店)","lon":"121.445995862","lat":"31.2196759733","category":"86","category_name":"火锅店","address":"静安区华山路301-1号(近常熟路)"},{"poiid":"B2094757D065AAFD439C","title":"巴厘岛印尼东南亚餐厅","lon":"121.445717586","lat":"31.2222982759","category":"500","category_name":"未知分类","address":"上海市静安区华山路189号"},{"poiid":"B2094757D068A5F9419C","title":"中福会少年宫","lon":"121.44419835","lat":"31.220838763","category":"190","category_name":"培训机构","address":"静安区延安西路64号(贵都酒店对面)"},{"poiid":"B2094750DB64A1FE469A","title":"HENKES","lon":"121.44633","lat":"31.2229","category":"94","category_name":"西餐厅","address":"静安区南京西路1601号1楼E铺(近常德路)"},{"poiid":"B2094654DA6CA0F4439E","title":"静安寺(南门)","lon":"121.44562","lat":"31.22304","category":"656","category_name":"大门","address":"南京西路1686"},{"poiid":"B2094757D469A6FF4298","title":"歌舞伎料亭","lon":"121.444671","lat":"31.222538","category":"95","category_name":"日本料理","address":"静安区南京西路1728号百乐门大酒店6楼(近华山路)"},{"poiid":"B2094654DB6AA3F4489F","title":"潮楼","lon":"121.44588","lat":"31.22337","category":"72","category_name":"广东菜","address":"静安区南京西路1618号久光百货8楼(近静安寺)"},{"poiid":"B2094757D064A5F9439C","title":"Sabatini意大利餐厅","lon":"121.446666586","lat":"31.2211182528","category":"500","category_name":"未知分类","address":"南京西路1717号会德丰国际广场南苑1楼"},{"poiid":"B2094757D06FA6F4449F","title":"清风人家(静安店)","lon":"121.44802","lat":"31.22035","category":"260","category_name":"其他","address":"静安区延安中路1109号(近延安饭店)"},{"poiid":"B2094757D06FA2F84799","title":"伊美时尚广场","lon":"121.44570962","lat":"31.222571385","category":"249","category_name":"购物服务","address":"静安区南京西路1699号伊美时尚广场内(近静安寺)"},{"poiid":"B2094757D069A6F44398","title":"安福路","lon":"121.44507532","lat":"31.222994889","category":"500","category_name":"未知分类","address":"上海话剧艺术中心"},{"poiid":"B2094757D568ABFA4998","title":"JACafe","lon":"121.44664","lat":"31.222799","category":"65","category_name":"咖啡厅","address":"中国上海市静安区南京西路"},{"poiid":"B2094750D76FAAFF429C","title":"PANKOO釜山料理(芮欧百货店)","lon":"121.446","lat":"31.2229","category":"96","category_name":"韩国料理","address":"静安区南京西路1601号芮欧百货B214室"},{"poiid":"B209475CDA6CABF4429E","title":"myst","lon":"121.447692","lat":"31.220817","category":"500","category_name":"未知分类","address":"上海市 静安区延安中路"},{"poiid":"B2094752D664A7F94498","title":"Henkes","lon":"121.44739","lat":"31.222622","category":"247","category_name":"餐饮美食","address":"芮欧百货"},{"poiid":"B2094757D069A5FA4598","title":"纽约客匹萨 静安寺店 NEW YORK STYLE PIZZA","lon":"121.447439054","lat":"31.223316793","category":"94","category_name":"西餐厅","address":"静安区南京西路1699号伊美时尚广场J16号铺(近静安寺)"},{"poiid":"B2094757D469A7F5409A","title":"晶堂群英会","lon":"121.444671","lat":"31.222538","category":"72","category_name":"广东菜","address":"静安区南京西路1728号百乐门大酒店7楼(近地铁2号线静安寺站)"},{"poiid":"B2094757D069A7F84999","title":"靜安寺廟","lon":"121.44488058","lat":"31.22254628","category":"244","category_name":"寺庙道观","address":"上海静安区乌鲁木齐北路"},{"poiid":"B2094757D06FA7F8449B","title":"静安寺下沉式广场","lon":"121.44625","lat":"31.22236","category":"119","category_name":"商场","address":"静安区南京西路(近华山路)"},{"poiid":"B2094757D068AAFA469B","title":"上海外事服务中心","lon":"121.44552897","lat":"31.220250877","category":"260","category_name":"其他","address":"静安区华山路228号上海国际贵都大饭店办公楼2-3楼"},{"poiid":"B2094757D068A0F5419C","title":"coffee bean","lon":"121.445521","lat":"31.223238","category":"65","category_name":"咖啡厅","address":"上海静安寺"},{"poiid":"B209475CD16AA1FC459C","title":"艾米1895电影街","lon":"121.447013","lat":"31.222036","category":"178","category_name":"电影院","address":"上海市 上海市北京西路1829号4楼 靠近愚园路"},{"poiid":"B2094654DB6BA6FF4998","title":"上海百乐门大酒店","lon":"121.44466","lat":"31.22253","category":"215","category_name":"三星级宾馆","address":"静安区南京西路1728号"},{"poiid":"B209475CD26DA4FE419A","title":"10·corso·como","lon":"121.445999","lat":"31.220499","category":"500","category_name":"未知分类","address":"上海市 南京西路1717号会德丰广场北院"},{"poiid":"B2094753D56FA4FA449E","title":"德站琪韩国年糕料理","lon":"121.444396","lat":"31.221853","category":"247","category_name":"餐饮美食","address":"上海市 静安区南京西路1818号1788广场B1美食街内"},{"poiid":"B2094757D66EA5FC439A","title":"希尔顿连天阁","lon":"121.44552558","lat":"31.219270216","category":"500","category_name":"未知分类","address":"上海华山路250号"},{"poiid":"B2094750D664A7FF4992","title":"琥家拉面(芮欧百货店)","lon":"121.446","lat":"31.2229","category":"95","category_name":"日本料理","address":"静安区南京西路1601号芮欧百货B2楼"},{"poiid":"B2094757D66BA2F5439E","title":"李奥纳多达芬奇餐厅","lon":"121.445662054","lat":"31.219435793","category":"98","category_name":"意式菜品餐厅","address":"静安区华山路250号希尔顿酒店1楼(近延安西路)"},{"poiid":"B2094757D069A6F84999","title":"复茂小龙虾(万航店)","lon":"121.44610058","lat":"31.222838286","category":"68","category_name":"快餐厅","address":"静安区万航渡路450号(近镇宁路)"},{"poiid":"B2094757D069A2F5479E","title":"和兴汤馆","lon":"121.44792946","lat":"31.221589774","category":"72","category_name":"广东菜","address":"静安区延安中路1123号(近富民路)"},{"poiid":"B209475DD56FA6F44798","title":"晶采轩（芮欧百货店）","lon":"121.447303","lat":"31.222906","category":"247","category_name":"餐饮美食","address":"上海市 南京西路1601号芮欧百货3-4楼(近常德路)"},{"poiid":"B2094757D16EA0FA4492","title":"上海轨道交通7号线静安寺站","lon":"121.446467138","lat":"31.2231696015","category":"500","category_name":"未知分类","address":"上海南京西路靜安寺"},{"poiid":"B2094757D16DA4FD4699","title":"HOUSE.1","lon":"121.446165196","lat":"31.2228992376","category":"148","category_name":"美容美发店","address":"静安区南京西路1699号伊美时尚广场外z17号楼梯旁(近地铁2号线静安寺5号出口)"},{"poiid":"B2094655D269ABFD469B","title":"静安寺","lon":"121.44552","lat":"31.22324","category":"244","category_name":"寺庙道观","address":"静安区南京西路1686号(近静安寺)"},{"poiid":"B2094655D26EA2FD4592","title":"巴厘岛","lon":"121.44594","lat":"31.22133","category":"110","category_name":"其他亚洲菜","address":"静安区华山路189号静安公园3号门(近延安路高架)"},{"poiid":"B2094655D269A4F5449A","title":"希尔顿酒店","lon":"121.44522","lat":"31.2193","category":"247","category_name":"餐饮美食","address":"静安区华山路250号(近延安西路)"},{"poiid":"B2094753D76FAAFA449C","title":"上海滩国泰旗舰店","lon":"121.466011","lat":"31.216125","category":"249","category_name":"购物服务","address":"淮海中路868号"},{"poiid":"B209475CD564A7F84292","title":"上海滩新天地店","lon":"121.47463","lat":"31.22164","category":"119","category_name":"商场","address":"\"太仓路181弄新天地北里15号\r\n\""},{"poiid":"B209475CD564A7F8439E","title":"上海滩中信泰富店","lon":"121.45602","lat":"31.22851","category":"119","category_name":"商场","address":"\"南京西路1168号中信泰富广场，店铺号221.\r\n\""},{"poiid":"B2094654DB65A6F4469D","title":"上海国际贵都大饭店","lon":"121.44453","lat":"31.21998","category":"213","category_name":"五星级宾馆","address":"北京西路1028号,江宁路168号"},{"poiid":"B2094757D06EAAFE429B","title":"会德丰国际广场(Wheelock Square)","lon":"121.44492732","lat":"31.221689318","category":"46","category_name":"楼宇","address":"上海静安区南京西路1717号"},{"poiid":"B2094654DB69A7FD419B","title":"金桂皇朝","lon":"121.446597054","lat":"31.223581793","category":"72","category_name":"广东菜","address":"静安区南京西路1618号久光百货8楼806-7号(近静安寺)"},{"poiid":"B2094757D06EAAFF469B","title":"静安寺地铁站","lon":"121.446432","lat":"31.223208","category":"36","category_name":"地铁站","address":"上海轨道交通 二号线 七号线 轨交静安寺站 2 7"},{"poiid":"B2094757D06FAAF8419C","title":"DOZO创作和食居酒屋","lon":"121.444619386","lat":"31.2216995642","category":"95","category_name":"日本料理","address":"静安区南京西路1717号会德丰国际广场南院2楼(近华山路)"},{"poiid":"B2094757D069A5FF4299","title":"1788国际大厦(Eco City)","lon":"121.445082286","lat":"31.2224787794","category":"252","category_name":"楼宇机构","address":"上海南京西路1788号"},{"poiid":"B2094654DB69A6FB4798","title":"豆捞坊火锅(静安店)","lon":"121.44467","lat":"31.22254","category":"86","category_name":"火锅店","address":"静安区南京西路1728号百乐门大酒店20-21楼(近华山路)"},{"poiid":"B2094655D268A2FA409B","title":"多乐星 旗舰店 Donut King","lon":"121.445782054","lat":"31.222489793","category":"65","category_name":"咖啡厅","address":"静安区南京西路1649号静安公园内(久光百货对面)"},{"poiid":"B2094757D069A5FF469B","title":"蓝亭日本料理","lon":"121.445683586","lat":"31.223171293","category":"95","category_name":"日本料理","address":"静安区南京西路1618号久光百货B1层SB01号(近华山路)"},{"poiid":"B2094757D06FA7FA4899","title":"苏浙汇(静安店)","lon":"121.4476","lat":"31.22033","category":"76","category_name":"上海菜","address":"静安区延安中路1121号(近华山路)"},{"poiid":"B2094654D564ABFF489D","title":"我家餐厅 MY HOME","lon":"121.44573848552","lat":"31.219784895865","category":"76","category_name":"上海菜","address":"静安区华山路229弄7号(近延安西路)"},{"poiid":"B2094757D06FA4FD4298","title":"锅比盆大(华山旗舰店)","lon":"121.445995862","lat":"31.2196759733","category":"86","category_name":"火锅店","address":"静安区华山路301-1号(近常熟路)"},{"poiid":"B2094757D065AAFD439C","title":"巴厘岛印尼东南亚餐厅","lon":"121.445717586","lat":"31.2222982759","category":"500","category_name":"未知分类","address":"上海市静安区华山路189号"},{"poiid":"B2094757D068A5F9419C","title":"中福会少年宫","lon":"121.44419835","lat":"31.220838763","category":"190","category_name":"培训机构","address":"静安区延安西路64号(贵都酒店对面)"},{"poiid":"B2094750DB64A1FE469A","title":"HENKES","lon":"121.44633","lat":"31.2229","category":"94","category_name":"西餐厅","address":"静安区南京西路1601号1楼E铺(近常德路)"},{"poiid":"B2094654DA6CA0F4439E","title":"静安寺(南门)","lon":"121.44562","lat":"31.22304","category":"656","category_name":"大门","address":"南京西路1686"},{"poiid":"B2094757D469A6FF4298","title":"歌舞伎料亭","lon":"121.444671","lat":"31.222538","category":"95","category_name":"日本料理","address":"静安区南京西路1728号百乐门大酒店6楼(近华山路)"},{"poiid":"B2094654DB6AA3F4489F","title":"潮楼","lon":"121.44588","lat":"31.22337","category":"72","category_name":"广东菜","address":"静安区南京西路1618号久光百货8楼(近静安寺)"},{"poiid":"B2094757D064A5F9439C","title":"Sabatini意大利餐厅","lon":"121.446666586","lat":"31.2211182528","category":"500","category_name":"未知分类","address":"南京西路1717号会德丰国际广场南苑1楼"},{"poiid":"B2094757D06FA6F4449F","title":"清风人家(静安店)","lon":"121.44802","lat":"31.22035","category":"260","category_name":"其他","address":"静安区延安中路1109号(近延安饭店)"},{"poiid":"B2094757D06FA2F84799","title":"伊美时尚广场","lon":"121.44570962","lat":"31.222571385","category":"249","category_name":"购物服务","address":"静安区南京西路1699号伊美时尚广场内(近静安寺)"},{"poiid":"B2094757D069A6F44398","title":"安福路","lon":"121.44507532","lat":"31.222994889","category":"500","category_name":"未知分类","address":"上海话剧艺术中心"},{"poiid":"B2094757D568ABFA4998","title":"JACafe","lon":"121.44664","lat":"31.222799","category":"65","category_name":"咖啡厅","address":"中国上海市静安区南京西路"},{"poiid":"B2094750D76FAAFF429C","title":"PANKOO釜山料理(芮欧百货店)","lon":"121.446","lat":"31.2229","category":"96","category_name":"韩国料理","address":"静安区南京西路1601号芮欧百货B214室"},{"poiid":"B209475CDA6CABF4429E","title":"myst","lon":"121.447692","lat":"31.220817","category":"500","category_name":"未知分类","address":"上海市 静安区延安中路"},{"poiid":"B2094752D664A7F94498","title":"Henkes","lon":"121.44739","lat":"31.222622","category":"247","category_name":"餐饮美食","address":"芮欧百货"},{"poiid":"B2094757D069A5FA4598","title":"纽约客匹萨 静安寺店 NEW YORK STYLE PIZZA","lon":"121.447439054","lat":"31.223316793","category":"94","category_name":"西餐厅","address":"静安区南京西路1699号伊美时尚广场J16号铺(近静安寺)"},{"poiid":"B2094757D469A7F5409A","title":"晶堂群英会","lon":"121.444671","lat":"31.222538","category":"72","category_name":"广东菜","address":"静安区南京西路1728号百乐门大酒店7楼(近地铁2号线静安寺站)"},{"poiid":"B2094757D069A7F84999","title":"靜安寺廟","lon":"121.44488058","lat":"31.22254628","category":"244","category_name":"寺庙道观","address":"上海静安区乌鲁木齐北路"},{"poiid":"B2094757D06FA7F8449B","title":"静安寺下沉式广场","lon":"121.44625","lat":"31.22236","category":"119","category_name":"商场","address":"静安区南京西路(近华山路)"},{"poiid":"B2094757D068AAFA469B","title":"上海外事服务中心","lon":"121.44552897","lat":"31.220250877","category":"260","category_name":"其他","address":"静安区华山路228号上海国际贵都大饭店办公楼2-3楼"},{"poiid":"B2094757D068A0F5419C","title":"coffee bean","lon":"121.445521","lat":"31.223238","category":"65","category_name":"咖啡厅","address":"上海静安寺"},{"poiid":"B209475CD16AA1FC459C","title":"艾米1895电影街","lon":"121.447013","lat":"31.222036","category":"178","category_name":"电影院","address":"上海市 上海市北京西路1829号4楼 靠近愚园路"},{"poiid":"B2094654DB6BA6FF4998","title":"上海百乐门大酒店","lon":"121.44466","lat":"31.22253","category":"215","category_name":"三星级宾馆","address":"静安区南京西路1728号"},{"poiid":"B209475CD26DA4FE419A","title":"10·corso·como","lon":"121.445999","lat":"31.220499","category":"500","category_name":"未知分类","address":"上海市 南京西路1717号会德丰广场北院"},{"poiid":"B2094753D56FA4FA449E","title":"德站琪韩国年糕料理","lon":"121.444396","lat":"31.221853","category":"247","category_name":"餐饮美食","address":"上海市 静安区南京西路1818号1788广场B1美食街内"},{"poiid":"B2094757D66EA5FC439A","title":"希尔顿连天阁","lon":"121.44552558","lat":"31.219270216","category":"500","category_name":"未知分类","address":"上海华山路250号"},{"poiid":"B2094750D664A7FF4992","title":"琥家拉面(芮欧百货店)","lon":"121.446","lat":"31.2229","category":"95","category_name":"日本料理","address":"静安区南京西路1601号芮欧百货B2楼"},{"poiid":"B2094757D66BA2F5439E","title":"李奥纳多达芬奇餐厅","lon":"121.445662054","lat":"31.219435793","category":"98","category_name":"意式菜品餐厅","address":"静安区华山路250号希尔顿酒店1楼(近延安西路)"},{"poiid":"B2094757D069A6F84999","title":"复茂小龙虾(万航店)","lon":"121.44610058","lat":"31.222838286","category":"68","category_name":"快餐厅","address":"静安区万航渡路450号(近镇宁路)"},{"poiid":"B2094757D069A2F5479E","title":"和兴汤馆","lon":"121.44792946","lat":"31.221589774","category":"72","category_name":"广东菜","address":"静安区延安中路1123号(近富民路)"},{"poiid":"B209475DD56FA6F44798","title":"晶采轩（芮欧百货店）","lon":"121.447303","lat":"31.222906","category":"247","category_name":"餐饮美食","address":"上海市 南京西路1601号芮欧百货3-4楼(近常德路)"},{"poiid":"B2094757D16EA0FA4492","title":"上海轨道交通7号线静安寺站","lon":"121.446467138","lat":"31.2231696015","category":"500","category_name":"未知分类","address":"上海南京西路靜安寺"},{"poiid":"B2094757D16DA4FD4699","title":"HOUSE.1","lon":"121.446165196","lat":"31.2228992376","category":"148","category_name":"美容美发店","address":"静安区南京西路1699号伊美时尚广场外z17号楼梯旁(近地铁2号线静安寺5号出口)"},{"poiid":"B2094655D269ABFD469B","title":"静安寺","lon":"121.44552","lat":"31.22324","category":"244","category_name":"寺庙道观","address":"静安区南京西路1686号(近静安寺)"},{"poiid":"B2094655D26EA2FD4592","title":"巴厘岛","lon":"121.44594","lat":"31.22133","category":"110","category_name":"其他亚洲菜","address":"静安区华山路189号静安公园3号门(近延安路高架)"},{"poiid":"B2094655D269A4F5449A","title":"希尔顿酒店","lon":"121.44522","lat":"31.2193","category":"247","category_name":"餐饮美食","address":"静安区华山路250号(近延安西路)"},{"poiid":"B2094753D76FAAFA449C","title":"上海滩国泰旗舰店","lon":"121.466011","lat":"31.216125","category":"249","category_name":"购物服务","address":"淮海中路868号"},{"poiid":"B209475CD564A7F84292","title":"上海滩新天地店","lon":"121.47463","lat":"31.22164","category":"119","category_name":"商场","address":"\"太仓路181弄新天地北里15号\r\n\""},{"poiid":"B209475CD564A7F8439E","title":"上海滩中信泰富店","lon":"121.45602","lat":"31.22851","category":"119","category_name":"商场","address":"\"南京西路1168号中信泰富广场，店铺号221.\r\n\""},{"poiid":"B2094654DB65A6F4469D","title":"上海国际贵都大饭店","lon":"121.44453","lat":"31.21998","category":"213","category_name":"五星级宾馆","address":"北京西路1028号,江宁路168号"},{"poiid":"B2094757D06EAAFE429B","title":"会德丰国际广场(Wheelock Square)","lon":"121.44492732","lat":"31.221689318","category":"46","category_name":"楼宇","address":"上海静安区南京西路1717号"},{"poiid":"B2094654DB69A7FD419B","title":"金桂皇朝","lon":"121.446597054","lat":"31.223581793","category":"72","category_name":"广东菜","address":"静安区南京西路1618号久光百货8楼806-7号(近静安寺)"},{"poiid":"B2094757D06EAAFF469B","title":"静安寺地铁站","lon":"121.446432","lat":"31.223208","category":"36","category_name":"地铁站","address":"上海轨道交通 二号线 七号线 轨交静安寺站 2 7"},{"poiid":"B2094757D06FAAF8419C","title":"DOZO创作和食居酒屋","lon":"121.444619386","lat":"31.2216995642","category":"95","category_name":"日本料理","address":"静安区南京西路1717号会德丰国际广场南院2楼(近华山路)"},{"poiid":"B2094757D069A5FF4299","title":"1788国际大厦(Eco City)","lon":"121.445082286","lat":"31.2224787794","category":"252","category_name":"楼宇机构","address":"上海南京西路1788号"},{"poiid":"B2094654DB69A6FB4798","title":"豆捞坊火锅(静安店)","lon":"121.44467","lat":"31.22254","category":"86","category_name":"火锅店","address":"静安区南京西路1728号百乐门大酒店20-21楼(近华山路)"},{"poiid":"B2094655D268A2FA409B","title":"多乐星 旗舰店 Donut King","lon":"121.445782054","lat":"31.222489793","category":"65","category_name":"咖啡厅","address":"静安区南京西路1649号静安公园内(久光百货对面)"},{"poiid":"B2094757D069A5FF469B","title":"蓝亭日本料理","lon":"121.445683586","lat":"31.223171293","category":"95","category_name":"日本料理","address":"静安区南京西路1618号久光百货B1层SB01号(近华山路)"},{"poiid":"B2094757D06FA7FA4899","title":"苏浙汇(静安店)","lon":"121.4476","lat":"31.22033","category":"76","category_name":"上海菜","address":"静安区延安中路1121号(近华山路)"},{"poiid":"B2094654D564ABFF489D","title":"我家餐厅 MY HOME","lon":"121.44573848552","lat":"31.219784895865","category":"76","category_name":"上海菜","address":"静安区华山路229弄7号(近延安西路)"},{"poiid":"B2094757D06FA4FD4298","title":"锅比盆大(华山旗舰店)","lon":"121.445995862","lat":"31.2196759733","category":"86","category_name":"火锅店","address":"静安区华山路301-1号(近常熟路)"},{"poiid":"B2094757D065AAFD439C","title":"巴厘岛印尼东南亚餐厅","lon":"121.445717586","lat":"31.2222982759","category":"500","category_name":"未知分类","address":"上海市静安区华山路189号"},{"poiid":"B2094757D068A5F9419C","title":"中福会少年宫","lon":"121.44419835","lat":"31.220838763","category":"190","category_name":"培训机构","address":"静安区延安西路64号(贵都酒店对面)"},{"poiid":"B2094750DB64A1FE469A","title":"HENKES","lon":"121.44633","lat":"31.2229","category":"94","category_name":"西餐厅","address":"静安区南京西路1601号1楼E铺(近常德路)"},{"poiid":"B2094654DA6CA0F4439E","title":"静安寺(南门)","lon":"121.44562","lat":"31.22304","category":"656","category_name":"大门","address":"南京西路1686"},{"poiid":"B2094757D469A6FF4298","title":"歌舞伎料亭","lon":"121.444671","lat":"31.222538","category":"95","category_name":"日本料理","address":"静安区南京西路1728号百乐门大酒店6楼(近华山路)"},{"poiid":"B2094654DB6AA3F4489F","title":"潮楼","lon":"121.44588","lat":"31.22337","category":"72","category_name":"广东菜","address":"静安区南京西路1618号久光百货8楼(近静安寺)"},{"poiid":"B2094757D064A5F9439C","title":"Sabatini意大利餐厅","lon":"121.446666586","lat":"31.2211182528","category":"500","category_name":"未知分类","address":"南京西路1717号会德丰国际广场南苑1楼"},{"poiid":"B2094757D06FA6F4449F","title":"清风人家(静安店)","lon":"121.44802","lat":"31.22035","category":"260","category_name":"其他","address":"静安区延安中路1109号(近延安饭店)"},{"poiid":"B2094757D06FA2F84799","title":"伊美时尚广场","lon":"121.44570962","lat":"31.222571385","category":"249","category_name":"购物服务","address":"静安区南京西路1699号伊美时尚广场内(近静安寺)"},{"poiid":"B2094757D069A6F44398","title":"安福路","lon":"121.44507532","lat":"31.222994889","category":"500","category_name":"未知分类","address":"上海话剧艺术中心"},{"poiid":"B2094757D568ABFA4998","title":"JACafe","lon":"121.44664","lat":"31.222799","category":"65","category_name":"咖啡厅","address":"中国上海市静安区南京西路"},{"poiid":"B2094750D76FAAFF429C","title":"PANKOO釜山料理(芮欧百货店)","lon":"121.446","lat":"31.2229","category":"96","category_name":"韩国料理","address":"静安区南京西路1601号芮欧百货B214室"},{"poiid":"B209475CDA6CABF4429E","title":"myst","lon":"121.447692","lat":"31.220817","category":"500","category_name":"未知分类","address":"上海市 静安区延安中路"},{"poiid":"B2094752D664A7F94498","title":"Henkes","lon":"121.44739","lat":"31.222622","category":"247","category_name":"餐饮美食","address":"芮欧百货"},{"poiid":"B2094757D069A5FA4598","title":"纽约客匹萨 静安寺店 NEW YORK STYLE PIZZA","lon":"121.447439054","lat":"31.223316793","category":"94","category_name":"西餐厅","address":"静安区南京西路1699号伊美时尚广场J16号铺(近静安寺)"},{"poiid":"B2094757D469A7F5409A","title":"晶堂群英会","lon":"121.444671","lat":"31.222538","category":"72","category_name":"广东菜","address":"静安区南京西路1728号百乐门大酒店7楼(近地铁2号线静安寺站)"},{"poiid":"B2094757D069A7F84999","title":"靜安寺廟","lon":"121.44488058","lat":"31.22254628","category":"244","category_name":"寺庙道观","address":"上海静安区乌鲁木齐北路"},{"poiid":"B2094757D06FA7F8449B","title":"静安寺下沉式广场","lon":"121.44625","lat":"31.22236","category":"119","category_name":"商场","address":"静安区南京西路(近华山路)"},{"poiid":"B2094757D068AAFA469B","title":"上海外事服务中心","lon":"121.44552897","lat":"31.220250877","category":"260","category_name":"其他","address":"静安区华山路228号上海国际贵都大饭店办公楼2-3楼"},{"poiid":"B2094757D068A0F5419C","title":"coffee bean","lon":"121.445521","lat":"31.223238","category":"65","category_name":"咖啡厅","address":"上海静安寺"},{"poiid":"B209475CD16AA1FC459C","title":"艾米1895电影街","lon":"121.447013","lat":"31.222036","category":"178","category_name":"电影院","address":"上海市 上海市北京西路1829号4楼 靠近愚园路"},{"poiid":"B2094654DB6BA6FF4998","title":"上海百乐门大酒店","lon":"121.44466","lat":"31.22253","category":"215","category_name":"三星级宾馆","address":"静安区南京西路1728号"},{"poiid":"B209475CD26DA4FE419A","title":"10·corso·como","lon":"121.445999","lat":"31.220499","category":"500","category_name":"未知分类","address":"上海市 南京西路1717号会德丰广场北院"},{"poiid":"B2094753D56FA4FA449E","title":"德站琪韩国年糕料理","lon":"121.444396","lat":"31.221853","category":"247","category_name":"餐饮美食","address":"上海市 静安区南京西路1818号1788广场B1美食街内"},{"poiid":"B2094757D66EA5FC439A","title":"希尔顿连天阁","lon":"121.44552558","lat":"31.219270216","category":"500","category_name":"未知分类","address":"上海华山路250号"},{"poiid":"B2094750D664A7FF4992","title":"琥家拉面(芮欧百货店)","lon":"121.446","lat":"31.2229","category":"95","category_name":"日本料理","address":"静安区南京西路1601号芮欧百货B2楼"},{"poiid":"B2094757D66BA2F5439E","title":"李奥纳多达芬奇餐厅","lon":"121.445662054","lat":"31.219435793","category":"98","category_name":"意式菜品餐厅","address":"静安区华山路250号希尔顿酒店1楼(近延安西路)"},{"poiid":"B2094757D069A6F84999","title":"复茂小龙虾(万航店)","lon":"121.44610058","lat":"31.222838286","category":"68","category_name":"快餐厅","address":"静安区万航渡路450号(近镇宁路)"},{"poiid":"B2094757D069A2F5479E","title":"和兴汤馆","lon":"121.44792946","lat":"31.221589774","category":"72","category_name":"广东菜","address":"静安区延安中路1123号(近富民路)"},{"poiid":"B209475DD56FA6F44798","title":"晶采轩（芮欧百货店）","lon":"121.447303","lat":"31.222906","category":"247","category_name":"餐饮美食","address":"上海市 南京西路1601号芮欧百货3-4楼(近常德路)"},{"poiid":"B2094757D16EA0FA4492","title":"上海轨道交通7号线静安寺站","lon":"121.446467138","lat":"31.2231696015","category":"500","category_name":"未知分类","address":"上海南京西路靜安寺"},{"poiid":"B2094757D16DA4FD4699","title":"HOUSE.1","lon":"121.446165196","lat":"31.2228992376","category":"148","category_name":"美容美发店","address":"静安区南京西路1699号伊美时尚广场外z17号楼梯旁(近地铁2号线静安寺5号出口)"},{"poiid":"B2094655D269ABFD469B","title":"静安寺","lon":"121.44552","lat":"31.22324","category":"244","category_name":"寺庙道观","address":"静安区南京西路1686号(近静安寺)"},{"poiid":"B2094655D26EA2FD4592","title":"巴厘岛","lon":"121.44594","lat":"31.22133","category":"110","category_name":"其他亚洲菜","address":"静安区华山路189号静安公园3号门(近延安路高架)"},{"poiid":"B2094655D269A4F5449A","title":"希尔顿酒店","lon":"121.44522","lat":"31.2193","category":"247","category_name":"餐饮美食","address":"静安区华山路250号(近延安西路)"},{"poiid":"B2094753D76FAAFA449C","title":"上海滩国泰旗舰店","lon":"121.466011","lat":"31.216125","category":"249","category_name":"购物服务","address":"淮海中路868号"},{"poiid":"B209475CD564A7F84292","title":"上海滩新天地店","lon":"121.47463","lat":"31.22164","category":"119","category_name":"商场","address":"\"太仓路181弄新天地北里15号\r\n\""},{"poiid":"B209475CD564A7F8439E","title":"上海滩中信泰富店","lon":"121.45602","lat":"31.22851","category":"119","category_name":"商场","address":"\"南京西路1168号中信泰富广场，店铺号221.\r\n\""},{"poiid":"B2094654DB65A6F4469D","title":"上海国际贵都大饭店","lon":"121.44453","lat":"31.21998","category":"213","category_name":"五星级宾馆","address":"北京西路1028号,江宁路168号"},{"poiid":"B2094757D06EAAFE429B","title":"会德丰国际广场(Wheelock Square)","lon":"121.44492732","lat":"31.221689318","category":"46","category_name":"楼宇","address":"上海静安区南京西路1717号"},{"poiid":"B2094654DB69A7FD419B","title":"金桂皇朝","lon":"121.446597054","lat":"31.223581793","category":"72","category_name":"广东菜","address":"静安区南京西路1618号久光百货8楼806-7号(近静安寺)"},{"poiid":"B2094757D06EAAFF469B","title":"静安寺地铁站","lon":"121.446432","lat":"31.223208","category":"36","category_name":"地铁站","address":"上海轨道交通 二号线 七号线 轨交静安寺站 2 7"},{"poiid":"B2094757D06FAAF8419C","title":"DOZO创作和食居酒屋","lon":"121.444619386","lat":"31.2216995642","category":"95","category_name":"日本料理","address":"静安区南京西路1717号会德丰国际广场南院2楼(近华山路)"},{"poiid":"B2094757D069A5FF4299","title":"1788国际大厦(Eco City)","lon":"121.445082286","lat":"31.2224787794","category":"252","category_name":"楼宇机构","address":"上海南京西路1788号"},{"poiid":"B2094654DB69A6FB4798","title":"豆捞坊火锅(静安店)","lon":"121.44467","lat":"31.22254","category":"86","category_name":"火锅店","address":"静安区南京西路1728号百乐门大酒店20-21楼(近华山路)"},{"poiid":"B2094655D268A2FA409B","title":"多乐星 旗舰店 Donut King","lon":"121.445782054","lat":"31.222489793","category":"65","category_name":"咖啡厅","address":"静安区南京西路1649号静安公园内(久光百货对面)"},{"poiid":"B2094757D069A5FF469B","title":"蓝亭日本料理","lon":"121.445683586","lat":"31.223171293","category":"95","category_name":"日本料理","address":"静安区南京西路1618号久光百货B1层SB01号(近华山路)"},{"poiid":"B2094757D06FA7FA4899","title":"苏浙汇(静安店)","lon":"121.4476","lat":"31.22033","category":"76","category_name":"上海菜","address":"静安区延安中路1121号(近华山路)"},{"poiid":"B2094654D564ABFF489D","title":"我家餐厅 MY HOME","lon":"121.44573848552","lat":"31.219784895865","category":"76","category_name":"上海菜","address":"静安区华山路229弄7号(近延安西路)"},{"poiid":"B2094757D06FA4FD4298","title":"锅比盆大(华山旗舰店)","lon":"121.445995862","lat":"31.2196759733","category":"86","category_name":"火锅店","address":"静安区华山路301-1号(近常熟路)"},{"poiid":"B2094757D065AAFD439C","title":"巴厘岛印尼东南亚餐厅","lon":"121.445717586","lat":"31.2222982759","category":"500","category_name":"未知分类","address":"上海市静安区华山路189号"},{"poiid":"B2094757D068A5F9419C","title":"中福会少年宫","lon":"121.44419835","lat":"31.220838763","category":"190","category_name":"培训机构","address":"静安区延安西路64号(贵都酒店对面)"},{"poiid":"B2094750DB64A1FE469A","title":"HENKES","lon":"121.44633","lat":"31.2229","category":"94","category_name":"西餐厅","address":"静安区南京西路1601号1楼E铺(近常德路)"},{"poiid":"B2094654DA6CA0F4439E","title":"静安寺(南门)","lon":"121.44562","lat":"31.22304","category":"656","category_name":"大门","address":"南京西路1686"},{"poiid":"B2094757D469A6FF4298","title":"歌舞伎料亭","lon":"121.444671","lat":"31.222538","category":"95","category_name":"日本料理","address":"静安区南京西路1728号百乐门大酒店6楼(近华山路)"},{"poiid":"B2094654DB6AA3F4489F","title":"潮楼","lon":"121.44588","lat":"31.22337","category":"72","category_name":"广东菜","address":"静安区南京西路1618号久光百货8楼(近静安寺)"},{"poiid":"B2094757D064A5F9439C","title":"Sabatini意大利餐厅","lon":"121.446666586","lat":"31.2211182528","category":"500","category_name":"未知分类","address":"南京西路1717号会德丰国际广场南苑1楼"},{"poiid":"B2094757D06FA6F4449F","title":"清风人家(静安店)","lon":"121.44802","lat":"31.22035","category":"260","category_name":"其他","address":"静安区延安中路1109号(近延安饭店)"},{"poiid":"B2094757D06FA2F84799","title":"伊美时尚广场","lon":"121.44570962","lat":"31.222571385","category":"249","category_name":"购物服务","address":"静安区南京西路1699号伊美时尚广场内(近静安寺)"},{"poiid":"B2094757D069A6F44398","title":"安福路","lon":"121.44507532","lat":"31.222994889","category":"500","category_name":"未知分类","address":"上海话剧艺术中心"},{"poiid":"B2094757D568ABFA4998","title":"JACafe","lon":"121.44664","lat":"31.222799","category":"65","category_name":"咖啡厅","address":"中国上海市静安区南京西路"},{"poiid":"B2094750D76FAAFF429C","title":"PANKOO釜山料理(芮欧百货店)","lon":"121.446","lat":"31.2229","category":"96","category_name":"韩国料理","address":"静安区南京西路1601号芮欧百货B214室"},{"poiid":"B209475CDA6CABF4429E","title":"myst","lon":"121.447692","lat":"31.220817","category":"500","category_name":"未知分类","address":"上海市 静安区延安中路"},{"poiid":"B2094752D664A7F94498","title":"Henkes","lon":"121.44739","lat":"31.222622","category":"247","category_name":"餐饮美食","address":"芮欧百货"},{"poiid":"B2094757D069A5FA4598","title":"纽约客匹萨 静安寺店 NEW YORK STYLE PIZZA","lon":"121.447439054","lat":"31.223316793","category":"94","category_name":"西餐厅","address":"静安区南京西路1699号伊美时尚广场J16号铺(近静安寺)"},{"poiid":"B2094757D469A7F5409A","title":"晶堂群英会","lon":"121.444671","lat":"31.222538","category":"72","category_name":"广东菜","address":"静安区南京西路1728号百乐门大酒店7楼(近地铁2号线静安寺站)"},{"poiid":"B2094757D069A7F84999","title":"靜安寺廟","lon":"121.44488058","lat":"31.22254628","category":"244","category_name":"寺庙道观","address":"上海静安区乌鲁木齐北路"},{"poiid":"B2094757D06FA7F8449B","title":"静安寺下沉式广场","lon":"121.44625","lat":"31.22236","category":"119","category_name":"商场","address":"静安区南京西路(近华山路)"},{"poiid":"B2094757D068AAFA469B","title":"上海外事服务中心","lon":"121.44552897","lat":"31.220250877","category":"260","category_name":"其他","address":"静安区华山路228号上海国际贵都大饭店办公楼2-3楼"},{"poiid":"B2094757D068A0F5419C","title":"coffee bean","lon":"121.445521","lat":"31.223238","category":"65","category_name":"咖啡厅","address":"上海静安寺"},{"poiid":"B209475CD16AA1FC459C","title":"艾米1895电影街","lon":"121.447013","lat":"31.222036","category":"178","category_name":"电影院","address":"上海市 上海市北京西路1829号4楼 靠近愚园路"},{"poiid":"B2094654DB6BA6FF4998","title":"上海百乐门大酒店","lon":"121.44466","lat":"31.22253","category":"215","category_name":"三星级宾馆","address":"静安区南京西路1728号"},{"poiid":"B209475CD26DA4FE419A","title":"10·corso·como","lon":"121.445999","lat":"31.220499","category":"500","category_name":"未知分类","address":"上海市 南京西路1717号会德丰广场北院"},{"poiid":"B2094753D56FA4FA449E","title":"德站琪韩国年糕料理","lon":"121.444396","lat":"31.221853","category":"247","category_name":"餐饮美食","address":"上海市 静安区南京西路1818号1788广场B1美食街内"},{"poiid":"B2094757D66EA5FC439A","title":"希尔顿连天阁","lon":"121.44552558","lat":"31.219270216","category":"500","category_name":"未知分类","address":"上海华山路250号"},{"poiid":"B2094750D664A7FF4992","title":"琥家拉面(芮欧百货店)","lon":"121.446","lat":"31.2229","category":"95","category_name":"日本料理","address":"静安区南京西路1601号芮欧百货B2楼"},{"poiid":"B2094757D66BA2F5439E","title":"李奥纳多达芬奇餐厅","lon":"121.445662054","lat":"31.219435793","category":"98","category_name":"意式菜品餐厅","address":"静安区华山路250号希尔顿酒店1楼(近延安西路)"},{"poiid":"B2094757D069A6F84999","title":"复茂小龙虾(万航店)","lon":"121.44610058","lat":"31.222838286","category":"68","category_name":"快餐厅","address":"静安区万航渡路450号(近镇宁路)"},{"poiid":"B2094757D069A2F5479E","title":"和兴汤馆","lon":"121.44792946","lat":"31.221589774","category":"72","category_name":"广东菜","address":"静安区延安中路1123号(近富民路)"},{"poiid":"B209475DD56FA6F44798","title":"晶采轩（芮欧百货店）","lon":"121.447303","lat":"31.222906","category":"247","category_name":"餐饮美食","address":"上海市 南京西路1601号芮欧百货3-4楼(近常德路)"},{"poiid":"B2094757D16EA0FA4492","title":"上海轨道交通7号线静安寺站","lon":"121.446467138","lat":"31.2231696015","category":"500","category_name":"未知分类","address":"上海南京西路靜安寺"},{"poiid":"B2094757D16DA4FD4699","title":"HOUSE.1","lon":"121.446165196","lat":"31.2228992376","category":"148","category_name":"美容美发店","address":"静安区南京西路1699号伊美时尚广场外z17号楼梯旁(近地铁2号线静安寺5号出口)"},{"poiid":"B2094655D269ABFD469B","title":"静安寺","lon":"121.44552","lat":"31.22324","category":"244","category_name":"寺庙道观","address":"静安区南京西路1686号(近静安寺)"},{"poiid":"B2094655D26EA2FD4592","title":"巴厘岛","lon":"121.44594","lat":"31.22133","category":"110","category_name":"其他亚洲菜","address":"静安区华山路189号静安公园3号门(近延安路高架)"},{"poiid":"B2094655D269A4F5449A","title":"希尔顿酒店","lon":"121.44522","lat":"31.2193","category":"247","category_name":"餐饮美食","address":"静安区华山路250号(近延安西路)"},{"poiid":"B2094753D76FAAFA449C","title":"上海滩国泰旗舰店","lon":"121.466011","lat":"31.216125","category":"249","category_name":"购物服务","address":"淮海中路868号"},{"poiid":"B209475CD564A7F84292","title":"上海滩新天地店","lon":"121.47463","lat":"31.22164","category":"119","category_name":"商场","address":"\"太仓路181弄新天地北里15号\r\n\""},{"poiid":"B209475CD564A7F8439E","title":"上海滩中信泰富店","lon":"121.45602","lat":"31.22851","category":"119","category_name":"商场","address":"\"南京西路1168号中信泰富广场，店铺号221.\r\n\""},{"poiid":"B2094654DB65A6F4469D","title":"上海国际贵都大饭店","lon":"121.44453","lat":"31.21998","category":"213","category_name":"五星级宾馆","address":"北京西路1028号,江宁路168号"},{"poiid":"B2094757D06EAAFE429B","title":"会德丰国际广场(Wheelock Square)","lon":"121.44492732","lat":"31.221689318","category":"46","category_name":"楼宇","address":"上海静安区南京西路1717号"},{"poiid":"B2094654DB69A7FD419B","title":"金桂皇朝","lon":"121.446597054","lat":"31.223581793","category":"72","category_name":"广东菜","address":"静安区南京西路1618号久光百货8楼806-7号(近静安寺)"},{"poiid":"B2094757D06EAAFF469B","title":"静安寺地铁站","lon":"121.446432","lat":"31.223208","category":"36","category_name":"地铁站","address":"上海轨道交通 二号线 七号线 轨交静安寺站 2 7"},{"poiid":"B2094757D06FAAF8419C","title":"DOZO创作和食居酒屋","lon":"121.444619386","lat":"31.2216995642","category":"95","category_name":"日本料理","address":"静安区南京西路1717号会德丰国际广场南院2楼(近华山路)"},{"poiid":"B2094757D069A5FF4299","title":"1788国际大厦(Eco City)","lon":"121.445082286","lat":"31.2224787794","category":"252","category_name":"楼宇机构","address":"上海南京西路1788号"},{"poiid":"B2094654DB69A6FB4798","title":"豆捞坊火锅(静安店)","lon":"121.44467","lat":"31.22254","category":"86","category_name":"火锅店","address":"静安区南京西路1728号百乐门大酒店20-21楼(近华山路)"},{"poiid":"B2094655D268A2FA409B","title":"多乐星 旗舰店 Donut King","lon":"121.445782054","lat":"31.222489793","category":"65","category_name":"咖啡厅","address":"静安区南京西路1649号静安公园内(久光百货对面)"},{"poiid":"B2094757D069A5FF469B","title":"蓝亭日本料理","lon":"121.445683586","lat":"31.223171293","category":"95","category_name":"日本料理","address":"静安区南京西路1618号久光百货B1层SB01号(近华山路)"},{"poiid":"B2094757D06FA7FA4899","title":"苏浙汇(静安店)","lon":"121.4476","lat":"31.22033","category":"76","category_name":"上海菜","address":"静安区延安中路1121号(近华山路)"},{"poiid":"B2094654D564ABFF489D","title":"我家餐厅 MY HOME","lon":"121.44573848552","lat":"31.219784895865","category":"76","category_name":"上海菜","address":"静安区华山路229弄7号(近延安西路)"},{"poiid":"B2094757D06FA4FD4298","title":"锅比盆大(华山旗舰店)","lon":"121.445995862","lat":"31.2196759733","category":"86","category_name":"火锅店","address":"静安区华山路301-1号(近常熟路)"},{"poiid":"B2094757D065AAFD439C","title":"巴厘岛印尼东南亚餐厅","lon":"121.445717586","lat":"31.2222982759","category":"500","category_name":"未知分类","address":"上海市静安区华山路189号"},{"poiid":"B2094757D068A5F9419C","title":"中福会少年宫","lon":"121.44419835","lat":"31.220838763","category":"190","category_name":"培训机构","address":"静安区延安西路64号(贵都酒店对面)"},{"poiid":"B2094750DB64A1FE469A","title":"HENKES","lon":"121.44633","lat":"31.2229","category":"94","category_name":"西餐厅","address":"静安区南京西路1601号1楼E铺(近常德路)"},{"poiid":"B2094654DA6CA0F4439E","title":"静安寺(南门)","lon":"121.44562","lat":"31.22304","category":"656","category_name":"大门","address":"南京西路1686"},{"poiid":"B2094757D469A6FF4298","title":"歌舞伎料亭","lon":"121.444671","lat":"31.222538","category":"95","category_name":"日本料理","address":"静安区南京西路1728号百乐门大酒店6楼(近华山路)"},{"poiid":"B2094654DB6AA3F4489F","title":"潮楼","lon":"121.44588","lat":"31.22337","category":"72","category_name":"广东菜","address":"静安区南京西路1618号久光百货8楼(近静安寺)"},{"poiid":"B2094757D064A5F9439C","title":"Sabatini意大利餐厅","lon":"121.446666586","lat":"31.2211182528","category":"500","category_name":"未知分类","address":"南京西路1717号会德丰国际广场南苑1楼"},{"poiid":"B2094757D06FA6F4449F","title":"清风人家(静安店)","lon":"121.44802","lat":"31.22035","category":"260","category_name":"其他","address":"静安区延安中路1109号(近延安饭店)"},{"poiid":"B2094757D06FA2F84799","title":"伊美时尚广场","lon":"121.44570962","lat":"31.222571385","category":"249","category_name":"购物服务","address":"静安区南京西路1699号伊美时尚广场内(近静安寺)"},{"poiid":"B2094757D069A6F44398","title":"安福路","lon":"121.44507532","lat":"31.222994889","category":"500","category_name":"未知分类","address":"上海话剧艺术中心"},{"poiid":"B2094757D568ABFA4998","title":"JACafe","lon":"121.44664","lat":"31.222799","category":"65","category_name":"咖啡厅","address":"中国上海市静安区南京西路"},{"poiid":"B2094750D76FAAFF429C","title":"PANKOO釜山料理(芮欧百货店)","lon":"121.446","lat":"31.2229","category":"96","category_name":"韩国料理","address":"静安区南京西路1601号芮欧百货B214室"},{"poiid":"B209475CDA6CABF4429E","title":"myst","lon":"121.447692","lat":"31.220817","category":"500","category_name":"未知分类","address":"上海市 静安区延安中路"},{"poiid":"B2094752D664A7F94498","title":"Henkes","lon":"121.44739","lat":"31.222622","category":"247","category_name":"餐饮美食","address":"芮欧百货"},{"poiid":"B2094757D069A5FA4598","title":"纽约客匹萨 静安寺店 NEW YORK STYLE PIZZA","lon":"121.447439054","lat":"31.223316793","category":"94","category_name":"西餐厅","address":"静安区南京西路1699号伊美时尚广场J16号铺(近静安寺)"},{"poiid":"B2094757D469A7F5409A","title":"晶堂群英会","lon":"121.444671","lat":"31.222538","category":"72","category_name":"广东菜","address":"静安区南京西路1728号百乐门大酒店7楼(近地铁2号线静安寺站)"},{"poiid":"B2094757D069A7F84999","title":"靜安寺廟","lon":"121.44488058","lat":"31.22254628","category":"244","category_name":"寺庙道观","address":"上海静安区乌鲁木齐北路"},{"poiid":"B2094757D06FA7F8449B","title":"静安寺下沉式广场","lon":"121.44625","lat":"31.22236","category":"119","category_name":"商场","address":"静安区南京西路(近华山路)"},{"poiid":"B2094757D068AAFA469B","title":"上海外事服务中心","lon":"121.44552897","lat":"31.220250877","category":"260","category_name":"其他","address":"静安区华山路228号上海国际贵都大饭店办公楼2-3楼"},{"poiid":"B2094757D068A0F5419C","title":"coffee bean","lon":"121.445521","lat":"31.223238","category":"65","category_name":"咖啡厅","address":"上海静安寺"},{"poiid":"B209475CD16AA1FC459C","title":"艾米1895电影街","lon":"121.447013","lat":"31.222036","category":"178","category_name":"电影院","address":"上海市 上海市北京西路1829号4楼 靠近愚园路"},{"poiid":"B2094654DB6BA6FF4998","title":"上海百乐门大酒店","lon":"121.44466","lat":"31.22253","category":"215","category_name":"三星级宾馆","address":"静安区南京西路1728号"},{"poiid":"B209475CD26DA4FE419A","title":"10·corso·como","lon":"121.445999","lat":"31.220499","category":"500","category_name":"未知分类","address":"上海市 南京西路1717号会德丰广场北院"},{"poiid":"B2094753D56FA4FA449E","title":"德站琪韩国年糕料理","lon":"121.444396","lat":"31.221853","category":"247","category_name":"餐饮美食","address":"上海市 静安区南京西路1818号1788广场B1美食街内"},{"poiid":"B2094757D66EA5FC439A","title":"希尔顿连天阁","lon":"121.44552558","lat":"31.219270216","category":"500","category_name":"未知分类","address":"上海华山路250号"},{"poiid":"B2094750D664A7FF4992","title":"琥家拉面(芮欧百货店)","lon":"121.446","lat":"31.2229","category":"95","category_name":"日本料理","address":"静安区南京西路1601号芮欧百货B2楼"},{"poiid":"B2094757D66BA2F5439E","title":"李奥纳多达芬奇餐厅","lon":"121.445662054","lat":"31.219435793","category":"98","category_name":"意式菜品餐厅","address":"静安区华山路250号希尔顿酒店1楼(近延安西路)"},{"poiid":"B2094757D069A6F84999","title":"复茂小龙虾(万航店)","lon":"121.44610058","lat":"31.222838286","category":"68","category_name":"快餐厅","address":"静安区万航渡路450号(近镇宁路)"},{"poiid":"B2094757D069A2F5479E","title":"和兴汤馆","lon":"121.44792946","lat":"31.221589774","category":"72","category_name":"广东菜","address":"静安区延安中路1123号(近富民路)"},{"poiid":"B209475DD56FA6F44798","title":"晶采轩（芮欧百货店）","lon":"121.447303","lat":"31.222906","category":"247","category_name":"餐饮美食","address":"上海市 南京西路1601号芮欧百货3-4楼(近常德路)"},{"poiid":"B2094757D16EA0FA4492","title":"上海轨道交通7号线静安寺站","lon":"121.446467138","lat":"31.2231696015","category":"500","category_name":"未知分类","address":"上海南京西路靜安寺"},{"poiid":"B2094757D16DA4FD4699","title":"HOUSE.1","lon":"121.446165196","lat":"31.2228992376","category":"148","category_name":"美容美发店","address":"静安区南京西路1699号伊美时尚广场外z17号楼梯旁(近地铁2号线静安寺5号出口)"}]