[{"poiid":"B2094654DB65A6F94199","title":"小肥羊火锅(黄兴路店)","lon":"121.51995","lat":"31.28888","category":"86","category_name":"火锅店","address":"杨浦区黄兴路1679号(近国权路)"},{"poiid":"B2094757D068A6F4499D","title":"杨浦区房地产交易中心","lon":"121.51926285","lat":"31.283139442","category":"46","category_name":"楼宇","address":"上海杨浦区长岭路111号"},{"poiid":"B2094757D069A4F9479B","title":"黄兴路","lon":"121.52361638","lat":"31.283861113","category":"500","category_name":"未知分类","address":"上海黄兴路"},{"poiid":"B2094757D06FA0F84398","title":"大运盛","lon":"121.519403","lat":"31.284925","category":"47","category_name":"住宅区","address":"上海杨浦区中山北二路99弄"},{"poiid":"B2094757D06FABF54799","title":"鞍山新村","lon":"121.521","lat":"31.2811","category":"47","category_name":"住宅区","address":"上海杨浦区鞍山路锦西路"},{"poiid":"B2094757D06FA1FE449E","title":"肯德基 KFC (大润发店)","lon":"121.521554","lat":"31.288011","category":"68","category_name":"快餐厅","address":"杨浦区黄兴路1616号大润发1楼(近国权路)"},{"poiid":"B2094757D465ABF4419B","title":"争鲜回转寿司 黄兴路店","lon":"121.522009054","lat":"31.288231793","category":"95","category_name":"日本料理","address":"杨浦区黄兴路1618号大润发超市1楼(近国权路)"},{"poiid":"B2094654D56EA0FB479F","title":"同叶大厦","lon":"121.521","lat":"31.2835","category":"46","category_name":"楼宇","address":"中央商务区CBD22号"},{"poiid":"B2094757D069ABFD469B","title":"金浦轩","lon":"121.52136","lat":"31.28656","category":"76","category_name":"上海菜","address":"杨浦区黄兴路1599号新纪元国际广场3楼(近国科路)"},{"poiid":"B2094750DB6FA4FD429E","title":"上海国际时尚中心","lon":"121.518852","lat":"31.284042","category":"500","category_name":"未知分类","address":"杨树浦路内江路"},{"poiid":"B2094757D065A3FA459C","title":"百万宝贝宠物","lon":"121.520751103","lat":"31.287151772","category":"129","category_name":"宠物用品店","address":"杨浦区黄兴路1625号3楼(近控江路)"},{"poiid":"B2094654D56FA6F54699","title":"顺角轩酒店","lon":"121.52155","lat":"31.28801","category":"82","category_name":"东北菜","address":"杨浦区黄兴路1616号百安居内(近国权路)"},{"poiid":"B2094757D06FA6FC4292","title":"百安居(杨浦店)","lon":"121.52203","lat":"31.2869","category":"123","category_name":"家具建材市场","address":"杨浦区黄兴路1616号(近国权路)"},{"poiid":"B2094654D56EA4FB4292","title":"法善庵","lon":"121.5152","lat":"31.28554","category":"244","category_name":"寺庙道观","address":"杨浦区政本路338号(国科路政本路)"},{"poiid":"B2094757D06FA7F44293","title":"鞍山四村","lon":"121.51586095177","lat":"31.282573922167","category":"47","category_name":"住宅区","address":"上海锦西路鞍山路"},{"poiid":"B2094757D068A4F44699","title":"茗菁阁","lon":"121.51742","lat":"31.28104","category":"76","category_name":"上海菜","address":"杨浦区抚顺路198号(江浦路口)"},{"poiid":"B2094757D66FA0FB439A","title":"糊塗家貓咪世界","lon":"121.515820103","lat":"31.2869437676","category":"500","category_name":"未知分类","address":"上海市杨浦区国权路"},{"poiid":"B2094654DB6AA6FF489A","title":"上海风声水起大酒店","lon":"121.51819","lat":"31.28801","category":"76","category_name":"上海菜","address":"杨浦区国权路49号财富国际广场2-3楼(近政仁路)"},{"poiid":"B2094757D06BAAF84599","title":"COCO都可茶饮","lon":"121.523417503","lat":"31.2827491799","category":"113","category_name":"冷饮店","address":"杨浦区延吉中路338号(近黄兴路)"},{"poiid":"B2094757D06FA5FA469B","title":"凤城六村","lon":"121.5166","lat":"31.283543","category":"47","category_name":"住宅区","address":"上海杨浦区长岭路91号"},{"poiid":"B2094757D569A2FA4998","title":"大运盛城四期","lon":"121.5194089","lat":"31.284925","category":"47","category_name":"住宅区","address":"上海市杨浦区中山北二路99弄"},{"poiid":"B2094757D069A3F84892","title":"长岭路抚顺路","lon":"121.520264103","lat":"31.2819826639","category":"500","category_name":"未知分类","address":"上海市杨浦区长岭路抚顺路"},{"poiid":"B2094655D36DA7F84093","title":"中山北二路黄兴路","lon":"121.51907","lat":"31.28541","category":"38","category_name":"公交车站","address":""},{"poiid":"B2094655D264AAF4469E","title":"布施咖啡厅","lon":"121.51893","lat":"31.28504","category":"65","category_name":"咖啡厅","address":"中山北二路117"},{"poiid":"B2094654DB6BA2FC429E","title":"叶子足浴坊","lon":"121.51904","lat":"31.28507","category":"149","category_name":"洗浴推拿场所","address":"中山北二路109号"},{"poiid":"B2094655D36CA7FB4898","title":"国权路政本路","lon":"121.51657","lat":"31.28805","category":"38","category_name":"公交车站","address":""},{"poiid":"B2094757D068A7FC439A","title":"凤城五村","lon":"121.5178502","lat":"31.282865282","category":"252","category_name":"楼宇机构","address":"上海江浦路抚顺路"},{"poiid":"B2094757D064A7F9419C","title":"五角场派出所","lon":"121.51642986","lat":"31.287476451","category":"609","category_name":"警察局","address":"上海市杨浦区国权路96号"},{"poiid":"B2094654DB6BA2F84899","title":"苏宁电器(黄兴路店)","lon":"121.52175","lat":"31.28775","category":"138","category_name":"家电电子卖场","address":"上海杨浦区黄兴路1616号(近国权路)"},{"poiid":"B2094750D26DA4FF4392","title":"弥娜娃海鲜牛排自助餐厅","lon":"121.519407","lat":"31.288783","category":"268","category_name":"自助","address":"国权路39号绿色米兰广场银座1楼近黄兴路"},{"poiid":"B2094757D16BA2F9459A","title":"蛋蛋","lon":"121.51881253","lat":"31.284423484","category":"247","category_name":"餐饮美食","address":"上海五角场"},{"poiid":"B2094757D569A1FF4599","title":"快客大运店","lon":"121.519195","lat":"31.285125","category":"117","category_name":"便民商店/便利店","address":"中国上海市杨浦区"},{"poiid":"B2094654DB65A5F44292","title":"上海商学院高等技术学院国权路院区(北门)","lon":"121.51805","lat":"31.28643","category":"52","category_name":"高等院校","address":"国科路75号"},{"poiid":"B2094654D56EA4FB449E","title":"锦湘缘","lon":"121.52105178399","lat":"31.288039471478","category":"77","category_name":"湖南菜","address":"杨浦区黄兴路1639号(大润发对面)"},{"poiid":"B2094757D06FABFD489C","title":"中山北二路","lon":"121.520964","lat":"31.287458","category":"38","category_name":"公交车站","address":"上海内环线"},{"poiid":"B2094655D265A1FB439A","title":"长岭路早点店","lon":"121.51924","lat":"31.28269","category":"68","category_name":"快餐厅","address":"杨浦区长岭路74号(近抚顺路)"},{"poiid":"B2094757D06AA1FD439C","title":"杨浦区房屋土地管理局","lon":"121.5187491","lat":"31.284048707","category":"500","category_name":"未知分类","address":"上海长岭路"},{"poiid":"B2094757D06BA6FF4193","title":"饿肚皮","lon":"121.519573103","lat":"31.2846989207","category":"500","category_name":"未知分类","address":"上海饿死不偿命"},{"poiid":"B2094757D16EA0FE449C","title":"贵仁绿苑","lon":"121.51989","lat":"31.286751","category":"47","category_name":"住宅区","address":"上海市杨浦区黄兴路1669弄1号"},{"poiid":"B2094757D065A4F5439A","title":"上海海关调查局","lon":"121.521191603","lat":"31.2848977248","category":"500","category_name":"未知分类","address":"上海政仁路81号"},{"poiid":"B2094757D168A4F5409C","title":"重庆鸡公煲(抚顺路店)","lon":"121.5195","lat":"31.28206","category":"71","category_name":"四川菜","address":"杨浦区抚顺路99号(近长岭路)"},{"poiid":"B2094654D56EA4FB4598","title":"黄兴公寓","lon":"121.52002","lat":"31.288187","category":"47","category_name":"住宅区","address":"上海市杨浦区黄兴路1633号"},{"poiid":"B2094655D265A3F5449C","title":"上海电视大学外经贸分校","lon":"121.51786","lat":"31.28615","category":"52","category_name":"高等院校","address":"国科路75号"},{"poiid":"B2094655D36CA6FF4492","title":"抚顺路长岭路","lon":"121.5186","lat":"31.28191","category":"38","category_name":"公交车站","address":""},{"poiid":"B2094757D16CA2FD469F","title":"迪士尼英语(五角场中心)","lon":"121.5207311","lat":"31.287234773","category":"253","category_name":"校园生活","address":"杨浦区黄兴路1625号2楼(近国科路)"},{"poiid":"B2094757D16DA2FF469D","title":"黄兴雅苑","lon":"121.51988","lat":"31.286749","category":"47","category_name":"住宅区","address":"上海市杨浦区国科路29弄"},{"poiid":"B2094752D365A1FF479C","title":"海底捞","lon":"121.517639","lat":"31.284439","category":"247","category_name":"餐饮美食","address":"五角场"},{"poiid":"B2094750D26AA6FE459C","title":"浦东国际机场","lon":"121.522209","lat":"31.283885","category":"500","category_name":"未知分类","address":null},{"poiid":"B2094654D56EA4F4419D","title":"沁怡西点面包房","lon":"121.52241","lat":"31.28336","category":"112","category_name":"糕饼店","address":"杨浦区抚顺路3号(近黄兴路)"},{"poiid":"B2094654D56EA4FB479D","title":"博英双语幼稚园","lon":"121.52198","lat":"31.28446","category":"57","category_name":"幼儿园","address":"杨浦区中山北二路99弄70号(近黄兴路)"},{"poiid":"B2094654DB65A6F94199","title":"小肥羊火锅(黄兴路店)","lon":"121.51995","lat":"31.28888","category":"86","category_name":"火锅店","address":"杨浦区黄兴路1679号(近国权路)"},{"poiid":"B2094757D068A6F4499D","title":"杨浦区房地产交易中心","lon":"121.51926285","lat":"31.283139442","category":"46","category_name":"楼宇","address":"上海杨浦区长岭路111号"},{"poiid":"B2094757D069A4F9479B","title":"黄兴路","lon":"121.52361638","lat":"31.283861113","category":"500","category_name":"未知分类","address":"上海黄兴路"},{"poiid":"B2094757D06FA0F84398","title":"大运盛","lon":"121.519403","lat":"31.284925","category":"47","category_name":"住宅区","address":"上海杨浦区中山北二路99弄"},{"poiid":"B2094757D06FABF54799","title":"鞍山新村","lon":"121.521","lat":"31.2811","category":"47","category_name":"住宅区","address":"上海杨浦区鞍山路锦西路"},{"poiid":"B2094757D06FA1FE449E","title":"肯德基 KFC (大润发店)","lon":"121.521554","lat":"31.288011","category":"68","category_name":"快餐厅","address":"杨浦区黄兴路1616号大润发1楼(近国权路)"},{"poiid":"B2094757D465ABF4419B","title":"争鲜回转寿司 黄兴路店","lon":"121.522009054","lat":"31.288231793","category":"95","category_name":"日本料理","address":"杨浦区黄兴路1618号大润发超市1楼(近国权路)"},{"poiid":"B2094654D56EA0FB479F","title":"同叶大厦","lon":"121.521","lat":"31.2835","category":"46","category_name":"楼宇","address":"中央商务区CBD22号"},{"poiid":"B2094757D069ABFD469B","title":"金浦轩","lon":"121.52136","lat":"31.28656","category":"76","category_name":"上海菜","address":"杨浦区黄兴路1599号新纪元国际广场3楼(近国科路)"},{"poiid":"B2094750DB6FA4FD429E","title":"上海国际时尚中心","lon":"121.518852","lat":"31.284042","category":"500","category_name":"未知分类","address":"杨树浦路内江路"},{"poiid":"B2094757D065A3FA459C","title":"百万宝贝宠物","lon":"121.520751103","lat":"31.287151772","category":"129","category_name":"宠物用品店","address":"杨浦区黄兴路1625号3楼(近控江路)"},{"poiid":"B2094654D56FA6F54699","title":"顺角轩酒店","lon":"121.52155","lat":"31.28801","category":"82","category_name":"东北菜","address":"杨浦区黄兴路1616号百安居内(近国权路)"},{"poiid":"B2094757D06FA6FC4292","title":"百安居(杨浦店)","lon":"121.52203","lat":"31.2869","category":"123","category_name":"家具建材市场","address":"杨浦区黄兴路1616号(近国权路)"},{"poiid":"B2094654D56EA4FB4292","title":"法善庵","lon":"121.5152","lat":"31.28554","category":"244","category_name":"寺庙道观","address":"杨浦区政本路338号(国科路政本路)"},{"poiid":"B2094757D06FA7F44293","title":"鞍山四村","lon":"121.51586095177","lat":"31.282573922167","category":"47","category_name":"住宅区","address":"上海锦西路鞍山路"},{"poiid":"B2094757D068A4F44699","title":"茗菁阁","lon":"121.51742","lat":"31.28104","category":"76","category_name":"上海菜","address":"杨浦区抚顺路198号(江浦路口)"},{"poiid":"B2094757D66FA0FB439A","title":"糊塗家貓咪世界","lon":"121.515820103","lat":"31.2869437676","category":"500","category_name":"未知分类","address":"上海市杨浦区国权路"},{"poiid":"B2094654DB6AA6FF489A","title":"上海风声水起大酒店","lon":"121.51819","lat":"31.28801","category":"76","category_name":"上海菜","address":"杨浦区国权路49号财富国际广场2-3楼(近政仁路)"},{"poiid":"B2094757D06BAAF84599","title":"COCO都可茶饮","lon":"121.523417503","lat":"31.2827491799","category":"113","category_name":"冷饮店","address":"杨浦区延吉中路338号(近黄兴路)"},{"poiid":"B2094757D06FA5FA469B","title":"凤城六村","lon":"121.5166","lat":"31.283543","category":"47","category_name":"住宅区","address":"上海杨浦区长岭路91号"},{"poiid":"B2094757D569A2FA4998","title":"大运盛城四期","lon":"121.5194089","lat":"31.284925","category":"47","category_name":"住宅区","address":"上海市杨浦区中山北二路99弄"},{"poiid":"B2094757D069A3F84892","title":"长岭路抚顺路","lon":"121.520264103","lat":"31.2819826639","category":"500","category_name":"未知分类","address":"上海市杨浦区长岭路抚顺路"},{"poiid":"B2094655D36DA7F84093","title":"中山北二路黄兴路","lon":"121.51907","lat":"31.28541","category":"38","category_name":"公交车站","address":""},{"poiid":"B2094655D264AAF4469E","title":"布施咖啡厅","lon":"121.51893","lat":"31.28504","category":"65","category_name":"咖啡厅","address":"中山北二路117"},{"poiid":"B2094654DB6BA2FC429E","title":"叶子足浴坊","lon":"121.51904","lat":"31.28507","category":"149","category_name":"洗浴推拿场所","address":"中山北二路109号"},{"poiid":"B2094655D36CA7FB4898","title":"国权路政本路","lon":"121.51657","lat":"31.28805","category":"38","category_name":"公交车站","address":""},{"poiid":"B2094757D068A7FC439A","title":"凤城五村","lon":"121.5178502","lat":"31.282865282","category":"252","category_name":"楼宇机构","address":"上海江浦路抚顺路"},{"poiid":"B2094757D064A7F9419C","title":"五角场派出所","lon":"121.51642986","lat":"31.287476451","category":"609","category_name":"警察局","address":"上海市杨浦区国权路96号"},{"poiid":"B2094654DB6BA2F84899","title":"苏宁电器(黄兴路店)","lon":"121.52175","lat":"31.28775","category":"138","category_name":"家电电子卖场","address":"上海杨浦区黄兴路1616号(近国权路)"},{"poiid":"B2094750D26DA4FF4392","title":"弥娜娃海鲜牛排自助餐厅","lon":"121.519407","lat":"31.288783","category":"268","category_name":"自助","address":"国权路39号绿色米兰广场银座1楼近黄兴路"},{"poiid":"B2094757D16BA2F9459A","title":"蛋蛋","lon":"121.51881253","lat":"31.284423484","category":"247","category_name":"餐饮美食","address":"上海五角场"},{"poiid":"B2094757D569A1FF4599","title":"快客大运店","lon":"121.519195","lat":"31.285125","category":"117","category_name":"便民商店/便利店","address":"中国上海市杨浦区"},{"poiid":"B2094654DB65A5F44292","title":"上海商学院高等技术学院国权路院区(北门)","lon":"121.51805","lat":"31.28643","category":"52","category_name":"高等院校","address":"国科路75号"},{"poiid":"B2094654D56EA4FB449E","title":"锦湘缘","lon":"121.52105178399","lat":"31.288039471478","category":"77","category_name":"湖南菜","address":"杨浦区黄兴路1639号(大润发对面)"},{"poiid":"B2094757D06FABFD489C","title":"中山北二路","lon":"121.520964","lat":"31.287458","category":"38","category_name":"公交车站","address":"上海内环线"},{"poiid":"B2094655D265A1FB439A","title":"长岭路早点店","lon":"121.51924","lat":"31.28269","category":"68","category_name":"快餐厅","address":"杨浦区长岭路74号(近抚顺路)"},{"poiid":"B2094757D06AA1FD439C","title":"杨浦区房屋土地管理局","lon":"121.5187491","lat":"31.284048707","category":"500","category_name":"未知分类","address":"上海长岭路"},{"poiid":"B2094757D06BA6FF4193","title":"饿肚皮","lon":"121.519573103","lat":"31.2846989207","category":"500","category_name":"未知分类","address":"上海饿死不偿命"},{"poiid":"B2094757D16EA0FE449C","title":"贵仁绿苑","lon":"121.51989","lat":"31.286751","category":"47","category_name":"住宅区","address":"上海市杨浦区黄兴路1669弄1号"},{"poiid":"B2094757D065A4F5439A","title":"上海海关调查局","lon":"121.521191603","lat":"31.2848977248","category":"500","category_name":"未知分类","address":"上海政仁路81号"},{"poiid":"B2094757D168A4F5409C","title":"重庆鸡公煲(抚顺路店)","lon":"121.5195","lat":"31.28206","category":"71","category_name":"四川菜","address":"杨浦区抚顺路99号(近长岭路)"},{"poiid":"B2094654D56EA4FB4598","title":"黄兴公寓","lon":"121.52002","lat":"31.288187","category":"47","category_name":"住宅区","address":"上海市杨浦区黄兴路1633号"},{"poiid":"B2094655D265A3F5449C","title":"上海电视大学外经贸分校","lon":"121.51786","lat":"31.28615","category":"52","category_name":"高等院校","address":"国科路75号"},{"poiid":"B2094655D36CA6FF4492","title":"抚顺路长岭路","lon":"121.5186","lat":"31.28191","category":"38","category_name":"公交车站","address":""},{"poiid":"B2094757D16CA2FD469F","title":"迪士尼英语(五角场中心)","lon":"121.5207311","lat":"31.287234773","category":"253","category_name":"校园生活","address":"杨浦区黄兴路1625号2楼(近国科路)"},{"poiid":"B2094757D16DA2FF469D","title":"黄兴雅苑","lon":"121.51988","lat":"31.286749","category":"47","category_name":"住宅区","address":"上海市杨浦区国科路29弄"},{"poiid":"B2094752D365A1FF479C","title":"海底捞","lon":"121.517639","lat":"31.284439","category":"247","category_name":"餐饮美食","address":"五角场"},{"poiid":"B2094750D26AA6FE459C","title":"浦东国际机场","lon":"121.522209","lat":"31.283885","category":"500","category_name":"未知分类","address":null},{"poiid":"B2094654D56EA4F4419D","title":"沁怡西点面包房","lon":"121.52241","lat":"31.28336","category":"112","category_name":"糕饼店","address":"杨浦区抚顺路3号(近黄兴路)"},{"poiid":"B2094654D56EA4FB479D","title":"博英双语幼稚园","lon":"121.52198","lat":"31.28446","category":"57","category_name":"幼儿园","address":"杨浦区中山北二路99弄70号(近黄兴路)"},{"poiid":"B2094654DB65A6F94199","title":"小肥羊火锅(黄兴路店)","lon":"121.51995","lat":"31.28888","category":"86","category_name":"火锅店","address":"杨浦区黄兴路1679号(近国权路)"},{"poiid":"B2094757D068A6F4499D","title":"杨浦区房地产交易中心","lon":"121.51926285","lat":"31.283139442","category":"46","category_name":"楼宇","address":"上海杨浦区长岭路111号"},{"poiid":"B2094757D069A4F9479B","title":"黄兴路","lon":"121.52361638","lat":"31.283861113","category":"500","category_name":"未知分类","address":"上海黄兴路"},{"poiid":"B2094757D06FA0F84398","title":"大运盛","lon":"121.519403","lat":"31.284925","category":"47","category_name":"住宅区","address":"上海杨浦区中山北二路99弄"},{"poiid":"B2094757D06FABF54799","title":"鞍山新村","lon":"121.521","lat":"31.2811","category":"47","category_name":"住宅区","address":"上海杨浦区鞍山路锦西路"},{"poiid":"B2094757D06FA1FE449E","title":"肯德基 KFC (大润发店)","lon":"121.521554","lat":"31.288011","category":"68","category_name":"快餐厅","address":"杨浦区黄兴路1616号大润发1楼(近国权路)"},{"poiid":"B2094757D465ABF4419B","title":"争鲜回转寿司 黄兴路店","lon":"121.522009054","lat":"31.288231793","category":"95","category_name":"日本料理","address":"杨浦区黄兴路1618号大润发超市1楼(近国权路)"},{"poiid":"B2094654D56EA0FB479F","title":"同叶大厦","lon":"121.521","lat":"31.2835","category":"46","category_name":"楼宇","address":"中央商务区CBD22号"},{"poiid":"B2094757D069ABFD469B","title":"金浦轩","lon":"121.52136","lat":"31.28656","category":"76","category_name":"上海菜","address":"杨浦区黄兴路1599号新纪元国际广场3楼(近国科路)"},{"poiid":"B2094750DB6FA4FD429E","title":"上海国际时尚中心","lon":"121.518852","lat":"31.284042","category":"500","category_name":"未知分类","address":"杨树浦路内江路"},{"poiid":"B2094757D065A3FA459C","title":"百万宝贝宠物","lon":"121.520751103","lat":"31.287151772","category":"129","category_name":"宠物用品店","address":"杨浦区黄兴路1625号3楼(近控江路)"},{"poiid":"B2094654D56FA6F54699","title":"顺角轩酒店","lon":"121.52155","lat":"31.28801","category":"82","category_name":"东北菜","address":"杨浦区黄兴路1616号百安居内(近国权路)"},{"poiid":"B2094757D06FA6FC4292","title":"百安居(杨浦店)","lon":"121.52203","lat":"31.2869","category":"123","category_name":"家具建材市场","address":"杨浦区黄兴路1616号(近国权路)"},{"poiid":"B2094654D56EA4FB4292","title":"法善庵","lon":"121.5152","lat":"31.28554","category":"244","category_name":"寺庙道观","address":"杨浦区政本路338号(国科路政本路)"},{"poiid":"B2094757D06FA7F44293","title":"鞍山四村","lon":"121.51586095177","lat":"31.282573922167","category":"47","category_name":"住宅区","address":"上海锦西路鞍山路"},{"poiid":"B2094757D068A4F44699","title":"茗菁阁","lon":"121.51742","lat":"31.28104","category":"76","category_name":"上海菜","address":"杨浦区抚顺路198号(江浦路口)"},{"poiid":"B2094757D66FA0FB439A","title":"糊塗家貓咪世界","lon":"121.515820103","lat":"31.2869437676","category":"500","category_name":"未知分类","address":"上海市杨浦区国权路"},{"poiid":"B2094654DB6AA6FF489A","title":"上海风声水起大酒店","lon":"121.51819","lat":"31.28801","category":"76","category_name":"上海菜","address":"杨浦区国权路49号财富国际广场2-3楼(近政仁路)"},{"poiid":"B2094757D06BAAF84599","title":"COCO都可茶饮","lon":"121.523417503","lat":"31.2827491799","category":"113","category_name":"冷饮店","address":"杨浦区延吉中路338号(近黄兴路)"},{"poiid":"B2094757D06FA5FA469B","title":"凤城六村","lon":"121.5166","lat":"31.283543","category":"47","category_name":"住宅区","address":"上海杨浦区长岭路91号"},{"poiid":"B2094757D569A2FA4998","title":"大运盛城四期","lon":"121.5194089","lat":"31.284925","category":"47","category_name":"住宅区","address":"上海市杨浦区中山北二路99弄"},{"poiid":"B2094757D069A3F84892","title":"长岭路抚顺路","lon":"121.520264103","lat":"31.2819826639","category":"500","category_name":"未知分类","address":"上海市杨浦区长岭路抚顺路"},{"poiid":"B2094655D36DA7F84093","title":"中山北二路黄兴路","lon":"121.51907","lat":"31.28541","category":"38","category_name":"公交车站","address":""},{"poiid":"B2094655D264AAF4469E","title":"布施咖啡厅","lon":"121.51893","lat":"31.28504","category":"65","category_name":"咖啡厅","address":"中山北二路117"},{"poiid":"B2094654DB6BA2FC429E","title":"叶子足浴坊","lon":"121.51904","lat":"31.28507","category":"149","category_name":"洗浴推拿场所","address":"中山北二路109号"},{"poiid":"B2094655D36CA7FB4898","title":"国权路政本路","lon":"121.51657","lat":"31.28805","category":"38","category_name":"公交车站","address":""},{"poiid":"B2094757D068A7FC439A","title":"凤城五村","lon":"121.5178502","lat":"31.282865282","category":"252","category_name":"楼宇机构","address":"上海江浦路抚顺路"},{"poiid":"B2094757D064A7F9419C","title":"五角场派出所","lon":"121.51642986","lat":"31.287476451","category":"609","category_name":"警察局","address":"上海市杨浦区国权路96号"},{"poiid":"B2094654DB6BA2F84899","title":"苏宁电器(黄兴路店)","lon":"121.52175","lat":"31.28775","category":"138","category_name":"家电电子卖场","address":"上海杨浦区黄兴路1616号(近国权路)"},{"poiid":"B2094750D26DA4FF4392","title":"弥娜娃海鲜牛排自助餐厅","lon":"121.519407","lat":"31.288783","category":"268","category_name":"自助","address":"国权路39号绿色米兰广场银座1楼近黄兴路"},{"poiid":"B2094757D16BA2F9459A","title":"蛋蛋","lon":"121.51881253","lat":"31.284423484","category":"247","category_name":"餐饮美食","address":"上海五角场"},{"poiid":"B2094757D569A1FF4599","title":"快客大运店","lon":"121.519195","lat":"31.285125","category":"117","category_name":"便民商店/便利店","address":"中国上海市杨浦区"},{"poiid":"B2094654DB65A5F44292","title":"上海商学院高等技术学院国权路院区(北门)","lon":"121.51805","lat":"31.28643","category":"52","category_name":"高等院校","address":"国科路75号"},{"poiid":"B2094654D56EA4FB449E","title":"锦湘缘","lon":"121.52105178399","lat":"31.288039471478","category":"77","category_name":"湖南菜","address":"杨浦区黄兴路1639号(大润发对面)"},{"poiid":"B2094757D06FABFD489C","title":"中山北二路","lon":"121.520964","lat":"31.287458","category":"38","category_name":"公交车站","address":"上海内环线"},{"poiid":"B2094655D265A1FB439A","title":"长岭路早点店","lon":"121.51924","lat":"31.28269","category":"68","category_name":"快餐厅","address":"杨浦区长岭路74号(近抚顺路)"},{"poiid":"B2094757D06AA1FD439C","title":"杨浦区房屋土地管理局","lon":"121.5187491","lat":"31.284048707","category":"500","category_name":"未知分类","address":"上海长岭路"},{"poiid":"B2094757D06BA6FF4193","title":"饿肚皮","lon":"121.519573103","lat":"31.2846989207","category":"500","category_name":"未知分类","address":"上海饿死不偿命"},{"poiid":"B2094757D16EA0FE449C","title":"贵仁绿苑","lon":"121.51989","lat":"31.286751","category":"47","category_name":"住宅区","address":"上海市杨浦区黄兴路1669弄1号"},{"poiid":"B2094757D065A4F5439A","title":"上海海关调查局","lon":"121.521191603","lat":"31.2848977248","category":"500","category_name":"未知分类","address":"上海政仁路81号"},{"poiid":"B2094757D168A4F5409C","title":"重庆鸡公煲(抚顺路店)","lon":"121.5195","lat":"31.28206","category":"71","category_name":"四川菜","address":"杨浦区抚顺路99号(近长岭路)"},{"poiid":"B2094654D56EA4FB4598","title":"黄兴公寓","lon":"121.52002","lat":"31.288187","category":"47","category_name":"住宅区","address":"上海市杨浦区黄兴路1633号"},{"poiid":"B2094655D265A3F5449C","title":"上海电视大学外经贸分校","lon":"121.51786","lat":"31.28615","category":"52","category_name":"高等院校","address":"国科路75号"},{"poiid":"B2094655D36CA6FF4492","title":"抚顺路长岭路","lon":"121.5186","lat":"31.28191","category":"38","category_name":"公交车站","address":""},{"poiid":"B2094757D16CA2FD469F","title":"迪士尼英语(五角场中心)","lon":"121.5207311","lat":"31.287234773","category":"253","category_name":"校园生活","address":"杨浦区黄兴路1625号2楼(近国科路)"},{"poiid":"B2094757D16DA2FF469D","title":"黄兴雅苑","lon":"121.51988","lat":"31.286749","category":"47","category_name":"住宅区","address":"上海市杨浦区国科路29弄"},{"poiid":"B2094752D365A1FF479C","title":"海底捞","lon":"121.517639","lat":"31.284439","category":"247","category_name":"餐饮美食","address":"五角场"},{"poiid":"B2094750D26AA6FE459C","title":"浦东国际机场","lon":"121.522209","lat":"31.283885","category":"500","category_name":"未知分类","address":null},{"poiid":"B2094654D56EA4F4419D","title":"沁怡西点面包房","lon":"121.52241","lat":"31.28336","category":"112","category_name":"糕饼店","address":"杨浦区抚顺路3号(近黄兴路)"},{"poiid":"B2094654D56EA4FB479D","title":"博英双语幼稚园","lon":"121.52198","lat":"31.28446","category":"57","category_name":"幼儿园","address":"杨浦区中山北二路99弄70号(近黄兴路)"},{"poiid":"B2094654DB65A6F94199","title":"小肥羊火锅(黄兴路店)","lon":"121.51995","lat":"31.28888","category":"86","category_name":"火锅店","address":"杨浦区黄兴路1679号(近国权路)"},{"poiid":"B2094757D068A6F4499D","title":"杨浦区房地产交易中心","lon":"121.51926285","lat":"31.283139442","category":"46","category_name":"楼宇","address":"上海杨浦区长岭路111号"},{"poiid":"B2094757D069A4F9479B","title":"黄兴路","lon":"121.52361638","lat":"31.283861113","category":"500","category_name":"未知分类","address":"上海黄兴路"},{"poiid":"B2094757D06FA0F84398","title":"大运盛","lon":"121.519403","lat":"31.284925","category":"47","category_name":"住宅区","address":"上海杨浦区中山北二路99弄"},{"poiid":"B2094757D06FABF54799","title":"鞍山新村","lon":"121.521","lat":"31.2811","category":"47","category_name":"住宅区","address":"上海杨浦区鞍山路锦西路"},{"poiid":"B2094757D06FA1FE449E","title":"肯德基 KFC (大润发店)","lon":"121.521554","lat":"31.288011","category":"68","category_name":"快餐厅","address":"杨浦区黄兴路1616号大润发1楼(近国权路)"},{"poiid":"B2094757D465ABF4419B","title":"争鲜回转寿司 黄兴路店","lon":"121.522009054","lat":"31.288231793","category":"95","category_name":"日本料理","address":"杨浦区黄兴路1618号大润发超市1楼(近国权路)"},{"poiid":"B2094654D56EA0FB479F","title":"同叶大厦","lon":"121.521","lat":"31.2835","category":"46","category_name":"楼宇","address":"中央商务区CBD22号"},{"poiid":"B2094757D069ABFD469B","title":"金浦轩","lon":"121.52136","lat":"31.28656","category":"76","category_name":"上海菜","address":"杨浦区黄兴路1599号新纪元国际广场3楼(近国科路)"},{"poiid":"B2094750DB6FA4FD429E","title":"上海国际时尚中心","lon":"121.518852","lat":"31.284042","category":"500","category_name":"未知分类","address":"杨树浦路内江路"},{"poiid":"B2094757D065A3FA459C","title":"百万宝贝宠物","lon":"121.520751103","lat":"31.287151772","category":"129","category_name":"宠物用品店","address":"杨浦区黄兴路1625号3楼(近控江路)"},{"poiid":"B2094654D56FA6F54699","title":"顺角轩酒店","lon":"121.52155","lat":"31.28801","category":"82","category_name":"东北菜","address":"杨浦区黄兴路1616号百安居内(近国权路)"},{"poiid":"B2094757D06FA6FC4292","title":"百安居(杨浦店)","lon":"121.52203","lat":"31.2869","category":"123","category_name":"家具建材市场","address":"杨浦区黄兴路1616号(近国权路)"},{"poiid":"B2094654D56EA4FB4292","title":"法善庵","lon":"121.5152","lat":"31.28554","category":"244","category_name":"寺庙道观","address":"杨浦区政本路338号(国科路政本路)"},{"poiid":"B2094757D06FA7F44293","title":"鞍山四村","lon":"121.51586095177","lat":"31.282573922167","category":"47","category_name":"住宅区","address":"上海锦西路鞍山路"},{"poiid":"B2094757D068A4F44699","title":"茗菁阁","lon":"121.51742","lat":"31.28104","category":"76","category_name":"上海菜","address":"杨浦区抚顺路198号(江浦路口)"},{"poiid":"B2094757D66FA0FB439A","title":"糊塗家貓咪世界","lon":"121.515820103","lat":"31.2869437676","category":"500","category_name":"未知分类","address":"上海市杨浦区国权路"},{"poiid":"B2094654DB6AA6FF489A","title":"上海风声水起大酒店","lon":"121.51819","lat":"31.28801","category":"76","category_name":"上海菜","address":"杨浦区国权路49号财富国际广场2-3楼(近政仁路)"},{"poiid":"B2094757D06BAAF84599","title":"COCO都可茶饮","lon":"121.523417503","lat":"31.2827491799","category":"113","category_name":"冷饮店","address":"杨浦区延吉中路338号(近黄兴路)"},{"poiid":"B2094757D06FA5FA469B","title":"凤城六村","lon":"121.5166","lat":"31.283543","category":"47","category_name":"住宅区","address":"上海杨浦区长岭路91号"},{"poiid":"B2094757D569A2FA4998","title":"大运盛城四期","lon":"121.5194089","lat":"31.284925","category":"47","category_name":"住宅区","address":"上海市杨浦区中山北二路99弄"},{"poiid":"B2094757D069A3F84892","title":"长岭路抚顺路","lon":"121.520264103","lat":"31.2819826639","category":"500","category_name":"未知分类","address":"上海市杨浦区长岭路抚顺路"},{"poiid":"B2094655D36DA7F84093","title":"中山北二路黄兴路","lon":"121.51907","lat":"31.28541","category":"38","category_name":"公交车站","address":""},{"poiid":"B2094655D264AAF4469E","title":"布施咖啡厅","lon":"121.51893","lat":"31.28504","category":"65","category_name":"咖啡厅","address":"中山北二路117"},{"poiid":"B2094654DB6BA2FC429E","title":"叶子足浴坊","lon":"121.51904","lat":"31.28507","category":"149","category_name":"洗浴推拿场所","address":"中山北二路109号"},{"poiid":"B2094655D36CA7FB4898","title":"国权路政本路","lon":"121.51657","lat":"31.28805","category":"38","category_name":"公交车站","address":""},{"poiid":"B2094757D068A7FC439A","title":"凤城五村","lon":"121.5178502","lat":"31.282865282","category":"252","category_name":"楼宇机构","address":"上海江浦路抚顺路"},{"poiid":"B2094757D064A7F9419C","title":"五角场派出所","lon":"121.51642986","lat":"31.287476451","category":"609","category_name":"警察局","address":"上海市杨浦区国权路96号"},{"poiid":"B2094654DB6BA2F84899","title":"苏宁电器(黄兴路店)","lon":"121.52175","lat":"31.28775","category":"138","category_name":"家电电子卖场","address":"上海杨浦区黄兴路1616号(近国权路)"},{"poiid":"B2094750D26DA4FF4392","title":"弥娜娃海鲜牛排自助餐厅","lon":"121.519407","lat":"31.288783","category":"268","category_name":"自助","address":"国权路39号绿色米兰广场银座1楼近黄兴路"},{"poiid":"B2094757D16BA2F9459A","title":"蛋蛋","lon":"121.51881253","lat":"31.284423484","category":"247","category_name":"餐饮美食","address":"上海五角场"},{"poiid":"B2094757D569A1FF4599","title":"快客大运店","lon":"121.519195","lat":"31.285125","category":"117","category_name":"便民商店/便利店","address":"中国上海市杨浦区"},{"poiid":"B2094654DB65A5F44292","title":"上海商学院高等技术学院国权路院区(北门)","lon":"121.51805","lat":"31.28643","category":"52","category_name":"高等院校","address":"国科路75号"},{"poiid":"B2094654D56EA4FB449E","title":"锦湘缘","lon":"121.52105178399","lat":"31.288039471478","category":"77","category_name":"湖南菜","address":"杨浦区黄兴路1639号(大润发对面)"},{"poiid":"B2094757D06FABFD489C","title":"中山北二路","lon":"121.520964","lat":"31.287458","category":"38","category_name":"公交车站","address":"上海内环线"},{"poiid":"B2094655D265A1FB439A","title":"长岭路早点店","lon":"121.51924","lat":"31.28269","category":"68","category_name":"快餐厅","address":"杨浦区长岭路74号(近抚顺路)"},{"poiid":"B2094757D06AA1FD439C","title":"杨浦区房屋土地管理局","lon":"121.5187491","lat":"31.284048707","category":"500","category_name":"未知分类","address":"上海长岭路"},{"poiid":"B2094757D06BA6FF4193","title":"饿肚皮","lon":"121.519573103","lat":"31.2846989207","category":"500","category_name":"未知分类","address":"上海饿死不偿命"},{"poiid":"B2094757D16EA0FE449C","title":"贵仁绿苑","lon":"121.51989","lat":"31.286751","category":"47","category_name":"住宅区","address":"上海市杨浦区黄兴路1669弄1号"},{"poiid":"B2094757D065A4F5439A","title":"上海海关调查局","lon":"121.521191603","lat":"31.2848977248","category":"500","category_name":"未知分类","address":"上海政仁路81号"},{"poiid":"B2094757D168A4F5409C","title":"重庆鸡公煲(抚顺路店)","lon":"121.5195","lat":"31.28206","category":"71","category_name":"四川菜","address":"杨浦区抚顺路99号(近长岭路)"},{"poiid":"B2094654D56EA4FB4598","title":"黄兴公寓","lon":"121.52002","lat":"31.288187","category":"47","category_name":"住宅区","address":"上海市杨浦区黄兴路1633号"},{"poiid":"B2094655D265A3F5449C","title":"上海电视大学外经贸分校","lon":"121.51786","lat":"31.28615","category":"52","category_name":"高等院校","address":"国科路75号"},{"poiid":"B2094655D36CA6FF4492","title":"抚顺路长岭路","lon":"121.5186","lat":"31.28191","category":"38","category_name":"公交车站","address":""},{"poiid":"B2094757D16CA2FD469F","title":"迪士尼英语(五角场中心)","lon":"121.5207311","lat":"31.287234773","category":"253","category_name":"校园生活","address":"杨浦区黄兴路1625号2楼(近国科路)"},{"poiid":"B2094757D16DA2FF469D","title":"黄兴雅苑","lon":"121.51988","lat":"31.286749","category":"47","category_name":"住宅区","address":"上海市杨浦区国科路29弄"},{"poiid":"B2094752D365A1FF479C","title":"海底捞","lon":"121.517639","lat":"31.284439","category":"247","category_name":"餐饮美食","address":"五角场"},{"poiid":"B2094750D26AA6FE459C","title":"浦东国际机场","lon":"121.522209","lat":"31.283885","category":"500","category_name":"未知分类","address":null},{"poiid":"B2094654D56EA4F4419D","title":"沁怡西点面包房","lon":"121.52241","lat":"31.28336","category":"112","category_name":"糕饼店","address":"杨浦区抚顺路3号(近黄兴路)"},{"poiid":"B2094654D56EA4FB479D","title":"博英双语幼稚园","lon":"121.52198","lat":"31.28446","category":"57","category_name":"幼儿园","address":"杨浦区中山北二路99弄70号(近黄兴路)"}]