[{"poiid":"B2094654DB6BA7FF439B","title":"长风公园","lon":"121.39952","lat":"31.22399","category":"196","category_name":"公园","address":"普陀区枣阳路510号(近华师大后门)"},{"poiid":"B2094757D06FA7F9469E","title":"长风海洋世界极地白鲸表演馆","lon":"121.39928374","lat":"31.223985756","category":"196","category_name":"公园","address":"上海普陀区枣阳路525号长风公园内"},{"poiid":"B2094757D06FA3FB419D","title":"新发展亚太万豪酒店","lon":"121.39679","lat":"31.2213","category":"260","category_name":"其他","address":"普陀区大渡河路158号新发展亚太万豪酒店(近光复西路)"},{"poiid":"B2094757D068A5FE4693","title":"Parkside Plaza 长风景畔广场","lon":"121.396404886","lat":"31.2230774911","category":"500","category_name":"未知分类","address":"上海大渡河路196号(近云岭东路)"},{"poiid":"B2094757D065A6FE479C","title":"长风景畔广场","lon":"121.394962586","lat":"31.2244993189","category":"500","category_name":"未知分类","address":"普陀区大渡河路178号(近云岭东路)"},{"poiid":"B2094757D469A0FF419C","title":"星巴克(长风景畔广场店)","lon":"121.3966869","lat":"31.2215055","category":"260","category_name":"其他","address":"普陀区大渡河路178号长风景畔广场1楼01室(近长风公园4号门)"},{"poiid":"B2094757D068A7FC4192","title":"好乐迪(长风公园店)","lon":"121.396226586","lat":"31.2247633241","category":"196","category_name":"公园","address":"普陀区大渡河路452号国盛中心B1楼(近长风公园)"},{"poiid":"B2094654DB6BA7FF439A","title":"上海长风海洋世界","lon":"121.39955","lat":"31.22399","category":"196","category_name":"公园","address":"大渡河路451"},{"poiid":"B2094655D26DA3F54093","title":"长风公园(四号门)","lon":"121.3966","lat":"31.22461","category":"680","category_name":"楼宇机构","address":"大渡河路451"},{"poiid":"B2094757D06FA7FD409E","title":"迪士卡卡丁车赛车馆(Disckart Indoor Karting)","lon":"121.40163","lat":"31.22478","category":"220","category_name":"运动场所","address":"普陀区枣阳路809号长风公园附近(近华师大后门)"},{"poiid":"B2094757D469A0FF419D","title":"俏江南 长风景畔店","lon":"121.39551401138","lat":"31.223022770312","category":"71","category_name":"四川菜","address":"普陀区大渡河路168弄56号长风景畔广场3楼15-17室(近长风公园4号门)"},{"poiid":"B2094757D06FA5FC499E","title":"上海游艇会","lon":"121.396690071","lat":"31.2204165715","category":"76","category_name":"上海菜","address":"普陀区大渡河路160号(近光复西路)查看地图"},{"poiid":"B2094757D06FA2F8479F","title":"国丰酒店","lon":"121.39482","lat":"31.22337","category":"213","category_name":"五星级宾馆","address":"上海普陀区云岭东路78号3号座(大渡河路口)"},{"poiid":"B2094750D76FAAFF499E","title":"PANKOO釜山料理(长风景畔店)","lon":"121.39529","lat":"31.22331","category":"96","category_name":"韩国料理","address":"普陀区大渡河路178号长风景畔广场4楼28-29室(近长风公园4号门)"},{"poiid":"B2094750D26EA7F84493","title":"大户屋日本料理","lon":"121.39641523361","lat":"31.221279536744","category":"95","category_name":"日本料理","address":"普陀区大渡河路178号长风景畔广场4楼402号铺(近云岭东路)"},{"poiid":"B2094757D06FA2FC489A","title":"思创大厦","lon":"121.403","lat":"31.2197","category":"46","category_name":"楼宇","address":"上海市长宁区天山路600弄3-4号楼"},{"poiid":"B2094757DB68AAFE4592","title":"021上海菜主题餐厅 长风公园店","lon":"121.3966869","lat":"31.2215055","category":"76","category_name":"上海菜","address":"普陀区大渡河路168号长风景畔广场4楼(近云岭东路)"},{"poiid":"B2094750D26FA0F8419F","title":"湘乐汇 长风景畔广场店","lon":"121.39639377594","lat":"31.221573136228","category":"77","category_name":"湖南菜","address":"普陀区大渡河路196号长风景畔广场4楼(近云岭东路)"},{"poiid":"B2094757D069A0FA409D","title":"虹桥河滨公园","lon":"121.40090251","lat":"31.219385867","category":"196","category_name":"公园","address":"长宁区长宁路2080号(锦屏路口)"},{"poiid":"B2094757DB68A4F8469F","title":"膳道","lon":"121.39583587647","lat":"31.224729273085","category":"260","category_name":"其他","address":"普陀区大渡河路452号国盛时尚4楼(近云岭东路)"},{"poiid":"B2094757D068A4F44193","title":"必胜客(国盛店)","lon":"121.39630958","lat":"31.225630341","category":"94","category_name":"西餐厅","address":"普陀区大渡河路588号国盛时尚内"},{"poiid":"B2094750D565A5FB439D","title":"海老","lon":"121.395545","lat":"31.222381","category":"247","category_name":"餐饮美食","address":"普陀区大渡河路196号长风公园景畔广场4楼38号铺(近云岭东路)"},{"poiid":"B2094654D56BA4F4469F","title":"上海花城","lon":"121.40445","lat":"31.21896","category":"47","category_name":"住宅区","address":"普陀区澳门路519号华生大厦2号楼2202室(近普陀路)查看地图"},{"poiid":"B2094757D16DA1F5469F","title":"虹桥河滨花园","lon":"121.40254","lat":"31.219532","category":"47","category_name":"住宅区","address":"上海市长宁区长宁路1898弄"},{"poiid":"B2094750D26CA0F4499A","title":"吉亨面馆(长风景畔广场店)","lon":"121.3965534563223","lat":"31.221600926323504","category":"68","category_name":"快餐厅","address":"普陀区大渡河路196号长风景畔广场2楼(长风公园4号门对面)"},{"poiid":"B2094757D06FA4F84592","title":"北岸长风","lon":"121.39634","lat":"31.221179","category":"46","category_name":"楼宇","address":"大渡河路168弄6号1楼(光复西路口)"},{"poiid":"B2094757DA68A1F9429E","title":"吞云小莳 长风景畔广场店","lon":"121.3966696","lat":"31.2215473","category":"91","category_name":"台湾菜","address":"普陀区大渡河路178号长风景畔广场1楼L1-19(近长风公园)"},{"poiid":"B2094757D06AA3F5479E","title":"华师大 对外汉语学院","lon":"121.403979","lat":"31.222253","category":"253","category_name":"校园生活","address":"上海枣阳路896"},{"poiid":"B2094757D068A4F5469A","title":"乐购大渡河路店","lon":"121.398223586","lat":"31.2222962758","category":"118","category_name":"超级市场","address":"普陀区大渡河路178号景畔广场B1楼01A"},{"poiid":"B2094757D068A3FC429A","title":"同达创业大厦","lon":"121.403","lat":"31.2189","category":"46","category_name":"楼宇","address":"朝阳华威桥东北角"},{"poiid":"B2094757D16FA7FF429D","title":"呷哺呷哺 (长风景畔店)","lon":"121.396005186","lat":"31.2235616006","category":"86","category_name":"火锅店","address":"普陀区大渡河路178号B1楼01室LB1-06商铺、LB1-07商铺(近云岭东路)"},{"poiid":"B2094757D06FA7FB4098","title":"虹桥万博花园","lon":"121.40051","lat":"31.216806","category":"47","category_name":"住宅区","address":"上海古北路69弄(近长宁路)"},{"poiid":"B2094654DB6BA7FF4293","title":"长风公园(南门)","lon":"121.39805","lat":"31.22175","category":"680","category_name":"楼宇机构","address":"大渡河路189"},{"poiid":"B2094750D76EA4F4429B","title":"味千拉面(长风景畔店)","lon":"121.397","lat":"31.2214","category":"95","category_name":"日本料理","address":"普陀区大渡河路196号长风公园景畔广场内(近云岭东路)"},{"poiid":"B2094757D06FAAF44298","title":"艺林盲人按摩院(长宁店)","lon":"121.40361","lat":"31.21796","category":"149","category_name":"洗浴推拿场所","address":"长宁区长宁路1842号"},{"poiid":"B2094753D265A6F9469C","title":"HBC华谊兄弟上海影院","lon":"121.40096","lat":"31.22136","category":"178","category_name":"电影院","address":"大渡河路196号长风景畔广场5层"},{"poiid":"B2094750D768A3F44192","title":"贡茶(长风景畔广场店)","lon":"121.398","lat":"31.2214","category":"113","category_name":"冷饮店","address":"普陀区大渡河路178号长风景畔广场1楼(云岭东路口)"},{"poiid":"B2094757D164A4F4439F","title":"阿拉丁麻辣烫","lon":"121.394442586","lat":"31.2254923384","category":"68","category_name":"快餐厅","address":"普陀区大渡河路178号长风景畔广场B1楼1铺(近长风公园)"},{"poiid":"B2094750D26EABFD4193","title":"萨莉亚 长风景畔广场店","lon":"121.3966696","lat":"31.2215473","category":"94","category_name":"西餐厅","address":"普陀区大渡河路178号长风景畔广场4楼(近长风公园4号门)"},{"poiid":"B2094655D26EA5F5479D","title":"大洋海底世界","lon":"121.39955","lat":"31.22399","category":"199","category_name":"水族馆","address":"大渡河路451号长风公园4号门内"},{"poiid":"B2094750D665A4F84498","title":"太平洋咖啡(长风景畔广场店)","lon":"121.395","lat":"31.223","category":"260","category_name":"其他","address":"普陀区大渡河路178号长风景畔广场1楼108室(近长风公园4号门)"},{"poiid":"B2094757D169A5F5429D","title":"好乐迪(国盛时尚店)","lon":"121.39814758","lat":"31.222889287","category":"500","category_name":"未知分类","address":"上海市普陀区大渡河路"},{"poiid":"B2094655D26FA6F84998","title":"华东师范大学对外汉语学院(西门)","lon":"121.40282","lat":"31.222","category":"52","category_name":"高等院校","address":"枣阳路896"},{"poiid":"B2094750D76EA5FE499B","title":"西树泡芙(长风景畔广场店)","lon":"121.398","lat":"31.2214","category":"67","category_name":"甜品店","address":"普陀区大渡河路178号长风景畔广场1楼(近云岭东路)"},{"poiid":"B2094757DB69A6FE469C","title":"Momi&Toys 长风景畔广场店 长风景畔广场","lon":"121.39705896378","lat":"31.221591486165","category":"67","category_name":"甜品店","address":"普陀区大渡河路178号长风景畔广场1楼21室(近云岭东路)"},{"poiid":"B2094757D66DA6FC459C","title":"长风公园一号门","lon":"121.39785418","lat":"31.220922749","category":"500","category_name":"未知分类","address":"上海大渡河路189号"},{"poiid":"B2094757D46CA7FA4798","title":"肯德基 云岭东路店 KFC","lon":"121.3946944","lat":"31.2236697","category":"68","category_name":"快餐厅","address":"普陀区大渡河路588号国盛时尚购物中心1楼"},{"poiid":"B2094757D065A0F5489F","title":"宋家滩小区","lon":"121.39993","lat":"31.221682","category":"500","category_name":"未知分类","address":"上海市普陀区大渡河路95弄"},{"poiid":"B2094757D06FABFE419C","title":"古北路桥","lon":"121.39896392","lat":"31.216470718","category":"500","category_name":"未知分类","address":"上海长宁路古北路"},{"poiid":"B2094757D06BABF94892","title":"华师大设计学院","lon":"121.40263158","lat":"31.221334257","category":"253","category_name":"校园生活","address":"上海华东师范大学"},{"poiid":"B2094757D16CA7FC489E","title":"珍缘味港式茶餐厅","lon":"121.39503778","lat":"31.224848925","category":"72","category_name":"广东菜","address":"普陀区大渡河路452号国盛中心3楼(长风公园4号门对面)"},{"poiid":"B2094757D06FA7FD4898","title":"华师大文史楼","lon":"121.403717983","lat":"31.2205415171","category":"253","category_name":"校园生活","address":"上海中山北路3663"},{"poiid":"B2094654D56BA4F5459F","title":"风华水岸","lon":"121.4016","lat":"31.222267","category":"47","category_name":"住宅区","address":"上海枣阳路891弄"},{"poiid":"B2094757D16BABF5479F","title":"国丰酒店锦丰咖啡厅","lon":"121.394137586","lat":"31.2243041151","category":"268","category_name":"自助","address":"普陀区大渡河路388号国盛中心1号座1楼(近云岭东路)"},{"poiid":"B2094757D068A7FB4992","title":"国盛时尚","lon":"121.396243","lat":"31.227095","category":"119","category_name":"商场","address":"上海大渡河路588号"},{"poiid":"B2094654D56BA4F5469A","title":"快客No.6226","lon":"121.40007","lat":"31.22143","category":"117","category_name":"便民商店/便利店","address":"大渡河路79"},{"poiid":"B2094757D068AAFE409C","title":"中江路国盛中心","lon":"121.397203208","lat":"31.223095847","category":"46","category_name":"楼宇","address":"上海中江路388弄2号"},{"poiid":"B2094757D16DA7F44192","title":"玉兰轩","lon":"121.396407386","lat":"31.2195486221","category":"76","category_name":"上海菜","address":"普陀区大渡河路151号(近长风公园1号门)"},{"poiid":"B2094751D46AA6FD429B","title":"华东师范大学(中山北路校区)","lon":"121.3997248","lat":"31.2232845","category":"500","category_name":"未知分类","address":null},{"poiid":"B2094757DA6EAAF5489B","title":"长风公园银锄湖","lon":"121.399676799772","lat":"31.2252247036028","category":"250","category_name":"公园户外","address":"普陀区枣阳路80号长风公园内"},{"poiid":"B2094757D064A0FF4692","title":"臺灣佛教慈濟慈善基金會上海長風會所","lon":"121.398102","lat":"31.221298","category":"500","category_name":"未知分类","address":"上海普陀區大渡河路168號(北岸長風)4F"},{"poiid":"B2094751D56DA6F8449D","title":"食其家(长风景畔店)","lon":"121.39668","lat":"31.22155","category":"95","category_name":"日本料理","address":"普陀区大渡河路178号长风景畔广场B1楼(近长风公园4号门)"},{"poiid":"B2094757D165A1FD439A","title":"長風公園","lon":"121.396331072","lat":"31.224164496","category":"196","category_name":"公园","address":"上海光復西路"},{"poiid":"B2094757D46EA4F54499","title":"I.Z.K.Y.居酒屋","lon":"121.39466","lat":"31.22366","category":"95","category_name":"日本料理","address":"普陀区大渡河路388号国盛中心1号座1楼(近云岭东路)"},{"poiid":"B2094753D664A4FC409E","title":"3D奇幻印象体验馆","lon":"121.401306","lat":"31.223215","category":"500","category_name":"未知分类","address":"上海市 普陀区大渡河路452号国盛时尚中心2楼"},{"poiid":"B2094750D66DA1F5469C","title":"卡通尼乐园","lon":"121.395233","lat":"31.222414","category":"248","category_name":"生活娱乐","address":"大渡河路196号"},{"poiid":"B2094757D464A7FD439A","title":"珍珠轩","lon":"121.396248","lat":"31.222564","category":"72","category_name":"广东菜","address":"普陀区大渡河路158号新发展亚太万豪酒店2楼(近长风公园)"},{"poiid":"B2094757D065A4FD499A","title":"万航渡路2452号DOHO","lon":"121.40049138","lat":"31.221700964","category":"500","category_name":"未知分类","address":"上海DOHO"},{"poiid":"B2094655D36CA5F9419A","title":"长宁路锦屏路","lon":"121.40189","lat":"31.21831","category":"38","category_name":"公交车站","address":""},{"poiid":"B2094757D069A3F4439A","title":"茅台花苑","lon":"121.399","lat":"31.216","category":"47","category_name":"住宅区","address":"上海市长宁区茅台路500弄"},{"poiid":"B2094757D16CA5FD4998","title":"上岛咖啡(国盛风尚店)","lon":"121.39761358","lat":"31.223381297","category":"65","category_name":"咖啡厅","address":"大渡河路588号国盛时尚购物中心2楼近云岭东路"},{"poiid":"B2094757DA6EABFE479D","title":"健康煮(大渡河路店)","lon":"121.396736999999","lat":"31.221885","category":"247","category_name":"餐饮美食","address":null},{"poiid":"B2094750D364A3F4419F","title":"上海长风壹号","lon":"121.39880325927","lat":"31.219607020782","category":"260","category_name":"其他","address":"普陀区大渡河路251号长风一号绿地内(近长风公园)"},{"poiid":"B2094757D164A1FB429E","title":"复旦大学3108","lon":"121.40019358","lat":"31.220723745","category":"253","category_name":"校园生活","address":"上海邯郸路220号"},{"poiid":"B2094757D069AAFC479F","title":"光复西路2269弄小区","lon":"121.400511886","lat":"31.221688964","category":"500","category_name":"未知分类","address":"上海光复西路枣阳路"},{"poiid":"B2094757D169A7FC4692","title":"鼎茶","lon":"121.401605586","lat":"31.2207482456","category":"247","category_name":"餐饮美食","address":"上海长宁区愚园路816号"},{"poiid":"B2094750DB6CABF9419B","title":"pacific coffee","lon":"121.394813","lat":"31.221946","category":"247","category_name":"餐饮美食","address":"长风景畔商业街"},{"poiid":"B2094655D36CA5FC4693","title":"大渡河路云岭东路","lon":"121.39625","lat":"31.22296","category":"38","category_name":"公交车站","address":""},{"poiid":"B2094757D465A2F5429A","title":"国丰酒店银锄轩中餐厅","lon":"121.39466","lat":"31.22366","category":"72","category_name":"广东菜","address":"普陀区大渡河路388号国盛中心1号座2楼(近云岭东路)"},{"poiid":"B2094757DB69A7F44799","title":"和米堂","lon":"121.403828","lat":"31.218376","category":"95","category_name":"日本料理","address":"长宁区长宁路820号上海小马路美食街轻食区-10商铺"},{"poiid":"B2094757D469A3F44399","title":"长风海洋世界鲨鱼隧道晚宴 Chang  Feng Oceanworld","lon":"121.3977330132","lat":"31.22708043051","category":"268","category_name":"自助","address":"普陀区枣阳路510号长风公园内(近云岭东路)"},{"poiid":"B2094757D16DA2FD4698","title":"francy's home","lon":"121.39793858","lat":"31.220934249","category":"500","category_name":"未知分类","address":null},{"poiid":"B2094753D769AAF84392","title":"新发展亚太万豪酒店福苑咖啡厅","lon":"121.395941","lat":"31.221522","category":"256","category_name":"外国餐厅","address":"上海市普陀区大渡河路158号新发展亚太万豪酒店1楼(近长风公园)"},{"poiid":"B2094655D36CA5F94199","title":"长宁路古北路","lon":"121.39936","lat":"31.21789","category":"38","category_name":"公交车站","address":""},{"poiid":"B2094654D56BA1FF4099","title":"虹桥电子广场","lon":"121.403","lat":"31.2206","category":"46","category_name":"楼宇","address":"长宁区天山支路160,168号"},{"poiid":"B2094655D26DA7FC4892","title":"风华水岸(东门)","lon":"121.40251","lat":"31.22219","category":"47","category_name":"住宅区","address":"枣阳路891弄"},{"poiid":"B2094757D469A0FD489D","title":"福苑 Park Cafe","lon":"121.396145","lat":"31.224434","category":"268","category_name":"自助","address":"大渡河路158号新发展亚太万豪酒店1楼近长风公园"},{"poiid":"B2094757D16BA3FD4292","title":"必胜客","lon":"121.39701458","lat":"31.225520338","category":"500","category_name":"未知分类","address":"上海市普陀区中江路"},{"poiid":"B2094654D56BA4F9469C","title":"华东师范大学留学生公寓","lon":"121.40398","lat":"31.22225","category":"47","category_name":"住宅区","address":"枣阳路896"},{"poiid":"B209475CDA65A2FE409C","title":"海老寿司","lon":"121.39553","lat":"31.221189","category":"247","category_name":"餐饮美食","address":"上海市 上海市长风景畔广场4F"},{"poiid":"B2094654D56BA1FE4593","title":"长宁科技大楼","lon":"121.403","lat":"31.2196","category":"46","category_name":"楼宇","address":"天山支路201号"},{"poiid":"B2094757D065A5F4489E","title":"延安初级中学","lon":"121.40343233","lat":"31.221183504","category":"55","category_name":"中学","address":"上海延安西路601号"},{"poiid":"B2094757D06AA7F84998","title":"高斯图文印刷系统(中国)有限公司","lon":"121.39540558","lat":"31.222573281","category":"500","category_name":"未知分类","address":"上海市云岭东路286号"},{"poiid":"B2094655D26DA7FF4398","title":"宋家滩小区(南一门)","lon":"121.39956","lat":"31.22141","category":"656","category_name":"大门","address":"光复西路2369弄1-3号、6-9号"},{"poiid":"B2094757D069A0F5469D","title":"虹桥河滨公园篮球场","lon":"121.4026753","lat":"31.218889484","category":"220","category_name":"运动场所","address":"上海长宁区长宁路2080号(近古北路)"},{"poiid":"B2094752DB64ABFB4292","title":"苏州河畔，长宁路边","lon":"121.398442","lat":"31.219186","category":"500","category_name":"未知分类","address":"上海市 长宁路古北路"},{"poiid":"B2094757D16EA3FB4393","title":"NALCO中国总部","lon":"121.394383","lat":"31.220059","category":"46","category_name":"楼宇","address":"上海大渡河路168弄18号"},{"poiid":"B2094757D065A2FE409B","title":"华东师范大学 新四教室","lon":"121.40344243","lat":"31.22457398","category":"253","category_name":"校园生活","address":"上海中山北路校区"},{"poiid":"B2094757D16DA1F94392","title":"华东师大二附中旧址","lon":"121.40253658","lat":"31.220241235","category":"500","category_name":"未知分类","address":"上海市普陀区大渡河路"},{"poiid":"B209475DD76CA4FE4498","title":"华谊兄弟影院","lon":"121.39524","lat":"31.222831","category":"248","category_name":"生活娱乐","address":"上海市 长风景畔广场"},{"poiid":"B2094751D36CA6FC4599","title":"Pacilic Coffee Company(云岭东路店)","lon":"121.39411","lat":"31.22366","category":"247","category_name":"餐饮美食","address":"普陀区云岭东路88号"},{"poiid":"B2094750D56CA4FD4499","title":"长风万豪酒店","lon":"121.395606","lat":"31.221887","category":"500","category_name":"未知分类","address":"大渡河路168号"},{"poiid":"B2094757D66CA5F4459F","title":"KFC(国盛时尚)","lon":"121.39638198","lat":"31.223118691","category":"500","category_name":"未知分类","address":"上海大渡河路"},{"poiid":"B2094757D468A7F5479A","title":"许留山 云岭东路店 Hui Lau Shan","lon":"121.3946944","lat":"31.2236697","category":"67","category_name":"甜品店","address":"云岭东路78号近大渡河路"},{"poiid":"B2094757D068A6FD499B","title":"长宁信息园","lon":"121.404","lat":"31.2191","category":"46","category_name":"楼宇","address":"上海天山路641号"},{"poiid":"B2094757D66CA6F54998","title":"UNI QLO(长风景畔广场店)","lon":"121.395607586","lat":"31.2201102331","category":"500","category_name":"未知分类","address":"上海市大渡河路196号"},{"poiid":"B2094751DA6DA2FD429A","title":"禅边龙庭","lon":"121.393982","lat":"31.223747","category":"47","category_name":"住宅区","address":null},{"poiid":"B2094757D16FABFC4392","title":"铁臂山","lon":"121.399517809","lat":"31.2253402354","category":"500","category_name":"未知分类","address":"上海长风公园内"},{"poiid":"B2094757D16BA0FA479E","title":"蓝蛙","lon":"121.403091586","lat":"31.2226672831","category":"500","category_name":"未知分类","address":"上海辛耕路135号永新坊B1楼"},{"poiid":"B2094757DA65A3F4499F","title":"上海长风海洋馆","lon":"121.3965676623731","lat":"31.22574020700566","category":"250","category_name":"公园户外","address":"大渡河路"},{"poiid":"B2094757D169A0FC439F","title":"维络城龙之梦购物中心体验站","lon":"121.401089586","lat":"31.2194997211","category":"500","category_name":"未知分类","address":"上海长宁区长宁路1018号龙之梦购物中心龙之梦F2地铁3号线天桥入口处"},{"poiid":"B2094654D56AAAF9409B","title":"天华公寓","lon":"121.402","lat":"31.2176","category":"46","category_name":"楼宇","address":"芙蓉江路276弄1-3号"},{"poiid":"B2094655D265A6F9439C","title":"marcomari","lon":"121.4014","lat":"31.21896","category":"141","category_name":"服装鞋帽皮具店","address":"长宁路1966"},{"poiid":"B2094654DB65A3FD459B","title":"长风地产大楼","lon":"121.39653","lat":"31.22547","category":"46","category_name":"楼宇","address":"大渡河路525、531"},{"poiid":"B2094654D56BA4F94592","title":"文沁苑","lon":"121.40398","lat":"31.221649","category":"47","category_name":"住宅区","address":"光复西路2297弄"},{"poiid":"B2094654DB6BA7FE499F","title":"文沁苑(南门)","lon":"121.40366","lat":"31.22103","category":"47","category_name":"住宅区","address":"光复西路2297弄"},{"poiid":"B2094655D36CA6FC469A","title":"古北路长宁路","lon":"121.39866","lat":"31.21735","category":"38","category_name":"公交车站","address":""},{"poiid":"B209475DD669A2F5459D","title":"锦煌茶餐厅","lon":"121.394592","lat":"31.223308","category":"247","category_name":"餐饮美食","address":"上海市 上海市普陀区长风景畔广场4F"},{"poiid":"B2094757D16DA4F5409A","title":"友缘茶馆","lon":"121.39622","lat":"31.22517","category":"247","category_name":"餐饮美食","address":"上海普陀区大渡河路565号(近金沙江路)  "},{"poiid":"B2094655D26BA6F8409A","title":"北岸·长风1座","lon":"121.39336","lat":"31.22101","category":"46","category_name":"楼宇","address":""},{"poiid":"B2094757D16CA7F4419A","title":"华东师范大学对外汉语学院教学楼附楼","lon":"121.403753671","lat":"31.223266789","category":"500","category_name":"未知分类","address":"上海中山北路3663号华东师范大学内(近枣阳路896号)"},{"poiid":"B2094655D26CAAF4419A","title":"宋家滩小区(南二门)","lon":"121.40142","lat":"31.22118","category":"656","category_name":"大门","address":"光复西路2369弄1-3号、6-9号"},{"poiid":"B209475CD764A0F9439F","title":"东来顺 大渡河路店","lon":"121.396","lat":"31.2252","category":"86","category_name":"火锅店","address":"大渡河路588号(近长风公园)"},{"poiid":"B2094655D26DA3FC449F","title":"虹桥河滨公园(南门)","lon":"121.40068","lat":"31.21871","category":"680","category_name":"楼宇机构","address":""},{"poiid":"B2094655D264A7F9449D","title":"衡辰酒店式公寓","lon":"121.394","lat":"31.2212","category":"47","category_name":"住宅区","address":"上海市长宁区天山路338号"},{"poiid":"B2094757D064A5FF4993","title":"国盛时尚","lon":"121.40019958","lat":"31.218715205","category":"249","category_name":"购物服务","address":"上海市普陀区光复西路"},{"poiid":"B2094753D36EA7F4419C","title":"斗牛士牛排餐厅","lon":"121.399819","lat":"31.227425","category":"94","category_name":"西餐厅","address":"大渡河路196号长风公园景畔广场4F"},{"poiid":"B2094757D66DA3FB4493","title":"宝名国际","lon":"121.395790586","lat":"31.2206092428","category":"500","category_name":"未知分类","address":"上海大渡河路168弄"},{"poiid":"B2094752D76AA2FE499E","title":"care coffee","lon":"121.39958","lat":"31.21857","category":"248","category_name":"生活娱乐","address":"娄山关路990号"},{"poiid":"B2094757D66DA3F5429A","title":"贝卡尔特亚洲总部","lon":"121.39515758","lat":"31.22151526","category":"500","category_name":"未知分类","address":"上海市大渡河路168弄31号Waterfront Place，E栋"},{"poiid":"B2094654D56BA4F5459E","title":"上海长风公园经营发展有限公司","lon":"121.40251","lat":"31.22318","category":"263","category_name":"公司","address":"枣阳路839"},{"poiid":"B2094654D56BA4F54793","title":"友缘茶庄(大渡河路)","lon":"121.39663","lat":"31.22642","category":"66","category_name":"茶艺馆","address":""},{"poiid":"B2094757D16CAAF4429B","title":"普天同庆章鱼保罗菜","lon":"121.403960586","lat":"31.2211152527","category":"500","category_name":"未知分类","address":"上海万航渡路2425号"},{"poiid":"B2094757D16BA7FF489A","title":"829路中山北一路广中路站","lon":"121.399379586","lat":"31.2169051704","category":"38","category_name":"公交车站","address":"上海中山北一路(近广中路)"},{"poiid":"B2094757D16BABFB439E","title":"新渡口","lon":"121.404469653","lat":"31.2232308858","category":"500","category_name":"未知分类","address":"上海光复西路2213弄"},{"poiid":"B2094750D26BA1FD4692","title":"MCC美光展车护理中心","lon":"121.398681","lat":"31.217733","category":"249","category_name":"购物服务","address":"长宁区古北路1号(近长宁路)"},{"poiid":"B2094753DA6AA3F9499C","title":"南京西路","lon":"121.40438","lat":"31.220169","category":"500","category_name":"未知分类","address":"上海市 恒隆广场"},{"poiid":"B2094757D164A5FF4699","title":"梦田","lon":"121.40259","lat":"31.21814","category":"148","category_name":"美容美发店","address":"上海长宁区长宁路(近娄山关路)  "},{"poiid":"B2094757D66EA5FB409D","title":"帝怡美车","lon":"121.39881488","lat":"31.217966757","category":"500","category_name":"未知分类","address":"上海长宁区长宁路古北路口"},{"poiid":"B2094753D76BA7FE439E","title":"上海国际体操中心游泳馆","lon":"121.402008","lat":"31.218301","category":"500","category_name":"未知分类","address":"上海市 武夷路中山西路"},{"poiid":"B2094757D064A3FD489A","title":"施耐德电气(中国)有限公司","lon":"121.39457468","lat":"31.224867292","category":"249","category_name":"购物服务","address":"上海普陀区云岭东路89号"},{"poiid":"B2094655D265A1FA499B","title":"大渡河路537弄小区","lon":"121.39686","lat":"31.22623","category":"47","category_name":"住宅区","address":"大渡河路537弄1-10号"},{"poiid":"B2094757D16EA3FA449E","title":"交通银行(威宁路支行)","lon":"121.402125061","lat":"31.2252995854","category":"150","category_name":"银行","address":"长宁区威宁路410号(天山路威宁路)"},{"poiid":"B2094655D26DA6FF449A","title":"好德便利No.205","lon":"121.40412","lat":"31.21853","category":"117","category_name":"便民商店/便利店","address":"长宁路1816"},{"poiid":"B2094753D76CABFF469F","title":"龍庭禪邊","lon":"121.394271","lat":"31.223739","category":"500","category_name":"未知分类","address":"上海市 上海雲嶺東路88號"},{"poiid":"B2094757D66BA2FA449D","title":"和さ美 WASABI","lon":"121.399283","lat":"31.21568","category":"95","category_name":"日本料理","address":"古北路230号近天山支路"},{"poiid":"B2094757D16EA4FC409D","title":"KFC国盛时尚店","lon":"121.39629658","lat":"31.225413336","category":"500","category_name":"未知分类","address":"上海市普陀区同普路"},{"poiid":"B2094757D16DA5FA4999","title":"东方电视台星尚频道","lon":"121.40382558","lat":"31.219900229","category":"500","category_name":"未知分类","address":"上海东方路2000号"},{"poiid":"B2094654D56BA1FB4898","title":"古南小区","lon":"121.39832","lat":"31.215895","category":"47","category_name":"住宅区","address":"天山支路50-100弄"},{"poiid":"B2094757D164ABFF459D","title":"华师大逸夫楼报告厅","lon":"121.404065586","lat":"31.2254923384","category":"500","category_name":"未知分类","address":"上海市普陀区怒江路"},{"poiid":"B2094655D264A5FC489A","title":"大渡河路537弄小区(西门)","lon":"121.39662","lat":"31.22611","category":"47","category_name":"住宅区","address":"大渡河路537弄1-10号"},{"poiid":"B2094757D064ABF44392","title":"云岭东路大渡河路","lon":"121.39412688","lat":"31.222698483","category":"500","category_name":"未知分类","address":"上海云岭东路大渡河路"},{"poiid":"B2094757D065ABFE459D","title":"全家便利(娄山关路店)","lon":"121.40493608","lat":"31.223218543","category":"117","category_name":"便民商店/便利店","address":"上海长宁区2号线西延伸段娄山关路站2号出口2-104号"},{"poiid":"B2094757D064A1FE479D","title":"宁锦小区","lon":"121.4008","lat":"31.216404","category":"47","category_name":"住宅区","address":"上海市长宁区锦屏路"},{"poiid":"B2094750DB6EA7F5439C","title":"上海市普陀区中江路","lon":"121.394218","lat":"31.221061","category":"500","category_name":"未知分类","address":null},{"poiid":"B209475CDA6CA0FF459A","title":"多乐之日","lon":"121.396774","lat":"31.226379","category":"500","category_name":"未知分类","address":"上海市 大渡河路178号长风景畔广场1楼(近长风公园4号门)"},{"poiid":"B2094757D16AA5FF419A","title":"大渡河路168弄22号H栋　天地华宇总部","lon":"121.39403178","lat":"31.220447739","category":"500","category_name":"未知分类","address":"上海大渡河路168弄22号H栋　天地华宇总部"},{"poiid":"B2094757D16AA4FC4893","title":"FV House","lon":"121.400660586","lat":"31.2176631852","category":"500","category_name":"未知分类","address":"上海长宁路古北路"},{"poiid":"B2094757D16DA7F8469F","title":"永琪美容美发(云雾山路店)","lon":"121.40290958","lat":"31.224764824","category":"148","category_name":"美容美发店","address":"长宁区云雾山路120号(近娄山关路)"},{"poiid":"B2094757D06BA5FA469A","title":"","lon":"121.40114629","lat":"31.217358616","category":"500","category_name":"未知分类","address":"上海虹桥河滨花园"},{"poiid":"B2094655D26DA7F9479F","title":"宁锦小区(东门)","lon":"121.40142","lat":"31.21646","category":"47","category_name":"住宅区","address":"锦屏路71弄1-23号"},{"poiid":"B2094751D565A4F94399","title":"鲜德亭象山海鲜","lon":"121.395663","lat":"31.222439","category":"260","category_name":"其他","address":"普陀区大渡河路196号长风景畔广场4楼17号铺(近云岭东路)"},{"poiid":"B2094757D06BA7F9429D","title":"华东师范大学二附中楼","lon":"121.4010254","lat":"31.226082489","category":"500","category_name":"未知分类","address":"上海中山北路3663号"},{"poiid":"B2094655D265AAF44498","title":"大渡河路537弄小区(边门)","lon":"121.39661","lat":"31.22705","category":"47","category_name":"住宅区","address":"大渡河路537弄1-10号"},{"poiid":"B2094752D16EA3FB469A","title":"禅边藏茶会所","lon":"121.393921","lat":"31.223648","category":"500","category_name":"未知分类","address":null},{"poiid":"B2094655D26DA7FC4393","title":"虹桥河滨花园(南一门)","lon":"121.40242","lat":"31.21879","category":"656","category_name":"大门","address":"长宁路1898弄"},{"poiid":"B2094654DB6BA7FF429A","title":"虹桥河滨花园(南二门)","lon":"121.40106","lat":"31.2189","category":"656","category_name":"大门","address":""},{"poiid":"B2094757D06FAAFA4293","title":"上海市电子工业学校(长宁校区)","lon":"121.40161758","lat":"31.217003172","category":"253","category_name":"校园生活","address":"上海市长宁区玉屏南路娄山关路由"},{"poiid":"B2094752D365ABFA4898","title":"新湖明珠城","lon":"121.400168","lat":"31.216939","category":"47","category_name":"住宅区","address":null},{"poiid":"B2094655D265A1FA499A","title":"纳尔科中国总部","lon":"121.39439","lat":"31.22006","category":"263","category_name":"公司","address":"大渡河路168弄18"},{"poiid":"B2094757D16EABF9479A","title":"海博出租车","lon":"121.39902234","lat":"31.216950523","category":"163","category_name":"4S店","address":"上海全市同行"},{"poiid":"B2094757D065AAFD4993","title":"汇金百货停车场","lon":"121.3992406","lat":"31.216428791","category":"500","category_name":"未知分类","address":"上海长宁区天山路900号汇金百货b3"},{"poiid":"B2094757D16EA6F5469A","title":"金仕撞球会所","lon":"121.39469258","lat":"31.224181312","category":"248","category_name":"生活娱乐","address":"普陀区大渡河路588号国盛时尚B1楼(近长风公园)"},{"poiid":"B2094757D16BAAF84593","title":"米乐布提(古北旗舰店)","lon":"121.39856","lat":"31.21685","category":"500","category_name":"未知分类","address":"长宁区古北路荣华东道60弄里昂花园2号103室(近家乐福)"},{"poiid":"B2094757D66DA7FA439B","title":"西藏北路605号C座303","lon":"121.40025588","lat":"31.216052653","category":"500","category_name":"未知分类","address":"上海西藏北路605号C座303四季教育"},{"poiid":"B209475CD464A1F54699","title":"泰晤士小镇","lon":"121.395729","lat":"31.216924","category":"500","category_name":"未知分类","address":"上海市 三新北路900弄"},{"poiid":"B209475CD46CA5F5409B","title":"龙庭会所","lon":"121.393554","lat":"31.22364","category":"500","category_name":"未知分类","address":"上海市 云岭东路88号"},{"poiid":"B2094757D165A0FF4598","title":"Spangle Group","lon":"121.40510658","lat":"31.221051251","category":"500","category_name":"未知分类","address":"上海市长宁区万航渡路2452号苏州河DOHO创意园A202"},{"poiid":"B2094751D26EA1FE429E","title":"静思书轩","lon":"121.394256","lat":"31.220495","category":"260","category_name":"其他","address":"普陀区大渡河路168弄22号1楼(光复西路口)"},{"poiid":"B2094757D16DA3F5499D","title":"流行美发饰(龙之梦店)","lon":"121.40327","lat":"31.21815","category":"131","category_name":"珠宝首饰工艺品","address":"长宁区长宁路1018号龙之梦购物中心2楼(近凯旋路)"},{"poiid":"B2094655D264A7FB409D","title":"上海花城(南门)","lon":"121.404","lat":"31.21854","category":"48","category_name":"楼宇大门","address":""},{"poiid":"B2094750D26EA2F44599","title":"西湖","lon":"121.401748","lat":"31.21669","category":"500","category_name":"未知分类","address":"杭州"},{"poiid":"B2094654D56BA1F4409A","title":"春天花园(西门)","lon":"121.40175","lat":"31.21771","category":"656","category_name":"大门","address":"锦屏路180"},{"poiid":"B2094654D56BA1FB4993","title":"虹桥万博花园(东门)","lon":"121.4013","lat":"31.21767","category":"656","category_name":"大门","address":"周家桥"},{"poiid":"B2094654DB6BA7FC429A","title":"虹桥万博花园(西二门)","lon":"121.39917","lat":"31.21669","category":"656","category_name":"大门","address":"古北路69弄"},{"poiid":"B2094655D26DA3F5489A","title":"虹桥万博花园(西一门)","lon":"121.39951","lat":"31.21585","category":"656","category_name":"大门","address":""},{"poiid":"B2094654D56BA1F44298","title":"春天花园(北门)","lon":"121.40384","lat":"31.21813","category":"656","category_name":"大门","address":"周家桥"}]