[{"poiid":"B2094654D56BA4FA439C","title":"华东师范大学","lon":"121.40639","lat":"31.22835","category":"671","category_name":"高校中心点","address":"上海市普陀区中山北路3663号"},{"poiid":"B2094757D06EAAF54199","title":"华东师范大学文史楼","lon":"121.40858247","lat":"31.228773742","category":"253","category_name":"校园生活","address":"普陀区中山北路3663号"},{"poiid":"B2094757D06FA3F9489B","title":"华师大田家炳教书院","lon":"121.40678233","lat":"31.230869543","category":"253","category_name":"校园生活","address":"上海中山北路3663号(近华师大边门)"},{"poiid":"B2094757D06FA4FC449A","title":"华师大烧烤摊","lon":"121.40256","lat":"31.2296","category":"68","category_name":"快餐厅","address":"普陀区枣阳路华东师范大学后门(近喜刷刷)"},{"poiid":"B2094757D06FA1FF409A","title":"华东师范大学文附楼","lon":"121.40841082","lat":"31.226570761","category":"253","category_name":"校园生活","address":"上海中山北路3663号/金沙江路145号/枣阳路460号"},{"poiid":"B2094757D06FA1F44192","title":"枣阳路夜宵摊","lon":"121.40223","lat":"31.22951","category":"68","category_name":"快餐厅","address":"普陀区枣阳路(华师大后门)"},{"poiid":"B2094757D06FA5F4419A","title":"华东师范大学体育馆(中山北路校区)","lon":"121.404566141","lat":"31.2291786115","category":"253","category_name":"校园生活","address":"普陀区中山北路3663号华东师范大学内(近金沙江路)"},{"poiid":"B2094654DB6BA7FF429F","title":"长风公园(东门)","lon":"121.40163","lat":"31.22848","category":"680","category_name":"楼宇机构","address":"枣阳路525"},{"poiid":"B2094757D168A0FA489A","title":"丽娃河畔","lon":"121.40530045","lat":"31.228856529","category":"500","category_name":"未知分类","address":"上海中山北路华师大内"},{"poiid":"B2094757D06FA5F4469A","title":"华东师范大学理科大楼","lon":"121.40352825","lat":"31.227578924","category":"253","category_name":"校园生活","address":"上海普陀区中山北路3663号华东师范大学中山北路校区"},{"poiid":"B2094655D26CAAFD409F","title":"华东师大体育馆(东门)","lon":"121.40975","lat":"31.22749","category":"224","category_name":"综合体育馆","address":""},{"poiid":"B2094655D26DAAF44999","title":"华东师范大学逸夫楼","lon":"121.40685","lat":"31.22623","category":"52","category_name":"高等院校","address":"上海闵行区中山北路3663号华东师范大学中山北路校区"},{"poiid":"B2094654DB65A4FE409E","title":"华东师范大学(西门)","lon":"121.40223","lat":"31.22978","category":"52","category_name":"高等院校","address":"枣阳路460号"},{"poiid":"B2094655D26AA7FA499C","title":"华师大足球场","lon":"121.40457","lat":"31.22918","category":"247","category_name":"餐饮美食","address":"普陀区中山北路3663号华东师范大学内(近金沙江路)"},{"poiid":"B2094655D26DA3F5479F","title":"华东师范大学图书馆","lon":"121.40673","lat":"31.22815","category":"181","category_name":"图书馆","address":"普陀区中山北路3663号华东师范大学内"},{"poiid":"B2094757D068A0FB4698","title":"华东师范大学河西食堂","lon":"121.40225219","lat":"31.229797363","category":"253","category_name":"校园生活","address":"上海普陀区中山北路3663号华东师范大学内"},{"poiid":"B2094757D068A7FD4999","title":"华东师范大学篮球场(中山北路校区)","lon":"121.4025","lat":"31.22909","category":"253","category_name":"校园生活","address":"上海普陀区中山北路3663号华东师范大学内(近金沙江路)"},{"poiid":"B2094757D16BA7FB4393","title":"长风第一家烧烤","lon":"121.402397586","lat":"31.2293974147","category":"68","category_name":"快餐厅","address":"普陀区枣阳路"},{"poiid":"B2094757D16CABFE4398","title":"华东师范大学 科学会堂","lon":"121.406528586","lat":"31.2266953619","category":"500","category_name":"未知分类","address":"上海市普陀区枣阳路"},{"poiid":"B2094654D56BA4F54493","title":"学友餐厅","lon":"121.40175951886","lat":"31.228035368079","category":"257","category_name":"中餐厅","address":"普陀区枣阳路489号(近华师大后门)"},{"poiid":"B2094757D065A5F9479B","title":"华师大大学生中心羽毛球馆","lon":"121.40617","lat":"31.23148","category":"220","category_name":"运动场所","address":"上海普陀区金沙江路145号(近中山北路)  "},{"poiid":"B2094757D16CA6F94992","title":"华师大mba教育中心","lon":"121.40561468","lat":"31.227886585","category":"500","category_name":"未知分类","address":"上海中山北路3663号"},{"poiid":"B2094757D069A6FC469A","title":"华东师范大学干训楼","lon":"121.40501669","lat":"31.229555785","category":"253","category_name":"校园生活","address":"上海闵行区中山北路3663号华东师范大学中山北路校区"},{"poiid":"B2094757D068A2FA4899","title":"红腊餐饮","lon":"121.40179543697","lat":"31.228735765565","category":"76","category_name":"上海菜","address":"普陀区枣阳路477号(近华师大后门)"},{"poiid":"B2094757D16EA4F94992","title":"华东师范大学物理楼","lon":"121.405059186","lat":"31.2258269449","category":"253","category_name":"校园生活","address":"上海闵行区中山北路3663号华东师范大学中山北路校区"},{"poiid":"B2094757D16BA2FE4792","title":"华东师范大学艺体楼","lon":"121.404093086","lat":"31.2302740319","category":"500","category_name":"未知分类","address":"上海中山北路3663号,华东师范大学内"},{"poiid":"B2094757D16EA7F9479D","title":"华师大文史楼315","lon":"121.405853086","lat":"31.2277649828","category":"500","category_name":"未知分类","address":"上海中山北路"},{"poiid":"B2094757D568A0FF489E","title":"华师大留学生中心咖啡厅","lon":"121.4045789","lat":"31.22918806","category":"65","category_name":"咖啡厅","address":"普陀区中山北路3663号华东师范大学对外汉语学院内(近枣阳路)"},{"poiid":"B2094757D16BA6FE479B","title":"华东师范大学第五宿舍","lon":"121.40307958","lat":"31.229571418","category":"500","category_name":"未知分类","address":"上海市普陀区中山北路3663号"},{"poiid":"B2094655D26DAAF9479C","title":"华东师范大学出版社","lon":"121.40782","lat":"31.2261","category":"63","category_name":"出版社","address":"上海普陀区中山北路3663号华东师范大学中山北路校区"},{"poiid":"B2094757D068A6FE4999","title":"华东师范大学地理馆","lon":"121.40394399","lat":"31.22660997","category":"500","category_name":"未知分类","address":"上海闵行区中山北路3663号华东师范大学中山北路校区"},{"poiid":"B2094757D569A3FE4292","title":"华师大东北烧烤","lon":"121.402195","lat":"31.22788694","category":"68","category_name":"快餐厅","address":"普陀区枣阳路586号小吃广场(近华师大后门)"},{"poiid":"B2094757D464A7FC439C","title":"新疆买买提餐厅","lon":"121.40410692486","lat":"31.231780290088","category":"90","category_name":"清真餐馆","address":"普陀区金沙江路200号(近枣阳路)"},{"poiid":"B2094752D264A0F9449E","title":"鹿港小镇","lon":"121.409491","lat":"31.226715","category":"247","category_name":"餐饮美食","address":"龙之梦七楼黄中庭"},{"poiid":"B2094757D168AAFE409F","title":"华东师范大学公共管理学院","lon":"121.40697991","lat":"31.226781703","category":"500","category_name":"未知分类","address":"上海市普陀区金沙江路"},{"poiid":"B2094655D26AA0FF4699","title":"华师大羽毛球馆","lon":"121.40457","lat":"31.22918","category":"247","category_name":"餐饮美食","address":"普陀区中山北路3663号华东师范大学正门(近金沙江路)"},{"poiid":"B2094655D26AA2F54992","title":"河西食堂","lon":"121.40457","lat":"31.22918","category":"247","category_name":"餐饮美食","address":"普陀区中山北路3663号华东师范大学内(近金沙江路)"},{"poiid":"B2094757D169A0F44898","title":"manna韩国料理","lon":"121.40461288","lat":"31.227520078","category":"247","category_name":"餐饮美食","address":"上海华东师范大学丽娃餐厅二楼"},{"poiid":"B2094757D16DA3FA499F","title":"华东师范大学 四舍","lon":"121.40433502","lat":"31.228563308","category":"253","category_name":"校园生活","address":"上海华东师范大学（中山北路校区）内"},{"poiid":"B2094750DA6EA6F8419D","title":"华师大","lon":"121.404617","lat":"31.228387","category":"500","category_name":"未知分类","address":null},{"poiid":"B2094757D569A2FE4793","title":"丽娃餐厅","lon":"121.4045789","lat":"31.22918806","category":"257","category_name":"中餐厅","address":"普陀区中山北路3663号华东师范大学内(近金沙江路)"},{"poiid":"B2094757D568A5FB4492","title":"华师大正门烧烤","lon":"121.4045789","lat":"31.22918806","category":"68","category_name":"快餐厅","address":"普陀区中山北路3663号华师大正门对面(近金沙江路)"},{"poiid":"B2094750DB6AA6FD4892","title":"红薯娃地瓜坊","lon":"121.40599","lat":"31.22814","category":"68","category_name":"快餐厅","address":"普陀区中山北路3724号(华东师范大学正门对面)"},{"poiid":"B2094757D06BAAF5479D","title":"华东师范大学六舍","lon":"121.40353958","lat":"31.228505397","category":"253","category_name":"校园生活","address":"上海市普陀区枣阳路"},{"poiid":"B2094654DB65A7F4449C","title":"MAN NA 韩国餐厅","lon":"121.40457","lat":"31.22918","category":"96","category_name":"韩国料理","address":"普陀区中山北路3663号华东师范大学丽娃餐厅2楼(近金沙江路)"},{"poiid":"B2094757D169AAFD459E","title":"华师大十六舍","lon":"121.404676886","lat":"31.2275794792","category":"253","category_name":"校园生活","address":"上海中山北路3663号"},{"poiid":"B2094655D264A0F4459C","title":"华师大侧门海鲜烧烤","lon":"121.40458","lat":"31.22919","category":"87","category_name":"特色／地方风味餐厅","address":"中山北路3663号华东师范大学侧门口"},{"poiid":"B2094757D16DA6F4459A","title":"华师大操场","lon":"121.406769586","lat":"31.2283993952","category":"500","category_name":"未知分类","address":"上海华师大"},{"poiid":"B2094757D164A1F5469F","title":"华东师范大学MBA中心","lon":"121.404575","lat":"31.229185","category":"500","category_name":"未知分类","address":"上海中山北路3663号"},{"poiid":"B2094757D06AA5FB419F","title":"华东师范大学 七舍","lon":"121.404336","lat":"31.228564","category":"253","category_name":"校园生活","address":"上海华东师范大学 (中山北路校区)内"},{"poiid":"B2094757D46FA1F94399","title":"小针食堂","lon":"121.404575","lat":"31.229185","category":"71","category_name":"四川菜","address":"普陀区中山北路3663号华东师范大学秋林阁华菁园内(近长风公园2号门)"},{"poiid":"B2094757D06BA2FE469D","title":"华东师大田家柄书院","lon":"121.40702388","lat":"31.230276882","category":"500","category_name":"未知分类","address":"上海金沙江路侧门"},{"poiid":"B2094757DA69A3FA409E","title":"上海长风海洋世界","lon":"121.40177","lat":"31.22927","category":"196","category_name":"公园","address":"枣阳路路525号"},{"poiid":"B2094757D064A6FA429B","title":"华师大图书馆逸夫楼","lon":"121.40302953","lat":"31.229295887","category":"181","category_name":"图书馆","address":"上海华师大"},{"poiid":"B2094757D065A1FA4193","title":"华东师范大学数学馆","lon":"121.40504616","lat":"31.22680922","category":"253","category_name":"校园生活","address":"上海闵行区中山北路3663号华东师范大学中山北路校区"},{"poiid":"B2094757D06BA0FE419B","title":"华东师范大学 计算机楼","lon":"121.404576","lat":"31.229185","category":"253","category_name":"校园生活","address":"上海闵行区中山北路3663号华东师范大学中山北路校区"},{"poiid":"B209475CD368ABF84193","title":"依桑泰国厨房  ISAN CUISINE","lon":"121.40676559","lat":"31.22817698","category":"99","category_name":"泰国／越南菜品餐厅","address":"凯旋北路1758号近华师大"},{"poiid":"B2094655D26EA6F84798","title":"银湖轩酒家","lon":"121.401963054","lat":"31.226290793","category":"76","category_name":"上海菜","address":"普陀区枣阳路510号长风公园内(近华师大后门)"},{"poiid":"B2094753D26AAAFA449D","title":"中山公园龙之梦","lon":"121.407778","lat":"31.230798","category":"500","category_name":"未知分类","address":"上海市 中山公园"},{"poiid":"B2094757D06BA7FE479C","title":"刘记大蚝门海鲜烧烤","lon":"121.40144858","lat":"31.228079389","category":"247","category_name":"餐饮美食","address":"普陀区枣阳路450号门口华师大后门附近(近金沙江路)"},{"poiid":"B2094757D169A3FB4293","title":"华东师范大学文史楼211","lon":"121.404204486","lat":"31.2284013953","category":"500","category_name":"未知分类","address":"上海中山北路3663号"},{"poiid":"B2094751D56EA1F44399","title":"Times Cafe(中山北路店)","lon":"121.40632","lat":"31.23029","category":"247","category_name":"餐饮美食","address":"普陀区中山北路3663号华东师范大学大学生活动中心1楼"},{"poiid":"B2094753D46AA3FD429B","title":"环球港","lon":"121.407806","lat":"31.230613","category":"500","category_name":"未知分类","address":"上海市 普陀区金沙江路地铁站6号口"},{"poiid":"B2094655D26FA3FA449F","title":"华东师范大学游泳池","lon":"121.40457","lat":"31.22918","category":"231","category_name":"游泳馆","address":"上海闵行区中山北路3663号华东师范大学中山北路校区"},{"poiid":"B2094757D065A1FB4798","title":"华师大秋林阁","lon":"121.40335669","lat":"31.23014879","category":"247","category_name":"餐饮美食","address":"上海华师大河西食堂三楼秋林阁"},{"poiid":"B2094757D569A3FC469F","title":"生命科学学院","lon":"121.40389","lat":"31.226538","category":"52","category_name":"高等院校","address":"中国上海市普陀区"},{"poiid":"B2094655D26CAAF84392","title":"华东师范大学教育部中学校长培训中心","lon":"121.40686","lat":"31.22622","category":"52","category_name":"高等院校","address":""},{"poiid":"B2094757D068A7FD429C","title":"川香麻辣烫火锅店","lon":"121.40612","lat":"31.23176","category":"86","category_name":"火锅店","address":"上海普陀区金沙江路168号(华东师大侧门对面)  "},{"poiid":"B2094757D06BA0F44993","title":"张葭葭安眠觉前","lon":"121.40462208","lat":"31.227533178","category":"500","category_name":"未知分类","address":"上海145"},{"poiid":"B2094655D26AA3F8459A","title":"狂羽羽毛球活动培训俱乐部","lon":"121.40457","lat":"31.22918","category":"247","category_name":"餐饮美食","address":"普陀区中山北路3663号华东师范大学大学生活动中心(近金沙江路)"},{"poiid":"B2094655D26AA3FC429A","title":"华东师范大学勤工助学管理中心家教部","lon":"121.40457","lat":"31.22918","category":"247","category_name":"餐饮美食","address":"普陀区中山北路3663号大学生活动中心315室(近金沙江路)"},{"poiid":"B2094757D568A1F4449A","title":"华师大蚵仔煎摊","lon":"121.4021119","lat":"31.229195","category":"68","category_name":"快餐厅","address":"普陀区枣阳路486号华师大后门(近华师大后门)"},{"poiid":"B2094655D26DA3F5479C","title":"华东师范大学校医院","lon":"121.40636","lat":"31.22961","category":"162","category_name":"医院","address":"上海闵行区中山北路3663号华东师范大学中山北路校区"},{"poiid":"B2094757D16EABFA459D","title":"川香麻辣火锅","lon":"121.406167","lat":"31.23191","category":"247","category_name":"餐饮美食","address":"普陀区杨柳青路3号(金沙江路口)"},{"poiid":"B2094655D26DA2FA479D","title":"金香烧烤店","lon":"121.40229","lat":"31.22889","category":"68","category_name":"快餐厅","address":"普陀区枣阳路498号(近华师大后门)"},{"poiid":"B2094757D165A4FA4293","title":"朝鲜风味东北菜","lon":"121.40504668","lat":"31.229474616","category":"247","category_name":"餐饮美食","address":"上海枣阳路405号"},{"poiid":"B2094757D165A7FB409E","title":"华东师范大学timescafe","lon":"121.402372186","lat":"31.2298301232","category":"500","category_name":"未知分类","address":"中山北路3663号华东师范大学大学生活动中心1楼"},{"poiid":"B2094654D56BA4FB449E","title":"长风一村小区","lon":"121.40317","lat":"31.2312","category":"47","category_name":"住宅区","address":"金沙江路361号"},{"poiid":"B2094757D16EA5F8449E","title":"烤肉达人","lon":"121.40544655","lat":"31.229053158","category":"500","category_name":"未知分类","address":"上海96广场"},{"poiid":"B2094757D069A7FD4799","title":"姐妹川菜馆","lon":"121.40226","lat":"31.22965","category":"71","category_name":"四川菜","address":"普陀区枣阳路446号(近华师大后门)"},{"poiid":"B2094750D76EA0F8489A","title":"西北狼烧烤","lon":"121.402","lat":"31.2289","category":"68","category_name":"快餐厅","address":"普陀区枣阳路510号长风公园2号门出口处"},{"poiid":"B2094757D06AA6FA479E","title":"冰火工房(枣阳店)","lon":"121.40232","lat":"31.22945","category":"68","category_name":"快餐厅","address":"普陀区枣阳路452号(近金沙江路)"},{"poiid":"B2094757D164ABFF459D","title":"华师大逸夫楼报告厅","lon":"121.404065586","lat":"31.2254923384","category":"500","category_name":"未知分类","address":"上海市普陀区怒江路"},{"poiid":"B2094757D568A4FB4599","title":"学府书局华东师大书店","lon":"121.4045789","lat":"31.22918806","category":"125","category_name":"书店","address":"普陀区中山北路3663号华东师范大学内(近金沙江路)"},{"poiid":"B2094757D064AAFE459E","title":"华东师范大学外语楼","lon":"121.40743916","lat":"31.226627837","category":"253","category_name":"校园生活","address":"上海中北先锋路大夏路"},{"poiid":"B2094757D568ABF9429F","title":"冠龙家园","lon":"121.408326","lat":"31.228408","category":"47","category_name":"住宅区","address":"上海市普陀区枣阳路891弄"},{"poiid":"B2094757D16AA2FB499E","title":"华师大文史楼215","lon":"121.40894058","lat":"31.228516397","category":"500","category_name":"未知分类","address":"上海中山北路3363号"},{"poiid":"B2094654DB6AA2FB449C","title":"华东师大心理咨询工作室","lon":"121.40457","lat":"31.22918","category":"263","category_name":"公司","address":"中山北路3663号"},{"poiid":"B2094655D26EA3FD499D","title":"牛家拉面","lon":"121.409642054","lat":"31.228799793","category":"95","category_name":"日本料理","address":"普陀区中山北路3662号(近金沙江路)"},{"poiid":"B2094654DB6AA3F8469C","title":"马新文拉面店 枣阳路店","lon":"121.40229332038","lat":"31.228339399713","category":"68","category_name":"快餐厅","address":"普陀区枣阳路486号华师大后门(近华师大后门)"},{"poiid":"B2094750D76DABFC429B","title":"蜀味香锅牛蛙","lon":"121.402","lat":"31.2293","category":"71","category_name":"四川菜","address":"普陀区枣阳路511号(近长风公园2号门)"},{"poiid":"B2094655D26AABFF419B","title":"巴贝隆自助烤肉 枣阳路店","lon":"121.402138054","lat":"31.230429793","category":"268","category_name":"自助","address":"普陀区枣阳路428号(近华师大后门)"},{"poiid":"B2094752D76EA5FC4792","title":"华东师范大学文科大楼","lon":"121.404617","lat":"31.225743","category":"253","category_name":"校园生活","address":"上海市普陀区中山北路"},{"poiid":"B2094655D264A5F5499B","title":"闻湘园","lon":"121.40211","lat":"31.2292","category":"77","category_name":"湖南菜","address":"普陀区枣阳路486号华师大后门附近(近华师大后门)"},{"poiid":"B2094655D265A5F84298","title":"华东师大美术馆","lon":"121.40595","lat":"31.23061","category":"184","category_name":"美术馆","address":"长风新村"},{"poiid":"B2094757D168A3FA499C","title":"华东师范大学枣阳路校门","lon":"121.403588586","lat":"31.2298434235","category":"500","category_name":"未知分类","address":"上海市枣阳路460号"},{"poiid":"B2094750D768A7F54093","title":"巧果工坊(枣阳路店)","lon":"121.402","lat":"31.2295","category":"113","category_name":"冷饮店","address":"普陀区枣阳路(近金沙江路)"},{"poiid":"B2094757D065A2FE409B","title":"华东师范大学 新四教室","lon":"121.40344243","lat":"31.22457398","category":"253","category_name":"校园生活","address":"上海中山北路校区"},{"poiid":"B2094757D064A0FF499F","title":"虫二花坊华师大","lon":"121.407411086","lat":"31.2265347587","category":"500","category_name":"未知分类","address":"上海中山北路3663号华东师范大学八舍楼下"},{"poiid":"B2094757D16BA2F8419C","title":"继光初级中学","lon":"121.40859358","lat":"31.226809364","category":"55","category_name":"中学","address":"上海市虹口区高阳路640号"},{"poiid":"B2094750DA6EA4FE4893","title":"华东师范大学第八宿舍","lon":"121.407485","lat":"31.229007","category":"253","category_name":"校园生活","address":"中山北路3663号华东师范大学"},{"poiid":"B2094757D06AA7FD459B","title":"765公交","lon":"121.4058302","lat":"31.22952624","category":"500","category_name":"未知分类","address":"上海沿线"},{"poiid":"B2094750D56FA5FA4493","title":"华师大三舍","lon":"121.402992","lat":"31.228214","category":"253","category_name":"校园生活","address":"中山北路3663号第三宿舍"},{"poiid":"B2094757D16DA6F54193","title":"华师大文附楼118","lon":"121.40865158","lat":"31.227020368","category":"500","category_name":"未知分类","address":"上海中山北路3363号"},{"poiid":"B2094757D16AABFE4299","title":"华师大文史楼201","lon":"121.40374208","lat":"31.230552937","category":"500","category_name":"未知分类","address":"上海中山北路3663号"},{"poiid":"B2094751D364ABF54193","title":"大连理工大学城市学院","lon":"121.4028002","lat":"31.2305496","category":"671","category_name":"高校中心点","address":null},{"poiid":"B2094750D768A4FA4092","title":"高氏海鲜烧烤摊","lon":"121.402","lat":"31.2298","category":"68","category_name":"快餐厅","address":"普陀区枣阳路483号(近金沙江路)"},{"poiid":"B2094757D069A3FE4899","title":"好又多(华师大店)","lon":"121.409785","lat":"31.227427","category":"118","category_name":"超级市场","address":"上海普陀区中山北路3667号(近金沙江路)"},{"poiid":"B2094757DA65A3FB419B","title":"华东师大一村","lon":"121.4056015","lat":"31.22575091999999","category":"627","category_name":"一般地点标志","address":"中山北路3671弄"},{"poiid":"B2094654D56BA4FB4498","title":"云锦美发美容护理中心","lon":"121.40474","lat":"31.23179","category":"148","category_name":"美容美发店","address":"普陀区金沙江路(近长风一村)"},{"poiid":"B2094655D265A4FA449B","title":"区域科学与地理计算研究中心","lon":"121.40389","lat":"31.22659","category":"191","category_name":"科研机构","address":"长风新村"},{"poiid":"B2094757D068A0FC499F","title":"全家便利(枣阳路店)","lon":"121.402254","lat":"31.229801","category":"117","category_name":"便民商店/便利店","address":"上海普陀区枣阳路390号靠近华东师范大学后门"},{"poiid":"B2094655D26CAAFA4398","title":"华东师苑大学国家大学科技园高新技术孵化园","lon":"121.40551","lat":"31.23167","category":"45","category_name":"产业园区","address":"金沙江路155"},{"poiid":"B2094655D265A1FC4398","title":"可的超市(华师大店)","lon":"121.40223","lat":"31.2293","category":"117","category_name":"便民商店/便利店","address":"枣阳路480号"},{"poiid":"B2094757D069ABFC419C","title":"94路长风公园站","lon":"121.40178","lat":"31.229271","category":"196","category_name":"公园","address":"上海金沙江路枣阳路"},{"poiid":"B2094757D66DA6FF4893","title":"华东师范大学乒乓房","lon":"121.40697049","lat":"31.229542127","category":"500","category_name":"未知分类","address":"上海中山北路3663号华师大大学生活动中心底楼"},{"poiid":"B2094655D264A7F4429D","title":"河口海岸科学研究院","lon":"121.40448","lat":"31.22584","category":"191","category_name":"科研机构","address":"长风新村"},{"poiid":"B2094757D66EA5FD439E","title":"华师大科技园","lon":"121.40506958","lat":"31.231434454","category":"500","category_name":"未知分类","address":"上海普陀区金沙江路115号"},{"poiid":"B2094752D668ABFF4893","title":"绿茶餐厅虹口龙之梦店","lon":"121.40773","lat":"31.229385","category":"500","category_name":"未知分类","address":null},{"poiid":"B2094655D265A6FE4598","title":"韩国乐热棒炒年糕专卖店枣阳路店","lon":"121.40211","lat":"31.2292","category":"112","category_name":"糕饼店","address":"枣阳路486号华师大后门附近"},{"poiid":"B2094654D56BA4F9489B","title":"普陀区华盛小吃店","lon":"121.40224","lat":"31.22921","category":"90","category_name":"清真餐馆","address":""},{"poiid":"B2094655D26CAAFD4799","title":"图门风味烧烤","lon":"121.40212","lat":"31.22992","category":"87","category_name":"特色／地方风味餐厅","address":""},{"poiid":"B2094752DA6BA4F54892","title":"长风公园","lon":"121.404677","lat":"31.230704","category":"196","category_name":"公园","address":"上海市 枣阳路"},{"poiid":"B2094654D56BA4FA4998","title":"金沙江小区","lon":"121.40841","lat":"31.23085","category":"47","category_name":"住宅区","address":"金沙江路65弄1-36号"},{"poiid":"B2094654D56BA4F54492","title":"尚旗避风塘","lon":"121.40178","lat":"31.22966","category":"111","category_name":"休闲餐饮场所","address":"长风新村"},{"poiid":"B2094655D264A6F9419F","title":"快客师大店","lon":"121.40896","lat":"31.22573","category":"117","category_name":"便民商店/便利店","address":"长风新村"},{"poiid":"B2094655D26BA5FE419A","title":"华东师范大学新材料研究中心","lon":"121.40478","lat":"31.22554","category":"191","category_name":"科研机构","address":"长风新村"},{"poiid":"B2094757D069A6FE4792","title":"哆啦の小寝室","lon":"121.404203324","lat":"31.2290119947","category":"260","category_name":"其他","address":"上海华东师大六舍"},{"poiid":"B2094655D264A7F84893","title":"阳松芳米皮","lon":"121.40572","lat":"31.23196","category":"257","category_name":"中餐厅","address":"普陀区金沙江路89号(华师大侧门对面)"},{"poiid":"B2094757D16FABFA449D","title":"沃尔玛(中山北路店)","lon":"121.40952933","lat":"31.228078488","category":"500","category_name":"未知分类","address":"普陀区中山北路3667号(近金沙江路)"},{"poiid":"B2094757D569A3FE419D","title":"国际中国文化学院","lon":"121.405547","lat":"31.223922","category":"52","category_name":"高等院校","address":"中国上海市普陀区"},{"poiid":"B2094757D469A3F54793","title":"巴麦隆烤肉 华师大店","lon":"121.402115054","lat":"31.230468793","category":"268","category_name":"自助","address":"枣阳路428号近金沙江路"},{"poiid":"B2094655D26EA5FA499C","title":"桔乡楼","lon":"121.40197","lat":"31.23017","category":"46","category_name":"楼宇","address":"普陀区枣阳路438号"},{"poiid":"B2094757D16EA7FB449A","title":"喜士多","lon":"121.402252197","lat":"31.2297973633","category":"117","category_name":"便民商店/便利店","address":"普陀区中山北路3680号(近光新路)"},{"poiid":"B2094655D26AA6FC409D","title":"长旗网吧","lon":"121.40176","lat":"31.22974","category":"247","category_name":"餐饮美食","address":"普陀区枣阳路485号2楼(近华师大后门)"},{"poiid":"B2094757D06AABF9469D","title":"Captain Tattoo","lon":"121.40763558","lat":"31.228767802","category":"260","category_name":"其他","address":"上海金沙江路长风一村4号104室近枣阳路"},{"poiid":"B2094753DB68ABFA4892","title":"宜家家居IKEA","lon":"121.403007","lat":"31.231201","category":"249","category_name":"购物服务","address":"上海市 上海市徐汇区漕溪路126号"},{"poiid":"B2094757D164A1F8419F","title":"华东师范大学 文史楼107","lon":"121.40748658","lat":"31.230741441","category":"500","category_name":"未知分类","address":"上海市普陀区金沙江路"},{"poiid":"B2094654D56BA4FB409E","title":"上海宏运口腔门诊部No.02","lon":"121.40778","lat":"31.23129","category":"162","category_name":"医院","address":"普陀区金沙江路95号"},{"poiid":"B2094655D26CAAFA4399","title":"长凤一村(北一门)","lon":"121.40434","lat":"31.23181","category":"47","category_name":"住宅区","address":""},{"poiid":"B2094757D06AA3FE4092","title":"华东师范大学对外汉语学院","lon":"121.40223693","lat":"31.229787826","category":"500","category_name":"未知分类","address":"上海普陀区中山北路3663号(近枣阳路)"},{"poiid":"B2094655D264A7FD489F","title":"脑功能基因组学研究所","lon":"121.40657","lat":"31.23042","category":"191","category_name":"科研机构","address":""},{"poiid":"B2094757D16AA7F9479A","title":"大师屋","lon":"121.402283586","lat":"31.2297514217","category":"500","category_name":"未知分类","address":"上海中山北路华东师范大学内部"},{"poiid":"B2094655D26BA1F4499E","title":"上海市普陀区社会福利院","lon":"121.40154","lat":"31.22929","category":"207","category_name":"度假疗养场所","address":"枣阳路515"},{"poiid":"B2094757D169A2FD4392","title":"名师风范新家园","lon":"121.40775","lat":"31.230406","category":"252","category_name":"楼宇机构","address":"上海普陀区金沙江路65弄(近中山北路)"},{"poiid":"B2094757D16EA3FA449E","title":"交通银行(威宁路支行)","lon":"121.402125061","lat":"31.2252995854","category":"150","category_name":"银行","address":"长宁区威宁路410号(天山路威宁路)"},{"poiid":"B2094757D169A1F4449A","title":"丽娃大厦","lon":"121.405339086","lat":"31.2238598064","category":"252","category_name":"楼宇机构","address":"上海华师大一村"},{"poiid":"B2094655D26BABF5419F","title":"长风网吧","lon":"121.40212","lat":"31.23008","category":"176","category_name":"网吧","address":"普陀区枣阳路450号(近华师大后门)"},{"poiid":"B2094757D16DA7F8469F","title":"永琪美容美发(云雾山路店)","lon":"121.40290958","lat":"31.224764824","category":"148","category_name":"美容美发店","address":"长宁区云雾山路120号(近娄山关路)"},{"poiid":"B2094757D164ABF94099","title":"华东师范大学学术交流中心 中山北路3663号","lon":"121.409472272","lat":"31.2292290725","category":"500","category_name":"未知分类","address":"上海中山北路3663号"},{"poiid":"B2094757D66FA3FA489F","title":"御家碧玺","lon":"121.401909586","lat":"31.2297754221","category":"500","category_name":"未知分类","address":"上海飞洲国际"},{"poiid":"B2094654D56BA4FB4093","title":"附点琴行","lon":"121.40724","lat":"31.23136","category":"255","category_name":"专卖店","address":"普陀区金沙江路99号(近中山西路)"},{"poiid":"B2094757D164ABF94098","title":"长风桌球","lon":"121.40229028","lat":"31.229771722","category":"248","category_name":"生活娱乐","address":"上海枣阳路485号"},{"poiid":"B2094757D169A3FF4098","title":"华师大田家炳小画室","lon":"121.407125586","lat":"31.2313654532","category":"500","category_name":"未知分类","address":null},{"poiid":"B2094757D068A1FE419A","title":"格子控(长风店)","lon":"121.40203","lat":"31.229884902","category":"249","category_name":"购物服务","address":"上海枣阳路450号"},{"poiid":"B2094757D16DAAFC4298","title":"多金多(我格广场)","lon":"121.404754153","lat":"31.2317207935","category":"500","category_name":"未知分类","address":"上海武宁南路"},{"poiid":"B2094757D16CA7FE419D","title":"829东体育会路终点站","lon":"121.406124386","lat":"31.2235026994","category":"500","category_name":"未知分类","address":"上海东体育会路甘河路"},{"poiid":"B2094757D165ABFC469A","title":"华联商厦","lon":"121.40719","lat":"31.231378","category":"500","category_name":"未知分类","address":"上海南京东路348号"},{"poiid":"B2094655D265A5F4489F","title":"长风三村(东门)","lon":"121.40182","lat":"31.23","category":"656","category_name":"大门","address":"枣阳路465弄1-82号"},{"poiid":"B2094655D26CAAFB419E","title":"金沙江小区(北三门)","lon":"121.40699","lat":"31.2314","category":"656","category_name":"大门","address":""}]