[{"poiid":"B2094750DA6BA1FB499F","title":"轨交22号线金山卫站","lon":"121.362525","lat":"30.728115","category":"500","category_name":"未知分类","address":null},{"poiid":"B2094654DB69A2F5439A","title":"海鸥大厦","lon":"121.35182","lat":"30.72937","category":"268","category_name":"自助","address":"近郊金山区龙胜路58号(近战斗港路)"},{"poiid":"B2094757D168AAF9419E","title":"金山嘴","lon":"121.37316467","lat":"30.728571241","category":"500","category_name":"未知分类","address":"上海市金山区亭卫南路"},{"poiid":"B2094655D268A6FA459A","title":"金山城市沙滩(北一门)","lon":"121.3511","lat":"30.71108","category":"680","category_name":"楼宇机构","address":""},{"poiid":"B2094655D265ABF84893","title":"华府海景","lon":"121.358607","lat":"30.719758","category":"47","category_name":"住宅区","address":"金山区杭州湾大道118弄"},{"poiid":"B2094757D665ABF8459F","title":"哈根达斯 百联金山店 Haagen-Dazs","lon":"121.35021","lat":"30.73057","category":"67","category_name":"甜品店","address":"近郊金山区卫清西路168弄99号百联金山购物中心B105商铺(近松卫南路)"},{"poiid":"B2094757D16CA5FB4292","title":"金海岸花园","lon":"121.3567","lat":"30.72822","category":"47","category_name":"住宅区","address":"上海市金山区龙胜东路789弄"},{"poiid":"B2094750DA6AABF94999","title":"金山卫火车站","lon":"121.363502","lat":"30.723863","category":"500","category_name":"未知分类","address":"近郊金山沪杭公路"},{"poiid":"B2094757DA65A3F54998","title":"上海金山嘴渔村","lon":"121.3713456639883","lat":"30.7348745679435","category":"247","category_name":"餐饮美食","address":"近郊金山金山嘴"},{"poiid":"B2094750DA6BA2F8489D","title":"金山卫站","lon":"121.364761","lat":"30.728303","category":"251","category_name":"出行住宿","address":null},{"poiid":"B2094655D264A7FE4299","title":"金山豪庭","lon":"121.35342","lat":"30.734066","category":"47","category_name":"住宅区","address":"上海市金山区卫清东路2988弄"},{"poiid":"B2094655D268A2FC429B","title":"金天地花园","lon":"121.350925","lat":"30.731236","category":"47","category_name":"住宅区","address":"金山卫清西路88号"},{"poiid":"B2094757D464A0FA4498","title":"永乐大酒店中餐厅","lon":"121.363688054","lat":"30.720214793","category":"76","category_name":"上海菜","address":"近郊金山区沪杭公路6472号(隆安路蒙山路)"},{"poiid":"B2094654DB68AAF5459C","title":"海上明珠园","lon":"121.36434127954","lat":"30.728491049111","category":"47","category_name":"住宅区","address":"金山区隆安东路186弄"},{"poiid":"B2094757D16FAAFB4793","title":"三岛海鲜城","lon":"121.3694225","lat":"30.7284768","category":"260","category_name":"其他","address":"近郊金山区亭卫南路88弄8号(近金山嘴海鲜城)"},{"poiid":"B2094757D065A4FD429F","title":"金海岸酒家","lon":"121.37138697","lat":"30.728765495","category":"88","category_name":"海鲜酒楼","address":"近郊金山区金山嘴海鲜一条街"},{"poiid":"B2094654DB69A3FC4298","title":"山鑫康城1号门","lon":"121.35961","lat":"30.7298","category":"47","category_name":"住宅区","address":"金山区山阳镇卫阳南路118弄"},{"poiid":"B2094757D065AAFD4793","title":"世安海昇大酒店","lon":"121.357524","lat":"30.721257","category":"217","category_name":"旅馆招待所","address":"近郊金山区杭州湾大道128号"},{"poiid":"B2094655D265A5FF429F","title":"上海波曼大酒店","lon":"121.34923","lat":"30.72995","category":"250","category_name":"公园户外","address":"近郊金山区卫清路179号(近金山城市沙滩)"},{"poiid":"B2094655D268A6FD469B","title":"福宴海鲜大酒楼","lon":"121.35036","lat":"30.73032","category":"75","category_name":"浙江菜","address":"近郊金山区卫清西路139号"},{"poiid":"B2094757D664A2F44993","title":"韩林炭烤 （百联金山店）","lon":"121.35021","lat":"30.73057","category":"96","category_name":"韩国料理","address":"卫清西路168弄99号百联金山购物中心2楼近松卫南路"},{"poiid":"B2094655D268A6FA449A","title":"莫泰168金山卫清店","lon":"121.35103","lat":"30.73007","category":"216","category_name":"经济型连锁酒店","address":"近郊金山区卫清西路55号"},{"poiid":"B2094751DB64ABFC4193","title":"金汕码头","lon":"121.36953","lat":"30.72864","category":"72","category_name":"广东菜","address":"近郊金山区亭卫南路88号(近沪杭公路)"},{"poiid":"B2094655D36CA0FE449F","title":"金山嘴","lon":"121.37486","lat":"30.73082","category":"38","category_name":"公交车站","address":""},{"poiid":"B2094757D465A2F54493","title":"天桥酒店","lon":"121.374511054","lat":"30.728685793","category":"88","category_name":"海鲜酒楼","address":"近郊金山区沪航公路6412号(近金山嘴海鲜一条街)"},{"poiid":"B2094655D36CA7FA4892","title":"海浒新村","lon":"121.3542","lat":"30.720472","category":"38","category_name":"公交车站","address":"海浒新村"},{"poiid":"B2094753D569ABFC4492","title":"元悦精菜馆","lon":"121.358741","lat":"30.72002","category":"247","category_name":"餐饮美食","address":"上海市 杭州湾大道108号"},{"poiid":"B2094655D36CA7FA469E","title":"杭州湾大道","lon":"121.37448","lat":"30.73038","category":"38","category_name":"公交车站","address":""},{"poiid":"B2094757D165A3FD429C","title":"鑫潮海鲜馆","lon":"121.37401283","lat":"30.729757239","category":"247","category_name":"餐饮美食","address":"近郊金山区金山嘴海鲜一条街6480号"},{"poiid":"B209475CD36BA4FB419D","title":"元悦精菜馆","lon":"121.35779","lat":"30.72082","category":"75","category_name":"浙江菜","address":"金山区杭州湾大道108号(近华府海景广场)"},{"poiid":"B2094757DB6FA0FF4698","title":"轨道交通22号线金山新城枢纽站北进站口","lon":"121.3553131118404","lat":"30.72819469389595","category":"627","category_name":"一般地点标志","address":"金山区"},{"poiid":"B2094654DB69A3FC419B","title":"金山嘴大酒店","lon":"121.37442","lat":"30.73061","category":"76","category_name":"上海菜","address":"近郊金山区沪杭公路6468号海鲜一条街(近亭卫南路)"},{"poiid":"B2094752D365A3F54099","title":"元悦精菜馆","lon":"121.355991","lat":"30.720482","category":"247","category_name":"餐饮美食","address":null},{"poiid":"B209475CD26BA4FA469C","title":"城市沙滩","lon":"121.358734","lat":"30.720972","category":"500","category_name":"未知分类","address":"上海市 金山"},{"poiid":"B2094757D065A4F4429C","title":"鹤亭つるていTSURUTEL","lon":"121.35239337","lat":"30.720572026","category":"500","category_name":"未知分类","address":"上海金山百联3楼"},{"poiid":"B2094757D16CA1FB479A","title":"绍兴饭店(金山店)","lon":"121.35744717","lat":"30.720920072","category":"247","category_name":"餐饮美食","address":"漕泾镇杭州湾大道128号世安海昇酒店2-3楼近沪杭公路"},{"poiid":"B2094654DB69A1FC449B","title":"爱丁堡大酒店","lon":"121.34866","lat":"30.72608","category":"250","category_name":"公园户外","address":"上海市石化龙胜路127-129号(近蒙山路)"},{"poiid":"B2094757D168A2F94093","title":"新金山嘴大酒店(金山嘴海鲜一条街)","lon":"121.367648671","lat":"30.7354013921","category":"88","category_name":"海鲜酒楼","address":"上海市金山区金山嘴沪杭公路"},{"poiid":"B2094757D66EA6F54392","title":"金山海鸥大酒店","lon":"121.350602974","lat":"30.7294024417","category":"76","category_name":"上海菜","address":"上海金山区龙胜路58号"},{"poiid":"B2094757D16CA5F5499C","title":"上海师范大学第二附属中学","lon":"121.351709","lat":"30.719266","category":"55","category_name":"中学","address":"近郊金山卫城区隆安路48号(近临潮街)"},{"poiid":"B2094654DB68AAF44598","title":"金山卫车客渡码头","lon":"121.35812","lat":"30.71783","category":"34","category_name":"港口码头","address":""},{"poiid":"B2094654DB69A3FC4198","title":"永乐大酒店","lon":"121.37422","lat":"30.73032","category":"250","category_name":"公园户外","address":"石化"},{"poiid":"B2094655D268A6FD4699","title":"九天银河大浴场","lon":"121.35131","lat":"30.73035","category":"149","category_name":"洗浴推拿场所","address":"近郊金山区卫清西路55号(近杭州湾大道)"},{"poiid":"B2094750D665A7FE469F","title":"天天量贩式海鲜城","lon":"121.372","lat":"30.7297","category":"260","category_name":"其他","address":"近郊金山区亭卫南路88号金山嘴海鲜城(近沪杭公路)"},{"poiid":"B2094751D26EA7FD4092","title":"金山卫地铁站","lon":"121.372886","lat":"30.731716","category":"36","category_name":"地铁站","address":"金山"},{"poiid":"B2094654DB69A1FA409C","title":"鸿海大楼","lon":"121.357","lat":"30.717","category":"46","category_name":"楼宇","address":"鸿海大楼"},{"poiid":"B2094757D66EA4FB409C","title":"光辉小海鲜","lon":"121.37498","lat":"30.73047","category":"260","category_name":"其他","address":"近郊金山区沪杭公路6422号金山嘴海鲜一条街"},{"poiid":"B2094655D36CA6FF419B","title":"富川大楼","lon":"121.355","lat":"30.7213","category":"38","category_name":"公交车站","address":"金山区石化沪杭公路7855号"},{"poiid":"B2094654DB64A7F8439A","title":"露美美发厅","lon":"121.35651","lat":"30.71997","category":"148","category_name":"美容美发店","address":"隆安东路302识别"},{"poiid":"B209475CD46DA4FE4093","title":"城市沙滩","lon":"121.364196","lat":"30.731246","category":"500","category_name":"未知分类","address":"上海市 上海金山"},{"poiid":"B2094750DA6BA1FB499F","title":"轨交22号线金山卫站","lon":"121.362525","lat":"30.728115","category":"500","category_name":"未知分类","address":null},{"poiid":"B2094654DB69A2F5439A","title":"海鸥大厦","lon":"121.35182","lat":"30.72937","category":"268","category_name":"自助","address":"近郊金山区龙胜路58号(近战斗港路)"},{"poiid":"B2094757D168AAF9419E","title":"金山嘴","lon":"121.37316467","lat":"30.728571241","category":"500","category_name":"未知分类","address":"上海市金山区亭卫南路"},{"poiid":"B2094655D268A6FA459A","title":"金山城市沙滩(北一门)","lon":"121.3511","lat":"30.71108","category":"680","category_name":"楼宇机构","address":""},{"poiid":"B2094655D265ABF84893","title":"华府海景","lon":"121.358607","lat":"30.719758","category":"47","category_name":"住宅区","address":"金山区杭州湾大道118弄"},{"poiid":"B2094757D665ABF8459F","title":"哈根达斯 百联金山店 Haagen-Dazs","lon":"121.35021","lat":"30.73057","category":"67","category_name":"甜品店","address":"近郊金山区卫清西路168弄99号百联金山购物中心B105商铺(近松卫南路)"},{"poiid":"B2094757D16CA5FB4292","title":"金海岸花园","lon":"121.3567","lat":"30.72822","category":"47","category_name":"住宅区","address":"上海市金山区龙胜东路789弄"},{"poiid":"B2094750DA6AABF94999","title":"金山卫火车站","lon":"121.363502","lat":"30.723863","category":"500","category_name":"未知分类","address":"近郊金山沪杭公路"},{"poiid":"B2094757DA65A3F54998","title":"上海金山嘴渔村","lon":"121.3713456639883","lat":"30.7348745679435","category":"247","category_name":"餐饮美食","address":"近郊金山金山嘴"},{"poiid":"B2094750DA6BA2F8489D","title":"金山卫站","lon":"121.364761","lat":"30.728303","category":"251","category_name":"出行住宿","address":null},{"poiid":"B2094655D264A7FE4299","title":"金山豪庭","lon":"121.35342","lat":"30.734066","category":"47","category_name":"住宅区","address":"上海市金山区卫清东路2988弄"},{"poiid":"B2094655D268A2FC429B","title":"金天地花园","lon":"121.350925","lat":"30.731236","category":"47","category_name":"住宅区","address":"金山卫清西路88号"},{"poiid":"B2094757D464A0FA4498","title":"永乐大酒店中餐厅","lon":"121.363688054","lat":"30.720214793","category":"76","category_name":"上海菜","address":"近郊金山区沪杭公路6472号(隆安路蒙山路)"},{"poiid":"B2094654DB68AAF5459C","title":"海上明珠园","lon":"121.36434127954","lat":"30.728491049111","category":"47","category_name":"住宅区","address":"金山区隆安东路186弄"},{"poiid":"B2094757D16FAAFB4793","title":"三岛海鲜城","lon":"121.3694225","lat":"30.7284768","category":"260","category_name":"其他","address":"近郊金山区亭卫南路88弄8号(近金山嘴海鲜城)"},{"poiid":"B2094757D065A4FD429F","title":"金海岸酒家","lon":"121.37138697","lat":"30.728765495","category":"88","category_name":"海鲜酒楼","address":"近郊金山区金山嘴海鲜一条街"},{"poiid":"B2094654DB69A3FC4298","title":"山鑫康城1号门","lon":"121.35961","lat":"30.7298","category":"47","category_name":"住宅区","address":"金山区山阳镇卫阳南路118弄"},{"poiid":"B2094757D065AAFD4793","title":"世安海昇大酒店","lon":"121.357524","lat":"30.721257","category":"217","category_name":"旅馆招待所","address":"近郊金山区杭州湾大道128号"},{"poiid":"B2094655D265A5FF429F","title":"上海波曼大酒店","lon":"121.34923","lat":"30.72995","category":"250","category_name":"公园户外","address":"近郊金山区卫清路179号(近金山城市沙滩)"},{"poiid":"B2094655D268A6FD469B","title":"福宴海鲜大酒楼","lon":"121.35036","lat":"30.73032","category":"75","category_name":"浙江菜","address":"近郊金山区卫清西路139号"},{"poiid":"B2094757D664A2F44993","title":"韩林炭烤 （百联金山店）","lon":"121.35021","lat":"30.73057","category":"96","category_name":"韩国料理","address":"卫清西路168弄99号百联金山购物中心2楼近松卫南路"},{"poiid":"B2094655D268A6FA449A","title":"莫泰168金山卫清店","lon":"121.35103","lat":"30.73007","category":"216","category_name":"经济型连锁酒店","address":"近郊金山区卫清西路55号"},{"poiid":"B2094751DB64ABFC4193","title":"金汕码头","lon":"121.36953","lat":"30.72864","category":"72","category_name":"广东菜","address":"近郊金山区亭卫南路88号(近沪杭公路)"},{"poiid":"B2094655D36CA0FE449F","title":"金山嘴","lon":"121.37486","lat":"30.73082","category":"38","category_name":"公交车站","address":""},{"poiid":"B2094757D465A2F54493","title":"天桥酒店","lon":"121.374511054","lat":"30.728685793","category":"88","category_name":"海鲜酒楼","address":"近郊金山区沪航公路6412号(近金山嘴海鲜一条街)"},{"poiid":"B2094655D36CA7FA4892","title":"海浒新村","lon":"121.3542","lat":"30.720472","category":"38","category_name":"公交车站","address":"海浒新村"},{"poiid":"B2094753D569ABFC4492","title":"元悦精菜馆","lon":"121.358741","lat":"30.72002","category":"247","category_name":"餐饮美食","address":"上海市 杭州湾大道108号"},{"poiid":"B2094655D36CA7FA469E","title":"杭州湾大道","lon":"121.37448","lat":"30.73038","category":"38","category_name":"公交车站","address":""},{"poiid":"B2094757D165A3FD429C","title":"鑫潮海鲜馆","lon":"121.37401283","lat":"30.729757239","category":"247","category_name":"餐饮美食","address":"近郊金山区金山嘴海鲜一条街6480号"},{"poiid":"B209475CD36BA4FB419D","title":"元悦精菜馆","lon":"121.35779","lat":"30.72082","category":"75","category_name":"浙江菜","address":"金山区杭州湾大道108号(近华府海景广场)"},{"poiid":"B2094757DB6FA0FF4698","title":"轨道交通22号线金山新城枢纽站北进站口","lon":"121.3553131118404","lat":"30.72819469389595","category":"627","category_name":"一般地点标志","address":"金山区"},{"poiid":"B2094654DB69A3FC419B","title":"金山嘴大酒店","lon":"121.37442","lat":"30.73061","category":"76","category_name":"上海菜","address":"近郊金山区沪杭公路6468号海鲜一条街(近亭卫南路)"},{"poiid":"B2094752D365A3F54099","title":"元悦精菜馆","lon":"121.355991","lat":"30.720482","category":"247","category_name":"餐饮美食","address":null},{"poiid":"B209475CD26BA4FA469C","title":"城市沙滩","lon":"121.358734","lat":"30.720972","category":"500","category_name":"未知分类","address":"上海市 金山"},{"poiid":"B2094757D065A4F4429C","title":"鹤亭つるていTSURUTEL","lon":"121.35239337","lat":"30.720572026","category":"500","category_name":"未知分类","address":"上海金山百联3楼"},{"poiid":"B2094757D16CA1FB479A","title":"绍兴饭店(金山店)","lon":"121.35744717","lat":"30.720920072","category":"247","category_name":"餐饮美食","address":"漕泾镇杭州湾大道128号世安海昇酒店2-3楼近沪杭公路"},{"poiid":"B2094654DB69A1FC449B","title":"爱丁堡大酒店","lon":"121.34866","lat":"30.72608","category":"250","category_name":"公园户外","address":"上海市石化龙胜路127-129号(近蒙山路)"},{"poiid":"B2094757D168A2F94093","title":"新金山嘴大酒店(金山嘴海鲜一条街)","lon":"121.367648671","lat":"30.7354013921","category":"88","category_name":"海鲜酒楼","address":"上海市金山区金山嘴沪杭公路"},{"poiid":"B2094757D66EA6F54392","title":"金山海鸥大酒店","lon":"121.350602974","lat":"30.7294024417","category":"76","category_name":"上海菜","address":"上海金山区龙胜路58号"},{"poiid":"B2094757D16CA5F5499C","title":"上海师范大学第二附属中学","lon":"121.351709","lat":"30.719266","category":"55","category_name":"中学","address":"近郊金山卫城区隆安路48号(近临潮街)"},{"poiid":"B2094654DB68AAF44598","title":"金山卫车客渡码头","lon":"121.35812","lat":"30.71783","category":"34","category_name":"港口码头","address":""},{"poiid":"B2094654DB69A3FC4198","title":"永乐大酒店","lon":"121.37422","lat":"30.73032","category":"250","category_name":"公园户外","address":"石化"},{"poiid":"B2094655D268A6FD4699","title":"九天银河大浴场","lon":"121.35131","lat":"30.73035","category":"149","category_name":"洗浴推拿场所","address":"近郊金山区卫清西路55号(近杭州湾大道)"},{"poiid":"B2094750D665A7FE469F","title":"天天量贩式海鲜城","lon":"121.372","lat":"30.7297","category":"260","category_name":"其他","address":"近郊金山区亭卫南路88号金山嘴海鲜城(近沪杭公路)"},{"poiid":"B2094751D26EA7FD4092","title":"金山卫地铁站","lon":"121.372886","lat":"30.731716","category":"36","category_name":"地铁站","address":"金山"},{"poiid":"B2094654DB69A1FA409C","title":"鸿海大楼","lon":"121.357","lat":"30.717","category":"46","category_name":"楼宇","address":"鸿海大楼"},{"poiid":"B2094757D66EA4FB409C","title":"光辉小海鲜","lon":"121.37498","lat":"30.73047","category":"260","category_name":"其他","address":"近郊金山区沪杭公路6422号金山嘴海鲜一条街"},{"poiid":"B2094655D36CA6FF419B","title":"富川大楼","lon":"121.355","lat":"30.7213","category":"38","category_name":"公交车站","address":"金山区石化沪杭公路7855号"},{"poiid":"B2094654DB64A7F8439A","title":"露美美发厅","lon":"121.35651","lat":"30.71997","category":"148","category_name":"美容美发店","address":"隆安东路302识别"},{"poiid":"B209475CD46DA4FE4093","title":"城市沙滩","lon":"121.364196","lat":"30.731246","category":"500","category_name":"未知分类","address":"上海市 上海金山"},{"poiid":"B2094750DA6BA1FB499F","title":"轨交22号线金山卫站","lon":"121.362525","lat":"30.728115","category":"500","category_name":"未知分类","address":null},{"poiid":"B2094654DB69A2F5439A","title":"海鸥大厦","lon":"121.35182","lat":"30.72937","category":"268","category_name":"自助","address":"近郊金山区龙胜路58号(近战斗港路)"},{"poiid":"B2094757D168AAF9419E","title":"金山嘴","lon":"121.37316467","lat":"30.728571241","category":"500","category_name":"未知分类","address":"上海市金山区亭卫南路"},{"poiid":"B2094655D268A6FA459A","title":"金山城市沙滩(北一门)","lon":"121.3511","lat":"30.71108","category":"680","category_name":"楼宇机构","address":""},{"poiid":"B2094655D265ABF84893","title":"华府海景","lon":"121.358607","lat":"30.719758","category":"47","category_name":"住宅区","address":"金山区杭州湾大道118弄"},{"poiid":"B2094757D665ABF8459F","title":"哈根达斯 百联金山店 Haagen-Dazs","lon":"121.35021","lat":"30.73057","category":"67","category_name":"甜品店","address":"近郊金山区卫清西路168弄99号百联金山购物中心B105商铺(近松卫南路)"},{"poiid":"B2094757D16CA5FB4292","title":"金海岸花园","lon":"121.3567","lat":"30.72822","category":"47","category_name":"住宅区","address":"上海市金山区龙胜东路789弄"},{"poiid":"B2094750DA6AABF94999","title":"金山卫火车站","lon":"121.363502","lat":"30.723863","category":"500","category_name":"未知分类","address":"近郊金山沪杭公路"},{"poiid":"B2094757DA65A3F54998","title":"上海金山嘴渔村","lon":"121.3713456639883","lat":"30.7348745679435","category":"247","category_name":"餐饮美食","address":"近郊金山金山嘴"},{"poiid":"B2094750DA6BA2F8489D","title":"金山卫站","lon":"121.364761","lat":"30.728303","category":"251","category_name":"出行住宿","address":null},{"poiid":"B2094655D264A7FE4299","title":"金山豪庭","lon":"121.35342","lat":"30.734066","category":"47","category_name":"住宅区","address":"上海市金山区卫清东路2988弄"},{"poiid":"B2094655D268A2FC429B","title":"金天地花园","lon":"121.350925","lat":"30.731236","category":"47","category_name":"住宅区","address":"金山卫清西路88号"},{"poiid":"B2094757D464A0FA4498","title":"永乐大酒店中餐厅","lon":"121.363688054","lat":"30.720214793","category":"76","category_name":"上海菜","address":"近郊金山区沪杭公路6472号(隆安路蒙山路)"},{"poiid":"B2094654DB68AAF5459C","title":"海上明珠园","lon":"121.36434127954","lat":"30.728491049111","category":"47","category_name":"住宅区","address":"金山区隆安东路186弄"},{"poiid":"B2094757D16FAAFB4793","title":"三岛海鲜城","lon":"121.3694225","lat":"30.7284768","category":"260","category_name":"其他","address":"近郊金山区亭卫南路88弄8号(近金山嘴海鲜城)"},{"poiid":"B2094757D065A4FD429F","title":"金海岸酒家","lon":"121.37138697","lat":"30.728765495","category":"88","category_name":"海鲜酒楼","address":"近郊金山区金山嘴海鲜一条街"},{"poiid":"B2094654DB69A3FC4298","title":"山鑫康城1号门","lon":"121.35961","lat":"30.7298","category":"47","category_name":"住宅区","address":"金山区山阳镇卫阳南路118弄"},{"poiid":"B2094757D065AAFD4793","title":"世安海昇大酒店","lon":"121.357524","lat":"30.721257","category":"217","category_name":"旅馆招待所","address":"近郊金山区杭州湾大道128号"},{"poiid":"B2094655D265A5FF429F","title":"上海波曼大酒店","lon":"121.34923","lat":"30.72995","category":"250","category_name":"公园户外","address":"近郊金山区卫清路179号(近金山城市沙滩)"},{"poiid":"B2094655D268A6FD469B","title":"福宴海鲜大酒楼","lon":"121.35036","lat":"30.73032","category":"75","category_name":"浙江菜","address":"近郊金山区卫清西路139号"},{"poiid":"B2094757D664A2F44993","title":"韩林炭烤 （百联金山店）","lon":"121.35021","lat":"30.73057","category":"96","category_name":"韩国料理","address":"卫清西路168弄99号百联金山购物中心2楼近松卫南路"},{"poiid":"B2094655D268A6FA449A","title":"莫泰168金山卫清店","lon":"121.35103","lat":"30.73007","category":"216","category_name":"经济型连锁酒店","address":"近郊金山区卫清西路55号"},{"poiid":"B2094751DB64ABFC4193","title":"金汕码头","lon":"121.36953","lat":"30.72864","category":"72","category_name":"广东菜","address":"近郊金山区亭卫南路88号(近沪杭公路)"},{"poiid":"B2094655D36CA0FE449F","title":"金山嘴","lon":"121.37486","lat":"30.73082","category":"38","category_name":"公交车站","address":""},{"poiid":"B2094757D465A2F54493","title":"天桥酒店","lon":"121.374511054","lat":"30.728685793","category":"88","category_name":"海鲜酒楼","address":"近郊金山区沪航公路6412号(近金山嘴海鲜一条街)"},{"poiid":"B2094655D36CA7FA4892","title":"海浒新村","lon":"121.3542","lat":"30.720472","category":"38","category_name":"公交车站","address":"海浒新村"},{"poiid":"B2094753D569ABFC4492","title":"元悦精菜馆","lon":"121.358741","lat":"30.72002","category":"247","category_name":"餐饮美食","address":"上海市 杭州湾大道108号"},{"poiid":"B2094655D36CA7FA469E","title":"杭州湾大道","lon":"121.37448","lat":"30.73038","category":"38","category_name":"公交车站","address":""},{"poiid":"B2094757D165A3FD429C","title":"鑫潮海鲜馆","lon":"121.37401283","lat":"30.729757239","category":"247","category_name":"餐饮美食","address":"近郊金山区金山嘴海鲜一条街6480号"},{"poiid":"B209475CD36BA4FB419D","title":"元悦精菜馆","lon":"121.35779","lat":"30.72082","category":"75","category_name":"浙江菜","address":"金山区杭州湾大道108号(近华府海景广场)"},{"poiid":"B2094757DB6FA0FF4698","title":"轨道交通22号线金山新城枢纽站北进站口","lon":"121.3553131118404","lat":"30.72819469389595","category":"627","category_name":"一般地点标志","address":"金山区"},{"poiid":"B2094654DB69A3FC419B","title":"金山嘴大酒店","lon":"121.37442","lat":"30.73061","category":"76","category_name":"上海菜","address":"近郊金山区沪杭公路6468号海鲜一条街(近亭卫南路)"},{"poiid":"B2094752D365A3F54099","title":"元悦精菜馆","lon":"121.355991","lat":"30.720482","category":"247","category_name":"餐饮美食","address":null},{"poiid":"B209475CD26BA4FA469C","title":"城市沙滩","lon":"121.358734","lat":"30.720972","category":"500","category_name":"未知分类","address":"上海市 金山"},{"poiid":"B2094757D065A4F4429C","title":"鹤亭つるていTSURUTEL","lon":"121.35239337","lat":"30.720572026","category":"500","category_name":"未知分类","address":"上海金山百联3楼"},{"poiid":"B2094757D16CA1FB479A","title":"绍兴饭店(金山店)","lon":"121.35744717","lat":"30.720920072","category":"247","category_name":"餐饮美食","address":"漕泾镇杭州湾大道128号世安海昇酒店2-3楼近沪杭公路"},{"poiid":"B2094654DB69A1FC449B","title":"爱丁堡大酒店","lon":"121.34866","lat":"30.72608","category":"250","category_name":"公园户外","address":"上海市石化龙胜路127-129号(近蒙山路)"},{"poiid":"B2094757D168A2F94093","title":"新金山嘴大酒店(金山嘴海鲜一条街)","lon":"121.367648671","lat":"30.7354013921","category":"88","category_name":"海鲜酒楼","address":"上海市金山区金山嘴沪杭公路"},{"poiid":"B2094757D66EA6F54392","title":"金山海鸥大酒店","lon":"121.350602974","lat":"30.7294024417","category":"76","category_name":"上海菜","address":"上海金山区龙胜路58号"},{"poiid":"B2094757D16CA5F5499C","title":"上海师范大学第二附属中学","lon":"121.351709","lat":"30.719266","category":"55","category_name":"中学","address":"近郊金山卫城区隆安路48号(近临潮街)"},{"poiid":"B2094654DB68AAF44598","title":"金山卫车客渡码头","lon":"121.35812","lat":"30.71783","category":"34","category_name":"港口码头","address":""},{"poiid":"B2094654DB69A3FC4198","title":"永乐大酒店","lon":"121.37422","lat":"30.73032","category":"250","category_name":"公园户外","address":"石化"},{"poiid":"B2094655D268A6FD4699","title":"九天银河大浴场","lon":"121.35131","lat":"30.73035","category":"149","category_name":"洗浴推拿场所","address":"近郊金山区卫清西路55号(近杭州湾大道)"},{"poiid":"B2094750D665A7FE469F","title":"天天量贩式海鲜城","lon":"121.372","lat":"30.7297","category":"260","category_name":"其他","address":"近郊金山区亭卫南路88号金山嘴海鲜城(近沪杭公路)"},{"poiid":"B2094751D26EA7FD4092","title":"金山卫地铁站","lon":"121.372886","lat":"30.731716","category":"36","category_name":"地铁站","address":"金山"},{"poiid":"B2094654DB69A1FA409C","title":"鸿海大楼","lon":"121.357","lat":"30.717","category":"46","category_name":"楼宇","address":"鸿海大楼"},{"poiid":"B2094757D66EA4FB409C","title":"光辉小海鲜","lon":"121.37498","lat":"30.73047","category":"260","category_name":"其他","address":"近郊金山区沪杭公路6422号金山嘴海鲜一条街"},{"poiid":"B2094655D36CA6FF419B","title":"富川大楼","lon":"121.355","lat":"30.7213","category":"38","category_name":"公交车站","address":"金山区石化沪杭公路7855号"},{"poiid":"B2094654DB64A7F8439A","title":"露美美发厅","lon":"121.35651","lat":"30.71997","category":"148","category_name":"美容美发店","address":"隆安东路302识别"},{"poiid":"B209475CD46DA4FE4093","title":"城市沙滩","lon":"121.364196","lat":"30.731246","category":"500","category_name":"未知分类","address":"上海市 上海金山"},{"poiid":"B2094750DA6BA1FB499F","title":"轨交22号线金山卫站","lon":"121.362525","lat":"30.728115","category":"500","category_name":"未知分类","address":null},{"poiid":"B2094654DB69A2F5439A","title":"海鸥大厦","lon":"121.35182","lat":"30.72937","category":"268","category_name":"自助","address":"近郊金山区龙胜路58号(近战斗港路)"},{"poiid":"B2094757D168AAF9419E","title":"金山嘴","lon":"121.37316467","lat":"30.728571241","category":"500","category_name":"未知分类","address":"上海市金山区亭卫南路"},{"poiid":"B2094655D268A6FA459A","title":"金山城市沙滩(北一门)","lon":"121.3511","lat":"30.71108","category":"680","category_name":"楼宇机构","address":""},{"poiid":"B2094655D265ABF84893","title":"华府海景","lon":"121.358607","lat":"30.719758","category":"47","category_name":"住宅区","address":"金山区杭州湾大道118弄"},{"poiid":"B2094757D665ABF8459F","title":"哈根达斯 百联金山店 Haagen-Dazs","lon":"121.35021","lat":"30.73057","category":"67","category_name":"甜品店","address":"近郊金山区卫清西路168弄99号百联金山购物中心B105商铺(近松卫南路)"},{"poiid":"B2094757D16CA5FB4292","title":"金海岸花园","lon":"121.3567","lat":"30.72822","category":"47","category_name":"住宅区","address":"上海市金山区龙胜东路789弄"},{"poiid":"B2094750DA6AABF94999","title":"金山卫火车站","lon":"121.363502","lat":"30.723863","category":"500","category_name":"未知分类","address":"近郊金山沪杭公路"},{"poiid":"B2094757DA65A3F54998","title":"上海金山嘴渔村","lon":"121.3713456639883","lat":"30.7348745679435","category":"247","category_name":"餐饮美食","address":"近郊金山金山嘴"},{"poiid":"B2094750DA6BA2F8489D","title":"金山卫站","lon":"121.364761","lat":"30.728303","category":"251","category_name":"出行住宿","address":null},{"poiid":"B2094655D264A7FE4299","title":"金山豪庭","lon":"121.35342","lat":"30.734066","category":"47","category_name":"住宅区","address":"上海市金山区卫清东路2988弄"},{"poiid":"B2094655D268A2FC429B","title":"金天地花园","lon":"121.350925","lat":"30.731236","category":"47","category_name":"住宅区","address":"金山卫清西路88号"},{"poiid":"B2094757D464A0FA4498","title":"永乐大酒店中餐厅","lon":"121.363688054","lat":"30.720214793","category":"76","category_name":"上海菜","address":"近郊金山区沪杭公路6472号(隆安路蒙山路)"},{"poiid":"B2094654DB68AAF5459C","title":"海上明珠园","lon":"121.36434127954","lat":"30.728491049111","category":"47","category_name":"住宅区","address":"金山区隆安东路186弄"},{"poiid":"B2094757D16FAAFB4793","title":"三岛海鲜城","lon":"121.3694225","lat":"30.7284768","category":"260","category_name":"其他","address":"近郊金山区亭卫南路88弄8号(近金山嘴海鲜城)"},{"poiid":"B2094757D065A4FD429F","title":"金海岸酒家","lon":"121.37138697","lat":"30.728765495","category":"88","category_name":"海鲜酒楼","address":"近郊金山区金山嘴海鲜一条街"},{"poiid":"B2094654DB69A3FC4298","title":"山鑫康城1号门","lon":"121.35961","lat":"30.7298","category":"47","category_name":"住宅区","address":"金山区山阳镇卫阳南路118弄"},{"poiid":"B2094757D065AAFD4793","title":"世安海昇大酒店","lon":"121.357524","lat":"30.721257","category":"217","category_name":"旅馆招待所","address":"近郊金山区杭州湾大道128号"},{"poiid":"B2094655D265A5FF429F","title":"上海波曼大酒店","lon":"121.34923","lat":"30.72995","category":"250","category_name":"公园户外","address":"近郊金山区卫清路179号(近金山城市沙滩)"},{"poiid":"B2094655D268A6FD469B","title":"福宴海鲜大酒楼","lon":"121.35036","lat":"30.73032","category":"75","category_name":"浙江菜","address":"近郊金山区卫清西路139号"},{"poiid":"B2094757D664A2F44993","title":"韩林炭烤 （百联金山店）","lon":"121.35021","lat":"30.73057","category":"96","category_name":"韩国料理","address":"卫清西路168弄99号百联金山购物中心2楼近松卫南路"},{"poiid":"B2094655D268A6FA449A","title":"莫泰168金山卫清店","lon":"121.35103","lat":"30.73007","category":"216","category_name":"经济型连锁酒店","address":"近郊金山区卫清西路55号"},{"poiid":"B2094751DB64ABFC4193","title":"金汕码头","lon":"121.36953","lat":"30.72864","category":"72","category_name":"广东菜","address":"近郊金山区亭卫南路88号(近沪杭公路)"},{"poiid":"B2094655D36CA0FE449F","title":"金山嘴","lon":"121.37486","lat":"30.73082","category":"38","category_name":"公交车站","address":""},{"poiid":"B2094757D465A2F54493","title":"天桥酒店","lon":"121.374511054","lat":"30.728685793","category":"88","category_name":"海鲜酒楼","address":"近郊金山区沪航公路6412号(近金山嘴海鲜一条街)"},{"poiid":"B2094655D36CA7FA4892","title":"海浒新村","lon":"121.3542","lat":"30.720472","category":"38","category_name":"公交车站","address":"海浒新村"},{"poiid":"B2094753D569ABFC4492","title":"元悦精菜馆","lon":"121.358741","lat":"30.72002","category":"247","category_name":"餐饮美食","address":"上海市 杭州湾大道108号"},{"poiid":"B2094655D36CA7FA469E","title":"杭州湾大道","lon":"121.37448","lat":"30.73038","category":"38","category_name":"公交车站","address":""},{"poiid":"B2094757D165A3FD429C","title":"鑫潮海鲜馆","lon":"121.37401283","lat":"30.729757239","category":"247","category_name":"餐饮美食","address":"近郊金山区金山嘴海鲜一条街6480号"},{"poiid":"B209475CD36BA4FB419D","title":"元悦精菜馆","lon":"121.35779","lat":"30.72082","category":"75","category_name":"浙江菜","address":"金山区杭州湾大道108号(近华府海景广场)"},{"poiid":"B2094757DB6FA0FF4698","title":"轨道交通22号线金山新城枢纽站北进站口","lon":"121.3553131118404","lat":"30.72819469389595","category":"627","category_name":"一般地点标志","address":"金山区"},{"poiid":"B2094654DB69A3FC419B","title":"金山嘴大酒店","lon":"121.37442","lat":"30.73061","category":"76","category_name":"上海菜","address":"近郊金山区沪杭公路6468号海鲜一条街(近亭卫南路)"},{"poiid":"B2094752D365A3F54099","title":"元悦精菜馆","lon":"121.355991","lat":"30.720482","category":"247","category_name":"餐饮美食","address":null},{"poiid":"B209475CD26BA4FA469C","title":"城市沙滩","lon":"121.358734","lat":"30.720972","category":"500","category_name":"未知分类","address":"上海市 金山"},{"poiid":"B2094757D065A4F4429C","title":"鹤亭つるていTSURUTEL","lon":"121.35239337","lat":"30.720572026","category":"500","category_name":"未知分类","address":"上海金山百联3楼"},{"poiid":"B2094757D16CA1FB479A","title":"绍兴饭店(金山店)","lon":"121.35744717","lat":"30.720920072","category":"247","category_name":"餐饮美食","address":"漕泾镇杭州湾大道128号世安海昇酒店2-3楼近沪杭公路"},{"poiid":"B2094654DB69A1FC449B","title":"爱丁堡大酒店","lon":"121.34866","lat":"30.72608","category":"250","category_name":"公园户外","address":"上海市石化龙胜路127-129号(近蒙山路)"},{"poiid":"B2094757D168A2F94093","title":"新金山嘴大酒店(金山嘴海鲜一条街)","lon":"121.367648671","lat":"30.7354013921","category":"88","category_name":"海鲜酒楼","address":"上海市金山区金山嘴沪杭公路"},{"poiid":"B2094757D66EA6F54392","title":"金山海鸥大酒店","lon":"121.350602974","lat":"30.7294024417","category":"76","category_name":"上海菜","address":"上海金山区龙胜路58号"},{"poiid":"B2094757D16CA5F5499C","title":"上海师范大学第二附属中学","lon":"121.351709","lat":"30.719266","category":"55","category_name":"中学","address":"近郊金山卫城区隆安路48号(近临潮街)"},{"poiid":"B2094654DB68AAF44598","title":"金山卫车客渡码头","lon":"121.35812","lat":"30.71783","category":"34","category_name":"港口码头","address":""},{"poiid":"B2094654DB69A3FC4198","title":"永乐大酒店","lon":"121.37422","lat":"30.73032","category":"250","category_name":"公园户外","address":"石化"},{"poiid":"B2094655D268A6FD4699","title":"九天银河大浴场","lon":"121.35131","lat":"30.73035","category":"149","category_name":"洗浴推拿场所","address":"近郊金山区卫清西路55号(近杭州湾大道)"},{"poiid":"B2094750D665A7FE469F","title":"天天量贩式海鲜城","lon":"121.372","lat":"30.7297","category":"260","category_name":"其他","address":"近郊金山区亭卫南路88号金山嘴海鲜城(近沪杭公路)"},{"poiid":"B2094751D26EA7FD4092","title":"金山卫地铁站","lon":"121.372886","lat":"30.731716","category":"36","category_name":"地铁站","address":"金山"},{"poiid":"B2094654DB69A1FA409C","title":"鸿海大楼","lon":"121.357","lat":"30.717","category":"46","category_name":"楼宇","address":"鸿海大楼"},{"poiid":"B2094757D66EA4FB409C","title":"光辉小海鲜","lon":"121.37498","lat":"30.73047","category":"260","category_name":"其他","address":"近郊金山区沪杭公路6422号金山嘴海鲜一条街"},{"poiid":"B2094655D36CA6FF419B","title":"富川大楼","lon":"121.355","lat":"30.7213","category":"38","category_name":"公交车站","address":"金山区石化沪杭公路7855号"},{"poiid":"B2094654DB64A7F8439A","title":"露美美发厅","lon":"121.35651","lat":"30.71997","category":"148","category_name":"美容美发店","address":"隆安东路302识别"},{"poiid":"B209475CD46DA4FE4093","title":"城市沙滩","lon":"121.364196","lat":"30.731246","category":"500","category_name":"未知分类","address":"上海市 上海金山"}]