[{"poiid":"B2094655D269ABFD469B","title":"静安寺","lon":"121.44552","lat":"31.22324","category":"244","category_name":"寺庙道观","address":"静安区南京西路1686号(近静安寺)"},{"poiid":"B2094655D269A4F5449A","title":"希尔顿酒店","lon":"121.44522","lat":"31.2193","category":"247","category_name":"餐饮美食","address":"静安区华山路250号(近延安西路)"},{"poiid":"B2094654DB65A6F4469D","title":"上海国际贵都大饭店","lon":"121.44453","lat":"31.21998","category":"213","category_name":"五星级宾馆","address":"北京西路1028号,江宁路168号"},{"poiid":"B2094753D76FAAFA449C","title":"上海滩国泰旗舰店","lon":"121.466011","lat":"31.216125","category":"249","category_name":"购物服务","address":"淮海中路868号"},{"poiid":"B209475CD564A7F84292","title":"上海滩新天地店","lon":"121.47463","lat":"31.22164","category":"119","category_name":"商场","address":"\"太仓路181弄新天地北里15号\r\n\""},{"poiid":"B209475CD564A7F8439E","title":"上海滩中信泰富店","lon":"121.45602","lat":"31.22851","category":"119","category_name":"商场","address":"\"南京西路1168号中信泰富广场，店铺号221.\r\n\""},{"poiid":"B2094757D06FA3F44892","title":"上海宾馆","lon":"121.44421","lat":"31.21782","category":"214","category_name":"四星级宾馆","address":"上海静安区乌鲁木齐北路505号(近华山路)  "},{"poiid":"B2094654D564ABFF489D","title":"我家餐厅 MY HOME","lon":"121.44573848552","lat":"31.219784895865","category":"76","category_name":"上海菜","address":"静安区华山路229弄7号(近延安西路)"},{"poiid":"B2094654D564A4F54793","title":"钱柜(乌鲁木齐北路)","lon":"121.44374","lat":"31.21874","category":"170","category_name":"KTV","address":"上海静安区乌鲁木齐北路459号(近延安西路)"},{"poiid":"B2094757D06FA4FD4298","title":"锅比盆大(华山旗舰店)","lon":"121.445995862","lat":"31.2196759733","category":"86","category_name":"火锅店","address":"静安区华山路301-1号(近常熟路)"},{"poiid":"B2094757DB69A4FB499E","title":"荣日本料理 华山店","lon":"121.444941","lat":"31.217337","category":"95","category_name":"日本料理","address":"静安区华山路427号2楼(近乌鲁木齐中路)"},{"poiid":"B2094757D068ABFC499E","title":"万泰国际大厦","lon":"121.444421782","lat":"31.2191420635","category":"46","category_name":"楼宇","address":"虹口区纪念路500号"},{"poiid":"B2094757D068A5F9419C","title":"中福会少年宫","lon":"121.44419835","lat":"31.220838763","category":"190","category_name":"培训机构","address":"静安区延安西路64号(贵都酒店对面)"},{"poiid":"B2094655D26FABF44193","title":"上海希尔顿酒店(东二门)","lon":"121.44596","lat":"31.21889","category":"213","category_name":"五星级宾馆","address":"上海市静安区华山路250号（近延安西路）"},{"poiid":"B2094757D06FA3FA479D","title":"路飞堂（华山店）","lon":"121.44359","lat":"31.219215","category":"113","category_name":"冷饮店","address":"静安区乌鲁木齐北路429号(近延安西路)"},{"poiid":"B2094750D26CA3FE459E","title":"赤坂舞马雅","lon":"121.4465752","lat":"31.2181118","category":"95","category_name":"日本料理","address":"静安区常熟路8号静安8号内(近巨鹿路)"},{"poiid":"B2094752D56BA2FB4492","title":"plaza pizza","lon":"121.446632","lat":"31.218647","category":"247","category_name":"餐饮美食","address":"华山路325号-1(常熟路口)"},{"poiid":"B2094751DA6FA3FF4699","title":"保罗饭店","lon":"121.444537","lat":"31.21829","category":"247","category_name":"餐饮美食","address":"富民路271号(近长乐路)"},{"poiid":"B2094654D564ABFC419B","title":"静安宾馆","lon":"121.44412","lat":"31.21932","category":"215","category_name":"三星级宾馆","address":"华山路370号"},{"poiid":"B2094654DB69A0FA459E","title":"红宝石(华山店)","lon":"121.4458","lat":"31.21781","category":"67","category_name":"甜品店","address":"静安区华山路375号(静安宾馆对面)"},{"poiid":"B2094757D069A3FD459C","title":"中国平安财产保险上海分公司","lon":"121.44687554","lat":"31.21791616","category":"263","category_name":"公司","address":"上海常熟路8号"},{"poiid":"B2094757D06FAAFA4992","title":"华山路","lon":"121.446805586","lat":"31.2182341964","category":"260","category_name":"其他","address":"上海静安区"},{"poiid":"B2094757D16DA3FD469B","title":"荣居酒屋","lon":"121.44440478","lat":"31.218040692","category":"247","category_name":"餐饮美食","address":"上海华山路427号二楼"},{"poiid":"B2094654D564A4FB4899","title":"尖沙咀酒家","lon":"121.44338655804","lat":"31.219689044062","category":"72","category_name":"广东菜","address":"静安区延安西路129号华侨大厦4楼(近乌鲁木齐北路)"},{"poiid":"B2094654D564A4FB479E","title":"上林铁板烧","lon":"121.44375","lat":"31.21971","category":"269","category_name":"烧烤","address":"静安区延安西路129号华侨大厦1楼(近乌鲁木齐北路)"},{"poiid":"B2094757D068AAFA469B","title":"上海外事服务中心","lon":"121.44552897","lat":"31.220250877","category":"260","category_name":"其他","address":"静安区华山路228号上海国际贵都大饭店办公楼2-3楼"},{"poiid":"B2094750DB68A1FC429A","title":"万岛日本料理","lon":"121.443702","lat":"31.218046","category":"500","category_name":"未知分类","address":"乌鲁木齐北路480号5楼"},{"poiid":"B209475CD26DA4FE419A","title":"10·corso·como","lon":"121.445999","lat":"31.220499","category":"500","category_name":"未知分类","address":"上海市 南京西路1717号会德丰广场北院"},{"poiid":"B2094757D66EA5FC439A","title":"希尔顿连天阁","lon":"121.44552558","lat":"31.219270216","category":"500","category_name":"未知分类","address":"上海华山路250号"},{"poiid":"B2094757D065AAFD429D","title":"新花城蟹粉馆","lon":"121.44355","lat":"31.21776","category":"257","category_name":"中餐厅","address":"静安区乌鲁木齐北路538号1-2楼(近华山路)"},{"poiid":"B2094757D66BA2F5439E","title":"李奥纳多达芬奇餐厅","lon":"121.445662054","lat":"31.219435793","category":"98","category_name":"意式菜品餐厅","address":"静安区华山路250号希尔顿酒店1楼(近延安西路)"},{"poiid":"B2094654DB69A0FB419C","title":"静安宾馆中餐厅","lon":"121.44568894175","lat":"31.218200256688","category":"247","category_name":"餐饮美食","address":"静安区华山路370号静安宾馆内(近乌鲁木齐北路)查看地图"},{"poiid":"B2094654D564ABFC439D","title":"合记茶餐厅","lon":"121.44436668466","lat":"31.21697867495","category":"72","category_name":"广东菜","address":"静安区华山路445号(近乌鲁木齐中路)"},{"poiid":"B2094757D068A6FE4693","title":"九光百货","lon":"121.44697081","lat":"31.219561792","category":"249","category_name":"购物服务","address":"香港南京西路1618号"},{"poiid":"B2094655D26EA6F94698","title":"河久日本料理","lon":"121.44399","lat":"31.21813","category":"95","category_name":"日本料理","address":"静安区乌鲁木齐北路505号上海宾馆23楼(近华山路)"},{"poiid":"B2094655D26EA4F8489D","title":"新花城长江第一鲜酒楼","lon":"121.44424","lat":"31.2182","category":"76","category_name":"上海菜","address":"静安区乌鲁木齐北路505号上海宾馆23楼(近华山路)"},{"poiid":"B2094655D264A1F8439A","title":"贵都帝王厅","lon":"121.44453","lat":"31.21999","category":"247","category_name":"餐饮美食","address":"延安西路65号国际贵都大酒店2层"},{"poiid":"B2094757D164AAF9489B","title":"常熟路","lon":"121.446295886","lat":"31.2191703147","category":"500","category_name":"未知分类","address":"上海常熟路长乐路口"},{"poiid":"B2094757D069A7FD4898","title":"组合发型(华山路店)","lon":"121.44613","lat":"31.21746","category":"148","category_name":"美容美发店","address":"静安区华山路383号(近乌鲁木齐中路)"},{"poiid":"B2094757DB68A5FA4198","title":"申城五月天","lon":"121.44546747208","lat":"31.2181232847","category":"72","category_name":"广东菜","address":"静安区华山路370号静安宾馆新楼2楼(近乌鲁木齐路)"},{"poiid":"B2094757D469A0FE419B","title":"上海宾馆 上海厅","lon":"121.443875054","lat":"31.217792793","category":"76","category_name":"上海菜","address":"乌鲁木齐北路505号上海宾馆3楼近华山路"},{"poiid":"B2094757D06AA5F8459B","title":"凯文厨房 Kaveen's Kitchen","lon":"121.44590921556","lat":"31.219920302393","category":"102","category_name":"印度风味","address":"静安区华山路231号2楼(近延安西路)"},{"poiid":"B2094757D068A6FB469C","title":"静安面包房(总店)","lon":"121.4459","lat":"31.21781","category":"217","category_name":"旅馆招待所","address":"上海静安区华山路370号静安宾馆(近乌鲁木齐北路)"},{"poiid":"B2094757D069A7FF4798","title":"静安8号","lon":"121.446953795","lat":"31.217401334","category":"252","category_name":"楼宇机构","address":"上海华山路339弄1号"},{"poiid":"B2094757D464AAF4439F","title":"七牛经典私房牛肉面","lon":"121.443586054","lat":"31.217372793","category":"68","category_name":"快餐厅","address":"静安区华山路486号(近乌鲁木齐中路)"},{"poiid":"B2094757DB6FA0FE4593","title":"新花城","lon":"121.44354","lat":"31.21835","category":"76","category_name":"上海菜","address":"静安区乌鲁木齐北路468弄32号(近上海宾馆)"},{"poiid":"B2094757DB6FA4F8439D","title":"赤板舞玛雅","lon":"121.4432940895836","lat":"31.21832742249485","category":"500","category_name":"未知分类","address":"常熟路8号"},{"poiid":"B2094654D564ABFC439B","title":"华山医院体检部","lon":"121.44483","lat":"31.2173","category":"162","category_name":"医院","address":"华山路433-3"},{"poiid":"B2094654DB69A0FB459B","title":"连天阁","lon":"121.44523","lat":"31.21929","category":"268","category_name":"自助","address":"静安区华山路250号希尔顿酒店1楼(近延安西路)"},{"poiid":"B2094654DB6BA6FC409E","title":"荣居酒屋(华山路)","lon":"121.44494","lat":"31.21734","category":"172","category_name":"酒吧","address":""},{"poiid":"B2094655D269ABFD469B","title":"静安寺","lon":"121.44552","lat":"31.22324","category":"244","category_name":"寺庙道观","address":"静安区南京西路1686号(近静安寺)"},{"poiid":"B2094655D269A4F5449A","title":"希尔顿酒店","lon":"121.44522","lat":"31.2193","category":"247","category_name":"餐饮美食","address":"静安区华山路250号(近延安西路)"},{"poiid":"B2094654DB65A6F4469D","title":"上海国际贵都大饭店","lon":"121.44453","lat":"31.21998","category":"213","category_name":"五星级宾馆","address":"北京西路1028号,江宁路168号"},{"poiid":"B2094753D76FAAFA449C","title":"上海滩国泰旗舰店","lon":"121.466011","lat":"31.216125","category":"249","category_name":"购物服务","address":"淮海中路868号"},{"poiid":"B209475CD564A7F84292","title":"上海滩新天地店","lon":"121.47463","lat":"31.22164","category":"119","category_name":"商场","address":"\"太仓路181弄新天地北里15号\r\n\""},{"poiid":"B209475CD564A7F8439E","title":"上海滩中信泰富店","lon":"121.45602","lat":"31.22851","category":"119","category_name":"商场","address":"\"南京西路1168号中信泰富广场，店铺号221.\r\n\""},{"poiid":"B2094757D06FA3F44892","title":"上海宾馆","lon":"121.44421","lat":"31.21782","category":"214","category_name":"四星级宾馆","address":"上海静安区乌鲁木齐北路505号(近华山路)  "},{"poiid":"B2094654D564ABFF489D","title":"我家餐厅 MY HOME","lon":"121.44573848552","lat":"31.219784895865","category":"76","category_name":"上海菜","address":"静安区华山路229弄7号(近延安西路)"},{"poiid":"B2094654D564A4F54793","title":"钱柜(乌鲁木齐北路)","lon":"121.44374","lat":"31.21874","category":"170","category_name":"KTV","address":"上海静安区乌鲁木齐北路459号(近延安西路)"},{"poiid":"B2094757D06FA4FD4298","title":"锅比盆大(华山旗舰店)","lon":"121.445995862","lat":"31.2196759733","category":"86","category_name":"火锅店","address":"静安区华山路301-1号(近常熟路)"},{"poiid":"B2094757DB69A4FB499E","title":"荣日本料理 华山店","lon":"121.444941","lat":"31.217337","category":"95","category_name":"日本料理","address":"静安区华山路427号2楼(近乌鲁木齐中路)"},{"poiid":"B2094757D068ABFC499E","title":"万泰国际大厦","lon":"121.444421782","lat":"31.2191420635","category":"46","category_name":"楼宇","address":"虹口区纪念路500号"},{"poiid":"B2094757D068A5F9419C","title":"中福会少年宫","lon":"121.44419835","lat":"31.220838763","category":"190","category_name":"培训机构","address":"静安区延安西路64号(贵都酒店对面)"},{"poiid":"B2094655D26FABF44193","title":"上海希尔顿酒店(东二门)","lon":"121.44596","lat":"31.21889","category":"213","category_name":"五星级宾馆","address":"上海市静安区华山路250号（近延安西路）"},{"poiid":"B2094757D06FA3FA479D","title":"路飞堂（华山店）","lon":"121.44359","lat":"31.219215","category":"113","category_name":"冷饮店","address":"静安区乌鲁木齐北路429号(近延安西路)"},{"poiid":"B2094750D26CA3FE459E","title":"赤坂舞马雅","lon":"121.4465752","lat":"31.2181118","category":"95","category_name":"日本料理","address":"静安区常熟路8号静安8号内(近巨鹿路)"},{"poiid":"B2094752D56BA2FB4492","title":"plaza pizza","lon":"121.446632","lat":"31.218647","category":"247","category_name":"餐饮美食","address":"华山路325号-1(常熟路口)"},{"poiid":"B2094751DA6FA3FF4699","title":"保罗饭店","lon":"121.444537","lat":"31.21829","category":"247","category_name":"餐饮美食","address":"富民路271号(近长乐路)"},{"poiid":"B2094654D564ABFC419B","title":"静安宾馆","lon":"121.44412","lat":"31.21932","category":"215","category_name":"三星级宾馆","address":"华山路370号"},{"poiid":"B2094654DB69A0FA459E","title":"红宝石(华山店)","lon":"121.4458","lat":"31.21781","category":"67","category_name":"甜品店","address":"静安区华山路375号(静安宾馆对面)"},{"poiid":"B2094757D069A3FD459C","title":"中国平安财产保险上海分公司","lon":"121.44687554","lat":"31.21791616","category":"263","category_name":"公司","address":"上海常熟路8号"},{"poiid":"B2094757D06FAAFA4992","title":"华山路","lon":"121.446805586","lat":"31.2182341964","category":"260","category_name":"其他","address":"上海静安区"},{"poiid":"B2094757D16DA3FD469B","title":"荣居酒屋","lon":"121.44440478","lat":"31.218040692","category":"247","category_name":"餐饮美食","address":"上海华山路427号二楼"},{"poiid":"B2094654D564A4FB4899","title":"尖沙咀酒家","lon":"121.44338655804","lat":"31.219689044062","category":"72","category_name":"广东菜","address":"静安区延安西路129号华侨大厦4楼(近乌鲁木齐北路)"},{"poiid":"B2094654D564A4FB479E","title":"上林铁板烧","lon":"121.44375","lat":"31.21971","category":"269","category_name":"烧烤","address":"静安区延安西路129号华侨大厦1楼(近乌鲁木齐北路)"},{"poiid":"B2094757D068AAFA469B","title":"上海外事服务中心","lon":"121.44552897","lat":"31.220250877","category":"260","category_name":"其他","address":"静安区华山路228号上海国际贵都大饭店办公楼2-3楼"},{"poiid":"B2094750DB68A1FC429A","title":"万岛日本料理","lon":"121.443702","lat":"31.218046","category":"500","category_name":"未知分类","address":"乌鲁木齐北路480号5楼"},{"poiid":"B209475CD26DA4FE419A","title":"10·corso·como","lon":"121.445999","lat":"31.220499","category":"500","category_name":"未知分类","address":"上海市 南京西路1717号会德丰广场北院"},{"poiid":"B2094757D66EA5FC439A","title":"希尔顿连天阁","lon":"121.44552558","lat":"31.219270216","category":"500","category_name":"未知分类","address":"上海华山路250号"},{"poiid":"B2094757D065AAFD429D","title":"新花城蟹粉馆","lon":"121.44355","lat":"31.21776","category":"257","category_name":"中餐厅","address":"静安区乌鲁木齐北路538号1-2楼(近华山路)"},{"poiid":"B2094757D66BA2F5439E","title":"李奥纳多达芬奇餐厅","lon":"121.445662054","lat":"31.219435793","category":"98","category_name":"意式菜品餐厅","address":"静安区华山路250号希尔顿酒店1楼(近延安西路)"},{"poiid":"B2094654DB69A0FB419C","title":"静安宾馆中餐厅","lon":"121.44568894175","lat":"31.218200256688","category":"247","category_name":"餐饮美食","address":"静安区华山路370号静安宾馆内(近乌鲁木齐北路)查看地图"},{"poiid":"B2094654D564ABFC439D","title":"合记茶餐厅","lon":"121.44436668466","lat":"31.21697867495","category":"72","category_name":"广东菜","address":"静安区华山路445号(近乌鲁木齐中路)"},{"poiid":"B2094757D068A6FE4693","title":"九光百货","lon":"121.44697081","lat":"31.219561792","category":"249","category_name":"购物服务","address":"香港南京西路1618号"},{"poiid":"B2094655D26EA6F94698","title":"河久日本料理","lon":"121.44399","lat":"31.21813","category":"95","category_name":"日本料理","address":"静安区乌鲁木齐北路505号上海宾馆23楼(近华山路)"},{"poiid":"B2094655D26EA4F8489D","title":"新花城长江第一鲜酒楼","lon":"121.44424","lat":"31.2182","category":"76","category_name":"上海菜","address":"静安区乌鲁木齐北路505号上海宾馆23楼(近华山路)"},{"poiid":"B2094655D264A1F8439A","title":"贵都帝王厅","lon":"121.44453","lat":"31.21999","category":"247","category_name":"餐饮美食","address":"延安西路65号国际贵都大酒店2层"},{"poiid":"B2094757D164AAF9489B","title":"常熟路","lon":"121.446295886","lat":"31.2191703147","category":"500","category_name":"未知分类","address":"上海常熟路长乐路口"},{"poiid":"B2094757D069A7FD4898","title":"组合发型(华山路店)","lon":"121.44613","lat":"31.21746","category":"148","category_name":"美容美发店","address":"静安区华山路383号(近乌鲁木齐中路)"},{"poiid":"B2094757DB68A5FA4198","title":"申城五月天","lon":"121.44546747208","lat":"31.2181232847","category":"72","category_name":"广东菜","address":"静安区华山路370号静安宾馆新楼2楼(近乌鲁木齐路)"},{"poiid":"B2094757D469A0FE419B","title":"上海宾馆 上海厅","lon":"121.443875054","lat":"31.217792793","category":"76","category_name":"上海菜","address":"乌鲁木齐北路505号上海宾馆3楼近华山路"},{"poiid":"B2094757D06AA5F8459B","title":"凯文厨房 Kaveen's Kitchen","lon":"121.44590921556","lat":"31.219920302393","category":"102","category_name":"印度风味","address":"静安区华山路231号2楼(近延安西路)"},{"poiid":"B2094757D068A6FB469C","title":"静安面包房(总店)","lon":"121.4459","lat":"31.21781","category":"217","category_name":"旅馆招待所","address":"上海静安区华山路370号静安宾馆(近乌鲁木齐北路)"},{"poiid":"B2094757D069A7FF4798","title":"静安8号","lon":"121.446953795","lat":"31.217401334","category":"252","category_name":"楼宇机构","address":"上海华山路339弄1号"},{"poiid":"B2094757D464AAF4439F","title":"七牛经典私房牛肉面","lon":"121.443586054","lat":"31.217372793","category":"68","category_name":"快餐厅","address":"静安区华山路486号(近乌鲁木齐中路)"},{"poiid":"B2094757DB6FA0FE4593","title":"新花城","lon":"121.44354","lat":"31.21835","category":"76","category_name":"上海菜","address":"静安区乌鲁木齐北路468弄32号(近上海宾馆)"},{"poiid":"B2094757DB6FA4F8439D","title":"赤板舞玛雅","lon":"121.4432940895836","lat":"31.21832742249485","category":"500","category_name":"未知分类","address":"常熟路8号"},{"poiid":"B2094654D564ABFC439B","title":"华山医院体检部","lon":"121.44483","lat":"31.2173","category":"162","category_name":"医院","address":"华山路433-3"},{"poiid":"B2094654DB69A0FB459B","title":"连天阁","lon":"121.44523","lat":"31.21929","category":"268","category_name":"自助","address":"静安区华山路250号希尔顿酒店1楼(近延安西路)"},{"poiid":"B2094654DB6BA6FC409E","title":"荣居酒屋(华山路)","lon":"121.44494","lat":"31.21734","category":"172","category_name":"酒吧","address":""},{"poiid":"B2094655D269ABFD469B","title":"静安寺","lon":"121.44552","lat":"31.22324","category":"244","category_name":"寺庙道观","address":"静安区南京西路1686号(近静安寺)"},{"poiid":"B2094655D269A4F5449A","title":"希尔顿酒店","lon":"121.44522","lat":"31.2193","category":"247","category_name":"餐饮美食","address":"静安区华山路250号(近延安西路)"},{"poiid":"B2094654DB65A6F4469D","title":"上海国际贵都大饭店","lon":"121.44453","lat":"31.21998","category":"213","category_name":"五星级宾馆","address":"北京西路1028号,江宁路168号"},{"poiid":"B2094753D76FAAFA449C","title":"上海滩国泰旗舰店","lon":"121.466011","lat":"31.216125","category":"249","category_name":"购物服务","address":"淮海中路868号"},{"poiid":"B209475CD564A7F84292","title":"上海滩新天地店","lon":"121.47463","lat":"31.22164","category":"119","category_name":"商场","address":"\"太仓路181弄新天地北里15号\r\n\""},{"poiid":"B209475CD564A7F8439E","title":"上海滩中信泰富店","lon":"121.45602","lat":"31.22851","category":"119","category_name":"商场","address":"\"南京西路1168号中信泰富广场，店铺号221.\r\n\""},{"poiid":"B2094757D06FA3F44892","title":"上海宾馆","lon":"121.44421","lat":"31.21782","category":"214","category_name":"四星级宾馆","address":"上海静安区乌鲁木齐北路505号(近华山路)  "},{"poiid":"B2094654D564ABFF489D","title":"我家餐厅 MY HOME","lon":"121.44573848552","lat":"31.219784895865","category":"76","category_name":"上海菜","address":"静安区华山路229弄7号(近延安西路)"},{"poiid":"B2094654D564A4F54793","title":"钱柜(乌鲁木齐北路)","lon":"121.44374","lat":"31.21874","category":"170","category_name":"KTV","address":"上海静安区乌鲁木齐北路459号(近延安西路)"},{"poiid":"B2094757D06FA4FD4298","title":"锅比盆大(华山旗舰店)","lon":"121.445995862","lat":"31.2196759733","category":"86","category_name":"火锅店","address":"静安区华山路301-1号(近常熟路)"},{"poiid":"B2094757DB69A4FB499E","title":"荣日本料理 华山店","lon":"121.444941","lat":"31.217337","category":"95","category_name":"日本料理","address":"静安区华山路427号2楼(近乌鲁木齐中路)"},{"poiid":"B2094757D068ABFC499E","title":"万泰国际大厦","lon":"121.444421782","lat":"31.2191420635","category":"46","category_name":"楼宇","address":"虹口区纪念路500号"},{"poiid":"B2094757D068A5F9419C","title":"中福会少年宫","lon":"121.44419835","lat":"31.220838763","category":"190","category_name":"培训机构","address":"静安区延安西路64号(贵都酒店对面)"},{"poiid":"B2094655D26FABF44193","title":"上海希尔顿酒店(东二门)","lon":"121.44596","lat":"31.21889","category":"213","category_name":"五星级宾馆","address":"上海市静安区华山路250号（近延安西路）"},{"poiid":"B2094757D06FA3FA479D","title":"路飞堂（华山店）","lon":"121.44359","lat":"31.219215","category":"113","category_name":"冷饮店","address":"静安区乌鲁木齐北路429号(近延安西路)"},{"poiid":"B2094750D26CA3FE459E","title":"赤坂舞马雅","lon":"121.4465752","lat":"31.2181118","category":"95","category_name":"日本料理","address":"静安区常熟路8号静安8号内(近巨鹿路)"},{"poiid":"B2094752D56BA2FB4492","title":"plaza pizza","lon":"121.446632","lat":"31.218647","category":"247","category_name":"餐饮美食","address":"华山路325号-1(常熟路口)"},{"poiid":"B2094751DA6FA3FF4699","title":"保罗饭店","lon":"121.444537","lat":"31.21829","category":"247","category_name":"餐饮美食","address":"富民路271号(近长乐路)"},{"poiid":"B2094654D564ABFC419B","title":"静安宾馆","lon":"121.44412","lat":"31.21932","category":"215","category_name":"三星级宾馆","address":"华山路370号"},{"poiid":"B2094654DB69A0FA459E","title":"红宝石(华山店)","lon":"121.4458","lat":"31.21781","category":"67","category_name":"甜品店","address":"静安区华山路375号(静安宾馆对面)"},{"poiid":"B2094757D069A3FD459C","title":"中国平安财产保险上海分公司","lon":"121.44687554","lat":"31.21791616","category":"263","category_name":"公司","address":"上海常熟路8号"},{"poiid":"B2094757D06FAAFA4992","title":"华山路","lon":"121.446805586","lat":"31.2182341964","category":"260","category_name":"其他","address":"上海静安区"},{"poiid":"B2094757D16DA3FD469B","title":"荣居酒屋","lon":"121.44440478","lat":"31.218040692","category":"247","category_name":"餐饮美食","address":"上海华山路427号二楼"},{"poiid":"B2094654D564A4FB4899","title":"尖沙咀酒家","lon":"121.44338655804","lat":"31.219689044062","category":"72","category_name":"广东菜","address":"静安区延安西路129号华侨大厦4楼(近乌鲁木齐北路)"},{"poiid":"B2094654D564A4FB479E","title":"上林铁板烧","lon":"121.44375","lat":"31.21971","category":"269","category_name":"烧烤","address":"静安区延安西路129号华侨大厦1楼(近乌鲁木齐北路)"},{"poiid":"B2094757D068AAFA469B","title":"上海外事服务中心","lon":"121.44552897","lat":"31.220250877","category":"260","category_name":"其他","address":"静安区华山路228号上海国际贵都大饭店办公楼2-3楼"},{"poiid":"B2094750DB68A1FC429A","title":"万岛日本料理","lon":"121.443702","lat":"31.218046","category":"500","category_name":"未知分类","address":"乌鲁木齐北路480号5楼"},{"poiid":"B209475CD26DA4FE419A","title":"10·corso·como","lon":"121.445999","lat":"31.220499","category":"500","category_name":"未知分类","address":"上海市 南京西路1717号会德丰广场北院"},{"poiid":"B2094757D66EA5FC439A","title":"希尔顿连天阁","lon":"121.44552558","lat":"31.219270216","category":"500","category_name":"未知分类","address":"上海华山路250号"},{"poiid":"B2094757D065AAFD429D","title":"新花城蟹粉馆","lon":"121.44355","lat":"31.21776","category":"257","category_name":"中餐厅","address":"静安区乌鲁木齐北路538号1-2楼(近华山路)"},{"poiid":"B2094757D66BA2F5439E","title":"李奥纳多达芬奇餐厅","lon":"121.445662054","lat":"31.219435793","category":"98","category_name":"意式菜品餐厅","address":"静安区华山路250号希尔顿酒店1楼(近延安西路)"},{"poiid":"B2094654DB69A0FB419C","title":"静安宾馆中餐厅","lon":"121.44568894175","lat":"31.218200256688","category":"247","category_name":"餐饮美食","address":"静安区华山路370号静安宾馆内(近乌鲁木齐北路)查看地图"},{"poiid":"B2094654D564ABFC439D","title":"合记茶餐厅","lon":"121.44436668466","lat":"31.21697867495","category":"72","category_name":"广东菜","address":"静安区华山路445号(近乌鲁木齐中路)"},{"poiid":"B2094757D068A6FE4693","title":"九光百货","lon":"121.44697081","lat":"31.219561792","category":"249","category_name":"购物服务","address":"香港南京西路1618号"},{"poiid":"B2094655D26EA6F94698","title":"河久日本料理","lon":"121.44399","lat":"31.21813","category":"95","category_name":"日本料理","address":"静安区乌鲁木齐北路505号上海宾馆23楼(近华山路)"},{"poiid":"B2094655D26EA4F8489D","title":"新花城长江第一鲜酒楼","lon":"121.44424","lat":"31.2182","category":"76","category_name":"上海菜","address":"静安区乌鲁木齐北路505号上海宾馆23楼(近华山路)"},{"poiid":"B2094655D264A1F8439A","title":"贵都帝王厅","lon":"121.44453","lat":"31.21999","category":"247","category_name":"餐饮美食","address":"延安西路65号国际贵都大酒店2层"},{"poiid":"B2094757D164AAF9489B","title":"常熟路","lon":"121.446295886","lat":"31.2191703147","category":"500","category_name":"未知分类","address":"上海常熟路长乐路口"},{"poiid":"B2094757D069A7FD4898","title":"组合发型(华山路店)","lon":"121.44613","lat":"31.21746","category":"148","category_name":"美容美发店","address":"静安区华山路383号(近乌鲁木齐中路)"},{"poiid":"B2094757DB68A5FA4198","title":"申城五月天","lon":"121.44546747208","lat":"31.2181232847","category":"72","category_name":"广东菜","address":"静安区华山路370号静安宾馆新楼2楼(近乌鲁木齐路)"},{"poiid":"B2094757D469A0FE419B","title":"上海宾馆 上海厅","lon":"121.443875054","lat":"31.217792793","category":"76","category_name":"上海菜","address":"乌鲁木齐北路505号上海宾馆3楼近华山路"},{"poiid":"B2094757D06AA5F8459B","title":"凯文厨房 Kaveen's Kitchen","lon":"121.44590921556","lat":"31.219920302393","category":"102","category_name":"印度风味","address":"静安区华山路231号2楼(近延安西路)"},{"poiid":"B2094757D068A6FB469C","title":"静安面包房(总店)","lon":"121.4459","lat":"31.21781","category":"217","category_name":"旅馆招待所","address":"上海静安区华山路370号静安宾馆(近乌鲁木齐北路)"},{"poiid":"B2094757D069A7FF4798","title":"静安8号","lon":"121.446953795","lat":"31.217401334","category":"252","category_name":"楼宇机构","address":"上海华山路339弄1号"},{"poiid":"B2094757D464AAF4439F","title":"七牛经典私房牛肉面","lon":"121.443586054","lat":"31.217372793","category":"68","category_name":"快餐厅","address":"静安区华山路486号(近乌鲁木齐中路)"},{"poiid":"B2094757DB6FA0FE4593","title":"新花城","lon":"121.44354","lat":"31.21835","category":"76","category_name":"上海菜","address":"静安区乌鲁木齐北路468弄32号(近上海宾馆)"},{"poiid":"B2094757DB6FA4F8439D","title":"赤板舞玛雅","lon":"121.4432940895836","lat":"31.21832742249485","category":"500","category_name":"未知分类","address":"常熟路8号"},{"poiid":"B2094654D564ABFC439B","title":"华山医院体检部","lon":"121.44483","lat":"31.2173","category":"162","category_name":"医院","address":"华山路433-3"},{"poiid":"B2094654DB69A0FB459B","title":"连天阁","lon":"121.44523","lat":"31.21929","category":"268","category_name":"自助","address":"静安区华山路250号希尔顿酒店1楼(近延安西路)"},{"poiid":"B2094654DB6BA6FC409E","title":"荣居酒屋(华山路)","lon":"121.44494","lat":"31.21734","category":"172","category_name":"酒吧","address":""},{"poiid":"B2094655D269ABFD469B","title":"静安寺","lon":"121.44552","lat":"31.22324","category":"244","category_name":"寺庙道观","address":"静安区南京西路1686号(近静安寺)"},{"poiid":"B2094655D269A4F5449A","title":"希尔顿酒店","lon":"121.44522","lat":"31.2193","category":"247","category_name":"餐饮美食","address":"静安区华山路250号(近延安西路)"},{"poiid":"B2094654DB65A6F4469D","title":"上海国际贵都大饭店","lon":"121.44453","lat":"31.21998","category":"213","category_name":"五星级宾馆","address":"北京西路1028号,江宁路168号"},{"poiid":"B2094753D76FAAFA449C","title":"上海滩国泰旗舰店","lon":"121.466011","lat":"31.216125","category":"249","category_name":"购物服务","address":"淮海中路868号"},{"poiid":"B209475CD564A7F84292","title":"上海滩新天地店","lon":"121.47463","lat":"31.22164","category":"119","category_name":"商场","address":"\"太仓路181弄新天地北里15号\r\n\""},{"poiid":"B209475CD564A7F8439E","title":"上海滩中信泰富店","lon":"121.45602","lat":"31.22851","category":"119","category_name":"商场","address":"\"南京西路1168号中信泰富广场，店铺号221.\r\n\""},{"poiid":"B2094757D06FA3F44892","title":"上海宾馆","lon":"121.44421","lat":"31.21782","category":"214","category_name":"四星级宾馆","address":"上海静安区乌鲁木齐北路505号(近华山路)  "},{"poiid":"B2094654D564ABFF489D","title":"我家餐厅 MY HOME","lon":"121.44573848552","lat":"31.219784895865","category":"76","category_name":"上海菜","address":"静安区华山路229弄7号(近延安西路)"},{"poiid":"B2094654D564A4F54793","title":"钱柜(乌鲁木齐北路)","lon":"121.44374","lat":"31.21874","category":"170","category_name":"KTV","address":"上海静安区乌鲁木齐北路459号(近延安西路)"},{"poiid":"B2094757D06FA4FD4298","title":"锅比盆大(华山旗舰店)","lon":"121.445995862","lat":"31.2196759733","category":"86","category_name":"火锅店","address":"静安区华山路301-1号(近常熟路)"},{"poiid":"B2094757DB69A4FB499E","title":"荣日本料理 华山店","lon":"121.444941","lat":"31.217337","category":"95","category_name":"日本料理","address":"静安区华山路427号2楼(近乌鲁木齐中路)"},{"poiid":"B2094757D068ABFC499E","title":"万泰国际大厦","lon":"121.444421782","lat":"31.2191420635","category":"46","category_name":"楼宇","address":"虹口区纪念路500号"},{"poiid":"B2094757D068A5F9419C","title":"中福会少年宫","lon":"121.44419835","lat":"31.220838763","category":"190","category_name":"培训机构","address":"静安区延安西路64号(贵都酒店对面)"},{"poiid":"B2094655D26FABF44193","title":"上海希尔顿酒店(东二门)","lon":"121.44596","lat":"31.21889","category":"213","category_name":"五星级宾馆","address":"上海市静安区华山路250号（近延安西路）"},{"poiid":"B2094757D06FA3FA479D","title":"路飞堂（华山店）","lon":"121.44359","lat":"31.219215","category":"113","category_name":"冷饮店","address":"静安区乌鲁木齐北路429号(近延安西路)"},{"poiid":"B2094750D26CA3FE459E","title":"赤坂舞马雅","lon":"121.4465752","lat":"31.2181118","category":"95","category_name":"日本料理","address":"静安区常熟路8号静安8号内(近巨鹿路)"},{"poiid":"B2094752D56BA2FB4492","title":"plaza pizza","lon":"121.446632","lat":"31.218647","category":"247","category_name":"餐饮美食","address":"华山路325号-1(常熟路口)"},{"poiid":"B2094751DA6FA3FF4699","title":"保罗饭店","lon":"121.444537","lat":"31.21829","category":"247","category_name":"餐饮美食","address":"富民路271号(近长乐路)"},{"poiid":"B2094654D564ABFC419B","title":"静安宾馆","lon":"121.44412","lat":"31.21932","category":"215","category_name":"三星级宾馆","address":"华山路370号"},{"poiid":"B2094654DB69A0FA459E","title":"红宝石(华山店)","lon":"121.4458","lat":"31.21781","category":"67","category_name":"甜品店","address":"静安区华山路375号(静安宾馆对面)"},{"poiid":"B2094757D069A3FD459C","title":"中国平安财产保险上海分公司","lon":"121.44687554","lat":"31.21791616","category":"263","category_name":"公司","address":"上海常熟路8号"},{"poiid":"B2094757D06FAAFA4992","title":"华山路","lon":"121.446805586","lat":"31.2182341964","category":"260","category_name":"其他","address":"上海静安区"},{"poiid":"B2094757D16DA3FD469B","title":"荣居酒屋","lon":"121.44440478","lat":"31.218040692","category":"247","category_name":"餐饮美食","address":"上海华山路427号二楼"},{"poiid":"B2094654D564A4FB4899","title":"尖沙咀酒家","lon":"121.44338655804","lat":"31.219689044062","category":"72","category_name":"广东菜","address":"静安区延安西路129号华侨大厦4楼(近乌鲁木齐北路)"},{"poiid":"B2094654D564A4FB479E","title":"上林铁板烧","lon":"121.44375","lat":"31.21971","category":"269","category_name":"烧烤","address":"静安区延安西路129号华侨大厦1楼(近乌鲁木齐北路)"},{"poiid":"B2094757D068AAFA469B","title":"上海外事服务中心","lon":"121.44552897","lat":"31.220250877","category":"260","category_name":"其他","address":"静安区华山路228号上海国际贵都大饭店办公楼2-3楼"},{"poiid":"B2094750DB68A1FC429A","title":"万岛日本料理","lon":"121.443702","lat":"31.218046","category":"500","category_name":"未知分类","address":"乌鲁木齐北路480号5楼"},{"poiid":"B209475CD26DA4FE419A","title":"10·corso·como","lon":"121.445999","lat":"31.220499","category":"500","category_name":"未知分类","address":"上海市 南京西路1717号会德丰广场北院"},{"poiid":"B2094757D66EA5FC439A","title":"希尔顿连天阁","lon":"121.44552558","lat":"31.219270216","category":"500","category_name":"未知分类","address":"上海华山路250号"},{"poiid":"B2094757D065AAFD429D","title":"新花城蟹粉馆","lon":"121.44355","lat":"31.21776","category":"257","category_name":"中餐厅","address":"静安区乌鲁木齐北路538号1-2楼(近华山路)"},{"poiid":"B2094757D66BA2F5439E","title":"李奥纳多达芬奇餐厅","lon":"121.445662054","lat":"31.219435793","category":"98","category_name":"意式菜品餐厅","address":"静安区华山路250号希尔顿酒店1楼(近延安西路)"},{"poiid":"B2094654DB69A0FB419C","title":"静安宾馆中餐厅","lon":"121.44568894175","lat":"31.218200256688","category":"247","category_name":"餐饮美食","address":"静安区华山路370号静安宾馆内(近乌鲁木齐北路)查看地图"},{"poiid":"B2094654D564ABFC439D","title":"合记茶餐厅","lon":"121.44436668466","lat":"31.21697867495","category":"72","category_name":"广东菜","address":"静安区华山路445号(近乌鲁木齐中路)"},{"poiid":"B2094757D068A6FE4693","title":"九光百货","lon":"121.44697081","lat":"31.219561792","category":"249","category_name":"购物服务","address":"香港南京西路1618号"},{"poiid":"B2094655D26EA6F94698","title":"河久日本料理","lon":"121.44399","lat":"31.21813","category":"95","category_name":"日本料理","address":"静安区乌鲁木齐北路505号上海宾馆23楼(近华山路)"},{"poiid":"B2094655D26EA4F8489D","title":"新花城长江第一鲜酒楼","lon":"121.44424","lat":"31.2182","category":"76","category_name":"上海菜","address":"静安区乌鲁木齐北路505号上海宾馆23楼(近华山路)"},{"poiid":"B2094655D264A1F8439A","title":"贵都帝王厅","lon":"121.44453","lat":"31.21999","category":"247","category_name":"餐饮美食","address":"延安西路65号国际贵都大酒店2层"},{"poiid":"B2094757D164AAF9489B","title":"常熟路","lon":"121.446295886","lat":"31.2191703147","category":"500","category_name":"未知分类","address":"上海常熟路长乐路口"},{"poiid":"B2094757D069A7FD4898","title":"组合发型(华山路店)","lon":"121.44613","lat":"31.21746","category":"148","category_name":"美容美发店","address":"静安区华山路383号(近乌鲁木齐中路)"},{"poiid":"B2094757DB68A5FA4198","title":"申城五月天","lon":"121.44546747208","lat":"31.2181232847","category":"72","category_name":"广东菜","address":"静安区华山路370号静安宾馆新楼2楼(近乌鲁木齐路)"},{"poiid":"B2094757D469A0FE419B","title":"上海宾馆 上海厅","lon":"121.443875054","lat":"31.217792793","category":"76","category_name":"上海菜","address":"乌鲁木齐北路505号上海宾馆3楼近华山路"},{"poiid":"B2094757D06AA5F8459B","title":"凯文厨房 Kaveen's Kitchen","lon":"121.44590921556","lat":"31.219920302393","category":"102","category_name":"印度风味","address":"静安区华山路231号2楼(近延安西路)"},{"poiid":"B2094757D068A6FB469C","title":"静安面包房(总店)","lon":"121.4459","lat":"31.21781","category":"217","category_name":"旅馆招待所","address":"上海静安区华山路370号静安宾馆(近乌鲁木齐北路)"},{"poiid":"B2094757D069A7FF4798","title":"静安8号","lon":"121.446953795","lat":"31.217401334","category":"252","category_name":"楼宇机构","address":"上海华山路339弄1号"},{"poiid":"B2094757D464AAF4439F","title":"七牛经典私房牛肉面","lon":"121.443586054","lat":"31.217372793","category":"68","category_name":"快餐厅","address":"静安区华山路486号(近乌鲁木齐中路)"},{"poiid":"B2094757DB6FA0FE4593","title":"新花城","lon":"121.44354","lat":"31.21835","category":"76","category_name":"上海菜","address":"静安区乌鲁木齐北路468弄32号(近上海宾馆)"},{"poiid":"B2094757DB6FA4F8439D","title":"赤板舞玛雅","lon":"121.4432940895836","lat":"31.21832742249485","category":"500","category_name":"未知分类","address":"常熟路8号"},{"poiid":"B2094654D564ABFC439B","title":"华山医院体检部","lon":"121.44483","lat":"31.2173","category":"162","category_name":"医院","address":"华山路433-3"},{"poiid":"B2094654DB69A0FB459B","title":"连天阁","lon":"121.44523","lat":"31.21929","category":"268","category_name":"自助","address":"静安区华山路250号希尔顿酒店1楼(近延安西路)"},{"poiid":"B2094654DB6BA6FC409E","title":"荣居酒屋(华山路)","lon":"121.44494","lat":"31.21734","category":"172","category_name":"酒吧","address":""},{"poiid":"B2094655D269ABFD469B","title":"静安寺","lon":"121.44552","lat":"31.22324","category":"244","category_name":"寺庙道观","address":"静安区南京西路1686号(近静安寺)"},{"poiid":"B2094655D269A4F5449A","title":"希尔顿酒店","lon":"121.44522","lat":"31.2193","category":"247","category_name":"餐饮美食","address":"静安区华山路250号(近延安西路)"},{"poiid":"B2094654DB65A6F4469D","title":"上海国际贵都大饭店","lon":"121.44453","lat":"31.21998","category":"213","category_name":"五星级宾馆","address":"北京西路1028号,江宁路168号"},{"poiid":"B2094753D76FAAFA449C","title":"上海滩国泰旗舰店","lon":"121.466011","lat":"31.216125","category":"249","category_name":"购物服务","address":"淮海中路868号"},{"poiid":"B209475CD564A7F84292","title":"上海滩新天地店","lon":"121.47463","lat":"31.22164","category":"119","category_name":"商场","address":"\"太仓路181弄新天地北里15号\r\n\""},{"poiid":"B209475CD564A7F8439E","title":"上海滩中信泰富店","lon":"121.45602","lat":"31.22851","category":"119","category_name":"商场","address":"\"南京西路1168号中信泰富广场，店铺号221.\r\n\""},{"poiid":"B2094757D06FA3F44892","title":"上海宾馆","lon":"121.44421","lat":"31.21782","category":"214","category_name":"四星级宾馆","address":"上海静安区乌鲁木齐北路505号(近华山路)  "},{"poiid":"B2094654D564ABFF489D","title":"我家餐厅 MY HOME","lon":"121.44573848552","lat":"31.219784895865","category":"76","category_name":"上海菜","address":"静安区华山路229弄7号(近延安西路)"},{"poiid":"B2094654D564A4F54793","title":"钱柜(乌鲁木齐北路)","lon":"121.44374","lat":"31.21874","category":"170","category_name":"KTV","address":"上海静安区乌鲁木齐北路459号(近延安西路)"},{"poiid":"B2094757D06FA4FD4298","title":"锅比盆大(华山旗舰店)","lon":"121.445995862","lat":"31.2196759733","category":"86","category_name":"火锅店","address":"静安区华山路301-1号(近常熟路)"},{"poiid":"B2094757DB69A4FB499E","title":"荣日本料理 华山店","lon":"121.444941","lat":"31.217337","category":"95","category_name":"日本料理","address":"静安区华山路427号2楼(近乌鲁木齐中路)"},{"poiid":"B2094757D068ABFC499E","title":"万泰国际大厦","lon":"121.444421782","lat":"31.2191420635","category":"46","category_name":"楼宇","address":"虹口区纪念路500号"},{"poiid":"B2094757D068A5F9419C","title":"中福会少年宫","lon":"121.44419835","lat":"31.220838763","category":"190","category_name":"培训机构","address":"静安区延安西路64号(贵都酒店对面)"},{"poiid":"B2094655D26FABF44193","title":"上海希尔顿酒店(东二门)","lon":"121.44596","lat":"31.21889","category":"213","category_name":"五星级宾馆","address":"上海市静安区华山路250号（近延安西路）"},{"poiid":"B2094757D06FA3FA479D","title":"路飞堂（华山店）","lon":"121.44359","lat":"31.219215","category":"113","category_name":"冷饮店","address":"静安区乌鲁木齐北路429号(近延安西路)"},{"poiid":"B2094750D26CA3FE459E","title":"赤坂舞马雅","lon":"121.4465752","lat":"31.2181118","category":"95","category_name":"日本料理","address":"静安区常熟路8号静安8号内(近巨鹿路)"},{"poiid":"B2094752D56BA2FB4492","title":"plaza pizza","lon":"121.446632","lat":"31.218647","category":"247","category_name":"餐饮美食","address":"华山路325号-1(常熟路口)"},{"poiid":"B2094751DA6FA3FF4699","title":"保罗饭店","lon":"121.444537","lat":"31.21829","category":"247","category_name":"餐饮美食","address":"富民路271号(近长乐路)"},{"poiid":"B2094654D564ABFC419B","title":"静安宾馆","lon":"121.44412","lat":"31.21932","category":"215","category_name":"三星级宾馆","address":"华山路370号"},{"poiid":"B2094654DB69A0FA459E","title":"红宝石(华山店)","lon":"121.4458","lat":"31.21781","category":"67","category_name":"甜品店","address":"静安区华山路375号(静安宾馆对面)"},{"poiid":"B2094757D069A3FD459C","title":"中国平安财产保险上海分公司","lon":"121.44687554","lat":"31.21791616","category":"263","category_name":"公司","address":"上海常熟路8号"},{"poiid":"B2094757D06FAAFA4992","title":"华山路","lon":"121.446805586","lat":"31.2182341964","category":"260","category_name":"其他","address":"上海静安区"},{"poiid":"B2094757D16DA3FD469B","title":"荣居酒屋","lon":"121.44440478","lat":"31.218040692","category":"247","category_name":"餐饮美食","address":"上海华山路427号二楼"},{"poiid":"B2094654D564A4FB4899","title":"尖沙咀酒家","lon":"121.44338655804","lat":"31.219689044062","category":"72","category_name":"广东菜","address":"静安区延安西路129号华侨大厦4楼(近乌鲁木齐北路)"},{"poiid":"B2094654D564A4FB479E","title":"上林铁板烧","lon":"121.44375","lat":"31.21971","category":"269","category_name":"烧烤","address":"静安区延安西路129号华侨大厦1楼(近乌鲁木齐北路)"},{"poiid":"B2094757D068AAFA469B","title":"上海外事服务中心","lon":"121.44552897","lat":"31.220250877","category":"260","category_name":"其他","address":"静安区华山路228号上海国际贵都大饭店办公楼2-3楼"},{"poiid":"B2094750DB68A1FC429A","title":"万岛日本料理","lon":"121.443702","lat":"31.218046","category":"500","category_name":"未知分类","address":"乌鲁木齐北路480号5楼"},{"poiid":"B209475CD26DA4FE419A","title":"10·corso·como","lon":"121.445999","lat":"31.220499","category":"500","category_name":"未知分类","address":"上海市 南京西路1717号会德丰广场北院"},{"poiid":"B2094757D66EA5FC439A","title":"希尔顿连天阁","lon":"121.44552558","lat":"31.219270216","category":"500","category_name":"未知分类","address":"上海华山路250号"},{"poiid":"B2094757D065AAFD429D","title":"新花城蟹粉馆","lon":"121.44355","lat":"31.21776","category":"257","category_name":"中餐厅","address":"静安区乌鲁木齐北路538号1-2楼(近华山路)"},{"poiid":"B2094757D66BA2F5439E","title":"李奥纳多达芬奇餐厅","lon":"121.445662054","lat":"31.219435793","category":"98","category_name":"意式菜品餐厅","address":"静安区华山路250号希尔顿酒店1楼(近延安西路)"},{"poiid":"B2094654DB69A0FB419C","title":"静安宾馆中餐厅","lon":"121.44568894175","lat":"31.218200256688","category":"247","category_name":"餐饮美食","address":"静安区华山路370号静安宾馆内(近乌鲁木齐北路)查看地图"},{"poiid":"B2094654D564ABFC439D","title":"合记茶餐厅","lon":"121.44436668466","lat":"31.21697867495","category":"72","category_name":"广东菜","address":"静安区华山路445号(近乌鲁木齐中路)"},{"poiid":"B2094757D068A6FE4693","title":"九光百货","lon":"121.44697081","lat":"31.219561792","category":"249","category_name":"购物服务","address":"香港南京西路1618号"},{"poiid":"B2094655D26EA6F94698","title":"河久日本料理","lon":"121.44399","lat":"31.21813","category":"95","category_name":"日本料理","address":"静安区乌鲁木齐北路505号上海宾馆23楼(近华山路)"},{"poiid":"B2094655D26EA4F8489D","title":"新花城长江第一鲜酒楼","lon":"121.44424","lat":"31.2182","category":"76","category_name":"上海菜","address":"静安区乌鲁木齐北路505号上海宾馆23楼(近华山路)"},{"poiid":"B2094655D264A1F8439A","title":"贵都帝王厅","lon":"121.44453","lat":"31.21999","category":"247","category_name":"餐饮美食","address":"延安西路65号国际贵都大酒店2层"},{"poiid":"B2094757D164AAF9489B","title":"常熟路","lon":"121.446295886","lat":"31.2191703147","category":"500","category_name":"未知分类","address":"上海常熟路长乐路口"},{"poiid":"B2094757D069A7FD4898","title":"组合发型(华山路店)","lon":"121.44613","lat":"31.21746","category":"148","category_name":"美容美发店","address":"静安区华山路383号(近乌鲁木齐中路)"},{"poiid":"B2094757DB68A5FA4198","title":"申城五月天","lon":"121.44546747208","lat":"31.2181232847","category":"72","category_name":"广东菜","address":"静安区华山路370号静安宾馆新楼2楼(近乌鲁木齐路)"},{"poiid":"B2094757D469A0FE419B","title":"上海宾馆 上海厅","lon":"121.443875054","lat":"31.217792793","category":"76","category_name":"上海菜","address":"乌鲁木齐北路505号上海宾馆3楼近华山路"},{"poiid":"B2094757D06AA5F8459B","title":"凯文厨房 Kaveen's Kitchen","lon":"121.44590921556","lat":"31.219920302393","category":"102","category_name":"印度风味","address":"静安区华山路231号2楼(近延安西路)"},{"poiid":"B2094757D068A6FB469C","title":"静安面包房(总店)","lon":"121.4459","lat":"31.21781","category":"217","category_name":"旅馆招待所","address":"上海静安区华山路370号静安宾馆(近乌鲁木齐北路)"},{"poiid":"B2094757D069A7FF4798","title":"静安8号","lon":"121.446953795","lat":"31.217401334","category":"252","category_name":"楼宇机构","address":"上海华山路339弄1号"},{"poiid":"B2094757D464AAF4439F","title":"七牛经典私房牛肉面","lon":"121.443586054","lat":"31.217372793","category":"68","category_name":"快餐厅","address":"静安区华山路486号(近乌鲁木齐中路)"},{"poiid":"B2094757DB6FA0FE4593","title":"新花城","lon":"121.44354","lat":"31.21835","category":"76","category_name":"上海菜","address":"静安区乌鲁木齐北路468弄32号(近上海宾馆)"},{"poiid":"B2094757DB6FA4F8439D","title":"赤板舞玛雅","lon":"121.4432940895836","lat":"31.21832742249485","category":"500","category_name":"未知分类","address":"常熟路8号"},{"poiid":"B2094654D564ABFC439B","title":"华山医院体检部","lon":"121.44483","lat":"31.2173","category":"162","category_name":"医院","address":"华山路433-3"},{"poiid":"B2094654DB69A0FB459B","title":"连天阁","lon":"121.44523","lat":"31.21929","category":"268","category_name":"自助","address":"静安区华山路250号希尔顿酒店1楼(近延安西路)"},{"poiid":"B2094654DB6BA6FC409E","title":"荣居酒屋(华山路)","lon":"121.44494","lat":"31.21734","category":"172","category_name":"酒吧","address":""}]