[{"poiid":"B2094757D16AABFC4798","title":"辰山山庄","lon":"121.168518196","lat":"31.0699665137","category":"500","category_name":"未知分类","address":"上海市松江区陈家公路508号"},{"poiid":"B2094757D069A6FA429C","title":"天马山","lon":"121.1568","lat":"31.07369","category":"260","category_name":"其他","address":"天马山位于佘山国家旅游度假区西南面约5公里处。"},{"poiid":"B2094655D26BA2F9409D","title":"天马公墓","lon":"121.15457","lat":"31.0821","category":"620","category_name":"丧葬","address":""},{"poiid":"B2094654DB6DA4FF469F","title":"天马山(天鸡路)","lon":"121.14822","lat":"31.07453","category":"196","category_name":"公园","address":"天马山镇"},{"poiid":"B2094757D16BA5FC4298","title":"复旦大学附属中山医院(天马山分院)","lon":"121.15633","lat":"31.07521","category":"162","category_name":"医院","address":"松江区佘山镇新宅二路55号"},{"poiid":"B2094654DA6BA4F4429F","title":"天马塔园","lon":"121.1546","lat":"31.08231","category":"47","category_name":"住宅区","address":"上海市松江区沈砖公路"},{"poiid":"B2094654DB6DA4F8409E","title":"中山医院天马山分部","lon":"121.15604","lat":"31.07561","category":"162","category_name":"医院","address":"刘家山村456"},{"poiid":"B2094655D26BA2F9409E","title":"天马镇","lon":"121.14818","lat":"31.06948","category":"38","category_name":"公交车站","address":""},{"poiid":"B2094757D16AAAFB4999","title":"维纳斯小镇","lon":"121.155479246","lat":"31.0708045316","category":"500","category_name":"未知分类","address":"上海松江区佘山东街一号"},{"poiid":"B2094654DB6DA4FF4699","title":"护珠塔","lon":"121.14858","lat":"31.07473","category":"250","category_name":"公园户外","address":"松江区莱乐东路78号"},{"poiid":"B2094655D26FA1FE469C","title":"佘山国家旅游度假区(沈砖公路)","lon":"121.17105","lat":"31.0845","category":"240","category_name":"国家级景点","address":""},{"poiid":"B2094654DB6DA4F8419C","title":"天马商场","lon":"121.14878","lat":"31.07232","category":"119","category_name":"商场","address":""},{"poiid":"B2094752D56CABFB4292","title":"纳米魔幻城","lon":"121.169379","lat":"31.06904","category":"47","category_name":"住宅区","address":"佘山国家旅游度假区辰花路5088号"},{"poiid":"B2094654DB6DA4FF479D","title":"云峰小区","lon":"121.1466","lat":"31.07102","category":"47","category_name":"住宅区","address":"天马山镇"},{"poiid":"B2094655D36CA5F84298","title":"辰花公路辰塔路","lon":"121.1759","lat":"31.06879","category":"38","category_name":"公交车站","address":""},{"poiid":"B2094655D36DA2FF429A","title":"辰山河桥","lon":"121.17469","lat":"31.07859","category":"250","category_name":"公园户外","address":""},{"poiid":"B2094654DB6DA4FB4599","title":"醉仙楼酒店","lon":"121.14305","lat":"31.06928","category":"257","category_name":"中餐厅","address":"天马山镇"},{"poiid":"B2094654DB6DA4FF479E","title":"天马山中学","lon":"121.14354","lat":"31.0685","category":"55","category_name":"中学","address":"松江区天马山镇花园弄5号"},{"poiid":"B2094752D568A0FC449A","title":"上海辰山植物园","lon":"121.177192","lat":"31.074245","category":"250","category_name":"公园户外","address":null},{"poiid":"B2094654DB6DA4F9499D","title":"中国电信天马营业处","lon":"121.14363","lat":"31.06921","category":"151","category_name":"电讯营业厅","address":"新宅路63号"},{"poiid":"B2094654DB6DA4FE4193","title":"天马山学校","lon":"121.14467","lat":"31.06706","category":"55","category_name":"中学","address":""},{"poiid":"B2094654DB6DA4FA449E","title":"逸峰小区","lon":"121.14438","lat":"31.06623","category":"47","category_name":"住宅区","address":"天马山镇"},{"poiid":"B2094757D168A0F9479F","title":"佘山工商所","lon":"121.144354","lat":"31.069437","category":"500","category_name":"未知分类","address":"上海松江区佘山镇天马天新路81号"},{"poiid":"B2094654DB6DA4FA4499","title":"小区(新宅路)","lon":"121.14347","lat":"31.06704","category":"47","category_name":"住宅区","address":""},{"poiid":"B2094753D569A0FB479B","title":"上海欢乐谷","lon":"121.17015","lat":"31.093461","category":"500","category_name":"未知分类","address":"上海市 林湖路"},{"poiid":"B2094654DA6BA4F8449A","title":"上海江秋度假村","lon":"121.16706","lat":"31.09528","category":"207","category_name":"度假疗养场所","address":"松江区佘山镇江秋村九江公路"},{"poiid":"B2094654DB69A7FA459C","title":"邮政储蓄天马支所","lon":"121.14189","lat":"31.06874","category":"150","category_name":"银行","address":"松江区天马镇天新路36号"}]