[{"poiid":"B2094757D06AA0F8489B","title":"东方绿舟宾馆","lon":"121.00562429","lat":"31.097855983","category":"217","category_name":"旅馆招待所","address":"青浦区沪青平公路7000号东方绿舟2号门"},{"poiid":"B2094757D064A2FE459E","title":"报国寺","lon":"120.98173126","lat":"31.088999055","category":"500","category_name":"未知分类","address":"上海市青浦区朱家角镇淀峰村452号"},{"poiid":"B2094654DA6BA1FB4292","title":"上海国际华城","lon":"120.984455","lat":"31.092459","category":"47","category_name":"住宅区","address":"上海市青浦区沪青平路7502号"},{"poiid":"B2094655D265A1FE4499","title":"金舟渔村","lon":"121.00175","lat":"31.0971","category":"247","category_name":"餐饮美食","address":"青浦区沪青平公路7300号(近318国道)"},{"poiid":"B2094654DA6BA1F5409A","title":"东方港湾金杰","lon":"120.988059","lat":"31.095614","category":"47","category_name":"住宅区","address":"朱家角淀山湖畔"},{"poiid":"B2094655D36CA6F4489D","title":"淀峰","lon":"120.98546","lat":"31.08897","category":"38","category_name":"公交车站","address":""},{"poiid":"B2094654DA6BA1F54299","title":"东方绿洲绿洲宾馆","lon":"121.0075","lat":"31.09846","category":"214","category_name":"四星级宾馆","address":"青浦区沪青平公路7000号"},{"poiid":"B2094757D66FA3FB4392","title":"G50沪渝高速拦路港大桥","lon":"120.991839251","lat":"31.0832070248","category":"260","category_name":"其他","address":"上海G50沪渝高速拦路港大桥"},{"poiid":"B2094655D26BABFE4692","title":"上海威尼斯花园二期","lon":"120.97956","lat":"31.08509","category":"47","category_name":"住宅区","address":"沪青平公路8600号"},{"poiid":"B2094757D16FA7FA459C","title":"山湾渔家乐","lon":"121.00663854","lat":"31.095969668","category":"260","category_name":"其他","address":"青浦区沪青平公路6888号东方绿洲二号门对面"},{"poiid":"B2094655D268ABF8419C","title":"拦路港大桥","lon":"120.98802","lat":"31.08112","category":"250","category_name":"公园户外","address":""},{"poiid":"B2094654DA6BA1FB4293","title":"青浦区市级千亩苗木基地","lon":"120.9817","lat":"31.08191","category":"45","category_name":"产业园区","address":""},{"poiid":"B2094757D16CA5F8489B","title":"淀山湖服务站","lon":"121.00721144","lat":"31.09046607","category":"260","category_name":"其他","address":"上海淀山湖"}]