[{"poiid":"B2094757DA69A2FD4992","title":"正大广场","lon":"121.49905","lat":"31.23668","category":"119","category_name":"商场","address":"浦东新区陆家嘴西路168号"},{"poiid":"B2094757D469A7F8449D","title":"哈根达斯 滨江店 Haagen-Dazs","lon":"121.497862054","lat":"31.235934793","category":"67","category_name":"甜品店","address":"浦东新区滨江大道1号富都段码头北侧端(近正大广场后门)"},{"poiid":"B2094655D26EABFA499D","title":"港丽餐厅 正大店 Charme Restaurant","lon":"121.499669054","lat":"31.237629793","category":"247","category_name":"餐饮美食","address":"浦东新区陆家嘴西路168号正大广场7楼08A号铺(近东方明珠)"},{"poiid":"B209475CD564A7F84292","title":"上海滩新天地店","lon":"121.47463","lat":"31.22164","category":"119","category_name":"商场","address":"\"太仓路181弄新天地北里15号\r\n\""},{"poiid":"B209475CD564A7F84392","title":"上海滩浦东香格里拉店","lon":"121.50058","lat":"31.23634","category":"119","category_name":"商场","address":"浦东富成路33号香格里拉酒店内大堂层"},{"poiid":"B2094655D26EA7F94293","title":"Hooters（正大广场店）","lon":"121.49832530613423","lat":"31.236079948430497","category":"94","category_name":"西餐厅","address":"浦东新区陆家嘴西路168号正大广场1楼(近东方明珠)"},{"poiid":"B2094757D469A1F54993","title":"星巴克 滨江店 Starbucks Cafe","lon":"121.49833629105","lat":"31.235145384788","category":"260","category_name":"其他","address":"浦东新区滨江大道富都段滨江公园内(富城路名商路)"},{"poiid":"B2094654DB6BABFC429B","title":"新元素(正大店)","lon":"121.4982","lat":"31.2363","category":"94","category_name":"西餐厅","address":"浦东新区陆家嘴西路168号正大广场1楼西北角(近东方明珠)"},{"poiid":"B2094757D06EABF5429A","title":"望湘园(正大店)","lon":"121.49781942","lat":"31.236038792","category":"77","category_name":"湖南菜","address":"上海浦东新区陆家嘴西路168号正大广场4楼29室(近富城路)"},{"poiid":"B2094757D06FA3F8449F","title":"鼎泰丰(正大广场店)","lon":"121.498763442","lat":"31.23695353","category":"68","category_name":"快餐厅","address":"浦东新区陆家嘴西路168号正大广场3楼24号铺(近东方明珠)"},{"poiid":"B2094655D26EABF8459D","title":"好乐迪","lon":"121.49905","lat":"31.23669","category":"170","category_name":"KTV","address":"浦东新区陆家嘴西路168号正大广场8楼05号铺(近东方明珠)"},{"poiid":"B2094757D06FA3F9499F","title":"俏江南(正大广场店)","lon":"121.49965","lat":"31.23673","category":"71","category_name":"四川菜","address":"浦东新区陆家嘴西路168号正大广场10楼(近东方明珠)"},{"poiid":"B2094655D26FAAF94099","title":"居食屋和民料理","lon":"121.49905","lat":"31.23669","category":"95","category_name":"日本料理","address":"浦东新区陆家嘴西路168号正大广场8楼(近东方明珠)"},{"poiid":"B2094654DB64A7FA479B","title":"喜多屋国际海鲜料理(正大店)","lon":"121.49905","lat":"31.23669","category":"257","category_name":"中餐厅","address":"陆家嘴西路168号正大广场B2楼近东方明珠"},{"poiid":"B2094751D36CA2FE479E","title":"炉边情谈(正大广场店)","lon":"121.49818","lat":"31.23602","category":"96","category_name":"韩国料理","address":"浦东新区陆家嘴西路168号正大广场6楼46B号铺(近东方明珠)"},{"poiid":"B2094655D26FA6FF4498","title":"必胜客(正大店)","lon":"121.4989726","lat":"31.2371425","category":"94","category_name":"西餐厅","address":"浦东新区陆家嘴西路168号正大广场5楼26号铺(近东方明珠)"},{"poiid":"B2094655D26EABF9459A","title":"葡京制造 陆家嘴店","lon":"121.499669054","lat":"31.237629793","category":"247","category_name":"餐饮美食","address":"浦东新区陆家嘴西路168号正大广场6楼(近东方明珠)"},{"poiid":"B2094655D26AABFE4692","title":"汤姆熊正大广场店","lon":"121.49904","lat":"31.23668","category":"247","category_name":"餐饮美食","address":"浦东新区陆家嘴西路168号正大广场6楼14-15号铺(近东方明珠)"},{"poiid":"B2094750D76FA6F4429D","title":"食之秘(正大广场店)","lon":"121.499","lat":"31.2367","category":"67","category_name":"甜品店","address":"浦东新区陆家嘴西路168号正大广场5楼24-25号铺(近东方明珠)"},{"poiid":"B2094757D06FABFA499A","title":"代官山(正大广场店)","lon":"121.4992086","lat":"31.236618769","category":"260","category_name":"其他","address":"浦东新区陆家嘴西路168号正大广场5楼16-17号铺(近东方明珠)"},{"poiid":"B2094757D06FA0F94099","title":"张生记(正大广场店)","lon":"121.49955","lat":"31.23682","category":"75","category_name":"浙江菜","address":"浦东新区陆家嘴西路168号正大广场6楼42-44号铺(近东方明珠)"},{"poiid":"B2094757D06FA1F5479D","title":"震旦国际大楼","lon":"121.499293","lat":"31.234784","category":"46","category_name":"楼宇","address":"上海浦东新区富城路99号"},{"poiid":"B2094757D06FA1F9459C","title":"廊亦舫酒楼(正大店)","lon":"121.49933","lat":"31.23642","category":"76","category_name":"上海菜","address":"浦东新区陆家嘴西路168号正大广场5楼23号铺(近东方明珠)"},{"poiid":"B2094757D06FA2F9439E","title":"香格里拉怡咖啡","lon":"121.4992","lat":"31.2349","category":"268","category_name":"自助","address":"浦东新区富城路33号香格里拉大酒店紫金楼2楼(近名商路)"},{"poiid":"B2094654DA6FA7FF4099","title":"正大广场(西门)","lon":"121.49813","lat":"31.23651","category":"656","category_name":"大门","address":""},{"poiid":"B2094654DB64ABF9439A","title":"震旦艺术博物馆","lon":"121.49929","lat":"31.23478","category":"182","category_name":"博物馆","address":"富城路99号震旦国际大楼1层"},{"poiid":"B2094655D26EA6F54193","title":"大家乐(正大店)","lon":"121.49833","lat":"31.23601","category":"68","category_name":"快餐厅","address":"浦东新区陆家嘴西路168号正大广场8楼(近东方明珠)"},{"poiid":"B2094757D06BA0FE469D","title":"浦东香格里酒店 盛世堂I","lon":"121.498685","lat":"31.235798","category":"217","category_name":"旅馆招待所","address":"上海浦东新区富城路33号 浦东香格里拉酒店紫金楼3F"},{"poiid":"B2094757D06FA7F54992","title":"爱晚亭酒店(正大广场店)","lon":"121.49781868","lat":"31.236147816","category":"72","category_name":"广东菜","address":"浦东新区陆家嘴西路168号正大广场8楼02C-D号铺(近东方明珠)"},{"poiid":"B2094757D06FA1F54899","title":"玩具反斗城(上海正大店)","lon":"121.49940673","lat":"31.236642436","category":"128","category_name":"儿童用品店","address":"上海浦东新区陆家嘴西路168号正大广场4楼(近东方明珠)"},{"poiid":"B2094654DB64A6FF409E","title":"好乐迪量贩式KTV正大店","lon":"121.49901","lat":"31.23673","category":"170","category_name":"KTV","address":"上海浦东新区陆家嘴西路168号正大广场8楼"},{"poiid":"B2094757D06FA0FF479B","title":"新素代(正大店)","lon":"121.498653","lat":"31.236908","category":"89","category_name":"中式素餐馆","address":"浦东新区陆家嘴西路168号正大广场5楼西区20号铺(近东方明珠)"},{"poiid":"B2094752D368A0F9459A","title":"小辉哥火锅","lon":"121.498561","lat":"31.236617","category":"247","category_name":"餐饮美食","address":"正大"},{"poiid":"B2094757D16FA0FC429D","title":"廊亦坊","lon":"121.498013738","lat":"31.2354924122","category":"500","category_name":"未知分类","address":"上海正大廣場5樓"},{"poiid":"B2094757D065AAF9479F","title":"宝莱纳","lon":"121.498644738","lat":"31.2366434368","category":"249","category_name":"购物服务","address":"上海市浦东新区滨江大道"},{"poiid":"B2094655D26AABFC459D","title":"楚炫堂生态炖鱼馆正大广场店","lon":"121.49904","lat":"31.23668","category":"86","category_name":"火锅店","address":"浦东新区陆家嘴西路168号正大广场6楼(近东方明珠)"},{"poiid":"B2094753D26CA3FE4398","title":"星期五餐厅Fridays","lon":"121.497979","lat":"31.236196","category":"500","category_name":"未知分类","address":"上海市 上海市浦东新区富城路"},{"poiid":"B2094757D16EA0FC4392","title":"Coco壹番屋","lon":"121.49944573","lat":"31.236752439","category":"247","category_name":"餐饮美食","address":"上海浦东正大广场8楼"},{"poiid":"B2094655D26FA2F44693","title":"味千拉面正大店","lon":"121.49905","lat":"31.23669","category":"95","category_name":"日本料理","address":"浦东新区陆家嘴西路168号正大广场8楼07-08A号铺(近东方明珠)"},{"poiid":"B2094655D26EABFD4293","title":"富临轩(正大店)","lon":"121.49833","lat":"31.23601","category":"72","category_name":"广东菜","address":"浦东新区陆家嘴西路168号正大广场4楼30-31号铺(近东方明珠)"},{"poiid":"B2094750DB64A0FB4299","title":"王品正大店","lon":"121.498657","lat":"31.23637","category":"247","category_name":"餐饮美食","address":"正大广场"},{"poiid":"B2094750D365A4FA499B","title":"韩林碳烤（正大广场店）","lon":"121.499244","lat":"31.236656","category":"247","category_name":"餐饮美食","address":null},{"poiid":"B2094751DA6DA1F44099","title":"俏江南","lon":"121.498156","lat":"31.236386","category":"247","category_name":"餐饮美食","address":"正大广场十楼"},{"poiid":"B2094757D06FA1FC4398","title":"卜蜂莲花(正大广场店)","lon":"121.49841079","lat":"31.236405957","category":"119","category_name":"商场","address":"浦东新区陆家嘴西路168号正大广场B2楼(近东方明珠)"},{"poiid":"B2094655D26CA4F44392","title":"滨江大道(八号门)","lon":"121.49874","lat":"31.23482","category":"116","category_name":"特色商业街","address":""},{"poiid":"B2094757D06AA7F4479A","title":"香格里拉大堂酒廊","lon":"121.49914","lat":"31.23535","category":"260","category_name":"其他","address":"浦东新区富城路33号香格里拉大酒店浦江楼1楼(近名商路)"},{"poiid":"B2094750D56EA1FD459D","title":"上海浦东香格里拉大酒店桂花楼中餐厅","lon":"121.498611","lat":"31.235609","category":"247","category_name":"餐饮美食","address":"富城路33号"},{"poiid":"B2094757D069A5F4449D","title":"Lavazza正大广场店","lon":"121.50245","lat":"31.23789","category":"260","category_name":"其他","address":"浦东新区陆家嘴西路168号正大广场3楼西区-25铺(近东方明珠)"},{"poiid":"B2094655D269A4F4469C","title":"蛋蛋屋 正大广场店 Dan bo fun","lon":"121.499669054","lat":"31.237629793","category":"95","category_name":"日本料理","address":"浦东新区陆家嘴西路168号正大广场B2楼(近东方明珠)"},{"poiid":"B2094757D06BABFB459F","title":"新元素","lon":"121.49792373","lat":"31.236463432","category":"500","category_name":"未知分类","address":"上海市浦东新区滨江大道"},{"poiid":"B2094757DA69A2FD4992","title":"正大广场","lon":"121.49905","lat":"31.23668","category":"119","category_name":"商场","address":"浦东新区陆家嘴西路168号"},{"poiid":"B2094757D469A7F8449D","title":"哈根达斯 滨江店 Haagen-Dazs","lon":"121.497862054","lat":"31.235934793","category":"67","category_name":"甜品店","address":"浦东新区滨江大道1号富都段码头北侧端(近正大广场后门)"},{"poiid":"B2094655D26EABFA499D","title":"港丽餐厅 正大店 Charme Restaurant","lon":"121.499669054","lat":"31.237629793","category":"247","category_name":"餐饮美食","address":"浦东新区陆家嘴西路168号正大广场7楼08A号铺(近东方明珠)"},{"poiid":"B209475CD564A7F84292","title":"上海滩新天地店","lon":"121.47463","lat":"31.22164","category":"119","category_name":"商场","address":"\"太仓路181弄新天地北里15号\r\n\""},{"poiid":"B209475CD564A7F84392","title":"上海滩浦东香格里拉店","lon":"121.50058","lat":"31.23634","category":"119","category_name":"商场","address":"浦东富成路33号香格里拉酒店内大堂层"},{"poiid":"B2094655D26EA7F94293","title":"Hooters（正大广场店）","lon":"121.49832530613423","lat":"31.236079948430497","category":"94","category_name":"西餐厅","address":"浦东新区陆家嘴西路168号正大广场1楼(近东方明珠)"},{"poiid":"B2094757D469A1F54993","title":"星巴克 滨江店 Starbucks Cafe","lon":"121.49833629105","lat":"31.235145384788","category":"260","category_name":"其他","address":"浦东新区滨江大道富都段滨江公园内(富城路名商路)"},{"poiid":"B2094654DB6BABFC429B","title":"新元素(正大店)","lon":"121.4982","lat":"31.2363","category":"94","category_name":"西餐厅","address":"浦东新区陆家嘴西路168号正大广场1楼西北角(近东方明珠)"},{"poiid":"B2094757D06EABF5429A","title":"望湘园(正大店)","lon":"121.49781942","lat":"31.236038792","category":"77","category_name":"湖南菜","address":"上海浦东新区陆家嘴西路168号正大广场4楼29室(近富城路)"},{"poiid":"B2094757D06FA3F8449F","title":"鼎泰丰(正大广场店)","lon":"121.498763442","lat":"31.23695353","category":"68","category_name":"快餐厅","address":"浦东新区陆家嘴西路168号正大广场3楼24号铺(近东方明珠)"},{"poiid":"B2094655D26EABF8459D","title":"好乐迪","lon":"121.49905","lat":"31.23669","category":"170","category_name":"KTV","address":"浦东新区陆家嘴西路168号正大广场8楼05号铺(近东方明珠)"},{"poiid":"B2094757D06FA3F9499F","title":"俏江南(正大广场店)","lon":"121.49965","lat":"31.23673","category":"71","category_name":"四川菜","address":"浦东新区陆家嘴西路168号正大广场10楼(近东方明珠)"},{"poiid":"B2094655D26FAAF94099","title":"居食屋和民料理","lon":"121.49905","lat":"31.23669","category":"95","category_name":"日本料理","address":"浦东新区陆家嘴西路168号正大广场8楼(近东方明珠)"},{"poiid":"B2094654DB64A7FA479B","title":"喜多屋国际海鲜料理(正大店)","lon":"121.49905","lat":"31.23669","category":"257","category_name":"中餐厅","address":"陆家嘴西路168号正大广场B2楼近东方明珠"},{"poiid":"B2094751D36CA2FE479E","title":"炉边情谈(正大广场店)","lon":"121.49818","lat":"31.23602","category":"96","category_name":"韩国料理","address":"浦东新区陆家嘴西路168号正大广场6楼46B号铺(近东方明珠)"},{"poiid":"B2094655D26FA6FF4498","title":"必胜客(正大店)","lon":"121.4989726","lat":"31.2371425","category":"94","category_name":"西餐厅","address":"浦东新区陆家嘴西路168号正大广场5楼26号铺(近东方明珠)"},{"poiid":"B2094655D26EABF9459A","title":"葡京制造 陆家嘴店","lon":"121.499669054","lat":"31.237629793","category":"247","category_name":"餐饮美食","address":"浦东新区陆家嘴西路168号正大广场6楼(近东方明珠)"},{"poiid":"B2094655D26AABFE4692","title":"汤姆熊正大广场店","lon":"121.49904","lat":"31.23668","category":"247","category_name":"餐饮美食","address":"浦东新区陆家嘴西路168号正大广场6楼14-15号铺(近东方明珠)"},{"poiid":"B2094750D76FA6F4429D","title":"食之秘(正大广场店)","lon":"121.499","lat":"31.2367","category":"67","category_name":"甜品店","address":"浦东新区陆家嘴西路168号正大广场5楼24-25号铺(近东方明珠)"},{"poiid":"B2094757D06FABFA499A","title":"代官山(正大广场店)","lon":"121.4992086","lat":"31.236618769","category":"260","category_name":"其他","address":"浦东新区陆家嘴西路168号正大广场5楼16-17号铺(近东方明珠)"},{"poiid":"B2094757D06FA0F94099","title":"张生记(正大广场店)","lon":"121.49955","lat":"31.23682","category":"75","category_name":"浙江菜","address":"浦东新区陆家嘴西路168号正大广场6楼42-44号铺(近东方明珠)"},{"poiid":"B2094757D06FA1F5479D","title":"震旦国际大楼","lon":"121.499293","lat":"31.234784","category":"46","category_name":"楼宇","address":"上海浦东新区富城路99号"},{"poiid":"B2094757D06FA1F9459C","title":"廊亦舫酒楼(正大店)","lon":"121.49933","lat":"31.23642","category":"76","category_name":"上海菜","address":"浦东新区陆家嘴西路168号正大广场5楼23号铺(近东方明珠)"},{"poiid":"B2094757D06FA2F9439E","title":"香格里拉怡咖啡","lon":"121.4992","lat":"31.2349","category":"268","category_name":"自助","address":"浦东新区富城路33号香格里拉大酒店紫金楼2楼(近名商路)"},{"poiid":"B2094654DA6FA7FF4099","title":"正大广场(西门)","lon":"121.49813","lat":"31.23651","category":"656","category_name":"大门","address":""},{"poiid":"B2094654DB64ABF9439A","title":"震旦艺术博物馆","lon":"121.49929","lat":"31.23478","category":"182","category_name":"博物馆","address":"富城路99号震旦国际大楼1层"},{"poiid":"B2094655D26EA6F54193","title":"大家乐(正大店)","lon":"121.49833","lat":"31.23601","category":"68","category_name":"快餐厅","address":"浦东新区陆家嘴西路168号正大广场8楼(近东方明珠)"},{"poiid":"B2094757D06BA0FE469D","title":"浦东香格里酒店 盛世堂I","lon":"121.498685","lat":"31.235798","category":"217","category_name":"旅馆招待所","address":"上海浦东新区富城路33号 浦东香格里拉酒店紫金楼3F"},{"poiid":"B2094757D06FA7F54992","title":"爱晚亭酒店(正大广场店)","lon":"121.49781868","lat":"31.236147816","category":"72","category_name":"广东菜","address":"浦东新区陆家嘴西路168号正大广场8楼02C-D号铺(近东方明珠)"},{"poiid":"B2094757D06FA1F54899","title":"玩具反斗城(上海正大店)","lon":"121.49940673","lat":"31.236642436","category":"128","category_name":"儿童用品店","address":"上海浦东新区陆家嘴西路168号正大广场4楼(近东方明珠)"},{"poiid":"B2094654DB64A6FF409E","title":"好乐迪量贩式KTV正大店","lon":"121.49901","lat":"31.23673","category":"170","category_name":"KTV","address":"上海浦东新区陆家嘴西路168号正大广场8楼"},{"poiid":"B2094757D06FA0FF479B","title":"新素代(正大店)","lon":"121.498653","lat":"31.236908","category":"89","category_name":"中式素餐馆","address":"浦东新区陆家嘴西路168号正大广场5楼西区20号铺(近东方明珠)"},{"poiid":"B2094752D368A0F9459A","title":"小辉哥火锅","lon":"121.498561","lat":"31.236617","category":"247","category_name":"餐饮美食","address":"正大"},{"poiid":"B2094757D16FA0FC429D","title":"廊亦坊","lon":"121.498013738","lat":"31.2354924122","category":"500","category_name":"未知分类","address":"上海正大廣場5樓"},{"poiid":"B2094757D065AAF9479F","title":"宝莱纳","lon":"121.498644738","lat":"31.2366434368","category":"249","category_name":"购物服务","address":"上海市浦东新区滨江大道"},{"poiid":"B2094655D26AABFC459D","title":"楚炫堂生态炖鱼馆正大广场店","lon":"121.49904","lat":"31.23668","category":"86","category_name":"火锅店","address":"浦东新区陆家嘴西路168号正大广场6楼(近东方明珠)"},{"poiid":"B2094753D26CA3FE4398","title":"星期五餐厅Fridays","lon":"121.497979","lat":"31.236196","category":"500","category_name":"未知分类","address":"上海市 上海市浦东新区富城路"},{"poiid":"B2094757D16EA0FC4392","title":"Coco壹番屋","lon":"121.49944573","lat":"31.236752439","category":"247","category_name":"餐饮美食","address":"上海浦东正大广场8楼"},{"poiid":"B2094655D26FA2F44693","title":"味千拉面正大店","lon":"121.49905","lat":"31.23669","category":"95","category_name":"日本料理","address":"浦东新区陆家嘴西路168号正大广场8楼07-08A号铺(近东方明珠)"},{"poiid":"B2094655D26EABFD4293","title":"富临轩(正大店)","lon":"121.49833","lat":"31.23601","category":"72","category_name":"广东菜","address":"浦东新区陆家嘴西路168号正大广场4楼30-31号铺(近东方明珠)"},{"poiid":"B2094750DB64A0FB4299","title":"王品正大店","lon":"121.498657","lat":"31.23637","category":"247","category_name":"餐饮美食","address":"正大广场"},{"poiid":"B2094750D365A4FA499B","title":"韩林碳烤（正大广场店）","lon":"121.499244","lat":"31.236656","category":"247","category_name":"餐饮美食","address":null},{"poiid":"B2094751DA6DA1F44099","title":"俏江南","lon":"121.498156","lat":"31.236386","category":"247","category_name":"餐饮美食","address":"正大广场十楼"},{"poiid":"B2094757D06FA1FC4398","title":"卜蜂莲花(正大广场店)","lon":"121.49841079","lat":"31.236405957","category":"119","category_name":"商场","address":"浦东新区陆家嘴西路168号正大广场B2楼(近东方明珠)"},{"poiid":"B2094655D26CA4F44392","title":"滨江大道(八号门)","lon":"121.49874","lat":"31.23482","category":"116","category_name":"特色商业街","address":""},{"poiid":"B2094757D06AA7F4479A","title":"香格里拉大堂酒廊","lon":"121.49914","lat":"31.23535","category":"260","category_name":"其他","address":"浦东新区富城路33号香格里拉大酒店浦江楼1楼(近名商路)"},{"poiid":"B2094750D56EA1FD459D","title":"上海浦东香格里拉大酒店桂花楼中餐厅","lon":"121.498611","lat":"31.235609","category":"247","category_name":"餐饮美食","address":"富城路33号"},{"poiid":"B2094757D069A5F4449D","title":"Lavazza正大广场店","lon":"121.50245","lat":"31.23789","category":"260","category_name":"其他","address":"浦东新区陆家嘴西路168号正大广场3楼西区-25铺(近东方明珠)"},{"poiid":"B2094655D269A4F4469C","title":"蛋蛋屋 正大广场店 Dan bo fun","lon":"121.499669054","lat":"31.237629793","category":"95","category_name":"日本料理","address":"浦东新区陆家嘴西路168号正大广场B2楼(近东方明珠)"},{"poiid":"B2094757D06BABFB459F","title":"新元素","lon":"121.49792373","lat":"31.236463432","category":"500","category_name":"未知分类","address":"上海市浦东新区滨江大道"},{"poiid":"B2094757DA69A2FD4992","title":"正大广场","lon":"121.49905","lat":"31.23668","category":"119","category_name":"商场","address":"浦东新区陆家嘴西路168号"},{"poiid":"B2094757D469A7F8449D","title":"哈根达斯 滨江店 Haagen-Dazs","lon":"121.497862054","lat":"31.235934793","category":"67","category_name":"甜品店","address":"浦东新区滨江大道1号富都段码头北侧端(近正大广场后门)"},{"poiid":"B2094655D26EABFA499D","title":"港丽餐厅 正大店 Charme Restaurant","lon":"121.499669054","lat":"31.237629793","category":"247","category_name":"餐饮美食","address":"浦东新区陆家嘴西路168号正大广场7楼08A号铺(近东方明珠)"},{"poiid":"B209475CD564A7F84292","title":"上海滩新天地店","lon":"121.47463","lat":"31.22164","category":"119","category_name":"商场","address":"\"太仓路181弄新天地北里15号\r\n\""},{"poiid":"B209475CD564A7F84392","title":"上海滩浦东香格里拉店","lon":"121.50058","lat":"31.23634","category":"119","category_name":"商场","address":"浦东富成路33号香格里拉酒店内大堂层"},{"poiid":"B2094655D26EA7F94293","title":"Hooters（正大广场店）","lon":"121.49832530613423","lat":"31.236079948430497","category":"94","category_name":"西餐厅","address":"浦东新区陆家嘴西路168号正大广场1楼(近东方明珠)"},{"poiid":"B2094757D469A1F54993","title":"星巴克 滨江店 Starbucks Cafe","lon":"121.49833629105","lat":"31.235145384788","category":"260","category_name":"其他","address":"浦东新区滨江大道富都段滨江公园内(富城路名商路)"},{"poiid":"B2094654DB6BABFC429B","title":"新元素(正大店)","lon":"121.4982","lat":"31.2363","category":"94","category_name":"西餐厅","address":"浦东新区陆家嘴西路168号正大广场1楼西北角(近东方明珠)"},{"poiid":"B2094757D06EABF5429A","title":"望湘园(正大店)","lon":"121.49781942","lat":"31.236038792","category":"77","category_name":"湖南菜","address":"上海浦东新区陆家嘴西路168号正大广场4楼29室(近富城路)"},{"poiid":"B2094757D06FA3F8449F","title":"鼎泰丰(正大广场店)","lon":"121.498763442","lat":"31.23695353","category":"68","category_name":"快餐厅","address":"浦东新区陆家嘴西路168号正大广场3楼24号铺(近东方明珠)"},{"poiid":"B2094655D26EABF8459D","title":"好乐迪","lon":"121.49905","lat":"31.23669","category":"170","category_name":"KTV","address":"浦东新区陆家嘴西路168号正大广场8楼05号铺(近东方明珠)"},{"poiid":"B2094757D06FA3F9499F","title":"俏江南(正大广场店)","lon":"121.49965","lat":"31.23673","category":"71","category_name":"四川菜","address":"浦东新区陆家嘴西路168号正大广场10楼(近东方明珠)"},{"poiid":"B2094655D26FAAF94099","title":"居食屋和民料理","lon":"121.49905","lat":"31.23669","category":"95","category_name":"日本料理","address":"浦东新区陆家嘴西路168号正大广场8楼(近东方明珠)"},{"poiid":"B2094654DB64A7FA479B","title":"喜多屋国际海鲜料理(正大店)","lon":"121.49905","lat":"31.23669","category":"257","category_name":"中餐厅","address":"陆家嘴西路168号正大广场B2楼近东方明珠"},{"poiid":"B2094751D36CA2FE479E","title":"炉边情谈(正大广场店)","lon":"121.49818","lat":"31.23602","category":"96","category_name":"韩国料理","address":"浦东新区陆家嘴西路168号正大广场6楼46B号铺(近东方明珠)"},{"poiid":"B2094655D26FA6FF4498","title":"必胜客(正大店)","lon":"121.4989726","lat":"31.2371425","category":"94","category_name":"西餐厅","address":"浦东新区陆家嘴西路168号正大广场5楼26号铺(近东方明珠)"},{"poiid":"B2094655D26EABF9459A","title":"葡京制造 陆家嘴店","lon":"121.499669054","lat":"31.237629793","category":"247","category_name":"餐饮美食","address":"浦东新区陆家嘴西路168号正大广场6楼(近东方明珠)"},{"poiid":"B2094655D26AABFE4692","title":"汤姆熊正大广场店","lon":"121.49904","lat":"31.23668","category":"247","category_name":"餐饮美食","address":"浦东新区陆家嘴西路168号正大广场6楼14-15号铺(近东方明珠)"},{"poiid":"B2094750D76FA6F4429D","title":"食之秘(正大广场店)","lon":"121.499","lat":"31.2367","category":"67","category_name":"甜品店","address":"浦东新区陆家嘴西路168号正大广场5楼24-25号铺(近东方明珠)"},{"poiid":"B2094757D06FABFA499A","title":"代官山(正大广场店)","lon":"121.4992086","lat":"31.236618769","category":"260","category_name":"其他","address":"浦东新区陆家嘴西路168号正大广场5楼16-17号铺(近东方明珠)"},{"poiid":"B2094757D06FA0F94099","title":"张生记(正大广场店)","lon":"121.49955","lat":"31.23682","category":"75","category_name":"浙江菜","address":"浦东新区陆家嘴西路168号正大广场6楼42-44号铺(近东方明珠)"},{"poiid":"B2094757D06FA1F5479D","title":"震旦国际大楼","lon":"121.499293","lat":"31.234784","category":"46","category_name":"楼宇","address":"上海浦东新区富城路99号"},{"poiid":"B2094757D06FA1F9459C","title":"廊亦舫酒楼(正大店)","lon":"121.49933","lat":"31.23642","category":"76","category_name":"上海菜","address":"浦东新区陆家嘴西路168号正大广场5楼23号铺(近东方明珠)"},{"poiid":"B2094757D06FA2F9439E","title":"香格里拉怡咖啡","lon":"121.4992","lat":"31.2349","category":"268","category_name":"自助","address":"浦东新区富城路33号香格里拉大酒店紫金楼2楼(近名商路)"},{"poiid":"B2094654DA6FA7FF4099","title":"正大广场(西门)","lon":"121.49813","lat":"31.23651","category":"656","category_name":"大门","address":""},{"poiid":"B2094654DB64ABF9439A","title":"震旦艺术博物馆","lon":"121.49929","lat":"31.23478","category":"182","category_name":"博物馆","address":"富城路99号震旦国际大楼1层"},{"poiid":"B2094655D26EA6F54193","title":"大家乐(正大店)","lon":"121.49833","lat":"31.23601","category":"68","category_name":"快餐厅","address":"浦东新区陆家嘴西路168号正大广场8楼(近东方明珠)"},{"poiid":"B2094757D06BA0FE469D","title":"浦东香格里酒店 盛世堂I","lon":"121.498685","lat":"31.235798","category":"217","category_name":"旅馆招待所","address":"上海浦东新区富城路33号 浦东香格里拉酒店紫金楼3F"},{"poiid":"B2094757D06FA7F54992","title":"爱晚亭酒店(正大广场店)","lon":"121.49781868","lat":"31.236147816","category":"72","category_name":"广东菜","address":"浦东新区陆家嘴西路168号正大广场8楼02C-D号铺(近东方明珠)"},{"poiid":"B2094757D06FA1F54899","title":"玩具反斗城(上海正大店)","lon":"121.49940673","lat":"31.236642436","category":"128","category_name":"儿童用品店","address":"上海浦东新区陆家嘴西路168号正大广场4楼(近东方明珠)"},{"poiid":"B2094654DB64A6FF409E","title":"好乐迪量贩式KTV正大店","lon":"121.49901","lat":"31.23673","category":"170","category_name":"KTV","address":"上海浦东新区陆家嘴西路168号正大广场8楼"},{"poiid":"B2094757D06FA0FF479B","title":"新素代(正大店)","lon":"121.498653","lat":"31.236908","category":"89","category_name":"中式素餐馆","address":"浦东新区陆家嘴西路168号正大广场5楼西区20号铺(近东方明珠)"},{"poiid":"B2094752D368A0F9459A","title":"小辉哥火锅","lon":"121.498561","lat":"31.236617","category":"247","category_name":"餐饮美食","address":"正大"},{"poiid":"B2094757D16FA0FC429D","title":"廊亦坊","lon":"121.498013738","lat":"31.2354924122","category":"500","category_name":"未知分类","address":"上海正大廣場5樓"},{"poiid":"B2094757D065AAF9479F","title":"宝莱纳","lon":"121.498644738","lat":"31.2366434368","category":"249","category_name":"购物服务","address":"上海市浦东新区滨江大道"},{"poiid":"B2094655D26AABFC459D","title":"楚炫堂生态炖鱼馆正大广场店","lon":"121.49904","lat":"31.23668","category":"86","category_name":"火锅店","address":"浦东新区陆家嘴西路168号正大广场6楼(近东方明珠)"},{"poiid":"B2094753D26CA3FE4398","title":"星期五餐厅Fridays","lon":"121.497979","lat":"31.236196","category":"500","category_name":"未知分类","address":"上海市 上海市浦东新区富城路"},{"poiid":"B2094757D16EA0FC4392","title":"Coco壹番屋","lon":"121.49944573","lat":"31.236752439","category":"247","category_name":"餐饮美食","address":"上海浦东正大广场8楼"},{"poiid":"B2094655D26FA2F44693","title":"味千拉面正大店","lon":"121.49905","lat":"31.23669","category":"95","category_name":"日本料理","address":"浦东新区陆家嘴西路168号正大广场8楼07-08A号铺(近东方明珠)"},{"poiid":"B2094655D26EABFD4293","title":"富临轩(正大店)","lon":"121.49833","lat":"31.23601","category":"72","category_name":"广东菜","address":"浦东新区陆家嘴西路168号正大广场4楼30-31号铺(近东方明珠)"},{"poiid":"B2094750DB64A0FB4299","title":"王品正大店","lon":"121.498657","lat":"31.23637","category":"247","category_name":"餐饮美食","address":"正大广场"},{"poiid":"B2094750D365A4FA499B","title":"韩林碳烤（正大广场店）","lon":"121.499244","lat":"31.236656","category":"247","category_name":"餐饮美食","address":null},{"poiid":"B2094751DA6DA1F44099","title":"俏江南","lon":"121.498156","lat":"31.236386","category":"247","category_name":"餐饮美食","address":"正大广场十楼"},{"poiid":"B2094757D06FA1FC4398","title":"卜蜂莲花(正大广场店)","lon":"121.49841079","lat":"31.236405957","category":"119","category_name":"商场","address":"浦东新区陆家嘴西路168号正大广场B2楼(近东方明珠)"},{"poiid":"B2094655D26CA4F44392","title":"滨江大道(八号门)","lon":"121.49874","lat":"31.23482","category":"116","category_name":"特色商业街","address":""},{"poiid":"B2094757D06AA7F4479A","title":"香格里拉大堂酒廊","lon":"121.49914","lat":"31.23535","category":"260","category_name":"其他","address":"浦东新区富城路33号香格里拉大酒店浦江楼1楼(近名商路)"},{"poiid":"B2094750D56EA1FD459D","title":"上海浦东香格里拉大酒店桂花楼中餐厅","lon":"121.498611","lat":"31.235609","category":"247","category_name":"餐饮美食","address":"富城路33号"},{"poiid":"B2094757D069A5F4449D","title":"Lavazza正大广场店","lon":"121.50245","lat":"31.23789","category":"260","category_name":"其他","address":"浦东新区陆家嘴西路168号正大广场3楼西区-25铺(近东方明珠)"},{"poiid":"B2094655D269A4F4469C","title":"蛋蛋屋 正大广场店 Dan bo fun","lon":"121.499669054","lat":"31.237629793","category":"95","category_name":"日本料理","address":"浦东新区陆家嘴西路168号正大广场B2楼(近东方明珠)"},{"poiid":"B2094757D06BABFB459F","title":"新元素","lon":"121.49792373","lat":"31.236463432","category":"500","category_name":"未知分类","address":"上海市浦东新区滨江大道"},{"poiid":"B2094757DA69A2FD4992","title":"正大广场","lon":"121.49905","lat":"31.23668","category":"119","category_name":"商场","address":"浦东新区陆家嘴西路168号"},{"poiid":"B2094757D469A7F8449D","title":"哈根达斯 滨江店 Haagen-Dazs","lon":"121.497862054","lat":"31.235934793","category":"67","category_name":"甜品店","address":"浦东新区滨江大道1号富都段码头北侧端(近正大广场后门)"},{"poiid":"B2094655D26EABFA499D","title":"港丽餐厅 正大店 Charme Restaurant","lon":"121.499669054","lat":"31.237629793","category":"247","category_name":"餐饮美食","address":"浦东新区陆家嘴西路168号正大广场7楼08A号铺(近东方明珠)"},{"poiid":"B209475CD564A7F84292","title":"上海滩新天地店","lon":"121.47463","lat":"31.22164","category":"119","category_name":"商场","address":"\"太仓路181弄新天地北里15号\r\n\""},{"poiid":"B209475CD564A7F84392","title":"上海滩浦东香格里拉店","lon":"121.50058","lat":"31.23634","category":"119","category_name":"商场","address":"浦东富成路33号香格里拉酒店内大堂层"},{"poiid":"B2094655D26EA7F94293","title":"Hooters（正大广场店）","lon":"121.49832530613423","lat":"31.236079948430497","category":"94","category_name":"西餐厅","address":"浦东新区陆家嘴西路168号正大广场1楼(近东方明珠)"},{"poiid":"B2094757D469A1F54993","title":"星巴克 滨江店 Starbucks Cafe","lon":"121.49833629105","lat":"31.235145384788","category":"260","category_name":"其他","address":"浦东新区滨江大道富都段滨江公园内(富城路名商路)"},{"poiid":"B2094654DB6BABFC429B","title":"新元素(正大店)","lon":"121.4982","lat":"31.2363","category":"94","category_name":"西餐厅","address":"浦东新区陆家嘴西路168号正大广场1楼西北角(近东方明珠)"},{"poiid":"B2094757D06EABF5429A","title":"望湘园(正大店)","lon":"121.49781942","lat":"31.236038792","category":"77","category_name":"湖南菜","address":"上海浦东新区陆家嘴西路168号正大广场4楼29室(近富城路)"},{"poiid":"B2094757D06FA3F8449F","title":"鼎泰丰(正大广场店)","lon":"121.498763442","lat":"31.23695353","category":"68","category_name":"快餐厅","address":"浦东新区陆家嘴西路168号正大广场3楼24号铺(近东方明珠)"},{"poiid":"B2094655D26EABF8459D","title":"好乐迪","lon":"121.49905","lat":"31.23669","category":"170","category_name":"KTV","address":"浦东新区陆家嘴西路168号正大广场8楼05号铺(近东方明珠)"},{"poiid":"B2094757D06FA3F9499F","title":"俏江南(正大广场店)","lon":"121.49965","lat":"31.23673","category":"71","category_name":"四川菜","address":"浦东新区陆家嘴西路168号正大广场10楼(近东方明珠)"},{"poiid":"B2094655D26FAAF94099","title":"居食屋和民料理","lon":"121.49905","lat":"31.23669","category":"95","category_name":"日本料理","address":"浦东新区陆家嘴西路168号正大广场8楼(近东方明珠)"},{"poiid":"B2094654DB64A7FA479B","title":"喜多屋国际海鲜料理(正大店)","lon":"121.49905","lat":"31.23669","category":"257","category_name":"中餐厅","address":"陆家嘴西路168号正大广场B2楼近东方明珠"},{"poiid":"B2094751D36CA2FE479E","title":"炉边情谈(正大广场店)","lon":"121.49818","lat":"31.23602","category":"96","category_name":"韩国料理","address":"浦东新区陆家嘴西路168号正大广场6楼46B号铺(近东方明珠)"},{"poiid":"B2094655D26FA6FF4498","title":"必胜客(正大店)","lon":"121.4989726","lat":"31.2371425","category":"94","category_name":"西餐厅","address":"浦东新区陆家嘴西路168号正大广场5楼26号铺(近东方明珠)"},{"poiid":"B2094655D26EABF9459A","title":"葡京制造 陆家嘴店","lon":"121.499669054","lat":"31.237629793","category":"247","category_name":"餐饮美食","address":"浦东新区陆家嘴西路168号正大广场6楼(近东方明珠)"},{"poiid":"B2094655D26AABFE4692","title":"汤姆熊正大广场店","lon":"121.49904","lat":"31.23668","category":"247","category_name":"餐饮美食","address":"浦东新区陆家嘴西路168号正大广场6楼14-15号铺(近东方明珠)"},{"poiid":"B2094750D76FA6F4429D","title":"食之秘(正大广场店)","lon":"121.499","lat":"31.2367","category":"67","category_name":"甜品店","address":"浦东新区陆家嘴西路168号正大广场5楼24-25号铺(近东方明珠)"},{"poiid":"B2094757D06FABFA499A","title":"代官山(正大广场店)","lon":"121.4992086","lat":"31.236618769","category":"260","category_name":"其他","address":"浦东新区陆家嘴西路168号正大广场5楼16-17号铺(近东方明珠)"},{"poiid":"B2094757D06FA0F94099","title":"张生记(正大广场店)","lon":"121.49955","lat":"31.23682","category":"75","category_name":"浙江菜","address":"浦东新区陆家嘴西路168号正大广场6楼42-44号铺(近东方明珠)"},{"poiid":"B2094757D06FA1F5479D","title":"震旦国际大楼","lon":"121.499293","lat":"31.234784","category":"46","category_name":"楼宇","address":"上海浦东新区富城路99号"},{"poiid":"B2094757D06FA1F9459C","title":"廊亦舫酒楼(正大店)","lon":"121.49933","lat":"31.23642","category":"76","category_name":"上海菜","address":"浦东新区陆家嘴西路168号正大广场5楼23号铺(近东方明珠)"},{"poiid":"B2094757D06FA2F9439E","title":"香格里拉怡咖啡","lon":"121.4992","lat":"31.2349","category":"268","category_name":"自助","address":"浦东新区富城路33号香格里拉大酒店紫金楼2楼(近名商路)"},{"poiid":"B2094654DA6FA7FF4099","title":"正大广场(西门)","lon":"121.49813","lat":"31.23651","category":"656","category_name":"大门","address":""},{"poiid":"B2094654DB64ABF9439A","title":"震旦艺术博物馆","lon":"121.49929","lat":"31.23478","category":"182","category_name":"博物馆","address":"富城路99号震旦国际大楼1层"},{"poiid":"B2094655D26EA6F54193","title":"大家乐(正大店)","lon":"121.49833","lat":"31.23601","category":"68","category_name":"快餐厅","address":"浦东新区陆家嘴西路168号正大广场8楼(近东方明珠)"},{"poiid":"B2094757D06BA0FE469D","title":"浦东香格里酒店 盛世堂I","lon":"121.498685","lat":"31.235798","category":"217","category_name":"旅馆招待所","address":"上海浦东新区富城路33号 浦东香格里拉酒店紫金楼3F"},{"poiid":"B2094757D06FA7F54992","title":"爱晚亭酒店(正大广场店)","lon":"121.49781868","lat":"31.236147816","category":"72","category_name":"广东菜","address":"浦东新区陆家嘴西路168号正大广场8楼02C-D号铺(近东方明珠)"},{"poiid":"B2094757D06FA1F54899","title":"玩具反斗城(上海正大店)","lon":"121.49940673","lat":"31.236642436","category":"128","category_name":"儿童用品店","address":"上海浦东新区陆家嘴西路168号正大广场4楼(近东方明珠)"},{"poiid":"B2094654DB64A6FF409E","title":"好乐迪量贩式KTV正大店","lon":"121.49901","lat":"31.23673","category":"170","category_name":"KTV","address":"上海浦东新区陆家嘴西路168号正大广场8楼"},{"poiid":"B2094757D06FA0FF479B","title":"新素代(正大店)","lon":"121.498653","lat":"31.236908","category":"89","category_name":"中式素餐馆","address":"浦东新区陆家嘴西路168号正大广场5楼西区20号铺(近东方明珠)"},{"poiid":"B2094752D368A0F9459A","title":"小辉哥火锅","lon":"121.498561","lat":"31.236617","category":"247","category_name":"餐饮美食","address":"正大"},{"poiid":"B2094757D16FA0FC429D","title":"廊亦坊","lon":"121.498013738","lat":"31.2354924122","category":"500","category_name":"未知分类","address":"上海正大廣場5樓"},{"poiid":"B2094757D065AAF9479F","title":"宝莱纳","lon":"121.498644738","lat":"31.2366434368","category":"249","category_name":"购物服务","address":"上海市浦东新区滨江大道"},{"poiid":"B2094655D26AABFC459D","title":"楚炫堂生态炖鱼馆正大广场店","lon":"121.49904","lat":"31.23668","category":"86","category_name":"火锅店","address":"浦东新区陆家嘴西路168号正大广场6楼(近东方明珠)"},{"poiid":"B2094753D26CA3FE4398","title":"星期五餐厅Fridays","lon":"121.497979","lat":"31.236196","category":"500","category_name":"未知分类","address":"上海市 上海市浦东新区富城路"},{"poiid":"B2094757D16EA0FC4392","title":"Coco壹番屋","lon":"121.49944573","lat":"31.236752439","category":"247","category_name":"餐饮美食","address":"上海浦东正大广场8楼"},{"poiid":"B2094655D26FA2F44693","title":"味千拉面正大店","lon":"121.49905","lat":"31.23669","category":"95","category_name":"日本料理","address":"浦东新区陆家嘴西路168号正大广场8楼07-08A号铺(近东方明珠)"},{"poiid":"B2094655D26EABFD4293","title":"富临轩(正大店)","lon":"121.49833","lat":"31.23601","category":"72","category_name":"广东菜","address":"浦东新区陆家嘴西路168号正大广场4楼30-31号铺(近东方明珠)"},{"poiid":"B2094750DB64A0FB4299","title":"王品正大店","lon":"121.498657","lat":"31.23637","category":"247","category_name":"餐饮美食","address":"正大广场"},{"poiid":"B2094750D365A4FA499B","title":"韩林碳烤（正大广场店）","lon":"121.499244","lat":"31.236656","category":"247","category_name":"餐饮美食","address":null},{"poiid":"B2094751DA6DA1F44099","title":"俏江南","lon":"121.498156","lat":"31.236386","category":"247","category_name":"餐饮美食","address":"正大广场十楼"},{"poiid":"B2094757D06FA1FC4398","title":"卜蜂莲花(正大广场店)","lon":"121.49841079","lat":"31.236405957","category":"119","category_name":"商场","address":"浦东新区陆家嘴西路168号正大广场B2楼(近东方明珠)"},{"poiid":"B2094655D26CA4F44392","title":"滨江大道(八号门)","lon":"121.49874","lat":"31.23482","category":"116","category_name":"特色商业街","address":""},{"poiid":"B2094757D06AA7F4479A","title":"香格里拉大堂酒廊","lon":"121.49914","lat":"31.23535","category":"260","category_name":"其他","address":"浦东新区富城路33号香格里拉大酒店浦江楼1楼(近名商路)"},{"poiid":"B2094750D56EA1FD459D","title":"上海浦东香格里拉大酒店桂花楼中餐厅","lon":"121.498611","lat":"31.235609","category":"247","category_name":"餐饮美食","address":"富城路33号"},{"poiid":"B2094757D069A5F4449D","title":"Lavazza正大广场店","lon":"121.50245","lat":"31.23789","category":"260","category_name":"其他","address":"浦东新区陆家嘴西路168号正大广场3楼西区-25铺(近东方明珠)"},{"poiid":"B2094655D269A4F4469C","title":"蛋蛋屋 正大广场店 Dan bo fun","lon":"121.499669054","lat":"31.237629793","category":"95","category_name":"日本料理","address":"浦东新区陆家嘴西路168号正大广场B2楼(近东方明珠)"},{"poiid":"B2094757D06BABFB459F","title":"新元素","lon":"121.49792373","lat":"31.236463432","category":"500","category_name":"未知分类","address":"上海市浦东新区滨江大道"},{"poiid":"B2094757DA69A2FD4992","title":"正大广场","lon":"121.49905","lat":"31.23668","category":"119","category_name":"商场","address":"浦东新区陆家嘴西路168号"},{"poiid":"B2094757D469A7F8449D","title":"哈根达斯 滨江店 Haagen-Dazs","lon":"121.497862054","lat":"31.235934793","category":"67","category_name":"甜品店","address":"浦东新区滨江大道1号富都段码头北侧端(近正大广场后门)"},{"poiid":"B2094655D26EABFA499D","title":"港丽餐厅 正大店 Charme Restaurant","lon":"121.499669054","lat":"31.237629793","category":"247","category_name":"餐饮美食","address":"浦东新区陆家嘴西路168号正大广场7楼08A号铺(近东方明珠)"},{"poiid":"B209475CD564A7F84292","title":"上海滩新天地店","lon":"121.47463","lat":"31.22164","category":"119","category_name":"商场","address":"\"太仓路181弄新天地北里15号\r\n\""},{"poiid":"B209475CD564A7F84392","title":"上海滩浦东香格里拉店","lon":"121.50058","lat":"31.23634","category":"119","category_name":"商场","address":"浦东富成路33号香格里拉酒店内大堂层"},{"poiid":"B2094655D26EA7F94293","title":"Hooters（正大广场店）","lon":"121.49832530613423","lat":"31.236079948430497","category":"94","category_name":"西餐厅","address":"浦东新区陆家嘴西路168号正大广场1楼(近东方明珠)"},{"poiid":"B2094757D469A1F54993","title":"星巴克 滨江店 Starbucks Cafe","lon":"121.49833629105","lat":"31.235145384788","category":"260","category_name":"其他","address":"浦东新区滨江大道富都段滨江公园内(富城路名商路)"},{"poiid":"B2094654DB6BABFC429B","title":"新元素(正大店)","lon":"121.4982","lat":"31.2363","category":"94","category_name":"西餐厅","address":"浦东新区陆家嘴西路168号正大广场1楼西北角(近东方明珠)"},{"poiid":"B2094757D06EABF5429A","title":"望湘园(正大店)","lon":"121.49781942","lat":"31.236038792","category":"77","category_name":"湖南菜","address":"上海浦东新区陆家嘴西路168号正大广场4楼29室(近富城路)"},{"poiid":"B2094757D06FA3F8449F","title":"鼎泰丰(正大广场店)","lon":"121.498763442","lat":"31.23695353","category":"68","category_name":"快餐厅","address":"浦东新区陆家嘴西路168号正大广场3楼24号铺(近东方明珠)"},{"poiid":"B2094655D26EABF8459D","title":"好乐迪","lon":"121.49905","lat":"31.23669","category":"170","category_name":"KTV","address":"浦东新区陆家嘴西路168号正大广场8楼05号铺(近东方明珠)"},{"poiid":"B2094757D06FA3F9499F","title":"俏江南(正大广场店)","lon":"121.49965","lat":"31.23673","category":"71","category_name":"四川菜","address":"浦东新区陆家嘴西路168号正大广场10楼(近东方明珠)"},{"poiid":"B2094655D26FAAF94099","title":"居食屋和民料理","lon":"121.49905","lat":"31.23669","category":"95","category_name":"日本料理","address":"浦东新区陆家嘴西路168号正大广场8楼(近东方明珠)"},{"poiid":"B2094654DB64A7FA479B","title":"喜多屋国际海鲜料理(正大店)","lon":"121.49905","lat":"31.23669","category":"257","category_name":"中餐厅","address":"陆家嘴西路168号正大广场B2楼近东方明珠"},{"poiid":"B2094751D36CA2FE479E","title":"炉边情谈(正大广场店)","lon":"121.49818","lat":"31.23602","category":"96","category_name":"韩国料理","address":"浦东新区陆家嘴西路168号正大广场6楼46B号铺(近东方明珠)"},{"poiid":"B2094655D26FA6FF4498","title":"必胜客(正大店)","lon":"121.4989726","lat":"31.2371425","category":"94","category_name":"西餐厅","address":"浦东新区陆家嘴西路168号正大广场5楼26号铺(近东方明珠)"},{"poiid":"B2094655D26EABF9459A","title":"葡京制造 陆家嘴店","lon":"121.499669054","lat":"31.237629793","category":"247","category_name":"餐饮美食","address":"浦东新区陆家嘴西路168号正大广场6楼(近东方明珠)"},{"poiid":"B2094655D26AABFE4692","title":"汤姆熊正大广场店","lon":"121.49904","lat":"31.23668","category":"247","category_name":"餐饮美食","address":"浦东新区陆家嘴西路168号正大广场6楼14-15号铺(近东方明珠)"},{"poiid":"B2094750D76FA6F4429D","title":"食之秘(正大广场店)","lon":"121.499","lat":"31.2367","category":"67","category_name":"甜品店","address":"浦东新区陆家嘴西路168号正大广场5楼24-25号铺(近东方明珠)"},{"poiid":"B2094757D06FABFA499A","title":"代官山(正大广场店)","lon":"121.4992086","lat":"31.236618769","category":"260","category_name":"其他","address":"浦东新区陆家嘴西路168号正大广场5楼16-17号铺(近东方明珠)"},{"poiid":"B2094757D06FA0F94099","title":"张生记(正大广场店)","lon":"121.49955","lat":"31.23682","category":"75","category_name":"浙江菜","address":"浦东新区陆家嘴西路168号正大广场6楼42-44号铺(近东方明珠)"},{"poiid":"B2094757D06FA1F5479D","title":"震旦国际大楼","lon":"121.499293","lat":"31.234784","category":"46","category_name":"楼宇","address":"上海浦东新区富城路99号"},{"poiid":"B2094757D06FA1F9459C","title":"廊亦舫酒楼(正大店)","lon":"121.49933","lat":"31.23642","category":"76","category_name":"上海菜","address":"浦东新区陆家嘴西路168号正大广场5楼23号铺(近东方明珠)"},{"poiid":"B2094757D06FA2F9439E","title":"香格里拉怡咖啡","lon":"121.4992","lat":"31.2349","category":"268","category_name":"自助","address":"浦东新区富城路33号香格里拉大酒店紫金楼2楼(近名商路)"},{"poiid":"B2094654DA6FA7FF4099","title":"正大广场(西门)","lon":"121.49813","lat":"31.23651","category":"656","category_name":"大门","address":""},{"poiid":"B2094654DB64ABF9439A","title":"震旦艺术博物馆","lon":"121.49929","lat":"31.23478","category":"182","category_name":"博物馆","address":"富城路99号震旦国际大楼1层"},{"poiid":"B2094655D26EA6F54193","title":"大家乐(正大店)","lon":"121.49833","lat":"31.23601","category":"68","category_name":"快餐厅","address":"浦东新区陆家嘴西路168号正大广场8楼(近东方明珠)"},{"poiid":"B2094757D06BA0FE469D","title":"浦东香格里酒店 盛世堂I","lon":"121.498685","lat":"31.235798","category":"217","category_name":"旅馆招待所","address":"上海浦东新区富城路33号 浦东香格里拉酒店紫金楼3F"},{"poiid":"B2094757D06FA7F54992","title":"爱晚亭酒店(正大广场店)","lon":"121.49781868","lat":"31.236147816","category":"72","category_name":"广东菜","address":"浦东新区陆家嘴西路168号正大广场8楼02C-D号铺(近东方明珠)"},{"poiid":"B2094757D06FA1F54899","title":"玩具反斗城(上海正大店)","lon":"121.49940673","lat":"31.236642436","category":"128","category_name":"儿童用品店","address":"上海浦东新区陆家嘴西路168号正大广场4楼(近东方明珠)"},{"poiid":"B2094654DB64A6FF409E","title":"好乐迪量贩式KTV正大店","lon":"121.49901","lat":"31.23673","category":"170","category_name":"KTV","address":"上海浦东新区陆家嘴西路168号正大广场8楼"},{"poiid":"B2094757D06FA0FF479B","title":"新素代(正大店)","lon":"121.498653","lat":"31.236908","category":"89","category_name":"中式素餐馆","address":"浦东新区陆家嘴西路168号正大广场5楼西区20号铺(近东方明珠)"},{"poiid":"B2094752D368A0F9459A","title":"小辉哥火锅","lon":"121.498561","lat":"31.236617","category":"247","category_name":"餐饮美食","address":"正大"},{"poiid":"B2094757D16FA0FC429D","title":"廊亦坊","lon":"121.498013738","lat":"31.2354924122","category":"500","category_name":"未知分类","address":"上海正大廣場5樓"},{"poiid":"B2094757D065AAF9479F","title":"宝莱纳","lon":"121.498644738","lat":"31.2366434368","category":"249","category_name":"购物服务","address":"上海市浦东新区滨江大道"},{"poiid":"B2094655D26AABFC459D","title":"楚炫堂生态炖鱼馆正大广场店","lon":"121.49904","lat":"31.23668","category":"86","category_name":"火锅店","address":"浦东新区陆家嘴西路168号正大广场6楼(近东方明珠)"},{"poiid":"B2094753D26CA3FE4398","title":"星期五餐厅Fridays","lon":"121.497979","lat":"31.236196","category":"500","category_name":"未知分类","address":"上海市 上海市浦东新区富城路"},{"poiid":"B2094757D16EA0FC4392","title":"Coco壹番屋","lon":"121.49944573","lat":"31.236752439","category":"247","category_name":"餐饮美食","address":"上海浦东正大广场8楼"},{"poiid":"B2094655D26FA2F44693","title":"味千拉面正大店","lon":"121.49905","lat":"31.23669","category":"95","category_name":"日本料理","address":"浦东新区陆家嘴西路168号正大广场8楼07-08A号铺(近东方明珠)"},{"poiid":"B2094655D26EABFD4293","title":"富临轩(正大店)","lon":"121.49833","lat":"31.23601","category":"72","category_name":"广东菜","address":"浦东新区陆家嘴西路168号正大广场4楼30-31号铺(近东方明珠)"},{"poiid":"B2094750DB64A0FB4299","title":"王品正大店","lon":"121.498657","lat":"31.23637","category":"247","category_name":"餐饮美食","address":"正大广场"},{"poiid":"B2094750D365A4FA499B","title":"韩林碳烤（正大广场店）","lon":"121.499244","lat":"31.236656","category":"247","category_name":"餐饮美食","address":null},{"poiid":"B2094751DA6DA1F44099","title":"俏江南","lon":"121.498156","lat":"31.236386","category":"247","category_name":"餐饮美食","address":"正大广场十楼"},{"poiid":"B2094757D06FA1FC4398","title":"卜蜂莲花(正大广场店)","lon":"121.49841079","lat":"31.236405957","category":"119","category_name":"商场","address":"浦东新区陆家嘴西路168号正大广场B2楼(近东方明珠)"},{"poiid":"B2094655D26CA4F44392","title":"滨江大道(八号门)","lon":"121.49874","lat":"31.23482","category":"116","category_name":"特色商业街","address":""},{"poiid":"B2094757D06AA7F4479A","title":"香格里拉大堂酒廊","lon":"121.49914","lat":"31.23535","category":"260","category_name":"其他","address":"浦东新区富城路33号香格里拉大酒店浦江楼1楼(近名商路)"},{"poiid":"B2094750D56EA1FD459D","title":"上海浦东香格里拉大酒店桂花楼中餐厅","lon":"121.498611","lat":"31.235609","category":"247","category_name":"餐饮美食","address":"富城路33号"},{"poiid":"B2094757D069A5F4449D","title":"Lavazza正大广场店","lon":"121.50245","lat":"31.23789","category":"260","category_name":"其他","address":"浦东新区陆家嘴西路168号正大广场3楼西区-25铺(近东方明珠)"},{"poiid":"B2094655D269A4F4469C","title":"蛋蛋屋 正大广场店 Dan bo fun","lon":"121.499669054","lat":"31.237629793","category":"95","category_name":"日本料理","address":"浦东新区陆家嘴西路168号正大广场B2楼(近东方明珠)"},{"poiid":"B2094757D06BABFB459F","title":"新元素","lon":"121.49792373","lat":"31.236463432","category":"500","category_name":"未知分类","address":"上海市浦东新区滨江大道"}]