[{"poiid":"B2094757D06FA3F44093","title":"浦江镇世博家园","lon":"121.49930548","lat":"31.080541459","category":"47","category_name":"住宅区","address":"上海市闵行区江月路近浦星公路"},{"poiid":"B2094655D36CA0F84799","title":"江月路地铁站","lon":"121.50868","lat":"31.08322","category":"36","category_name":"地铁站","address":""},{"poiid":"B2094757D06FA5FA489C","title":"浦江镇","lon":"121.501756","lat":"31.09062","category":"500","category_name":"未知分类","address":"上海闵行区浦江镇"},{"poiid":"B2094757D06FABFC4392","title":"浦江镇地铁站","lon":"121.50636409","lat":"31.096332134","category":"36","category_name":"地铁站","address":"上海轨道交通 八号线 轨交浦江镇站 8"},{"poiid":"B2094757D568A0FB439E","title":"绿地沃尔玛广场","lon":"121.4975028","lat":"31.07546278","category":"47","category_name":"住宅区","address":"浦锦路309弄(近江园路)"},{"poiid":"B2094751DA6EA6FC449A","title":"仁济医院南院","lon":"121.503441","lat":"31.08107","category":"627","category_name":"一般地点标志","address":"闵行区浦江镇浦驰路世博家园内(近江月路)"},{"poiid":"B2094757D06FA4F84793","title":"卜蜂莲花(浦江店)","lon":"121.506566","lat":"31.082902","category":"118","category_name":"超级市场","address":"闵行区江月路1800号(浦星路口)"},{"poiid":"B2094757D06FA6FE449C","title":"大富贵酒楼(浦江店)","lon":"121.507067246","lat":"31.0817084791","category":"76","category_name":"上海菜","address":"闵行区江月路1777号(浦星公路)"},{"poiid":"B2094757D068A3FA479A","title":"漕河泾出口加工区","lon":"121.5050354","lat":"31.103040695","category":"46","category_name":"楼宇","address":"上海闵行区浦星公路699号"},{"poiid":"B2094655D26AA0FA4098","title":"地铁江月路站","lon":"121.50858","lat":"31.08375","category":"36","category_name":"地铁站","address":""},{"poiid":"B2094757D16DA3FB4293","title":"欢歌量贩","lon":"121.496897009","lat":"31.0781032275","category":"249","category_name":"购物服务","address":"上海浦锦路309弄6号沃尔玛三楼"},{"poiid":"B2094757D168A2FA4193","title":"好宴世家(浦江店)","lon":"121.497049059","lat":"31.077068655","category":"76","category_name":"上海菜","address":"闵行区浦锦路377号(近南江燕路)"},{"poiid":"B2094757D468A4FB449B","title":"浦星苑","lon":"121.500546054","lat":"31.081557793","category":"76","category_name":"上海菜","address":"闵行区浦江镇浦驰路533号(近江月路)"},{"poiid":"B2094757D068A4FA4192","title":"世博家园十一街坊","lon":"121.512","lat":"31.0848","category":"47","category_name":"住宅区","address":"上海闵行区浦驰路188弄"},{"poiid":"B2094655D26DA6FD4493","title":"景江苑B区","lon":"121.50055085046","lat":"31.08588164098","category":"47","category_name":"住宅区","address":"浦秀路598弄"},{"poiid":"B2094655D26DA0FB489C","title":"景江苑C区","lon":"121.50067830704","lat":"31.084171439972","category":"47","category_name":"住宅区","address":"浦秀路499弄"},{"poiid":"B2094757D568A6F44793","title":"陈行公园","lon":"121.50584825","lat":"31.09137614","category":"196","category_name":"公园","address":"闵行区陈南路(近浦星公路)"},{"poiid":"B2094757D06BA1FE419C","title":"浦江镇第一幼儿园","lon":"121.49674987","lat":"31.085922241","category":"57","category_name":"幼儿园","address":"闵行区立跃路3889号"},{"poiid":"B2094757D169A4FA4398","title":"王中王浦江分店","lon":"121.500978009","lat":"31.0899096844","category":"500","category_name":"未知分类","address":"北京浦锦路309弄绿地沃尔玛"},{"poiid":"B2094757D065A6FA4193","title":"陈南路381号","lon":"121.50092255","lat":"31.090451459","category":"500","category_name":"未知分类","address":"上海陈南路381号"},{"poiid":"B2094654DB69A6FF499E","title":"陈行派出所","lon":"121.50287","lat":"31.09062","category":"609","category_name":"警察局","address":"闵行区陈南路46号"},{"poiid":"B2094654DB64A0FF4599","title":"景江苑D区","lon":"121.50112913792","lat":"31.084352968041","category":"47","category_name":"住宅区","address":"浦秀路518弄"},{"poiid":"B2094757D568A6F8499C","title":"中国福利会少年宫浦江青少年活动中心","lon":"121.49617377","lat":"31.08549316","category":"188","category_name":"文化宫","address":"中国上海市闵行区立跃路"},{"poiid":"B2094757D46FA0FB4799","title":"九州和家拉面","lon":"121.4932504","lat":"31.0916005","category":"95","category_name":"日本料理","address":"闵行区浦锦路357号绿地沃尔玛广场1楼"},{"poiid":"B2094757D169ABFC4693","title":"重庆鸡公煲","lon":"121.4994","lat":"31.08417","category":"86","category_name":"火锅店","address":"闵行区浦驰路"},{"poiid":"B2094751DB6CA2F4499B","title":"上海交通大学医学院附属仁济医院南院","lon":"121.498668","lat":"31.082175","category":"500","category_name":"未知分类","address":null},{"poiid":"B2094654DB6CA6F5419C","title":"聚龙商场","lon":"121.50037","lat":"31.09313","category":"119","category_name":"商场","address":""},{"poiid":"B2094757D064AAF94399","title":"江晨会所","lon":"121.490578009","lat":"31.0759764813","category":"76","category_name":"上海菜","address":"闵行区浦江镇江月路2700号"},{"poiid":"B2094757D465A0FE4493","title":"P萨工坊 浦锦路店","lon":"121.49325","lat":"31.0916","category":"94","category_name":"西餐厅","address":"闵行区浦锦路309弄1幢6号2楼(近沃尔玛)"},{"poiid":"B2094655D26EA7F4409D","title":"世博家园五街坊","lon":"121.5023","lat":"31.08024","category":"47","category_name":"住宅区","address":"北江燕路228弄1-95"},{"poiid":"B2094654DB6CA6F44198","title":"闵行区浦江第一小学","lon":"121.49443","lat":"31.08519","category":"56","category_name":"小学","address":"闵行区浦江镇立跃路3939号"},{"poiid":"B2094655D265AAFF4098","title":"世博家园六街坊","lon":"121.507","lat":"31.0849","category":"47","category_name":"住宅区","address":"上海市闵行区浦江镇北江燕路338弄1号等"},{"poiid":"B2094655D26DA6FD459D","title":"景江苑E区","lon":"121.4970322386","lat":"31.083123463864","category":"47","category_name":"住宅区","address":"浦秀路509弄"},{"poiid":"B2094757D16BA2FA469D","title":"味之都 江月路店","lon":"121.507937054","lat":"31.083800793","category":"68","category_name":"快餐厅","address":"闵行区江月路1800号卜蜂莲花1楼(浦星路口)"},{"poiid":"B2094757D66CABF9419F","title":"上海市闵行区人民法院浦江人民法庭","lon":"121.4960432","lat":"31.084778472","category":"500","category_name":"未知分类","address":"上海浦锦路15号"},{"poiid":"B2094757D06FA4FB489E","title":"浦江世博家园七街坊","lon":"121.511812","lat":"31.083384","category":"500","category_name":"未知分类","address":"上海闵行 浦江镇 南江燕路69弄"},{"poiid":"B2094757D76AA6FE459F","title":"吉祥馄饨 浦锦路店 Gll Wonton","lon":"121.4932504","lat":"31.0916005","category":"87","category_name":"特色／地方风味餐厅","address":"闵行区浦江镇浦锦路357号绿地沃尔玛广场"},{"poiid":"B2094654DB6CA6F44092","title":"上海广播电视卫星地球站","lon":"121.49898","lat":"31.08422","category":"252","category_name":"楼宇机构","address":"鲁陈路3555号"},{"poiid":"B2094654DB6CA6F44199","title":"浦江镇社区文化活动中心","lon":"121.49666","lat":"31.08589","category":"248","category_name":"生活娱乐","address":"立跃路3889"},{"poiid":"B2094757D065AAFD469D","title":"沈佳大酒店","lon":"121.49855","lat":"31.07811","category":"76","category_name":"上海菜","address":"闵行区南江燕路279号(近江月路)"},{"poiid":"B2094750DA6DA6F8499F","title":"姚富记","lon":"121.49325","lat":"31.0916","category":"68","category_name":"快餐厅","address":"闵行区浦锦路313号(近绿地乐和城)"},{"poiid":"B2094655D36DA6FE4298","title":"浦江镇","lon":"121.50636","lat":"31.09631","category":"38","category_name":"公交车站","address":""},{"poiid":"B2094654DB64A1F84698","title":"易初莲花(江月路)","lon":"121.50584","lat":"31.08292","category":"118","category_name":"超级市场","address":"闵行区江月路1800号"},{"poiid":"B2094757D66DA6FC429C","title":"浦江镇青少年活动中心","lon":"121.4959818","lat":"31.08466367","category":"500","category_name":"未知分类","address":"上海立跃路3889号"},{"poiid":"B2094757D568A1FC459E","title":"KAN S韩束妆业","lon":"121.501663","lat":"31.094207","category":"148","category_name":"美容美发店","address":"中国上海市闵行区陈行路"},{"poiid":"B2094757D768A4FD409A","title":"鑫鼎鑫","lon":"121.494069","lat":"31.080253","category":"76","category_name":"上海菜","address":"闵行区浦秀路639弄1号(近江月路)"},{"poiid":"B2094655D36CA0F84692","title":"江月路浦池路","lon":"121.50281","lat":"31.08174","category":"38","category_name":"公交车站","address":""},{"poiid":"B2094751D16DABFE479B","title":"上海交通大学医学院附属仁济医院","lon":"121.4924553","lat":"31.0983813","category":"162","category_name":"医院","address":"江月路2000号"},{"poiid":"B2094757D568A6FE409D","title":"浦江世博家园二街坊","lon":"121.5093536079","lat":"31.087944885181","category":"47","category_name":"住宅区","address":"浦申路633弄"},{"poiid":"B2094757D568A4F84099","title":"浦江·世博家园二街坊(西门)","lon":"121.50042996","lat":"31.08229845","category":"47","category_name":"住宅区","address":"浦申路633弄"},{"poiid":"B2094757D06FA3F44093","title":"浦江镇世博家园","lon":"121.49930548","lat":"31.080541459","category":"47","category_name":"住宅区","address":"上海市闵行区江月路近浦星公路"},{"poiid":"B2094655D36CA0F84799","title":"江月路地铁站","lon":"121.50868","lat":"31.08322","category":"36","category_name":"地铁站","address":""},{"poiid":"B2094757D06FA5FA489C","title":"浦江镇","lon":"121.501756","lat":"31.09062","category":"500","category_name":"未知分类","address":"上海闵行区浦江镇"},{"poiid":"B2094757D06FABFC4392","title":"浦江镇地铁站","lon":"121.50636409","lat":"31.096332134","category":"36","category_name":"地铁站","address":"上海轨道交通 八号线 轨交浦江镇站 8"},{"poiid":"B2094757D568A0FB439E","title":"绿地沃尔玛广场","lon":"121.4975028","lat":"31.07546278","category":"47","category_name":"住宅区","address":"浦锦路309弄(近江园路)"},{"poiid":"B2094751DA6EA6FC449A","title":"仁济医院南院","lon":"121.503441","lat":"31.08107","category":"627","category_name":"一般地点标志","address":"闵行区浦江镇浦驰路世博家园内(近江月路)"},{"poiid":"B2094757D06FA4F84793","title":"卜蜂莲花(浦江店)","lon":"121.506566","lat":"31.082902","category":"118","category_name":"超级市场","address":"闵行区江月路1800号(浦星路口)"},{"poiid":"B2094757D06FA6FE449C","title":"大富贵酒楼(浦江店)","lon":"121.507067246","lat":"31.0817084791","category":"76","category_name":"上海菜","address":"闵行区江月路1777号(浦星公路)"},{"poiid":"B2094757D068A3FA479A","title":"漕河泾出口加工区","lon":"121.5050354","lat":"31.103040695","category":"46","category_name":"楼宇","address":"上海闵行区浦星公路699号"},{"poiid":"B2094655D26AA0FA4098","title":"地铁江月路站","lon":"121.50858","lat":"31.08375","category":"36","category_name":"地铁站","address":""},{"poiid":"B2094757D16DA3FB4293","title":"欢歌量贩","lon":"121.496897009","lat":"31.0781032275","category":"249","category_name":"购物服务","address":"上海浦锦路309弄6号沃尔玛三楼"},{"poiid":"B2094757D168A2FA4193","title":"好宴世家(浦江店)","lon":"121.497049059","lat":"31.077068655","category":"76","category_name":"上海菜","address":"闵行区浦锦路377号(近南江燕路)"},{"poiid":"B2094757D468A4FB449B","title":"浦星苑","lon":"121.500546054","lat":"31.081557793","category":"76","category_name":"上海菜","address":"闵行区浦江镇浦驰路533号(近江月路)"},{"poiid":"B2094757D068A4FA4192","title":"世博家园十一街坊","lon":"121.512","lat":"31.0848","category":"47","category_name":"住宅区","address":"上海闵行区浦驰路188弄"},{"poiid":"B2094655D26DA6FD4493","title":"景江苑B区","lon":"121.50055085046","lat":"31.08588164098","category":"47","category_name":"住宅区","address":"浦秀路598弄"},{"poiid":"B2094655D26DA0FB489C","title":"景江苑C区","lon":"121.50067830704","lat":"31.084171439972","category":"47","category_name":"住宅区","address":"浦秀路499弄"},{"poiid":"B2094757D568A6F44793","title":"陈行公园","lon":"121.50584825","lat":"31.09137614","category":"196","category_name":"公园","address":"闵行区陈南路(近浦星公路)"},{"poiid":"B2094757D06BA1FE419C","title":"浦江镇第一幼儿园","lon":"121.49674987","lat":"31.085922241","category":"57","category_name":"幼儿园","address":"闵行区立跃路3889号"},{"poiid":"B2094757D169A4FA4398","title":"王中王浦江分店","lon":"121.500978009","lat":"31.0899096844","category":"500","category_name":"未知分类","address":"北京浦锦路309弄绿地沃尔玛"},{"poiid":"B2094757D065A6FA4193","title":"陈南路381号","lon":"121.50092255","lat":"31.090451459","category":"500","category_name":"未知分类","address":"上海陈南路381号"},{"poiid":"B2094654DB69A6FF499E","title":"陈行派出所","lon":"121.50287","lat":"31.09062","category":"609","category_name":"警察局","address":"闵行区陈南路46号"},{"poiid":"B2094654DB64A0FF4599","title":"景江苑D区","lon":"121.50112913792","lat":"31.084352968041","category":"47","category_name":"住宅区","address":"浦秀路518弄"},{"poiid":"B2094757D568A6F8499C","title":"中国福利会少年宫浦江青少年活动中心","lon":"121.49617377","lat":"31.08549316","category":"188","category_name":"文化宫","address":"中国上海市闵行区立跃路"},{"poiid":"B2094757D46FA0FB4799","title":"九州和家拉面","lon":"121.4932504","lat":"31.0916005","category":"95","category_name":"日本料理","address":"闵行区浦锦路357号绿地沃尔玛广场1楼"},{"poiid":"B2094757D169ABFC4693","title":"重庆鸡公煲","lon":"121.4994","lat":"31.08417","category":"86","category_name":"火锅店","address":"闵行区浦驰路"},{"poiid":"B2094751DB6CA2F4499B","title":"上海交通大学医学院附属仁济医院南院","lon":"121.498668","lat":"31.082175","category":"500","category_name":"未知分类","address":null},{"poiid":"B2094654DB6CA6F5419C","title":"聚龙商场","lon":"121.50037","lat":"31.09313","category":"119","category_name":"商场","address":""},{"poiid":"B2094757D064AAF94399","title":"江晨会所","lon":"121.490578009","lat":"31.0759764813","category":"76","category_name":"上海菜","address":"闵行区浦江镇江月路2700号"},{"poiid":"B2094757D465A0FE4493","title":"P萨工坊 浦锦路店","lon":"121.49325","lat":"31.0916","category":"94","category_name":"西餐厅","address":"闵行区浦锦路309弄1幢6号2楼(近沃尔玛)"},{"poiid":"B2094655D26EA7F4409D","title":"世博家园五街坊","lon":"121.5023","lat":"31.08024","category":"47","category_name":"住宅区","address":"北江燕路228弄1-95"},{"poiid":"B2094654DB6CA6F44198","title":"闵行区浦江第一小学","lon":"121.49443","lat":"31.08519","category":"56","category_name":"小学","address":"闵行区浦江镇立跃路3939号"},{"poiid":"B2094655D265AAFF4098","title":"世博家园六街坊","lon":"121.507","lat":"31.0849","category":"47","category_name":"住宅区","address":"上海市闵行区浦江镇北江燕路338弄1号等"},{"poiid":"B2094655D26DA6FD459D","title":"景江苑E区","lon":"121.4970322386","lat":"31.083123463864","category":"47","category_name":"住宅区","address":"浦秀路509弄"},{"poiid":"B2094757D16BA2FA469D","title":"味之都 江月路店","lon":"121.507937054","lat":"31.083800793","category":"68","category_name":"快餐厅","address":"闵行区江月路1800号卜蜂莲花1楼(浦星路口)"},{"poiid":"B2094757D66CABF9419F","title":"上海市闵行区人民法院浦江人民法庭","lon":"121.4960432","lat":"31.084778472","category":"500","category_name":"未知分类","address":"上海浦锦路15号"},{"poiid":"B2094757D06FA4FB489E","title":"浦江世博家园七街坊","lon":"121.511812","lat":"31.083384","category":"500","category_name":"未知分类","address":"上海闵行 浦江镇 南江燕路69弄"},{"poiid":"B2094757D76AA6FE459F","title":"吉祥馄饨 浦锦路店 Gll Wonton","lon":"121.4932504","lat":"31.0916005","category":"87","category_name":"特色／地方风味餐厅","address":"闵行区浦江镇浦锦路357号绿地沃尔玛广场"},{"poiid":"B2094654DB6CA6F44092","title":"上海广播电视卫星地球站","lon":"121.49898","lat":"31.08422","category":"252","category_name":"楼宇机构","address":"鲁陈路3555号"},{"poiid":"B2094654DB6CA6F44199","title":"浦江镇社区文化活动中心","lon":"121.49666","lat":"31.08589","category":"248","category_name":"生活娱乐","address":"立跃路3889"},{"poiid":"B2094757D065AAFD469D","title":"沈佳大酒店","lon":"121.49855","lat":"31.07811","category":"76","category_name":"上海菜","address":"闵行区南江燕路279号(近江月路)"},{"poiid":"B2094750DA6DA6F8499F","title":"姚富记","lon":"121.49325","lat":"31.0916","category":"68","category_name":"快餐厅","address":"闵行区浦锦路313号(近绿地乐和城)"},{"poiid":"B2094655D36DA6FE4298","title":"浦江镇","lon":"121.50636","lat":"31.09631","category":"38","category_name":"公交车站","address":""},{"poiid":"B2094654DB64A1F84698","title":"易初莲花(江月路)","lon":"121.50584","lat":"31.08292","category":"118","category_name":"超级市场","address":"闵行区江月路1800号"},{"poiid":"B2094757D66DA6FC429C","title":"浦江镇青少年活动中心","lon":"121.4959818","lat":"31.08466367","category":"500","category_name":"未知分类","address":"上海立跃路3889号"},{"poiid":"B2094757D568A1FC459E","title":"KAN S韩束妆业","lon":"121.501663","lat":"31.094207","category":"148","category_name":"美容美发店","address":"中国上海市闵行区陈行路"},{"poiid":"B2094757D768A4FD409A","title":"鑫鼎鑫","lon":"121.494069","lat":"31.080253","category":"76","category_name":"上海菜","address":"闵行区浦秀路639弄1号(近江月路)"},{"poiid":"B2094655D36CA0F84692","title":"江月路浦池路","lon":"121.50281","lat":"31.08174","category":"38","category_name":"公交车站","address":""},{"poiid":"B2094751D16DABFE479B","title":"上海交通大学医学院附属仁济医院","lon":"121.4924553","lat":"31.0983813","category":"162","category_name":"医院","address":"江月路2000号"},{"poiid":"B2094757D568A6FE409D","title":"浦江世博家园二街坊","lon":"121.5093536079","lat":"31.087944885181","category":"47","category_name":"住宅区","address":"浦申路633弄"},{"poiid":"B2094757D568A4F84099","title":"浦江·世博家园二街坊(西门)","lon":"121.50042996","lat":"31.08229845","category":"47","category_name":"住宅区","address":"浦申路633弄"},{"poiid":"B2094757D06FA3F44093","title":"浦江镇世博家园","lon":"121.49930548","lat":"31.080541459","category":"47","category_name":"住宅区","address":"上海市闵行区江月路近浦星公路"},{"poiid":"B2094655D36CA0F84799","title":"江月路地铁站","lon":"121.50868","lat":"31.08322","category":"36","category_name":"地铁站","address":""},{"poiid":"B2094757D06FA5FA489C","title":"浦江镇","lon":"121.501756","lat":"31.09062","category":"500","category_name":"未知分类","address":"上海闵行区浦江镇"},{"poiid":"B2094757D06FABFC4392","title":"浦江镇地铁站","lon":"121.50636409","lat":"31.096332134","category":"36","category_name":"地铁站","address":"上海轨道交通 八号线 轨交浦江镇站 8"},{"poiid":"B2094757D568A0FB439E","title":"绿地沃尔玛广场","lon":"121.4975028","lat":"31.07546278","category":"47","category_name":"住宅区","address":"浦锦路309弄(近江园路)"},{"poiid":"B2094751DA6EA6FC449A","title":"仁济医院南院","lon":"121.503441","lat":"31.08107","category":"627","category_name":"一般地点标志","address":"闵行区浦江镇浦驰路世博家园内(近江月路)"},{"poiid":"B2094757D06FA4F84793","title":"卜蜂莲花(浦江店)","lon":"121.506566","lat":"31.082902","category":"118","category_name":"超级市场","address":"闵行区江月路1800号(浦星路口)"},{"poiid":"B2094757D06FA6FE449C","title":"大富贵酒楼(浦江店)","lon":"121.507067246","lat":"31.0817084791","category":"76","category_name":"上海菜","address":"闵行区江月路1777号(浦星公路)"},{"poiid":"B2094757D068A3FA479A","title":"漕河泾出口加工区","lon":"121.5050354","lat":"31.103040695","category":"46","category_name":"楼宇","address":"上海闵行区浦星公路699号"},{"poiid":"B2094655D26AA0FA4098","title":"地铁江月路站","lon":"121.50858","lat":"31.08375","category":"36","category_name":"地铁站","address":""},{"poiid":"B2094757D16DA3FB4293","title":"欢歌量贩","lon":"121.496897009","lat":"31.0781032275","category":"249","category_name":"购物服务","address":"上海浦锦路309弄6号沃尔玛三楼"},{"poiid":"B2094757D168A2FA4193","title":"好宴世家(浦江店)","lon":"121.497049059","lat":"31.077068655","category":"76","category_name":"上海菜","address":"闵行区浦锦路377号(近南江燕路)"},{"poiid":"B2094757D468A4FB449B","title":"浦星苑","lon":"121.500546054","lat":"31.081557793","category":"76","category_name":"上海菜","address":"闵行区浦江镇浦驰路533号(近江月路)"},{"poiid":"B2094757D068A4FA4192","title":"世博家园十一街坊","lon":"121.512","lat":"31.0848","category":"47","category_name":"住宅区","address":"上海闵行区浦驰路188弄"},{"poiid":"B2094655D26DA6FD4493","title":"景江苑B区","lon":"121.50055085046","lat":"31.08588164098","category":"47","category_name":"住宅区","address":"浦秀路598弄"},{"poiid":"B2094655D26DA0FB489C","title":"景江苑C区","lon":"121.50067830704","lat":"31.084171439972","category":"47","category_name":"住宅区","address":"浦秀路499弄"},{"poiid":"B2094757D568A6F44793","title":"陈行公园","lon":"121.50584825","lat":"31.09137614","category":"196","category_name":"公园","address":"闵行区陈南路(近浦星公路)"},{"poiid":"B2094757D06BA1FE419C","title":"浦江镇第一幼儿园","lon":"121.49674987","lat":"31.085922241","category":"57","category_name":"幼儿园","address":"闵行区立跃路3889号"},{"poiid":"B2094757D169A4FA4398","title":"王中王浦江分店","lon":"121.500978009","lat":"31.0899096844","category":"500","category_name":"未知分类","address":"北京浦锦路309弄绿地沃尔玛"},{"poiid":"B2094757D065A6FA4193","title":"陈南路381号","lon":"121.50092255","lat":"31.090451459","category":"500","category_name":"未知分类","address":"上海陈南路381号"},{"poiid":"B2094654DB69A6FF499E","title":"陈行派出所","lon":"121.50287","lat":"31.09062","category":"609","category_name":"警察局","address":"闵行区陈南路46号"},{"poiid":"B2094654DB64A0FF4599","title":"景江苑D区","lon":"121.50112913792","lat":"31.084352968041","category":"47","category_name":"住宅区","address":"浦秀路518弄"},{"poiid":"B2094757D568A6F8499C","title":"中国福利会少年宫浦江青少年活动中心","lon":"121.49617377","lat":"31.08549316","category":"188","category_name":"文化宫","address":"中国上海市闵行区立跃路"},{"poiid":"B2094757D46FA0FB4799","title":"九州和家拉面","lon":"121.4932504","lat":"31.0916005","category":"95","category_name":"日本料理","address":"闵行区浦锦路357号绿地沃尔玛广场1楼"},{"poiid":"B2094757D169ABFC4693","title":"重庆鸡公煲","lon":"121.4994","lat":"31.08417","category":"86","category_name":"火锅店","address":"闵行区浦驰路"},{"poiid":"B2094751DB6CA2F4499B","title":"上海交通大学医学院附属仁济医院南院","lon":"121.498668","lat":"31.082175","category":"500","category_name":"未知分类","address":null},{"poiid":"B2094654DB6CA6F5419C","title":"聚龙商场","lon":"121.50037","lat":"31.09313","category":"119","category_name":"商场","address":""},{"poiid":"B2094757D064AAF94399","title":"江晨会所","lon":"121.490578009","lat":"31.0759764813","category":"76","category_name":"上海菜","address":"闵行区浦江镇江月路2700号"},{"poiid":"B2094757D465A0FE4493","title":"P萨工坊 浦锦路店","lon":"121.49325","lat":"31.0916","category":"94","category_name":"西餐厅","address":"闵行区浦锦路309弄1幢6号2楼(近沃尔玛)"},{"poiid":"B2094655D26EA7F4409D","title":"世博家园五街坊","lon":"121.5023","lat":"31.08024","category":"47","category_name":"住宅区","address":"北江燕路228弄1-95"},{"poiid":"B2094654DB6CA6F44198","title":"闵行区浦江第一小学","lon":"121.49443","lat":"31.08519","category":"56","category_name":"小学","address":"闵行区浦江镇立跃路3939号"},{"poiid":"B2094655D265AAFF4098","title":"世博家园六街坊","lon":"121.507","lat":"31.0849","category":"47","category_name":"住宅区","address":"上海市闵行区浦江镇北江燕路338弄1号等"},{"poiid":"B2094655D26DA6FD459D","title":"景江苑E区","lon":"121.4970322386","lat":"31.083123463864","category":"47","category_name":"住宅区","address":"浦秀路509弄"},{"poiid":"B2094757D16BA2FA469D","title":"味之都 江月路店","lon":"121.507937054","lat":"31.083800793","category":"68","category_name":"快餐厅","address":"闵行区江月路1800号卜蜂莲花1楼(浦星路口)"},{"poiid":"B2094757D66CABF9419F","title":"上海市闵行区人民法院浦江人民法庭","lon":"121.4960432","lat":"31.084778472","category":"500","category_name":"未知分类","address":"上海浦锦路15号"},{"poiid":"B2094757D06FA4FB489E","title":"浦江世博家园七街坊","lon":"121.511812","lat":"31.083384","category":"500","category_name":"未知分类","address":"上海闵行 浦江镇 南江燕路69弄"},{"poiid":"B2094757D76AA6FE459F","title":"吉祥馄饨 浦锦路店 Gll Wonton","lon":"121.4932504","lat":"31.0916005","category":"87","category_name":"特色／地方风味餐厅","address":"闵行区浦江镇浦锦路357号绿地沃尔玛广场"},{"poiid":"B2094654DB6CA6F44092","title":"上海广播电视卫星地球站","lon":"121.49898","lat":"31.08422","category":"252","category_name":"楼宇机构","address":"鲁陈路3555号"},{"poiid":"B2094654DB6CA6F44199","title":"浦江镇社区文化活动中心","lon":"121.49666","lat":"31.08589","category":"248","category_name":"生活娱乐","address":"立跃路3889"},{"poiid":"B2094757D065AAFD469D","title":"沈佳大酒店","lon":"121.49855","lat":"31.07811","category":"76","category_name":"上海菜","address":"闵行区南江燕路279号(近江月路)"},{"poiid":"B2094750DA6DA6F8499F","title":"姚富记","lon":"121.49325","lat":"31.0916","category":"68","category_name":"快餐厅","address":"闵行区浦锦路313号(近绿地乐和城)"},{"poiid":"B2094655D36DA6FE4298","title":"浦江镇","lon":"121.50636","lat":"31.09631","category":"38","category_name":"公交车站","address":""},{"poiid":"B2094654DB64A1F84698","title":"易初莲花(江月路)","lon":"121.50584","lat":"31.08292","category":"118","category_name":"超级市场","address":"闵行区江月路1800号"},{"poiid":"B2094757D66DA6FC429C","title":"浦江镇青少年活动中心","lon":"121.4959818","lat":"31.08466367","category":"500","category_name":"未知分类","address":"上海立跃路3889号"},{"poiid":"B2094757D568A1FC459E","title":"KAN S韩束妆业","lon":"121.501663","lat":"31.094207","category":"148","category_name":"美容美发店","address":"中国上海市闵行区陈行路"},{"poiid":"B2094757D768A4FD409A","title":"鑫鼎鑫","lon":"121.494069","lat":"31.080253","category":"76","category_name":"上海菜","address":"闵行区浦秀路639弄1号(近江月路)"},{"poiid":"B2094655D36CA0F84692","title":"江月路浦池路","lon":"121.50281","lat":"31.08174","category":"38","category_name":"公交车站","address":""},{"poiid":"B2094751D16DABFE479B","title":"上海交通大学医学院附属仁济医院","lon":"121.4924553","lat":"31.0983813","category":"162","category_name":"医院","address":"江月路2000号"},{"poiid":"B2094757D568A6FE409D","title":"浦江世博家园二街坊","lon":"121.5093536079","lat":"31.087944885181","category":"47","category_name":"住宅区","address":"浦申路633弄"},{"poiid":"B2094757D568A4F84099","title":"浦江·世博家园二街坊(西门)","lon":"121.50042996","lat":"31.08229845","category":"47","category_name":"住宅区","address":"浦申路633弄"},{"poiid":"B2094757D06FA3F44093","title":"浦江镇世博家园","lon":"121.49930548","lat":"31.080541459","category":"47","category_name":"住宅区","address":"上海市闵行区江月路近浦星公路"},{"poiid":"B2094655D36CA0F84799","title":"江月路地铁站","lon":"121.50868","lat":"31.08322","category":"36","category_name":"地铁站","address":""},{"poiid":"B2094757D06FA5FA489C","title":"浦江镇","lon":"121.501756","lat":"31.09062","category":"500","category_name":"未知分类","address":"上海闵行区浦江镇"},{"poiid":"B2094757D06FABFC4392","title":"浦江镇地铁站","lon":"121.50636409","lat":"31.096332134","category":"36","category_name":"地铁站","address":"上海轨道交通 八号线 轨交浦江镇站 8"},{"poiid":"B2094757D568A0FB439E","title":"绿地沃尔玛广场","lon":"121.4975028","lat":"31.07546278","category":"47","category_name":"住宅区","address":"浦锦路309弄(近江园路)"},{"poiid":"B2094751DA6EA6FC449A","title":"仁济医院南院","lon":"121.503441","lat":"31.08107","category":"627","category_name":"一般地点标志","address":"闵行区浦江镇浦驰路世博家园内(近江月路)"},{"poiid":"B2094757D06FA4F84793","title":"卜蜂莲花(浦江店)","lon":"121.506566","lat":"31.082902","category":"118","category_name":"超级市场","address":"闵行区江月路1800号(浦星路口)"},{"poiid":"B2094757D06FA6FE449C","title":"大富贵酒楼(浦江店)","lon":"121.507067246","lat":"31.0817084791","category":"76","category_name":"上海菜","address":"闵行区江月路1777号(浦星公路)"},{"poiid":"B2094757D068A3FA479A","title":"漕河泾出口加工区","lon":"121.5050354","lat":"31.103040695","category":"46","category_name":"楼宇","address":"上海闵行区浦星公路699号"},{"poiid":"B2094655D26AA0FA4098","title":"地铁江月路站","lon":"121.50858","lat":"31.08375","category":"36","category_name":"地铁站","address":""},{"poiid":"B2094757D16DA3FB4293","title":"欢歌量贩","lon":"121.496897009","lat":"31.0781032275","category":"249","category_name":"购物服务","address":"上海浦锦路309弄6号沃尔玛三楼"},{"poiid":"B2094757D168A2FA4193","title":"好宴世家(浦江店)","lon":"121.497049059","lat":"31.077068655","category":"76","category_name":"上海菜","address":"闵行区浦锦路377号(近南江燕路)"},{"poiid":"B2094757D468A4FB449B","title":"浦星苑","lon":"121.500546054","lat":"31.081557793","category":"76","category_name":"上海菜","address":"闵行区浦江镇浦驰路533号(近江月路)"},{"poiid":"B2094757D068A4FA4192","title":"世博家园十一街坊","lon":"121.512","lat":"31.0848","category":"47","category_name":"住宅区","address":"上海闵行区浦驰路188弄"},{"poiid":"B2094655D26DA6FD4493","title":"景江苑B区","lon":"121.50055085046","lat":"31.08588164098","category":"47","category_name":"住宅区","address":"浦秀路598弄"},{"poiid":"B2094655D26DA0FB489C","title":"景江苑C区","lon":"121.50067830704","lat":"31.084171439972","category":"47","category_name":"住宅区","address":"浦秀路499弄"},{"poiid":"B2094757D568A6F44793","title":"陈行公园","lon":"121.50584825","lat":"31.09137614","category":"196","category_name":"公园","address":"闵行区陈南路(近浦星公路)"},{"poiid":"B2094757D06BA1FE419C","title":"浦江镇第一幼儿园","lon":"121.49674987","lat":"31.085922241","category":"57","category_name":"幼儿园","address":"闵行区立跃路3889号"},{"poiid":"B2094757D169A4FA4398","title":"王中王浦江分店","lon":"121.500978009","lat":"31.0899096844","category":"500","category_name":"未知分类","address":"北京浦锦路309弄绿地沃尔玛"},{"poiid":"B2094757D065A6FA4193","title":"陈南路381号","lon":"121.50092255","lat":"31.090451459","category":"500","category_name":"未知分类","address":"上海陈南路381号"},{"poiid":"B2094654DB69A6FF499E","title":"陈行派出所","lon":"121.50287","lat":"31.09062","category":"609","category_name":"警察局","address":"闵行区陈南路46号"},{"poiid":"B2094654DB64A0FF4599","title":"景江苑D区","lon":"121.50112913792","lat":"31.084352968041","category":"47","category_name":"住宅区","address":"浦秀路518弄"},{"poiid":"B2094757D568A6F8499C","title":"中国福利会少年宫浦江青少年活动中心","lon":"121.49617377","lat":"31.08549316","category":"188","category_name":"文化宫","address":"中国上海市闵行区立跃路"},{"poiid":"B2094757D46FA0FB4799","title":"九州和家拉面","lon":"121.4932504","lat":"31.0916005","category":"95","category_name":"日本料理","address":"闵行区浦锦路357号绿地沃尔玛广场1楼"},{"poiid":"B2094757D169ABFC4693","title":"重庆鸡公煲","lon":"121.4994","lat":"31.08417","category":"86","category_name":"火锅店","address":"闵行区浦驰路"},{"poiid":"B2094751DB6CA2F4499B","title":"上海交通大学医学院附属仁济医院南院","lon":"121.498668","lat":"31.082175","category":"500","category_name":"未知分类","address":null},{"poiid":"B2094654DB6CA6F5419C","title":"聚龙商场","lon":"121.50037","lat":"31.09313","category":"119","category_name":"商场","address":""},{"poiid":"B2094757D064AAF94399","title":"江晨会所","lon":"121.490578009","lat":"31.0759764813","category":"76","category_name":"上海菜","address":"闵行区浦江镇江月路2700号"},{"poiid":"B2094757D465A0FE4493","title":"P萨工坊 浦锦路店","lon":"121.49325","lat":"31.0916","category":"94","category_name":"西餐厅","address":"闵行区浦锦路309弄1幢6号2楼(近沃尔玛)"},{"poiid":"B2094655D26EA7F4409D","title":"世博家园五街坊","lon":"121.5023","lat":"31.08024","category":"47","category_name":"住宅区","address":"北江燕路228弄1-95"},{"poiid":"B2094654DB6CA6F44198","title":"闵行区浦江第一小学","lon":"121.49443","lat":"31.08519","category":"56","category_name":"小学","address":"闵行区浦江镇立跃路3939号"},{"poiid":"B2094655D265AAFF4098","title":"世博家园六街坊","lon":"121.507","lat":"31.0849","category":"47","category_name":"住宅区","address":"上海市闵行区浦江镇北江燕路338弄1号等"},{"poiid":"B2094655D26DA6FD459D","title":"景江苑E区","lon":"121.4970322386","lat":"31.083123463864","category":"47","category_name":"住宅区","address":"浦秀路509弄"},{"poiid":"B2094757D16BA2FA469D","title":"味之都 江月路店","lon":"121.507937054","lat":"31.083800793","category":"68","category_name":"快餐厅","address":"闵行区江月路1800号卜蜂莲花1楼(浦星路口)"},{"poiid":"B2094757D66CABF9419F","title":"上海市闵行区人民法院浦江人民法庭","lon":"121.4960432","lat":"31.084778472","category":"500","category_name":"未知分类","address":"上海浦锦路15号"},{"poiid":"B2094757D06FA4FB489E","title":"浦江世博家园七街坊","lon":"121.511812","lat":"31.083384","category":"500","category_name":"未知分类","address":"上海闵行 浦江镇 南江燕路69弄"},{"poiid":"B2094757D76AA6FE459F","title":"吉祥馄饨 浦锦路店 Gll Wonton","lon":"121.4932504","lat":"31.0916005","category":"87","category_name":"特色／地方风味餐厅","address":"闵行区浦江镇浦锦路357号绿地沃尔玛广场"},{"poiid":"B2094654DB6CA6F44092","title":"上海广播电视卫星地球站","lon":"121.49898","lat":"31.08422","category":"252","category_name":"楼宇机构","address":"鲁陈路3555号"},{"poiid":"B2094654DB6CA6F44199","title":"浦江镇社区文化活动中心","lon":"121.49666","lat":"31.08589","category":"248","category_name":"生活娱乐","address":"立跃路3889"},{"poiid":"B2094757D065AAFD469D","title":"沈佳大酒店","lon":"121.49855","lat":"31.07811","category":"76","category_name":"上海菜","address":"闵行区南江燕路279号(近江月路)"},{"poiid":"B2094750DA6DA6F8499F","title":"姚富记","lon":"121.49325","lat":"31.0916","category":"68","category_name":"快餐厅","address":"闵行区浦锦路313号(近绿地乐和城)"},{"poiid":"B2094655D36DA6FE4298","title":"浦江镇","lon":"121.50636","lat":"31.09631","category":"38","category_name":"公交车站","address":""},{"poiid":"B2094654DB64A1F84698","title":"易初莲花(江月路)","lon":"121.50584","lat":"31.08292","category":"118","category_name":"超级市场","address":"闵行区江月路1800号"},{"poiid":"B2094757D66DA6FC429C","title":"浦江镇青少年活动中心","lon":"121.4959818","lat":"31.08466367","category":"500","category_name":"未知分类","address":"上海立跃路3889号"},{"poiid":"B2094757D568A1FC459E","title":"KAN S韩束妆业","lon":"121.501663","lat":"31.094207","category":"148","category_name":"美容美发店","address":"中国上海市闵行区陈行路"},{"poiid":"B2094757D768A4FD409A","title":"鑫鼎鑫","lon":"121.494069","lat":"31.080253","category":"76","category_name":"上海菜","address":"闵行区浦秀路639弄1号(近江月路)"},{"poiid":"B2094655D36CA0F84692","title":"江月路浦池路","lon":"121.50281","lat":"31.08174","category":"38","category_name":"公交车站","address":""},{"poiid":"B2094751D16DABFE479B","title":"上海交通大学医学院附属仁济医院","lon":"121.4924553","lat":"31.0983813","category":"162","category_name":"医院","address":"江月路2000号"},{"poiid":"B2094757D568A6FE409D","title":"浦江世博家园二街坊","lon":"121.5093536079","lat":"31.087944885181","category":"47","category_name":"住宅区","address":"浦申路633弄"},{"poiid":"B2094757D568A4F84099","title":"浦江·世博家园二街坊(西门)","lon":"121.50042996","lat":"31.08229845","category":"47","category_name":"住宅区","address":"浦申路633弄"}]