[{"poiid":"B2094757D06FA3F8439A","title":"时代金融中心","lon":"121.513","lat":"31.2467","category":"46","category_name":"楼宇","address":"上海市浦东新区银城中路68号"},{"poiid":"B2094757D06EAAFF479A","title":"杨树浦路地铁站","lon":"121.51719604","lat":"31.252407847","category":"36","category_name":"地铁站","address":"上海轨道交通 四号线 轨交杨树浦路站 轻轨 4"},{"poiid":"B2094757D06FA0FA489F","title":"秦皇岛路轮渡站","lon":"121.51639044","lat":"31.249174771","category":"35","category_name":"长途汽车站","address":"上海虹口区秦皇岛路1号"},{"poiid":"B209475CD564A7F84392","title":"上海滩浦东香格里拉店","lon":"121.50058","lat":"31.23634","category":"119","category_name":"商场","address":"浦东富成路33号香格里拉酒店内大堂层"},{"poiid":"B2094654D56FA3F44099","title":"上海瑞丰国际大厦","lon":"121.51557","lat":"31.25078","category":"46","category_name":"楼宇","address":"上海市奉贤区环城东路455、465弄"},{"poiid":"B2094757D06FA5FA479F","title":"华夏银行大厦","lon":"121.5152","lat":"31.245346","category":"46","category_name":"楼宇","address":"上海浦东新区浦东南路256号"},{"poiid":"B2094757D065A5FA449E","title":"阿根廷庄园","lon":"121.517910103","lat":"31.2503280024","category":"94","category_name":"西餐厅","address":"杨浦区秦皇岛路32号19幢(近北外滩东码头)"},{"poiid":"B2094757D06FA3FC479F","title":"上海航运交易所","lon":"121.51347327","lat":"31.250775518","category":"260","category_name":"其他","address":"上海杨树浦路88号(近惠民路)"},{"poiid":"B2094757D16DABF9429A","title":"浦江游览","lon":"121.516154","lat":"31.249603","category":"607","category_name":"一般景点","address":"上海秦皇岛"},{"poiid":"B2094655D26FA5FF479B","title":"华能联合大厦","lon":"121.515","lat":"31.245","category":"46","category_name":"楼宇","address":"朝阳华威桥东北角"},{"poiid":"B2094655D26CA6FC4493","title":"61号老栈(百联创意)","lon":"121.51188","lat":"31.25121","category":"46","category_name":"楼宇","address":"杨树浦路61号"},{"poiid":"B2094757D06FA3FF4692","title":"提篮桥监狱","lon":"121.51515197","lat":"31.253217697","category":"608","category_name":"法院","address":"上海市虹口区长阳路147号"},{"poiid":"B2094654DB69A5FE4693","title":"肯德基 KFC (杨树浦店)","lon":"121.51166","lat":"31.25119","category":"68","category_name":"快餐厅","address":"虹口区杨树浦路45号(近浦江海关)"},{"poiid":"B2094654D56FA3FB479A","title":"港运大厦","lon":"121.51116","lat":"31.25012","category":"46","category_name":"楼宇","address":"静安区长寿路(万航渡路口)"},{"poiid":"B2094655D264ABF8459A","title":"马登国际航运商务中心","lon":"121.51322","lat":"31.25147","category":"46","category_name":"楼宇","address":"杨树浦路147号"},{"poiid":"B2094654DA69A1F54992","title":"金穗大厦","lon":"121.517","lat":"31.245","category":"46","category_name":"楼宇","address":"上海市奉贤区环城东路455,465弄"},{"poiid":"B2094655D26FA5FE4498","title":"汇丰大厦","lon":"121.514","lat":"31.2458","category":"46","category_name":"楼宇","address":"上海陆家嘴环路1000号"},{"poiid":"B2094655D36CA0FB4799","title":"霍山路临潼路","lon":"121.51298","lat":"31.25114","category":"38","category_name":"公交车站","address":"霍山路临潼路"},{"poiid":"B2094757D169A2F4479D","title":"翡翠公主号","lon":"121.5164","lat":"31.2507","category":"76","category_name":"上海菜","address":"杨浦区秦皇岛路码头(近杨树浦路)"},{"poiid":"B2094757D065A4FB449B","title":"老头菜饭","lon":"121.51482053","lat":"31.25163419","category":"68","category_name":"快餐厅","address":"杨浦区杨树浦路205号(临潼路口)"},{"poiid":"B2094655D26AA0F9409B","title":"地铁杨树浦路站","lon":"121.5172","lat":"31.25241","category":"36","category_name":"地铁站","address":""},{"poiid":"B2094750DB6BA3FF479B","title":"浦东滨江大道","lon":"121.515625","lat":"31.248435","category":"500","category_name":"未知分类","address":null},{"poiid":"B2094757D66FA0FD499C","title":"北外滩东信酒店","lon":"121.5116325","lat":"31.252110289","category":"217","category_name":"旅馆招待所","address":"虹口区惠民路36号(近杨树浦路东大名路)"},{"poiid":"B2094757D66BA4F8409D","title":"阿王菜饭","lon":"121.5143770854","lat":"31.251560061639","category":"68","category_name":"快餐厅","address":"杨浦区杨树浦路197-1号(近临潼路)"},{"poiid":"B2094655D36DA6FE4992","title":"杨树浦路","lon":"121.5172","lat":"31.25241","category":"38","category_name":"公交车站","address":""},{"poiid":"B2094757D464A7F44099","title":"石库门牛排面馆","lon":"121.51113","lat":"31.25174","category":"68","category_name":"快餐厅","address":"虹口区惠民路21弄5号(近远洋宾馆)"},{"poiid":"B2094757DA6EAAF94392","title":"东码头创意园","lon":"121.516459399999","lat":"31.2500832000003","category":"263","category_name":"公司","address":"虹口区秦皇岛路32号"},{"poiid":"B2094757D16BAAFF4698","title":"临潼路杨树浦路站(公交28,137终)","lon":"121.5150478","lat":"31.251107918","category":"38","category_name":"公交车站","address":"上海虹口区临潼路平凉路"},{"poiid":"B2094757D06FAAFF469B","title":"DQ冰雪皇后(正大二店)","lon":"121.51651915","lat":"31.251704193","category":"113","category_name":"冷饮店","address":"浦东新区陆家嘴西路168号正大广场B2楼(近东方明珠)"},{"poiid":"B2094757D06FA5F84293","title":"浦江海关","lon":"121.51242875","lat":"31.250188419","category":"500","category_name":"未知分类","address":"上海杨树浦路88号"},{"poiid":"B2094655D268A7FF4893","title":"马登仓库办公大楼","lon":"121.51322","lat":"31.25146","category":"46","category_name":"楼宇","address":"杨树浦路147、155"},{"poiid":"B2094757D06AA2FC4399","title":"上海美设国际货运代理有限公司","lon":"121.5156121","lat":"31.250757011","category":"263","category_name":"公司","address":"上海杨树浦路248号28楼"},{"poiid":"B2094655D26BA1FC489F","title":"平凉路大连路","lon":"121.51745","lat":"31.25307","category":"38","category_name":"公交车站","address":""},{"poiid":"B2094757D068A4F5479A","title":"隧道工程股份有限公司","lon":"121.517015","lat":"31.253451","category":"263","category_name":"公司","address":"上海大连路118号"},{"poiid":"B2094757D06BA5F4409C","title":"921终点站","lon":"121.514079103","lat":"31.2493519821","category":"500","category_name":"未知分类","address":"上海平凉路34号(靠近临潼路)"},{"poiid":"B2094757D06BA2FF4793","title":"金丰閣","lon":"121.515496103","lat":"31.2506935101","category":"500","category_name":"未知分类","address":"上海楊樹浦路248號瑞丰大廈大堂"},{"poiid":"B2094654DB69A6FD489C","title":"上海港务工程公司码头","lon":"121.5147","lat":"31.25132","category":"34","category_name":"港口码头","address":"杨浦区杨树浦路210号"},{"poiid":"B2094654D56FA2FE4199","title":"为民点心店","lon":"121.51166","lat":"31.2521","category":"68","category_name":"快餐厅","address":"虹口区惠民路62号(近杨树浦路)"},{"poiid":"B2094757D16EA4F44799","title":"秦皇岛路水门码头","lon":"121.518441738","lat":"31.2456866296","category":"260","category_name":"其他","address":"杨浦区秦皇岛路32号(近杨树浦路)"},{"poiid":"B2094655D36CA3FF469B","title":"上海美博城","lon":"121.51167","lat":"31.2512","category":"46","category_name":"楼宇","address":"杨树浦路61号"},{"poiid":"B2094654D56FA3F44292","title":"海上人家","lon":"121.515036054","lat":"31.251712793","category":"257","category_name":"中餐厅","address":"上海杨浦区平凉路1号(近隆昌路)  "},{"poiid":"B2094757D06FABFC469C","title":"平凉路大连路站(公交842,155,137,25,853,申川线,921终,79终)","lon":"121.518741","lat":"31.252096","category":"38","category_name":"公交车站","address":"上海市杨浦区平凉路179号"},{"poiid":"B2094757D06AA5FF4493","title":"临潼苑","lon":"121.51397","lat":"31.252007","category":"500","category_name":"未知分类","address":"上海市虹口区杨树浦路183号"},{"poiid":"B2094654D56EA5FB449B","title":"上海船厂总部码头","lon":"121.51973","lat":"31.25131","category":"34","category_name":"港口码头","address":""},{"poiid":"B2094757D169ABFC439B","title":"闸航路","lon":"121.5150136","lat":"31.250760311","category":"500","category_name":"未知分类","address":"上海闸航路"},{"poiid":"B2094757D06BA3F4429D","title":"520台球俱乐部","lon":"121.51171","lat":"31.2512","category":"171","category_name":"台球厅","address":"虹口区惠民路38号3楼(近杨树浦路)"},{"poiid":"B2094655D36DA0F94198","title":"杨树浦路大连路","lon":"121.51857","lat":"31.25196","category":"38","category_name":"公交车站","address":""},{"poiid":"B2094751DA6EA0F5439F","title":"上海市中西结合医院","lon":"121.513936","lat":"31.252164","category":"162","category_name":"医院","address":"保定路230号"},{"poiid":"B2094655D36CA1F94799","title":"临潼路杨树浦路","lon":"121.5143","lat":"31.25222","category":"38","category_name":"公交车站","address":""},{"poiid":"B2094757D16AAAFE4198","title":"平凉路临潼路","lon":"121.51530097","lat":"31.251615993","category":"500","category_name":"未知分类","address":"上海平凉路临潼路公交站点(868,37,921,330)"},{"poiid":"B2094757D06FA3F8439A","title":"时代金融中心","lon":"121.513","lat":"31.2467","category":"46","category_name":"楼宇","address":"上海市浦东新区银城中路68号"},{"poiid":"B2094757D06EAAFF479A","title":"杨树浦路地铁站","lon":"121.51719604","lat":"31.252407847","category":"36","category_name":"地铁站","address":"上海轨道交通 四号线 轨交杨树浦路站 轻轨 4"},{"poiid":"B2094757D06FA0FA489F","title":"秦皇岛路轮渡站","lon":"121.51639044","lat":"31.249174771","category":"35","category_name":"长途汽车站","address":"上海虹口区秦皇岛路1号"},{"poiid":"B209475CD564A7F84392","title":"上海滩浦东香格里拉店","lon":"121.50058","lat":"31.23634","category":"119","category_name":"商场","address":"浦东富成路33号香格里拉酒店内大堂层"},{"poiid":"B2094654D56FA3F44099","title":"上海瑞丰国际大厦","lon":"121.51557","lat":"31.25078","category":"46","category_name":"楼宇","address":"上海市奉贤区环城东路455、465弄"},{"poiid":"B2094757D06FA5FA479F","title":"华夏银行大厦","lon":"121.5152","lat":"31.245346","category":"46","category_name":"楼宇","address":"上海浦东新区浦东南路256号"},{"poiid":"B2094757D065A5FA449E","title":"阿根廷庄园","lon":"121.517910103","lat":"31.2503280024","category":"94","category_name":"西餐厅","address":"杨浦区秦皇岛路32号19幢(近北外滩东码头)"},{"poiid":"B2094757D06FA3FC479F","title":"上海航运交易所","lon":"121.51347327","lat":"31.250775518","category":"260","category_name":"其他","address":"上海杨树浦路88号(近惠民路)"},{"poiid":"B2094757D16DABF9429A","title":"浦江游览","lon":"121.516154","lat":"31.249603","category":"607","category_name":"一般景点","address":"上海秦皇岛"},{"poiid":"B2094655D26FA5FF479B","title":"华能联合大厦","lon":"121.515","lat":"31.245","category":"46","category_name":"楼宇","address":"朝阳华威桥东北角"},{"poiid":"B2094655D26CA6FC4493","title":"61号老栈(百联创意)","lon":"121.51188","lat":"31.25121","category":"46","category_name":"楼宇","address":"杨树浦路61号"},{"poiid":"B2094757D06FA3FF4692","title":"提篮桥监狱","lon":"121.51515197","lat":"31.253217697","category":"608","category_name":"法院","address":"上海市虹口区长阳路147号"},{"poiid":"B2094654DB69A5FE4693","title":"肯德基 KFC (杨树浦店)","lon":"121.51166","lat":"31.25119","category":"68","category_name":"快餐厅","address":"虹口区杨树浦路45号(近浦江海关)"},{"poiid":"B2094654D56FA3FB479A","title":"港运大厦","lon":"121.51116","lat":"31.25012","category":"46","category_name":"楼宇","address":"静安区长寿路(万航渡路口)"},{"poiid":"B2094655D264ABF8459A","title":"马登国际航运商务中心","lon":"121.51322","lat":"31.25147","category":"46","category_name":"楼宇","address":"杨树浦路147号"},{"poiid":"B2094654DA69A1F54992","title":"金穗大厦","lon":"121.517","lat":"31.245","category":"46","category_name":"楼宇","address":"上海市奉贤区环城东路455,465弄"},{"poiid":"B2094655D26FA5FE4498","title":"汇丰大厦","lon":"121.514","lat":"31.2458","category":"46","category_name":"楼宇","address":"上海陆家嘴环路1000号"},{"poiid":"B2094655D36CA0FB4799","title":"霍山路临潼路","lon":"121.51298","lat":"31.25114","category":"38","category_name":"公交车站","address":"霍山路临潼路"},{"poiid":"B2094757D169A2F4479D","title":"翡翠公主号","lon":"121.5164","lat":"31.2507","category":"76","category_name":"上海菜","address":"杨浦区秦皇岛路码头(近杨树浦路)"},{"poiid":"B2094757D065A4FB449B","title":"老头菜饭","lon":"121.51482053","lat":"31.25163419","category":"68","category_name":"快餐厅","address":"杨浦区杨树浦路205号(临潼路口)"},{"poiid":"B2094655D26AA0F9409B","title":"地铁杨树浦路站","lon":"121.5172","lat":"31.25241","category":"36","category_name":"地铁站","address":""},{"poiid":"B2094750DB6BA3FF479B","title":"浦东滨江大道","lon":"121.515625","lat":"31.248435","category":"500","category_name":"未知分类","address":null},{"poiid":"B2094757D66FA0FD499C","title":"北外滩东信酒店","lon":"121.5116325","lat":"31.252110289","category":"217","category_name":"旅馆招待所","address":"虹口区惠民路36号(近杨树浦路东大名路)"},{"poiid":"B2094757D66BA4F8409D","title":"阿王菜饭","lon":"121.5143770854","lat":"31.251560061639","category":"68","category_name":"快餐厅","address":"杨浦区杨树浦路197-1号(近临潼路)"},{"poiid":"B2094655D36DA6FE4992","title":"杨树浦路","lon":"121.5172","lat":"31.25241","category":"38","category_name":"公交车站","address":""},{"poiid":"B2094757D464A7F44099","title":"石库门牛排面馆","lon":"121.51113","lat":"31.25174","category":"68","category_name":"快餐厅","address":"虹口区惠民路21弄5号(近远洋宾馆)"},{"poiid":"B2094757DA6EAAF94392","title":"东码头创意园","lon":"121.516459399999","lat":"31.2500832000003","category":"263","category_name":"公司","address":"虹口区秦皇岛路32号"},{"poiid":"B2094757D16BAAFF4698","title":"临潼路杨树浦路站(公交28,137终)","lon":"121.5150478","lat":"31.251107918","category":"38","category_name":"公交车站","address":"上海虹口区临潼路平凉路"},{"poiid":"B2094757D06FAAFF469B","title":"DQ冰雪皇后(正大二店)","lon":"121.51651915","lat":"31.251704193","category":"113","category_name":"冷饮店","address":"浦东新区陆家嘴西路168号正大广场B2楼(近东方明珠)"},{"poiid":"B2094757D06FA5F84293","title":"浦江海关","lon":"121.51242875","lat":"31.250188419","category":"500","category_name":"未知分类","address":"上海杨树浦路88号"},{"poiid":"B2094655D268A7FF4893","title":"马登仓库办公大楼","lon":"121.51322","lat":"31.25146","category":"46","category_name":"楼宇","address":"杨树浦路147、155"},{"poiid":"B2094757D06AA2FC4399","title":"上海美设国际货运代理有限公司","lon":"121.5156121","lat":"31.250757011","category":"263","category_name":"公司","address":"上海杨树浦路248号28楼"},{"poiid":"B2094655D26BA1FC489F","title":"平凉路大连路","lon":"121.51745","lat":"31.25307","category":"38","category_name":"公交车站","address":""},{"poiid":"B2094757D068A4F5479A","title":"隧道工程股份有限公司","lon":"121.517015","lat":"31.253451","category":"263","category_name":"公司","address":"上海大连路118号"},{"poiid":"B2094757D06BA5F4409C","title":"921终点站","lon":"121.514079103","lat":"31.2493519821","category":"500","category_name":"未知分类","address":"上海平凉路34号(靠近临潼路)"},{"poiid":"B2094757D06BA2FF4793","title":"金丰閣","lon":"121.515496103","lat":"31.2506935101","category":"500","category_name":"未知分类","address":"上海楊樹浦路248號瑞丰大廈大堂"},{"poiid":"B2094654DB69A6FD489C","title":"上海港务工程公司码头","lon":"121.5147","lat":"31.25132","category":"34","category_name":"港口码头","address":"杨浦区杨树浦路210号"},{"poiid":"B2094654D56FA2FE4199","title":"为民点心店","lon":"121.51166","lat":"31.2521","category":"68","category_name":"快餐厅","address":"虹口区惠民路62号(近杨树浦路)"},{"poiid":"B2094757D16EA4F44799","title":"秦皇岛路水门码头","lon":"121.518441738","lat":"31.2456866296","category":"260","category_name":"其他","address":"杨浦区秦皇岛路32号(近杨树浦路)"},{"poiid":"B2094655D36CA3FF469B","title":"上海美博城","lon":"121.51167","lat":"31.2512","category":"46","category_name":"楼宇","address":"杨树浦路61号"},{"poiid":"B2094654D56FA3F44292","title":"海上人家","lon":"121.515036054","lat":"31.251712793","category":"257","category_name":"中餐厅","address":"上海杨浦区平凉路1号(近隆昌路)  "},{"poiid":"B2094757D06FABFC469C","title":"平凉路大连路站(公交842,155,137,25,853,申川线,921终,79终)","lon":"121.518741","lat":"31.252096","category":"38","category_name":"公交车站","address":"上海市杨浦区平凉路179号"},{"poiid":"B2094757D06AA5FF4493","title":"临潼苑","lon":"121.51397","lat":"31.252007","category":"500","category_name":"未知分类","address":"上海市虹口区杨树浦路183号"},{"poiid":"B2094654D56EA5FB449B","title":"上海船厂总部码头","lon":"121.51973","lat":"31.25131","category":"34","category_name":"港口码头","address":""},{"poiid":"B2094757D169ABFC439B","title":"闸航路","lon":"121.5150136","lat":"31.250760311","category":"500","category_name":"未知分类","address":"上海闸航路"},{"poiid":"B2094757D06BA3F4429D","title":"520台球俱乐部","lon":"121.51171","lat":"31.2512","category":"171","category_name":"台球厅","address":"虹口区惠民路38号3楼(近杨树浦路)"},{"poiid":"B2094655D36DA0F94198","title":"杨树浦路大连路","lon":"121.51857","lat":"31.25196","category":"38","category_name":"公交车站","address":""},{"poiid":"B2094751DA6EA0F5439F","title":"上海市中西结合医院","lon":"121.513936","lat":"31.252164","category":"162","category_name":"医院","address":"保定路230号"},{"poiid":"B2094655D36CA1F94799","title":"临潼路杨树浦路","lon":"121.5143","lat":"31.25222","category":"38","category_name":"公交车站","address":""},{"poiid":"B2094757D16AAAFE4198","title":"平凉路临潼路","lon":"121.51530097","lat":"31.251615993","category":"500","category_name":"未知分类","address":"上海平凉路临潼路公交站点(868,37,921,330)"},{"poiid":"B2094757D06FA3F8439A","title":"时代金融中心","lon":"121.513","lat":"31.2467","category":"46","category_name":"楼宇","address":"上海市浦东新区银城中路68号"},{"poiid":"B2094757D06EAAFF479A","title":"杨树浦路地铁站","lon":"121.51719604","lat":"31.252407847","category":"36","category_name":"地铁站","address":"上海轨道交通 四号线 轨交杨树浦路站 轻轨 4"},{"poiid":"B2094757D06FA0FA489F","title":"秦皇岛路轮渡站","lon":"121.51639044","lat":"31.249174771","category":"35","category_name":"长途汽车站","address":"上海虹口区秦皇岛路1号"},{"poiid":"B209475CD564A7F84392","title":"上海滩浦东香格里拉店","lon":"121.50058","lat":"31.23634","category":"119","category_name":"商场","address":"浦东富成路33号香格里拉酒店内大堂层"},{"poiid":"B2094654D56FA3F44099","title":"上海瑞丰国际大厦","lon":"121.51557","lat":"31.25078","category":"46","category_name":"楼宇","address":"上海市奉贤区环城东路455、465弄"},{"poiid":"B2094757D06FA5FA479F","title":"华夏银行大厦","lon":"121.5152","lat":"31.245346","category":"46","category_name":"楼宇","address":"上海浦东新区浦东南路256号"},{"poiid":"B2094757D065A5FA449E","title":"阿根廷庄园","lon":"121.517910103","lat":"31.2503280024","category":"94","category_name":"西餐厅","address":"杨浦区秦皇岛路32号19幢(近北外滩东码头)"},{"poiid":"B2094757D06FA3FC479F","title":"上海航运交易所","lon":"121.51347327","lat":"31.250775518","category":"260","category_name":"其他","address":"上海杨树浦路88号(近惠民路)"},{"poiid":"B2094757D16DABF9429A","title":"浦江游览","lon":"121.516154","lat":"31.249603","category":"607","category_name":"一般景点","address":"上海秦皇岛"},{"poiid":"B2094655D26FA5FF479B","title":"华能联合大厦","lon":"121.515","lat":"31.245","category":"46","category_name":"楼宇","address":"朝阳华威桥东北角"},{"poiid":"B2094655D26CA6FC4493","title":"61号老栈(百联创意)","lon":"121.51188","lat":"31.25121","category":"46","category_name":"楼宇","address":"杨树浦路61号"},{"poiid":"B2094757D06FA3FF4692","title":"提篮桥监狱","lon":"121.51515197","lat":"31.253217697","category":"608","category_name":"法院","address":"上海市虹口区长阳路147号"},{"poiid":"B2094654DB69A5FE4693","title":"肯德基 KFC (杨树浦店)","lon":"121.51166","lat":"31.25119","category":"68","category_name":"快餐厅","address":"虹口区杨树浦路45号(近浦江海关)"},{"poiid":"B2094654D56FA3FB479A","title":"港运大厦","lon":"121.51116","lat":"31.25012","category":"46","category_name":"楼宇","address":"静安区长寿路(万航渡路口)"},{"poiid":"B2094655D264ABF8459A","title":"马登国际航运商务中心","lon":"121.51322","lat":"31.25147","category":"46","category_name":"楼宇","address":"杨树浦路147号"},{"poiid":"B2094654DA69A1F54992","title":"金穗大厦","lon":"121.517","lat":"31.245","category":"46","category_name":"楼宇","address":"上海市奉贤区环城东路455,465弄"},{"poiid":"B2094655D26FA5FE4498","title":"汇丰大厦","lon":"121.514","lat":"31.2458","category":"46","category_name":"楼宇","address":"上海陆家嘴环路1000号"},{"poiid":"B2094655D36CA0FB4799","title":"霍山路临潼路","lon":"121.51298","lat":"31.25114","category":"38","category_name":"公交车站","address":"霍山路临潼路"},{"poiid":"B2094757D169A2F4479D","title":"翡翠公主号","lon":"121.5164","lat":"31.2507","category":"76","category_name":"上海菜","address":"杨浦区秦皇岛路码头(近杨树浦路)"},{"poiid":"B2094757D065A4FB449B","title":"老头菜饭","lon":"121.51482053","lat":"31.25163419","category":"68","category_name":"快餐厅","address":"杨浦区杨树浦路205号(临潼路口)"},{"poiid":"B2094655D26AA0F9409B","title":"地铁杨树浦路站","lon":"121.5172","lat":"31.25241","category":"36","category_name":"地铁站","address":""},{"poiid":"B2094750DB6BA3FF479B","title":"浦东滨江大道","lon":"121.515625","lat":"31.248435","category":"500","category_name":"未知分类","address":null},{"poiid":"B2094757D66FA0FD499C","title":"北外滩东信酒店","lon":"121.5116325","lat":"31.252110289","category":"217","category_name":"旅馆招待所","address":"虹口区惠民路36号(近杨树浦路东大名路)"},{"poiid":"B2094757D66BA4F8409D","title":"阿王菜饭","lon":"121.5143770854","lat":"31.251560061639","category":"68","category_name":"快餐厅","address":"杨浦区杨树浦路197-1号(近临潼路)"},{"poiid":"B2094655D36DA6FE4992","title":"杨树浦路","lon":"121.5172","lat":"31.25241","category":"38","category_name":"公交车站","address":""},{"poiid":"B2094757D464A7F44099","title":"石库门牛排面馆","lon":"121.51113","lat":"31.25174","category":"68","category_name":"快餐厅","address":"虹口区惠民路21弄5号(近远洋宾馆)"},{"poiid":"B2094757DA6EAAF94392","title":"东码头创意园","lon":"121.516459399999","lat":"31.2500832000003","category":"263","category_name":"公司","address":"虹口区秦皇岛路32号"},{"poiid":"B2094757D16BAAFF4698","title":"临潼路杨树浦路站(公交28,137终)","lon":"121.5150478","lat":"31.251107918","category":"38","category_name":"公交车站","address":"上海虹口区临潼路平凉路"},{"poiid":"B2094757D06FAAFF469B","title":"DQ冰雪皇后(正大二店)","lon":"121.51651915","lat":"31.251704193","category":"113","category_name":"冷饮店","address":"浦东新区陆家嘴西路168号正大广场B2楼(近东方明珠)"},{"poiid":"B2094757D06FA5F84293","title":"浦江海关","lon":"121.51242875","lat":"31.250188419","category":"500","category_name":"未知分类","address":"上海杨树浦路88号"},{"poiid":"B2094655D268A7FF4893","title":"马登仓库办公大楼","lon":"121.51322","lat":"31.25146","category":"46","category_name":"楼宇","address":"杨树浦路147、155"},{"poiid":"B2094757D06AA2FC4399","title":"上海美设国际货运代理有限公司","lon":"121.5156121","lat":"31.250757011","category":"263","category_name":"公司","address":"上海杨树浦路248号28楼"},{"poiid":"B2094655D26BA1FC489F","title":"平凉路大连路","lon":"121.51745","lat":"31.25307","category":"38","category_name":"公交车站","address":""},{"poiid":"B2094757D068A4F5479A","title":"隧道工程股份有限公司","lon":"121.517015","lat":"31.253451","category":"263","category_name":"公司","address":"上海大连路118号"},{"poiid":"B2094757D06BA5F4409C","title":"921终点站","lon":"121.514079103","lat":"31.2493519821","category":"500","category_name":"未知分类","address":"上海平凉路34号(靠近临潼路)"},{"poiid":"B2094757D06BA2FF4793","title":"金丰閣","lon":"121.515496103","lat":"31.2506935101","category":"500","category_name":"未知分类","address":"上海楊樹浦路248號瑞丰大廈大堂"},{"poiid":"B2094654DB69A6FD489C","title":"上海港务工程公司码头","lon":"121.5147","lat":"31.25132","category":"34","category_name":"港口码头","address":"杨浦区杨树浦路210号"},{"poiid":"B2094654D56FA2FE4199","title":"为民点心店","lon":"121.51166","lat":"31.2521","category":"68","category_name":"快餐厅","address":"虹口区惠民路62号(近杨树浦路)"},{"poiid":"B2094757D16EA4F44799","title":"秦皇岛路水门码头","lon":"121.518441738","lat":"31.2456866296","category":"260","category_name":"其他","address":"杨浦区秦皇岛路32号(近杨树浦路)"},{"poiid":"B2094655D36CA3FF469B","title":"上海美博城","lon":"121.51167","lat":"31.2512","category":"46","category_name":"楼宇","address":"杨树浦路61号"},{"poiid":"B2094654D56FA3F44292","title":"海上人家","lon":"121.515036054","lat":"31.251712793","category":"257","category_name":"中餐厅","address":"上海杨浦区平凉路1号(近隆昌路)  "},{"poiid":"B2094757D06FABFC469C","title":"平凉路大连路站(公交842,155,137,25,853,申川线,921终,79终)","lon":"121.518741","lat":"31.252096","category":"38","category_name":"公交车站","address":"上海市杨浦区平凉路179号"},{"poiid":"B2094757D06AA5FF4493","title":"临潼苑","lon":"121.51397","lat":"31.252007","category":"500","category_name":"未知分类","address":"上海市虹口区杨树浦路183号"},{"poiid":"B2094654D56EA5FB449B","title":"上海船厂总部码头","lon":"121.51973","lat":"31.25131","category":"34","category_name":"港口码头","address":""},{"poiid":"B2094757D169ABFC439B","title":"闸航路","lon":"121.5150136","lat":"31.250760311","category":"500","category_name":"未知分类","address":"上海闸航路"},{"poiid":"B2094757D06BA3F4429D","title":"520台球俱乐部","lon":"121.51171","lat":"31.2512","category":"171","category_name":"台球厅","address":"虹口区惠民路38号3楼(近杨树浦路)"},{"poiid":"B2094655D36DA0F94198","title":"杨树浦路大连路","lon":"121.51857","lat":"31.25196","category":"38","category_name":"公交车站","address":""},{"poiid":"B2094751DA6EA0F5439F","title":"上海市中西结合医院","lon":"121.513936","lat":"31.252164","category":"162","category_name":"医院","address":"保定路230号"},{"poiid":"B2094655D36CA1F94799","title":"临潼路杨树浦路","lon":"121.5143","lat":"31.25222","category":"38","category_name":"公交车站","address":""},{"poiid":"B2094757D16AAAFE4198","title":"平凉路临潼路","lon":"121.51530097","lat":"31.251615993","category":"500","category_name":"未知分类","address":"上海平凉路临潼路公交站点(868,37,921,330)"}]