[{"poiid":"B2094655D26FA1FD459E","title":"源深体育中心","lon":"121.53706","lat":"31.2334","category":"224","category_name":"综合体育馆","address":"浦东新区张杨路1458号"},{"poiid":"B2094757D06FA2FA4193","title":"源深体育馆","lon":"121.536191683","lat":"31.2310137082","category":"220","category_name":"运动场所","address":"上海浦东源深路200号"},{"poiid":"B2094757D06FA3F84798","title":"浦东假日酒店","lon":"121.536","lat":"31.2292","category":"214","category_name":"四星级宾馆","address":"浦东新区东方路899号(近向城路)"},{"poiid":"B2094757D06FA3FB429D","title":"浦东游泳馆(源深馆)","lon":"121.53847","lat":"31.23198","category":"231","category_name":"游泳馆","address":"浦东新区张杨路1458号源深体育中心内(近源深路)"},{"poiid":"B2094655D26AA0FB459F","title":"源深体育场","lon":"121.53635","lat":"31.2306","category":"247","category_name":"餐饮美食","address":"浦东新区深源路655号"},{"poiid":"B2094654DA68ABF8499E","title":"陆家嘴国际华城","lon":"121.53563","lat":"31.235361","category":"47","category_name":"住宅区","address":"上海市浦东新区张扬路1351号"},{"poiid":"B2094757D068A4F9469E","title":"汉唐酒店","lon":"121.539241","lat":"31.23287","category":"72","category_name":"广东菜","address":"浦东新区桃林路777号(近张杨路)"},{"poiid":"B2094757D068A6FE429D","title":"枣子树 源深店","lon":"121.534981","lat":"31.23073","category":"89","category_name":"中式素餐馆","address":"浦东新区张杨路1458号源深体育中心北区3楼(近源深路)"},{"poiid":"B2094757D06FA5F8489D","title":"源深篮球公园","lon":"121.536632157","lat":"31.2295100303","category":"220","category_name":"运动场所","address":"浦东新区羽山路9号浦东源深体育中心6号门(潍坊路羽山路)"},{"poiid":"B2094757D06FABFE439A","title":"宏嘉大厦","lon":"121.537","lat":"31.2307","category":"46","category_name":"楼宇","address":"上海浦东新区福山路388号"},{"poiid":"B2094654DA6AA2FD4292","title":"东方国际科技大厦","lon":"121.537","lat":"31.2299","category":"46","category_name":"楼宇","address":"浦东新区向城路58号"},{"poiid":"B2094654DA69A5F44593","title":"齐鲁大厦","lon":"121.532","lat":"31.2318","category":"46","category_name":"楼宇","address":"上海市静安区南京西路555号"},{"poiid":"B2094655D26EA7FA4293","title":"苏先生海鲜渔庄 源深店","lon":"121.53480097364","lat":"31.232918552506","category":"260","category_name":"其他","address":"浦东新区源深路655号体育中心内(近张杨路)"},{"poiid":"B2094757D06FA2F9499F","title":"源深体育中心羽毛球场","lon":"121.538296989","lat":"31.2324749785","category":"220","category_name":"运动场所","address":"浦东新区张杨路1458号源深体育中心内(近源深路)"},{"poiid":"B2094757D66BA2FA4098","title":"紫阳富豪精菜坊","lon":"121.53687","lat":"31.23347","category":"72","category_name":"广东菜","address":"浦东新区张杨路1458号源深体育中心1楼(近桃林路)"},{"poiid":"B2094757D068A2F8419E","title":"裕安大厦","lon":"121.53118129061","lat":"31.234559912556","category":"46","category_name":"楼宇","address":"朝阳华威桥东北角"},{"poiid":"B2094757D06FAAF84199","title":"屋企汤馆(张杨店)","lon":"121.53153173","lat":"31.232229342","category":"72","category_name":"广东菜","address":"浦东新区张杨路1233号(近源深体育馆)"},{"poiid":"B2094757D068A4FA489C","title":"鼎杰保龄球馆","lon":"121.53581","lat":"31.23152","category":"228","category_name":"保龄球馆","address":"浦东新区张杨路1458号源深体育馆3号门1楼(近源深路)"},{"poiid":"B2094654DA69AAFF4293","title":"上海钦赐仰殿道观","lon":"121.53257","lat":"31.23426","category":"244","category_name":"寺庙道观","address":"浦东新区源深路476号(近张杨路)"},{"poiid":"B2094750DA6EA7F94892","title":"6号线世纪大道站","lon":"121.533592","lat":"31.230928","category":"500","category_name":"未知分类","address":"世纪大道"},{"poiid":"B2094655D26EA3F5479B","title":"中国电信张杨路营业厅","lon":"121.53703","lat":"31.23426","category":"151","category_name":"电讯营业厅","address":"张杨路1551号"},{"poiid":"B2094757D068A1FF4398","title":"国际华城","lon":"121.53430175","lat":"31.233566284","category":"47","category_name":"住宅区","address":"上海源深路419号"},{"poiid":"B2094654DA6AA3FA4792","title":"嘉兴大厦","lon":"121.535","lat":"31.2305","category":"46","category_name":"楼宇","address":"丰台学城海鹰路1号,3号"},{"poiid":"B2094757D069A1F84599","title":"全华信息大厦","lon":"121.538","lat":"31.2304","category":"46","category_name":"楼宇","address":"黄陂区楚天大道与盘龙三路交汇处"},{"poiid":"B2094654DA69A5F4459E","title":"众城大厦","lon":"121.53220617513","lat":"31.232716882997","category":"46","category_name":"楼宇","address":"上海市浦东新区张杨路500号"},{"poiid":"B2094757D069A1FA489E","title":"索福德足球世界(源深体育中心店)","lon":"121.53465","lat":"31.23251","category":"220","category_name":"运动场所","address":"浦东新区张杨路1458号源深体育中心内(近源深路)"},{"poiid":"B2094757D569A2FE459F","title":"茶识地","lon":"121.53570584","lat":"31.23188911","category":"66","category_name":"茶艺馆","address":"浦东新区张杨路1458号源深体育中心1楼(近源深路)"},{"poiid":"B2094757D06FABF5459A","title":"新天国际大厦","lon":"121.538","lat":"31.2301","category":"46","category_name":"楼宇","address":"上海市长宁区遵义南路88号"},{"poiid":"B2094655D26FAAFA419C","title":"建平中学西校(陆家嘴国际华城西南)","lon":"121.53402","lat":"31.2342","category":"55","category_name":"中学","address":"源深路383"},{"poiid":"B2094654DA6AA2FE4799","title":"爵士大厦","lon":"121.535","lat":"31.2306","category":"46","category_name":"楼宇","address":"向城路29号"},{"poiid":"B2094655D26AA0FA439B","title":"地铁源深体育中心站","lon":"121.53439","lat":"31.23292","category":"36","category_name":"地铁站","address":""},{"poiid":"B2094654DB69A6F9419D","title":"陆家嘴巴洛克风情","lon":"121.53272","lat":"31.23542","category":"46","category_name":"楼宇","address":"铁西区铁西兴华街与南十中路交处(兴华南街48号)"},{"poiid":"B2094655D36DA7FC4298","title":"源深路","lon":"121.53243","lat":"31.23229","category":"38","category_name":"公交车站","address":""},{"poiid":"B2094655D36DA7FC429F","title":"源深路张杨路","lon":"121.53438","lat":"31.2314","category":"38","category_name":"公交车站","address":""},{"poiid":"B2094655D264A4F54499","title":"德加置地大厦","lon":"121.536","lat":"31.2322","category":"46","category_name":"楼宇","address":"世纪大道1118号"},{"poiid":"B2094654DB69AAF9499D","title":"宁波汉通酒店","lon":"121.53834","lat":"31.2347","category":"247","category_name":"餐饮美食","address":"上海市浦东新区张杨路1587号八方大厦2楼(近桃林路)"},{"poiid":"B2094757D06FAAFA489B","title":"星之健身(源深体育馆店)","lon":"121.53567","lat":"31.22904","category":"148","category_name":"美容美发店","address":"浦东新区张杨路1458号源深体育中心内(近源深路)"},{"poiid":"B2094654DB65A0FD479E","title":"蝎斗足球场","lon":"121.5353","lat":"31.23238","category":"230","category_name":"足球场","address":""},{"poiid":"B2094654DB64ABF9479B","title":"源深游泳馆","lon":"121.53855","lat":"31.23223","category":"231","category_name":"游泳馆","address":"桃林路892"},{"poiid":"B2094654DB64A5FD4098","title":"斯巴顿健身会所(源深店)","lon":"121.53562","lat":"31.23536","category":"221","category_name":"健身中心","address":"浦东新区张杨路1515弄19号陆家嘴国际华城(近源深路)"},{"poiid":"B2094654DB65A0FD439E","title":"源深体育发展中心(2号门)","lon":"121.53454","lat":"31.23173","category":"224","category_name":"综合体育馆","address":""},{"poiid":"B2094655D265A7F8439E","title":"普罗旺斯的树 L'Arbre de Provence","lon":"121.536603054","lat":"31.231831793","category":"94","category_name":"西餐厅","address":"张杨路1458号源深体育中心3楼近桃林路"},{"poiid":"B2094757D068A0F54393","title":"竹园小区","lon":"121.53177549","lat":"31.2311335378","category":"47","category_name":"住宅区","address":"潍坊路238弄,252弄"},{"poiid":"B2094757D068A1FF4193","title":"国际华城小区","lon":"121.53621114","lat":"31.23470831","category":"47","category_name":"住宅区","address":"上海张杨路1515号"},{"poiid":"B2094655D26DA4F5479B","title":"中国建设银行信用卡中心","lon":"121.5343","lat":"31.23356","category":"150","category_name":"银行","address":"源深路419号国际华城"},{"poiid":"B2094757D465ABFD419B","title":"甜心皇后咖啡 Sweet Queen","lon":"121.536355054","lat":"31.231988793","category":"247","category_name":"餐饮美食","address":"源深路655号源深加州酒店1楼近张杨路"},{"poiid":"B2094654DB6AA7F44993","title":"唐晋人家(源深路店)","lon":"121.53543","lat":"31.23151","category":"260","category_name":"其他","address":"浦东新区张杨路1458号源深体育中心内(近源深路)"},{"poiid":"B2094757D06FA0FF439E","title":"源深SMP滑板公园","lon":"121.5351809","lat":"31.2304439","category":"196","category_name":"公园","address":"浦东新区源深路655号源深体育中心4号门(近张扬路)"},{"poiid":"B2094757D065A6FA469C","title":"安波路","lon":"121.53512549","lat":"31.232853689","category":"500","category_name":"未知分类","address":"上海兰花教师公寓"},{"poiid":"B2094654DA68ABF84393","title":"八方大酒店","lon":"121.53851","lat":"31.23477","category":"215","category_name":"三星级宾馆","address":"张杨路1587号(近桃林路)"},{"poiid":"B2094655D26FA1FD459E","title":"源深体育中心","lon":"121.53706","lat":"31.2334","category":"224","category_name":"综合体育馆","address":"浦东新区张杨路1458号"},{"poiid":"B2094757D06FA2FA4193","title":"源深体育馆","lon":"121.536191683","lat":"31.2310137082","category":"220","category_name":"运动场所","address":"上海浦东源深路200号"},{"poiid":"B2094757D06FA3F84798","title":"浦东假日酒店","lon":"121.536","lat":"31.2292","category":"214","category_name":"四星级宾馆","address":"浦东新区东方路899号(近向城路)"},{"poiid":"B2094757D06FA3FB429D","title":"浦东游泳馆(源深馆)","lon":"121.53847","lat":"31.23198","category":"231","category_name":"游泳馆","address":"浦东新区张杨路1458号源深体育中心内(近源深路)"},{"poiid":"B2094655D26AA0FB459F","title":"源深体育场","lon":"121.53635","lat":"31.2306","category":"247","category_name":"餐饮美食","address":"浦东新区深源路655号"},{"poiid":"B2094654DA68ABF8499E","title":"陆家嘴国际华城","lon":"121.53563","lat":"31.235361","category":"47","category_name":"住宅区","address":"上海市浦东新区张扬路1351号"},{"poiid":"B2094757D068A4F9469E","title":"汉唐酒店","lon":"121.539241","lat":"31.23287","category":"72","category_name":"广东菜","address":"浦东新区桃林路777号(近张杨路)"},{"poiid":"B2094757D068A6FE429D","title":"枣子树 源深店","lon":"121.534981","lat":"31.23073","category":"89","category_name":"中式素餐馆","address":"浦东新区张杨路1458号源深体育中心北区3楼(近源深路)"},{"poiid":"B2094757D06FA5F8489D","title":"源深篮球公园","lon":"121.536632157","lat":"31.2295100303","category":"220","category_name":"运动场所","address":"浦东新区羽山路9号浦东源深体育中心6号门(潍坊路羽山路)"},{"poiid":"B2094757D06FABFE439A","title":"宏嘉大厦","lon":"121.537","lat":"31.2307","category":"46","category_name":"楼宇","address":"上海浦东新区福山路388号"},{"poiid":"B2094654DA6AA2FD4292","title":"东方国际科技大厦","lon":"121.537","lat":"31.2299","category":"46","category_name":"楼宇","address":"浦东新区向城路58号"},{"poiid":"B2094654DA69A5F44593","title":"齐鲁大厦","lon":"121.532","lat":"31.2318","category":"46","category_name":"楼宇","address":"上海市静安区南京西路555号"},{"poiid":"B2094655D26EA7FA4293","title":"苏先生海鲜渔庄 源深店","lon":"121.53480097364","lat":"31.232918552506","category":"260","category_name":"其他","address":"浦东新区源深路655号体育中心内(近张杨路)"},{"poiid":"B2094757D06FA2F9499F","title":"源深体育中心羽毛球场","lon":"121.538296989","lat":"31.2324749785","category":"220","category_name":"运动场所","address":"浦东新区张杨路1458号源深体育中心内(近源深路)"},{"poiid":"B2094757D66BA2FA4098","title":"紫阳富豪精菜坊","lon":"121.53687","lat":"31.23347","category":"72","category_name":"广东菜","address":"浦东新区张杨路1458号源深体育中心1楼(近桃林路)"},{"poiid":"B2094757D068A2F8419E","title":"裕安大厦","lon":"121.53118129061","lat":"31.234559912556","category":"46","category_name":"楼宇","address":"朝阳华威桥东北角"},{"poiid":"B2094757D06FAAF84199","title":"屋企汤馆(张杨店)","lon":"121.53153173","lat":"31.232229342","category":"72","category_name":"广东菜","address":"浦东新区张杨路1233号(近源深体育馆)"},{"poiid":"B2094757D068A4FA489C","title":"鼎杰保龄球馆","lon":"121.53581","lat":"31.23152","category":"228","category_name":"保龄球馆","address":"浦东新区张杨路1458号源深体育馆3号门1楼(近源深路)"},{"poiid":"B2094654DA69AAFF4293","title":"上海钦赐仰殿道观","lon":"121.53257","lat":"31.23426","category":"244","category_name":"寺庙道观","address":"浦东新区源深路476号(近张杨路)"},{"poiid":"B2094750DA6EA7F94892","title":"6号线世纪大道站","lon":"121.533592","lat":"31.230928","category":"500","category_name":"未知分类","address":"世纪大道"},{"poiid":"B2094655D26EA3F5479B","title":"中国电信张杨路营业厅","lon":"121.53703","lat":"31.23426","category":"151","category_name":"电讯营业厅","address":"张杨路1551号"},{"poiid":"B2094757D068A1FF4398","title":"国际华城","lon":"121.53430175","lat":"31.233566284","category":"47","category_name":"住宅区","address":"上海源深路419号"},{"poiid":"B2094654DA6AA3FA4792","title":"嘉兴大厦","lon":"121.535","lat":"31.2305","category":"46","category_name":"楼宇","address":"丰台学城海鹰路1号,3号"},{"poiid":"B2094757D069A1F84599","title":"全华信息大厦","lon":"121.538","lat":"31.2304","category":"46","category_name":"楼宇","address":"黄陂区楚天大道与盘龙三路交汇处"},{"poiid":"B2094654DA69A5F4459E","title":"众城大厦","lon":"121.53220617513","lat":"31.232716882997","category":"46","category_name":"楼宇","address":"上海市浦东新区张杨路500号"},{"poiid":"B2094757D069A1FA489E","title":"索福德足球世界(源深体育中心店)","lon":"121.53465","lat":"31.23251","category":"220","category_name":"运动场所","address":"浦东新区张杨路1458号源深体育中心内(近源深路)"},{"poiid":"B2094757D569A2FE459F","title":"茶识地","lon":"121.53570584","lat":"31.23188911","category":"66","category_name":"茶艺馆","address":"浦东新区张杨路1458号源深体育中心1楼(近源深路)"},{"poiid":"B2094757D06FABF5459A","title":"新天国际大厦","lon":"121.538","lat":"31.2301","category":"46","category_name":"楼宇","address":"上海市长宁区遵义南路88号"},{"poiid":"B2094655D26FAAFA419C","title":"建平中学西校(陆家嘴国际华城西南)","lon":"121.53402","lat":"31.2342","category":"55","category_name":"中学","address":"源深路383"},{"poiid":"B2094654DA6AA2FE4799","title":"爵士大厦","lon":"121.535","lat":"31.2306","category":"46","category_name":"楼宇","address":"向城路29号"},{"poiid":"B2094655D26AA0FA439B","title":"地铁源深体育中心站","lon":"121.53439","lat":"31.23292","category":"36","category_name":"地铁站","address":""},{"poiid":"B2094654DB69A6F9419D","title":"陆家嘴巴洛克风情","lon":"121.53272","lat":"31.23542","category":"46","category_name":"楼宇","address":"铁西区铁西兴华街与南十中路交处(兴华南街48号)"},{"poiid":"B2094655D36DA7FC4298","title":"源深路","lon":"121.53243","lat":"31.23229","category":"38","category_name":"公交车站","address":""},{"poiid":"B2094655D36DA7FC429F","title":"源深路张杨路","lon":"121.53438","lat":"31.2314","category":"38","category_name":"公交车站","address":""},{"poiid":"B2094655D264A4F54499","title":"德加置地大厦","lon":"121.536","lat":"31.2322","category":"46","category_name":"楼宇","address":"世纪大道1118号"},{"poiid":"B2094654DB69AAF9499D","title":"宁波汉通酒店","lon":"121.53834","lat":"31.2347","category":"247","category_name":"餐饮美食","address":"上海市浦东新区张杨路1587号八方大厦2楼(近桃林路)"},{"poiid":"B2094757D06FAAFA489B","title":"星之健身(源深体育馆店)","lon":"121.53567","lat":"31.22904","category":"148","category_name":"美容美发店","address":"浦东新区张杨路1458号源深体育中心内(近源深路)"},{"poiid":"B2094654DB65A0FD479E","title":"蝎斗足球场","lon":"121.5353","lat":"31.23238","category":"230","category_name":"足球场","address":""},{"poiid":"B2094654DB64ABF9479B","title":"源深游泳馆","lon":"121.53855","lat":"31.23223","category":"231","category_name":"游泳馆","address":"桃林路892"},{"poiid":"B2094654DB64A5FD4098","title":"斯巴顿健身会所(源深店)","lon":"121.53562","lat":"31.23536","category":"221","category_name":"健身中心","address":"浦东新区张杨路1515弄19号陆家嘴国际华城(近源深路)"},{"poiid":"B2094654DB65A0FD439E","title":"源深体育发展中心(2号门)","lon":"121.53454","lat":"31.23173","category":"224","category_name":"综合体育馆","address":""},{"poiid":"B2094655D265A7F8439E","title":"普罗旺斯的树 L'Arbre de Provence","lon":"121.536603054","lat":"31.231831793","category":"94","category_name":"西餐厅","address":"张杨路1458号源深体育中心3楼近桃林路"},{"poiid":"B2094757D068A0F54393","title":"竹园小区","lon":"121.53177549","lat":"31.2311335378","category":"47","category_name":"住宅区","address":"潍坊路238弄,252弄"},{"poiid":"B2094757D068A1FF4193","title":"国际华城小区","lon":"121.53621114","lat":"31.23470831","category":"47","category_name":"住宅区","address":"上海张杨路1515号"},{"poiid":"B2094655D26DA4F5479B","title":"中国建设银行信用卡中心","lon":"121.5343","lat":"31.23356","category":"150","category_name":"银行","address":"源深路419号国际华城"},{"poiid":"B2094757D465ABFD419B","title":"甜心皇后咖啡 Sweet Queen","lon":"121.536355054","lat":"31.231988793","category":"247","category_name":"餐饮美食","address":"源深路655号源深加州酒店1楼近张杨路"},{"poiid":"B2094654DB6AA7F44993","title":"唐晋人家(源深路店)","lon":"121.53543","lat":"31.23151","category":"260","category_name":"其他","address":"浦东新区张杨路1458号源深体育中心内(近源深路)"},{"poiid":"B2094757D06FA0FF439E","title":"源深SMP滑板公园","lon":"121.5351809","lat":"31.2304439","category":"196","category_name":"公园","address":"浦东新区源深路655号源深体育中心4号门(近张扬路)"},{"poiid":"B2094757D065A6FA469C","title":"安波路","lon":"121.53512549","lat":"31.232853689","category":"500","category_name":"未知分类","address":"上海兰花教师公寓"},{"poiid":"B2094654DA68ABF84393","title":"八方大酒店","lon":"121.53851","lat":"31.23477","category":"215","category_name":"三星级宾馆","address":"张杨路1587号(近桃林路)"},{"poiid":"B2094655D26FA1FD459E","title":"源深体育中心","lon":"121.53706","lat":"31.2334","category":"224","category_name":"综合体育馆","address":"浦东新区张杨路1458号"},{"poiid":"B2094757D06FA2FA4193","title":"源深体育馆","lon":"121.536191683","lat":"31.2310137082","category":"220","category_name":"运动场所","address":"上海浦东源深路200号"},{"poiid":"B2094757D06FA3F84798","title":"浦东假日酒店","lon":"121.536","lat":"31.2292","category":"214","category_name":"四星级宾馆","address":"浦东新区东方路899号(近向城路)"},{"poiid":"B2094757D06FA3FB429D","title":"浦东游泳馆(源深馆)","lon":"121.53847","lat":"31.23198","category":"231","category_name":"游泳馆","address":"浦东新区张杨路1458号源深体育中心内(近源深路)"},{"poiid":"B2094655D26AA0FB459F","title":"源深体育场","lon":"121.53635","lat":"31.2306","category":"247","category_name":"餐饮美食","address":"浦东新区深源路655号"},{"poiid":"B2094654DA68ABF8499E","title":"陆家嘴国际华城","lon":"121.53563","lat":"31.235361","category":"47","category_name":"住宅区","address":"上海市浦东新区张扬路1351号"},{"poiid":"B2094757D068A4F9469E","title":"汉唐酒店","lon":"121.539241","lat":"31.23287","category":"72","category_name":"广东菜","address":"浦东新区桃林路777号(近张杨路)"},{"poiid":"B2094757D068A6FE429D","title":"枣子树 源深店","lon":"121.534981","lat":"31.23073","category":"89","category_name":"中式素餐馆","address":"浦东新区张杨路1458号源深体育中心北区3楼(近源深路)"},{"poiid":"B2094757D06FA5F8489D","title":"源深篮球公园","lon":"121.536632157","lat":"31.2295100303","category":"220","category_name":"运动场所","address":"浦东新区羽山路9号浦东源深体育中心6号门(潍坊路羽山路)"},{"poiid":"B2094757D06FABFE439A","title":"宏嘉大厦","lon":"121.537","lat":"31.2307","category":"46","category_name":"楼宇","address":"上海浦东新区福山路388号"},{"poiid":"B2094654DA6AA2FD4292","title":"东方国际科技大厦","lon":"121.537","lat":"31.2299","category":"46","category_name":"楼宇","address":"浦东新区向城路58号"},{"poiid":"B2094654DA69A5F44593","title":"齐鲁大厦","lon":"121.532","lat":"31.2318","category":"46","category_name":"楼宇","address":"上海市静安区南京西路555号"},{"poiid":"B2094655D26EA7FA4293","title":"苏先生海鲜渔庄 源深店","lon":"121.53480097364","lat":"31.232918552506","category":"260","category_name":"其他","address":"浦东新区源深路655号体育中心内(近张杨路)"},{"poiid":"B2094757D06FA2F9499F","title":"源深体育中心羽毛球场","lon":"121.538296989","lat":"31.2324749785","category":"220","category_name":"运动场所","address":"浦东新区张杨路1458号源深体育中心内(近源深路)"},{"poiid":"B2094757D66BA2FA4098","title":"紫阳富豪精菜坊","lon":"121.53687","lat":"31.23347","category":"72","category_name":"广东菜","address":"浦东新区张杨路1458号源深体育中心1楼(近桃林路)"},{"poiid":"B2094757D068A2F8419E","title":"裕安大厦","lon":"121.53118129061","lat":"31.234559912556","category":"46","category_name":"楼宇","address":"朝阳华威桥东北角"},{"poiid":"B2094757D06FAAF84199","title":"屋企汤馆(张杨店)","lon":"121.53153173","lat":"31.232229342","category":"72","category_name":"广东菜","address":"浦东新区张杨路1233号(近源深体育馆)"},{"poiid":"B2094757D068A4FA489C","title":"鼎杰保龄球馆","lon":"121.53581","lat":"31.23152","category":"228","category_name":"保龄球馆","address":"浦东新区张杨路1458号源深体育馆3号门1楼(近源深路)"},{"poiid":"B2094654DA69AAFF4293","title":"上海钦赐仰殿道观","lon":"121.53257","lat":"31.23426","category":"244","category_name":"寺庙道观","address":"浦东新区源深路476号(近张杨路)"},{"poiid":"B2094750DA6EA7F94892","title":"6号线世纪大道站","lon":"121.533592","lat":"31.230928","category":"500","category_name":"未知分类","address":"世纪大道"},{"poiid":"B2094655D26EA3F5479B","title":"中国电信张杨路营业厅","lon":"121.53703","lat":"31.23426","category":"151","category_name":"电讯营业厅","address":"张杨路1551号"},{"poiid":"B2094757D068A1FF4398","title":"国际华城","lon":"121.53430175","lat":"31.233566284","category":"47","category_name":"住宅区","address":"上海源深路419号"},{"poiid":"B2094654DA6AA3FA4792","title":"嘉兴大厦","lon":"121.535","lat":"31.2305","category":"46","category_name":"楼宇","address":"丰台学城海鹰路1号,3号"},{"poiid":"B2094757D069A1F84599","title":"全华信息大厦","lon":"121.538","lat":"31.2304","category":"46","category_name":"楼宇","address":"黄陂区楚天大道与盘龙三路交汇处"},{"poiid":"B2094654DA69A5F4459E","title":"众城大厦","lon":"121.53220617513","lat":"31.232716882997","category":"46","category_name":"楼宇","address":"上海市浦东新区张杨路500号"},{"poiid":"B2094757D069A1FA489E","title":"索福德足球世界(源深体育中心店)","lon":"121.53465","lat":"31.23251","category":"220","category_name":"运动场所","address":"浦东新区张杨路1458号源深体育中心内(近源深路)"},{"poiid":"B2094757D569A2FE459F","title":"茶识地","lon":"121.53570584","lat":"31.23188911","category":"66","category_name":"茶艺馆","address":"浦东新区张杨路1458号源深体育中心1楼(近源深路)"},{"poiid":"B2094757D06FABF5459A","title":"新天国际大厦","lon":"121.538","lat":"31.2301","category":"46","category_name":"楼宇","address":"上海市长宁区遵义南路88号"},{"poiid":"B2094655D26FAAFA419C","title":"建平中学西校(陆家嘴国际华城西南)","lon":"121.53402","lat":"31.2342","category":"55","category_name":"中学","address":"源深路383"},{"poiid":"B2094654DA6AA2FE4799","title":"爵士大厦","lon":"121.535","lat":"31.2306","category":"46","category_name":"楼宇","address":"向城路29号"},{"poiid":"B2094655D26AA0FA439B","title":"地铁源深体育中心站","lon":"121.53439","lat":"31.23292","category":"36","category_name":"地铁站","address":""},{"poiid":"B2094654DB69A6F9419D","title":"陆家嘴巴洛克风情","lon":"121.53272","lat":"31.23542","category":"46","category_name":"楼宇","address":"铁西区铁西兴华街与南十中路交处(兴华南街48号)"},{"poiid":"B2094655D36DA7FC4298","title":"源深路","lon":"121.53243","lat":"31.23229","category":"38","category_name":"公交车站","address":""},{"poiid":"B2094655D36DA7FC429F","title":"源深路张杨路","lon":"121.53438","lat":"31.2314","category":"38","category_name":"公交车站","address":""},{"poiid":"B2094655D264A4F54499","title":"德加置地大厦","lon":"121.536","lat":"31.2322","category":"46","category_name":"楼宇","address":"世纪大道1118号"},{"poiid":"B2094654DB69AAF9499D","title":"宁波汉通酒店","lon":"121.53834","lat":"31.2347","category":"247","category_name":"餐饮美食","address":"上海市浦东新区张杨路1587号八方大厦2楼(近桃林路)"},{"poiid":"B2094757D06FAAFA489B","title":"星之健身(源深体育馆店)","lon":"121.53567","lat":"31.22904","category":"148","category_name":"美容美发店","address":"浦东新区张杨路1458号源深体育中心内(近源深路)"},{"poiid":"B2094654DB65A0FD479E","title":"蝎斗足球场","lon":"121.5353","lat":"31.23238","category":"230","category_name":"足球场","address":""},{"poiid":"B2094654DB64ABF9479B","title":"源深游泳馆","lon":"121.53855","lat":"31.23223","category":"231","category_name":"游泳馆","address":"桃林路892"},{"poiid":"B2094654DB64A5FD4098","title":"斯巴顿健身会所(源深店)","lon":"121.53562","lat":"31.23536","category":"221","category_name":"健身中心","address":"浦东新区张杨路1515弄19号陆家嘴国际华城(近源深路)"},{"poiid":"B2094654DB65A0FD439E","title":"源深体育发展中心(2号门)","lon":"121.53454","lat":"31.23173","category":"224","category_name":"综合体育馆","address":""},{"poiid":"B2094655D265A7F8439E","title":"普罗旺斯的树 L'Arbre de Provence","lon":"121.536603054","lat":"31.231831793","category":"94","category_name":"西餐厅","address":"张杨路1458号源深体育中心3楼近桃林路"},{"poiid":"B2094757D068A0F54393","title":"竹园小区","lon":"121.53177549","lat":"31.2311335378","category":"47","category_name":"住宅区","address":"潍坊路238弄,252弄"},{"poiid":"B2094757D068A1FF4193","title":"国际华城小区","lon":"121.53621114","lat":"31.23470831","category":"47","category_name":"住宅区","address":"上海张杨路1515号"},{"poiid":"B2094655D26DA4F5479B","title":"中国建设银行信用卡中心","lon":"121.5343","lat":"31.23356","category":"150","category_name":"银行","address":"源深路419号国际华城"},{"poiid":"B2094757D465ABFD419B","title":"甜心皇后咖啡 Sweet Queen","lon":"121.536355054","lat":"31.231988793","category":"247","category_name":"餐饮美食","address":"源深路655号源深加州酒店1楼近张杨路"},{"poiid":"B2094654DB6AA7F44993","title":"唐晋人家(源深路店)","lon":"121.53543","lat":"31.23151","category":"260","category_name":"其他","address":"浦东新区张杨路1458号源深体育中心内(近源深路)"},{"poiid":"B2094757D06FA0FF439E","title":"源深SMP滑板公园","lon":"121.5351809","lat":"31.2304439","category":"196","category_name":"公园","address":"浦东新区源深路655号源深体育中心4号门(近张扬路)"},{"poiid":"B2094757D065A6FA469C","title":"安波路","lon":"121.53512549","lat":"31.232853689","category":"500","category_name":"未知分类","address":"上海兰花教师公寓"},{"poiid":"B2094654DA68ABF84393","title":"八方大酒店","lon":"121.53851","lat":"31.23477","category":"215","category_name":"三星级宾馆","address":"张杨路1587号(近桃林路)"},{"poiid":"B2094655D26FA1FD459E","title":"源深体育中心","lon":"121.53706","lat":"31.2334","category":"224","category_name":"综合体育馆","address":"浦东新区张杨路1458号"},{"poiid":"B2094757D06FA2FA4193","title":"源深体育馆","lon":"121.536191683","lat":"31.2310137082","category":"220","category_name":"运动场所","address":"上海浦东源深路200号"},{"poiid":"B2094757D06FA3F84798","title":"浦东假日酒店","lon":"121.536","lat":"31.2292","category":"214","category_name":"四星级宾馆","address":"浦东新区东方路899号(近向城路)"},{"poiid":"B2094757D06FA3FB429D","title":"浦东游泳馆(源深馆)","lon":"121.53847","lat":"31.23198","category":"231","category_name":"游泳馆","address":"浦东新区张杨路1458号源深体育中心内(近源深路)"},{"poiid":"B2094655D26AA0FB459F","title":"源深体育场","lon":"121.53635","lat":"31.2306","category":"247","category_name":"餐饮美食","address":"浦东新区深源路655号"},{"poiid":"B2094654DA68ABF8499E","title":"陆家嘴国际华城","lon":"121.53563","lat":"31.235361","category":"47","category_name":"住宅区","address":"上海市浦东新区张扬路1351号"},{"poiid":"B2094757D068A4F9469E","title":"汉唐酒店","lon":"121.539241","lat":"31.23287","category":"72","category_name":"广东菜","address":"浦东新区桃林路777号(近张杨路)"},{"poiid":"B2094757D068A6FE429D","title":"枣子树 源深店","lon":"121.534981","lat":"31.23073","category":"89","category_name":"中式素餐馆","address":"浦东新区张杨路1458号源深体育中心北区3楼(近源深路)"},{"poiid":"B2094757D06FA5F8489D","title":"源深篮球公园","lon":"121.536632157","lat":"31.2295100303","category":"220","category_name":"运动场所","address":"浦东新区羽山路9号浦东源深体育中心6号门(潍坊路羽山路)"},{"poiid":"B2094757D06FABFE439A","title":"宏嘉大厦","lon":"121.537","lat":"31.2307","category":"46","category_name":"楼宇","address":"上海浦东新区福山路388号"},{"poiid":"B2094654DA6AA2FD4292","title":"东方国际科技大厦","lon":"121.537","lat":"31.2299","category":"46","category_name":"楼宇","address":"浦东新区向城路58号"},{"poiid":"B2094654DA69A5F44593","title":"齐鲁大厦","lon":"121.532","lat":"31.2318","category":"46","category_name":"楼宇","address":"上海市静安区南京西路555号"},{"poiid":"B2094655D26EA7FA4293","title":"苏先生海鲜渔庄 源深店","lon":"121.53480097364","lat":"31.232918552506","category":"260","category_name":"其他","address":"浦东新区源深路655号体育中心内(近张杨路)"},{"poiid":"B2094757D06FA2F9499F","title":"源深体育中心羽毛球场","lon":"121.538296989","lat":"31.2324749785","category":"220","category_name":"运动场所","address":"浦东新区张杨路1458号源深体育中心内(近源深路)"},{"poiid":"B2094757D66BA2FA4098","title":"紫阳富豪精菜坊","lon":"121.53687","lat":"31.23347","category":"72","category_name":"广东菜","address":"浦东新区张杨路1458号源深体育中心1楼(近桃林路)"},{"poiid":"B2094757D068A2F8419E","title":"裕安大厦","lon":"121.53118129061","lat":"31.234559912556","category":"46","category_name":"楼宇","address":"朝阳华威桥东北角"},{"poiid":"B2094757D06FAAF84199","title":"屋企汤馆(张杨店)","lon":"121.53153173","lat":"31.232229342","category":"72","category_name":"广东菜","address":"浦东新区张杨路1233号(近源深体育馆)"},{"poiid":"B2094757D068A4FA489C","title":"鼎杰保龄球馆","lon":"121.53581","lat":"31.23152","category":"228","category_name":"保龄球馆","address":"浦东新区张杨路1458号源深体育馆3号门1楼(近源深路)"},{"poiid":"B2094654DA69AAFF4293","title":"上海钦赐仰殿道观","lon":"121.53257","lat":"31.23426","category":"244","category_name":"寺庙道观","address":"浦东新区源深路476号(近张杨路)"},{"poiid":"B2094750DA6EA7F94892","title":"6号线世纪大道站","lon":"121.533592","lat":"31.230928","category":"500","category_name":"未知分类","address":"世纪大道"},{"poiid":"B2094655D26EA3F5479B","title":"中国电信张杨路营业厅","lon":"121.53703","lat":"31.23426","category":"151","category_name":"电讯营业厅","address":"张杨路1551号"},{"poiid":"B2094757D068A1FF4398","title":"国际华城","lon":"121.53430175","lat":"31.233566284","category":"47","category_name":"住宅区","address":"上海源深路419号"},{"poiid":"B2094654DA6AA3FA4792","title":"嘉兴大厦","lon":"121.535","lat":"31.2305","category":"46","category_name":"楼宇","address":"丰台学城海鹰路1号,3号"},{"poiid":"B2094757D069A1F84599","title":"全华信息大厦","lon":"121.538","lat":"31.2304","category":"46","category_name":"楼宇","address":"黄陂区楚天大道与盘龙三路交汇处"},{"poiid":"B2094654DA69A5F4459E","title":"众城大厦","lon":"121.53220617513","lat":"31.232716882997","category":"46","category_name":"楼宇","address":"上海市浦东新区张杨路500号"},{"poiid":"B2094757D069A1FA489E","title":"索福德足球世界(源深体育中心店)","lon":"121.53465","lat":"31.23251","category":"220","category_name":"运动场所","address":"浦东新区张杨路1458号源深体育中心内(近源深路)"},{"poiid":"B2094757D569A2FE459F","title":"茶识地","lon":"121.53570584","lat":"31.23188911","category":"66","category_name":"茶艺馆","address":"浦东新区张杨路1458号源深体育中心1楼(近源深路)"},{"poiid":"B2094757D06FABF5459A","title":"新天国际大厦","lon":"121.538","lat":"31.2301","category":"46","category_name":"楼宇","address":"上海市长宁区遵义南路88号"},{"poiid":"B2094655D26FAAFA419C","title":"建平中学西校(陆家嘴国际华城西南)","lon":"121.53402","lat":"31.2342","category":"55","category_name":"中学","address":"源深路383"},{"poiid":"B2094654DA6AA2FE4799","title":"爵士大厦","lon":"121.535","lat":"31.2306","category":"46","category_name":"楼宇","address":"向城路29号"},{"poiid":"B2094655D26AA0FA439B","title":"地铁源深体育中心站","lon":"121.53439","lat":"31.23292","category":"36","category_name":"地铁站","address":""},{"poiid":"B2094654DB69A6F9419D","title":"陆家嘴巴洛克风情","lon":"121.53272","lat":"31.23542","category":"46","category_name":"楼宇","address":"铁西区铁西兴华街与南十中路交处(兴华南街48号)"},{"poiid":"B2094655D36DA7FC4298","title":"源深路","lon":"121.53243","lat":"31.23229","category":"38","category_name":"公交车站","address":""},{"poiid":"B2094655D36DA7FC429F","title":"源深路张杨路","lon":"121.53438","lat":"31.2314","category":"38","category_name":"公交车站","address":""},{"poiid":"B2094655D264A4F54499","title":"德加置地大厦","lon":"121.536","lat":"31.2322","category":"46","category_name":"楼宇","address":"世纪大道1118号"},{"poiid":"B2094654DB69AAF9499D","title":"宁波汉通酒店","lon":"121.53834","lat":"31.2347","category":"247","category_name":"餐饮美食","address":"上海市浦东新区张杨路1587号八方大厦2楼(近桃林路)"},{"poiid":"B2094757D06FAAFA489B","title":"星之健身(源深体育馆店)","lon":"121.53567","lat":"31.22904","category":"148","category_name":"美容美发店","address":"浦东新区张杨路1458号源深体育中心内(近源深路)"},{"poiid":"B2094654DB65A0FD479E","title":"蝎斗足球场","lon":"121.5353","lat":"31.23238","category":"230","category_name":"足球场","address":""},{"poiid":"B2094654DB64ABF9479B","title":"源深游泳馆","lon":"121.53855","lat":"31.23223","category":"231","category_name":"游泳馆","address":"桃林路892"},{"poiid":"B2094654DB64A5FD4098","title":"斯巴顿健身会所(源深店)","lon":"121.53562","lat":"31.23536","category":"221","category_name":"健身中心","address":"浦东新区张杨路1515弄19号陆家嘴国际华城(近源深路)"},{"poiid":"B2094654DB65A0FD439E","title":"源深体育发展中心(2号门)","lon":"121.53454","lat":"31.23173","category":"224","category_name":"综合体育馆","address":""},{"poiid":"B2094655D265A7F8439E","title":"普罗旺斯的树 L'Arbre de Provence","lon":"121.536603054","lat":"31.231831793","category":"94","category_name":"西餐厅","address":"张杨路1458号源深体育中心3楼近桃林路"},{"poiid":"B2094757D068A0F54393","title":"竹园小区","lon":"121.53177549","lat":"31.2311335378","category":"47","category_name":"住宅区","address":"潍坊路238弄,252弄"},{"poiid":"B2094757D068A1FF4193","title":"国际华城小区","lon":"121.53621114","lat":"31.23470831","category":"47","category_name":"住宅区","address":"上海张杨路1515号"},{"poiid":"B2094655D26DA4F5479B","title":"中国建设银行信用卡中心","lon":"121.5343","lat":"31.23356","category":"150","category_name":"银行","address":"源深路419号国际华城"},{"poiid":"B2094757D465ABFD419B","title":"甜心皇后咖啡 Sweet Queen","lon":"121.536355054","lat":"31.231988793","category":"247","category_name":"餐饮美食","address":"源深路655号源深加州酒店1楼近张杨路"},{"poiid":"B2094654DB6AA7F44993","title":"唐晋人家(源深路店)","lon":"121.53543","lat":"31.23151","category":"260","category_name":"其他","address":"浦东新区张杨路1458号源深体育中心内(近源深路)"},{"poiid":"B2094757D06FA0FF439E","title":"源深SMP滑板公园","lon":"121.5351809","lat":"31.2304439","category":"196","category_name":"公园","address":"浦东新区源深路655号源深体育中心4号门(近张扬路)"},{"poiid":"B2094757D065A6FA469C","title":"安波路","lon":"121.53512549","lat":"31.232853689","category":"500","category_name":"未知分类","address":"上海兰花教师公寓"},{"poiid":"B2094654DA68ABF84393","title":"八方大酒店","lon":"121.53851","lat":"31.23477","category":"215","category_name":"三星级宾馆","address":"张杨路1587号(近桃林路)"}]