[{"poiid":"B2094757D06FA7FD4293","title":"通北路海鲜","lon":"121.521346","lat":"31.25516","category":"68","category_name":"快餐厅","address":"杨浦区通北路176号(近平凉路)"},{"poiid":"B2094757D06FA3FA4993","title":"老四烧烤(通北路店)","lon":"121.52195","lat":"31.25455","category":"68","category_name":"快餐厅","address":"杨浦区通北路183号(平凉路口)"},{"poiid":"B2094655D26BA1FC479B","title":"平凉路通北路","lon":"121.52108","lat":"31.25504","category":"38","category_name":"公交车站","address":""},{"poiid":"B2094757D069ABF4409F","title":"通北路夜市","lon":"121.51936","lat":"31.2599","category":"249","category_name":"购物服务","address":"杨浦区通北路(霍山路通北路)"},{"poiid":"B2094654DB6BA3F5429E","title":"天主堂","lon":"121.52085","lat":"31.25795","category":"245","category_name":"教堂","address":"惠民路692号"},{"poiid":"B2094654D56EA5F94798","title":"好来西海鲜排档","lon":"121.52141","lat":"31.25548","category":"260","category_name":"其他","address":"杨浦区通北路217号(平凉路口)"},{"poiid":"B2094757D464A6FA409A","title":"重庆鸡公煲 通北路店","lon":"121.520616054","lat":"31.257234793","category":"71","category_name":"四川菜","address":"杨浦区平凉路412号振鼎鸡对面(近通北路)"},{"poiid":"B2094752D36BAAF5409B","title":"星巴克(昆明路店)","lon":"121.5177","lat":"31.25944","category":"247","category_name":"餐饮美食","address":"虹口区昆明路518号安莉芳大厦1楼(近西门子)"},{"poiid":"B2094757D068A1F9499A","title":"振鼎鸡(平凉路店)","lon":"121.52162","lat":"31.25474","category":"68","category_name":"快餐厅","address":"杨浦区平凉路412号(近通北路)"},{"poiid":"B2094654D56EA5FA429E","title":"上海市东幼儿园","lon":"121.52029","lat":"31.25746","category":"57","category_name":"幼儿园","address":"杨浦区通北路350号(惠民路通北路)"},{"poiid":"B2094655D26CA6FD4293","title":"景江公寓","lon":"121.51985","lat":"31.257236","category":"47","category_name":"住宅区","address":"上海市杨浦区通北路335弄"},{"poiid":"B2094757D66FA2F9469F","title":"西门子总部","lon":"121.516492803","lat":"31.2571552451","category":"500","category_name":"未知分类","address":"上海大连路500号"},{"poiid":"B2094757D168A5F94893","title":"梅林正广和(集团)股份有限公司","lon":"121.520581","lat":"31.258124","category":"247","category_name":"餐饮美食","address":"上海通北路400号"},{"poiid":"B2094757D06AA5FC439C","title":"舟山海鲜舫","lon":"121.52164","lat":"31.25528","category":"260","category_name":"其他","address":"杨浦区通北路163号(近平凉路)"},{"poiid":"B2094654D56EA6F44292","title":"上海梅林正广和都市型工业园区","lon":"121.52056","lat":"31.25873","category":"45","category_name":"产业园区","address":"通北路400"},{"poiid":"B2094654D56EA5F94693","title":"海北饭店 通北路店","lon":"121.52125537439","lat":"31.255798446073","category":"247","category_name":"餐饮美食","address":"杨浦区通北路231号(近平凉路)"},{"poiid":"B2094654D56EA6F44693","title":"辽阳菜市场(惠民路)","lon":"121.5203","lat":"31.25824","category":"117","category_name":"便民商店/便利店","address":"通北路370"},{"poiid":"B2094757D16DA6FA409C","title":"通北路第一小学","lon":"121.52043","lat":"31.25715","category":"56","category_name":"小学","address":"杨浦区通北路350号(惠民路通北路)"},{"poiid":"B2094757D069A4FC449A","title":"爱心献血点(通北路)","lon":"121.5188711","lat":"31.261204229","category":"162","category_name":"医院","address":"上海杨浦区通北路540号2楼(近霍山路)"},{"poiid":"B2094654D56EA5FA4893","title":"满灵阁大宝海鲜大排挡","lon":"121.52191","lat":"31.25484","category":"88","category_name":"海鲜酒楼","address":"通北路173-177号"},{"poiid":"B2094655D26CA4FA409B","title":"隆仁里","lon":"121.52243","lat":"31.25621","category":"47","category_name":"住宅区","address":"上海市榆林路464弄"},{"poiid":"B2094654D56EA5F9479F","title":"沪东状元楼","lon":"121.52121","lat":"31.25524","category":"257","category_name":"中餐厅","address":"平凉路403号近通北路"},{"poiid":"B2094655D26CA6FD439A","title":"惠民新苑(北门)","lon":"121.51928","lat":"31.25722","category":"47","category_name":"住宅区","address":"惠民路580弄"},{"poiid":"B2094654D56EA5FA429B","title":"惠民新苑","lon":"121.51949","lat":"31.256962","category":"47","category_name":"住宅区","address":"惠民路580弄"},{"poiid":"B2094757D065A2F84399","title":"通北路400号仟果企业","lon":"121.520408","lat":"31.258174","category":"500","category_name":"未知分类","address":"上海通北路400号8号楼3楼"},{"poiid":"B2094654D56EA6F4479B","title":"福泰公寓(惠民路)","lon":"121.52098","lat":"31.25831","category":"47","category_name":"住宅区","address":"惠民路687号"},{"poiid":"B2094757D06AA1FC4693","title":"德国大陆汽车亚太总部","lon":"121.51864624","lat":"31.256095886","category":"500","category_name":"未知分类","address":"上海大连路538号"},{"poiid":"B2094654D56EA5FA4292","title":"榆汾新苑","lon":"121.5219","lat":"31.257833","category":"47","category_name":"住宅区","address":"榆汾新苑位于杨浦平凉路540号(许昌路口)"},{"poiid":"B2094757D16BA5FF479C","title":"coco奶茶(平凉店)","lon":"121.519247003","lat":"31.2554528095","category":"113","category_name":"冷饮店","address":"上海通北路平凉路口"},{"poiid":"B2094655D26FA7FD4092","title":"怀安坊(北门)","lon":"121.51902","lat":"31.25709","category":"47","category_name":"住宅区","address":"惠民路560弄"},{"poiid":"B2094757D06FA3FA499A","title":"宋记粥铺","lon":"121.52108764","lat":"31.255048751","category":"68","category_name":"快餐厅","address":"杨浦区平凉路(通北路口)"},{"poiid":"B2094757D065A7FC409A","title":"开元海鲜酒家","lon":"121.5208","lat":"31.258","category":"260","category_name":"其他","address":"杨浦区通北路179号(近平凉路)"},{"poiid":"B2094654D56EA5F9459B","title":"上海杨浦教育人才交流服务中心","lon":"121.5204","lat":"31.25723","category":"252","category_name":"楼宇机构","address":"杨浦区通北路350号(近榆林路)"},{"poiid":"B2094757DA6EA4FD4492","title":"老昌兴苏州汤包馆(平凉路店)","lon":"121.523641000001","lat":"31.2569800000002","category":"68","category_name":"快餐厅","address":"杨浦区平凉路559号(近许昌路)"},{"poiid":"B2094654D56EA5FA4192","title":"怀安坊","lon":"121.51923","lat":"31.256685","category":"47","category_name":"住宅区","address":"惠民路560弄"},{"poiid":"B2094655D26CA6FF479C","title":"榆林路357弄小区","lon":"121.51978","lat":"31.25634","category":"47","category_name":"住宅区","address":"榆林路357弄"},{"poiid":"B2094654D56EA5FA439A","title":"良友金伴便利连锁No.626","lon":"121.52194","lat":"31.25752","category":"117","category_name":"便民商店/便利店","address":"汾州路210"},{"poiid":"B2094757D068A4F54099","title":"劲强桌球俱乐部(平凉路店)","lon":"121.52283","lat":"31.25558","category":"171","category_name":"台球厅","address":"杨浦区平凉路480号2楼(近通北路)"},{"poiid":"B2094655D26CA5FA479E","title":"隆仁小区(北门)","lon":"121.5211","lat":"31.25666","category":"47","category_name":"住宅区","address":"榆林路446弄"},{"poiid":"B2094757D169A5F84992","title":"875路惠民路杨树浦路站","lon":"121.520916","lat":"31.258276","category":"500","category_name":"未知分类","address":"上海惠民路"},{"poiid":"B2094750DA64A3F44498","title":"捞旺猪肚鸡","lon":"121.52094","lat":"31.25612","category":"86","category_name":"火锅店","address":"杨浦区通北路253号(近平凉路)"},{"poiid":"B2094654D56FA3F4429D","title":"西邨小区","lon":"121.522","lat":"31.2579","category":"47","category_name":"住宅区","address":"平凉路41弄1-90号"},{"poiid":"B2094654D56EA6F44392","title":"上海市营养食品质量监督检验站","lon":"121.52054","lat":"31.25924","category":"250","category_name":"公园户外","address":"济宁路28号"},{"poiid":"B2094655D265AAF9449E","title":"榆林路412弄小区(北门)","lon":"121.52054","lat":"31.25632","category":"47","category_name":"住宅区","address":"榆林路412弄"},{"poiid":"B2094757D065A7FB469F","title":"上海市杨浦区天主教爱国会 和平之后圣母堂","lon":"121.5181706","lat":"31.256806937","category":"245","category_name":"教堂","address":"上海杨浦区惠民路692号(近益丰大药房)  和平堂"},{"poiid":"B2094753D66AA7F94999","title":"海老寿司","lon":"121.516647","lat":"31.258975","category":"247","category_name":"餐饮美食","address":"上海市 上海市昆明路555号宝地广场"},{"poiid":"B2094654D56EA5FA499B","title":"宁波海鲜(通北路)","lon":"121.52201","lat":"31.25474","category":"88","category_name":"海鲜酒楼","address":"杨浦区通北路161-165号(近平凉路)"},{"poiid":"B2094655D26CA5FA479F","title":"隆仁小区","lon":"121.52124","lat":"31.25656","category":"47","category_name":"住宅区","address":"榆林路446弄"},{"poiid":"B2094655D26CA6F9439D","title":"榆林路357弄小区(南门)","lon":"121.51988","lat":"31.25614","category":"47","category_name":"住宅区","address":"榆林路357弄"},{"poiid":"B2094655D265A2FD469F","title":"榆林路412弄小区","lon":"121.52065","lat":"31.25618","category":"47","category_name":"住宅区","address":"榆林路412弄"},{"poiid":"B2094757D06FA7FD4293","title":"通北路海鲜","lon":"121.521346","lat":"31.25516","category":"68","category_name":"快餐厅","address":"杨浦区通北路176号(近平凉路)"},{"poiid":"B2094757D06FA3FA4993","title":"老四烧烤(通北路店)","lon":"121.52195","lat":"31.25455","category":"68","category_name":"快餐厅","address":"杨浦区通北路183号(平凉路口)"},{"poiid":"B2094655D26BA1FC479B","title":"平凉路通北路","lon":"121.52108","lat":"31.25504","category":"38","category_name":"公交车站","address":""},{"poiid":"B2094757D069ABF4409F","title":"通北路夜市","lon":"121.51936","lat":"31.2599","category":"249","category_name":"购物服务","address":"杨浦区通北路(霍山路通北路)"},{"poiid":"B2094654DB6BA3F5429E","title":"天主堂","lon":"121.52085","lat":"31.25795","category":"245","category_name":"教堂","address":"惠民路692号"},{"poiid":"B2094654D56EA5F94798","title":"好来西海鲜排档","lon":"121.52141","lat":"31.25548","category":"260","category_name":"其他","address":"杨浦区通北路217号(平凉路口)"},{"poiid":"B2094757D464A6FA409A","title":"重庆鸡公煲 通北路店","lon":"121.520616054","lat":"31.257234793","category":"71","category_name":"四川菜","address":"杨浦区平凉路412号振鼎鸡对面(近通北路)"},{"poiid":"B2094752D36BAAF5409B","title":"星巴克(昆明路店)","lon":"121.5177","lat":"31.25944","category":"247","category_name":"餐饮美食","address":"虹口区昆明路518号安莉芳大厦1楼(近西门子)"},{"poiid":"B2094757D068A1F9499A","title":"振鼎鸡(平凉路店)","lon":"121.52162","lat":"31.25474","category":"68","category_name":"快餐厅","address":"杨浦区平凉路412号(近通北路)"},{"poiid":"B2094654D56EA5FA429E","title":"上海市东幼儿园","lon":"121.52029","lat":"31.25746","category":"57","category_name":"幼儿园","address":"杨浦区通北路350号(惠民路通北路)"},{"poiid":"B2094655D26CA6FD4293","title":"景江公寓","lon":"121.51985","lat":"31.257236","category":"47","category_name":"住宅区","address":"上海市杨浦区通北路335弄"},{"poiid":"B2094757D66FA2F9469F","title":"西门子总部","lon":"121.516492803","lat":"31.2571552451","category":"500","category_name":"未知分类","address":"上海大连路500号"},{"poiid":"B2094757D168A5F94893","title":"梅林正广和(集团)股份有限公司","lon":"121.520581","lat":"31.258124","category":"247","category_name":"餐饮美食","address":"上海通北路400号"},{"poiid":"B2094757D06AA5FC439C","title":"舟山海鲜舫","lon":"121.52164","lat":"31.25528","category":"260","category_name":"其他","address":"杨浦区通北路163号(近平凉路)"},{"poiid":"B2094654D56EA6F44292","title":"上海梅林正广和都市型工业园区","lon":"121.52056","lat":"31.25873","category":"45","category_name":"产业园区","address":"通北路400"},{"poiid":"B2094654D56EA5F94693","title":"海北饭店 通北路店","lon":"121.52125537439","lat":"31.255798446073","category":"247","category_name":"餐饮美食","address":"杨浦区通北路231号(近平凉路)"},{"poiid":"B2094654D56EA6F44693","title":"辽阳菜市场(惠民路)","lon":"121.5203","lat":"31.25824","category":"117","category_name":"便民商店/便利店","address":"通北路370"},{"poiid":"B2094757D16DA6FA409C","title":"通北路第一小学","lon":"121.52043","lat":"31.25715","category":"56","category_name":"小学","address":"杨浦区通北路350号(惠民路通北路)"},{"poiid":"B2094757D069A4FC449A","title":"爱心献血点(通北路)","lon":"121.5188711","lat":"31.261204229","category":"162","category_name":"医院","address":"上海杨浦区通北路540号2楼(近霍山路)"},{"poiid":"B2094654D56EA5FA4893","title":"满灵阁大宝海鲜大排挡","lon":"121.52191","lat":"31.25484","category":"88","category_name":"海鲜酒楼","address":"通北路173-177号"},{"poiid":"B2094655D26CA4FA409B","title":"隆仁里","lon":"121.52243","lat":"31.25621","category":"47","category_name":"住宅区","address":"上海市榆林路464弄"},{"poiid":"B2094654D56EA5F9479F","title":"沪东状元楼","lon":"121.52121","lat":"31.25524","category":"257","category_name":"中餐厅","address":"平凉路403号近通北路"},{"poiid":"B2094655D26CA6FD439A","title":"惠民新苑(北门)","lon":"121.51928","lat":"31.25722","category":"47","category_name":"住宅区","address":"惠民路580弄"},{"poiid":"B2094654D56EA5FA429B","title":"惠民新苑","lon":"121.51949","lat":"31.256962","category":"47","category_name":"住宅区","address":"惠民路580弄"},{"poiid":"B2094757D065A2F84399","title":"通北路400号仟果企业","lon":"121.520408","lat":"31.258174","category":"500","category_name":"未知分类","address":"上海通北路400号8号楼3楼"},{"poiid":"B2094654D56EA6F4479B","title":"福泰公寓(惠民路)","lon":"121.52098","lat":"31.25831","category":"47","category_name":"住宅区","address":"惠民路687号"},{"poiid":"B2094757D06AA1FC4693","title":"德国大陆汽车亚太总部","lon":"121.51864624","lat":"31.256095886","category":"500","category_name":"未知分类","address":"上海大连路538号"},{"poiid":"B2094654D56EA5FA4292","title":"榆汾新苑","lon":"121.5219","lat":"31.257833","category":"47","category_name":"住宅区","address":"榆汾新苑位于杨浦平凉路540号(许昌路口)"},{"poiid":"B2094757D16BA5FF479C","title":"coco奶茶(平凉店)","lon":"121.519247003","lat":"31.2554528095","category":"113","category_name":"冷饮店","address":"上海通北路平凉路口"},{"poiid":"B2094655D26FA7FD4092","title":"怀安坊(北门)","lon":"121.51902","lat":"31.25709","category":"47","category_name":"住宅区","address":"惠民路560弄"},{"poiid":"B2094757D06FA3FA499A","title":"宋记粥铺","lon":"121.52108764","lat":"31.255048751","category":"68","category_name":"快餐厅","address":"杨浦区平凉路(通北路口)"},{"poiid":"B2094757D065A7FC409A","title":"开元海鲜酒家","lon":"121.5208","lat":"31.258","category":"260","category_name":"其他","address":"杨浦区通北路179号(近平凉路)"},{"poiid":"B2094654D56EA5F9459B","title":"上海杨浦教育人才交流服务中心","lon":"121.5204","lat":"31.25723","category":"252","category_name":"楼宇机构","address":"杨浦区通北路350号(近榆林路)"},{"poiid":"B2094757DA6EA4FD4492","title":"老昌兴苏州汤包馆(平凉路店)","lon":"121.523641000001","lat":"31.2569800000002","category":"68","category_name":"快餐厅","address":"杨浦区平凉路559号(近许昌路)"},{"poiid":"B2094654D56EA5FA4192","title":"怀安坊","lon":"121.51923","lat":"31.256685","category":"47","category_name":"住宅区","address":"惠民路560弄"},{"poiid":"B2094655D26CA6FF479C","title":"榆林路357弄小区","lon":"121.51978","lat":"31.25634","category":"47","category_name":"住宅区","address":"榆林路357弄"},{"poiid":"B2094654D56EA5FA439A","title":"良友金伴便利连锁No.626","lon":"121.52194","lat":"31.25752","category":"117","category_name":"便民商店/便利店","address":"汾州路210"},{"poiid":"B2094757D068A4F54099","title":"劲强桌球俱乐部(平凉路店)","lon":"121.52283","lat":"31.25558","category":"171","category_name":"台球厅","address":"杨浦区平凉路480号2楼(近通北路)"},{"poiid":"B2094655D26CA5FA479E","title":"隆仁小区(北门)","lon":"121.5211","lat":"31.25666","category":"47","category_name":"住宅区","address":"榆林路446弄"},{"poiid":"B2094757D169A5F84992","title":"875路惠民路杨树浦路站","lon":"121.520916","lat":"31.258276","category":"500","category_name":"未知分类","address":"上海惠民路"},{"poiid":"B2094750DA64A3F44498","title":"捞旺猪肚鸡","lon":"121.52094","lat":"31.25612","category":"86","category_name":"火锅店","address":"杨浦区通北路253号(近平凉路)"},{"poiid":"B2094654D56FA3F4429D","title":"西邨小区","lon":"121.522","lat":"31.2579","category":"47","category_name":"住宅区","address":"平凉路41弄1-90号"},{"poiid":"B2094654D56EA6F44392","title":"上海市营养食品质量监督检验站","lon":"121.52054","lat":"31.25924","category":"250","category_name":"公园户外","address":"济宁路28号"},{"poiid":"B2094655D265AAF9449E","title":"榆林路412弄小区(北门)","lon":"121.52054","lat":"31.25632","category":"47","category_name":"住宅区","address":"榆林路412弄"},{"poiid":"B2094757D065A7FB469F","title":"上海市杨浦区天主教爱国会 和平之后圣母堂","lon":"121.5181706","lat":"31.256806937","category":"245","category_name":"教堂","address":"上海杨浦区惠民路692号(近益丰大药房)  和平堂"},{"poiid":"B2094753D66AA7F94999","title":"海老寿司","lon":"121.516647","lat":"31.258975","category":"247","category_name":"餐饮美食","address":"上海市 上海市昆明路555号宝地广场"},{"poiid":"B2094654D56EA5FA499B","title":"宁波海鲜(通北路)","lon":"121.52201","lat":"31.25474","category":"88","category_name":"海鲜酒楼","address":"杨浦区通北路161-165号(近平凉路)"},{"poiid":"B2094655D26CA5FA479F","title":"隆仁小区","lon":"121.52124","lat":"31.25656","category":"47","category_name":"住宅区","address":"榆林路446弄"},{"poiid":"B2094655D26CA6F9439D","title":"榆林路357弄小区(南门)","lon":"121.51988","lat":"31.25614","category":"47","category_name":"住宅区","address":"榆林路357弄"},{"poiid":"B2094655D265A2FD469F","title":"榆林路412弄小区","lon":"121.52065","lat":"31.25618","category":"47","category_name":"住宅区","address":"榆林路412弄"},{"poiid":"B2094757D06FA7FD4293","title":"通北路海鲜","lon":"121.521346","lat":"31.25516","category":"68","category_name":"快餐厅","address":"杨浦区通北路176号(近平凉路)"},{"poiid":"B2094757D06FA3FA4993","title":"老四烧烤(通北路店)","lon":"121.52195","lat":"31.25455","category":"68","category_name":"快餐厅","address":"杨浦区通北路183号(平凉路口)"},{"poiid":"B2094655D26BA1FC479B","title":"平凉路通北路","lon":"121.52108","lat":"31.25504","category":"38","category_name":"公交车站","address":""},{"poiid":"B2094757D069ABF4409F","title":"通北路夜市","lon":"121.51936","lat":"31.2599","category":"249","category_name":"购物服务","address":"杨浦区通北路(霍山路通北路)"},{"poiid":"B2094654DB6BA3F5429E","title":"天主堂","lon":"121.52085","lat":"31.25795","category":"245","category_name":"教堂","address":"惠民路692号"},{"poiid":"B2094654D56EA5F94798","title":"好来西海鲜排档","lon":"121.52141","lat":"31.25548","category":"260","category_name":"其他","address":"杨浦区通北路217号(平凉路口)"},{"poiid":"B2094757D464A6FA409A","title":"重庆鸡公煲 通北路店","lon":"121.520616054","lat":"31.257234793","category":"71","category_name":"四川菜","address":"杨浦区平凉路412号振鼎鸡对面(近通北路)"},{"poiid":"B2094752D36BAAF5409B","title":"星巴克(昆明路店)","lon":"121.5177","lat":"31.25944","category":"247","category_name":"餐饮美食","address":"虹口区昆明路518号安莉芳大厦1楼(近西门子)"},{"poiid":"B2094757D068A1F9499A","title":"振鼎鸡(平凉路店)","lon":"121.52162","lat":"31.25474","category":"68","category_name":"快餐厅","address":"杨浦区平凉路412号(近通北路)"},{"poiid":"B2094654D56EA5FA429E","title":"上海市东幼儿园","lon":"121.52029","lat":"31.25746","category":"57","category_name":"幼儿园","address":"杨浦区通北路350号(惠民路通北路)"},{"poiid":"B2094655D26CA6FD4293","title":"景江公寓","lon":"121.51985","lat":"31.257236","category":"47","category_name":"住宅区","address":"上海市杨浦区通北路335弄"},{"poiid":"B2094757D66FA2F9469F","title":"西门子总部","lon":"121.516492803","lat":"31.2571552451","category":"500","category_name":"未知分类","address":"上海大连路500号"},{"poiid":"B2094757D168A5F94893","title":"梅林正广和(集团)股份有限公司","lon":"121.520581","lat":"31.258124","category":"247","category_name":"餐饮美食","address":"上海通北路400号"},{"poiid":"B2094757D06AA5FC439C","title":"舟山海鲜舫","lon":"121.52164","lat":"31.25528","category":"260","category_name":"其他","address":"杨浦区通北路163号(近平凉路)"},{"poiid":"B2094654D56EA6F44292","title":"上海梅林正广和都市型工业园区","lon":"121.52056","lat":"31.25873","category":"45","category_name":"产业园区","address":"通北路400"},{"poiid":"B2094654D56EA5F94693","title":"海北饭店 通北路店","lon":"121.52125537439","lat":"31.255798446073","category":"247","category_name":"餐饮美食","address":"杨浦区通北路231号(近平凉路)"},{"poiid":"B2094654D56EA6F44693","title":"辽阳菜市场(惠民路)","lon":"121.5203","lat":"31.25824","category":"117","category_name":"便民商店/便利店","address":"通北路370"},{"poiid":"B2094757D16DA6FA409C","title":"通北路第一小学","lon":"121.52043","lat":"31.25715","category":"56","category_name":"小学","address":"杨浦区通北路350号(惠民路通北路)"},{"poiid":"B2094757D069A4FC449A","title":"爱心献血点(通北路)","lon":"121.5188711","lat":"31.261204229","category":"162","category_name":"医院","address":"上海杨浦区通北路540号2楼(近霍山路)"},{"poiid":"B2094654D56EA5FA4893","title":"满灵阁大宝海鲜大排挡","lon":"121.52191","lat":"31.25484","category":"88","category_name":"海鲜酒楼","address":"通北路173-177号"},{"poiid":"B2094655D26CA4FA409B","title":"隆仁里","lon":"121.52243","lat":"31.25621","category":"47","category_name":"住宅区","address":"上海市榆林路464弄"},{"poiid":"B2094654D56EA5F9479F","title":"沪东状元楼","lon":"121.52121","lat":"31.25524","category":"257","category_name":"中餐厅","address":"平凉路403号近通北路"},{"poiid":"B2094655D26CA6FD439A","title":"惠民新苑(北门)","lon":"121.51928","lat":"31.25722","category":"47","category_name":"住宅区","address":"惠民路580弄"},{"poiid":"B2094654D56EA5FA429B","title":"惠民新苑","lon":"121.51949","lat":"31.256962","category":"47","category_name":"住宅区","address":"惠民路580弄"},{"poiid":"B2094757D065A2F84399","title":"通北路400号仟果企业","lon":"121.520408","lat":"31.258174","category":"500","category_name":"未知分类","address":"上海通北路400号8号楼3楼"},{"poiid":"B2094654D56EA6F4479B","title":"福泰公寓(惠民路)","lon":"121.52098","lat":"31.25831","category":"47","category_name":"住宅区","address":"惠民路687号"},{"poiid":"B2094757D06AA1FC4693","title":"德国大陆汽车亚太总部","lon":"121.51864624","lat":"31.256095886","category":"500","category_name":"未知分类","address":"上海大连路538号"},{"poiid":"B2094654D56EA5FA4292","title":"榆汾新苑","lon":"121.5219","lat":"31.257833","category":"47","category_name":"住宅区","address":"榆汾新苑位于杨浦平凉路540号(许昌路口)"},{"poiid":"B2094757D16BA5FF479C","title":"coco奶茶(平凉店)","lon":"121.519247003","lat":"31.2554528095","category":"113","category_name":"冷饮店","address":"上海通北路平凉路口"},{"poiid":"B2094655D26FA7FD4092","title":"怀安坊(北门)","lon":"121.51902","lat":"31.25709","category":"47","category_name":"住宅区","address":"惠民路560弄"},{"poiid":"B2094757D06FA3FA499A","title":"宋记粥铺","lon":"121.52108764","lat":"31.255048751","category":"68","category_name":"快餐厅","address":"杨浦区平凉路(通北路口)"},{"poiid":"B2094757D065A7FC409A","title":"开元海鲜酒家","lon":"121.5208","lat":"31.258","category":"260","category_name":"其他","address":"杨浦区通北路179号(近平凉路)"},{"poiid":"B2094654D56EA5F9459B","title":"上海杨浦教育人才交流服务中心","lon":"121.5204","lat":"31.25723","category":"252","category_name":"楼宇机构","address":"杨浦区通北路350号(近榆林路)"},{"poiid":"B2094757DA6EA4FD4492","title":"老昌兴苏州汤包馆(平凉路店)","lon":"121.523641000001","lat":"31.2569800000002","category":"68","category_name":"快餐厅","address":"杨浦区平凉路559号(近许昌路)"},{"poiid":"B2094654D56EA5FA4192","title":"怀安坊","lon":"121.51923","lat":"31.256685","category":"47","category_name":"住宅区","address":"惠民路560弄"},{"poiid":"B2094655D26CA6FF479C","title":"榆林路357弄小区","lon":"121.51978","lat":"31.25634","category":"47","category_name":"住宅区","address":"榆林路357弄"},{"poiid":"B2094654D56EA5FA439A","title":"良友金伴便利连锁No.626","lon":"121.52194","lat":"31.25752","category":"117","category_name":"便民商店/便利店","address":"汾州路210"},{"poiid":"B2094757D068A4F54099","title":"劲强桌球俱乐部(平凉路店)","lon":"121.52283","lat":"31.25558","category":"171","category_name":"台球厅","address":"杨浦区平凉路480号2楼(近通北路)"},{"poiid":"B2094655D26CA5FA479E","title":"隆仁小区(北门)","lon":"121.5211","lat":"31.25666","category":"47","category_name":"住宅区","address":"榆林路446弄"},{"poiid":"B2094757D169A5F84992","title":"875路惠民路杨树浦路站","lon":"121.520916","lat":"31.258276","category":"500","category_name":"未知分类","address":"上海惠民路"},{"poiid":"B2094750DA64A3F44498","title":"捞旺猪肚鸡","lon":"121.52094","lat":"31.25612","category":"86","category_name":"火锅店","address":"杨浦区通北路253号(近平凉路)"},{"poiid":"B2094654D56FA3F4429D","title":"西邨小区","lon":"121.522","lat":"31.2579","category":"47","category_name":"住宅区","address":"平凉路41弄1-90号"},{"poiid":"B2094654D56EA6F44392","title":"上海市营养食品质量监督检验站","lon":"121.52054","lat":"31.25924","category":"250","category_name":"公园户外","address":"济宁路28号"},{"poiid":"B2094655D265AAF9449E","title":"榆林路412弄小区(北门)","lon":"121.52054","lat":"31.25632","category":"47","category_name":"住宅区","address":"榆林路412弄"},{"poiid":"B2094757D065A7FB469F","title":"上海市杨浦区天主教爱国会 和平之后圣母堂","lon":"121.5181706","lat":"31.256806937","category":"245","category_name":"教堂","address":"上海杨浦区惠民路692号(近益丰大药房)  和平堂"},{"poiid":"B2094753D66AA7F94999","title":"海老寿司","lon":"121.516647","lat":"31.258975","category":"247","category_name":"餐饮美食","address":"上海市 上海市昆明路555号宝地广场"},{"poiid":"B2094654D56EA5FA499B","title":"宁波海鲜(通北路)","lon":"121.52201","lat":"31.25474","category":"88","category_name":"海鲜酒楼","address":"杨浦区通北路161-165号(近平凉路)"},{"poiid":"B2094655D26CA5FA479F","title":"隆仁小区","lon":"121.52124","lat":"31.25656","category":"47","category_name":"住宅区","address":"榆林路446弄"},{"poiid":"B2094655D26CA6F9439D","title":"榆林路357弄小区(南门)","lon":"121.51988","lat":"31.25614","category":"47","category_name":"住宅区","address":"榆林路357弄"},{"poiid":"B2094655D265A2FD469F","title":"榆林路412弄小区","lon":"121.52065","lat":"31.25618","category":"47","category_name":"住宅区","address":"榆林路412弄"},{"poiid":"B2094757D06FA7FD4293","title":"通北路海鲜","lon":"121.521346","lat":"31.25516","category":"68","category_name":"快餐厅","address":"杨浦区通北路176号(近平凉路)"},{"poiid":"B2094757D06FA3FA4993","title":"老四烧烤(通北路店)","lon":"121.52195","lat":"31.25455","category":"68","category_name":"快餐厅","address":"杨浦区通北路183号(平凉路口)"},{"poiid":"B2094655D26BA1FC479B","title":"平凉路通北路","lon":"121.52108","lat":"31.25504","category":"38","category_name":"公交车站","address":""},{"poiid":"B2094757D069ABF4409F","title":"通北路夜市","lon":"121.51936","lat":"31.2599","category":"249","category_name":"购物服务","address":"杨浦区通北路(霍山路通北路)"},{"poiid":"B2094654DB6BA3F5429E","title":"天主堂","lon":"121.52085","lat":"31.25795","category":"245","category_name":"教堂","address":"惠民路692号"},{"poiid":"B2094654D56EA5F94798","title":"好来西海鲜排档","lon":"121.52141","lat":"31.25548","category":"260","category_name":"其他","address":"杨浦区通北路217号(平凉路口)"},{"poiid":"B2094757D464A6FA409A","title":"重庆鸡公煲 通北路店","lon":"121.520616054","lat":"31.257234793","category":"71","category_name":"四川菜","address":"杨浦区平凉路412号振鼎鸡对面(近通北路)"},{"poiid":"B2094752D36BAAF5409B","title":"星巴克(昆明路店)","lon":"121.5177","lat":"31.25944","category":"247","category_name":"餐饮美食","address":"虹口区昆明路518号安莉芳大厦1楼(近西门子)"},{"poiid":"B2094757D068A1F9499A","title":"振鼎鸡(平凉路店)","lon":"121.52162","lat":"31.25474","category":"68","category_name":"快餐厅","address":"杨浦区平凉路412号(近通北路)"},{"poiid":"B2094654D56EA5FA429E","title":"上海市东幼儿园","lon":"121.52029","lat":"31.25746","category":"57","category_name":"幼儿园","address":"杨浦区通北路350号(惠民路通北路)"},{"poiid":"B2094655D26CA6FD4293","title":"景江公寓","lon":"121.51985","lat":"31.257236","category":"47","category_name":"住宅区","address":"上海市杨浦区通北路335弄"},{"poiid":"B2094757D66FA2F9469F","title":"西门子总部","lon":"121.516492803","lat":"31.2571552451","category":"500","category_name":"未知分类","address":"上海大连路500号"},{"poiid":"B2094757D168A5F94893","title":"梅林正广和(集团)股份有限公司","lon":"121.520581","lat":"31.258124","category":"247","category_name":"餐饮美食","address":"上海通北路400号"},{"poiid":"B2094757D06AA5FC439C","title":"舟山海鲜舫","lon":"121.52164","lat":"31.25528","category":"260","category_name":"其他","address":"杨浦区通北路163号(近平凉路)"},{"poiid":"B2094654D56EA6F44292","title":"上海梅林正广和都市型工业园区","lon":"121.52056","lat":"31.25873","category":"45","category_name":"产业园区","address":"通北路400"},{"poiid":"B2094654D56EA5F94693","title":"海北饭店 通北路店","lon":"121.52125537439","lat":"31.255798446073","category":"247","category_name":"餐饮美食","address":"杨浦区通北路231号(近平凉路)"},{"poiid":"B2094654D56EA6F44693","title":"辽阳菜市场(惠民路)","lon":"121.5203","lat":"31.25824","category":"117","category_name":"便民商店/便利店","address":"通北路370"},{"poiid":"B2094757D16DA6FA409C","title":"通北路第一小学","lon":"121.52043","lat":"31.25715","category":"56","category_name":"小学","address":"杨浦区通北路350号(惠民路通北路)"},{"poiid":"B2094757D069A4FC449A","title":"爱心献血点(通北路)","lon":"121.5188711","lat":"31.261204229","category":"162","category_name":"医院","address":"上海杨浦区通北路540号2楼(近霍山路)"},{"poiid":"B2094654D56EA5FA4893","title":"满灵阁大宝海鲜大排挡","lon":"121.52191","lat":"31.25484","category":"88","category_name":"海鲜酒楼","address":"通北路173-177号"},{"poiid":"B2094655D26CA4FA409B","title":"隆仁里","lon":"121.52243","lat":"31.25621","category":"47","category_name":"住宅区","address":"上海市榆林路464弄"},{"poiid":"B2094654D56EA5F9479F","title":"沪东状元楼","lon":"121.52121","lat":"31.25524","category":"257","category_name":"中餐厅","address":"平凉路403号近通北路"},{"poiid":"B2094655D26CA6FD439A","title":"惠民新苑(北门)","lon":"121.51928","lat":"31.25722","category":"47","category_name":"住宅区","address":"惠民路580弄"},{"poiid":"B2094654D56EA5FA429B","title":"惠民新苑","lon":"121.51949","lat":"31.256962","category":"47","category_name":"住宅区","address":"惠民路580弄"},{"poiid":"B2094757D065A2F84399","title":"通北路400号仟果企业","lon":"121.520408","lat":"31.258174","category":"500","category_name":"未知分类","address":"上海通北路400号8号楼3楼"},{"poiid":"B2094654D56EA6F4479B","title":"福泰公寓(惠民路)","lon":"121.52098","lat":"31.25831","category":"47","category_name":"住宅区","address":"惠民路687号"},{"poiid":"B2094757D06AA1FC4693","title":"德国大陆汽车亚太总部","lon":"121.51864624","lat":"31.256095886","category":"500","category_name":"未知分类","address":"上海大连路538号"},{"poiid":"B2094654D56EA5FA4292","title":"榆汾新苑","lon":"121.5219","lat":"31.257833","category":"47","category_name":"住宅区","address":"榆汾新苑位于杨浦平凉路540号(许昌路口)"},{"poiid":"B2094757D16BA5FF479C","title":"coco奶茶(平凉店)","lon":"121.519247003","lat":"31.2554528095","category":"113","category_name":"冷饮店","address":"上海通北路平凉路口"},{"poiid":"B2094655D26FA7FD4092","title":"怀安坊(北门)","lon":"121.51902","lat":"31.25709","category":"47","category_name":"住宅区","address":"惠民路560弄"},{"poiid":"B2094757D06FA3FA499A","title":"宋记粥铺","lon":"121.52108764","lat":"31.255048751","category":"68","category_name":"快餐厅","address":"杨浦区平凉路(通北路口)"},{"poiid":"B2094757D065A7FC409A","title":"开元海鲜酒家","lon":"121.5208","lat":"31.258","category":"260","category_name":"其他","address":"杨浦区通北路179号(近平凉路)"},{"poiid":"B2094654D56EA5F9459B","title":"上海杨浦教育人才交流服务中心","lon":"121.5204","lat":"31.25723","category":"252","category_name":"楼宇机构","address":"杨浦区通北路350号(近榆林路)"},{"poiid":"B2094757DA6EA4FD4492","title":"老昌兴苏州汤包馆(平凉路店)","lon":"121.523641000001","lat":"31.2569800000002","category":"68","category_name":"快餐厅","address":"杨浦区平凉路559号(近许昌路)"},{"poiid":"B2094654D56EA5FA4192","title":"怀安坊","lon":"121.51923","lat":"31.256685","category":"47","category_name":"住宅区","address":"惠民路560弄"},{"poiid":"B2094655D26CA6FF479C","title":"榆林路357弄小区","lon":"121.51978","lat":"31.25634","category":"47","category_name":"住宅区","address":"榆林路357弄"},{"poiid":"B2094654D56EA5FA439A","title":"良友金伴便利连锁No.626","lon":"121.52194","lat":"31.25752","category":"117","category_name":"便民商店/便利店","address":"汾州路210"},{"poiid":"B2094757D068A4F54099","title":"劲强桌球俱乐部(平凉路店)","lon":"121.52283","lat":"31.25558","category":"171","category_name":"台球厅","address":"杨浦区平凉路480号2楼(近通北路)"},{"poiid":"B2094655D26CA5FA479E","title":"隆仁小区(北门)","lon":"121.5211","lat":"31.25666","category":"47","category_name":"住宅区","address":"榆林路446弄"},{"poiid":"B2094757D169A5F84992","title":"875路惠民路杨树浦路站","lon":"121.520916","lat":"31.258276","category":"500","category_name":"未知分类","address":"上海惠民路"},{"poiid":"B2094750DA64A3F44498","title":"捞旺猪肚鸡","lon":"121.52094","lat":"31.25612","category":"86","category_name":"火锅店","address":"杨浦区通北路253号(近平凉路)"},{"poiid":"B2094654D56FA3F4429D","title":"西邨小区","lon":"121.522","lat":"31.2579","category":"47","category_name":"住宅区","address":"平凉路41弄1-90号"},{"poiid":"B2094654D56EA6F44392","title":"上海市营养食品质量监督检验站","lon":"121.52054","lat":"31.25924","category":"250","category_name":"公园户外","address":"济宁路28号"},{"poiid":"B2094655D265AAF9449E","title":"榆林路412弄小区(北门)","lon":"121.52054","lat":"31.25632","category":"47","category_name":"住宅区","address":"榆林路412弄"},{"poiid":"B2094757D065A7FB469F","title":"上海市杨浦区天主教爱国会 和平之后圣母堂","lon":"121.5181706","lat":"31.256806937","category":"245","category_name":"教堂","address":"上海杨浦区惠民路692号(近益丰大药房)  和平堂"},{"poiid":"B2094753D66AA7F94999","title":"海老寿司","lon":"121.516647","lat":"31.258975","category":"247","category_name":"餐饮美食","address":"上海市 上海市昆明路555号宝地广场"},{"poiid":"B2094654D56EA5FA499B","title":"宁波海鲜(通北路)","lon":"121.52201","lat":"31.25474","category":"88","category_name":"海鲜酒楼","address":"杨浦区通北路161-165号(近平凉路)"},{"poiid":"B2094655D26CA5FA479F","title":"隆仁小区","lon":"121.52124","lat":"31.25656","category":"47","category_name":"住宅区","address":"榆林路446弄"},{"poiid":"B2094655D26CA6F9439D","title":"榆林路357弄小区(南门)","lon":"121.51988","lat":"31.25614","category":"47","category_name":"住宅区","address":"榆林路357弄"},{"poiid":"B2094655D265A2FD469F","title":"榆林路412弄小区","lon":"121.52065","lat":"31.25618","category":"47","category_name":"住宅区","address":"榆林路412弄"}]