[{"poiid":"B2094655D26DA7FE4793","title":"南京路步行街(东门)","lon":"121.48473","lat":"31.23754","category":"116","category_name":"特色商业街","address":""},{"poiid":"B2094757D06EAAF84992","title":"Apple Store 苹果官方零售店(南京东路店)","lon":"121.484334712","lat":"31.2375712753","category":"138","category_name":"家电电子卖场","address":"上海市黄浦区南京东路300号名人购物中心B1-F2(河南中路口)"},{"poiid":"B2094757DA69A3F44592","title":"甲泰餐厅","lon":"121.48598641005","lat":"31.239524260517","category":"99","category_name":"泰国／越南菜品餐厅","address":"黄浦区宁波路51号(近江西中路)"},{"poiid":"B209475CD564A7F84292","title":"上海滩新天地店","lon":"121.47463","lat":"31.22164","category":"119","category_name":"商场","address":"\"太仓路181弄新天地北里15号\r\n\""},{"poiid":"B209475CD564A7F8439E","title":"上海滩中信泰富店","lon":"121.45602","lat":"31.22851","category":"119","category_name":"商场","address":"\"南京西路1168号中信泰富广场，店铺号221.\r\n\""},{"poiid":"B209475CD564A7F84392","title":"上海滩浦东香格里拉店","lon":"121.50058","lat":"31.23634","category":"119","category_name":"商场","address":"浦东富成路33号香格里拉酒店内大堂层"},{"poiid":"B2094757D06EAAF8499E","title":"南京东路地铁站","lon":"121.484855","lat":"31.237632","category":"36","category_name":"地铁站","address":"上海轨道交通 二号线 十号线 轨交南京东路站 2 10"},{"poiid":"B2094757D06FA6FC459B","title":"鲜芋仙(宏伊广场店)","lon":"121.484139738","lat":"31.2373384516","category":"67","category_name":"甜品店","address":"黄浦区南京东路288号宏伊国际广场B1楼(近南京东路步行街)"},{"poiid":"B2094757D068A3FE4992","title":"星巴克(名人大厦店)","lon":"121.4848452","lat":"31.2375642","category":"260","category_name":"其他","address":"黄浦区南京东路300号名人购物中心1楼L114号铺(近河南路)"},{"poiid":"B2094757D06FA2F4489B","title":"名人商业大厦","lon":"121.48353704","lat":"31.23810352","category":"46","category_name":"楼宇","address":"上海市天津路155号"},{"poiid":"B2094757D76AA7FD469D","title":"赤坂亭 南京东路店 A KA SA KA TEI","lon":"121.48449","lat":"31.23748","category":"268","category_name":"自助","address":"黄浦区南京东路300号名人购物中心3楼L312-313室(近河南中路)"},{"poiid":"B2094757D16DAAFD439D","title":"融合马来西亚","lon":"121.48441473","lat":"31.237640458","category":"500","category_name":"未知分类","address":"上海名人购物中心"},{"poiid":"B2094757D16CABFB449B","title":"俏江南(名人广场店)","lon":"121.484086738","lat":"31.2375784567","category":"71","category_name":"四川菜","address":"黄浦区南京东路300号名人购物中心6楼"},{"poiid":"B2094757D06FAAF9469A","title":"汉拿山","lon":"121.484004738","lat":"31.2379848654","category":"500","category_name":"未知分类","address":"上海名人广场5F"},{"poiid":"B2094757D06FA0FC479A","title":"尚一汤(名人店)","lon":"121.484609045","lat":"31.2375079839","category":"72","category_name":"广东菜","address":"黄浦区南京东路300号名人购物中心4楼420单元(河南中路口)"},{"poiid":"B2094757D06FA2F44099","title":"绿雅酒家","lon":"121.48623","lat":"31.23976","category":"76","category_name":"上海菜","address":"上海黄浦区江西中路372号(近宁波路)  "},{"poiid":"B2094757D465A4F5459D","title":"老上海弄堂菜馆 名人店","lon":"121.48452579975","lat":"31.237623382578","category":"76","category_name":"上海菜","address":"黄浦区南京东路300号名人商业大厦6楼(近河南中路)"},{"poiid":"B2094750D26EAAFD4998","title":"融合马来西亚餐厅 名人店 Food Fusion","lon":"121.48440778255","lat":"31.237504128155","category":"110","category_name":"其他亚洲菜","address":"黄浦区南京东路300号名人购物中心L413-415室(近南京东路地铁站2号口)"},{"poiid":"B2094757DB6CA6FD419A","title":"Cuvve","lon":"121.485513","lat":"31.240501","category":"248","category_name":"生活娱乐","address":"外灘十八號"},{"poiid":"B2094757D068A2FE4799","title":"小杨生煎(河南中路店)","lon":"121.4841","lat":"31.239","category":"68","category_name":"快餐厅","address":"黄浦区宁波路178号(近河南中路)"},{"poiid":"B2094757D068A0FB449B","title":"大家乐(南京东路店)","lon":"121.484654738","lat":"31.2374831547","category":"500","category_name":"未知分类","address":"上海市黄浦区南京东路300号名人商业大厦L317-18单元"},{"poiid":"B2094753D469A5FC469E","title":"年代秀饭堂","lon":"121.483963","lat":"31.23822","category":"247","category_name":"餐饮美食","address":"上海市 天津路118号（近河南中路）"},{"poiid":"B2094757D06FA6F44893","title":"东瀛国际造型(宏伊店)","lon":"121.484558105","lat":"31.237039566","category":"148","category_name":"美容美发店","address":"黄浦区南京东路299号宏伊广场5楼(河南中路口)"},{"poiid":"B2094757D06EAAFC4293","title":"太平洋咖啡Pacific Coffee(名人商业大厦店)","lon":"121.484204","lat":"31.237958","category":"260","category_name":"其他","address":"黄浦区南京东路300号名人购物中心L2楼211-212室(河南中路口)"},{"poiid":"B2094757D469A5F84698","title":"亚洲蕉叶 南京东路店","lon":"121.4848452","lat":"31.2375642","category":"110","category_name":"其他亚洲菜","address":"黄浦区南京东路300号名人购物中心5楼"},{"poiid":"B2094757D469A7FA449C","title":"龙记茶餐厅 南京东路店","lon":"121.48559","lat":"31.23748","category":"257","category_name":"中餐厅","address":"黄浦区南京东路233号南京大楼5楼(近河南中路)"},{"poiid":"B2094757D06FA5F9459A","title":"禾绿回转寿司(宏伊店)","lon":"121.48424","lat":"31.23717","category":"95","category_name":"日本料理","address":"黄浦区南京中路299号宏伊国际广场B1楼108单元(南京东路山东中路)"},{"poiid":"B2094750D76EABFE469D","title":"许留山(名人商业广场店)","lon":"121.484","lat":"31.2373","category":"67","category_name":"甜品店","address":"黄浦区南京东路300号名人商业广场B1楼108商铺(近河南中路)"},{"poiid":"B2094757D16CA6F4479E","title":"颂阁岚","lon":"121.48420273","lat":"31.237309451","category":"249","category_name":"购物服务","address":"上海市353广场"},{"poiid":"B2094757D16DA0FD429F","title":"苹果旗舰店南京东路","lon":"121.485093338","lat":"31.2374578541","category":"500","category_name":"未知分类","address":"上海南京东路300号"},{"poiid":"B2094752DA65A2F8419B","title":"上海外滩","lon":"121.484815","lat":"31.237563","category":"500","category_name":"未知分类","address":"上海市 外滩18号"},{"poiid":"B2094751D36EA3F9459A","title":"云上云源生态云南菜","lon":"121.48562","lat":"31.23753","category":"76","category_name":"上海菜","address":"黄浦区南京东路233号南京大厦5楼(近河南路)"},{"poiid":"B2094654DB69A4FE439E","title":"莫泰168连锁旅店(外滩店)","lon":"121.48634","lat":"31.23979","category":"216","category_name":"经济型连锁酒店","address":"上海黄浦区宁波路50号（近江西中路口）"},{"poiid":"B2094757D06EAAFE409B","title":"ANNA BANANA 爱酸奶","lon":"121.48458173","lat":"31.237558456","category":"67","category_name":"甜品店","address":"上海黄浦区河南中路88号威斯汀大饭店101室(广东路口)"},{"poiid":"B2094757D06FA3FE4698","title":"蜀府(宏伊广场店)","lon":"121.484555","lat":"31.237039","category":"71","category_name":"四川菜","address":"黄浦区南京东路299号宏伊广场7楼(近河南中路)"},{"poiid":"B2094757D06AA2F54799","title":"呀咪咖哩屋","lon":"121.484063738","lat":"31.2375854569","category":"247","category_name":"餐饮美食","address":"上海市黄浦区南京东路300号名人商厦B1层"},{"poiid":"B2094752DB69A7F5479C","title":"上海恒基名人购物中心","lon":"121.48429153798679","lat":"31.237247655790956","category":"119","category_name":"商场","address":"黄浦区南京东路300号（近河南中路）"},{"poiid":"B2094757DB6CA4FF419D","title":"汉拿山","lon":"121.48404","lat":"31.23815","category":"96","category_name":"韩国料理","address":"黄浦区南京东路300号名人大厦5楼511-513号(近河南中路)"},{"poiid":"B2094757D068A7F44893","title":"小梁园精菜坊","lon":"121.48434","lat":"31.23824","category":"75","category_name":"浙江菜","address":"黄浦区天津路118号(近河南中路)"},{"poiid":"B2094757D065A4FD4893","title":"轨道交通2号线(南京东路)","lon":"121.484178138","lat":"31.2382214704","category":"500","category_name":"未知分类","address":"上海南京东路河南中路(可换乘轨道交通10号线)"},{"poiid":"B2094757D068A1FD489D","title":"亚洲大厦","lon":"121.485","lat":"31.2397","category":"46","category_name":"楼宇","address":"松江区工业区鼎源路广富林路路口"},{"poiid":"B2094757D568A5F94498","title":"上海世茂国际广场","lon":"121.4841128","lat":"31.23733389","category":"46","category_name":"楼宇","address":"南京东路829号"},{"poiid":"B2094757D06FA0F4489D","title":"味千拉面(宏伊店)","lon":"121.48457943","lat":"31.237201398","category":"95","category_name":"日本料理","address":"黄浦区南京东路830号第一百货新楼B1楼(近西藏中路)"},{"poiid":"B2094757D069A1F4469D","title":"知竹日本料理南京东路店","lon":"121.484038738","lat":"31.2374434538","category":"500","category_name":"未知分类","address":"上海南京东路300号 名人购物中心B1"},{"poiid":"B2094757D069A0FE4599","title":"三林塘馄饨店","lon":"121.48568504662","lat":"31.240624646304","category":"68","category_name":"快餐厅","address":"黄浦区江西中路416号(北京东路口)"},{"poiid":"B2094757D068A3FE409C","title":"DQ冰雪皇后(宏伊店)","lon":"121.484580204","lat":"31.2370502454","category":"113","category_name":"冷饮店","address":"黄浦区南京东路830号第一百货"},{"poiid":"B2094757D468A6FB4899","title":"85度C 宁波路店","lon":"121.484141054","lat":"31.239500793","category":"112","category_name":"糕饼店","address":"黄浦区河南中路521-3号(宁波路口)"},{"poiid":"B2094757D46FA3FC4998","title":"每日新鲜水果吧 宏伊店 Fresh Everday","lon":"121.484328054","lat":"31.237211793","category":"67","category_name":"甜品店","address":"黄浦区南京东路299号宏伊国际广场B1楼122号(河南中路口)"},{"poiid":"B2094654DB6AA3FE469C","title":"大诚 宏伊店","lon":"121.484328054","lat":"31.237211793","category":"95","category_name":"日本料理","address":"黄浦区南京东路299号宏伊国际广场6楼(河南中路口)"},{"poiid":"B2094757D16CA0FE4498","title":"YUMMIE HOUSE|呀咪咖喱(南京东路店)","lon":"121.484093738","lat":"31.2374304535","category":"260","category_name":"其他","address":"上海黄浦区南京东路300号名人购物中心B101商铺(近河南中路)"},{"poiid":"B2094757D16AA5F54698","title":"珂兰钻石","lon":"121.484550738","lat":"31.2375184554","category":"249","category_name":"购物服务","address":"黄浦区南京东路300号名人商厦503-504室(近河南中路)查看地图"},{"poiid":"B2094750D26FABFE4898","title":"muse1","lon":"121.485687","lat":"31.240003","category":"500","category_name":"未知分类","address":"北京东路圆明圆路"},{"poiid":"B2094753D16DA1FA4492","title":"外滩和平饭店","lon":"121.486209","lat":"31.240235","category":"247","category_name":"餐饮美食","address":"上海市 外滩和平饭店"},{"poiid":"B2094757D169ABF5499F","title":"宜芝多(名人店)","lon":"121.48367803","lat":"31.237801761","category":"112","category_name":"糕饼店","address":"黄浦区南京东路300号名人购物中心1楼(近河南中路)"},{"poiid":"B2094757D16DA3FA469C","title":"大块头面菜馆","lon":"121.485606738","lat":"31.2383654735","category":"68","category_name":"快餐厅","address":"黄浦区宁波路190号(近河南中路)"},{"poiid":"B2094750D769A2F8439E","title":"城市公牛(南京东路店)","lon":"121.484","lat":"31.2375","category":"94","category_name":"西餐厅","address":"黄浦区南京东路300号L221-222室(河南中路口)"},{"poiid":"B2094654DB69A6FE4693","title":"滇池大楼","lon":"121.48584","lat":"31.24007","category":"46","category_name":"楼宇","address":"昌平区回龙观镇国际信息产业基地高新二街"},{"poiid":"B2094654DA6FA4FF449A","title":"宁波小区","lon":"121.48452","lat":"31.239851","category":"47","category_name":"住宅区","address":"上海宁波路120号"},{"poiid":"B2094757DB6AA7F5439B","title":"望湘园餐厅（宏伊国际广场店）","lon":"121.484","lat":"31.2374","category":"257","category_name":"中餐厅","address":"上海黄浦区南京路步行街299号 宏伊国际广场六层"},{"poiid":"B2094750D76CA6FC489E","title":"AnnaBanana爱酸奶(南京东路店)","lon":"121.485","lat":"31.2376","category":"68","category_name":"快餐厅","address":"南京东路300号名人购物中心1楼L115室(近河南中路)"},{"poiid":"B2094757D06AA7F5469B","title":"外滩街道社区事务受理服务中心","lon":"121.484199","lat":"31.240043","category":"252","category_name":"楼宇机构","address":"上海河南中路568号"},{"poiid":"B2094757D064AAF9419A","title":"甲骨文 Oracle 上海 Office","lon":"121.483343284","lat":"31.2380335688","category":"46","category_name":"楼宇","address":"上海天津路155号12F"},{"poiid":"B2094757D469A3FF459B","title":"诺心 南京东路店 LE CAKE","lon":"121.4848452","lat":"31.2375642","category":"67","category_name":"甜品店","address":"黄浦区南京东路353号1楼114室(山东中路口)"},{"poiid":"B2094757D064A1FD469F","title":"外滩名店 The Bund Plaza","lon":"121.48541","lat":"31.23746","category":"119","category_name":"商场","address":"上海黄浦区南京东路233号(河南中路口)"},{"poiid":"B209475CD76FA7FB4499","title":"鹿港小镇","lon":"121.484085","lat":"31.237232","category":"500","category_name":"未知分类","address":"上海市 南京东路299号宏伊广场6楼s-602单元(近河南路)"},{"poiid":"B2094654DB6BABFD419A","title":"丸来玩趣 宏伊店","lon":"121.484328054","lat":"31.237211793","category":"68","category_name":"快餐厅","address":"黄浦区南京东路299号宏伊国际广场B1楼(河南中路口)"},{"poiid":"B2094750D76CA1F84292","title":"知竹日式料理(南京东路店)","lon":"121.484","lat":"31.2376","category":"95","category_name":"日本料理","address":"黄浦区南京东路300号名人购物中心B1楼"},{"poiid":"B2094757D164A1FB459F","title":"Food Fusion","lon":"121.484646738","lat":"31.2375404559","category":"500","category_name":"未知分类","address":"上海市黄浦区南京东路300号名人广场"},{"poiid":"B2094751D56CA4F44293","title":"呀咪咖喱屋(南京东路店)","lon":"121.4843","lat":"31.23761","category":"94","category_name":"西餐厅","address":"黄浦区南京东路300号名人购物中心B1楼(近河南中路)"},{"poiid":"B2094750D768A6FA4192","title":"嚮茶(南京东路店)","lon":"121.484","lat":"31.2376","category":"113","category_name":"冷饮店","address":"黄浦区南京东路300号名人购物中心2楼(河南中路口)"},{"poiid":"B2094750DB68A5FE4192","title":"Forever21","lon":"121.484977","lat":"31.237642","category":"500","category_name":"未知分类","address":null},{"poiid":"B2094753D46AA7FA419F","title":"锅舞精致料理","lon":"121.485015","lat":"31.237009","category":"247","category_name":"餐饮美食","address":"上海市 南京东路恒基名人广场"},{"poiid":"B2094757D069A5F4499D","title":"Dunkin Donuts(南京东路店)","lon":"121.48492","lat":"31.23704","category":"67","category_name":"甜品店","address":"黄浦区南京东路299号宏伊国际广场1楼(河南中路口)"},{"poiid":"B2094752DB6DABFC4292","title":"哈根达斯","lon":"121.484656","lat":"31.237231","category":"263","category_name":"公司","address":"上海市 南京东路299号宏伊广场"},{"poiid":"B2094655D36CA0F8499E","title":"江西中路北京东路","lon":"121.48574","lat":"31.24011","category":"38","category_name":"公交车站","address":""},{"poiid":"B2094757D16BABF9449A","title":"江西中路","lon":"121.48410263","lat":"31.239679301","category":"500","category_name":"未知分类","address":"上海江西中路"},{"poiid":"B2094757D764A5F44398","title":"iMO 百联世茂店","lon":"121.4848452","lat":"31.2375642","category":"113","category_name":"冷饮店","address":"黄浦区南京东路819号百联世茂国际广场1楼(近西藏中路)"},{"poiid":"B209475CD668A5FD439C","title":"甲泰船面","lon":"121.485992","lat":"31.239599","category":"500","category_name":"未知分类","address":"上海市 上海市黄浦区宁波路51号"},{"poiid":"B2094757D56CABFA489C","title":"和平面包房 南京路店","lon":"121.4848452","lat":"31.2375642","category":"67","category_name":"甜品店","address":"黄浦区南京东路720号第一食品1楼(近贵州路)"},{"poiid":"B2094655D36CA3F9499A","title":"中福城三期","lon":"121.484135","lat":"31.239161","category":"47","category_name":"住宅区","address":"上海市黄浦区汉口路689弄"},{"poiid":"B2094750D76CA5FD4393","title":"如今菓子","lon":"121.484","lat":"31.2376","category":"68","category_name":"快餐厅","address":"黄浦区南京东路300号名人购物中心B1楼(河南中路口)"},{"poiid":"B2094753D56DA4FC449E","title":"上海世博展览馆","lon":"121.485015","lat":"31.240404","category":"500","category_name":"未知分类","address":"上海市 上海浦东新区国展路1099号"},{"poiid":"B2094757DB6AA7F44898","title":"东瀛造型（宏伊国际广场店）","lon":"121.484","lat":"31.2374","category":"148","category_name":"美容美发店","address":"上海黄浦区南京路步行街299号 宏伊国际广场五层"},{"poiid":"B2094757DB69A6F84398","title":"百米香榭","lon":"121.485","lat":"31.2386","category":"249","category_name":"购物服务","address":"黄浦区浙江中路229号(近福州路)"},{"poiid":"B209475CD764A2FB449C","title":"星巴克 老介福店","lon":"121.48565","lat":"31.23766","category":"65","category_name":"咖啡厅","address":"南京东路233号(近河南中路)"},{"poiid":"B209475DD46FA6FE4893","title":"掌上韩品","lon":"121.48397","lat":"31.238342","category":"247","category_name":"餐饮美食","address":"上海市 南京东路300号名人广场"},{"poiid":"B2094655D26EA1FB439E","title":"华东电力大楼","lon":"121.48589","lat":"31.23765","category":"46","category_name":"楼宇","address":"南京东路201"},{"poiid":"B2094757D164ABFA4698","title":"蔡同德堂药号(南京东路店)","lon":"121.48542","lat":"31.23741","category":"500","category_name":"未知分类","address":"上海黄浦区南京东路450号  "},{"poiid":"B2094757DB6AA7F5439D","title":"丸来丸趣（宏伊国际广场店）","lon":"121.484","lat":"31.2374","category":"257","category_name":"中餐厅","address":"杨浦区国权路580弄复旦大学南区步行街"},{"poiid":"B209475CDA6AA7FB429C","title":"和平饭店","lon":"121.485374","lat":"31.237119","category":"247","category_name":"餐饮美食","address":"上海市 南京东路30号"},{"poiid":"B2094757D568A6FF499A","title":"好好栗子店黄浦店","lon":"121.4838439","lat":"31.23911111","category":"68","category_name":"快餐厅","address":"黄浦区宁波路185号(河南中路口)"},{"poiid":"B2094654DA6FA4FE4892","title":"上海新世界进修学院","lon":"121.48325","lat":"31.23831","category":"53","category_name":"成人教育","address":"天津路158号"},{"poiid":"B2094655D26DA3FF4798","title":"南京大楼商务楼","lon":"121.48559","lat":"31.23748","category":"46","category_name":"楼宇","address":"南京东路233号"},{"poiid":"B2094757D56CABFA4998","title":"国际饭店西饼屋 南京东路店","lon":"118.7769489","lat":"34.1300874","category":"67","category_name":"甜品店","address":"黄浦区南京东路414号邵万生食品内(河南中路南京东路)"},{"poiid":"B2094757D06FA5F8419A","title":"果留仙(宏伊店)","lon":"121.4849","lat":"31.23704","category":"67","category_name":"甜品店","address":"上海黄浦区南京东路299号宏伊国际广场B1楼104(河南中路口)  "},{"poiid":"B2094752D56EA0F8489C","title":"一线汤捞恒基名人店","lon":"121.483715","lat":"31.238199","category":"247","category_name":"餐饮美食","address":null},{"poiid":"B2094750D06EAAFB499F","title":"上海市 黄浦区 南京东路","lon":"121.484329","lat":"31.237373","category":"500","category_name":"未知分类","address":null},{"poiid":"B2094655D264A7FA4299","title":"新雅粤菜馆专卖店","lon":"121.48331","lat":"31.23921","category":"72","category_name":"广东菜","address":"南京东路719号2楼(近贵州路)"},{"poiid":"B2094751DB6AAAF54493","title":"合润天香IHETEA茶生活体验馆","lon":"121.48484","lat":"31.23756","category":"247","category_name":"餐饮美食","address":"黄浦区南京东路233号南京大厦5楼(近河南中路)"},{"poiid":"B2094750D76CA4FB459F","title":"扎幌拉面","lon":"121.485","lat":"31.2373","category":"95","category_name":"日本料理","address":"南京东路299号宏伊国际广场B1楼(近河南中路)"},{"poiid":"B2094750D464A1FD449D","title":"赤坂亭","lon":"121.484344","lat":"31.237588","category":"500","category_name":"未知分类","address":null},{"poiid":"B2094753DA68A2FD499F","title":"姐弟俩土豆粉","lon":"121.483787","lat":"31.237976","category":"247","category_name":"餐饮美食","address":"上海市 黄浦区"},{"poiid":"B2094655D26DA3FF479B","title":"珠江大楼","lon":"121.48635","lat":"31.23884","category":"46","category_name":"楼宇","address":"江西中路320"},{"poiid":"B2094750D16AA6F9449D","title":"黄浦区中心医院中医门诊部","lon":"121.484779","lat":"31.239377","category":"162","category_name":"医院","address":"河南中路宁波路"},{"poiid":"B2094752D46AA6F9429F","title":"外套3号黄埔会","lon":"121.485524","lat":"31.238675","category":"247","category_name":"餐饮美食","address":"上海市中山东一路3号外滩3号5楼"},{"poiid":"B2094753D76AA0FA479B","title":"爱茜茜里意大利手工冰淇淋(南京东路店)","lon":"121.484236","lat":"31.238142","category":"67","category_name":"甜品店","address":"上海市黄浦区南京东路300号恒基名人广场L201室"},{"poiid":"B2094757D168A5F9499D","title":"乡茶","lon":"121.484395738","lat":"31.2374254534","category":"247","category_name":"餐饮美食","address":"上海南京东路300号2F"},{"poiid":"B2094757D068A2FC419C","title":"宁波路1号","lon":"121.486806","lat":"31.239597","category":"500","category_name":"未知分类","address":"上海宁波路1号"},{"poiid":"B2094655D26BA2F94092","title":"天津路江西中路","lon":"121.48389","lat":"31.23847","category":"38","category_name":"公交车站","address":""},{"poiid":"B209475CD068A1F54492","title":"俏江南上海恒基","lon":"121.4848386","lat":"31.23757745","category":"71","category_name":"四川菜","address":"上海市黄埔区南京东路435号(河南中路)"},{"poiid":"B2094654DB69A7F8419B","title":"中福城二期","lon":"121.485","lat":"31.2395","category":"47","category_name":"住宅区","address":"广西北路228弄"},{"poiid":"B2094753D468A0FF449D","title":"上海外滩","lon":"121.484252","lat":"31.239288","category":"500","category_name":"未知分类","address":"上海市 上海外滩"},{"poiid":"B2094750D56EA0F54199","title":"衡山路","lon":"121.484359","lat":"31.237457","category":"500","category_name":"未知分类","address":null},{"poiid":"B2094757D164AAFD479A","title":"盐业银行大楼","lon":"121.4848233","lat":"31.240317485","category":"500","category_name":"未知分类","address":"浦东区浦东外高桥保税区基隆路555号"},{"poiid":"B2094654DA6FA4FF419E","title":"华东商务楼","lon":"121.4841","lat":"31.23894","category":"46","category_name":"楼宇","address":"河南中路505"},{"poiid":"B2094751DA68A5FE4498","title":"lavazza","lon":"121.484711","lat":"31.237488","category":"247","category_name":"餐饮美食","address":"黄浦区南京东路300号名人商业大厦3楼L324号(近南京东路地铁站)"},{"poiid":"B2094752DB6DA6FE459A","title":"瑞尔齿科（名人诊所）","lon":"121.484294","lat":"31.237303","category":"162","category_name":"医院","address":"上海市 南京东路300号恒基名人购物中心404室"},{"poiid":"B209475CD16CA1FF4993","title":"南翔馒头店 南京东路店","lon":"121.48484","lat":"31.23756","category":"68","category_name":"快餐厅","address":"南京东路720号第一食品3楼(近贵州路)"},{"poiid":"B2094757D06BAAFE4299","title":"北京东路小学","lon":"121.48505","lat":"31.24026","category":"55","category_name":"中学","address":"黄浦区北京东路261号(近河南中路)"},{"poiid":"B2094757D068A3F5449A","title":"龙记港式餐厅","lon":"121.48575","lat":"31.23729","category":"260","category_name":"其他","address":"上海黄浦区南京东路233号外滩名店5楼  "},{"poiid":"B2094655D36CA0FC4792","title":"九江路江西中路","lon":"121.48384","lat":"31.23845","category":"38","category_name":"公交车站","address":""},{"poiid":"B2094655D26CAAFA489F","title":"永利大楼","lon":"121.48416","lat":"31.23875","category":"46","category_name":"楼宇","address":"天津路100号"},{"poiid":"B2094750D768A1FE4298","title":"果之满满(名人店)","lon":"121.484","lat":"31.2373","category":"68","category_name":"快餐厅","address":"黄浦区南京东路300号名人购物中心B1楼(近河南中路)"},{"poiid":"B2094750D164A1F4479F","title":"汉庭快捷上海南京东路步行街店","lon":"121.484305858612","lat":"31.2379444514312","category":"216","category_name":"经济型连锁酒店","address":"上海市黄埔区河南中路505号"},{"poiid":"B2094654DB69A7F8499E","title":"金昌国贸","lon":"121.48474","lat":"31.23768","category":"46","category_name":"楼宇","address":""},{"poiid":"B2094655D26BA7FD429F","title":"喜士多便利(江西2店)","lon":"121.48584","lat":"31.24015","category":"117","category_name":"便民商店/便利店","address":"江西中路376"},{"poiid":"B2094654DA6FA4FD439B","title":"强农大楼","lon":"121.48388","lat":"31.23935","category":"46","category_name":"楼宇","address":""},{"poiid":"B209475CD168A6FB4999","title":"东方明珠","lon":"121.486007","lat":"31.239604","category":"500","category_name":"未知分类","address":"上海市 上海市浦东新区陆家嘴"},{"poiid":"B209475CDB6FA7F8419E","title":"上海新天地","lon":"121.484313","lat":"31.239309","category":"500","category_name":"未知分类","address":"上海市 黄陂南路"},{"poiid":"B2094654DB6BABFD4492","title":"良友(宁波路)","lon":"121.48479","lat":"31.23945","category":"117","category_name":"便民商店/便利店","address":"宁波路110"},{"poiid":"B2094654DA6FA4FA409A","title":"可的(江西中路)","lon":"121.48651","lat":"31.23833","category":"117","category_name":"便民商店/便利店","address":"江西中路306"},{"poiid":"B2094654DA6FA4FF4393","title":"可的(宁波路)","lon":"121.48471","lat":"31.23943","category":"117","category_name":"便民商店/便利店","address":"黄浦区河南中路514号(河南中路天津路)"},{"poiid":"B2094655D26BABFB4093","title":"麦子熟了 黄浦店","lon":"121.4845371253","lat":"31.239374433727","category":"247","category_name":"餐饮美食","address":"宁波路118号近河南中路"},{"poiid":"B2094654DA6FA4FE4893","title":"上海电大商学院黄浦院区","lon":"121.48325","lat":"31.2383","category":"52","category_name":"高等院校","address":"黄浦区天津路158号"},{"poiid":"B2094752D468A2FE469B","title":"浦东滨江大道","lon":"121.485532","lat":"31.240485","category":"250","category_name":"公园户外","address":null},{"poiid":"B2094654DA6FA4FE4793","title":"文峰美发美容天津店","lon":"121.48398","lat":"31.23857","category":"148","category_name":"美容美发店","address":"天津路112"},{"poiid":"B2094654DA6FA4F8409E","title":"上海浦东发展银行黄浦支行","lon":"121.48612","lat":"31.23971","category":"150","category_name":"银行","address":"宁波路50"},{"poiid":"B2094757D16AA5F4419A","title":"外滩中心27楼德勤管理咨询","lon":"121.484116138","lat":"31.2396664012","category":"500","category_name":"未知分类","address":"上海延安东路222号2701－2704"},{"poiid":"B2094654DA6FA4FE4799","title":"宁波路菜场","lon":"121.48365","lat":"31.23903","category":"117","category_name":"便民商店/便利店","address":"黄浦区宁波路193-207号(河南中路口)"},{"poiid":"B2094757D164A6FB449B","title":"十里洋场私房菜","lon":"121.483650738","lat":"31.23914149","category":"247","category_name":"餐饮美食","address":"上海市宁坡路"},{"poiid":"B2094655D26DA7FE459A","title":"宁波小区(南门)","lon":"121.48464","lat":"31.23945","category":"47","category_name":"住宅区","address":"宁波路120弄"},{"poiid":"B2094757DB6AA7F4489E","title":"芸楠健发（宏伊国际广场店）","lon":"121.484","lat":"31.2374","category":"162","category_name":"医院","address":"上海黄浦区南京路步行街299号 宏伊国际广场五层"},{"poiid":"B2094655D26DA7FE4792","title":"吉祥里(东门)","lon":"121.48387","lat":"31.2394","category":"47","category_name":"住宅区","address":"河南中路541弄8-36号"},{"poiid":"B2094757D66DA4FA4393","title":"清雅拉面","lon":"121.48409401","lat":"31.237429933","category":"247","category_name":"餐饮美食","address":"上海河南中路565号"},{"poiid":"B2094655D26CAAFB489B","title":"汉口小区","lon":"121.48596","lat":"31.237232","category":"47","category_name":"住宅区","address":"九江路18弄1-22号"},{"poiid":"B2094757D66EA5FE4893","title":"滇池路110号","lon":"121.486177338","lat":"31.2381109681","category":"500","category_name":"未知分类","address":"上海黄浦工商进修学院"},{"poiid":"B2094757D064A1FF429F","title":"天津路26号","lon":"121.485493","lat":"31.239055","category":"47","category_name":"住宅区","address":"上海黄埔交警支队非机动车管理所"},{"poiid":"B2094654DA6FA4F84098","title":"滇池小区","lon":"121.48584","lat":"31.24011","category":"47","category_name":"住宅区","address":"江西中路374"},{"poiid":"B2094757D164A2FF4893","title":"中山东一路24号","lon":"121.483248738","lat":"31.2386994806","category":"500","category_name":"未知分类","address":"上海中山东一路24号"},{"poiid":"B2094750D464ABFB4092","title":"南京东路","lon":"121.48545","lat":"31.239351","category":"627","category_name":"一般地点标志","address":"黄浦区宁波路"},{"poiid":"B2094757D16AA0FF439E","title":"Pacilie coffee","lon":"121.48454473","lat":"31.237074446","category":"500","category_name":"未知分类","address":"上海黄浦区南京东路300号名人商业中心2层11-12室"},{"poiid":"B2094654DA6FA4FA429D","title":"星火日夜南京店","lon":"121.48667","lat":"31.23825","category":"117","category_name":"便民商店/便利店","address":"南京东路172"},{"poiid":"B2094654DA6FA4FD429E","title":"星工坊美容美发","lon":"121.48338","lat":"31.23921","category":"148","category_name":"美容美发店","address":"宁波路190-1"},{"poiid":"B2094654DA6FA4FF4592","title":"上海市电力行业协会","lon":"121.48554","lat":"31.2404","category":"250","category_name":"公园户外","address":"北京东路239"},{"poiid":"B2094654DA6FA4FE489C","title":"上海市黄浦商业人才培训中心(天津路)","lon":"121.48325","lat":"31.23831","category":"190","category_name":"培训机构","address":"天津路158号"},{"poiid":"B2094654DA6FA4FF429F","title":"国药集团化学试剂有限公司(宁波路)","lon":"121.48569","lat":"31.23965","category":"263","category_name":"公司","address":"宁波路52"},{"poiid":"B2094757D069AAFD469A","title":"上行线(南京东路店)","lon":"121.48494782","lat":"31.237511843","category":"125","category_name":"书店","address":"上海黄浦区地铁二号线南京东路站"},{"poiid":"B2094757D16BA3FF4492","title":"温州银行上海分行","lon":"121.484195048","lat":"31.2371874484","category":"150","category_name":"银行","address":"上海黄浦区九江路333号"},{"poiid":"B2094757D16CABF8429D","title":"电力客户服务中心","lon":"121.486444","lat":"31.237929","category":"500","category_name":"未知分类","address":"上海黄浦区南京东路181号"},{"poiid":"B2094654DA6FA4FB4192","title":"国家电网上海市电力公司","lon":"121.48645","lat":"31.23793","category":"263","category_name":"公司","address":"南京东路181"},{"poiid":"B2094753D164A6FA4593","title":"九久日本料理","lon":"121.485637","lat":"31.237035","category":"500","category_name":"未知分类","address":"上海市 江宁路428号静安体育中心1楼(近武定路)"},{"poiid":"B2094757D16EA7FF449D","title":"东华大学逸夫楼","lon":"121.486059638","lat":"31.2396764014","category":"500","category_name":"未知分类","address":"上海市长宁区延安西路1882号"},{"poiid":"B2094751D06DAAFB409B","title":"正大广场 新元素","lon":"121.4860954","lat":"31.2379194","category":"500","category_name":"未知分类","address":null},{"poiid":"B2094752D56AA7FD429F","title":"Sony Store","lon":"121.485277","lat":"31.237751","category":"249","category_name":"购物服务","address":"南京东路店"},{"poiid":"B2094654DA6FA4FE4792","title":"中国工商银行河南中路支行","lon":"121.48402","lat":"31.23911","category":"150","category_name":"银行","address":"黄浦区河南中路505号近宁波路(河南中路宁波路)"},{"poiid":"B2094757DA65A1FF459B","title":"浙江大学宁波理工学院","lon":"121.485775","lat":"31.239005","category":"253","category_name":"校园生活","address":"学府路1号"},{"poiid":"B2094750D56DA0FC4792","title":"南京东路幼儿园","lon":"121.484138","lat":"31.239473","category":"253","category_name":"校园生活","address":"天津路100号"},{"poiid":"B2094757D66CA7FB439A","title":"宏伊广场bread talk","lon":"121.483745738","lat":"31.2375094552","category":"500","category_name":"未知分类","address":"上海市黄浦区石潭弄"},{"poiid":"B2094757D169A1FB489A","title":"17路北京东路江西中路站","lon":"121.485747793","lat":"31.2401499444","category":"500","category_name":"未知分类","address":"上海市黄浦区北京东路江西中路东侧"},{"poiid":"B2094750D464ABFB439E","title":"河南中路宁波路","lon":"121.485443","lat":"31.239307","category":"248","category_name":"生活娱乐","address":null},{"poiid":"B2094753D26EA7F94792","title":"珂兰钻石上海旗舰店","lon":"121.48401258463","lat":"31.237504512258","category":"131","category_name":"珠宝首饰工艺品","address":"黄浦区南京东路300号恒基名人购物中心503-504"},{"poiid":"B2094753D46AA7FF4299","title":"年代秀","lon":"121.48484","lat":"31.238437","category":"249","category_name":"购物服务","address":"上海市 天津路118号"},{"poiid":"B2094654DA6FA4FF4793","title":"上海正大建设发展有限公司","lon":"121.48479","lat":"31.24065","category":"123","category_name":"家具建材市场","address":"北京东路270号甲"},{"poiid":"B2094655D26BA4F94893","title":"high酒吧","lon":"121.48414","lat":"31.23728","category":"172","category_name":"酒吧","address":"黄浦区南京东路322号(近河南中路)"},{"poiid":"B2094654DA6FA4FD4493","title":"上海外滩街道老年公寓(东门)","lon":"121.48384","lat":"31.23953","category":"207","category_name":"度假疗养场所","address":"河南中路541弄8-36号"},{"poiid":"B2094654DA6FA4FB419D","title":"国家电网华东电网有限公司","lon":"121.48588","lat":"31.23765","category":"263","category_name":"公司","address":"南京东路201"},{"poiid":"B2094757D065A2F54199","title":"一兆韦德营养吧","lon":"121.48558966","lat":"31.239596313","category":"500","category_name":"未知分类","address":"上海河南中路1号"},{"poiid":"B2094757D66DA0FC429F","title":"三才培训","lon":"121.48602263","lat":"31.239659801","category":"253","category_name":"校园生活","address":"黄浦区江西中路406号(近北京东路)"},{"poiid":"B2094757D06AA5F44993","title":"Usagi","lon":"121.484108638","lat":"31.2396405007","category":"500","category_name":"未知分类","address":null},{"poiid":"B2094757D66DA3FB499B","title":"陳尐囡哒","lon":"121.48508673","lat":"31.240050509","category":"500","category_name":"未知分类","address":"上海宁波路、"},{"poiid":"B2094757D16FABFB479B","title":"食屋","lon":"121.48601173","lat":"31.239356494","category":"500","category_name":"未知分类","address":"上海江西中路宁波路"},{"poiid":"B2094757D065A7FA4698","title":"Sky的欢乐天堂","lon":"121.486236738","lat":"31.2382394708","category":"500","category_name":"未知分类","address":null},{"poiid":"B2094757D56EA5F9459F","title":"香港修身堂(南京东路店)","lon":"121.4848452","lat":"31.2375642","category":"249","category_name":"购物服务","address":"黄浦区南京东路580号6楼"},{"poiid":"B2094757D164ABF8499C","title":"蒙奇奇(名人店)","lon":"121.484195838","lat":"31.2373442517","category":"249","category_name":"购物服务","address":"上海南京东路步行街名人购物中心3F"},{"poiid":"B2094654DA6FA4FB439A","title":"上海申华金融大厦有限公司","lon":"121.48682","lat":"31.2396","category":"263","category_name":"公司","address":"宁波路1号申华金融大厦"},{"poiid":"B2094757D66DAAFE4193","title":"新华保险公司","lon":"121.48605153","lat":"31.239664701","category":"500","category_name":"未知分类","address":"上海市静安区江宁路212号11楼"},{"poiid":"B2094757D16CAAF94498","title":"可愛いの宅","lon":"121.48473873","lat":"31.239818504","category":"500","category_name":"未知分类","address":null},{"poiid":"B2094757D169AAF84792","title":"T110","lon":"121.48455047","lat":"31.240638732","category":"500","category_name":"未知分类","address":"上海—北京"},{"poiid":"B2094757D16DA4FD479B","title":"上海银行(京东支行)","lon":"121.483988","lat":"31.238573","category":"150","category_name":"银行","address":"上海天津路112号"},{"poiid":"B2094757D66CA6FB499E","title":"上海市电力公司物流服务中心","lon":"121.485734","lat":"31.239911","category":"500","category_name":"未知分类","address":"上海江西中路367号"},{"poiid":"B2094757D66EA2F9489B","title":"Lights Up Studio(乐上摄影工作室)","lon":"121.48379318","lat":"31.238522393","category":"500","category_name":"未知分类","address":"上海江西中路349号安垦外滩3A"},{"poiid":"B2094757D66FA0FC4393","title":"玛果茶饮","lon":"121.48487473","lat":"31.237436453","category":"500","category_name":"未知分类","address":"上海市黄浦区河南中路"},{"poiid":"B2094654DA6FA4FA4092","title":"上海沪中医药有限公司","lon":"121.48696","lat":"31.23927","category":"263","category_name":"公司","address":"滇池路133"},{"poiid":"B2094757D169ABF4449D","title":"上海申华控股股份有限公司","lon":"121.487025738","lat":"31.2388514838","category":"263","category_name":"公司","address":"宁波路1号申华金融大厦"},{"poiid":"B2094654DA6FA4FB4393","title":"上海华港国际船舶代理有限公司","lon":"121.48682","lat":"31.2396","category":"263","category_name":"公司","address":"宁波路1号申华金融大厦"},{"poiid":"B2094757D56EA6FE4393","title":"Desktop Cafe 桌面咖啡馆","lon":"121.485597","lat":"31.237486","category":"260","category_name":"其他","address":"黄浦区南京东路233号外滩名店4楼(近河南中路)"},{"poiid":"B2094757D568A4F9439D","title":"飞脚南京东路店","lon":"121.4868072","lat":"31.23806944","category":"249","category_name":"购物服务","address":"南京东路157号"},{"poiid":"B2094654DA6FA4FF489A","title":"上海黄浦中华职教社","lon":"121.48486","lat":"31.24071","category":"252","category_name":"楼宇机构","address":"北京东路270号中一大楼702"},{"poiid":"B2094752D76AA1FB4798","title":"上海南京路步行街","lon":"121.484502","lat":"31.237004","category":"627","category_name":"一般地点标志","address":null},{"poiid":"B2094654DA6FA4FB4193","title":"上海市电力公司客户服务中心","lon":"121.48645","lat":"31.23793","category":"219","category_name":"其他","address":"南京东路181"},{"poiid":"B2094655D26CA4F54198","title":"中国工商银行河南中路支行24小时自助银行","lon":"121.48404","lat":"31.23905","category":"152","category_name":"ATM","address":"河南中路505"},{"poiid":"B2094757D069A3F44292","title":"人人桌游正版专卖","lon":"121.48468","lat":"31.238854","category":"175","category_name":"棋牌室","address":"上海广西北路250号百米香榭商业街内(348商铺)"},{"poiid":"B2094757D069A3FB479E","title":"伟大航路主题桌游概念馆","lon":"121.48558","lat":"31.239205","category":"175","category_name":"棋牌室","address":"上海浙江中路229号百米香榭306商铺"}]