[{"poiid":"B2094654D564A6F84399","title":"红坊","lon":"121.42382","lat":"31.19873","category":"183","category_name":"展览馆","address":"红坊位于淮海西路570—588号，南邻徐家汇商业中心，西靠虹桥CBD商务区。"},{"poiid":"B2094654DB6BA7F44592","title":"东骏燕窝鱼翅海鲜酒家","lon":"121.42529","lat":"31.19835","category":"72","category_name":"广东菜","address":"长宁区淮海西路518号(近虹桥路)"},{"poiid":"B2094757D06FA6FE459F","title":"民生现代美术馆","lon":"121.42471","lat":"31.19758","category":"184","category_name":"美术馆","address":"长宁区淮海西路570号红坊创意园区F座(近虹桥路)"},{"poiid":"B2094655D26CA4F9419A","title":"上海市胸科医院","lon":"121.42588","lat":"31.1974","category":"162","category_name":"医院","address":"长宁区淮海西路241号(近番禺路)"},{"poiid":"B2094757D068A3FB489C","title":"雕刻时光咖啡馆(红坊店)","lon":"121.425078586","lat":"31.1992688256","category":"260","category_name":"其他","address":"长宁区淮海西路570号B111"},{"poiid":"B2094757D16CA1F8469C","title":"新淮海坊","lon":"121.42218328","lat":"31.196099263","category":"119","category_name":"商场","address":"长宁区淮海西路680号"},{"poiid":"B2094757D06FA6FE479A","title":"上海城市雕塑艺术中心","lon":"121.42512512","lat":"31.198225021","category":"260","category_name":"其他","address":"长宁区淮海西路568号(近虹桥路)"},{"poiid":"B2094750DA6FAAFE4392","title":"茶香书香(新淮海坊店)","lon":"121.423049","lat":"31.197093","category":"113","category_name":"冷饮店","address":"徐汇区淮海西路676号1-02号铺新淮海坊内(近虹桥路地铁站)"},{"poiid":"B2094654DB69A5F9449C","title":"星巴克(新华路店)","lon":"121.42278","lat":"31.19601","category":"260","category_name":"其他","address":"长宁区淮海西路666号(近虹桥路)"},{"poiid":"B2094750DA6EA1FA499C","title":"On Stage","lon":"121.424015","lat":"31.199642","category":"172","category_name":"酒吧","address":"长宁区淮海西路570号红坊艺术文化社区A2(近虹桥路)"},{"poiid":"B2094757D06EAAFA459B","title":"红坊国际艺术文化社区","lon":"121.4217","lat":"31.19888","category":"260","category_name":"其他","address":"长宁区淮海西路570号红坊创意园区内(近虹桥路)"},{"poiid":"B2094751D26DAAFB449D","title":"Las Tapas","lon":"121.42482","lat":"31.199341","category":"94","category_name":"西餐厅","address":"长宁区淮海西路570号第59幢C6(近凯旋路)"},{"poiid":"B2094655D36CA7F8449A","title":"虹桥路凯旋路","lon":"121.42317","lat":"31.19512","category":"38","category_name":"公交车站","address":""},{"poiid":"B2094757D069ABFB479D","title":"中山万博国际中心","lon":"121.421343","lat":"31.19718","category":"184","category_name":"美术馆","address":"上海淮海西路凯旋路"},{"poiid":"B2094750D268A7FE4499","title":"贝蕾魔法 Black Magic Chocolate","lon":"121.42454624176","lat":"31.197494950511","category":"67","category_name":"甜品店","address":"长宁区淮海西路570号红坊D幢(近虹桥路)"},{"poiid":"B2094654DA6DA2FF4298","title":"三湘大厦","lon":"121.425","lat":"31.2002","category":"250","category_name":"公园户外","address":"上海市中山西路1243号(近虹桥路)"},{"poiid":"B2094757D06BA5FD4593","title":"四号线虹桥路站","lon":"121.421168986","lat":"31.1982426055","category":"500","category_name":"未知分类","address":"上海轨道交通三四号线虹桥路站"},{"poiid":"B2094655D36DA6FD449C","title":"虹桥路","lon":"121.42227","lat":"31.19679","category":"38","category_name":"公交车站","address":"长宁区长宁区虹桥路1010号(靠凯旋路)"},{"poiid":"B2094655D26EAAFD449C","title":"上海市昂立学院(番禺路)","lon":"121.42809","lat":"31.19708","category":"52","category_name":"高等院校","address":"徐汇区番禺路868"},{"poiid":"B2094757D469A0FB4699","title":"克切拉素品茶","lon":"121.4242652","lat":"31.1976016","category":"89","category_name":"中式素餐馆","address":"长宁区淮海西路570号G113单元(近虹桥路)"},{"poiid":"B2094654DA6DA2FF489B","title":"国峰科技大厦","lon":"121.427","lat":"31.1983","category":"46","category_name":"楼宇","address":"闸北区江场西路395号"},{"poiid":"B2094654DB6AA7FA479A","title":"香啡缤 红坊店 Coffee Bean&Tea Leaf","lon":"121.423160054","lat":"31.197249793","category":"260","category_name":"其他","address":"长宁区淮海西路570号红坊创意园区B112室(近虹桥路)"},{"poiid":"B2094757D06FA7F4429F","title":"味千拉面(凯虹店)","lon":"121.42138","lat":"31.19701","category":"95","category_name":"日本料理","address":"长宁区凯旋路1529号轻轨虹桥路站1楼(近虹桥路轻轨站)"},{"poiid":"B2094757D06FA6FE4899","title":"虹桥路凯旋路口","lon":"121.42411","lat":"31.194756","category":"500","category_name":"未知分类","address":"上海虹桥路凯旋路口"},{"poiid":"B2094757D164A1FA489C","title":"十号线虹桥站","lon":"121.421655586","lat":"31.1963447685","category":"500","category_name":"未知分类","address":"上海虹桥路"},{"poiid":"B2094757D06AA1F84793","title":"海螺大厦","lon":"121.426","lat":"31.1985","category":"46","category_name":"楼宇","address":"徐汇区中山西路1277号"},{"poiid":"B2094757D06FA5FE4499","title":"Beca Cafe &amp; Bar","lon":"121.42359","lat":"31.19671","category":"94","category_name":"西餐厅","address":"长宁区淮海西路570号红坊创意园区C-6单元(近虹桥路)"},{"poiid":"B2094750DB65A1FC419A","title":"边城1803","lon":"121.422","lat":"31.19701","category":"77","category_name":"湖南菜","address":"长宁区凯旋路1582号-5新淮海坊内(近虹桥路)"},{"poiid":"B2094750D26EABFC419E","title":"九号线宜山路站","lon":"121.424537","lat":"31.197687","category":"500","category_name":"未知分类","address":null},{"poiid":"B2094750D56FA3FD4399","title":"玖洋捞精品牛肉海鲜火锅","lon":"121.422691","lat":"31.196554","category":"86","category_name":"火锅店","address":"上海市长宁区淮海西路678号新淮海坊内(近虹桥路)"},{"poiid":"B2094753D76FA5FE4093","title":"小黑蚝情","lon":"121.423011","lat":"31.195306","category":"247","category_name":"餐饮美食","address":"上海市 长宁区淮海西路新淮海坊"},{"poiid":"B2094757D66EA5F9429D","title":"苏菲雅","lon":"121.423238586","lat":"31.1985828122","category":"500","category_name":"未知分类","address":"上海淮海西路570号G 108"},{"poiid":"B2094750D568A3F5419B","title":"肯德基(番禺路店)","lon":"121.428","lat":"31.1976","category":"68","category_name":"快餐厅","address":"徐汇区番禺路868号(近虹桥路)"},{"poiid":"B2094654DB69ABFE4292","title":"丰裕餐饮(凯旋店)","lon":"121.42444","lat":"31.19789","category":"68","category_name":"快餐厅","address":"长宁区淮海西路550号(近虹桥路)"},{"poiid":"B2094757D16BA1FB439D","title":"KECHARA TEA HOUSE","lon":"121.423240586","lat":"31.1988928183","category":"500","category_name":"未知分类","address":"上海淮海西路570號28幢G113單元"},{"poiid":"B2094654D564A6F84499","title":"三川大楼","lon":"121.42456","lat":"31.19799","category":"46","category_name":"楼宇","address":"淮海西路520、540号"},{"poiid":"B2094654D564A6F84593","title":"凯利大厦","lon":"121.42693","lat":"31.19923","category":"46","category_name":"楼宇","address":"上海市奉贤区南奉公路8515,8519号"},{"poiid":"B2094655D26CA1FE4398","title":"上海城市雕塑艺术中心(南门)","lon":"121.42433","lat":"31.1979","category":"183","category_name":"展览馆","address":"淮海西路568号"},{"poiid":"B2094654D564A6F84392","title":"好德便利No.409","lon":"121.42463","lat":"31.19797","category":"117","category_name":"便民商店/便利店","address":"淮海西路570-1识别"},{"poiid":"B2094655D26EA1F8459D","title":"阿娟餐厅","lon":"121.42573","lat":"31.19817","category":"68","category_name":"快餐厅","address":"长宁区淮海西路241号胸科医院旁(近番禺路)"},{"poiid":"B2094654DA6DA3F84792","title":"好又多水果店","lon":"121.42487","lat":"31.1978","category":"117","category_name":"便民商店/便利店","address":"淮海西路333"},{"poiid":"B2094757D064A6FA4893","title":"PO","lon":"121.42482067","lat":"31.198814199","category":"249","category_name":"购物服务","address":"上海淮海西路570号B栋101-103"},{"poiid":"B2094655D268A1FE419B","title":"三川大楼(南门)","lon":"121.42494","lat":"31.19808","category":"49","category_name":"无中心点楼宇大门","address":"淮海西路520-540"},{"poiid":"B2094655D26AA6F9429C","title":"上海设计图书馆","lon":"121.42512","lat":"31.19822","category":"247","category_name":"餐饮美食","address":"长宁区淮海西路570号"},{"poiid":"B2094757D068A0F8479E","title":"The Coffee Bean(红坊店)","lon":"121.42402358","lat":"31.200390847","category":"65","category_name":"咖啡厅","address":"上海红坊b 112"},{"poiid":"B2094654DA6DA3F8489A","title":"情缘花店","lon":"121.42491","lat":"31.19783","category":"117","category_name":"便民商店/便利店","address":""},{"poiid":"B2094654DB64AAFB4498","title":"Cici Club","lon":"121.42449","lat":"31.19857","category":"172","category_name":"酒吧","address":"淮海西路570"},{"poiid":"B2094752D26CA2F94599","title":"串坊创意烧肉餐吧","lon":"121.42284","lat":"31.19605","category":"269","category_name":"烧烤","address":"长宁区淮海西路686号新淮海坊内(近虹桥路地铁站)"},{"poiid":"B2094757DA69A3FA4399","title":"苏菲雅婚纱摄影","lon":"121.42310448742","lat":"31.198502409153","category":"611","category_name":"照相馆","address":"上海市淮海西路570号红坊艺术园区内G108单元"},{"poiid":"B2094750D569A5FC419E","title":"鑫城苑K座","lon":"121.4251022","lat":"31.1971054","category":"47","category_name":"住宅区","address":"鑫城苑K座位于徐汇淮海西路343号11号楼(K座)"},{"poiid":"B2094654D564A6F84399","title":"红坊","lon":"121.42382","lat":"31.19873","category":"183","category_name":"展览馆","address":"红坊位于淮海西路570—588号，南邻徐家汇商业中心，西靠虹桥CBD商务区。"},{"poiid":"B2094654DB6BA7F44592","title":"东骏燕窝鱼翅海鲜酒家","lon":"121.42529","lat":"31.19835","category":"72","category_name":"广东菜","address":"长宁区淮海西路518号(近虹桥路)"},{"poiid":"B2094757D06FA6FE459F","title":"民生现代美术馆","lon":"121.42471","lat":"31.19758","category":"184","category_name":"美术馆","address":"长宁区淮海西路570号红坊创意园区F座(近虹桥路)"},{"poiid":"B2094655D26CA4F9419A","title":"上海市胸科医院","lon":"121.42588","lat":"31.1974","category":"162","category_name":"医院","address":"长宁区淮海西路241号(近番禺路)"},{"poiid":"B2094757D068A3FB489C","title":"雕刻时光咖啡馆(红坊店)","lon":"121.425078586","lat":"31.1992688256","category":"260","category_name":"其他","address":"长宁区淮海西路570号B111"},{"poiid":"B2094757D16CA1F8469C","title":"新淮海坊","lon":"121.42218328","lat":"31.196099263","category":"119","category_name":"商场","address":"长宁区淮海西路680号"},{"poiid":"B2094757D06FA6FE479A","title":"上海城市雕塑艺术中心","lon":"121.42512512","lat":"31.198225021","category":"260","category_name":"其他","address":"长宁区淮海西路568号(近虹桥路)"},{"poiid":"B2094750DA6FAAFE4392","title":"茶香书香(新淮海坊店)","lon":"121.423049","lat":"31.197093","category":"113","category_name":"冷饮店","address":"徐汇区淮海西路676号1-02号铺新淮海坊内(近虹桥路地铁站)"},{"poiid":"B2094654DB69A5F9449C","title":"星巴克(新华路店)","lon":"121.42278","lat":"31.19601","category":"260","category_name":"其他","address":"长宁区淮海西路666号(近虹桥路)"},{"poiid":"B2094750DA6EA1FA499C","title":"On Stage","lon":"121.424015","lat":"31.199642","category":"172","category_name":"酒吧","address":"长宁区淮海西路570号红坊艺术文化社区A2(近虹桥路)"},{"poiid":"B2094757D06EAAFA459B","title":"红坊国际艺术文化社区","lon":"121.4217","lat":"31.19888","category":"260","category_name":"其他","address":"长宁区淮海西路570号红坊创意园区内(近虹桥路)"},{"poiid":"B2094751D26DAAFB449D","title":"Las Tapas","lon":"121.42482","lat":"31.199341","category":"94","category_name":"西餐厅","address":"长宁区淮海西路570号第59幢C6(近凯旋路)"},{"poiid":"B2094655D36CA7F8449A","title":"虹桥路凯旋路","lon":"121.42317","lat":"31.19512","category":"38","category_name":"公交车站","address":""},{"poiid":"B2094757D069ABFB479D","title":"中山万博国际中心","lon":"121.421343","lat":"31.19718","category":"184","category_name":"美术馆","address":"上海淮海西路凯旋路"},{"poiid":"B2094750D268A7FE4499","title":"贝蕾魔法 Black Magic Chocolate","lon":"121.42454624176","lat":"31.197494950511","category":"67","category_name":"甜品店","address":"长宁区淮海西路570号红坊D幢(近虹桥路)"},{"poiid":"B2094654DA6DA2FF4298","title":"三湘大厦","lon":"121.425","lat":"31.2002","category":"250","category_name":"公园户外","address":"上海市中山西路1243号(近虹桥路)"},{"poiid":"B2094757D06BA5FD4593","title":"四号线虹桥路站","lon":"121.421168986","lat":"31.1982426055","category":"500","category_name":"未知分类","address":"上海轨道交通三四号线虹桥路站"},{"poiid":"B2094655D36DA6FD449C","title":"虹桥路","lon":"121.42227","lat":"31.19679","category":"38","category_name":"公交车站","address":"长宁区长宁区虹桥路1010号(靠凯旋路)"},{"poiid":"B2094655D26EAAFD449C","title":"上海市昂立学院(番禺路)","lon":"121.42809","lat":"31.19708","category":"52","category_name":"高等院校","address":"徐汇区番禺路868"},{"poiid":"B2094757D469A0FB4699","title":"克切拉素品茶","lon":"121.4242652","lat":"31.1976016","category":"89","category_name":"中式素餐馆","address":"长宁区淮海西路570号G113单元(近虹桥路)"},{"poiid":"B2094654DA6DA2FF489B","title":"国峰科技大厦","lon":"121.427","lat":"31.1983","category":"46","category_name":"楼宇","address":"闸北区江场西路395号"},{"poiid":"B2094654DB6AA7FA479A","title":"香啡缤 红坊店 Coffee Bean&Tea Leaf","lon":"121.423160054","lat":"31.197249793","category":"260","category_name":"其他","address":"长宁区淮海西路570号红坊创意园区B112室(近虹桥路)"},{"poiid":"B2094757D06FA7F4429F","title":"味千拉面(凯虹店)","lon":"121.42138","lat":"31.19701","category":"95","category_name":"日本料理","address":"长宁区凯旋路1529号轻轨虹桥路站1楼(近虹桥路轻轨站)"},{"poiid":"B2094757D06FA6FE4899","title":"虹桥路凯旋路口","lon":"121.42411","lat":"31.194756","category":"500","category_name":"未知分类","address":"上海虹桥路凯旋路口"},{"poiid":"B2094757D164A1FA489C","title":"十号线虹桥站","lon":"121.421655586","lat":"31.1963447685","category":"500","category_name":"未知分类","address":"上海虹桥路"},{"poiid":"B2094757D06AA1F84793","title":"海螺大厦","lon":"121.426","lat":"31.1985","category":"46","category_name":"楼宇","address":"徐汇区中山西路1277号"},{"poiid":"B2094757D06FA5FE4499","title":"Beca Cafe &amp; Bar","lon":"121.42359","lat":"31.19671","category":"94","category_name":"西餐厅","address":"长宁区淮海西路570号红坊创意园区C-6单元(近虹桥路)"},{"poiid":"B2094750DB65A1FC419A","title":"边城1803","lon":"121.422","lat":"31.19701","category":"77","category_name":"湖南菜","address":"长宁区凯旋路1582号-5新淮海坊内(近虹桥路)"},{"poiid":"B2094750D26EABFC419E","title":"九号线宜山路站","lon":"121.424537","lat":"31.197687","category":"500","category_name":"未知分类","address":null},{"poiid":"B2094750D56FA3FD4399","title":"玖洋捞精品牛肉海鲜火锅","lon":"121.422691","lat":"31.196554","category":"86","category_name":"火锅店","address":"上海市长宁区淮海西路678号新淮海坊内(近虹桥路)"},{"poiid":"B2094753D76FA5FE4093","title":"小黑蚝情","lon":"121.423011","lat":"31.195306","category":"247","category_name":"餐饮美食","address":"上海市 长宁区淮海西路新淮海坊"},{"poiid":"B2094757D66EA5F9429D","title":"苏菲雅","lon":"121.423238586","lat":"31.1985828122","category":"500","category_name":"未知分类","address":"上海淮海西路570号G 108"},{"poiid":"B2094750D568A3F5419B","title":"肯德基(番禺路店)","lon":"121.428","lat":"31.1976","category":"68","category_name":"快餐厅","address":"徐汇区番禺路868号(近虹桥路)"},{"poiid":"B2094654DB69ABFE4292","title":"丰裕餐饮(凯旋店)","lon":"121.42444","lat":"31.19789","category":"68","category_name":"快餐厅","address":"长宁区淮海西路550号(近虹桥路)"},{"poiid":"B2094757D16BA1FB439D","title":"KECHARA TEA HOUSE","lon":"121.423240586","lat":"31.1988928183","category":"500","category_name":"未知分类","address":"上海淮海西路570號28幢G113單元"},{"poiid":"B2094654D564A6F84499","title":"三川大楼","lon":"121.42456","lat":"31.19799","category":"46","category_name":"楼宇","address":"淮海西路520、540号"},{"poiid":"B2094654D564A6F84593","title":"凯利大厦","lon":"121.42693","lat":"31.19923","category":"46","category_name":"楼宇","address":"上海市奉贤区南奉公路8515,8519号"},{"poiid":"B2094655D26CA1FE4398","title":"上海城市雕塑艺术中心(南门)","lon":"121.42433","lat":"31.1979","category":"183","category_name":"展览馆","address":"淮海西路568号"},{"poiid":"B2094654D564A6F84392","title":"好德便利No.409","lon":"121.42463","lat":"31.19797","category":"117","category_name":"便民商店/便利店","address":"淮海西路570-1识别"},{"poiid":"B2094655D26EA1F8459D","title":"阿娟餐厅","lon":"121.42573","lat":"31.19817","category":"68","category_name":"快餐厅","address":"长宁区淮海西路241号胸科医院旁(近番禺路)"},{"poiid":"B2094654DA6DA3F84792","title":"好又多水果店","lon":"121.42487","lat":"31.1978","category":"117","category_name":"便民商店/便利店","address":"淮海西路333"},{"poiid":"B2094757D064A6FA4893","title":"PO","lon":"121.42482067","lat":"31.198814199","category":"249","category_name":"购物服务","address":"上海淮海西路570号B栋101-103"},{"poiid":"B2094655D268A1FE419B","title":"三川大楼(南门)","lon":"121.42494","lat":"31.19808","category":"49","category_name":"无中心点楼宇大门","address":"淮海西路520-540"},{"poiid":"B2094655D26AA6F9429C","title":"上海设计图书馆","lon":"121.42512","lat":"31.19822","category":"247","category_name":"餐饮美食","address":"长宁区淮海西路570号"},{"poiid":"B2094757D068A0F8479E","title":"The Coffee Bean(红坊店)","lon":"121.42402358","lat":"31.200390847","category":"65","category_name":"咖啡厅","address":"上海红坊b 112"},{"poiid":"B2094654DA6DA3F8489A","title":"情缘花店","lon":"121.42491","lat":"31.19783","category":"117","category_name":"便民商店/便利店","address":""},{"poiid":"B2094654DB64AAFB4498","title":"Cici Club","lon":"121.42449","lat":"31.19857","category":"172","category_name":"酒吧","address":"淮海西路570"},{"poiid":"B2094752D26CA2F94599","title":"串坊创意烧肉餐吧","lon":"121.42284","lat":"31.19605","category":"269","category_name":"烧烤","address":"长宁区淮海西路686号新淮海坊内(近虹桥路地铁站)"},{"poiid":"B2094757DA69A3FA4399","title":"苏菲雅婚纱摄影","lon":"121.42310448742","lat":"31.198502409153","category":"611","category_name":"照相馆","address":"上海市淮海西路570号红坊艺术园区内G108单元"},{"poiid":"B2094750D569A5FC419E","title":"鑫城苑K座","lon":"121.4251022","lat":"31.1971054","category":"47","category_name":"住宅区","address":"鑫城苑K座位于徐汇淮海西路343号11号楼(K座)"},{"poiid":"B2094654D564A6F84399","title":"红坊","lon":"121.42382","lat":"31.19873","category":"183","category_name":"展览馆","address":"红坊位于淮海西路570—588号，南邻徐家汇商业中心，西靠虹桥CBD商务区。"},{"poiid":"B2094654DB6BA7F44592","title":"东骏燕窝鱼翅海鲜酒家","lon":"121.42529","lat":"31.19835","category":"72","category_name":"广东菜","address":"长宁区淮海西路518号(近虹桥路)"},{"poiid":"B2094757D06FA6FE459F","title":"民生现代美术馆","lon":"121.42471","lat":"31.19758","category":"184","category_name":"美术馆","address":"长宁区淮海西路570号红坊创意园区F座(近虹桥路)"},{"poiid":"B2094655D26CA4F9419A","title":"上海市胸科医院","lon":"121.42588","lat":"31.1974","category":"162","category_name":"医院","address":"长宁区淮海西路241号(近番禺路)"},{"poiid":"B2094757D068A3FB489C","title":"雕刻时光咖啡馆(红坊店)","lon":"121.425078586","lat":"31.1992688256","category":"260","category_name":"其他","address":"长宁区淮海西路570号B111"},{"poiid":"B2094757D16CA1F8469C","title":"新淮海坊","lon":"121.42218328","lat":"31.196099263","category":"119","category_name":"商场","address":"长宁区淮海西路680号"},{"poiid":"B2094757D06FA6FE479A","title":"上海城市雕塑艺术中心","lon":"121.42512512","lat":"31.198225021","category":"260","category_name":"其他","address":"长宁区淮海西路568号(近虹桥路)"},{"poiid":"B2094750DA6FAAFE4392","title":"茶香书香(新淮海坊店)","lon":"121.423049","lat":"31.197093","category":"113","category_name":"冷饮店","address":"徐汇区淮海西路676号1-02号铺新淮海坊内(近虹桥路地铁站)"},{"poiid":"B2094654DB69A5F9449C","title":"星巴克(新华路店)","lon":"121.42278","lat":"31.19601","category":"260","category_name":"其他","address":"长宁区淮海西路666号(近虹桥路)"},{"poiid":"B2094750DA6EA1FA499C","title":"On Stage","lon":"121.424015","lat":"31.199642","category":"172","category_name":"酒吧","address":"长宁区淮海西路570号红坊艺术文化社区A2(近虹桥路)"},{"poiid":"B2094757D06EAAFA459B","title":"红坊国际艺术文化社区","lon":"121.4217","lat":"31.19888","category":"260","category_name":"其他","address":"长宁区淮海西路570号红坊创意园区内(近虹桥路)"},{"poiid":"B2094751D26DAAFB449D","title":"Las Tapas","lon":"121.42482","lat":"31.199341","category":"94","category_name":"西餐厅","address":"长宁区淮海西路570号第59幢C6(近凯旋路)"},{"poiid":"B2094655D36CA7F8449A","title":"虹桥路凯旋路","lon":"121.42317","lat":"31.19512","category":"38","category_name":"公交车站","address":""},{"poiid":"B2094757D069ABFB479D","title":"中山万博国际中心","lon":"121.421343","lat":"31.19718","category":"184","category_name":"美术馆","address":"上海淮海西路凯旋路"},{"poiid":"B2094750D268A7FE4499","title":"贝蕾魔法 Black Magic Chocolate","lon":"121.42454624176","lat":"31.197494950511","category":"67","category_name":"甜品店","address":"长宁区淮海西路570号红坊D幢(近虹桥路)"},{"poiid":"B2094654DA6DA2FF4298","title":"三湘大厦","lon":"121.425","lat":"31.2002","category":"250","category_name":"公园户外","address":"上海市中山西路1243号(近虹桥路)"},{"poiid":"B2094757D06BA5FD4593","title":"四号线虹桥路站","lon":"121.421168986","lat":"31.1982426055","category":"500","category_name":"未知分类","address":"上海轨道交通三四号线虹桥路站"},{"poiid":"B2094655D36DA6FD449C","title":"虹桥路","lon":"121.42227","lat":"31.19679","category":"38","category_name":"公交车站","address":"长宁区长宁区虹桥路1010号(靠凯旋路)"},{"poiid":"B2094655D26EAAFD449C","title":"上海市昂立学院(番禺路)","lon":"121.42809","lat":"31.19708","category":"52","category_name":"高等院校","address":"徐汇区番禺路868"},{"poiid":"B2094757D469A0FB4699","title":"克切拉素品茶","lon":"121.4242652","lat":"31.1976016","category":"89","category_name":"中式素餐馆","address":"长宁区淮海西路570号G113单元(近虹桥路)"},{"poiid":"B2094654DA6DA2FF489B","title":"国峰科技大厦","lon":"121.427","lat":"31.1983","category":"46","category_name":"楼宇","address":"闸北区江场西路395号"},{"poiid":"B2094654DB6AA7FA479A","title":"香啡缤 红坊店 Coffee Bean&Tea Leaf","lon":"121.423160054","lat":"31.197249793","category":"260","category_name":"其他","address":"长宁区淮海西路570号红坊创意园区B112室(近虹桥路)"},{"poiid":"B2094757D06FA7F4429F","title":"味千拉面(凯虹店)","lon":"121.42138","lat":"31.19701","category":"95","category_name":"日本料理","address":"长宁区凯旋路1529号轻轨虹桥路站1楼(近虹桥路轻轨站)"},{"poiid":"B2094757D06FA6FE4899","title":"虹桥路凯旋路口","lon":"121.42411","lat":"31.194756","category":"500","category_name":"未知分类","address":"上海虹桥路凯旋路口"},{"poiid":"B2094757D164A1FA489C","title":"十号线虹桥站","lon":"121.421655586","lat":"31.1963447685","category":"500","category_name":"未知分类","address":"上海虹桥路"},{"poiid":"B2094757D06AA1F84793","title":"海螺大厦","lon":"121.426","lat":"31.1985","category":"46","category_name":"楼宇","address":"徐汇区中山西路1277号"},{"poiid":"B2094757D06FA5FE4499","title":"Beca Cafe &amp; Bar","lon":"121.42359","lat":"31.19671","category":"94","category_name":"西餐厅","address":"长宁区淮海西路570号红坊创意园区C-6单元(近虹桥路)"},{"poiid":"B2094750DB65A1FC419A","title":"边城1803","lon":"121.422","lat":"31.19701","category":"77","category_name":"湖南菜","address":"长宁区凯旋路1582号-5新淮海坊内(近虹桥路)"},{"poiid":"B2094750D26EABFC419E","title":"九号线宜山路站","lon":"121.424537","lat":"31.197687","category":"500","category_name":"未知分类","address":null},{"poiid":"B2094750D56FA3FD4399","title":"玖洋捞精品牛肉海鲜火锅","lon":"121.422691","lat":"31.196554","category":"86","category_name":"火锅店","address":"上海市长宁区淮海西路678号新淮海坊内(近虹桥路)"},{"poiid":"B2094753D76FA5FE4093","title":"小黑蚝情","lon":"121.423011","lat":"31.195306","category":"247","category_name":"餐饮美食","address":"上海市 长宁区淮海西路新淮海坊"},{"poiid":"B2094757D66EA5F9429D","title":"苏菲雅","lon":"121.423238586","lat":"31.1985828122","category":"500","category_name":"未知分类","address":"上海淮海西路570号G 108"},{"poiid":"B2094750D568A3F5419B","title":"肯德基(番禺路店)","lon":"121.428","lat":"31.1976","category":"68","category_name":"快餐厅","address":"徐汇区番禺路868号(近虹桥路)"},{"poiid":"B2094654DB69ABFE4292","title":"丰裕餐饮(凯旋店)","lon":"121.42444","lat":"31.19789","category":"68","category_name":"快餐厅","address":"长宁区淮海西路550号(近虹桥路)"},{"poiid":"B2094757D16BA1FB439D","title":"KECHARA TEA HOUSE","lon":"121.423240586","lat":"31.1988928183","category":"500","category_name":"未知分类","address":"上海淮海西路570號28幢G113單元"},{"poiid":"B2094654D564A6F84499","title":"三川大楼","lon":"121.42456","lat":"31.19799","category":"46","category_name":"楼宇","address":"淮海西路520、540号"},{"poiid":"B2094654D564A6F84593","title":"凯利大厦","lon":"121.42693","lat":"31.19923","category":"46","category_name":"楼宇","address":"上海市奉贤区南奉公路8515,8519号"},{"poiid":"B2094655D26CA1FE4398","title":"上海城市雕塑艺术中心(南门)","lon":"121.42433","lat":"31.1979","category":"183","category_name":"展览馆","address":"淮海西路568号"},{"poiid":"B2094654D564A6F84392","title":"好德便利No.409","lon":"121.42463","lat":"31.19797","category":"117","category_name":"便民商店/便利店","address":"淮海西路570-1识别"},{"poiid":"B2094655D26EA1F8459D","title":"阿娟餐厅","lon":"121.42573","lat":"31.19817","category":"68","category_name":"快餐厅","address":"长宁区淮海西路241号胸科医院旁(近番禺路)"},{"poiid":"B2094654DA6DA3F84792","title":"好又多水果店","lon":"121.42487","lat":"31.1978","category":"117","category_name":"便民商店/便利店","address":"淮海西路333"},{"poiid":"B2094757D064A6FA4893","title":"PO","lon":"121.42482067","lat":"31.198814199","category":"249","category_name":"购物服务","address":"上海淮海西路570号B栋101-103"},{"poiid":"B2094655D268A1FE419B","title":"三川大楼(南门)","lon":"121.42494","lat":"31.19808","category":"49","category_name":"无中心点楼宇大门","address":"淮海西路520-540"},{"poiid":"B2094655D26AA6F9429C","title":"上海设计图书馆","lon":"121.42512","lat":"31.19822","category":"247","category_name":"餐饮美食","address":"长宁区淮海西路570号"},{"poiid":"B2094757D068A0F8479E","title":"The Coffee Bean(红坊店)","lon":"121.42402358","lat":"31.200390847","category":"65","category_name":"咖啡厅","address":"上海红坊b 112"},{"poiid":"B2094654DA6DA3F8489A","title":"情缘花店","lon":"121.42491","lat":"31.19783","category":"117","category_name":"便民商店/便利店","address":""},{"poiid":"B2094654DB64AAFB4498","title":"Cici Club","lon":"121.42449","lat":"31.19857","category":"172","category_name":"酒吧","address":"淮海西路570"},{"poiid":"B2094752D26CA2F94599","title":"串坊创意烧肉餐吧","lon":"121.42284","lat":"31.19605","category":"269","category_name":"烧烤","address":"长宁区淮海西路686号新淮海坊内(近虹桥路地铁站)"},{"poiid":"B2094757DA69A3FA4399","title":"苏菲雅婚纱摄影","lon":"121.42310448742","lat":"31.198502409153","category":"611","category_name":"照相馆","address":"上海市淮海西路570号红坊艺术园区内G108单元"},{"poiid":"B2094750D569A5FC419E","title":"鑫城苑K座","lon":"121.4251022","lat":"31.1971054","category":"47","category_name":"住宅区","address":"鑫城苑K座位于徐汇淮海西路343号11号楼(K座)"},{"poiid":"B2094654D564A6F84399","title":"红坊","lon":"121.42382","lat":"31.19873","category":"183","category_name":"展览馆","address":"红坊位于淮海西路570—588号，南邻徐家汇商业中心，西靠虹桥CBD商务区。"},{"poiid":"B2094654DB6BA7F44592","title":"东骏燕窝鱼翅海鲜酒家","lon":"121.42529","lat":"31.19835","category":"72","category_name":"广东菜","address":"长宁区淮海西路518号(近虹桥路)"},{"poiid":"B2094757D06FA6FE459F","title":"民生现代美术馆","lon":"121.42471","lat":"31.19758","category":"184","category_name":"美术馆","address":"长宁区淮海西路570号红坊创意园区F座(近虹桥路)"},{"poiid":"B2094655D26CA4F9419A","title":"上海市胸科医院","lon":"121.42588","lat":"31.1974","category":"162","category_name":"医院","address":"长宁区淮海西路241号(近番禺路)"},{"poiid":"B2094757D068A3FB489C","title":"雕刻时光咖啡馆(红坊店)","lon":"121.425078586","lat":"31.1992688256","category":"260","category_name":"其他","address":"长宁区淮海西路570号B111"},{"poiid":"B2094757D16CA1F8469C","title":"新淮海坊","lon":"121.42218328","lat":"31.196099263","category":"119","category_name":"商场","address":"长宁区淮海西路680号"},{"poiid":"B2094757D06FA6FE479A","title":"上海城市雕塑艺术中心","lon":"121.42512512","lat":"31.198225021","category":"260","category_name":"其他","address":"长宁区淮海西路568号(近虹桥路)"},{"poiid":"B2094750DA6FAAFE4392","title":"茶香书香(新淮海坊店)","lon":"121.423049","lat":"31.197093","category":"113","category_name":"冷饮店","address":"徐汇区淮海西路676号1-02号铺新淮海坊内(近虹桥路地铁站)"},{"poiid":"B2094654DB69A5F9449C","title":"星巴克(新华路店)","lon":"121.42278","lat":"31.19601","category":"260","category_name":"其他","address":"长宁区淮海西路666号(近虹桥路)"},{"poiid":"B2094750DA6EA1FA499C","title":"On Stage","lon":"121.424015","lat":"31.199642","category":"172","category_name":"酒吧","address":"长宁区淮海西路570号红坊艺术文化社区A2(近虹桥路)"},{"poiid":"B2094757D06EAAFA459B","title":"红坊国际艺术文化社区","lon":"121.4217","lat":"31.19888","category":"260","category_name":"其他","address":"长宁区淮海西路570号红坊创意园区内(近虹桥路)"},{"poiid":"B2094751D26DAAFB449D","title":"Las Tapas","lon":"121.42482","lat":"31.199341","category":"94","category_name":"西餐厅","address":"长宁区淮海西路570号第59幢C6(近凯旋路)"},{"poiid":"B2094655D36CA7F8449A","title":"虹桥路凯旋路","lon":"121.42317","lat":"31.19512","category":"38","category_name":"公交车站","address":""},{"poiid":"B2094757D069ABFB479D","title":"中山万博国际中心","lon":"121.421343","lat":"31.19718","category":"184","category_name":"美术馆","address":"上海淮海西路凯旋路"},{"poiid":"B2094750D268A7FE4499","title":"贝蕾魔法 Black Magic Chocolate","lon":"121.42454624176","lat":"31.197494950511","category":"67","category_name":"甜品店","address":"长宁区淮海西路570号红坊D幢(近虹桥路)"},{"poiid":"B2094654DA6DA2FF4298","title":"三湘大厦","lon":"121.425","lat":"31.2002","category":"250","category_name":"公园户外","address":"上海市中山西路1243号(近虹桥路)"},{"poiid":"B2094757D06BA5FD4593","title":"四号线虹桥路站","lon":"121.421168986","lat":"31.1982426055","category":"500","category_name":"未知分类","address":"上海轨道交通三四号线虹桥路站"},{"poiid":"B2094655D36DA6FD449C","title":"虹桥路","lon":"121.42227","lat":"31.19679","category":"38","category_name":"公交车站","address":"长宁区长宁区虹桥路1010号(靠凯旋路)"},{"poiid":"B2094655D26EAAFD449C","title":"上海市昂立学院(番禺路)","lon":"121.42809","lat":"31.19708","category":"52","category_name":"高等院校","address":"徐汇区番禺路868"},{"poiid":"B2094757D469A0FB4699","title":"克切拉素品茶","lon":"121.4242652","lat":"31.1976016","category":"89","category_name":"中式素餐馆","address":"长宁区淮海西路570号G113单元(近虹桥路)"},{"poiid":"B2094654DA6DA2FF489B","title":"国峰科技大厦","lon":"121.427","lat":"31.1983","category":"46","category_name":"楼宇","address":"闸北区江场西路395号"},{"poiid":"B2094654DB6AA7FA479A","title":"香啡缤 红坊店 Coffee Bean&Tea Leaf","lon":"121.423160054","lat":"31.197249793","category":"260","category_name":"其他","address":"长宁区淮海西路570号红坊创意园区B112室(近虹桥路)"},{"poiid":"B2094757D06FA7F4429F","title":"味千拉面(凯虹店)","lon":"121.42138","lat":"31.19701","category":"95","category_name":"日本料理","address":"长宁区凯旋路1529号轻轨虹桥路站1楼(近虹桥路轻轨站)"},{"poiid":"B2094757D06FA6FE4899","title":"虹桥路凯旋路口","lon":"121.42411","lat":"31.194756","category":"500","category_name":"未知分类","address":"上海虹桥路凯旋路口"},{"poiid":"B2094757D164A1FA489C","title":"十号线虹桥站","lon":"121.421655586","lat":"31.1963447685","category":"500","category_name":"未知分类","address":"上海虹桥路"},{"poiid":"B2094757D06AA1F84793","title":"海螺大厦","lon":"121.426","lat":"31.1985","category":"46","category_name":"楼宇","address":"徐汇区中山西路1277号"},{"poiid":"B2094757D06FA5FE4499","title":"Beca Cafe &amp; Bar","lon":"121.42359","lat":"31.19671","category":"94","category_name":"西餐厅","address":"长宁区淮海西路570号红坊创意园区C-6单元(近虹桥路)"},{"poiid":"B2094750DB65A1FC419A","title":"边城1803","lon":"121.422","lat":"31.19701","category":"77","category_name":"湖南菜","address":"长宁区凯旋路1582号-5新淮海坊内(近虹桥路)"},{"poiid":"B2094750D26EABFC419E","title":"九号线宜山路站","lon":"121.424537","lat":"31.197687","category":"500","category_name":"未知分类","address":null},{"poiid":"B2094750D56FA3FD4399","title":"玖洋捞精品牛肉海鲜火锅","lon":"121.422691","lat":"31.196554","category":"86","category_name":"火锅店","address":"上海市长宁区淮海西路678号新淮海坊内(近虹桥路)"},{"poiid":"B2094753D76FA5FE4093","title":"小黑蚝情","lon":"121.423011","lat":"31.195306","category":"247","category_name":"餐饮美食","address":"上海市 长宁区淮海西路新淮海坊"},{"poiid":"B2094757D66EA5F9429D","title":"苏菲雅","lon":"121.423238586","lat":"31.1985828122","category":"500","category_name":"未知分类","address":"上海淮海西路570号G 108"},{"poiid":"B2094750D568A3F5419B","title":"肯德基(番禺路店)","lon":"121.428","lat":"31.1976","category":"68","category_name":"快餐厅","address":"徐汇区番禺路868号(近虹桥路)"},{"poiid":"B2094654DB69ABFE4292","title":"丰裕餐饮(凯旋店)","lon":"121.42444","lat":"31.19789","category":"68","category_name":"快餐厅","address":"长宁区淮海西路550号(近虹桥路)"},{"poiid":"B2094757D16BA1FB439D","title":"KECHARA TEA HOUSE","lon":"121.423240586","lat":"31.1988928183","category":"500","category_name":"未知分类","address":"上海淮海西路570號28幢G113單元"},{"poiid":"B2094654D564A6F84499","title":"三川大楼","lon":"121.42456","lat":"31.19799","category":"46","category_name":"楼宇","address":"淮海西路520、540号"},{"poiid":"B2094654D564A6F84593","title":"凯利大厦","lon":"121.42693","lat":"31.19923","category":"46","category_name":"楼宇","address":"上海市奉贤区南奉公路8515,8519号"},{"poiid":"B2094655D26CA1FE4398","title":"上海城市雕塑艺术中心(南门)","lon":"121.42433","lat":"31.1979","category":"183","category_name":"展览馆","address":"淮海西路568号"},{"poiid":"B2094654D564A6F84392","title":"好德便利No.409","lon":"121.42463","lat":"31.19797","category":"117","category_name":"便民商店/便利店","address":"淮海西路570-1识别"},{"poiid":"B2094655D26EA1F8459D","title":"阿娟餐厅","lon":"121.42573","lat":"31.19817","category":"68","category_name":"快餐厅","address":"长宁区淮海西路241号胸科医院旁(近番禺路)"},{"poiid":"B2094654DA6DA3F84792","title":"好又多水果店","lon":"121.42487","lat":"31.1978","category":"117","category_name":"便民商店/便利店","address":"淮海西路333"},{"poiid":"B2094757D064A6FA4893","title":"PO","lon":"121.42482067","lat":"31.198814199","category":"249","category_name":"购物服务","address":"上海淮海西路570号B栋101-103"},{"poiid":"B2094655D268A1FE419B","title":"三川大楼(南门)","lon":"121.42494","lat":"31.19808","category":"49","category_name":"无中心点楼宇大门","address":"淮海西路520-540"},{"poiid":"B2094655D26AA6F9429C","title":"上海设计图书馆","lon":"121.42512","lat":"31.19822","category":"247","category_name":"餐饮美食","address":"长宁区淮海西路570号"},{"poiid":"B2094757D068A0F8479E","title":"The Coffee Bean(红坊店)","lon":"121.42402358","lat":"31.200390847","category":"65","category_name":"咖啡厅","address":"上海红坊b 112"},{"poiid":"B2094654DA6DA3F8489A","title":"情缘花店","lon":"121.42491","lat":"31.19783","category":"117","category_name":"便民商店/便利店","address":""},{"poiid":"B2094654DB64AAFB4498","title":"Cici Club","lon":"121.42449","lat":"31.19857","category":"172","category_name":"酒吧","address":"淮海西路570"},{"poiid":"B2094752D26CA2F94599","title":"串坊创意烧肉餐吧","lon":"121.42284","lat":"31.19605","category":"269","category_name":"烧烤","address":"长宁区淮海西路686号新淮海坊内(近虹桥路地铁站)"},{"poiid":"B2094757DA69A3FA4399","title":"苏菲雅婚纱摄影","lon":"121.42310448742","lat":"31.198502409153","category":"611","category_name":"照相馆","address":"上海市淮海西路570号红坊艺术园区内G108单元"},{"poiid":"B2094750D569A5FC419E","title":"鑫城苑K座","lon":"121.4251022","lat":"31.1971054","category":"47","category_name":"住宅区","address":"鑫城苑K座位于徐汇淮海西路343号11号楼(K座)"}]