[{"poiid":"B2094757D06FA4F8459F","title":"滨江欣景大酒店(Riverview Hotel)","lon":"121.49992806","lat":"31.224301883","category":"76","category_name":"上海菜","address":"黄浦区中山南路76号(会馆弄中山南路)"},{"poiid":"B2094757D06FA7FC4292","title":"浦江游轮","lon":"121.50081","lat":"31.22468","category":"260","category_name":"其他","address":"黄浦区十六铺站－公平路码头(会馆弄中山南路)查看地图"},{"poiid":"B2094757D069A1F4479A","title":"人民廣場","lon":"121.496820738","lat":"31.2194660707","category":"500","category_name":"未知分类","address":"上海人民大道"},{"poiid":"B209475CD564A7F84292","title":"上海滩新天地店","lon":"121.47463","lat":"31.22164","category":"119","category_name":"商场","address":"\"太仓路181弄新天地北里15号\r\n\""},{"poiid":"B209475CD564A7F84392","title":"上海滩浦东香格里拉店","lon":"121.50058","lat":"31.23634","category":"119","category_name":"商场","address":"浦东富成路33号香格里拉酒店内大堂层"},{"poiid":"B2094757D068A7FA469E","title":"上海滩花园","lon":"121.49937","lat":"31.219301","category":"47","category_name":"住宅区","address":"上海市黄浦区紫霞路199弄"},{"poiid":"B2094654DB69A6F84893","title":"外滩.滨江名人苑","lon":"121.49835","lat":"31.223482","category":"47","category_name":"住宅区","address":"黄浦区中华路88弄"},{"poiid":"B2094757D06BA6FE459E","title":"人民广场二号线","lon":"121.49682073","lat":"31.21946607","category":"500","category_name":"未知分类","address":"上海人民广场"},{"poiid":"B2094757D16DA0FB4493","title":"东方国际金融广场","lon":"121.502364","lat":"31.2216","category":"500","category_name":"未知分类","address":"上海中山南路318号"},{"poiid":"B2094655D268A1F94298","title":"浦港味道","lon":"121.50274","lat":"31.22101","category":"72","category_name":"广东菜","address":"黄浦区白渡路111号4-6楼(中山南路口)"},{"poiid":"B2094757D06FABF54298","title":"威尔士健身会所(白渡路店)","lon":"121.49957","lat":"31.21878","category":"221","category_name":"健身中心","address":"黄浦区白渡路288号(近中华路)"},{"poiid":"B2094757D168A0F8489B","title":"fesco adecco","lon":"121.49748523","lat":"31.224477577","category":"500","category_name":"未知分类","address":"上海市中山南路28号久事大厦附楼"},{"poiid":"B2094757D06AA5FA409A","title":"大块头排挡","lon":"121.49559","lat":"31.22314","category":"76","category_name":"上海菜","address":"黄浦区四牌楼106号(学院路口)"},{"poiid":"B2094757D065A3F94293","title":"绿地名人坊","lon":"121.49805","lat":"31.218195","category":"500","category_name":"未知分类","address":"上海市黄浦区中华路429弄"},{"poiid":"B2094655D268A6F8459A","title":"浦江公馆","lon":"121.49944","lat":"31.222755","category":"47","category_name":"住宅区","address":"中华路168弄"},{"poiid":"B2094757D06FA7FC4898","title":"十六铺面料城","lon":"121.49869","lat":"31.22476","category":"249","category_name":"购物服务","address":"黄浦区东门路168号(近中山东二路)"},{"poiid":"B2094750D269A0FD499F","title":"山海亭","lon":"121.497116","lat":"31.223377","category":"500","category_name":"未知分类","address":"河南南路489号"},{"poiid":"B2094757D064A2FB4693","title":"阳浩大酒店","lon":"121.498119638","lat":"31.2197694772","category":"72","category_name":"广东菜","address":"黄浦区中华路388号"},{"poiid":"B2094757D06BA4F8429F","title":"wills上海滩花园会所","lon":"121.495963271","lat":"31.2189213869","category":"500","category_name":"未知分类","address":"白渡路288号上海滩花园内"},{"poiid":"B2094757D06FABF4459F","title":"十六铺公交枢纽站","lon":"121.498995","lat":"31.223048","category":"38","category_name":"公交车站","address":"上海中山东二路新开河路"},{"poiid":"B2094654DA6EABFF419E","title":"上海市市八初级中学","lon":"121.50007","lat":"31.22189","category":"55","category_name":"中学","address":"西姚家弄48"},{"poiid":"B2094655D36CA5FC479C","title":"大东门","lon":"121.49895","lat":"31.22057","category":"38","category_name":"公交车站","address":""},{"poiid":"B2094654DA6EABF84198","title":"圣莲大厦","lon":"121.49686","lat":"31.222799","category":"47","category_name":"住宅区","address":"上海市黄浦区学院路28弄"},{"poiid":"B2094757D065A0F4489F","title":"二号线江苏路站","lon":"121.498002738","lat":"31.2190720623","category":"500","category_name":"未知分类","address":"上海市江苏路"},{"poiid":"B2094655D268A6F84598","title":"东业大厦","lon":"121.49831","lat":"31.222387","category":"47","category_name":"住宅区","address":"上海市黄浦区中华路185号"},{"poiid":"B2094757D06AA1FC4999","title":"农业银行信用卡中心","lon":"121.50236511","lat":"31.221599578","category":"46","category_name":"楼宇","address":"上海中山南二路318号新源广场"},{"poiid":"B2094655D36DA7FF489E","title":"中华路大东门","lon":"121.49897","lat":"31.22056","category":"38","category_name":"公交车站","address":""},{"poiid":"B2094654DA6EABFF4098","title":"中复小区","lon":"121.49837","lat":"31.221653","category":"47","category_name":"住宅区","address":"中华路211弄1-20号"},{"poiid":"B2094654DA6EABFF409B","title":"紫霞幼儿园","lon":"121.49873","lat":"31.22194","category":"57","category_name":"幼儿园","address":"黄浦区中华路195号(近复兴东路)"},{"poiid":"B2094757D165A4F44399","title":"莱福士devil nut","lon":"121.498670638","lat":"31.2217578196","category":"247","category_name":"餐饮美食","address":"上海莱福士四楼"},{"poiid":"B2094654DA6FA3F44393","title":"东门广场","lon":"121.49784","lat":"31.21898","category":"202","category_name":"公园广场","address":"金坛路"},{"poiid":"B2094654DA6FA3F84392","title":"中复大楼","lon":"121.49954","lat":"31.22043","category":"46","category_name":"楼宇","address":"复兴东路248"},{"poiid":"B2094757D16EA7FC489C","title":"光启路夜市烧烤","lon":"121.49907987","lat":"31.221208597","category":"247","category_name":"餐饮美食","address":"上海光启南路复兴东路"},{"poiid":"B2094654DB6BA4FB4998","title":"可的","lon":"121.49877","lat":"31.22055","category":"117","category_name":"便民商店/便利店","address":"黄浦区中华路305号(面筋弄中华路)"},{"poiid":"B2094654DA6FA3F8459F","title":"东仁商贸中心","lon":"121.49907","lat":"31.22033","category":"46","category_name":"楼宇","address":"中华路308号东仁商贸中心503"},{"poiid":"B2094655D26FA7F9439D","title":"中复小区(东门)","lon":"121.49879","lat":"31.22179","category":"47","category_name":"住宅区","address":"中华路211弄1-20号"},{"poiid":"B2094753DB6FA1FB449F","title":"如家快捷酒店(上海外滩城隍庙小南门地铁站店)","lon":"121.4994861","lat":"31.2208815","category":"216","category_name":"经济型连锁酒店","address":"上海黄浦区复兴东路260号"},{"poiid":"B2094655D26FA5FF4999","title":"悦来小区","lon":"121.49946","lat":"31.22034","category":"47","category_name":"住宅区","address":"悦来街38弄2-3号"},{"poiid":"B2094757D66CA0F44692","title":"love cafe-心动时光","lon":"121.49917373","lat":"31.218717054","category":"260","category_name":"其他","address":"黄浦区沙场街27-29号上海滩花园商业街内(近中华路)"},{"poiid":"B2094655D36CA6FA429D","title":"豆市街复兴东路","lon":"121.50216","lat":"31.22114","category":"38","category_name":"公交车站","address":""},{"poiid":"B2094654DA6EABF8469E","title":"东街旧货市场(南门)","lon":"121.4974","lat":"31.2218","category":"121","category_name":"旧货市场","address":""},{"poiid":"B2094654DA6FA3F8469E","title":"良友金伴(白渡路)","lon":"121.49948","lat":"31.21994","category":"117","category_name":"便民商店/便利店","address":"白渡路301"},{"poiid":"B2094654DA6FA3F8439B","title":"悦来小区(东门)","lon":"121.49968","lat":"31.22022","category":"47","category_name":"住宅区","address":"悦来街38弄2-3号"},{"poiid":"B2094757D66CA3F94992","title":"复兴东路光启路公交站","lon":"121.496228938","lat":"31.2219101228","category":"38","category_name":"公交车站","address":"上海黄浦区复兴东路光启路，24路，64路，581路车站"},{"poiid":"B2094655D26FA7F9489C","title":"江夏里小区(南门)","lon":"121.49787","lat":"31.22154","category":"47","category_name":"住宅区","address":"复兴东路349弄4-31号"},{"poiid":"B2094654DA6EABF8469C","title":"江夏里小区","lon":"121.49806","lat":"31.22172","category":"47","category_name":"住宅区","address":"复兴东路349弄4-31号"},{"poiid":"B2094654DA6EABFF409A","title":"上海嘉缘假日宾馆","lon":"121.49838","lat":"31.22249","category":"215","category_name":"三星级宾馆","address":"中华路179号3层"},{"poiid":"B2094655D26CA4F5469E","title":"鸿藻坊(巡道街)","lon":"121.49755","lat":"31.22033","category":"47","category_name":"住宅区","address":"巡道街37弄1-15号"},{"poiid":"B2094654DB64AAF5409E","title":"黄浦区小东门街道图书馆","lon":"121.49636","lat":"31.22019","category":"181","category_name":"图书馆","address":"大夫坊91号"},{"poiid":"B2094655D26BA7F94792","title":"上海市黄浦区中华托儿所","lon":"121.49749","lat":"31.22191","category":"57","category_name":"幼儿园","address":"东街160"},{"poiid":"B2094757D06FA4F8459F","title":"滨江欣景大酒店(Riverview Hotel)","lon":"121.49992806","lat":"31.224301883","category":"76","category_name":"上海菜","address":"黄浦区中山南路76号(会馆弄中山南路)"},{"poiid":"B2094757D06FA7FC4292","title":"浦江游轮","lon":"121.50081","lat":"31.22468","category":"260","category_name":"其他","address":"黄浦区十六铺站－公平路码头(会馆弄中山南路)查看地图"},{"poiid":"B2094757D069A1F4479A","title":"人民廣場","lon":"121.496820738","lat":"31.2194660707","category":"500","category_name":"未知分类","address":"上海人民大道"},{"poiid":"B209475CD564A7F84292","title":"上海滩新天地店","lon":"121.47463","lat":"31.22164","category":"119","category_name":"商场","address":"\"太仓路181弄新天地北里15号\r\n\""},{"poiid":"B209475CD564A7F84392","title":"上海滩浦东香格里拉店","lon":"121.50058","lat":"31.23634","category":"119","category_name":"商场","address":"浦东富成路33号香格里拉酒店内大堂层"},{"poiid":"B2094757D068A7FA469E","title":"上海滩花园","lon":"121.49937","lat":"31.219301","category":"47","category_name":"住宅区","address":"上海市黄浦区紫霞路199弄"},{"poiid":"B2094654DB69A6F84893","title":"外滩.滨江名人苑","lon":"121.49835","lat":"31.223482","category":"47","category_name":"住宅区","address":"黄浦区中华路88弄"},{"poiid":"B2094757D06BA6FE459E","title":"人民广场二号线","lon":"121.49682073","lat":"31.21946607","category":"500","category_name":"未知分类","address":"上海人民广场"},{"poiid":"B2094757D16DA0FB4493","title":"东方国际金融广场","lon":"121.502364","lat":"31.2216","category":"500","category_name":"未知分类","address":"上海中山南路318号"},{"poiid":"B2094655D268A1F94298","title":"浦港味道","lon":"121.50274","lat":"31.22101","category":"72","category_name":"广东菜","address":"黄浦区白渡路111号4-6楼(中山南路口)"},{"poiid":"B2094757D06FABF54298","title":"威尔士健身会所(白渡路店)","lon":"121.49957","lat":"31.21878","category":"221","category_name":"健身中心","address":"黄浦区白渡路288号(近中华路)"},{"poiid":"B2094757D168A0F8489B","title":"fesco adecco","lon":"121.49748523","lat":"31.224477577","category":"500","category_name":"未知分类","address":"上海市中山南路28号久事大厦附楼"},{"poiid":"B2094757D06AA5FA409A","title":"大块头排挡","lon":"121.49559","lat":"31.22314","category":"76","category_name":"上海菜","address":"黄浦区四牌楼106号(学院路口)"},{"poiid":"B2094757D065A3F94293","title":"绿地名人坊","lon":"121.49805","lat":"31.218195","category":"500","category_name":"未知分类","address":"上海市黄浦区中华路429弄"},{"poiid":"B2094655D268A6F8459A","title":"浦江公馆","lon":"121.49944","lat":"31.222755","category":"47","category_name":"住宅区","address":"中华路168弄"},{"poiid":"B2094757D06FA7FC4898","title":"十六铺面料城","lon":"121.49869","lat":"31.22476","category":"249","category_name":"购物服务","address":"黄浦区东门路168号(近中山东二路)"},{"poiid":"B2094750D269A0FD499F","title":"山海亭","lon":"121.497116","lat":"31.223377","category":"500","category_name":"未知分类","address":"河南南路489号"},{"poiid":"B2094757D064A2FB4693","title":"阳浩大酒店","lon":"121.498119638","lat":"31.2197694772","category":"72","category_name":"广东菜","address":"黄浦区中华路388号"},{"poiid":"B2094757D06BA4F8429F","title":"wills上海滩花园会所","lon":"121.495963271","lat":"31.2189213869","category":"500","category_name":"未知分类","address":"白渡路288号上海滩花园内"},{"poiid":"B2094757D06FABF4459F","title":"十六铺公交枢纽站","lon":"121.498995","lat":"31.223048","category":"38","category_name":"公交车站","address":"上海中山东二路新开河路"},{"poiid":"B2094654DA6EABFF419E","title":"上海市市八初级中学","lon":"121.50007","lat":"31.22189","category":"55","category_name":"中学","address":"西姚家弄48"},{"poiid":"B2094655D36CA5FC479C","title":"大东门","lon":"121.49895","lat":"31.22057","category":"38","category_name":"公交车站","address":""},{"poiid":"B2094654DA6EABF84198","title":"圣莲大厦","lon":"121.49686","lat":"31.222799","category":"47","category_name":"住宅区","address":"上海市黄浦区学院路28弄"},{"poiid":"B2094757D065A0F4489F","title":"二号线江苏路站","lon":"121.498002738","lat":"31.2190720623","category":"500","category_name":"未知分类","address":"上海市江苏路"},{"poiid":"B2094655D268A6F84598","title":"东业大厦","lon":"121.49831","lat":"31.222387","category":"47","category_name":"住宅区","address":"上海市黄浦区中华路185号"},{"poiid":"B2094757D06AA1FC4999","title":"农业银行信用卡中心","lon":"121.50236511","lat":"31.221599578","category":"46","category_name":"楼宇","address":"上海中山南二路318号新源广场"},{"poiid":"B2094655D36DA7FF489E","title":"中华路大东门","lon":"121.49897","lat":"31.22056","category":"38","category_name":"公交车站","address":""},{"poiid":"B2094654DA6EABFF4098","title":"中复小区","lon":"121.49837","lat":"31.221653","category":"47","category_name":"住宅区","address":"中华路211弄1-20号"},{"poiid":"B2094654DA6EABFF409B","title":"紫霞幼儿园","lon":"121.49873","lat":"31.22194","category":"57","category_name":"幼儿园","address":"黄浦区中华路195号(近复兴东路)"},{"poiid":"B2094757D165A4F44399","title":"莱福士devil nut","lon":"121.498670638","lat":"31.2217578196","category":"247","category_name":"餐饮美食","address":"上海莱福士四楼"},{"poiid":"B2094654DA6FA3F44393","title":"东门广场","lon":"121.49784","lat":"31.21898","category":"202","category_name":"公园广场","address":"金坛路"},{"poiid":"B2094654DA6FA3F84392","title":"中复大楼","lon":"121.49954","lat":"31.22043","category":"46","category_name":"楼宇","address":"复兴东路248"},{"poiid":"B2094757D16EA7FC489C","title":"光启路夜市烧烤","lon":"121.49907987","lat":"31.221208597","category":"247","category_name":"餐饮美食","address":"上海光启南路复兴东路"},{"poiid":"B2094654DB6BA4FB4998","title":"可的","lon":"121.49877","lat":"31.22055","category":"117","category_name":"便民商店/便利店","address":"黄浦区中华路305号(面筋弄中华路)"},{"poiid":"B2094654DA6FA3F8459F","title":"东仁商贸中心","lon":"121.49907","lat":"31.22033","category":"46","category_name":"楼宇","address":"中华路308号东仁商贸中心503"},{"poiid":"B2094655D26FA7F9439D","title":"中复小区(东门)","lon":"121.49879","lat":"31.22179","category":"47","category_name":"住宅区","address":"中华路211弄1-20号"},{"poiid":"B2094753DB6FA1FB449F","title":"如家快捷酒店(上海外滩城隍庙小南门地铁站店)","lon":"121.4994861","lat":"31.2208815","category":"216","category_name":"经济型连锁酒店","address":"上海黄浦区复兴东路260号"},{"poiid":"B2094655D26FA5FF4999","title":"悦来小区","lon":"121.49946","lat":"31.22034","category":"47","category_name":"住宅区","address":"悦来街38弄2-3号"},{"poiid":"B2094757D66CA0F44692","title":"love cafe-心动时光","lon":"121.49917373","lat":"31.218717054","category":"260","category_name":"其他","address":"黄浦区沙场街27-29号上海滩花园商业街内(近中华路)"},{"poiid":"B2094655D36CA6FA429D","title":"豆市街复兴东路","lon":"121.50216","lat":"31.22114","category":"38","category_name":"公交车站","address":""},{"poiid":"B2094654DA6EABF8469E","title":"东街旧货市场(南门)","lon":"121.4974","lat":"31.2218","category":"121","category_name":"旧货市场","address":""},{"poiid":"B2094654DA6FA3F8469E","title":"良友金伴(白渡路)","lon":"121.49948","lat":"31.21994","category":"117","category_name":"便民商店/便利店","address":"白渡路301"},{"poiid":"B2094654DA6FA3F8439B","title":"悦来小区(东门)","lon":"121.49968","lat":"31.22022","category":"47","category_name":"住宅区","address":"悦来街38弄2-3号"},{"poiid":"B2094757D66CA3F94992","title":"复兴东路光启路公交站","lon":"121.496228938","lat":"31.2219101228","category":"38","category_name":"公交车站","address":"上海黄浦区复兴东路光启路，24路，64路，581路车站"},{"poiid":"B2094655D26FA7F9489C","title":"江夏里小区(南门)","lon":"121.49787","lat":"31.22154","category":"47","category_name":"住宅区","address":"复兴东路349弄4-31号"},{"poiid":"B2094654DA6EABF8469C","title":"江夏里小区","lon":"121.49806","lat":"31.22172","category":"47","category_name":"住宅区","address":"复兴东路349弄4-31号"},{"poiid":"B2094654DA6EABFF409A","title":"上海嘉缘假日宾馆","lon":"121.49838","lat":"31.22249","category":"215","category_name":"三星级宾馆","address":"中华路179号3层"},{"poiid":"B2094655D26CA4F5469E","title":"鸿藻坊(巡道街)","lon":"121.49755","lat":"31.22033","category":"47","category_name":"住宅区","address":"巡道街37弄1-15号"},{"poiid":"B2094654DB64AAF5409E","title":"黄浦区小东门街道图书馆","lon":"121.49636","lat":"31.22019","category":"181","category_name":"图书馆","address":"大夫坊91号"},{"poiid":"B2094655D26BA7F94792","title":"上海市黄浦区中华托儿所","lon":"121.49749","lat":"31.22191","category":"57","category_name":"幼儿园","address":"东街160"},{"poiid":"B2094757D06FA4F8459F","title":"滨江欣景大酒店(Riverview Hotel)","lon":"121.49992806","lat":"31.224301883","category":"76","category_name":"上海菜","address":"黄浦区中山南路76号(会馆弄中山南路)"},{"poiid":"B2094757D06FA7FC4292","title":"浦江游轮","lon":"121.50081","lat":"31.22468","category":"260","category_name":"其他","address":"黄浦区十六铺站－公平路码头(会馆弄中山南路)查看地图"},{"poiid":"B2094757D069A1F4479A","title":"人民廣場","lon":"121.496820738","lat":"31.2194660707","category":"500","category_name":"未知分类","address":"上海人民大道"},{"poiid":"B209475CD564A7F84292","title":"上海滩新天地店","lon":"121.47463","lat":"31.22164","category":"119","category_name":"商场","address":"\"太仓路181弄新天地北里15号\r\n\""},{"poiid":"B209475CD564A7F84392","title":"上海滩浦东香格里拉店","lon":"121.50058","lat":"31.23634","category":"119","category_name":"商场","address":"浦东富成路33号香格里拉酒店内大堂层"},{"poiid":"B2094757D068A7FA469E","title":"上海滩花园","lon":"121.49937","lat":"31.219301","category":"47","category_name":"住宅区","address":"上海市黄浦区紫霞路199弄"},{"poiid":"B2094654DB69A6F84893","title":"外滩.滨江名人苑","lon":"121.49835","lat":"31.223482","category":"47","category_name":"住宅区","address":"黄浦区中华路88弄"},{"poiid":"B2094757D06BA6FE459E","title":"人民广场二号线","lon":"121.49682073","lat":"31.21946607","category":"500","category_name":"未知分类","address":"上海人民广场"},{"poiid":"B2094757D16DA0FB4493","title":"东方国际金融广场","lon":"121.502364","lat":"31.2216","category":"500","category_name":"未知分类","address":"上海中山南路318号"},{"poiid":"B2094655D268A1F94298","title":"浦港味道","lon":"121.50274","lat":"31.22101","category":"72","category_name":"广东菜","address":"黄浦区白渡路111号4-6楼(中山南路口)"},{"poiid":"B2094757D06FABF54298","title":"威尔士健身会所(白渡路店)","lon":"121.49957","lat":"31.21878","category":"221","category_name":"健身中心","address":"黄浦区白渡路288号(近中华路)"},{"poiid":"B2094757D168A0F8489B","title":"fesco adecco","lon":"121.49748523","lat":"31.224477577","category":"500","category_name":"未知分类","address":"上海市中山南路28号久事大厦附楼"},{"poiid":"B2094757D06AA5FA409A","title":"大块头排挡","lon":"121.49559","lat":"31.22314","category":"76","category_name":"上海菜","address":"黄浦区四牌楼106号(学院路口)"},{"poiid":"B2094757D065A3F94293","title":"绿地名人坊","lon":"121.49805","lat":"31.218195","category":"500","category_name":"未知分类","address":"上海市黄浦区中华路429弄"},{"poiid":"B2094655D268A6F8459A","title":"浦江公馆","lon":"121.49944","lat":"31.222755","category":"47","category_name":"住宅区","address":"中华路168弄"},{"poiid":"B2094757D06FA7FC4898","title":"十六铺面料城","lon":"121.49869","lat":"31.22476","category":"249","category_name":"购物服务","address":"黄浦区东门路168号(近中山东二路)"},{"poiid":"B2094750D269A0FD499F","title":"山海亭","lon":"121.497116","lat":"31.223377","category":"500","category_name":"未知分类","address":"河南南路489号"},{"poiid":"B2094757D064A2FB4693","title":"阳浩大酒店","lon":"121.498119638","lat":"31.2197694772","category":"72","category_name":"广东菜","address":"黄浦区中华路388号"},{"poiid":"B2094757D06BA4F8429F","title":"wills上海滩花园会所","lon":"121.495963271","lat":"31.2189213869","category":"500","category_name":"未知分类","address":"白渡路288号上海滩花园内"},{"poiid":"B2094757D06FABF4459F","title":"十六铺公交枢纽站","lon":"121.498995","lat":"31.223048","category":"38","category_name":"公交车站","address":"上海中山东二路新开河路"},{"poiid":"B2094654DA6EABFF419E","title":"上海市市八初级中学","lon":"121.50007","lat":"31.22189","category":"55","category_name":"中学","address":"西姚家弄48"},{"poiid":"B2094655D36CA5FC479C","title":"大东门","lon":"121.49895","lat":"31.22057","category":"38","category_name":"公交车站","address":""},{"poiid":"B2094654DA6EABF84198","title":"圣莲大厦","lon":"121.49686","lat":"31.222799","category":"47","category_name":"住宅区","address":"上海市黄浦区学院路28弄"},{"poiid":"B2094757D065A0F4489F","title":"二号线江苏路站","lon":"121.498002738","lat":"31.2190720623","category":"500","category_name":"未知分类","address":"上海市江苏路"},{"poiid":"B2094655D268A6F84598","title":"东业大厦","lon":"121.49831","lat":"31.222387","category":"47","category_name":"住宅区","address":"上海市黄浦区中华路185号"},{"poiid":"B2094757D06AA1FC4999","title":"农业银行信用卡中心","lon":"121.50236511","lat":"31.221599578","category":"46","category_name":"楼宇","address":"上海中山南二路318号新源广场"},{"poiid":"B2094655D36DA7FF489E","title":"中华路大东门","lon":"121.49897","lat":"31.22056","category":"38","category_name":"公交车站","address":""},{"poiid":"B2094654DA6EABFF4098","title":"中复小区","lon":"121.49837","lat":"31.221653","category":"47","category_name":"住宅区","address":"中华路211弄1-20号"},{"poiid":"B2094654DA6EABFF409B","title":"紫霞幼儿园","lon":"121.49873","lat":"31.22194","category":"57","category_name":"幼儿园","address":"黄浦区中华路195号(近复兴东路)"},{"poiid":"B2094757D165A4F44399","title":"莱福士devil nut","lon":"121.498670638","lat":"31.2217578196","category":"247","category_name":"餐饮美食","address":"上海莱福士四楼"},{"poiid":"B2094654DA6FA3F44393","title":"东门广场","lon":"121.49784","lat":"31.21898","category":"202","category_name":"公园广场","address":"金坛路"},{"poiid":"B2094654DA6FA3F84392","title":"中复大楼","lon":"121.49954","lat":"31.22043","category":"46","category_name":"楼宇","address":"复兴东路248"},{"poiid":"B2094757D16EA7FC489C","title":"光启路夜市烧烤","lon":"121.49907987","lat":"31.221208597","category":"247","category_name":"餐饮美食","address":"上海光启南路复兴东路"},{"poiid":"B2094654DB6BA4FB4998","title":"可的","lon":"121.49877","lat":"31.22055","category":"117","category_name":"便民商店/便利店","address":"黄浦区中华路305号(面筋弄中华路)"},{"poiid":"B2094654DA6FA3F8459F","title":"东仁商贸中心","lon":"121.49907","lat":"31.22033","category":"46","category_name":"楼宇","address":"中华路308号东仁商贸中心503"},{"poiid":"B2094655D26FA7F9439D","title":"中复小区(东门)","lon":"121.49879","lat":"31.22179","category":"47","category_name":"住宅区","address":"中华路211弄1-20号"},{"poiid":"B2094753DB6FA1FB449F","title":"如家快捷酒店(上海外滩城隍庙小南门地铁站店)","lon":"121.4994861","lat":"31.2208815","category":"216","category_name":"经济型连锁酒店","address":"上海黄浦区复兴东路260号"},{"poiid":"B2094655D26FA5FF4999","title":"悦来小区","lon":"121.49946","lat":"31.22034","category":"47","category_name":"住宅区","address":"悦来街38弄2-3号"},{"poiid":"B2094757D66CA0F44692","title":"love cafe-心动时光","lon":"121.49917373","lat":"31.218717054","category":"260","category_name":"其他","address":"黄浦区沙场街27-29号上海滩花园商业街内(近中华路)"},{"poiid":"B2094655D36CA6FA429D","title":"豆市街复兴东路","lon":"121.50216","lat":"31.22114","category":"38","category_name":"公交车站","address":""},{"poiid":"B2094654DA6EABF8469E","title":"东街旧货市场(南门)","lon":"121.4974","lat":"31.2218","category":"121","category_name":"旧货市场","address":""},{"poiid":"B2094654DA6FA3F8469E","title":"良友金伴(白渡路)","lon":"121.49948","lat":"31.21994","category":"117","category_name":"便民商店/便利店","address":"白渡路301"},{"poiid":"B2094654DA6FA3F8439B","title":"悦来小区(东门)","lon":"121.49968","lat":"31.22022","category":"47","category_name":"住宅区","address":"悦来街38弄2-3号"},{"poiid":"B2094757D66CA3F94992","title":"复兴东路光启路公交站","lon":"121.496228938","lat":"31.2219101228","category":"38","category_name":"公交车站","address":"上海黄浦区复兴东路光启路，24路，64路，581路车站"},{"poiid":"B2094655D26FA7F9489C","title":"江夏里小区(南门)","lon":"121.49787","lat":"31.22154","category":"47","category_name":"住宅区","address":"复兴东路349弄4-31号"},{"poiid":"B2094654DA6EABF8469C","title":"江夏里小区","lon":"121.49806","lat":"31.22172","category":"47","category_name":"住宅区","address":"复兴东路349弄4-31号"},{"poiid":"B2094654DA6EABFF409A","title":"上海嘉缘假日宾馆","lon":"121.49838","lat":"31.22249","category":"215","category_name":"三星级宾馆","address":"中华路179号3层"},{"poiid":"B2094655D26CA4F5469E","title":"鸿藻坊(巡道街)","lon":"121.49755","lat":"31.22033","category":"47","category_name":"住宅区","address":"巡道街37弄1-15号"},{"poiid":"B2094654DB64AAF5409E","title":"黄浦区小东门街道图书馆","lon":"121.49636","lat":"31.22019","category":"181","category_name":"图书馆","address":"大夫坊91号"},{"poiid":"B2094655D26BA7F94792","title":"上海市黄浦区中华托儿所","lon":"121.49749","lat":"31.22191","category":"57","category_name":"幼儿园","address":"东街160"},{"poiid":"B2094757D06FA4F8459F","title":"滨江欣景大酒店(Riverview Hotel)","lon":"121.49992806","lat":"31.224301883","category":"76","category_name":"上海菜","address":"黄浦区中山南路76号(会馆弄中山南路)"},{"poiid":"B2094757D06FA7FC4292","title":"浦江游轮","lon":"121.50081","lat":"31.22468","category":"260","category_name":"其他","address":"黄浦区十六铺站－公平路码头(会馆弄中山南路)查看地图"},{"poiid":"B2094757D069A1F4479A","title":"人民廣場","lon":"121.496820738","lat":"31.2194660707","category":"500","category_name":"未知分类","address":"上海人民大道"},{"poiid":"B209475CD564A7F84292","title":"上海滩新天地店","lon":"121.47463","lat":"31.22164","category":"119","category_name":"商场","address":"\"太仓路181弄新天地北里15号\r\n\""},{"poiid":"B209475CD564A7F84392","title":"上海滩浦东香格里拉店","lon":"121.50058","lat":"31.23634","category":"119","category_name":"商场","address":"浦东富成路33号香格里拉酒店内大堂层"},{"poiid":"B2094757D068A7FA469E","title":"上海滩花园","lon":"121.49937","lat":"31.219301","category":"47","category_name":"住宅区","address":"上海市黄浦区紫霞路199弄"},{"poiid":"B2094654DB69A6F84893","title":"外滩.滨江名人苑","lon":"121.49835","lat":"31.223482","category":"47","category_name":"住宅区","address":"黄浦区中华路88弄"},{"poiid":"B2094757D06BA6FE459E","title":"人民广场二号线","lon":"121.49682073","lat":"31.21946607","category":"500","category_name":"未知分类","address":"上海人民广场"},{"poiid":"B2094757D16DA0FB4493","title":"东方国际金融广场","lon":"121.502364","lat":"31.2216","category":"500","category_name":"未知分类","address":"上海中山南路318号"},{"poiid":"B2094655D268A1F94298","title":"浦港味道","lon":"121.50274","lat":"31.22101","category":"72","category_name":"广东菜","address":"黄浦区白渡路111号4-6楼(中山南路口)"},{"poiid":"B2094757D06FABF54298","title":"威尔士健身会所(白渡路店)","lon":"121.49957","lat":"31.21878","category":"221","category_name":"健身中心","address":"黄浦区白渡路288号(近中华路)"},{"poiid":"B2094757D168A0F8489B","title":"fesco adecco","lon":"121.49748523","lat":"31.224477577","category":"500","category_name":"未知分类","address":"上海市中山南路28号久事大厦附楼"},{"poiid":"B2094757D06AA5FA409A","title":"大块头排挡","lon":"121.49559","lat":"31.22314","category":"76","category_name":"上海菜","address":"黄浦区四牌楼106号(学院路口)"},{"poiid":"B2094757D065A3F94293","title":"绿地名人坊","lon":"121.49805","lat":"31.218195","category":"500","category_name":"未知分类","address":"上海市黄浦区中华路429弄"},{"poiid":"B2094655D268A6F8459A","title":"浦江公馆","lon":"121.49944","lat":"31.222755","category":"47","category_name":"住宅区","address":"中华路168弄"},{"poiid":"B2094757D06FA7FC4898","title":"十六铺面料城","lon":"121.49869","lat":"31.22476","category":"249","category_name":"购物服务","address":"黄浦区东门路168号(近中山东二路)"},{"poiid":"B2094750D269A0FD499F","title":"山海亭","lon":"121.497116","lat":"31.223377","category":"500","category_name":"未知分类","address":"河南南路489号"},{"poiid":"B2094757D064A2FB4693","title":"阳浩大酒店","lon":"121.498119638","lat":"31.2197694772","category":"72","category_name":"广东菜","address":"黄浦区中华路388号"},{"poiid":"B2094757D06BA4F8429F","title":"wills上海滩花园会所","lon":"121.495963271","lat":"31.2189213869","category":"500","category_name":"未知分类","address":"白渡路288号上海滩花园内"},{"poiid":"B2094757D06FABF4459F","title":"十六铺公交枢纽站","lon":"121.498995","lat":"31.223048","category":"38","category_name":"公交车站","address":"上海中山东二路新开河路"},{"poiid":"B2094654DA6EABFF419E","title":"上海市市八初级中学","lon":"121.50007","lat":"31.22189","category":"55","category_name":"中学","address":"西姚家弄48"},{"poiid":"B2094655D36CA5FC479C","title":"大东门","lon":"121.49895","lat":"31.22057","category":"38","category_name":"公交车站","address":""},{"poiid":"B2094654DA6EABF84198","title":"圣莲大厦","lon":"121.49686","lat":"31.222799","category":"47","category_name":"住宅区","address":"上海市黄浦区学院路28弄"},{"poiid":"B2094757D065A0F4489F","title":"二号线江苏路站","lon":"121.498002738","lat":"31.2190720623","category":"500","category_name":"未知分类","address":"上海市江苏路"},{"poiid":"B2094655D268A6F84598","title":"东业大厦","lon":"121.49831","lat":"31.222387","category":"47","category_name":"住宅区","address":"上海市黄浦区中华路185号"},{"poiid":"B2094757D06AA1FC4999","title":"农业银行信用卡中心","lon":"121.50236511","lat":"31.221599578","category":"46","category_name":"楼宇","address":"上海中山南二路318号新源广场"},{"poiid":"B2094655D36DA7FF489E","title":"中华路大东门","lon":"121.49897","lat":"31.22056","category":"38","category_name":"公交车站","address":""},{"poiid":"B2094654DA6EABFF4098","title":"中复小区","lon":"121.49837","lat":"31.221653","category":"47","category_name":"住宅区","address":"中华路211弄1-20号"},{"poiid":"B2094654DA6EABFF409B","title":"紫霞幼儿园","lon":"121.49873","lat":"31.22194","category":"57","category_name":"幼儿园","address":"黄浦区中华路195号(近复兴东路)"},{"poiid":"B2094757D165A4F44399","title":"莱福士devil nut","lon":"121.498670638","lat":"31.2217578196","category":"247","category_name":"餐饮美食","address":"上海莱福士四楼"},{"poiid":"B2094654DA6FA3F44393","title":"东门广场","lon":"121.49784","lat":"31.21898","category":"202","category_name":"公园广场","address":"金坛路"},{"poiid":"B2094654DA6FA3F84392","title":"中复大楼","lon":"121.49954","lat":"31.22043","category":"46","category_name":"楼宇","address":"复兴东路248"},{"poiid":"B2094757D16EA7FC489C","title":"光启路夜市烧烤","lon":"121.49907987","lat":"31.221208597","category":"247","category_name":"餐饮美食","address":"上海光启南路复兴东路"},{"poiid":"B2094654DB6BA4FB4998","title":"可的","lon":"121.49877","lat":"31.22055","category":"117","category_name":"便民商店/便利店","address":"黄浦区中华路305号(面筋弄中华路)"},{"poiid":"B2094654DA6FA3F8459F","title":"东仁商贸中心","lon":"121.49907","lat":"31.22033","category":"46","category_name":"楼宇","address":"中华路308号东仁商贸中心503"},{"poiid":"B2094655D26FA7F9439D","title":"中复小区(东门)","lon":"121.49879","lat":"31.22179","category":"47","category_name":"住宅区","address":"中华路211弄1-20号"},{"poiid":"B2094753DB6FA1FB449F","title":"如家快捷酒店(上海外滩城隍庙小南门地铁站店)","lon":"121.4994861","lat":"31.2208815","category":"216","category_name":"经济型连锁酒店","address":"上海黄浦区复兴东路260号"},{"poiid":"B2094655D26FA5FF4999","title":"悦来小区","lon":"121.49946","lat":"31.22034","category":"47","category_name":"住宅区","address":"悦来街38弄2-3号"},{"poiid":"B2094757D66CA0F44692","title":"love cafe-心动时光","lon":"121.49917373","lat":"31.218717054","category":"260","category_name":"其他","address":"黄浦区沙场街27-29号上海滩花园商业街内(近中华路)"},{"poiid":"B2094655D36CA6FA429D","title":"豆市街复兴东路","lon":"121.50216","lat":"31.22114","category":"38","category_name":"公交车站","address":""},{"poiid":"B2094654DA6EABF8469E","title":"东街旧货市场(南门)","lon":"121.4974","lat":"31.2218","category":"121","category_name":"旧货市场","address":""},{"poiid":"B2094654DA6FA3F8469E","title":"良友金伴(白渡路)","lon":"121.49948","lat":"31.21994","category":"117","category_name":"便民商店/便利店","address":"白渡路301"},{"poiid":"B2094654DA6FA3F8439B","title":"悦来小区(东门)","lon":"121.49968","lat":"31.22022","category":"47","category_name":"住宅区","address":"悦来街38弄2-3号"},{"poiid":"B2094757D66CA3F94992","title":"复兴东路光启路公交站","lon":"121.496228938","lat":"31.2219101228","category":"38","category_name":"公交车站","address":"上海黄浦区复兴东路光启路，24路，64路，581路车站"},{"poiid":"B2094655D26FA7F9489C","title":"江夏里小区(南门)","lon":"121.49787","lat":"31.22154","category":"47","category_name":"住宅区","address":"复兴东路349弄4-31号"},{"poiid":"B2094654DA6EABF8469C","title":"江夏里小区","lon":"121.49806","lat":"31.22172","category":"47","category_name":"住宅区","address":"复兴东路349弄4-31号"},{"poiid":"B2094654DA6EABFF409A","title":"上海嘉缘假日宾馆","lon":"121.49838","lat":"31.22249","category":"215","category_name":"三星级宾馆","address":"中华路179号3层"},{"poiid":"B2094655D26CA4F5469E","title":"鸿藻坊(巡道街)","lon":"121.49755","lat":"31.22033","category":"47","category_name":"住宅区","address":"巡道街37弄1-15号"},{"poiid":"B2094654DB64AAF5409E","title":"黄浦区小东门街道图书馆","lon":"121.49636","lat":"31.22019","category":"181","category_name":"图书馆","address":"大夫坊91号"},{"poiid":"B2094655D26BA7F94792","title":"上海市黄浦区中华托儿所","lon":"121.49749","lat":"31.22191","category":"57","category_name":"幼儿园","address":"东街160"}]