[{"poiid":"B2094757D06FA7FC4292","title":"浦江游轮","lon":"121.50081","lat":"31.22468","category":"260","category_name":"其他","address":"黄浦区十六铺站－公平路码头(会馆弄中山南路)查看地图"},{"poiid":"B2094757D06FA4F8459F","title":"滨江欣景大酒店(Riverview Hotel)","lon":"121.49992806","lat":"31.224301883","category":"76","category_name":"上海菜","address":"黄浦区中山南路76号(会馆弄中山南路)"},{"poiid":"B2094757D068A5FA469B","title":"恰CHAR","lon":"121.50005411","lat":"31.225733464","category":"94","category_name":"西餐厅","address":"黄浦区中山东二路585号外滩英迪格酒店29-31楼(东门路)"},{"poiid":"B209475CD564A7F84292","title":"上海滩新天地店","lon":"121.47463","lat":"31.22164","category":"119","category_name":"商场","address":"\"太仓路181弄新天地北里15号\r\n\""},{"poiid":"B209475CD564A7F84392","title":"上海滩浦东香格里拉店","lon":"121.50058","lat":"31.23634","category":"119","category_name":"商场","address":"浦东富成路33号香格里拉酒店内大堂层"},{"poiid":"B2094757D06FA1FA419F","title":"复兴东路轮渡站","lon":"121.50405883","lat":"31.22277069","category":"35","category_name":"长途汽车站","address":"上海市黄浦区复兴东路1号"},{"poiid":"B2094757D068A5FD499D","title":"Top Choice","lon":"121.50526","lat":"31.21865","category":"260","category_name":"其他","address":"黄浦区中山南路505弄老码头9号楼(近复兴东路)"},{"poiid":"B2094757D06FA0F8499E","title":"交通银行上海分行","lon":"121.50114678","lat":"31.225955549","category":"46","category_name":"楼宇","address":"上海中山南路99号"},{"poiid":"B2094654DB69A6F84893","title":"外滩.滨江名人苑","lon":"121.49835","lat":"31.223482","category":"47","category_name":"住宅区","address":"黄浦区中华路88弄"},{"poiid":"B2094757D465ABF8479E","title":"鸟真 Banni","lon":"121.504442","lat":"31.221024","category":"269","category_name":"烧烤","address":"黄浦区中山南路505号老码头7号楼107室(近复兴东路)"},{"poiid":"B2094757D16DA0FB4493","title":"东方国际金融广场","lon":"121.502364","lat":"31.2216","category":"500","category_name":"未知分类","address":"上海中山南路318号"},{"poiid":"B2094757D069A5FD4799","title":"复星商务大厦","lon":"121.50396347","lat":"31.22221032","category":"46","category_name":"楼宇","address":"上海市黄浦区复兴东路2号"},{"poiid":"B2094655D268A1F94298","title":"浦港味道","lon":"121.50274","lat":"31.22101","category":"72","category_name":"广东菜","address":"黄浦区白渡路111号4-6楼(中山南路口)"},{"poiid":"B2094654DA6EABFF429A","title":"上海市十六铺旅游中心","lon":"121.50238","lat":"31.22376","category":"248","category_name":"生活娱乐","address":"中山南路171号"},{"poiid":"B2094757D16DAAF5439B","title":"外马路","lon":"121.503744938","lat":"31.2205340935","category":"500","category_name":"未知分类","address":"上海外马路"},{"poiid":"B2094757D06AA5F84992","title":"The table NO.1","lon":"121.50536722","lat":"31.220391924","category":"94","category_name":"西餐厅","address":"上海毛家园路2号"},{"poiid":"B2094751D465A1F54798","title":"罗望子泰越餐厅酒吧","lon":"121.503281","lat":"31.220581","category":"99","category_name":"泰国／越南菜品餐厅","address":"黄浦区中山南路505号老码头10号楼B座(近新码头街)"},{"poiid":"B2094757D468A4FE4992","title":"富钜德国餐厅 Stiller's Restaurant","lon":"121.504501054","lat":"31.221032793","category":"94","category_name":"西餐厅","address":"黄浦区中山南路505弄13号楼6-7楼(近复兴东路)"},{"poiid":"B2094750D26EA7F94399","title":"老码头壹号会所 Club One Restaurant & Bar","lon":"121.504485054","lat":"31.221038793","category":"247","category_name":"餐饮美食","address":"中山南路505号老码头1号楼近复兴东路外滩"},{"poiid":"B2094750D269A5FF4998","title":"庆会楼 外滩店","lon":"121.504501054","lat":"31.221032793","category":"96","category_name":"韩国料理","address":"黄浦区中山南路505弄老码头2号楼2楼(近复兴东路)"},{"poiid":"B2094654DB6BABF4499B","title":"汉庭快捷酒店(上海外滩店)","lon":"121.50508","lat":"31.22008","category":"216","category_name":"经济型连锁酒店","address":"上海黄浦区中山南路433号(近复兴东路)  "},{"poiid":"B2094757D06AA1FC4999","title":"农业银行信用卡中心","lon":"121.50236511","lat":"31.221599578","category":"46","category_name":"楼宇","address":"上海中山南二路318号新源广场"},{"poiid":"B2094757D16BA3FA489E","title":"外滩酒吧","lon":"121.501479738","lat":"31.2253351958","category":"247","category_name":"餐饮美食","address":"上海市中山东二路575号"},{"poiid":"B2094757DB6CA6FC4199","title":"好乐迪","lon":"121.5043331429361","lat":"31.22490214062436","category":"248","category_name":"生活娱乐","address":"八佰伴"},{"poiid":"B2094757D465A3FD449E","title":"外滩第一台 Table Number 1","lon":"121.504926","lat":"31.22005","category":"67","category_name":"甜品店","address":"黄浦区毛家园路1-3号(近中山南路)"},{"poiid":"B2094655D268A6F8459A","title":"浦江公馆","lon":"121.49944","lat":"31.222755","category":"47","category_name":"住宅区","address":"中华路168弄"},{"poiid":"B2094757D16FABFA429A","title":"榖屋","lon":"121.50259761","lat":"31.223111765","category":"67","category_name":"甜品店","address":"浦东新区碧波路635号上海传奇内一楼105号铺(近张江高科地铁站)"},{"poiid":"B2094757D56CABFC4898","title":"满记甜品 外滩店","lon":"121.50372462089","lat":"31.222388306813","category":"247","category_name":"餐饮美食","address":"外马路19号4#景观台"},{"poiid":"B2094654DB69A7FE489C","title":"交银大厦","lon":"121.5019","lat":"31.22428","category":"46","category_name":"楼宇","address":"中山南路99"},{"poiid":"B2094757D06FA7FC4898","title":"十六铺面料城","lon":"121.49869","lat":"31.22476","category":"249","category_name":"购物服务","address":"黄浦区东门路168号(近中山东二路)"},{"poiid":"B2094654DA6EABFF419E","title":"上海市市八初级中学","lon":"121.50007","lat":"31.22189","category":"55","category_name":"中学","address":"西姚家弄48"},{"poiid":"B2094757D169A2FE4199","title":"银行间市场清算所股份有限公司","lon":"121.50247173","lat":"31.222629138","category":"263","category_name":"公司","address":"上海中山南路318号2号楼34层"},{"poiid":"B2094757D568AAFF469D","title":"金外滩国际广场","lon":"121.5010639","lat":"31.22469278","category":"46","category_name":"楼宇","address":"黄浦中山南路,复兴路口"},{"poiid":"B2094757D06FABF4459F","title":"十六铺公交枢纽站","lon":"121.498995","lat":"31.223048","category":"38","category_name":"公交车站","address":"上海中山东二路新开河路"},{"poiid":"B2094757D168A6F5429D","title":"吉雅拉面","lon":"121.503409","lat":"31.222638","category":"247","category_name":"餐饮美食","address":"上海陆家嘴天桥"},{"poiid":"B2094655D36CA6FA429D","title":"豆市街复兴东路","lon":"121.50216","lat":"31.22114","category":"38","category_name":"公交车站","address":""},{"poiid":"B2094757D464A7FB439F","title":"申绅会馆","lon":"121.504408","lat":"31.221194","category":"247","category_name":"餐饮美食","address":"中山南路505号老码头5号楼3-6楼近毛家园路"},{"poiid":"B2094757D464AAFB4193","title":"新外滩酒家 龙园店","lon":"121.501211054","lat":"31.224453793","category":"76","category_name":"上海菜","address":"黄浦区中山南路77号(近十六铺码头)"},{"poiid":"B2094750DA6DA1F4419B","title":"上海泰康路 田子坊","lon":"121.500495","lat":"31.225341","category":"248","category_name":"生活娱乐","address":null},{"poiid":"B2094655D36CA4FD439F","title":"白渡路中山南路","lon":"121.50318","lat":"31.22099","category":"38","category_name":"公交车站","address":""},{"poiid":"B2094655D36DA7F8449C","title":"中山东一路东门路","lon":"121.50145","lat":"31.22407","category":"38","category_name":"公交车站","address":""},{"poiid":"B2094752D16EABFA4998","title":"老码头5号楼泰麗","lon":"121.501579","lat":"31.221827","category":"247","category_name":"餐饮美食","address":"中山南路505号老码头斗秀场"},{"poiid":"B2094757D16FA7FD4799","title":"名信五号","lon":"121.503836405","lat":"31.2242111718","category":"247","category_name":"餐饮美食","address":"上海黄浦江游船"},{"poiid":"B2094654DA6EA4FA419B","title":"中国工商银行中山南路支行","lon":"121.50407","lat":"31.22165","category":"150","category_name":"银行","address":"黄浦区中山南路315号"},{"poiid":"B2094757D06BA7F8489A","title":"大达码头食堂","lon":"121.502324","lat":"31.224343","category":"247","category_name":"餐饮美食","address":"上海外马路129号"},{"poiid":"B2094655D268A1F9429B","title":"上海银行浦西支行","lon":"121.50282","lat":"31.22189","category":"150","category_name":"银行","address":"黄浦区中山南路318号2号楼(近豆市街)"},{"poiid":"B2094757D464AAFB4298","title":"咖啡饮 中山南路店 Caffe In","lon":"121.504501054","lat":"31.221032793","category":"65","category_name":"咖啡厅","address":"黄浦区中山南路505弄老码头7号楼101-103室(近复兴东路)"},{"poiid":"B2094654DB65A2FD489D","title":"良良商务楼","lon":"121.50183","lat":"31.22473","category":"46","category_name":"楼宇","address":"外马路80"},{"poiid":"B2094757D064A2FD4398","title":"交通银行上海市分行放款中心","lon":"121.50231563","lat":"31.221655517","category":"500","category_name":"未知分类","address":"上海中山南路99号13楼"},{"poiid":"B2094655D26AA7FD439C","title":"玫瑰公主号游轮","lon":"121.50117","lat":"31.22559","category":"247","category_name":"餐饮美食","address":"黄浦区外马路19号十六铺旅游集散中心内(近复兴路)查看地图"},{"poiid":"B2094757D06FA7FC4292","title":"浦江游轮","lon":"121.50081","lat":"31.22468","category":"260","category_name":"其他","address":"黄浦区十六铺站－公平路码头(会馆弄中山南路)查看地图"},{"poiid":"B2094757D06FA4F8459F","title":"滨江欣景大酒店(Riverview Hotel)","lon":"121.49992806","lat":"31.224301883","category":"76","category_name":"上海菜","address":"黄浦区中山南路76号(会馆弄中山南路)"},{"poiid":"B2094757D068A5FA469B","title":"恰CHAR","lon":"121.50005411","lat":"31.225733464","category":"94","category_name":"西餐厅","address":"黄浦区中山东二路585号外滩英迪格酒店29-31楼(东门路)"},{"poiid":"B209475CD564A7F84292","title":"上海滩新天地店","lon":"121.47463","lat":"31.22164","category":"119","category_name":"商场","address":"\"太仓路181弄新天地北里15号\r\n\""},{"poiid":"B209475CD564A7F84392","title":"上海滩浦东香格里拉店","lon":"121.50058","lat":"31.23634","category":"119","category_name":"商场","address":"浦东富成路33号香格里拉酒店内大堂层"},{"poiid":"B2094757D06FA1FA419F","title":"复兴东路轮渡站","lon":"121.50405883","lat":"31.22277069","category":"35","category_name":"长途汽车站","address":"上海市黄浦区复兴东路1号"},{"poiid":"B2094757D068A5FD499D","title":"Top Choice","lon":"121.50526","lat":"31.21865","category":"260","category_name":"其他","address":"黄浦区中山南路505弄老码头9号楼(近复兴东路)"},{"poiid":"B2094757D06FA0F8499E","title":"交通银行上海分行","lon":"121.50114678","lat":"31.225955549","category":"46","category_name":"楼宇","address":"上海中山南路99号"},{"poiid":"B2094654DB69A6F84893","title":"外滩.滨江名人苑","lon":"121.49835","lat":"31.223482","category":"47","category_name":"住宅区","address":"黄浦区中华路88弄"},{"poiid":"B2094757D465ABF8479E","title":"鸟真 Banni","lon":"121.504442","lat":"31.221024","category":"269","category_name":"烧烤","address":"黄浦区中山南路505号老码头7号楼107室(近复兴东路)"},{"poiid":"B2094757D16DA0FB4493","title":"东方国际金融广场","lon":"121.502364","lat":"31.2216","category":"500","category_name":"未知分类","address":"上海中山南路318号"},{"poiid":"B2094757D069A5FD4799","title":"复星商务大厦","lon":"121.50396347","lat":"31.22221032","category":"46","category_name":"楼宇","address":"上海市黄浦区复兴东路2号"},{"poiid":"B2094655D268A1F94298","title":"浦港味道","lon":"121.50274","lat":"31.22101","category":"72","category_name":"广东菜","address":"黄浦区白渡路111号4-6楼(中山南路口)"},{"poiid":"B2094654DA6EABFF429A","title":"上海市十六铺旅游中心","lon":"121.50238","lat":"31.22376","category":"248","category_name":"生活娱乐","address":"中山南路171号"},{"poiid":"B2094757D16DAAF5439B","title":"外马路","lon":"121.503744938","lat":"31.2205340935","category":"500","category_name":"未知分类","address":"上海外马路"},{"poiid":"B2094757D06AA5F84992","title":"The table NO.1","lon":"121.50536722","lat":"31.220391924","category":"94","category_name":"西餐厅","address":"上海毛家园路2号"},{"poiid":"B2094751D465A1F54798","title":"罗望子泰越餐厅酒吧","lon":"121.503281","lat":"31.220581","category":"99","category_name":"泰国／越南菜品餐厅","address":"黄浦区中山南路505号老码头10号楼B座(近新码头街)"},{"poiid":"B2094757D468A4FE4992","title":"富钜德国餐厅 Stiller's Restaurant","lon":"121.504501054","lat":"31.221032793","category":"94","category_name":"西餐厅","address":"黄浦区中山南路505弄13号楼6-7楼(近复兴东路)"},{"poiid":"B2094750D26EA7F94399","title":"老码头壹号会所 Club One Restaurant & Bar","lon":"121.504485054","lat":"31.221038793","category":"247","category_name":"餐饮美食","address":"中山南路505号老码头1号楼近复兴东路外滩"},{"poiid":"B2094750D269A5FF4998","title":"庆会楼 外滩店","lon":"121.504501054","lat":"31.221032793","category":"96","category_name":"韩国料理","address":"黄浦区中山南路505弄老码头2号楼2楼(近复兴东路)"},{"poiid":"B2094654DB6BABF4499B","title":"汉庭快捷酒店(上海外滩店)","lon":"121.50508","lat":"31.22008","category":"216","category_name":"经济型连锁酒店","address":"上海黄浦区中山南路433号(近复兴东路)  "},{"poiid":"B2094757D06AA1FC4999","title":"农业银行信用卡中心","lon":"121.50236511","lat":"31.221599578","category":"46","category_name":"楼宇","address":"上海中山南二路318号新源广场"},{"poiid":"B2094757D16BA3FA489E","title":"外滩酒吧","lon":"121.501479738","lat":"31.2253351958","category":"247","category_name":"餐饮美食","address":"上海市中山东二路575号"},{"poiid":"B2094757DB6CA6FC4199","title":"好乐迪","lon":"121.5043331429361","lat":"31.22490214062436","category":"248","category_name":"生活娱乐","address":"八佰伴"},{"poiid":"B2094757D465A3FD449E","title":"外滩第一台 Table Number 1","lon":"121.504926","lat":"31.22005","category":"67","category_name":"甜品店","address":"黄浦区毛家园路1-3号(近中山南路)"},{"poiid":"B2094655D268A6F8459A","title":"浦江公馆","lon":"121.49944","lat":"31.222755","category":"47","category_name":"住宅区","address":"中华路168弄"},{"poiid":"B2094757D16FABFA429A","title":"榖屋","lon":"121.50259761","lat":"31.223111765","category":"67","category_name":"甜品店","address":"浦东新区碧波路635号上海传奇内一楼105号铺(近张江高科地铁站)"},{"poiid":"B2094757D56CABFC4898","title":"满记甜品 外滩店","lon":"121.50372462089","lat":"31.222388306813","category":"247","category_name":"餐饮美食","address":"外马路19号4#景观台"},{"poiid":"B2094654DB69A7FE489C","title":"交银大厦","lon":"121.5019","lat":"31.22428","category":"46","category_name":"楼宇","address":"中山南路99"},{"poiid":"B2094757D06FA7FC4898","title":"十六铺面料城","lon":"121.49869","lat":"31.22476","category":"249","category_name":"购物服务","address":"黄浦区东门路168号(近中山东二路)"},{"poiid":"B2094654DA6EABFF419E","title":"上海市市八初级中学","lon":"121.50007","lat":"31.22189","category":"55","category_name":"中学","address":"西姚家弄48"},{"poiid":"B2094757D169A2FE4199","title":"银行间市场清算所股份有限公司","lon":"121.50247173","lat":"31.222629138","category":"263","category_name":"公司","address":"上海中山南路318号2号楼34层"},{"poiid":"B2094757D568AAFF469D","title":"金外滩国际广场","lon":"121.5010639","lat":"31.22469278","category":"46","category_name":"楼宇","address":"黄浦中山南路,复兴路口"},{"poiid":"B2094757D06FABF4459F","title":"十六铺公交枢纽站","lon":"121.498995","lat":"31.223048","category":"38","category_name":"公交车站","address":"上海中山东二路新开河路"},{"poiid":"B2094757D168A6F5429D","title":"吉雅拉面","lon":"121.503409","lat":"31.222638","category":"247","category_name":"餐饮美食","address":"上海陆家嘴天桥"},{"poiid":"B2094655D36CA6FA429D","title":"豆市街复兴东路","lon":"121.50216","lat":"31.22114","category":"38","category_name":"公交车站","address":""},{"poiid":"B2094757D464A7FB439F","title":"申绅会馆","lon":"121.504408","lat":"31.221194","category":"247","category_name":"餐饮美食","address":"中山南路505号老码头5号楼3-6楼近毛家园路"},{"poiid":"B2094757D464AAFB4193","title":"新外滩酒家 龙园店","lon":"121.501211054","lat":"31.224453793","category":"76","category_name":"上海菜","address":"黄浦区中山南路77号(近十六铺码头)"},{"poiid":"B2094750DA6DA1F4419B","title":"上海泰康路 田子坊","lon":"121.500495","lat":"31.225341","category":"248","category_name":"生活娱乐","address":null},{"poiid":"B2094655D36CA4FD439F","title":"白渡路中山南路","lon":"121.50318","lat":"31.22099","category":"38","category_name":"公交车站","address":""},{"poiid":"B2094655D36DA7F8449C","title":"中山东一路东门路","lon":"121.50145","lat":"31.22407","category":"38","category_name":"公交车站","address":""},{"poiid":"B2094752D16EABFA4998","title":"老码头5号楼泰麗","lon":"121.501579","lat":"31.221827","category":"247","category_name":"餐饮美食","address":"中山南路505号老码头斗秀场"},{"poiid":"B2094757D16FA7FD4799","title":"名信五号","lon":"121.503836405","lat":"31.2242111718","category":"247","category_name":"餐饮美食","address":"上海黄浦江游船"},{"poiid":"B2094654DA6EA4FA419B","title":"中国工商银行中山南路支行","lon":"121.50407","lat":"31.22165","category":"150","category_name":"银行","address":"黄浦区中山南路315号"},{"poiid":"B2094757D06BA7F8489A","title":"大达码头食堂","lon":"121.502324","lat":"31.224343","category":"247","category_name":"餐饮美食","address":"上海外马路129号"},{"poiid":"B2094655D268A1F9429B","title":"上海银行浦西支行","lon":"121.50282","lat":"31.22189","category":"150","category_name":"银行","address":"黄浦区中山南路318号2号楼(近豆市街)"},{"poiid":"B2094757D464AAFB4298","title":"咖啡饮 中山南路店 Caffe In","lon":"121.504501054","lat":"31.221032793","category":"65","category_name":"咖啡厅","address":"黄浦区中山南路505弄老码头7号楼101-103室(近复兴东路)"},{"poiid":"B2094654DB65A2FD489D","title":"良良商务楼","lon":"121.50183","lat":"31.22473","category":"46","category_name":"楼宇","address":"外马路80"},{"poiid":"B2094757D064A2FD4398","title":"交通银行上海市分行放款中心","lon":"121.50231563","lat":"31.221655517","category":"500","category_name":"未知分类","address":"上海中山南路99号13楼"},{"poiid":"B2094655D26AA7FD439C","title":"玫瑰公主号游轮","lon":"121.50117","lat":"31.22559","category":"247","category_name":"餐饮美食","address":"黄浦区外马路19号十六铺旅游集散中心内(近复兴路)查看地图"},{"poiid":"B2094757D06FA7FC4292","title":"浦江游轮","lon":"121.50081","lat":"31.22468","category":"260","category_name":"其他","address":"黄浦区十六铺站－公平路码头(会馆弄中山南路)查看地图"},{"poiid":"B2094757D06FA4F8459F","title":"滨江欣景大酒店(Riverview Hotel)","lon":"121.49992806","lat":"31.224301883","category":"76","category_name":"上海菜","address":"黄浦区中山南路76号(会馆弄中山南路)"},{"poiid":"B2094757D068A5FA469B","title":"恰CHAR","lon":"121.50005411","lat":"31.225733464","category":"94","category_name":"西餐厅","address":"黄浦区中山东二路585号外滩英迪格酒店29-31楼(东门路)"},{"poiid":"B209475CD564A7F84292","title":"上海滩新天地店","lon":"121.47463","lat":"31.22164","category":"119","category_name":"商场","address":"\"太仓路181弄新天地北里15号\r\n\""},{"poiid":"B209475CD564A7F84392","title":"上海滩浦东香格里拉店","lon":"121.50058","lat":"31.23634","category":"119","category_name":"商场","address":"浦东富成路33号香格里拉酒店内大堂层"},{"poiid":"B2094757D06FA1FA419F","title":"复兴东路轮渡站","lon":"121.50405883","lat":"31.22277069","category":"35","category_name":"长途汽车站","address":"上海市黄浦区复兴东路1号"},{"poiid":"B2094757D068A5FD499D","title":"Top Choice","lon":"121.50526","lat":"31.21865","category":"260","category_name":"其他","address":"黄浦区中山南路505弄老码头9号楼(近复兴东路)"},{"poiid":"B2094757D06FA0F8499E","title":"交通银行上海分行","lon":"121.50114678","lat":"31.225955549","category":"46","category_name":"楼宇","address":"上海中山南路99号"},{"poiid":"B2094654DB69A6F84893","title":"外滩.滨江名人苑","lon":"121.49835","lat":"31.223482","category":"47","category_name":"住宅区","address":"黄浦区中华路88弄"},{"poiid":"B2094757D465ABF8479E","title":"鸟真 Banni","lon":"121.504442","lat":"31.221024","category":"269","category_name":"烧烤","address":"黄浦区中山南路505号老码头7号楼107室(近复兴东路)"},{"poiid":"B2094757D16DA0FB4493","title":"东方国际金融广场","lon":"121.502364","lat":"31.2216","category":"500","category_name":"未知分类","address":"上海中山南路318号"},{"poiid":"B2094757D069A5FD4799","title":"复星商务大厦","lon":"121.50396347","lat":"31.22221032","category":"46","category_name":"楼宇","address":"上海市黄浦区复兴东路2号"},{"poiid":"B2094655D268A1F94298","title":"浦港味道","lon":"121.50274","lat":"31.22101","category":"72","category_name":"广东菜","address":"黄浦区白渡路111号4-6楼(中山南路口)"},{"poiid":"B2094654DA6EABFF429A","title":"上海市十六铺旅游中心","lon":"121.50238","lat":"31.22376","category":"248","category_name":"生活娱乐","address":"中山南路171号"},{"poiid":"B2094757D16DAAF5439B","title":"外马路","lon":"121.503744938","lat":"31.2205340935","category":"500","category_name":"未知分类","address":"上海外马路"},{"poiid":"B2094757D06AA5F84992","title":"The table NO.1","lon":"121.50536722","lat":"31.220391924","category":"94","category_name":"西餐厅","address":"上海毛家园路2号"},{"poiid":"B2094751D465A1F54798","title":"罗望子泰越餐厅酒吧","lon":"121.503281","lat":"31.220581","category":"99","category_name":"泰国／越南菜品餐厅","address":"黄浦区中山南路505号老码头10号楼B座(近新码头街)"},{"poiid":"B2094757D468A4FE4992","title":"富钜德国餐厅 Stiller's Restaurant","lon":"121.504501054","lat":"31.221032793","category":"94","category_name":"西餐厅","address":"黄浦区中山南路505弄13号楼6-7楼(近复兴东路)"},{"poiid":"B2094750D26EA7F94399","title":"老码头壹号会所 Club One Restaurant & Bar","lon":"121.504485054","lat":"31.221038793","category":"247","category_name":"餐饮美食","address":"中山南路505号老码头1号楼近复兴东路外滩"},{"poiid":"B2094750D269A5FF4998","title":"庆会楼 外滩店","lon":"121.504501054","lat":"31.221032793","category":"96","category_name":"韩国料理","address":"黄浦区中山南路505弄老码头2号楼2楼(近复兴东路)"},{"poiid":"B2094654DB6BABF4499B","title":"汉庭快捷酒店(上海外滩店)","lon":"121.50508","lat":"31.22008","category":"216","category_name":"经济型连锁酒店","address":"上海黄浦区中山南路433号(近复兴东路)  "},{"poiid":"B2094757D06AA1FC4999","title":"农业银行信用卡中心","lon":"121.50236511","lat":"31.221599578","category":"46","category_name":"楼宇","address":"上海中山南二路318号新源广场"},{"poiid":"B2094757D16BA3FA489E","title":"外滩酒吧","lon":"121.501479738","lat":"31.2253351958","category":"247","category_name":"餐饮美食","address":"上海市中山东二路575号"},{"poiid":"B2094757DB6CA6FC4199","title":"好乐迪","lon":"121.5043331429361","lat":"31.22490214062436","category":"248","category_name":"生活娱乐","address":"八佰伴"},{"poiid":"B2094757D465A3FD449E","title":"外滩第一台 Table Number 1","lon":"121.504926","lat":"31.22005","category":"67","category_name":"甜品店","address":"黄浦区毛家园路1-3号(近中山南路)"},{"poiid":"B2094655D268A6F8459A","title":"浦江公馆","lon":"121.49944","lat":"31.222755","category":"47","category_name":"住宅区","address":"中华路168弄"},{"poiid":"B2094757D16FABFA429A","title":"榖屋","lon":"121.50259761","lat":"31.223111765","category":"67","category_name":"甜品店","address":"浦东新区碧波路635号上海传奇内一楼105号铺(近张江高科地铁站)"},{"poiid":"B2094757D56CABFC4898","title":"满记甜品 外滩店","lon":"121.50372462089","lat":"31.222388306813","category":"247","category_name":"餐饮美食","address":"外马路19号4#景观台"},{"poiid":"B2094654DB69A7FE489C","title":"交银大厦","lon":"121.5019","lat":"31.22428","category":"46","category_name":"楼宇","address":"中山南路99"},{"poiid":"B2094757D06FA7FC4898","title":"十六铺面料城","lon":"121.49869","lat":"31.22476","category":"249","category_name":"购物服务","address":"黄浦区东门路168号(近中山东二路)"},{"poiid":"B2094654DA6EABFF419E","title":"上海市市八初级中学","lon":"121.50007","lat":"31.22189","category":"55","category_name":"中学","address":"西姚家弄48"},{"poiid":"B2094757D169A2FE4199","title":"银行间市场清算所股份有限公司","lon":"121.50247173","lat":"31.222629138","category":"263","category_name":"公司","address":"上海中山南路318号2号楼34层"},{"poiid":"B2094757D568AAFF469D","title":"金外滩国际广场","lon":"121.5010639","lat":"31.22469278","category":"46","category_name":"楼宇","address":"黄浦中山南路,复兴路口"},{"poiid":"B2094757D06FABF4459F","title":"十六铺公交枢纽站","lon":"121.498995","lat":"31.223048","category":"38","category_name":"公交车站","address":"上海中山东二路新开河路"},{"poiid":"B2094757D168A6F5429D","title":"吉雅拉面","lon":"121.503409","lat":"31.222638","category":"247","category_name":"餐饮美食","address":"上海陆家嘴天桥"},{"poiid":"B2094655D36CA6FA429D","title":"豆市街复兴东路","lon":"121.50216","lat":"31.22114","category":"38","category_name":"公交车站","address":""},{"poiid":"B2094757D464A7FB439F","title":"申绅会馆","lon":"121.504408","lat":"31.221194","category":"247","category_name":"餐饮美食","address":"中山南路505号老码头5号楼3-6楼近毛家园路"},{"poiid":"B2094757D464AAFB4193","title":"新外滩酒家 龙园店","lon":"121.501211054","lat":"31.224453793","category":"76","category_name":"上海菜","address":"黄浦区中山南路77号(近十六铺码头)"},{"poiid":"B2094750DA6DA1F4419B","title":"上海泰康路 田子坊","lon":"121.500495","lat":"31.225341","category":"248","category_name":"生活娱乐","address":null},{"poiid":"B2094655D36CA4FD439F","title":"白渡路中山南路","lon":"121.50318","lat":"31.22099","category":"38","category_name":"公交车站","address":""},{"poiid":"B2094655D36DA7F8449C","title":"中山东一路东门路","lon":"121.50145","lat":"31.22407","category":"38","category_name":"公交车站","address":""},{"poiid":"B2094752D16EABFA4998","title":"老码头5号楼泰麗","lon":"121.501579","lat":"31.221827","category":"247","category_name":"餐饮美食","address":"中山南路505号老码头斗秀场"},{"poiid":"B2094757D16FA7FD4799","title":"名信五号","lon":"121.503836405","lat":"31.2242111718","category":"247","category_name":"餐饮美食","address":"上海黄浦江游船"},{"poiid":"B2094654DA6EA4FA419B","title":"中国工商银行中山南路支行","lon":"121.50407","lat":"31.22165","category":"150","category_name":"银行","address":"黄浦区中山南路315号"},{"poiid":"B2094757D06BA7F8489A","title":"大达码头食堂","lon":"121.502324","lat":"31.224343","category":"247","category_name":"餐饮美食","address":"上海外马路129号"},{"poiid":"B2094655D268A1F9429B","title":"上海银行浦西支行","lon":"121.50282","lat":"31.22189","category":"150","category_name":"银行","address":"黄浦区中山南路318号2号楼(近豆市街)"},{"poiid":"B2094757D464AAFB4298","title":"咖啡饮 中山南路店 Caffe In","lon":"121.504501054","lat":"31.221032793","category":"65","category_name":"咖啡厅","address":"黄浦区中山南路505弄老码头7号楼101-103室(近复兴东路)"},{"poiid":"B2094654DB65A2FD489D","title":"良良商务楼","lon":"121.50183","lat":"31.22473","category":"46","category_name":"楼宇","address":"外马路80"},{"poiid":"B2094757D064A2FD4398","title":"交通银行上海市分行放款中心","lon":"121.50231563","lat":"31.221655517","category":"500","category_name":"未知分类","address":"上海中山南路99号13楼"},{"poiid":"B2094655D26AA7FD439C","title":"玫瑰公主号游轮","lon":"121.50117","lat":"31.22559","category":"247","category_name":"餐饮美食","address":"黄浦区外马路19号十六铺旅游集散中心内(近复兴路)查看地图"},{"poiid":"B2094757D06FA7FC4292","title":"浦江游轮","lon":"121.50081","lat":"31.22468","category":"260","category_name":"其他","address":"黄浦区十六铺站－公平路码头(会馆弄中山南路)查看地图"},{"poiid":"B2094757D06FA4F8459F","title":"滨江欣景大酒店(Riverview Hotel)","lon":"121.49992806","lat":"31.224301883","category":"76","category_name":"上海菜","address":"黄浦区中山南路76号(会馆弄中山南路)"},{"poiid":"B2094757D068A5FA469B","title":"恰CHAR","lon":"121.50005411","lat":"31.225733464","category":"94","category_name":"西餐厅","address":"黄浦区中山东二路585号外滩英迪格酒店29-31楼(东门路)"},{"poiid":"B209475CD564A7F84292","title":"上海滩新天地店","lon":"121.47463","lat":"31.22164","category":"119","category_name":"商场","address":"\"太仓路181弄新天地北里15号\r\n\""},{"poiid":"B209475CD564A7F84392","title":"上海滩浦东香格里拉店","lon":"121.50058","lat":"31.23634","category":"119","category_name":"商场","address":"浦东富成路33号香格里拉酒店内大堂层"},{"poiid":"B2094757D06FA1FA419F","title":"复兴东路轮渡站","lon":"121.50405883","lat":"31.22277069","category":"35","category_name":"长途汽车站","address":"上海市黄浦区复兴东路1号"},{"poiid":"B2094757D068A5FD499D","title":"Top Choice","lon":"121.50526","lat":"31.21865","category":"260","category_name":"其他","address":"黄浦区中山南路505弄老码头9号楼(近复兴东路)"},{"poiid":"B2094757D06FA0F8499E","title":"交通银行上海分行","lon":"121.50114678","lat":"31.225955549","category":"46","category_name":"楼宇","address":"上海中山南路99号"},{"poiid":"B2094654DB69A6F84893","title":"外滩.滨江名人苑","lon":"121.49835","lat":"31.223482","category":"47","category_name":"住宅区","address":"黄浦区中华路88弄"},{"poiid":"B2094757D465ABF8479E","title":"鸟真 Banni","lon":"121.504442","lat":"31.221024","category":"269","category_name":"烧烤","address":"黄浦区中山南路505号老码头7号楼107室(近复兴东路)"},{"poiid":"B2094757D16DA0FB4493","title":"东方国际金融广场","lon":"121.502364","lat":"31.2216","category":"500","category_name":"未知分类","address":"上海中山南路318号"},{"poiid":"B2094757D069A5FD4799","title":"复星商务大厦","lon":"121.50396347","lat":"31.22221032","category":"46","category_name":"楼宇","address":"上海市黄浦区复兴东路2号"},{"poiid":"B2094655D268A1F94298","title":"浦港味道","lon":"121.50274","lat":"31.22101","category":"72","category_name":"广东菜","address":"黄浦区白渡路111号4-6楼(中山南路口)"},{"poiid":"B2094654DA6EABFF429A","title":"上海市十六铺旅游中心","lon":"121.50238","lat":"31.22376","category":"248","category_name":"生活娱乐","address":"中山南路171号"},{"poiid":"B2094757D16DAAF5439B","title":"外马路","lon":"121.503744938","lat":"31.2205340935","category":"500","category_name":"未知分类","address":"上海外马路"},{"poiid":"B2094757D06AA5F84992","title":"The table NO.1","lon":"121.50536722","lat":"31.220391924","category":"94","category_name":"西餐厅","address":"上海毛家园路2号"},{"poiid":"B2094751D465A1F54798","title":"罗望子泰越餐厅酒吧","lon":"121.503281","lat":"31.220581","category":"99","category_name":"泰国／越南菜品餐厅","address":"黄浦区中山南路505号老码头10号楼B座(近新码头街)"},{"poiid":"B2094757D468A4FE4992","title":"富钜德国餐厅 Stiller's Restaurant","lon":"121.504501054","lat":"31.221032793","category":"94","category_name":"西餐厅","address":"黄浦区中山南路505弄13号楼6-7楼(近复兴东路)"},{"poiid":"B2094750D26EA7F94399","title":"老码头壹号会所 Club One Restaurant & Bar","lon":"121.504485054","lat":"31.221038793","category":"247","category_name":"餐饮美食","address":"中山南路505号老码头1号楼近复兴东路外滩"},{"poiid":"B2094750D269A5FF4998","title":"庆会楼 外滩店","lon":"121.504501054","lat":"31.221032793","category":"96","category_name":"韩国料理","address":"黄浦区中山南路505弄老码头2号楼2楼(近复兴东路)"},{"poiid":"B2094654DB6BABF4499B","title":"汉庭快捷酒店(上海外滩店)","lon":"121.50508","lat":"31.22008","category":"216","category_name":"经济型连锁酒店","address":"上海黄浦区中山南路433号(近复兴东路)  "},{"poiid":"B2094757D06AA1FC4999","title":"农业银行信用卡中心","lon":"121.50236511","lat":"31.221599578","category":"46","category_name":"楼宇","address":"上海中山南二路318号新源广场"},{"poiid":"B2094757D16BA3FA489E","title":"外滩酒吧","lon":"121.501479738","lat":"31.2253351958","category":"247","category_name":"餐饮美食","address":"上海市中山东二路575号"},{"poiid":"B2094757DB6CA6FC4199","title":"好乐迪","lon":"121.5043331429361","lat":"31.22490214062436","category":"248","category_name":"生活娱乐","address":"八佰伴"},{"poiid":"B2094757D465A3FD449E","title":"外滩第一台 Table Number 1","lon":"121.504926","lat":"31.22005","category":"67","category_name":"甜品店","address":"黄浦区毛家园路1-3号(近中山南路)"},{"poiid":"B2094655D268A6F8459A","title":"浦江公馆","lon":"121.49944","lat":"31.222755","category":"47","category_name":"住宅区","address":"中华路168弄"},{"poiid":"B2094757D16FABFA429A","title":"榖屋","lon":"121.50259761","lat":"31.223111765","category":"67","category_name":"甜品店","address":"浦东新区碧波路635号上海传奇内一楼105号铺(近张江高科地铁站)"},{"poiid":"B2094757D56CABFC4898","title":"满记甜品 外滩店","lon":"121.50372462089","lat":"31.222388306813","category":"247","category_name":"餐饮美食","address":"外马路19号4#景观台"},{"poiid":"B2094654DB69A7FE489C","title":"交银大厦","lon":"121.5019","lat":"31.22428","category":"46","category_name":"楼宇","address":"中山南路99"},{"poiid":"B2094757D06FA7FC4898","title":"十六铺面料城","lon":"121.49869","lat":"31.22476","category":"249","category_name":"购物服务","address":"黄浦区东门路168号(近中山东二路)"},{"poiid":"B2094654DA6EABFF419E","title":"上海市市八初级中学","lon":"121.50007","lat":"31.22189","category":"55","category_name":"中学","address":"西姚家弄48"},{"poiid":"B2094757D169A2FE4199","title":"银行间市场清算所股份有限公司","lon":"121.50247173","lat":"31.222629138","category":"263","category_name":"公司","address":"上海中山南路318号2号楼34层"},{"poiid":"B2094757D568AAFF469D","title":"金外滩国际广场","lon":"121.5010639","lat":"31.22469278","category":"46","category_name":"楼宇","address":"黄浦中山南路,复兴路口"},{"poiid":"B2094757D06FABF4459F","title":"十六铺公交枢纽站","lon":"121.498995","lat":"31.223048","category":"38","category_name":"公交车站","address":"上海中山东二路新开河路"},{"poiid":"B2094757D168A6F5429D","title":"吉雅拉面","lon":"121.503409","lat":"31.222638","category":"247","category_name":"餐饮美食","address":"上海陆家嘴天桥"},{"poiid":"B2094655D36CA6FA429D","title":"豆市街复兴东路","lon":"121.50216","lat":"31.22114","category":"38","category_name":"公交车站","address":""},{"poiid":"B2094757D464A7FB439F","title":"申绅会馆","lon":"121.504408","lat":"31.221194","category":"247","category_name":"餐饮美食","address":"中山南路505号老码头5号楼3-6楼近毛家园路"},{"poiid":"B2094757D464AAFB4193","title":"新外滩酒家 龙园店","lon":"121.501211054","lat":"31.224453793","category":"76","category_name":"上海菜","address":"黄浦区中山南路77号(近十六铺码头)"},{"poiid":"B2094750DA6DA1F4419B","title":"上海泰康路 田子坊","lon":"121.500495","lat":"31.225341","category":"248","category_name":"生活娱乐","address":null},{"poiid":"B2094655D36CA4FD439F","title":"白渡路中山南路","lon":"121.50318","lat":"31.22099","category":"38","category_name":"公交车站","address":""},{"poiid":"B2094655D36DA7F8449C","title":"中山东一路东门路","lon":"121.50145","lat":"31.22407","category":"38","category_name":"公交车站","address":""},{"poiid":"B2094752D16EABFA4998","title":"老码头5号楼泰麗","lon":"121.501579","lat":"31.221827","category":"247","category_name":"餐饮美食","address":"中山南路505号老码头斗秀场"},{"poiid":"B2094757D16FA7FD4799","title":"名信五号","lon":"121.503836405","lat":"31.2242111718","category":"247","category_name":"餐饮美食","address":"上海黄浦江游船"},{"poiid":"B2094654DA6EA4FA419B","title":"中国工商银行中山南路支行","lon":"121.50407","lat":"31.22165","category":"150","category_name":"银行","address":"黄浦区中山南路315号"},{"poiid":"B2094757D06BA7F8489A","title":"大达码头食堂","lon":"121.502324","lat":"31.224343","category":"247","category_name":"餐饮美食","address":"上海外马路129号"},{"poiid":"B2094655D268A1F9429B","title":"上海银行浦西支行","lon":"121.50282","lat":"31.22189","category":"150","category_name":"银行","address":"黄浦区中山南路318号2号楼(近豆市街)"},{"poiid":"B2094757D464AAFB4298","title":"咖啡饮 中山南路店 Caffe In","lon":"121.504501054","lat":"31.221032793","category":"65","category_name":"咖啡厅","address":"黄浦区中山南路505弄老码头7号楼101-103室(近复兴东路)"},{"poiid":"B2094654DB65A2FD489D","title":"良良商务楼","lon":"121.50183","lat":"31.22473","category":"46","category_name":"楼宇","address":"外马路80"},{"poiid":"B2094757D064A2FD4398","title":"交通银行上海市分行放款中心","lon":"121.50231563","lat":"31.221655517","category":"500","category_name":"未知分类","address":"上海中山南路99号13楼"},{"poiid":"B2094655D26AA7FD439C","title":"玫瑰公主号游轮","lon":"121.50117","lat":"31.22559","category":"247","category_name":"餐饮美食","address":"黄浦区外马路19号十六铺旅游集散中心内(近复兴路)查看地图"}]