[{"poiid":"B2094654DA69A7FB4599","title":"金茂大厦","lon":"121.5124569976","lat":"31.240872238236","category":"46","category_name":"楼宇","address":"浦东新区世纪大道88号金茂大厦内(近二号线陆家嘴站)"},{"poiid":"B2094654DB6BAAF8479D","title":"环球金融中心","lon":"121.514","lat":"31.241","category":"46","category_name":"楼宇","address":"上海市浦东新区陆家嘴世纪大道8号"},{"poiid":"B2094757D06EAAF4499F","title":"柚子(陆家嘴店)","lon":"121.50722621","lat":"31.240286474","category":"95","category_name":"日本料理","address":"浦东新区陆家嘴环路1000号恒生大楼46楼(近银城中路)"},{"poiid":"B209475CD564A7F84392","title":"上海滩浦东香格里拉店","lon":"121.50058","lat":"31.23634","category":"119","category_name":"商场","address":"浦东富成路33号香格里拉酒店内大堂层"},{"poiid":"B2094654DA69A7FF499A","title":"上海市东方医院同济大学附属东方医院","lon":"121.51234","lat":"31.23772","category":"162","category_name":"医院","address":"浦东新区即墨路150号"},{"poiid":"B2094757D06EAAFC429A","title":"恒生银行大厦","lon":"121.50714642","lat":"31.240029324","category":"46","category_name":"楼宇","address":"浦东新区金湘路225弄"},{"poiid":"B2094757D06FA1F9449F","title":"王朝大酒店(浦东店)","lon":"121.50810175","lat":"31.2391448509","category":"76","category_name":"上海菜","address":"浦东新区陆家嘴环路958号华能大厦3楼(近银城中路)"},{"poiid":"B2094655D26BA2F54792","title":"浦东大道东方医院","lon":"121.51231","lat":"31.23845","category":"162","category_name":"医院","address":""},{"poiid":"B2094655D268A3FB439E","title":"东亚银行金融大厦","lon":"121.509","lat":"31.2399","category":"46","category_name":"楼宇","address":"陆家嘴花园石桥路66号"},{"poiid":"B2094655D268A4F9409E","title":"太平金融大厦","lon":"121.51","lat":"31.2396","category":"46","category_name":"楼宇","address":"上海市浦东新区陆家嘴环路、花园石桥路"},{"poiid":"B2094757D06FABFD4792","title":"中融碧玉蓝天大厦","lon":"121.507242203","lat":"31.2415278323","category":"46","category_name":"楼宇","address":"上海市浦东新区银城中路8号"},{"poiid":"B2094757D068A2FC4593","title":"民生银行大厦(陆家嘴)","lon":"121.50841305","lat":"31.240807181","category":"46","category_name":"楼宇","address":"上海浦东新区浦东南路100号(浦东南路银城中路)"},{"poiid":"B2094757D06FA1FA4498","title":"招商局大厦","lon":"121.515135","lat":"31.242879","category":"46","category_name":"楼宇","address":"浦东新区陆家嘴东路161号"},{"poiid":"B2094757D06FA2F4419E","title":"新上海国际大厦","lon":"121.50929927","lat":"31.238815674","category":"46","category_name":"楼宇","address":"浦东南路360号，中国人民银行北侧"},{"poiid":"B2094757D06FA0F9469C","title":"汉宫","lon":"121.51043","lat":"31.238","category":"76","category_name":"上海菜","address":"浦东新区浦东南路360号新上海国际大厦8楼,48楼(近陆家嘴东路)"},{"poiid":"B2094757D06FA4FB4098","title":"中国民生银行上海总部","lon":"121.508242","lat":"31.240765","category":"260","category_name":"其他","address":"上海浦东新浦东南路100号"},{"poiid":"B2094757D06FA6FD479E","title":"工行上海分行","lon":"121.51130276","lat":"31.23914032","category":"500","category_name":"未知分类","address":"上海浦東大道9號"},{"poiid":"B2094757D06FA7F9449C","title":"瑞慈健康管理中心(华夏银行店)","lon":"121.50933","lat":"31.2392","category":"162","category_name":"医院","address":"浦东新区浦东南路256号华夏银行大厦3楼(近浦东大道)"},{"poiid":"B2094757D06FA2FF4092","title":"建设银行(陆家嘴分行)","lon":"121.50870513","lat":"31.238155365","category":"150","category_name":"银行","address":"上海浦东新区陆家嘴环路900号"},{"poiid":"B2094757D06FA7F54993","title":"老山东鲁菜馆","lon":"121.510469","lat":"31.239297","category":"73","category_name":"山东菜","address":"浦东新区浦东南路379号金穗大厦6楼(近浦东大道)"},{"poiid":"B2094757D068AAFC469B","title":"保利广场","lon":"121.514956916","lat":"31.2433600232","category":"500","category_name":"未知分类","address":"闸北区共和新路3703,3737号"},{"poiid":"B2094757D068ABFF4899","title":"东方医院急诊部","lon":"121.512201667","lat":"31.237744757","category":"162","category_name":"医院","address":"上海浦东新区即墨路150号(近浦东大道)"},{"poiid":"B2094757D06FAAFF439E","title":"中国船舶大厦","lon":"121.510881","lat":"31.238821","category":"46","category_name":"楼宇","address":"上海市宝山区牡丹江路1228号"},{"poiid":"B2094757D068A4FE4098","title":"顺峰(浦东银城店)","lon":"121.50784301","lat":"31.24158287","category":"72","category_name":"广东菜","address":"浦东新区银城中路8号碧玉蓝天3-4楼(金洲街银城中路)"},{"poiid":"B2094757D068A6FD489F","title":"永华大厦","lon":"121.51416015","lat":"31.238700866","category":"46","category_name":"楼宇","address":"浦东大道138号"},{"poiid":"B2094757D068A6FC449A","title":"即墨路","lon":"121.51289367","lat":"31.239175796","category":"500","category_name":"未知分类","address":"上海即墨路"},{"poiid":"B2094757D06FA3FA489F","title":"外汇管理局","lon":"121.509963989","lat":"31.2383117676","category":"500","category_name":"未知分类","address":"上海陆家嘴东路181号"},{"poiid":"B2094655D26DA1F8439E","title":"世界金融大厦","lon":"121.50865","lat":"31.23839","category":"46","category_name":"楼宇","address":"上海陆家嘴环路900号"},{"poiid":"B2094757D66EA3F54792","title":"中国工商银行上海市分行","lon":"121.512708738","lat":"31.2381974699","category":"500","category_name":"未知分类","address":"浦东新区浦东大道9号(东方医院对面)"},{"poiid":"B2094655D268A4F4449A","title":"浦江双辉大厦","lon":"121.51042","lat":"31.24277","category":"46","category_name":"楼宇","address":"静安区南京西路555路"},{"poiid":"B2094757D065A5FF4598","title":"La Foret","lon":"121.510756","lat":"31.242361","category":"67","category_name":"甜品店","address":"浦东新区世纪大道8号国金中心LG2-C3室(近陆家嘴地铁站)"},{"poiid":"B2094753DB68A4F84292","title":"上海浦东文华东方大酒店","lon":"121.507225","lat":"31.243402","category":"500","category_name":"未知分类","address":"上海市 浦东南路111号"},{"poiid":"B2094757D06AA6FA419C","title":"东方医院体检中心","lon":"121.51287","lat":"31.23781","category":"162","category_name":"医院","address":"浦东新区即墨路150号东方医院内(近浦东大道)"},{"poiid":"B2094757D06AAAFD4992","title":"上岛咖啡 陆家嘴金融店 UBC Coffee","lon":"121.51266479492","lat":"31.240152359009","category":"260","category_name":"其他","address":"浦东新区即墨路39号(近昌邑路)"},{"poiid":"B2094757D06FA6F5479E","title":"民生银行上海分行","lon":"121.50772374","lat":"31.240858936","category":"150","category_name":"银行","address":"上海浦东南路100号"},{"poiid":"B2094757D16DA6FD499B","title":"上海农商银行总行","lon":"121.50773373","lat":"31.241263535","category":"150","category_name":"银行","address":"上海中融碧玉蓝天大厦(银城中路8号)"},{"poiid":"B2094654DA69A0FC449F","title":"世纪金融大厦","lon":"121.51198","lat":"31.23891","category":"46","category_name":"楼宇","address":"浦东大道9号"},{"poiid":"B2094753D76EA0F4429A","title":"皇玺","lon":"121.51065","lat":"31.241565","category":"47","category_name":"住宅区","address":"上海市 浦东南路27号"},{"poiid":"B2094753D26FA4F8429E","title":"文華廚房","lon":"121.507316","lat":"31.243278","category":"249","category_name":"购物服务","address":"上海市 浦東南路111號"},{"poiid":"B2094757D068A3FF4899","title":"华夏银行上海分行","lon":"121.508972168","lat":"31.2394714355","category":"125","category_name":"书店","address":"上海浦东南路256号 （近东城路）"},{"poiid":"B2094757D465A3F9439D","title":"柯记港式茶餐厅","lon":"121.513903054","lat":"31.240806793","category":"72","category_name":"广东菜","address":"浦东新区昌邑路88号(近即墨路)"},{"poiid":"B2094654DA69A0FC479F","title":"浦江茗园","lon":"121.5135","lat":"31.241152","category":"47","category_name":"住宅区","address":"上海市浦东新区昌邑路55弄"},{"poiid":"B2094757D16CABFA439C","title":"瑞苑公寓","lon":"121.51055173","lat":"31.240868526","category":"252","category_name":"楼宇机构","address":"浦东新区浦东大道3号(近即墨路)"},{"poiid":"B209475CD76EA3FC4093","title":"文华东方zest文华厨房","lon":"121.511627","lat":"31.241321","category":"500","category_name":"未知分类","address":"上海市 上海浦东南路111号"},{"poiid":"B2094654DA69A0FC4493","title":"上船大楼","lon":"121.51326","lat":"31.23954","category":"47","category_name":"住宅区","address":"徐汇区田林路300号"},{"poiid":"B209475CDB68A6FC4798","title":"上海浦东文华东方大酒店","lon":"121.509819","lat":"31.242807","category":"500","category_name":"未知分类","address":"浦东南路111号"},{"poiid":"B2094757D06BA3FE409F","title":"东方医院输液室","lon":"121.512332","lat":"31.237727","category":"162","category_name":"医院","address":"上海东方医院急诊"},{"poiid":"B2094757D464A0F8439F","title":"汤姆杰瑞西餐酒吧 Tom and Jerry's","lon":"121.512829054","lat":"31.240417793","category":"68","category_name":"快餐厅","address":"昌邑路27号近即墨路口"},{"poiid":"B2094757D064A0F94199","title":"Chloe's","lon":"121.51385973","lat":"31.238796482","category":"94","category_name":"西餐厅","address":"浦东新区昌邑路31号(即墨路口)"},{"poiid":"B2094750DA6AA0F9409A","title":"北外滩滨江大道","lon":"121.512023","lat":"31.244825","category":"250","category_name":"公园户外","address":null},{"poiid":"B2094654DA69A7FB4599","title":"金茂大厦","lon":"121.5124569976","lat":"31.240872238236","category":"46","category_name":"楼宇","address":"浦东新区世纪大道88号金茂大厦内(近二号线陆家嘴站)"},{"poiid":"B2094654DB6BAAF8479D","title":"环球金融中心","lon":"121.514","lat":"31.241","category":"46","category_name":"楼宇","address":"上海市浦东新区陆家嘴世纪大道8号"},{"poiid":"B2094757D06EAAF4499F","title":"柚子(陆家嘴店)","lon":"121.50722621","lat":"31.240286474","category":"95","category_name":"日本料理","address":"浦东新区陆家嘴环路1000号恒生大楼46楼(近银城中路)"},{"poiid":"B209475CD564A7F84392","title":"上海滩浦东香格里拉店","lon":"121.50058","lat":"31.23634","category":"119","category_name":"商场","address":"浦东富成路33号香格里拉酒店内大堂层"},{"poiid":"B2094654DA69A7FF499A","title":"上海市东方医院同济大学附属东方医院","lon":"121.51234","lat":"31.23772","category":"162","category_name":"医院","address":"浦东新区即墨路150号"},{"poiid":"B2094757D06EAAFC429A","title":"恒生银行大厦","lon":"121.50714642","lat":"31.240029324","category":"46","category_name":"楼宇","address":"浦东新区金湘路225弄"},{"poiid":"B2094757D06FA1F9449F","title":"王朝大酒店(浦东店)","lon":"121.50810175","lat":"31.2391448509","category":"76","category_name":"上海菜","address":"浦东新区陆家嘴环路958号华能大厦3楼(近银城中路)"},{"poiid":"B2094655D26BA2F54792","title":"浦东大道东方医院","lon":"121.51231","lat":"31.23845","category":"162","category_name":"医院","address":""},{"poiid":"B2094655D268A3FB439E","title":"东亚银行金融大厦","lon":"121.509","lat":"31.2399","category":"46","category_name":"楼宇","address":"陆家嘴花园石桥路66号"},{"poiid":"B2094655D268A4F9409E","title":"太平金融大厦","lon":"121.51","lat":"31.2396","category":"46","category_name":"楼宇","address":"上海市浦东新区陆家嘴环路、花园石桥路"},{"poiid":"B2094757D06FABFD4792","title":"中融碧玉蓝天大厦","lon":"121.507242203","lat":"31.2415278323","category":"46","category_name":"楼宇","address":"上海市浦东新区银城中路8号"},{"poiid":"B2094757D068A2FC4593","title":"民生银行大厦(陆家嘴)","lon":"121.50841305","lat":"31.240807181","category":"46","category_name":"楼宇","address":"上海浦东新区浦东南路100号(浦东南路银城中路)"},{"poiid":"B2094757D06FA1FA4498","title":"招商局大厦","lon":"121.515135","lat":"31.242879","category":"46","category_name":"楼宇","address":"浦东新区陆家嘴东路161号"},{"poiid":"B2094757D06FA2F4419E","title":"新上海国际大厦","lon":"121.50929927","lat":"31.238815674","category":"46","category_name":"楼宇","address":"浦东南路360号，中国人民银行北侧"},{"poiid":"B2094757D06FA0F9469C","title":"汉宫","lon":"121.51043","lat":"31.238","category":"76","category_name":"上海菜","address":"浦东新区浦东南路360号新上海国际大厦8楼,48楼(近陆家嘴东路)"},{"poiid":"B2094757D06FA4FB4098","title":"中国民生银行上海总部","lon":"121.508242","lat":"31.240765","category":"260","category_name":"其他","address":"上海浦东新浦东南路100号"},{"poiid":"B2094757D06FA6FD479E","title":"工行上海分行","lon":"121.51130276","lat":"31.23914032","category":"500","category_name":"未知分类","address":"上海浦東大道9號"},{"poiid":"B2094757D06FA7F9449C","title":"瑞慈健康管理中心(华夏银行店)","lon":"121.50933","lat":"31.2392","category":"162","category_name":"医院","address":"浦东新区浦东南路256号华夏银行大厦3楼(近浦东大道)"},{"poiid":"B2094757D06FA2FF4092","title":"建设银行(陆家嘴分行)","lon":"121.50870513","lat":"31.238155365","category":"150","category_name":"银行","address":"上海浦东新区陆家嘴环路900号"},{"poiid":"B2094757D06FA7F54993","title":"老山东鲁菜馆","lon":"121.510469","lat":"31.239297","category":"73","category_name":"山东菜","address":"浦东新区浦东南路379号金穗大厦6楼(近浦东大道)"},{"poiid":"B2094757D068AAFC469B","title":"保利广场","lon":"121.514956916","lat":"31.2433600232","category":"500","category_name":"未知分类","address":"闸北区共和新路3703,3737号"},{"poiid":"B2094757D068ABFF4899","title":"东方医院急诊部","lon":"121.512201667","lat":"31.237744757","category":"162","category_name":"医院","address":"上海浦东新区即墨路150号(近浦东大道)"},{"poiid":"B2094757D06FAAFF439E","title":"中国船舶大厦","lon":"121.510881","lat":"31.238821","category":"46","category_name":"楼宇","address":"上海市宝山区牡丹江路1228号"},{"poiid":"B2094757D068A4FE4098","title":"顺峰(浦东银城店)","lon":"121.50784301","lat":"31.24158287","category":"72","category_name":"广东菜","address":"浦东新区银城中路8号碧玉蓝天3-4楼(金洲街银城中路)"},{"poiid":"B2094757D068A6FD489F","title":"永华大厦","lon":"121.51416015","lat":"31.238700866","category":"46","category_name":"楼宇","address":"浦东大道138号"},{"poiid":"B2094757D068A6FC449A","title":"即墨路","lon":"121.51289367","lat":"31.239175796","category":"500","category_name":"未知分类","address":"上海即墨路"},{"poiid":"B2094757D06FA3FA489F","title":"外汇管理局","lon":"121.509963989","lat":"31.2383117676","category":"500","category_name":"未知分类","address":"上海陆家嘴东路181号"},{"poiid":"B2094655D26DA1F8439E","title":"世界金融大厦","lon":"121.50865","lat":"31.23839","category":"46","category_name":"楼宇","address":"上海陆家嘴环路900号"},{"poiid":"B2094757D66EA3F54792","title":"中国工商银行上海市分行","lon":"121.512708738","lat":"31.2381974699","category":"500","category_name":"未知分类","address":"浦东新区浦东大道9号(东方医院对面)"},{"poiid":"B2094655D268A4F4449A","title":"浦江双辉大厦","lon":"121.51042","lat":"31.24277","category":"46","category_name":"楼宇","address":"静安区南京西路555路"},{"poiid":"B2094757D065A5FF4598","title":"La Foret","lon":"121.510756","lat":"31.242361","category":"67","category_name":"甜品店","address":"浦东新区世纪大道8号国金中心LG2-C3室(近陆家嘴地铁站)"},{"poiid":"B2094753DB68A4F84292","title":"上海浦东文华东方大酒店","lon":"121.507225","lat":"31.243402","category":"500","category_name":"未知分类","address":"上海市 浦东南路111号"},{"poiid":"B2094757D06AA6FA419C","title":"东方医院体检中心","lon":"121.51287","lat":"31.23781","category":"162","category_name":"医院","address":"浦东新区即墨路150号东方医院内(近浦东大道)"},{"poiid":"B2094757D06AAAFD4992","title":"上岛咖啡 陆家嘴金融店 UBC Coffee","lon":"121.51266479492","lat":"31.240152359009","category":"260","category_name":"其他","address":"浦东新区即墨路39号(近昌邑路)"},{"poiid":"B2094757D06FA6F5479E","title":"民生银行上海分行","lon":"121.50772374","lat":"31.240858936","category":"150","category_name":"银行","address":"上海浦东南路100号"},{"poiid":"B2094757D16DA6FD499B","title":"上海农商银行总行","lon":"121.50773373","lat":"31.241263535","category":"150","category_name":"银行","address":"上海中融碧玉蓝天大厦(银城中路8号)"},{"poiid":"B2094654DA69A0FC449F","title":"世纪金融大厦","lon":"121.51198","lat":"31.23891","category":"46","category_name":"楼宇","address":"浦东大道9号"},{"poiid":"B2094753D76EA0F4429A","title":"皇玺","lon":"121.51065","lat":"31.241565","category":"47","category_name":"住宅区","address":"上海市 浦东南路27号"},{"poiid":"B2094753D26FA4F8429E","title":"文華廚房","lon":"121.507316","lat":"31.243278","category":"249","category_name":"购物服务","address":"上海市 浦東南路111號"},{"poiid":"B2094757D068A3FF4899","title":"华夏银行上海分行","lon":"121.508972168","lat":"31.2394714355","category":"125","category_name":"书店","address":"上海浦东南路256号 （近东城路）"},{"poiid":"B2094757D465A3F9439D","title":"柯记港式茶餐厅","lon":"121.513903054","lat":"31.240806793","category":"72","category_name":"广东菜","address":"浦东新区昌邑路88号(近即墨路)"},{"poiid":"B2094654DA69A0FC479F","title":"浦江茗园","lon":"121.5135","lat":"31.241152","category":"47","category_name":"住宅区","address":"上海市浦东新区昌邑路55弄"},{"poiid":"B2094757D16CABFA439C","title":"瑞苑公寓","lon":"121.51055173","lat":"31.240868526","category":"252","category_name":"楼宇机构","address":"浦东新区浦东大道3号(近即墨路)"},{"poiid":"B209475CD76EA3FC4093","title":"文华东方zest文华厨房","lon":"121.511627","lat":"31.241321","category":"500","category_name":"未知分类","address":"上海市 上海浦东南路111号"},{"poiid":"B2094654DA69A0FC4493","title":"上船大楼","lon":"121.51326","lat":"31.23954","category":"47","category_name":"住宅区","address":"徐汇区田林路300号"},{"poiid":"B209475CDB68A6FC4798","title":"上海浦东文华东方大酒店","lon":"121.509819","lat":"31.242807","category":"500","category_name":"未知分类","address":"浦东南路111号"},{"poiid":"B2094757D06BA3FE409F","title":"东方医院输液室","lon":"121.512332","lat":"31.237727","category":"162","category_name":"医院","address":"上海东方医院急诊"},{"poiid":"B2094757D464A0F8439F","title":"汤姆杰瑞西餐酒吧 Tom and Jerry's","lon":"121.512829054","lat":"31.240417793","category":"68","category_name":"快餐厅","address":"昌邑路27号近即墨路口"},{"poiid":"B2094757D064A0F94199","title":"Chloe's","lon":"121.51385973","lat":"31.238796482","category":"94","category_name":"西餐厅","address":"浦东新区昌邑路31号(即墨路口)"},{"poiid":"B2094750DA6AA0F9409A","title":"北外滩滨江大道","lon":"121.512023","lat":"31.244825","category":"250","category_name":"公园户外","address":null},{"poiid":"B2094654DA69A7FB4599","title":"金茂大厦","lon":"121.5124569976","lat":"31.240872238236","category":"46","category_name":"楼宇","address":"浦东新区世纪大道88号金茂大厦内(近二号线陆家嘴站)"},{"poiid":"B2094654DB6BAAF8479D","title":"环球金融中心","lon":"121.514","lat":"31.241","category":"46","category_name":"楼宇","address":"上海市浦东新区陆家嘴世纪大道8号"},{"poiid":"B2094757D06EAAF4499F","title":"柚子(陆家嘴店)","lon":"121.50722621","lat":"31.240286474","category":"95","category_name":"日本料理","address":"浦东新区陆家嘴环路1000号恒生大楼46楼(近银城中路)"},{"poiid":"B209475CD564A7F84392","title":"上海滩浦东香格里拉店","lon":"121.50058","lat":"31.23634","category":"119","category_name":"商场","address":"浦东富成路33号香格里拉酒店内大堂层"},{"poiid":"B2094654DA69A7FF499A","title":"上海市东方医院同济大学附属东方医院","lon":"121.51234","lat":"31.23772","category":"162","category_name":"医院","address":"浦东新区即墨路150号"},{"poiid":"B2094757D06EAAFC429A","title":"恒生银行大厦","lon":"121.50714642","lat":"31.240029324","category":"46","category_name":"楼宇","address":"浦东新区金湘路225弄"},{"poiid":"B2094757D06FA1F9449F","title":"王朝大酒店(浦东店)","lon":"121.50810175","lat":"31.2391448509","category":"76","category_name":"上海菜","address":"浦东新区陆家嘴环路958号华能大厦3楼(近银城中路)"},{"poiid":"B2094655D26BA2F54792","title":"浦东大道东方医院","lon":"121.51231","lat":"31.23845","category":"162","category_name":"医院","address":""},{"poiid":"B2094655D268A3FB439E","title":"东亚银行金融大厦","lon":"121.509","lat":"31.2399","category":"46","category_name":"楼宇","address":"陆家嘴花园石桥路66号"},{"poiid":"B2094655D268A4F9409E","title":"太平金融大厦","lon":"121.51","lat":"31.2396","category":"46","category_name":"楼宇","address":"上海市浦东新区陆家嘴环路、花园石桥路"},{"poiid":"B2094757D06FABFD4792","title":"中融碧玉蓝天大厦","lon":"121.507242203","lat":"31.2415278323","category":"46","category_name":"楼宇","address":"上海市浦东新区银城中路8号"},{"poiid":"B2094757D068A2FC4593","title":"民生银行大厦(陆家嘴)","lon":"121.50841305","lat":"31.240807181","category":"46","category_name":"楼宇","address":"上海浦东新区浦东南路100号(浦东南路银城中路)"},{"poiid":"B2094757D06FA1FA4498","title":"招商局大厦","lon":"121.515135","lat":"31.242879","category":"46","category_name":"楼宇","address":"浦东新区陆家嘴东路161号"},{"poiid":"B2094757D06FA2F4419E","title":"新上海国际大厦","lon":"121.50929927","lat":"31.238815674","category":"46","category_name":"楼宇","address":"浦东南路360号，中国人民银行北侧"},{"poiid":"B2094757D06FA0F9469C","title":"汉宫","lon":"121.51043","lat":"31.238","category":"76","category_name":"上海菜","address":"浦东新区浦东南路360号新上海国际大厦8楼,48楼(近陆家嘴东路)"},{"poiid":"B2094757D06FA4FB4098","title":"中国民生银行上海总部","lon":"121.508242","lat":"31.240765","category":"260","category_name":"其他","address":"上海浦东新浦东南路100号"},{"poiid":"B2094757D06FA6FD479E","title":"工行上海分行","lon":"121.51130276","lat":"31.23914032","category":"500","category_name":"未知分类","address":"上海浦東大道9號"},{"poiid":"B2094757D06FA7F9449C","title":"瑞慈健康管理中心(华夏银行店)","lon":"121.50933","lat":"31.2392","category":"162","category_name":"医院","address":"浦东新区浦东南路256号华夏银行大厦3楼(近浦东大道)"},{"poiid":"B2094757D06FA2FF4092","title":"建设银行(陆家嘴分行)","lon":"121.50870513","lat":"31.238155365","category":"150","category_name":"银行","address":"上海浦东新区陆家嘴环路900号"},{"poiid":"B2094757D06FA7F54993","title":"老山东鲁菜馆","lon":"121.510469","lat":"31.239297","category":"73","category_name":"山东菜","address":"浦东新区浦东南路379号金穗大厦6楼(近浦东大道)"},{"poiid":"B2094757D068AAFC469B","title":"保利广场","lon":"121.514956916","lat":"31.2433600232","category":"500","category_name":"未知分类","address":"闸北区共和新路3703,3737号"},{"poiid":"B2094757D068ABFF4899","title":"东方医院急诊部","lon":"121.512201667","lat":"31.237744757","category":"162","category_name":"医院","address":"上海浦东新区即墨路150号(近浦东大道)"},{"poiid":"B2094757D06FAAFF439E","title":"中国船舶大厦","lon":"121.510881","lat":"31.238821","category":"46","category_name":"楼宇","address":"上海市宝山区牡丹江路1228号"},{"poiid":"B2094757D068A4FE4098","title":"顺峰(浦东银城店)","lon":"121.50784301","lat":"31.24158287","category":"72","category_name":"广东菜","address":"浦东新区银城中路8号碧玉蓝天3-4楼(金洲街银城中路)"},{"poiid":"B2094757D068A6FD489F","title":"永华大厦","lon":"121.51416015","lat":"31.238700866","category":"46","category_name":"楼宇","address":"浦东大道138号"},{"poiid":"B2094757D068A6FC449A","title":"即墨路","lon":"121.51289367","lat":"31.239175796","category":"500","category_name":"未知分类","address":"上海即墨路"},{"poiid":"B2094757D06FA3FA489F","title":"外汇管理局","lon":"121.509963989","lat":"31.2383117676","category":"500","category_name":"未知分类","address":"上海陆家嘴东路181号"},{"poiid":"B2094655D26DA1F8439E","title":"世界金融大厦","lon":"121.50865","lat":"31.23839","category":"46","category_name":"楼宇","address":"上海陆家嘴环路900号"},{"poiid":"B2094757D66EA3F54792","title":"中国工商银行上海市分行","lon":"121.512708738","lat":"31.2381974699","category":"500","category_name":"未知分类","address":"浦东新区浦东大道9号(东方医院对面)"},{"poiid":"B2094655D268A4F4449A","title":"浦江双辉大厦","lon":"121.51042","lat":"31.24277","category":"46","category_name":"楼宇","address":"静安区南京西路555路"},{"poiid":"B2094757D065A5FF4598","title":"La Foret","lon":"121.510756","lat":"31.242361","category":"67","category_name":"甜品店","address":"浦东新区世纪大道8号国金中心LG2-C3室(近陆家嘴地铁站)"},{"poiid":"B2094753DB68A4F84292","title":"上海浦东文华东方大酒店","lon":"121.507225","lat":"31.243402","category":"500","category_name":"未知分类","address":"上海市 浦东南路111号"},{"poiid":"B2094757D06AA6FA419C","title":"东方医院体检中心","lon":"121.51287","lat":"31.23781","category":"162","category_name":"医院","address":"浦东新区即墨路150号东方医院内(近浦东大道)"},{"poiid":"B2094757D06AAAFD4992","title":"上岛咖啡 陆家嘴金融店 UBC Coffee","lon":"121.51266479492","lat":"31.240152359009","category":"260","category_name":"其他","address":"浦东新区即墨路39号(近昌邑路)"},{"poiid":"B2094757D06FA6F5479E","title":"民生银行上海分行","lon":"121.50772374","lat":"31.240858936","category":"150","category_name":"银行","address":"上海浦东南路100号"},{"poiid":"B2094757D16DA6FD499B","title":"上海农商银行总行","lon":"121.50773373","lat":"31.241263535","category":"150","category_name":"银行","address":"上海中融碧玉蓝天大厦(银城中路8号)"},{"poiid":"B2094654DA69A0FC449F","title":"世纪金融大厦","lon":"121.51198","lat":"31.23891","category":"46","category_name":"楼宇","address":"浦东大道9号"},{"poiid":"B2094753D76EA0F4429A","title":"皇玺","lon":"121.51065","lat":"31.241565","category":"47","category_name":"住宅区","address":"上海市 浦东南路27号"},{"poiid":"B2094753D26FA4F8429E","title":"文華廚房","lon":"121.507316","lat":"31.243278","category":"249","category_name":"购物服务","address":"上海市 浦東南路111號"},{"poiid":"B2094757D068A3FF4899","title":"华夏银行上海分行","lon":"121.508972168","lat":"31.2394714355","category":"125","category_name":"书店","address":"上海浦东南路256号 （近东城路）"},{"poiid":"B2094757D465A3F9439D","title":"柯记港式茶餐厅","lon":"121.513903054","lat":"31.240806793","category":"72","category_name":"广东菜","address":"浦东新区昌邑路88号(近即墨路)"},{"poiid":"B2094654DA69A0FC479F","title":"浦江茗园","lon":"121.5135","lat":"31.241152","category":"47","category_name":"住宅区","address":"上海市浦东新区昌邑路55弄"},{"poiid":"B2094757D16CABFA439C","title":"瑞苑公寓","lon":"121.51055173","lat":"31.240868526","category":"252","category_name":"楼宇机构","address":"浦东新区浦东大道3号(近即墨路)"},{"poiid":"B209475CD76EA3FC4093","title":"文华东方zest文华厨房","lon":"121.511627","lat":"31.241321","category":"500","category_name":"未知分类","address":"上海市 上海浦东南路111号"},{"poiid":"B2094654DA69A0FC4493","title":"上船大楼","lon":"121.51326","lat":"31.23954","category":"47","category_name":"住宅区","address":"徐汇区田林路300号"},{"poiid":"B209475CDB68A6FC4798","title":"上海浦东文华东方大酒店","lon":"121.509819","lat":"31.242807","category":"500","category_name":"未知分类","address":"浦东南路111号"},{"poiid":"B2094757D06BA3FE409F","title":"东方医院输液室","lon":"121.512332","lat":"31.237727","category":"162","category_name":"医院","address":"上海东方医院急诊"},{"poiid":"B2094757D464A0F8439F","title":"汤姆杰瑞西餐酒吧 Tom and Jerry's","lon":"121.512829054","lat":"31.240417793","category":"68","category_name":"快餐厅","address":"昌邑路27号近即墨路口"},{"poiid":"B2094757D064A0F94199","title":"Chloe's","lon":"121.51385973","lat":"31.238796482","category":"94","category_name":"西餐厅","address":"浦东新区昌邑路31号(即墨路口)"},{"poiid":"B2094750DA6AA0F9409A","title":"北外滩滨江大道","lon":"121.512023","lat":"31.244825","category":"250","category_name":"公园户外","address":null},{"poiid":"B2094654DA69A7FB4599","title":"金茂大厦","lon":"121.5124569976","lat":"31.240872238236","category":"46","category_name":"楼宇","address":"浦东新区世纪大道88号金茂大厦内(近二号线陆家嘴站)"},{"poiid":"B2094654DB6BAAF8479D","title":"环球金融中心","lon":"121.514","lat":"31.241","category":"46","category_name":"楼宇","address":"上海市浦东新区陆家嘴世纪大道8号"},{"poiid":"B2094757D06EAAF4499F","title":"柚子(陆家嘴店)","lon":"121.50722621","lat":"31.240286474","category":"95","category_name":"日本料理","address":"浦东新区陆家嘴环路1000号恒生大楼46楼(近银城中路)"},{"poiid":"B209475CD564A7F84392","title":"上海滩浦东香格里拉店","lon":"121.50058","lat":"31.23634","category":"119","category_name":"商场","address":"浦东富成路33号香格里拉酒店内大堂层"},{"poiid":"B2094654DA69A7FF499A","title":"上海市东方医院同济大学附属东方医院","lon":"121.51234","lat":"31.23772","category":"162","category_name":"医院","address":"浦东新区即墨路150号"},{"poiid":"B2094757D06EAAFC429A","title":"恒生银行大厦","lon":"121.50714642","lat":"31.240029324","category":"46","category_name":"楼宇","address":"浦东新区金湘路225弄"},{"poiid":"B2094757D06FA1F9449F","title":"王朝大酒店(浦东店)","lon":"121.50810175","lat":"31.2391448509","category":"76","category_name":"上海菜","address":"浦东新区陆家嘴环路958号华能大厦3楼(近银城中路)"},{"poiid":"B2094655D26BA2F54792","title":"浦东大道东方医院","lon":"121.51231","lat":"31.23845","category":"162","category_name":"医院","address":""},{"poiid":"B2094655D268A3FB439E","title":"东亚银行金融大厦","lon":"121.509","lat":"31.2399","category":"46","category_name":"楼宇","address":"陆家嘴花园石桥路66号"},{"poiid":"B2094655D268A4F9409E","title":"太平金融大厦","lon":"121.51","lat":"31.2396","category":"46","category_name":"楼宇","address":"上海市浦东新区陆家嘴环路、花园石桥路"},{"poiid":"B2094757D06FABFD4792","title":"中融碧玉蓝天大厦","lon":"121.507242203","lat":"31.2415278323","category":"46","category_name":"楼宇","address":"上海市浦东新区银城中路8号"},{"poiid":"B2094757D068A2FC4593","title":"民生银行大厦(陆家嘴)","lon":"121.50841305","lat":"31.240807181","category":"46","category_name":"楼宇","address":"上海浦东新区浦东南路100号(浦东南路银城中路)"},{"poiid":"B2094757D06FA1FA4498","title":"招商局大厦","lon":"121.515135","lat":"31.242879","category":"46","category_name":"楼宇","address":"浦东新区陆家嘴东路161号"},{"poiid":"B2094757D06FA2F4419E","title":"新上海国际大厦","lon":"121.50929927","lat":"31.238815674","category":"46","category_name":"楼宇","address":"浦东南路360号，中国人民银行北侧"},{"poiid":"B2094757D06FA0F9469C","title":"汉宫","lon":"121.51043","lat":"31.238","category":"76","category_name":"上海菜","address":"浦东新区浦东南路360号新上海国际大厦8楼,48楼(近陆家嘴东路)"},{"poiid":"B2094757D06FA4FB4098","title":"中国民生银行上海总部","lon":"121.508242","lat":"31.240765","category":"260","category_name":"其他","address":"上海浦东新浦东南路100号"},{"poiid":"B2094757D06FA6FD479E","title":"工行上海分行","lon":"121.51130276","lat":"31.23914032","category":"500","category_name":"未知分类","address":"上海浦東大道9號"},{"poiid":"B2094757D06FA7F9449C","title":"瑞慈健康管理中心(华夏银行店)","lon":"121.50933","lat":"31.2392","category":"162","category_name":"医院","address":"浦东新区浦东南路256号华夏银行大厦3楼(近浦东大道)"},{"poiid":"B2094757D06FA2FF4092","title":"建设银行(陆家嘴分行)","lon":"121.50870513","lat":"31.238155365","category":"150","category_name":"银行","address":"上海浦东新区陆家嘴环路900号"},{"poiid":"B2094757D06FA7F54993","title":"老山东鲁菜馆","lon":"121.510469","lat":"31.239297","category":"73","category_name":"山东菜","address":"浦东新区浦东南路379号金穗大厦6楼(近浦东大道)"},{"poiid":"B2094757D068AAFC469B","title":"保利广场","lon":"121.514956916","lat":"31.2433600232","category":"500","category_name":"未知分类","address":"闸北区共和新路3703,3737号"},{"poiid":"B2094757D068ABFF4899","title":"东方医院急诊部","lon":"121.512201667","lat":"31.237744757","category":"162","category_name":"医院","address":"上海浦东新区即墨路150号(近浦东大道)"},{"poiid":"B2094757D06FAAFF439E","title":"中国船舶大厦","lon":"121.510881","lat":"31.238821","category":"46","category_name":"楼宇","address":"上海市宝山区牡丹江路1228号"},{"poiid":"B2094757D068A4FE4098","title":"顺峰(浦东银城店)","lon":"121.50784301","lat":"31.24158287","category":"72","category_name":"广东菜","address":"浦东新区银城中路8号碧玉蓝天3-4楼(金洲街银城中路)"},{"poiid":"B2094757D068A6FD489F","title":"永华大厦","lon":"121.51416015","lat":"31.238700866","category":"46","category_name":"楼宇","address":"浦东大道138号"},{"poiid":"B2094757D068A6FC449A","title":"即墨路","lon":"121.51289367","lat":"31.239175796","category":"500","category_name":"未知分类","address":"上海即墨路"},{"poiid":"B2094757D06FA3FA489F","title":"外汇管理局","lon":"121.509963989","lat":"31.2383117676","category":"500","category_name":"未知分类","address":"上海陆家嘴东路181号"},{"poiid":"B2094655D26DA1F8439E","title":"世界金融大厦","lon":"121.50865","lat":"31.23839","category":"46","category_name":"楼宇","address":"上海陆家嘴环路900号"},{"poiid":"B2094757D66EA3F54792","title":"中国工商银行上海市分行","lon":"121.512708738","lat":"31.2381974699","category":"500","category_name":"未知分类","address":"浦东新区浦东大道9号(东方医院对面)"},{"poiid":"B2094655D268A4F4449A","title":"浦江双辉大厦","lon":"121.51042","lat":"31.24277","category":"46","category_name":"楼宇","address":"静安区南京西路555路"},{"poiid":"B2094757D065A5FF4598","title":"La Foret","lon":"121.510756","lat":"31.242361","category":"67","category_name":"甜品店","address":"浦东新区世纪大道8号国金中心LG2-C3室(近陆家嘴地铁站)"},{"poiid":"B2094753DB68A4F84292","title":"上海浦东文华东方大酒店","lon":"121.507225","lat":"31.243402","category":"500","category_name":"未知分类","address":"上海市 浦东南路111号"},{"poiid":"B2094757D06AA6FA419C","title":"东方医院体检中心","lon":"121.51287","lat":"31.23781","category":"162","category_name":"医院","address":"浦东新区即墨路150号东方医院内(近浦东大道)"},{"poiid":"B2094757D06AAAFD4992","title":"上岛咖啡 陆家嘴金融店 UBC Coffee","lon":"121.51266479492","lat":"31.240152359009","category":"260","category_name":"其他","address":"浦东新区即墨路39号(近昌邑路)"},{"poiid":"B2094757D06FA6F5479E","title":"民生银行上海分行","lon":"121.50772374","lat":"31.240858936","category":"150","category_name":"银行","address":"上海浦东南路100号"},{"poiid":"B2094757D16DA6FD499B","title":"上海农商银行总行","lon":"121.50773373","lat":"31.241263535","category":"150","category_name":"银行","address":"上海中融碧玉蓝天大厦(银城中路8号)"},{"poiid":"B2094654DA69A0FC449F","title":"世纪金融大厦","lon":"121.51198","lat":"31.23891","category":"46","category_name":"楼宇","address":"浦东大道9号"},{"poiid":"B2094753D76EA0F4429A","title":"皇玺","lon":"121.51065","lat":"31.241565","category":"47","category_name":"住宅区","address":"上海市 浦东南路27号"},{"poiid":"B2094753D26FA4F8429E","title":"文華廚房","lon":"121.507316","lat":"31.243278","category":"249","category_name":"购物服务","address":"上海市 浦東南路111號"},{"poiid":"B2094757D068A3FF4899","title":"华夏银行上海分行","lon":"121.508972168","lat":"31.2394714355","category":"125","category_name":"书店","address":"上海浦东南路256号 （近东城路）"},{"poiid":"B2094757D465A3F9439D","title":"柯记港式茶餐厅","lon":"121.513903054","lat":"31.240806793","category":"72","category_name":"广东菜","address":"浦东新区昌邑路88号(近即墨路)"},{"poiid":"B2094654DA69A0FC479F","title":"浦江茗园","lon":"121.5135","lat":"31.241152","category":"47","category_name":"住宅区","address":"上海市浦东新区昌邑路55弄"},{"poiid":"B2094757D16CABFA439C","title":"瑞苑公寓","lon":"121.51055173","lat":"31.240868526","category":"252","category_name":"楼宇机构","address":"浦东新区浦东大道3号(近即墨路)"},{"poiid":"B209475CD76EA3FC4093","title":"文华东方zest文华厨房","lon":"121.511627","lat":"31.241321","category":"500","category_name":"未知分类","address":"上海市 上海浦东南路111号"},{"poiid":"B2094654DA69A0FC4493","title":"上船大楼","lon":"121.51326","lat":"31.23954","category":"47","category_name":"住宅区","address":"徐汇区田林路300号"},{"poiid":"B209475CDB68A6FC4798","title":"上海浦东文华东方大酒店","lon":"121.509819","lat":"31.242807","category":"500","category_name":"未知分类","address":"浦东南路111号"},{"poiid":"B2094757D06BA3FE409F","title":"东方医院输液室","lon":"121.512332","lat":"31.237727","category":"162","category_name":"医院","address":"上海东方医院急诊"},{"poiid":"B2094757D464A0F8439F","title":"汤姆杰瑞西餐酒吧 Tom and Jerry's","lon":"121.512829054","lat":"31.240417793","category":"68","category_name":"快餐厅","address":"昌邑路27号近即墨路口"},{"poiid":"B2094757D064A0F94199","title":"Chloe's","lon":"121.51385973","lat":"31.238796482","category":"94","category_name":"西餐厅","address":"浦东新区昌邑路31号(即墨路口)"},{"poiid":"B2094750DA6AA0F9409A","title":"北外滩滨江大道","lon":"121.512023","lat":"31.244825","category":"250","category_name":"公园户外","address":null},{"poiid":"B2094654DA69A7FB4599","title":"金茂大厦","lon":"121.5124569976","lat":"31.240872238236","category":"46","category_name":"楼宇","address":"浦东新区世纪大道88号金茂大厦内(近二号线陆家嘴站)"},{"poiid":"B2094654DB6BAAF8479D","title":"环球金融中心","lon":"121.514","lat":"31.241","category":"46","category_name":"楼宇","address":"上海市浦东新区陆家嘴世纪大道8号"},{"poiid":"B2094757D06EAAF4499F","title":"柚子(陆家嘴店)","lon":"121.50722621","lat":"31.240286474","category":"95","category_name":"日本料理","address":"浦东新区陆家嘴环路1000号恒生大楼46楼(近银城中路)"},{"poiid":"B209475CD564A7F84392","title":"上海滩浦东香格里拉店","lon":"121.50058","lat":"31.23634","category":"119","category_name":"商场","address":"浦东富成路33号香格里拉酒店内大堂层"},{"poiid":"B2094654DA69A7FF499A","title":"上海市东方医院同济大学附属东方医院","lon":"121.51234","lat":"31.23772","category":"162","category_name":"医院","address":"浦东新区即墨路150号"},{"poiid":"B2094757D06EAAFC429A","title":"恒生银行大厦","lon":"121.50714642","lat":"31.240029324","category":"46","category_name":"楼宇","address":"浦东新区金湘路225弄"},{"poiid":"B2094757D06FA1F9449F","title":"王朝大酒店(浦东店)","lon":"121.50810175","lat":"31.2391448509","category":"76","category_name":"上海菜","address":"浦东新区陆家嘴环路958号华能大厦3楼(近银城中路)"},{"poiid":"B2094655D26BA2F54792","title":"浦东大道东方医院","lon":"121.51231","lat":"31.23845","category":"162","category_name":"医院","address":""},{"poiid":"B2094655D268A3FB439E","title":"东亚银行金融大厦","lon":"121.509","lat":"31.2399","category":"46","category_name":"楼宇","address":"陆家嘴花园石桥路66号"},{"poiid":"B2094655D268A4F9409E","title":"太平金融大厦","lon":"121.51","lat":"31.2396","category":"46","category_name":"楼宇","address":"上海市浦东新区陆家嘴环路、花园石桥路"},{"poiid":"B2094757D06FABFD4792","title":"中融碧玉蓝天大厦","lon":"121.507242203","lat":"31.2415278323","category":"46","category_name":"楼宇","address":"上海市浦东新区银城中路8号"},{"poiid":"B2094757D068A2FC4593","title":"民生银行大厦(陆家嘴)","lon":"121.50841305","lat":"31.240807181","category":"46","category_name":"楼宇","address":"上海浦东新区浦东南路100号(浦东南路银城中路)"},{"poiid":"B2094757D06FA1FA4498","title":"招商局大厦","lon":"121.515135","lat":"31.242879","category":"46","category_name":"楼宇","address":"浦东新区陆家嘴东路161号"},{"poiid":"B2094757D06FA2F4419E","title":"新上海国际大厦","lon":"121.50929927","lat":"31.238815674","category":"46","category_name":"楼宇","address":"浦东南路360号，中国人民银行北侧"},{"poiid":"B2094757D06FA0F9469C","title":"汉宫","lon":"121.51043","lat":"31.238","category":"76","category_name":"上海菜","address":"浦东新区浦东南路360号新上海国际大厦8楼,48楼(近陆家嘴东路)"},{"poiid":"B2094757D06FA4FB4098","title":"中国民生银行上海总部","lon":"121.508242","lat":"31.240765","category":"260","category_name":"其他","address":"上海浦东新浦东南路100号"},{"poiid":"B2094757D06FA6FD479E","title":"工行上海分行","lon":"121.51130276","lat":"31.23914032","category":"500","category_name":"未知分类","address":"上海浦東大道9號"},{"poiid":"B2094757D06FA7F9449C","title":"瑞慈健康管理中心(华夏银行店)","lon":"121.50933","lat":"31.2392","category":"162","category_name":"医院","address":"浦东新区浦东南路256号华夏银行大厦3楼(近浦东大道)"},{"poiid":"B2094757D06FA2FF4092","title":"建设银行(陆家嘴分行)","lon":"121.50870513","lat":"31.238155365","category":"150","category_name":"银行","address":"上海浦东新区陆家嘴环路900号"},{"poiid":"B2094757D06FA7F54993","title":"老山东鲁菜馆","lon":"121.510469","lat":"31.239297","category":"73","category_name":"山东菜","address":"浦东新区浦东南路379号金穗大厦6楼(近浦东大道)"},{"poiid":"B2094757D068AAFC469B","title":"保利广场","lon":"121.514956916","lat":"31.2433600232","category":"500","category_name":"未知分类","address":"闸北区共和新路3703,3737号"},{"poiid":"B2094757D068ABFF4899","title":"东方医院急诊部","lon":"121.512201667","lat":"31.237744757","category":"162","category_name":"医院","address":"上海浦东新区即墨路150号(近浦东大道)"},{"poiid":"B2094757D06FAAFF439E","title":"中国船舶大厦","lon":"121.510881","lat":"31.238821","category":"46","category_name":"楼宇","address":"上海市宝山区牡丹江路1228号"},{"poiid":"B2094757D068A4FE4098","title":"顺峰(浦东银城店)","lon":"121.50784301","lat":"31.24158287","category":"72","category_name":"广东菜","address":"浦东新区银城中路8号碧玉蓝天3-4楼(金洲街银城中路)"},{"poiid":"B2094757D068A6FD489F","title":"永华大厦","lon":"121.51416015","lat":"31.238700866","category":"46","category_name":"楼宇","address":"浦东大道138号"},{"poiid":"B2094757D068A6FC449A","title":"即墨路","lon":"121.51289367","lat":"31.239175796","category":"500","category_name":"未知分类","address":"上海即墨路"},{"poiid":"B2094757D06FA3FA489F","title":"外汇管理局","lon":"121.509963989","lat":"31.2383117676","category":"500","category_name":"未知分类","address":"上海陆家嘴东路181号"},{"poiid":"B2094655D26DA1F8439E","title":"世界金融大厦","lon":"121.50865","lat":"31.23839","category":"46","category_name":"楼宇","address":"上海陆家嘴环路900号"},{"poiid":"B2094757D66EA3F54792","title":"中国工商银行上海市分行","lon":"121.512708738","lat":"31.2381974699","category":"500","category_name":"未知分类","address":"浦东新区浦东大道9号(东方医院对面)"},{"poiid":"B2094655D268A4F4449A","title":"浦江双辉大厦","lon":"121.51042","lat":"31.24277","category":"46","category_name":"楼宇","address":"静安区南京西路555路"},{"poiid":"B2094757D065A5FF4598","title":"La Foret","lon":"121.510756","lat":"31.242361","category":"67","category_name":"甜品店","address":"浦东新区世纪大道8号国金中心LG2-C3室(近陆家嘴地铁站)"},{"poiid":"B2094753DB68A4F84292","title":"上海浦东文华东方大酒店","lon":"121.507225","lat":"31.243402","category":"500","category_name":"未知分类","address":"上海市 浦东南路111号"},{"poiid":"B2094757D06AA6FA419C","title":"东方医院体检中心","lon":"121.51287","lat":"31.23781","category":"162","category_name":"医院","address":"浦东新区即墨路150号东方医院内(近浦东大道)"},{"poiid":"B2094757D06AAAFD4992","title":"上岛咖啡 陆家嘴金融店 UBC Coffee","lon":"121.51266479492","lat":"31.240152359009","category":"260","category_name":"其他","address":"浦东新区即墨路39号(近昌邑路)"},{"poiid":"B2094757D06FA6F5479E","title":"民生银行上海分行","lon":"121.50772374","lat":"31.240858936","category":"150","category_name":"银行","address":"上海浦东南路100号"},{"poiid":"B2094757D16DA6FD499B","title":"上海农商银行总行","lon":"121.50773373","lat":"31.241263535","category":"150","category_name":"银行","address":"上海中融碧玉蓝天大厦(银城中路8号)"},{"poiid":"B2094654DA69A0FC449F","title":"世纪金融大厦","lon":"121.51198","lat":"31.23891","category":"46","category_name":"楼宇","address":"浦东大道9号"},{"poiid":"B2094753D76EA0F4429A","title":"皇玺","lon":"121.51065","lat":"31.241565","category":"47","category_name":"住宅区","address":"上海市 浦东南路27号"},{"poiid":"B2094753D26FA4F8429E","title":"文華廚房","lon":"121.507316","lat":"31.243278","category":"249","category_name":"购物服务","address":"上海市 浦東南路111號"},{"poiid":"B2094757D068A3FF4899","title":"华夏银行上海分行","lon":"121.508972168","lat":"31.2394714355","category":"125","category_name":"书店","address":"上海浦东南路256号 （近东城路）"},{"poiid":"B2094757D465A3F9439D","title":"柯记港式茶餐厅","lon":"121.513903054","lat":"31.240806793","category":"72","category_name":"广东菜","address":"浦东新区昌邑路88号(近即墨路)"},{"poiid":"B2094654DA69A0FC479F","title":"浦江茗园","lon":"121.5135","lat":"31.241152","category":"47","category_name":"住宅区","address":"上海市浦东新区昌邑路55弄"},{"poiid":"B2094757D16CABFA439C","title":"瑞苑公寓","lon":"121.51055173","lat":"31.240868526","category":"252","category_name":"楼宇机构","address":"浦东新区浦东大道3号(近即墨路)"},{"poiid":"B209475CD76EA3FC4093","title":"文华东方zest文华厨房","lon":"121.511627","lat":"31.241321","category":"500","category_name":"未知分类","address":"上海市 上海浦东南路111号"},{"poiid":"B2094654DA69A0FC4493","title":"上船大楼","lon":"121.51326","lat":"31.23954","category":"47","category_name":"住宅区","address":"徐汇区田林路300号"},{"poiid":"B209475CDB68A6FC4798","title":"上海浦东文华东方大酒店","lon":"121.509819","lat":"31.242807","category":"500","category_name":"未知分类","address":"浦东南路111号"},{"poiid":"B2094757D06BA3FE409F","title":"东方医院输液室","lon":"121.512332","lat":"31.237727","category":"162","category_name":"医院","address":"上海东方医院急诊"},{"poiid":"B2094757D464A0F8439F","title":"汤姆杰瑞西餐酒吧 Tom and Jerry's","lon":"121.512829054","lat":"31.240417793","category":"68","category_name":"快餐厅","address":"昌邑路27号近即墨路口"},{"poiid":"B2094757D064A0F94199","title":"Chloe's","lon":"121.51385973","lat":"31.238796482","category":"94","category_name":"西餐厅","address":"浦东新区昌邑路31号(即墨路口)"},{"poiid":"B2094750DA6AA0F9409A","title":"北外滩滨江大道","lon":"121.512023","lat":"31.244825","category":"250","category_name":"公园户外","address":null}]