[{"poiid":"B2094654DB65A4FE4692","title":"上海新国际博览中心","lon":"121.56658","lat":"31.20897","category":"183","category_name":"展览馆","address":"浦东新区龙阳路2345号(近芳甸路)"},{"poiid":"B2094655D26AA6F9489A","title":"新国际展览中心","lon":"121.5654","lat":"31.21161","category":"247","category_name":"餐饮美食","address":"浦东新区龙阳路2345号(近芳甸路)"},{"poiid":"B2094757D068A4F54298","title":"上海新国际展览中心","lon":"121.56696397","lat":"31.207406526","category":"183","category_name":"展览馆","address":"上海金桥路"},{"poiid":"B2094757D064A2F9439A","title":"新旺茶餐厅(嘉里城店)","lon":"121.563320975","lat":"31.2123346421","category":"72","category_name":"广东菜","address":"浦东新区花木路1378号浦东嘉里城1楼L126单元"},{"poiid":"B2094757D06FA3F8479A","title":"上海德国中心","lon":"121.586903","lat":"31.211596","category":"46","category_name":"楼宇","address":"浦东新区科苑路88号德国中心"},{"poiid":"B2094757D06BA6FC489C","title":"上海新国际博览中心W3展馆","lon":"121.56474897","lat":"31.209239569","category":"500","category_name":"未知分类","address":"上海市浦东新区龙阳路2345号"},{"poiid":"B2094757D16DA1FE4098","title":"California pizza kitchen(嘉里城店)","lon":"121.5616","lat":"31.21347","category":"94","category_name":"西餐厅","address":"浦东新区花木路1378号浦东嘉里城2楼L231室(近芳甸路)"},{"poiid":"B2094757D06FA7F9459C","title":"和民居食屋(浦东嘉里城店)","lon":"121.56422097","lat":"31.212740651","category":"95","category_name":"日本料理","address":"上海市浦东新区花木路1378号浦东嘉里城商场地下一层B105b号单元"},{"poiid":"B2094757D069A2F84298","title":"上海轨道交通龙阳路基地","lon":"121.56873208","lat":"31.2043952824","category":"260","category_name":"其他","address":"上海市浦东新区龙阳路2520号"},{"poiid":"B2094757D068A2FD499F","title":"汤臣高尔夫别墅","lon":"121.583691175","lat":"31.2121601084","category":"47","category_name":"住宅区","address":"上海市浦东新区龙东大道1号"},{"poiid":"B2094757D065A6FF479C","title":"逸谷","lon":"121.563296975","lat":"31.2123126416","category":"72","category_name":"广东菜","address":"浦东新区花木路1378号嘉里城2楼219A号(近芳甸路)"},{"poiid":"B2094654DA6AA7F54699","title":"上海张江高科技园区","lon":"121.58762","lat":"31.21184","category":"45","category_name":"产业园区","address":"浦东新区科苑路399号"},{"poiid":"B2094757D06FA5FE439C","title":"永达国际大厦","lon":"121.57","lat":"31.2114","category":"46","category_name":"楼宇","address":"上海市浦东新区龙阳路2277号"},{"poiid":"B2094757D06AA2FD4498","title":"大茴香(嘉里城店)","lon":"121.563372638","lat":"31.2124443102","category":"99","category_name":"泰国／越南菜品餐厅","address":"浦东新区花木路1378号嘉里城商场1楼115室(近芳甸路,新国际展览中心W5展馆对面)"},{"poiid":"B2094757D06FA7FD4999","title":"交行卡中心","lon":"121.58052","lat":"31.20865","category":"68","category_name":"快餐厅","address":"浦东新区松涛路80号(近张江地铁站)"},{"poiid":"B2094757D068A3F8479E","title":"友乐达台北精致面馆(浦东嘉里城店)","lon":"121.56402197","lat":"31.211982633","category":"68","category_name":"快餐厅","address":"浦东新区花木路1378号浦东嘉里城B1楼05A号(近梅花路)"},{"poiid":"B2094654DA6AA6FC4093","title":"中国美术学院上海设计学院","lon":"121.58013","lat":"31.20628","category":"671","category_name":"高校中心点","address":"张江高科园区"},{"poiid":"B2094757D068A6F84498","title":"食之秘(浦东嘉里城店)","lon":"121.56416617","lat":"31.21139112","category":"67","category_name":"甜品店","address":"浦东新区花木路1378号浦东嘉里城商场B110号铺(近芳甸路)"},{"poiid":"B2094757D069A4FE419A","title":"小南国(浦东嘉里城)","lon":"121.563241975","lat":"31.2125196464","category":"500","category_name":"未知分类","address":"上海市浦东新区花木路1378号浦东嘉里城2楼"},{"poiid":"B2094757D06FA5F9439D","title":"张江大厦","lon":"121.58323621","lat":"31.205565996","category":"46","category_name":"楼宇","address":"上海松涛路560号"},{"poiid":"B2094654DB69ABF5489D","title":"星之健身(张江店)","lon":"121.58689","lat":"31.2108","category":"221","category_name":"健身中心","address":"浦东新区张江高科园区科苑路88号(近龙东大道)"},{"poiid":"B2094757D06FA4F4459D","title":"汤臣高尔夫球场","lon":"121.58303475","lat":"31.211591496","category":"260","category_name":"其他","address":"中国上海浦东新区龙东大道1号"},{"poiid":"B2094757D069A3FA4992","title":"有心","lon":"121.5616098","lat":"31.2134727","category":"75","category_name":"浙江菜","address":"浦东新区花木路1378号嘉里城商场1楼113号(近芳甸路)"},{"poiid":"B2094757D06FABFA469F","title":"紫竹国际大厦","lon":"121.56824976597","lat":"31.217863825633","category":"46","category_name":"楼宇","address":"普陀区大渡河路588号"},{"poiid":"B2094757D06EAAFC4392","title":"太平洋咖啡Pacific Coffee(浦东嘉里城店)","lon":"121.564106638","lat":"31.212344308","category":"260","category_name":"其他","address":"浦东新区花木路1378号浦东嘉里城2楼L205号(近7号线花木路站)"},{"poiid":"B2094654DA6AA0FD4492","title":"上海电影艺术学院北校区","lon":"121.57931","lat":"31.20878","category":"52","category_name":"高等院校","address":"浦东新区松涛路11临"},{"poiid":"B2094757D069AAF4459B","title":"喜月小厨","lon":"121.581248567","lat":"31.2063803798","category":"76","category_name":"上海菜","address":"浦东新区碧波路635号圆环传奇美食广场内(近张江地铁站)"},{"poiid":"B2094751D565ABFC4698","title":"妈妈糖3.0","lon":"121.582783","lat":"31.202203","category":"500","category_name":"未知分类","address":"浦东新区碧波路573弄2号(近祖冲之路)"},{"poiid":"B2094751D569A1FF409F","title":"龍美术馆","lon":"121.573639","lat":"31.215622","category":"248","category_name":"生活娱乐","address":"罗山路2255号"},{"poiid":"B2094757D06AA4FA439B","title":"美再晨运动会馆(松涛路店)","lon":"121.58418","lat":"31.21005","category":"148","category_name":"美容美发店","address":"浦东新区松涛路251号(近碧波路)"},{"poiid":"B2094757D568A0FB439A","title":"汤臣湖庭花园","lon":"121.574922","lat":"31.215573","category":"47","category_name":"住宅区","address":"浦东新区罗山路2255弄(花木路口)"},{"poiid":"B2094654DA6AA1F5489C","title":"汤臣豪园","lon":"121.58493","lat":"31.21121","category":"47","category_name":"住宅区","address":"上海市浦东新区张家浜路37号"},{"poiid":"B2094655D26AA6F94898","title":"上海车展","lon":"121.5654","lat":"31.21161","category":"247","category_name":"餐饮美食","address":"浦东新区龙阳路2345号新国际博览中心"},{"poiid":"B2094757D16EA4F94299","title":"汤臣高尔夫别墅大会所餐厅","lon":"121.57764","lat":"31.20953","category":"95","category_name":"日本料理","address":"上海浦东新区龙东大道1号汤臣高尔夫球场2楼  "},{"poiid":"B2094654DA6AA1F9429A","title":"汤臣高尔夫公寓汤臣豪园","lon":"121.57637","lat":"31.21114","category":"47","category_name":"住宅区","address":"龙东大道1号"},{"poiid":"B2094654DB64A3F84892","title":"地铁万邦广场","lon":"121.564","lat":"31.2096","category":"119","category_name":"商场","address":"龙阳路2000号"},{"poiid":"B2094655D268ABF94193","title":"张江立交桥","lon":"121.57411","lat":"31.20889","category":"250","category_name":"公园户外","address":""},{"poiid":"B2094655D36CA7FD4499","title":"花木路","lon":"121.57282","lat":"31.217","category":"38","category_name":"公交车站","address":""},{"poiid":"B2094757D064A2FE449C","title":"Coffee Bean 浦东嘉里中心店","lon":"121.56428097","lat":"31.212755651","category":"65","category_name":"咖啡厅","address":"上海市浦东嘉里中心"},{"poiid":"B2094757D16CA4FE469B","title":"纽约客(浦东嘉里城店)","lon":"121.56335327","lat":"31.211900131","category":"94","category_name":"西餐厅","address":"上海浦东新区花木路1378号浦东嘉里城L116店"},{"poiid":"B2094654DA6AA6FC419E","title":"上海市张江高科技园区(碧波路)","lon":"121.58106","lat":"31.20162","category":"45","category_name":"产业园区","address":"碧波路572弄115号-24幢"},{"poiid":"B2094750DB68AAFF4298","title":"嘉里城","lon":"121.563339","lat":"31.212678","category":"248","category_name":"生活娱乐","address":"浦东新区花木路1378号"},{"poiid":"B2094655D26BA4F4429D","title":"小湘亭","lon":"121.57847","lat":"31.20968","category":"77","category_name":"湖南菜","address":"浦东新区景明路潘桥7号"},{"poiid":"B2094654DA6AA0FA4999","title":"汤臣高尔夫别墅海顿园区","lon":"121.57684","lat":"31.21737","category":"47","category_name":"住宅区","address":""},{"poiid":"B2094654DA6AA7F54999","title":"品粤阁","lon":"121.58396","lat":"31.21021","category":"72","category_name":"广东菜","address":"上海张江高科技园区松涛路251号(汤臣豪园会所)"},{"poiid":"B2094757D06AA4F84699","title":"高科中路罗山路","lon":"121.577929817","lat":"31.2063349018","category":"500","category_name":"未知分类","address":"上海高科路罗山路"},{"poiid":"B2094655D26BA3F4449A","title":"汤臣集团健身中心","lon":"121.57638","lat":"31.21114","category":"221","category_name":"健身中心","address":"浦东新区龙东大道1号"},{"poiid":"B2094757D064A3FB4792","title":"华虹科技园","lon":"121.584495544","lat":"31.2073020935","category":"46","category_name":"楼宇","address":"上海浦东碧波路177号"},{"poiid":"B2094757D068ABFA4598","title":"张江体育休闲中心","lon":"121.57973","lat":"31.20426","category":"76","category_name":"上海菜","address":"浦东新区张江高科技园区春晓路81号(近景明路)"},{"poiid":"B2094757D16FAAFD429D","title":"诗碧阁西餐厅","lon":"121.563161975","lat":"31.2128106532","category":"500","category_name":"未知分类","address":"上海浦东嘉里中心"},{"poiid":"B2094654DB65A4FE4692","title":"上海新国际博览中心","lon":"121.56658","lat":"31.20897","category":"183","category_name":"展览馆","address":"浦东新区龙阳路2345号(近芳甸路)"},{"poiid":"B2094655D26AA6F9489A","title":"新国际展览中心","lon":"121.5654","lat":"31.21161","category":"247","category_name":"餐饮美食","address":"浦东新区龙阳路2345号(近芳甸路)"},{"poiid":"B2094757D068A4F54298","title":"上海新国际展览中心","lon":"121.56696397","lat":"31.207406526","category":"183","category_name":"展览馆","address":"上海金桥路"},{"poiid":"B2094757D064A2F9439A","title":"新旺茶餐厅(嘉里城店)","lon":"121.563320975","lat":"31.2123346421","category":"72","category_name":"广东菜","address":"浦东新区花木路1378号浦东嘉里城1楼L126单元"},{"poiid":"B2094757D06FA3F8479A","title":"上海德国中心","lon":"121.586903","lat":"31.211596","category":"46","category_name":"楼宇","address":"浦东新区科苑路88号德国中心"},{"poiid":"B2094757D06BA6FC489C","title":"上海新国际博览中心W3展馆","lon":"121.56474897","lat":"31.209239569","category":"500","category_name":"未知分类","address":"上海市浦东新区龙阳路2345号"},{"poiid":"B2094757D16DA1FE4098","title":"California pizza kitchen(嘉里城店)","lon":"121.5616","lat":"31.21347","category":"94","category_name":"西餐厅","address":"浦东新区花木路1378号浦东嘉里城2楼L231室(近芳甸路)"},{"poiid":"B2094757D06FA7F9459C","title":"和民居食屋(浦东嘉里城店)","lon":"121.56422097","lat":"31.212740651","category":"95","category_name":"日本料理","address":"上海市浦东新区花木路1378号浦东嘉里城商场地下一层B105b号单元"},{"poiid":"B2094757D069A2F84298","title":"上海轨道交通龙阳路基地","lon":"121.56873208","lat":"31.2043952824","category":"260","category_name":"其他","address":"上海市浦东新区龙阳路2520号"},{"poiid":"B2094757D068A2FD499F","title":"汤臣高尔夫别墅","lon":"121.583691175","lat":"31.2121601084","category":"47","category_name":"住宅区","address":"上海市浦东新区龙东大道1号"},{"poiid":"B2094757D065A6FF479C","title":"逸谷","lon":"121.563296975","lat":"31.2123126416","category":"72","category_name":"广东菜","address":"浦东新区花木路1378号嘉里城2楼219A号(近芳甸路)"},{"poiid":"B2094654DA6AA7F54699","title":"上海张江高科技园区","lon":"121.58762","lat":"31.21184","category":"45","category_name":"产业园区","address":"浦东新区科苑路399号"},{"poiid":"B2094757D06FA5FE439C","title":"永达国际大厦","lon":"121.57","lat":"31.2114","category":"46","category_name":"楼宇","address":"上海市浦东新区龙阳路2277号"},{"poiid":"B2094757D06AA2FD4498","title":"大茴香(嘉里城店)","lon":"121.563372638","lat":"31.2124443102","category":"99","category_name":"泰国／越南菜品餐厅","address":"浦东新区花木路1378号嘉里城商场1楼115室(近芳甸路,新国际展览中心W5展馆对面)"},{"poiid":"B2094757D06FA7FD4999","title":"交行卡中心","lon":"121.58052","lat":"31.20865","category":"68","category_name":"快餐厅","address":"浦东新区松涛路80号(近张江地铁站)"},{"poiid":"B2094757D068A3F8479E","title":"友乐达台北精致面馆(浦东嘉里城店)","lon":"121.56402197","lat":"31.211982633","category":"68","category_name":"快餐厅","address":"浦东新区花木路1378号浦东嘉里城B1楼05A号(近梅花路)"},{"poiid":"B2094654DA6AA6FC4093","title":"中国美术学院上海设计学院","lon":"121.58013","lat":"31.20628","category":"671","category_name":"高校中心点","address":"张江高科园区"},{"poiid":"B2094757D068A6F84498","title":"食之秘(浦东嘉里城店)","lon":"121.56416617","lat":"31.21139112","category":"67","category_name":"甜品店","address":"浦东新区花木路1378号浦东嘉里城商场B110号铺(近芳甸路)"},{"poiid":"B2094757D069A4FE419A","title":"小南国(浦东嘉里城)","lon":"121.563241975","lat":"31.2125196464","category":"500","category_name":"未知分类","address":"上海市浦东新区花木路1378号浦东嘉里城2楼"},{"poiid":"B2094757D06FA5F9439D","title":"张江大厦","lon":"121.58323621","lat":"31.205565996","category":"46","category_name":"楼宇","address":"上海松涛路560号"},{"poiid":"B2094654DB69ABF5489D","title":"星之健身(张江店)","lon":"121.58689","lat":"31.2108","category":"221","category_name":"健身中心","address":"浦东新区张江高科园区科苑路88号(近龙东大道)"},{"poiid":"B2094757D06FA4F4459D","title":"汤臣高尔夫球场","lon":"121.58303475","lat":"31.211591496","category":"260","category_name":"其他","address":"中国上海浦东新区龙东大道1号"},{"poiid":"B2094757D069A3FA4992","title":"有心","lon":"121.5616098","lat":"31.2134727","category":"75","category_name":"浙江菜","address":"浦东新区花木路1378号嘉里城商场1楼113号(近芳甸路)"},{"poiid":"B2094757D06FABFA469F","title":"紫竹国际大厦","lon":"121.56824976597","lat":"31.217863825633","category":"46","category_name":"楼宇","address":"普陀区大渡河路588号"},{"poiid":"B2094757D06EAAFC4392","title":"太平洋咖啡Pacific Coffee(浦东嘉里城店)","lon":"121.564106638","lat":"31.212344308","category":"260","category_name":"其他","address":"浦东新区花木路1378号浦东嘉里城2楼L205号(近7号线花木路站)"},{"poiid":"B2094654DA6AA0FD4492","title":"上海电影艺术学院北校区","lon":"121.57931","lat":"31.20878","category":"52","category_name":"高等院校","address":"浦东新区松涛路11临"},{"poiid":"B2094757D069AAF4459B","title":"喜月小厨","lon":"121.581248567","lat":"31.2063803798","category":"76","category_name":"上海菜","address":"浦东新区碧波路635号圆环传奇美食广场内(近张江地铁站)"},{"poiid":"B2094751D565ABFC4698","title":"妈妈糖3.0","lon":"121.582783","lat":"31.202203","category":"500","category_name":"未知分类","address":"浦东新区碧波路573弄2号(近祖冲之路)"},{"poiid":"B2094751D569A1FF409F","title":"龍美术馆","lon":"121.573639","lat":"31.215622","category":"248","category_name":"生活娱乐","address":"罗山路2255号"},{"poiid":"B2094757D06AA4FA439B","title":"美再晨运动会馆(松涛路店)","lon":"121.58418","lat":"31.21005","category":"148","category_name":"美容美发店","address":"浦东新区松涛路251号(近碧波路)"},{"poiid":"B2094757D568A0FB439A","title":"汤臣湖庭花园","lon":"121.574922","lat":"31.215573","category":"47","category_name":"住宅区","address":"浦东新区罗山路2255弄(花木路口)"},{"poiid":"B2094654DA6AA1F5489C","title":"汤臣豪园","lon":"121.58493","lat":"31.21121","category":"47","category_name":"住宅区","address":"上海市浦东新区张家浜路37号"},{"poiid":"B2094655D26AA6F94898","title":"上海车展","lon":"121.5654","lat":"31.21161","category":"247","category_name":"餐饮美食","address":"浦东新区龙阳路2345号新国际博览中心"},{"poiid":"B2094757D16EA4F94299","title":"汤臣高尔夫别墅大会所餐厅","lon":"121.57764","lat":"31.20953","category":"95","category_name":"日本料理","address":"上海浦东新区龙东大道1号汤臣高尔夫球场2楼  "},{"poiid":"B2094654DA6AA1F9429A","title":"汤臣高尔夫公寓汤臣豪园","lon":"121.57637","lat":"31.21114","category":"47","category_name":"住宅区","address":"龙东大道1号"},{"poiid":"B2094654DB64A3F84892","title":"地铁万邦广场","lon":"121.564","lat":"31.2096","category":"119","category_name":"商场","address":"龙阳路2000号"},{"poiid":"B2094655D268ABF94193","title":"张江立交桥","lon":"121.57411","lat":"31.20889","category":"250","category_name":"公园户外","address":""},{"poiid":"B2094655D36CA7FD4499","title":"花木路","lon":"121.57282","lat":"31.217","category":"38","category_name":"公交车站","address":""},{"poiid":"B2094757D064A2FE449C","title":"Coffee Bean 浦东嘉里中心店","lon":"121.56428097","lat":"31.212755651","category":"65","category_name":"咖啡厅","address":"上海市浦东嘉里中心"},{"poiid":"B2094757D16CA4FE469B","title":"纽约客(浦东嘉里城店)","lon":"121.56335327","lat":"31.211900131","category":"94","category_name":"西餐厅","address":"上海浦东新区花木路1378号浦东嘉里城L116店"},{"poiid":"B2094654DA6AA6FC419E","title":"上海市张江高科技园区(碧波路)","lon":"121.58106","lat":"31.20162","category":"45","category_name":"产业园区","address":"碧波路572弄115号-24幢"},{"poiid":"B2094750DB68AAFF4298","title":"嘉里城","lon":"121.563339","lat":"31.212678","category":"248","category_name":"生活娱乐","address":"浦东新区花木路1378号"},{"poiid":"B2094655D26BA4F4429D","title":"小湘亭","lon":"121.57847","lat":"31.20968","category":"77","category_name":"湖南菜","address":"浦东新区景明路潘桥7号"},{"poiid":"B2094654DA6AA0FA4999","title":"汤臣高尔夫别墅海顿园区","lon":"121.57684","lat":"31.21737","category":"47","category_name":"住宅区","address":""},{"poiid":"B2094654DA6AA7F54999","title":"品粤阁","lon":"121.58396","lat":"31.21021","category":"72","category_name":"广东菜","address":"上海张江高科技园区松涛路251号(汤臣豪园会所)"},{"poiid":"B2094757D06AA4F84699","title":"高科中路罗山路","lon":"121.577929817","lat":"31.2063349018","category":"500","category_name":"未知分类","address":"上海高科路罗山路"},{"poiid":"B2094655D26BA3F4449A","title":"汤臣集团健身中心","lon":"121.57638","lat":"31.21114","category":"221","category_name":"健身中心","address":"浦东新区龙东大道1号"},{"poiid":"B2094757D064A3FB4792","title":"华虹科技园","lon":"121.584495544","lat":"31.2073020935","category":"46","category_name":"楼宇","address":"上海浦东碧波路177号"},{"poiid":"B2094757D068ABFA4598","title":"张江体育休闲中心","lon":"121.57973","lat":"31.20426","category":"76","category_name":"上海菜","address":"浦东新区张江高科技园区春晓路81号(近景明路)"},{"poiid":"B2094757D16FAAFD429D","title":"诗碧阁西餐厅","lon":"121.563161975","lat":"31.2128106532","category":"500","category_name":"未知分类","address":"上海浦东嘉里中心"},{"poiid":"B2094654DB65A4FE4692","title":"上海新国际博览中心","lon":"121.56658","lat":"31.20897","category":"183","category_name":"展览馆","address":"浦东新区龙阳路2345号(近芳甸路)"},{"poiid":"B2094655D26AA6F9489A","title":"新国际展览中心","lon":"121.5654","lat":"31.21161","category":"247","category_name":"餐饮美食","address":"浦东新区龙阳路2345号(近芳甸路)"},{"poiid":"B2094757D068A4F54298","title":"上海新国际展览中心","lon":"121.56696397","lat":"31.207406526","category":"183","category_name":"展览馆","address":"上海金桥路"},{"poiid":"B2094757D064A2F9439A","title":"新旺茶餐厅(嘉里城店)","lon":"121.563320975","lat":"31.2123346421","category":"72","category_name":"广东菜","address":"浦东新区花木路1378号浦东嘉里城1楼L126单元"},{"poiid":"B2094757D06FA3F8479A","title":"上海德国中心","lon":"121.586903","lat":"31.211596","category":"46","category_name":"楼宇","address":"浦东新区科苑路88号德国中心"},{"poiid":"B2094757D06BA6FC489C","title":"上海新国际博览中心W3展馆","lon":"121.56474897","lat":"31.209239569","category":"500","category_name":"未知分类","address":"上海市浦东新区龙阳路2345号"},{"poiid":"B2094757D16DA1FE4098","title":"California pizza kitchen(嘉里城店)","lon":"121.5616","lat":"31.21347","category":"94","category_name":"西餐厅","address":"浦东新区花木路1378号浦东嘉里城2楼L231室(近芳甸路)"},{"poiid":"B2094757D06FA7F9459C","title":"和民居食屋(浦东嘉里城店)","lon":"121.56422097","lat":"31.212740651","category":"95","category_name":"日本料理","address":"上海市浦东新区花木路1378号浦东嘉里城商场地下一层B105b号单元"},{"poiid":"B2094757D069A2F84298","title":"上海轨道交通龙阳路基地","lon":"121.56873208","lat":"31.2043952824","category":"260","category_name":"其他","address":"上海市浦东新区龙阳路2520号"},{"poiid":"B2094757D068A2FD499F","title":"汤臣高尔夫别墅","lon":"121.583691175","lat":"31.2121601084","category":"47","category_name":"住宅区","address":"上海市浦东新区龙东大道1号"},{"poiid":"B2094757D065A6FF479C","title":"逸谷","lon":"121.563296975","lat":"31.2123126416","category":"72","category_name":"广东菜","address":"浦东新区花木路1378号嘉里城2楼219A号(近芳甸路)"},{"poiid":"B2094654DA6AA7F54699","title":"上海张江高科技园区","lon":"121.58762","lat":"31.21184","category":"45","category_name":"产业园区","address":"浦东新区科苑路399号"},{"poiid":"B2094757D06FA5FE439C","title":"永达国际大厦","lon":"121.57","lat":"31.2114","category":"46","category_name":"楼宇","address":"上海市浦东新区龙阳路2277号"},{"poiid":"B2094757D06AA2FD4498","title":"大茴香(嘉里城店)","lon":"121.563372638","lat":"31.2124443102","category":"99","category_name":"泰国／越南菜品餐厅","address":"浦东新区花木路1378号嘉里城商场1楼115室(近芳甸路,新国际展览中心W5展馆对面)"},{"poiid":"B2094757D06FA7FD4999","title":"交行卡中心","lon":"121.58052","lat":"31.20865","category":"68","category_name":"快餐厅","address":"浦东新区松涛路80号(近张江地铁站)"},{"poiid":"B2094757D068A3F8479E","title":"友乐达台北精致面馆(浦东嘉里城店)","lon":"121.56402197","lat":"31.211982633","category":"68","category_name":"快餐厅","address":"浦东新区花木路1378号浦东嘉里城B1楼05A号(近梅花路)"},{"poiid":"B2094654DA6AA6FC4093","title":"中国美术学院上海设计学院","lon":"121.58013","lat":"31.20628","category":"671","category_name":"高校中心点","address":"张江高科园区"},{"poiid":"B2094757D068A6F84498","title":"食之秘(浦东嘉里城店)","lon":"121.56416617","lat":"31.21139112","category":"67","category_name":"甜品店","address":"浦东新区花木路1378号浦东嘉里城商场B110号铺(近芳甸路)"},{"poiid":"B2094757D069A4FE419A","title":"小南国(浦东嘉里城)","lon":"121.563241975","lat":"31.2125196464","category":"500","category_name":"未知分类","address":"上海市浦东新区花木路1378号浦东嘉里城2楼"},{"poiid":"B2094757D06FA5F9439D","title":"张江大厦","lon":"121.58323621","lat":"31.205565996","category":"46","category_name":"楼宇","address":"上海松涛路560号"},{"poiid":"B2094654DB69ABF5489D","title":"星之健身(张江店)","lon":"121.58689","lat":"31.2108","category":"221","category_name":"健身中心","address":"浦东新区张江高科园区科苑路88号(近龙东大道)"},{"poiid":"B2094757D06FA4F4459D","title":"汤臣高尔夫球场","lon":"121.58303475","lat":"31.211591496","category":"260","category_name":"其他","address":"中国上海浦东新区龙东大道1号"},{"poiid":"B2094757D069A3FA4992","title":"有心","lon":"121.5616098","lat":"31.2134727","category":"75","category_name":"浙江菜","address":"浦东新区花木路1378号嘉里城商场1楼113号(近芳甸路)"},{"poiid":"B2094757D06FABFA469F","title":"紫竹国际大厦","lon":"121.56824976597","lat":"31.217863825633","category":"46","category_name":"楼宇","address":"普陀区大渡河路588号"},{"poiid":"B2094757D06EAAFC4392","title":"太平洋咖啡Pacific Coffee(浦东嘉里城店)","lon":"121.564106638","lat":"31.212344308","category":"260","category_name":"其他","address":"浦东新区花木路1378号浦东嘉里城2楼L205号(近7号线花木路站)"},{"poiid":"B2094654DA6AA0FD4492","title":"上海电影艺术学院北校区","lon":"121.57931","lat":"31.20878","category":"52","category_name":"高等院校","address":"浦东新区松涛路11临"},{"poiid":"B2094757D069AAF4459B","title":"喜月小厨","lon":"121.581248567","lat":"31.2063803798","category":"76","category_name":"上海菜","address":"浦东新区碧波路635号圆环传奇美食广场内(近张江地铁站)"},{"poiid":"B2094751D565ABFC4698","title":"妈妈糖3.0","lon":"121.582783","lat":"31.202203","category":"500","category_name":"未知分类","address":"浦东新区碧波路573弄2号(近祖冲之路)"},{"poiid":"B2094751D569A1FF409F","title":"龍美术馆","lon":"121.573639","lat":"31.215622","category":"248","category_name":"生活娱乐","address":"罗山路2255号"},{"poiid":"B2094757D06AA4FA439B","title":"美再晨运动会馆(松涛路店)","lon":"121.58418","lat":"31.21005","category":"148","category_name":"美容美发店","address":"浦东新区松涛路251号(近碧波路)"},{"poiid":"B2094757D568A0FB439A","title":"汤臣湖庭花园","lon":"121.574922","lat":"31.215573","category":"47","category_name":"住宅区","address":"浦东新区罗山路2255弄(花木路口)"},{"poiid":"B2094654DA6AA1F5489C","title":"汤臣豪园","lon":"121.58493","lat":"31.21121","category":"47","category_name":"住宅区","address":"上海市浦东新区张家浜路37号"},{"poiid":"B2094655D26AA6F94898","title":"上海车展","lon":"121.5654","lat":"31.21161","category":"247","category_name":"餐饮美食","address":"浦东新区龙阳路2345号新国际博览中心"},{"poiid":"B2094757D16EA4F94299","title":"汤臣高尔夫别墅大会所餐厅","lon":"121.57764","lat":"31.20953","category":"95","category_name":"日本料理","address":"上海浦东新区龙东大道1号汤臣高尔夫球场2楼  "},{"poiid":"B2094654DA6AA1F9429A","title":"汤臣高尔夫公寓汤臣豪园","lon":"121.57637","lat":"31.21114","category":"47","category_name":"住宅区","address":"龙东大道1号"},{"poiid":"B2094654DB64A3F84892","title":"地铁万邦广场","lon":"121.564","lat":"31.2096","category":"119","category_name":"商场","address":"龙阳路2000号"},{"poiid":"B2094655D268ABF94193","title":"张江立交桥","lon":"121.57411","lat":"31.20889","category":"250","category_name":"公园户外","address":""},{"poiid":"B2094655D36CA7FD4499","title":"花木路","lon":"121.57282","lat":"31.217","category":"38","category_name":"公交车站","address":""},{"poiid":"B2094757D064A2FE449C","title":"Coffee Bean 浦东嘉里中心店","lon":"121.56428097","lat":"31.212755651","category":"65","category_name":"咖啡厅","address":"上海市浦东嘉里中心"},{"poiid":"B2094757D16CA4FE469B","title":"纽约客(浦东嘉里城店)","lon":"121.56335327","lat":"31.211900131","category":"94","category_name":"西餐厅","address":"上海浦东新区花木路1378号浦东嘉里城L116店"},{"poiid":"B2094654DA6AA6FC419E","title":"上海市张江高科技园区(碧波路)","lon":"121.58106","lat":"31.20162","category":"45","category_name":"产业园区","address":"碧波路572弄115号-24幢"},{"poiid":"B2094750DB68AAFF4298","title":"嘉里城","lon":"121.563339","lat":"31.212678","category":"248","category_name":"生活娱乐","address":"浦东新区花木路1378号"},{"poiid":"B2094655D26BA4F4429D","title":"小湘亭","lon":"121.57847","lat":"31.20968","category":"77","category_name":"湖南菜","address":"浦东新区景明路潘桥7号"},{"poiid":"B2094654DA6AA0FA4999","title":"汤臣高尔夫别墅海顿园区","lon":"121.57684","lat":"31.21737","category":"47","category_name":"住宅区","address":""},{"poiid":"B2094654DA6AA7F54999","title":"品粤阁","lon":"121.58396","lat":"31.21021","category":"72","category_name":"广东菜","address":"上海张江高科技园区松涛路251号(汤臣豪园会所)"},{"poiid":"B2094757D06AA4F84699","title":"高科中路罗山路","lon":"121.577929817","lat":"31.2063349018","category":"500","category_name":"未知分类","address":"上海高科路罗山路"},{"poiid":"B2094655D26BA3F4449A","title":"汤臣集团健身中心","lon":"121.57638","lat":"31.21114","category":"221","category_name":"健身中心","address":"浦东新区龙东大道1号"},{"poiid":"B2094757D064A3FB4792","title":"华虹科技园","lon":"121.584495544","lat":"31.2073020935","category":"46","category_name":"楼宇","address":"上海浦东碧波路177号"},{"poiid":"B2094757D068ABFA4598","title":"张江体育休闲中心","lon":"121.57973","lat":"31.20426","category":"76","category_name":"上海菜","address":"浦东新区张江高科技园区春晓路81号(近景明路)"},{"poiid":"B2094757D16FAAFD429D","title":"诗碧阁西餐厅","lon":"121.563161975","lat":"31.2128106532","category":"500","category_name":"未知分类","address":"上海浦东嘉里中心"},{"poiid":"B2094654DB65A4FE4692","title":"上海新国际博览中心","lon":"121.56658","lat":"31.20897","category":"183","category_name":"展览馆","address":"浦东新区龙阳路2345号(近芳甸路)"},{"poiid":"B2094655D26AA6F9489A","title":"新国际展览中心","lon":"121.5654","lat":"31.21161","category":"247","category_name":"餐饮美食","address":"浦东新区龙阳路2345号(近芳甸路)"},{"poiid":"B2094757D068A4F54298","title":"上海新国际展览中心","lon":"121.56696397","lat":"31.207406526","category":"183","category_name":"展览馆","address":"上海金桥路"},{"poiid":"B2094757D064A2F9439A","title":"新旺茶餐厅(嘉里城店)","lon":"121.563320975","lat":"31.2123346421","category":"72","category_name":"广东菜","address":"浦东新区花木路1378号浦东嘉里城1楼L126单元"},{"poiid":"B2094757D06FA3F8479A","title":"上海德国中心","lon":"121.586903","lat":"31.211596","category":"46","category_name":"楼宇","address":"浦东新区科苑路88号德国中心"},{"poiid":"B2094757D06BA6FC489C","title":"上海新国际博览中心W3展馆","lon":"121.56474897","lat":"31.209239569","category":"500","category_name":"未知分类","address":"上海市浦东新区龙阳路2345号"},{"poiid":"B2094757D16DA1FE4098","title":"California pizza kitchen(嘉里城店)","lon":"121.5616","lat":"31.21347","category":"94","category_name":"西餐厅","address":"浦东新区花木路1378号浦东嘉里城2楼L231室(近芳甸路)"},{"poiid":"B2094757D06FA7F9459C","title":"和民居食屋(浦东嘉里城店)","lon":"121.56422097","lat":"31.212740651","category":"95","category_name":"日本料理","address":"上海市浦东新区花木路1378号浦东嘉里城商场地下一层B105b号单元"},{"poiid":"B2094757D069A2F84298","title":"上海轨道交通龙阳路基地","lon":"121.56873208","lat":"31.2043952824","category":"260","category_name":"其他","address":"上海市浦东新区龙阳路2520号"},{"poiid":"B2094757D068A2FD499F","title":"汤臣高尔夫别墅","lon":"121.583691175","lat":"31.2121601084","category":"47","category_name":"住宅区","address":"上海市浦东新区龙东大道1号"},{"poiid":"B2094757D065A6FF479C","title":"逸谷","lon":"121.563296975","lat":"31.2123126416","category":"72","category_name":"广东菜","address":"浦东新区花木路1378号嘉里城2楼219A号(近芳甸路)"},{"poiid":"B2094654DA6AA7F54699","title":"上海张江高科技园区","lon":"121.58762","lat":"31.21184","category":"45","category_name":"产业园区","address":"浦东新区科苑路399号"},{"poiid":"B2094757D06FA5FE439C","title":"永达国际大厦","lon":"121.57","lat":"31.2114","category":"46","category_name":"楼宇","address":"上海市浦东新区龙阳路2277号"},{"poiid":"B2094757D06AA2FD4498","title":"大茴香(嘉里城店)","lon":"121.563372638","lat":"31.2124443102","category":"99","category_name":"泰国／越南菜品餐厅","address":"浦东新区花木路1378号嘉里城商场1楼115室(近芳甸路,新国际展览中心W5展馆对面)"},{"poiid":"B2094757D06FA7FD4999","title":"交行卡中心","lon":"121.58052","lat":"31.20865","category":"68","category_name":"快餐厅","address":"浦东新区松涛路80号(近张江地铁站)"},{"poiid":"B2094757D068A3F8479E","title":"友乐达台北精致面馆(浦东嘉里城店)","lon":"121.56402197","lat":"31.211982633","category":"68","category_name":"快餐厅","address":"浦东新区花木路1378号浦东嘉里城B1楼05A号(近梅花路)"},{"poiid":"B2094654DA6AA6FC4093","title":"中国美术学院上海设计学院","lon":"121.58013","lat":"31.20628","category":"671","category_name":"高校中心点","address":"张江高科园区"},{"poiid":"B2094757D068A6F84498","title":"食之秘(浦东嘉里城店)","lon":"121.56416617","lat":"31.21139112","category":"67","category_name":"甜品店","address":"浦东新区花木路1378号浦东嘉里城商场B110号铺(近芳甸路)"},{"poiid":"B2094757D069A4FE419A","title":"小南国(浦东嘉里城)","lon":"121.563241975","lat":"31.2125196464","category":"500","category_name":"未知分类","address":"上海市浦东新区花木路1378号浦东嘉里城2楼"},{"poiid":"B2094757D06FA5F9439D","title":"张江大厦","lon":"121.58323621","lat":"31.205565996","category":"46","category_name":"楼宇","address":"上海松涛路560号"},{"poiid":"B2094654DB69ABF5489D","title":"星之健身(张江店)","lon":"121.58689","lat":"31.2108","category":"221","category_name":"健身中心","address":"浦东新区张江高科园区科苑路88号(近龙东大道)"},{"poiid":"B2094757D06FA4F4459D","title":"汤臣高尔夫球场","lon":"121.58303475","lat":"31.211591496","category":"260","category_name":"其他","address":"中国上海浦东新区龙东大道1号"},{"poiid":"B2094757D069A3FA4992","title":"有心","lon":"121.5616098","lat":"31.2134727","category":"75","category_name":"浙江菜","address":"浦东新区花木路1378号嘉里城商场1楼113号(近芳甸路)"},{"poiid":"B2094757D06FABFA469F","title":"紫竹国际大厦","lon":"121.56824976597","lat":"31.217863825633","category":"46","category_name":"楼宇","address":"普陀区大渡河路588号"},{"poiid":"B2094757D06EAAFC4392","title":"太平洋咖啡Pacific Coffee(浦东嘉里城店)","lon":"121.564106638","lat":"31.212344308","category":"260","category_name":"其他","address":"浦东新区花木路1378号浦东嘉里城2楼L205号(近7号线花木路站)"},{"poiid":"B2094654DA6AA0FD4492","title":"上海电影艺术学院北校区","lon":"121.57931","lat":"31.20878","category":"52","category_name":"高等院校","address":"浦东新区松涛路11临"},{"poiid":"B2094757D069AAF4459B","title":"喜月小厨","lon":"121.581248567","lat":"31.2063803798","category":"76","category_name":"上海菜","address":"浦东新区碧波路635号圆环传奇美食广场内(近张江地铁站)"},{"poiid":"B2094751D565ABFC4698","title":"妈妈糖3.0","lon":"121.582783","lat":"31.202203","category":"500","category_name":"未知分类","address":"浦东新区碧波路573弄2号(近祖冲之路)"},{"poiid":"B2094751D569A1FF409F","title":"龍美术馆","lon":"121.573639","lat":"31.215622","category":"248","category_name":"生活娱乐","address":"罗山路2255号"},{"poiid":"B2094757D06AA4FA439B","title":"美再晨运动会馆(松涛路店)","lon":"121.58418","lat":"31.21005","category":"148","category_name":"美容美发店","address":"浦东新区松涛路251号(近碧波路)"},{"poiid":"B2094757D568A0FB439A","title":"汤臣湖庭花园","lon":"121.574922","lat":"31.215573","category":"47","category_name":"住宅区","address":"浦东新区罗山路2255弄(花木路口)"},{"poiid":"B2094654DA6AA1F5489C","title":"汤臣豪园","lon":"121.58493","lat":"31.21121","category":"47","category_name":"住宅区","address":"上海市浦东新区张家浜路37号"},{"poiid":"B2094655D26AA6F94898","title":"上海车展","lon":"121.5654","lat":"31.21161","category":"247","category_name":"餐饮美食","address":"浦东新区龙阳路2345号新国际博览中心"},{"poiid":"B2094757D16EA4F94299","title":"汤臣高尔夫别墅大会所餐厅","lon":"121.57764","lat":"31.20953","category":"95","category_name":"日本料理","address":"上海浦东新区龙东大道1号汤臣高尔夫球场2楼  "},{"poiid":"B2094654DA6AA1F9429A","title":"汤臣高尔夫公寓汤臣豪园","lon":"121.57637","lat":"31.21114","category":"47","category_name":"住宅区","address":"龙东大道1号"},{"poiid":"B2094654DB64A3F84892","title":"地铁万邦广场","lon":"121.564","lat":"31.2096","category":"119","category_name":"商场","address":"龙阳路2000号"},{"poiid":"B2094655D268ABF94193","title":"张江立交桥","lon":"121.57411","lat":"31.20889","category":"250","category_name":"公园户外","address":""},{"poiid":"B2094655D36CA7FD4499","title":"花木路","lon":"121.57282","lat":"31.217","category":"38","category_name":"公交车站","address":""},{"poiid":"B2094757D064A2FE449C","title":"Coffee Bean 浦东嘉里中心店","lon":"121.56428097","lat":"31.212755651","category":"65","category_name":"咖啡厅","address":"上海市浦东嘉里中心"},{"poiid":"B2094757D16CA4FE469B","title":"纽约客(浦东嘉里城店)","lon":"121.56335327","lat":"31.211900131","category":"94","category_name":"西餐厅","address":"上海浦东新区花木路1378号浦东嘉里城L116店"},{"poiid":"B2094654DA6AA6FC419E","title":"上海市张江高科技园区(碧波路)","lon":"121.58106","lat":"31.20162","category":"45","category_name":"产业园区","address":"碧波路572弄115号-24幢"},{"poiid":"B2094750DB68AAFF4298","title":"嘉里城","lon":"121.563339","lat":"31.212678","category":"248","category_name":"生活娱乐","address":"浦东新区花木路1378号"},{"poiid":"B2094655D26BA4F4429D","title":"小湘亭","lon":"121.57847","lat":"31.20968","category":"77","category_name":"湖南菜","address":"浦东新区景明路潘桥7号"},{"poiid":"B2094654DA6AA0FA4999","title":"汤臣高尔夫别墅海顿园区","lon":"121.57684","lat":"31.21737","category":"47","category_name":"住宅区","address":""},{"poiid":"B2094654DA6AA7F54999","title":"品粤阁","lon":"121.58396","lat":"31.21021","category":"72","category_name":"广东菜","address":"上海张江高科技园区松涛路251号(汤臣豪园会所)"},{"poiid":"B2094757D06AA4F84699","title":"高科中路罗山路","lon":"121.577929817","lat":"31.2063349018","category":"500","category_name":"未知分类","address":"上海高科路罗山路"},{"poiid":"B2094655D26BA3F4449A","title":"汤臣集团健身中心","lon":"121.57638","lat":"31.21114","category":"221","category_name":"健身中心","address":"浦东新区龙东大道1号"},{"poiid":"B2094757D064A3FB4792","title":"华虹科技园","lon":"121.584495544","lat":"31.2073020935","category":"46","category_name":"楼宇","address":"上海浦东碧波路177号"},{"poiid":"B2094757D068ABFA4598","title":"张江体育休闲中心","lon":"121.57973","lat":"31.20426","category":"76","category_name":"上海菜","address":"浦东新区张江高科技园区春晓路81号(近景明路)"},{"poiid":"B2094757D16FAAFD429D","title":"诗碧阁西餐厅","lon":"121.563161975","lat":"31.2128106532","category":"500","category_name":"未知分类","address":"上海浦东嘉里中心"}]