[{"poiid":"B2094654DA69A4FB429B","title":"华润时代广场","lon":"121.52377732395","lat":"31.232792476512","category":"119","category_name":"商场","address":"浦东新区张杨路500号(近浦东南路)"},{"poiid":"B2094757D06FA5FF419C","title":"羊家胡同(福山店)","lon":"121.52660142939567","lat":"31.234068535728298","category":"86","category_name":"火锅店","address":"浦东新区福山路76号(近商城路)"},{"poiid":"B2094757D06FA6FF499B","title":"唐韵秦风(乳山路店)","lon":"121.526159622","lat":"31.2372458442","category":"84","category_name":"西北菜","address":"浦东新区乳山路231号(近福山路)"},{"poiid":"B209475CD564A7F84392","title":"上海滩浦东香格里拉店","lon":"121.50058","lat":"31.23634","category":"119","category_name":"商场","address":"浦东富成路33号香格里拉酒店内大堂层"},{"poiid":"B2094757D068A1FC4098","title":"梅园","lon":"121.52687","lat":"31.23671","category":"196","category_name":"公园","address":"上海浦东新区乳山路180号  "},{"poiid":"B2094654DA69A4FA469F","title":"中融恒瑞国际大厦","lon":"121.52605424499","lat":"31.233571234318","category":"46","category_name":"楼宇","address":"浦东新区张杨路568号(近南泉北路)"},{"poiid":"B2094757D06FA4F8469A","title":"东方海港大酒店","lon":"121.52512","lat":"31.23839","category":"72","category_name":"广东菜","address":"浦东新区福山路33号建工大厦1-3楼(近栖霞路)"},{"poiid":"B2094655D26EA4FA4298","title":"旋宫50――海神诺富特旋转餐厅","lon":"121.52469","lat":"31.23947","category":"247","category_name":"餐饮美食","address":"浦东新区浦东大道728号海神诺富特大酒店50楼"},{"poiid":"B2094654DB64A4FD459B","title":"生命人寿大厦","lon":"121.526","lat":"31.235","category":"46","category_name":"楼宇","address":"上海市浦东新区张扬路707号"},{"poiid":"B2094757D068ABF8429F","title":"乐凯大厦","lon":"121.52535925939","lat":"31.236358042864","category":"46","category_name":"楼宇","address":"卫清西路139_149号等"},{"poiid":"B2094757D06FA0F5469F","title":"红宝石(乳山路店)","lon":"121.522521","lat":"31.235744","category":"67","category_name":"甜品店","address":"浦东新区乳山路203号(近东方路)"},{"poiid":"B2094757D06FA6F9429A","title":"肯德基 KFC (乳山店)","lon":"121.523813","lat":"31.235975","category":"68","category_name":"快餐厅","address":"浦东新区乳山路136号(近东方路)"},{"poiid":"B2094654DA69A0F8479E","title":"斯米克大厦","lon":"121.527","lat":"31.2361","category":"46","category_name":"楼宇","address":"格林SOHO位于和平十三纬路云集街10号甲(东北炊具城西侧)"},{"poiid":"B2094655D26DA1F94099","title":"新大陆广场","lon":"121.525","lat":"31.235","category":"119","category_name":"商场","address":"崂山西路528号"},{"poiid":"B2094757D168AAFF409A","title":"乳山路东方路","lon":"121.524143738","lat":"31.2361914271","category":"500","category_name":"未知分类","address":"上海乳山路东方路"},{"poiid":"B2094655D26DA1FE499C","title":"上海福山外国语小学(福山路)","lon":"121.52596","lat":"31.23491","category":"56","category_name":"小学","address":"福山路62临"},{"poiid":"B2094757D068A4FB409B","title":"梅园三街坊","lon":"121.52402","lat":"31.233829","category":"47","category_name":"住宅区","address":"上海商城路991弄"},{"poiid":"B2094655D26AABF4449F","title":"泰煌鸡 乳山店","lon":"121.524193054","lat":"31.236647793","category":"68","category_name":"快餐厅","address":"浦东新区乳山路217号(近福山路)"},{"poiid":"B2094757D068A2FE459F","title":"东方路乳山路站","lon":"121.5222747","lat":"31.234984433","category":"260","category_name":"其他","address":"上海公交车站 在东方路上 靠近乳山路"},{"poiid":"B2094654DB6BAAFF4299","title":"胜康廖氏大厦","lon":"121.526","lat":"31.2363","category":"46","category_name":"楼宇","address":"重庆北部新区金渝大道89号(北部新区管委会对面)"},{"poiid":"B2094654DA69A0F94199","title":"福兴大厦","lon":"121.526","lat":"31.2344","category":"46","category_name":"楼宇","address":"丰台学城海鹰路1号,3号"},{"poiid":"B2094654DA69A4F94799","title":"东明广场","lon":"121.526438","lat":"31.233961","category":"46","category_name":"楼宇","address":"张杨路628弄"},{"poiid":"B2094757D16AA0FE499B","title":"陆家嘴街道","lon":"121.5244811","lat":"31.235724187","category":"500","category_name":"未知分类","address":"上海乳山路130弄21号"},{"poiid":"B2094655D264A2FE449B","title":"上海光大大厦","lon":"121.52658809613","lat":"31.236837054908","category":"46","category_name":"楼宇","address":"世纪大道1118号"},{"poiid":"B2094654DA69A0F9419E","title":"华诚大厦","lon":"121.526","lat":"31.2343","category":"46","category_name":"楼宇","address":"朝阳华威桥东北角"},{"poiid":"B2094655D36CA2FB499F","title":"商城路福山路","lon":"121.52558","lat":"31.23386","category":"38","category_name":"公交车站","address":""},{"poiid":"B2094654DA69AAFC4293","title":"振华综合高级中学","lon":"121.52606","lat":"31.23377","category":"55","category_name":"中学","address":"浦东新区商城路1088号(福山路商城路)"},{"poiid":"B2094757D068A0F44598","title":"梅园四街坊","lon":"121.52569","lat":"31.23312","category":"47","category_name":"住宅区","address":"上海浦东新区福山路100弄,福山路102弄,张杨路951弄,商城路1028弄"},{"poiid":"B2094757D06AA2F9429F","title":"心连心(乳山路店)","lon":"121.52534","lat":"31.23627","category":"68","category_name":"快餐厅","address":"上海浦东新区乳山路174号(福山路口)  "},{"poiid":"B2094757D06BABFD449F","title":"吉祥馄饨 乳山路店","lon":"121.526213","lat":"31.237193","category":"68","category_name":"快餐厅","address":"浦东新区乳山路162号(近福山路)"},{"poiid":"B2094654DB64A3FE4793","title":"梅园新村派出所","lon":"121.52602","lat":"31.23791","category":"609","category_name":"警察局","address":"乳山路235弄18号"},{"poiid":"B2094654DA69A0F8479C","title":"银河大厦","lon":"121.52766744072","lat":"31.23594627501","category":"46","category_name":"楼宇","address":"上海浦东新区张杨路769号"},{"poiid":"B2094654DB6AA3F54292","title":"食知味龙虾馆 商城路店","lon":"121.526278","lat":"31.234431","category":"68","category_name":"快餐厅","address":"浦东新区商城路1111号(近福山路)"},{"poiid":"B2094757D469A7F8459C","title":"绍兴名菜","lon":"121.526985054","lat":"31.234795793","category":"75","category_name":"浙江菜","address":"浦东新区商城路1129号(福山路口)"},{"poiid":"B2094757D06AA7F4479D","title":"陆家嘴社区卫生服务中心","lon":"121.5271","lat":"31.23712","category":"162","category_name":"医院","address":"浦东新区乳山路235弄1号(乳山路松林路)"},{"poiid":"B2094750D268A6F4429C","title":"牧场绿农火锅餐厅","lon":"121.5274143219","lat":"31.234252093742","category":"86","category_name":"火锅店","address":"浦东新区商城路1121号(近福山路)"},{"poiid":"B2094654DA69A4F94092","title":"长航大厦","lon":"121.52869281152","lat":"31.234432056672","category":"46","category_name":"楼宇","address":"上海浦东新区张杨路800号"},{"poiid":"B2094654DA69AAFC4692","title":"可的(新世界假日酒店东南)","lon":"121.52591","lat":"31.2355","category":"117","category_name":"便民商店/便利店","address":"福山路50-3临"},{"poiid":"B2094752D468A4F94098","title":"杭州西湖","lon":"121.524739","lat":"31.23631","category":"250","category_name":"公园户外","address":null},{"poiid":"B2094655D265A4F84299","title":"隧成小区(东门)","lon":"121.52585","lat":"31.23554","category":"47","category_name":"住宅区","address":"福山路48弄"},{"poiid":"B2094757D06BA1FA4192","title":"吉的堡少儿英语学校(福山校)","lon":"121.525933","lat":"31.235921","category":"253","category_name":"校园生活","address":"上海福山路99号2楼"},{"poiid":"B2094655D265A1F44999","title":"为民冷饮批发","lon":"121.52486","lat":"31.23631","category":"113","category_name":"冷饮店","address":"乳山路162-1"},{"poiid":"B2094751D269A1F5489E","title":"老鸿兴苏州汤包馆","lon":"121.523811","lat":"31.236158","category":"247","category_name":"餐饮美食","address":"乳山路"},{"poiid":"B2094654DA69AAFC479F","title":"康伴一生家庭医疗保健用品连锁","lon":"121.52529","lat":"31.23644","category":"162","category_name":"医院","address":"乳山路168号"},{"poiid":"B2094757D168AAFA429E","title":"潮汕海鲜粥","lon":"121.526141738","lat":"31.2351694054","category":"247","category_name":"餐饮美食","address":"上海市浦东新区东方路"},{"poiid":"B2094654DA69AAFC479C","title":"养和堂福山店","lon":"121.52526","lat":"31.23643","category":"162","category_name":"医院","address":"浦东新区乳山路168号(福山路乳山路)"},{"poiid":"B2094655D264AAF94498","title":"新招鲜本地鸡窝","lon":"121.52674","lat":"31.23466","category":"86","category_name":"火锅店","address":"浦东新区商城路1111号(近福山路)"},{"poiid":"B2094757D16CA0FD4993","title":"陆家嘴街道社区事务受理服务中心","lon":"121.524777738","lat":"31.2350854036","category":"252","category_name":"楼宇机构","address":"上海市浦东新区福山路55号"},{"poiid":"B2094750D16BAAFD419A","title":"海上小喔(上海东方明珠店)(原汇东假日酒店)","lon":"121.5243","lat":"31.2357","category":"215","category_name":"三星级宾馆","address":"上海市浦东新区乳山路136号(近东方路)"},{"poiid":"B2094654DA69AAFD409D","title":"重庆鸡公煲乳山店","lon":"121.5231","lat":"31.236","category":"71","category_name":"四川菜","address":"浦东新区乳山路90号(南泉北路崂山路间)"},{"poiid":"B2094654DA69A4FB429B","title":"华润时代广场","lon":"121.52377732395","lat":"31.232792476512","category":"119","category_name":"商场","address":"浦东新区张杨路500号(近浦东南路)"},{"poiid":"B2094757D06FA5FF419C","title":"羊家胡同(福山店)","lon":"121.52660142939567","lat":"31.234068535728298","category":"86","category_name":"火锅店","address":"浦东新区福山路76号(近商城路)"},{"poiid":"B2094757D06FA6FF499B","title":"唐韵秦风(乳山路店)","lon":"121.526159622","lat":"31.2372458442","category":"84","category_name":"西北菜","address":"浦东新区乳山路231号(近福山路)"},{"poiid":"B209475CD564A7F84392","title":"上海滩浦东香格里拉店","lon":"121.50058","lat":"31.23634","category":"119","category_name":"商场","address":"浦东富成路33号香格里拉酒店内大堂层"},{"poiid":"B2094757D068A1FC4098","title":"梅园","lon":"121.52687","lat":"31.23671","category":"196","category_name":"公园","address":"上海浦东新区乳山路180号  "},{"poiid":"B2094654DA69A4FA469F","title":"中融恒瑞国际大厦","lon":"121.52605424499","lat":"31.233571234318","category":"46","category_name":"楼宇","address":"浦东新区张杨路568号(近南泉北路)"},{"poiid":"B2094757D06FA4F8469A","title":"东方海港大酒店","lon":"121.52512","lat":"31.23839","category":"72","category_name":"广东菜","address":"浦东新区福山路33号建工大厦1-3楼(近栖霞路)"},{"poiid":"B2094655D26EA4FA4298","title":"旋宫50――海神诺富特旋转餐厅","lon":"121.52469","lat":"31.23947","category":"247","category_name":"餐饮美食","address":"浦东新区浦东大道728号海神诺富特大酒店50楼"},{"poiid":"B2094654DB64A4FD459B","title":"生命人寿大厦","lon":"121.526","lat":"31.235","category":"46","category_name":"楼宇","address":"上海市浦东新区张扬路707号"},{"poiid":"B2094757D068ABF8429F","title":"乐凯大厦","lon":"121.52535925939","lat":"31.236358042864","category":"46","category_name":"楼宇","address":"卫清西路139_149号等"},{"poiid":"B2094757D06FA0F5469F","title":"红宝石(乳山路店)","lon":"121.522521","lat":"31.235744","category":"67","category_name":"甜品店","address":"浦东新区乳山路203号(近东方路)"},{"poiid":"B2094757D06FA6F9429A","title":"肯德基 KFC (乳山店)","lon":"121.523813","lat":"31.235975","category":"68","category_name":"快餐厅","address":"浦东新区乳山路136号(近东方路)"},{"poiid":"B2094654DA69A0F8479E","title":"斯米克大厦","lon":"121.527","lat":"31.2361","category":"46","category_name":"楼宇","address":"格林SOHO位于和平十三纬路云集街10号甲(东北炊具城西侧)"},{"poiid":"B2094655D26DA1F94099","title":"新大陆广场","lon":"121.525","lat":"31.235","category":"119","category_name":"商场","address":"崂山西路528号"},{"poiid":"B2094757D168AAFF409A","title":"乳山路东方路","lon":"121.524143738","lat":"31.2361914271","category":"500","category_name":"未知分类","address":"上海乳山路东方路"},{"poiid":"B2094655D26DA1FE499C","title":"上海福山外国语小学(福山路)","lon":"121.52596","lat":"31.23491","category":"56","category_name":"小学","address":"福山路62临"},{"poiid":"B2094757D068A4FB409B","title":"梅园三街坊","lon":"121.52402","lat":"31.233829","category":"47","category_name":"住宅区","address":"上海商城路991弄"},{"poiid":"B2094655D26AABF4449F","title":"泰煌鸡 乳山店","lon":"121.524193054","lat":"31.236647793","category":"68","category_name":"快餐厅","address":"浦东新区乳山路217号(近福山路)"},{"poiid":"B2094757D068A2FE459F","title":"东方路乳山路站","lon":"121.5222747","lat":"31.234984433","category":"260","category_name":"其他","address":"上海公交车站 在东方路上 靠近乳山路"},{"poiid":"B2094654DB6BAAFF4299","title":"胜康廖氏大厦","lon":"121.526","lat":"31.2363","category":"46","category_name":"楼宇","address":"重庆北部新区金渝大道89号(北部新区管委会对面)"},{"poiid":"B2094654DA69A0F94199","title":"福兴大厦","lon":"121.526","lat":"31.2344","category":"46","category_name":"楼宇","address":"丰台学城海鹰路1号,3号"},{"poiid":"B2094654DA69A4F94799","title":"东明广场","lon":"121.526438","lat":"31.233961","category":"46","category_name":"楼宇","address":"张杨路628弄"},{"poiid":"B2094757D16AA0FE499B","title":"陆家嘴街道","lon":"121.5244811","lat":"31.235724187","category":"500","category_name":"未知分类","address":"上海乳山路130弄21号"},{"poiid":"B2094655D264A2FE449B","title":"上海光大大厦","lon":"121.52658809613","lat":"31.236837054908","category":"46","category_name":"楼宇","address":"世纪大道1118号"},{"poiid":"B2094654DA69A0F9419E","title":"华诚大厦","lon":"121.526","lat":"31.2343","category":"46","category_name":"楼宇","address":"朝阳华威桥东北角"},{"poiid":"B2094655D36CA2FB499F","title":"商城路福山路","lon":"121.52558","lat":"31.23386","category":"38","category_name":"公交车站","address":""},{"poiid":"B2094654DA69AAFC4293","title":"振华综合高级中学","lon":"121.52606","lat":"31.23377","category":"55","category_name":"中学","address":"浦东新区商城路1088号(福山路商城路)"},{"poiid":"B2094757D068A0F44598","title":"梅园四街坊","lon":"121.52569","lat":"31.23312","category":"47","category_name":"住宅区","address":"上海浦东新区福山路100弄,福山路102弄,张杨路951弄,商城路1028弄"},{"poiid":"B2094757D06AA2F9429F","title":"心连心(乳山路店)","lon":"121.52534","lat":"31.23627","category":"68","category_name":"快餐厅","address":"上海浦东新区乳山路174号(福山路口)  "},{"poiid":"B2094757D06BABFD449F","title":"吉祥馄饨 乳山路店","lon":"121.526213","lat":"31.237193","category":"68","category_name":"快餐厅","address":"浦东新区乳山路162号(近福山路)"},{"poiid":"B2094654DB64A3FE4793","title":"梅园新村派出所","lon":"121.52602","lat":"31.23791","category":"609","category_name":"警察局","address":"乳山路235弄18号"},{"poiid":"B2094654DA69A0F8479C","title":"银河大厦","lon":"121.52766744072","lat":"31.23594627501","category":"46","category_name":"楼宇","address":"上海浦东新区张杨路769号"},{"poiid":"B2094654DB6AA3F54292","title":"食知味龙虾馆 商城路店","lon":"121.526278","lat":"31.234431","category":"68","category_name":"快餐厅","address":"浦东新区商城路1111号(近福山路)"},{"poiid":"B2094757D469A7F8459C","title":"绍兴名菜","lon":"121.526985054","lat":"31.234795793","category":"75","category_name":"浙江菜","address":"浦东新区商城路1129号(福山路口)"},{"poiid":"B2094757D06AA7F4479D","title":"陆家嘴社区卫生服务中心","lon":"121.5271","lat":"31.23712","category":"162","category_name":"医院","address":"浦东新区乳山路235弄1号(乳山路松林路)"},{"poiid":"B2094750D268A6F4429C","title":"牧场绿农火锅餐厅","lon":"121.5274143219","lat":"31.234252093742","category":"86","category_name":"火锅店","address":"浦东新区商城路1121号(近福山路)"},{"poiid":"B2094654DA69A4F94092","title":"长航大厦","lon":"121.52869281152","lat":"31.234432056672","category":"46","category_name":"楼宇","address":"上海浦东新区张杨路800号"},{"poiid":"B2094654DA69AAFC4692","title":"可的(新世界假日酒店东南)","lon":"121.52591","lat":"31.2355","category":"117","category_name":"便民商店/便利店","address":"福山路50-3临"},{"poiid":"B2094752D468A4F94098","title":"杭州西湖","lon":"121.524739","lat":"31.23631","category":"250","category_name":"公园户外","address":null},{"poiid":"B2094655D265A4F84299","title":"隧成小区(东门)","lon":"121.52585","lat":"31.23554","category":"47","category_name":"住宅区","address":"福山路48弄"},{"poiid":"B2094757D06BA1FA4192","title":"吉的堡少儿英语学校(福山校)","lon":"121.525933","lat":"31.235921","category":"253","category_name":"校园生活","address":"上海福山路99号2楼"},{"poiid":"B2094655D265A1F44999","title":"为民冷饮批发","lon":"121.52486","lat":"31.23631","category":"113","category_name":"冷饮店","address":"乳山路162-1"},{"poiid":"B2094751D269A1F5489E","title":"老鸿兴苏州汤包馆","lon":"121.523811","lat":"31.236158","category":"247","category_name":"餐饮美食","address":"乳山路"},{"poiid":"B2094654DA69AAFC479F","title":"康伴一生家庭医疗保健用品连锁","lon":"121.52529","lat":"31.23644","category":"162","category_name":"医院","address":"乳山路168号"},{"poiid":"B2094757D168AAFA429E","title":"潮汕海鲜粥","lon":"121.526141738","lat":"31.2351694054","category":"247","category_name":"餐饮美食","address":"上海市浦东新区东方路"},{"poiid":"B2094654DA69AAFC479C","title":"养和堂福山店","lon":"121.52526","lat":"31.23643","category":"162","category_name":"医院","address":"浦东新区乳山路168号(福山路乳山路)"},{"poiid":"B2094655D264AAF94498","title":"新招鲜本地鸡窝","lon":"121.52674","lat":"31.23466","category":"86","category_name":"火锅店","address":"浦东新区商城路1111号(近福山路)"},{"poiid":"B2094757D16CA0FD4993","title":"陆家嘴街道社区事务受理服务中心","lon":"121.524777738","lat":"31.2350854036","category":"252","category_name":"楼宇机构","address":"上海市浦东新区福山路55号"},{"poiid":"B2094750D16BAAFD419A","title":"海上小喔(上海东方明珠店)(原汇东假日酒店)","lon":"121.5243","lat":"31.2357","category":"215","category_name":"三星级宾馆","address":"上海市浦东新区乳山路136号(近东方路)"},{"poiid":"B2094654DA69AAFD409D","title":"重庆鸡公煲乳山店","lon":"121.5231","lat":"31.236","category":"71","category_name":"四川菜","address":"浦东新区乳山路90号(南泉北路崂山路间)"},{"poiid":"B2094654DA69A4FB429B","title":"华润时代广场","lon":"121.52377732395","lat":"31.232792476512","category":"119","category_name":"商场","address":"浦东新区张杨路500号(近浦东南路)"},{"poiid":"B2094757D06FA5FF419C","title":"羊家胡同(福山店)","lon":"121.52660142939567","lat":"31.234068535728298","category":"86","category_name":"火锅店","address":"浦东新区福山路76号(近商城路)"},{"poiid":"B2094757D06FA6FF499B","title":"唐韵秦风(乳山路店)","lon":"121.526159622","lat":"31.2372458442","category":"84","category_name":"西北菜","address":"浦东新区乳山路231号(近福山路)"},{"poiid":"B209475CD564A7F84392","title":"上海滩浦东香格里拉店","lon":"121.50058","lat":"31.23634","category":"119","category_name":"商场","address":"浦东富成路33号香格里拉酒店内大堂层"},{"poiid":"B2094757D068A1FC4098","title":"梅园","lon":"121.52687","lat":"31.23671","category":"196","category_name":"公园","address":"上海浦东新区乳山路180号  "},{"poiid":"B2094654DA69A4FA469F","title":"中融恒瑞国际大厦","lon":"121.52605424499","lat":"31.233571234318","category":"46","category_name":"楼宇","address":"浦东新区张杨路568号(近南泉北路)"},{"poiid":"B2094757D06FA4F8469A","title":"东方海港大酒店","lon":"121.52512","lat":"31.23839","category":"72","category_name":"广东菜","address":"浦东新区福山路33号建工大厦1-3楼(近栖霞路)"},{"poiid":"B2094655D26EA4FA4298","title":"旋宫50――海神诺富特旋转餐厅","lon":"121.52469","lat":"31.23947","category":"247","category_name":"餐饮美食","address":"浦东新区浦东大道728号海神诺富特大酒店50楼"},{"poiid":"B2094654DB64A4FD459B","title":"生命人寿大厦","lon":"121.526","lat":"31.235","category":"46","category_name":"楼宇","address":"上海市浦东新区张扬路707号"},{"poiid":"B2094757D068ABF8429F","title":"乐凯大厦","lon":"121.52535925939","lat":"31.236358042864","category":"46","category_name":"楼宇","address":"卫清西路139_149号等"},{"poiid":"B2094757D06FA0F5469F","title":"红宝石(乳山路店)","lon":"121.522521","lat":"31.235744","category":"67","category_name":"甜品店","address":"浦东新区乳山路203号(近东方路)"},{"poiid":"B2094757D06FA6F9429A","title":"肯德基 KFC (乳山店)","lon":"121.523813","lat":"31.235975","category":"68","category_name":"快餐厅","address":"浦东新区乳山路136号(近东方路)"},{"poiid":"B2094654DA69A0F8479E","title":"斯米克大厦","lon":"121.527","lat":"31.2361","category":"46","category_name":"楼宇","address":"格林SOHO位于和平十三纬路云集街10号甲(东北炊具城西侧)"},{"poiid":"B2094655D26DA1F94099","title":"新大陆广场","lon":"121.525","lat":"31.235","category":"119","category_name":"商场","address":"崂山西路528号"},{"poiid":"B2094757D168AAFF409A","title":"乳山路东方路","lon":"121.524143738","lat":"31.2361914271","category":"500","category_name":"未知分类","address":"上海乳山路东方路"},{"poiid":"B2094655D26DA1FE499C","title":"上海福山外国语小学(福山路)","lon":"121.52596","lat":"31.23491","category":"56","category_name":"小学","address":"福山路62临"},{"poiid":"B2094757D068A4FB409B","title":"梅园三街坊","lon":"121.52402","lat":"31.233829","category":"47","category_name":"住宅区","address":"上海商城路991弄"},{"poiid":"B2094655D26AABF4449F","title":"泰煌鸡 乳山店","lon":"121.524193054","lat":"31.236647793","category":"68","category_name":"快餐厅","address":"浦东新区乳山路217号(近福山路)"},{"poiid":"B2094757D068A2FE459F","title":"东方路乳山路站","lon":"121.5222747","lat":"31.234984433","category":"260","category_name":"其他","address":"上海公交车站 在东方路上 靠近乳山路"},{"poiid":"B2094654DB6BAAFF4299","title":"胜康廖氏大厦","lon":"121.526","lat":"31.2363","category":"46","category_name":"楼宇","address":"重庆北部新区金渝大道89号(北部新区管委会对面)"},{"poiid":"B2094654DA69A0F94199","title":"福兴大厦","lon":"121.526","lat":"31.2344","category":"46","category_name":"楼宇","address":"丰台学城海鹰路1号,3号"},{"poiid":"B2094654DA69A4F94799","title":"东明广场","lon":"121.526438","lat":"31.233961","category":"46","category_name":"楼宇","address":"张杨路628弄"},{"poiid":"B2094757D16AA0FE499B","title":"陆家嘴街道","lon":"121.5244811","lat":"31.235724187","category":"500","category_name":"未知分类","address":"上海乳山路130弄21号"},{"poiid":"B2094655D264A2FE449B","title":"上海光大大厦","lon":"121.52658809613","lat":"31.236837054908","category":"46","category_name":"楼宇","address":"世纪大道1118号"},{"poiid":"B2094654DA69A0F9419E","title":"华诚大厦","lon":"121.526","lat":"31.2343","category":"46","category_name":"楼宇","address":"朝阳华威桥东北角"},{"poiid":"B2094655D36CA2FB499F","title":"商城路福山路","lon":"121.52558","lat":"31.23386","category":"38","category_name":"公交车站","address":""},{"poiid":"B2094654DA69AAFC4293","title":"振华综合高级中学","lon":"121.52606","lat":"31.23377","category":"55","category_name":"中学","address":"浦东新区商城路1088号(福山路商城路)"},{"poiid":"B2094757D068A0F44598","title":"梅园四街坊","lon":"121.52569","lat":"31.23312","category":"47","category_name":"住宅区","address":"上海浦东新区福山路100弄,福山路102弄,张杨路951弄,商城路1028弄"},{"poiid":"B2094757D06AA2F9429F","title":"心连心(乳山路店)","lon":"121.52534","lat":"31.23627","category":"68","category_name":"快餐厅","address":"上海浦东新区乳山路174号(福山路口)  "},{"poiid":"B2094757D06BABFD449F","title":"吉祥馄饨 乳山路店","lon":"121.526213","lat":"31.237193","category":"68","category_name":"快餐厅","address":"浦东新区乳山路162号(近福山路)"},{"poiid":"B2094654DB64A3FE4793","title":"梅园新村派出所","lon":"121.52602","lat":"31.23791","category":"609","category_name":"警察局","address":"乳山路235弄18号"},{"poiid":"B2094654DA69A0F8479C","title":"银河大厦","lon":"121.52766744072","lat":"31.23594627501","category":"46","category_name":"楼宇","address":"上海浦东新区张杨路769号"},{"poiid":"B2094654DB6AA3F54292","title":"食知味龙虾馆 商城路店","lon":"121.526278","lat":"31.234431","category":"68","category_name":"快餐厅","address":"浦东新区商城路1111号(近福山路)"},{"poiid":"B2094757D469A7F8459C","title":"绍兴名菜","lon":"121.526985054","lat":"31.234795793","category":"75","category_name":"浙江菜","address":"浦东新区商城路1129号(福山路口)"},{"poiid":"B2094757D06AA7F4479D","title":"陆家嘴社区卫生服务中心","lon":"121.5271","lat":"31.23712","category":"162","category_name":"医院","address":"浦东新区乳山路235弄1号(乳山路松林路)"},{"poiid":"B2094750D268A6F4429C","title":"牧场绿农火锅餐厅","lon":"121.5274143219","lat":"31.234252093742","category":"86","category_name":"火锅店","address":"浦东新区商城路1121号(近福山路)"},{"poiid":"B2094654DA69A4F94092","title":"长航大厦","lon":"121.52869281152","lat":"31.234432056672","category":"46","category_name":"楼宇","address":"上海浦东新区张杨路800号"},{"poiid":"B2094654DA69AAFC4692","title":"可的(新世界假日酒店东南)","lon":"121.52591","lat":"31.2355","category":"117","category_name":"便民商店/便利店","address":"福山路50-3临"},{"poiid":"B2094752D468A4F94098","title":"杭州西湖","lon":"121.524739","lat":"31.23631","category":"250","category_name":"公园户外","address":null},{"poiid":"B2094655D265A4F84299","title":"隧成小区(东门)","lon":"121.52585","lat":"31.23554","category":"47","category_name":"住宅区","address":"福山路48弄"},{"poiid":"B2094757D06BA1FA4192","title":"吉的堡少儿英语学校(福山校)","lon":"121.525933","lat":"31.235921","category":"253","category_name":"校园生活","address":"上海福山路99号2楼"},{"poiid":"B2094655D265A1F44999","title":"为民冷饮批发","lon":"121.52486","lat":"31.23631","category":"113","category_name":"冷饮店","address":"乳山路162-1"},{"poiid":"B2094751D269A1F5489E","title":"老鸿兴苏州汤包馆","lon":"121.523811","lat":"31.236158","category":"247","category_name":"餐饮美食","address":"乳山路"},{"poiid":"B2094654DA69AAFC479F","title":"康伴一生家庭医疗保健用品连锁","lon":"121.52529","lat":"31.23644","category":"162","category_name":"医院","address":"乳山路168号"},{"poiid":"B2094757D168AAFA429E","title":"潮汕海鲜粥","lon":"121.526141738","lat":"31.2351694054","category":"247","category_name":"餐饮美食","address":"上海市浦东新区东方路"},{"poiid":"B2094654DA69AAFC479C","title":"养和堂福山店","lon":"121.52526","lat":"31.23643","category":"162","category_name":"医院","address":"浦东新区乳山路168号(福山路乳山路)"},{"poiid":"B2094655D264AAF94498","title":"新招鲜本地鸡窝","lon":"121.52674","lat":"31.23466","category":"86","category_name":"火锅店","address":"浦东新区商城路1111号(近福山路)"},{"poiid":"B2094757D16CA0FD4993","title":"陆家嘴街道社区事务受理服务中心","lon":"121.524777738","lat":"31.2350854036","category":"252","category_name":"楼宇机构","address":"上海市浦东新区福山路55号"},{"poiid":"B2094750D16BAAFD419A","title":"海上小喔(上海东方明珠店)(原汇东假日酒店)","lon":"121.5243","lat":"31.2357","category":"215","category_name":"三星级宾馆","address":"上海市浦东新区乳山路136号(近东方路)"},{"poiid":"B2094654DA69AAFD409D","title":"重庆鸡公煲乳山店","lon":"121.5231","lat":"31.236","category":"71","category_name":"四川菜","address":"浦东新区乳山路90号(南泉北路崂山路间)"},{"poiid":"B2094654DA69A4FB429B","title":"华润时代广场","lon":"121.52377732395","lat":"31.232792476512","category":"119","category_name":"商场","address":"浦东新区张杨路500号(近浦东南路)"},{"poiid":"B2094757D06FA5FF419C","title":"羊家胡同(福山店)","lon":"121.52660142939567","lat":"31.234068535728298","category":"86","category_name":"火锅店","address":"浦东新区福山路76号(近商城路)"},{"poiid":"B2094757D06FA6FF499B","title":"唐韵秦风(乳山路店)","lon":"121.526159622","lat":"31.2372458442","category":"84","category_name":"西北菜","address":"浦东新区乳山路231号(近福山路)"},{"poiid":"B209475CD564A7F84392","title":"上海滩浦东香格里拉店","lon":"121.50058","lat":"31.23634","category":"119","category_name":"商场","address":"浦东富成路33号香格里拉酒店内大堂层"},{"poiid":"B2094757D068A1FC4098","title":"梅园","lon":"121.52687","lat":"31.23671","category":"196","category_name":"公园","address":"上海浦东新区乳山路180号  "},{"poiid":"B2094654DA69A4FA469F","title":"中融恒瑞国际大厦","lon":"121.52605424499","lat":"31.233571234318","category":"46","category_name":"楼宇","address":"浦东新区张杨路568号(近南泉北路)"},{"poiid":"B2094757D06FA4F8469A","title":"东方海港大酒店","lon":"121.52512","lat":"31.23839","category":"72","category_name":"广东菜","address":"浦东新区福山路33号建工大厦1-3楼(近栖霞路)"},{"poiid":"B2094655D26EA4FA4298","title":"旋宫50――海神诺富特旋转餐厅","lon":"121.52469","lat":"31.23947","category":"247","category_name":"餐饮美食","address":"浦东新区浦东大道728号海神诺富特大酒店50楼"},{"poiid":"B2094654DB64A4FD459B","title":"生命人寿大厦","lon":"121.526","lat":"31.235","category":"46","category_name":"楼宇","address":"上海市浦东新区张扬路707号"},{"poiid":"B2094757D068ABF8429F","title":"乐凯大厦","lon":"121.52535925939","lat":"31.236358042864","category":"46","category_name":"楼宇","address":"卫清西路139_149号等"},{"poiid":"B2094757D06FA0F5469F","title":"红宝石(乳山路店)","lon":"121.522521","lat":"31.235744","category":"67","category_name":"甜品店","address":"浦东新区乳山路203号(近东方路)"},{"poiid":"B2094757D06FA6F9429A","title":"肯德基 KFC (乳山店)","lon":"121.523813","lat":"31.235975","category":"68","category_name":"快餐厅","address":"浦东新区乳山路136号(近东方路)"},{"poiid":"B2094654DA69A0F8479E","title":"斯米克大厦","lon":"121.527","lat":"31.2361","category":"46","category_name":"楼宇","address":"格林SOHO位于和平十三纬路云集街10号甲(东北炊具城西侧)"},{"poiid":"B2094655D26DA1F94099","title":"新大陆广场","lon":"121.525","lat":"31.235","category":"119","category_name":"商场","address":"崂山西路528号"},{"poiid":"B2094757D168AAFF409A","title":"乳山路东方路","lon":"121.524143738","lat":"31.2361914271","category":"500","category_name":"未知分类","address":"上海乳山路东方路"},{"poiid":"B2094655D26DA1FE499C","title":"上海福山外国语小学(福山路)","lon":"121.52596","lat":"31.23491","category":"56","category_name":"小学","address":"福山路62临"},{"poiid":"B2094757D068A4FB409B","title":"梅园三街坊","lon":"121.52402","lat":"31.233829","category":"47","category_name":"住宅区","address":"上海商城路991弄"},{"poiid":"B2094655D26AABF4449F","title":"泰煌鸡 乳山店","lon":"121.524193054","lat":"31.236647793","category":"68","category_name":"快餐厅","address":"浦东新区乳山路217号(近福山路)"},{"poiid":"B2094757D068A2FE459F","title":"东方路乳山路站","lon":"121.5222747","lat":"31.234984433","category":"260","category_name":"其他","address":"上海公交车站 在东方路上 靠近乳山路"},{"poiid":"B2094654DB6BAAFF4299","title":"胜康廖氏大厦","lon":"121.526","lat":"31.2363","category":"46","category_name":"楼宇","address":"重庆北部新区金渝大道89号(北部新区管委会对面)"},{"poiid":"B2094654DA69A0F94199","title":"福兴大厦","lon":"121.526","lat":"31.2344","category":"46","category_name":"楼宇","address":"丰台学城海鹰路1号,3号"},{"poiid":"B2094654DA69A4F94799","title":"东明广场","lon":"121.526438","lat":"31.233961","category":"46","category_name":"楼宇","address":"张杨路628弄"},{"poiid":"B2094757D16AA0FE499B","title":"陆家嘴街道","lon":"121.5244811","lat":"31.235724187","category":"500","category_name":"未知分类","address":"上海乳山路130弄21号"},{"poiid":"B2094655D264A2FE449B","title":"上海光大大厦","lon":"121.52658809613","lat":"31.236837054908","category":"46","category_name":"楼宇","address":"世纪大道1118号"},{"poiid":"B2094654DA69A0F9419E","title":"华诚大厦","lon":"121.526","lat":"31.2343","category":"46","category_name":"楼宇","address":"朝阳华威桥东北角"},{"poiid":"B2094655D36CA2FB499F","title":"商城路福山路","lon":"121.52558","lat":"31.23386","category":"38","category_name":"公交车站","address":""},{"poiid":"B2094654DA69AAFC4293","title":"振华综合高级中学","lon":"121.52606","lat":"31.23377","category":"55","category_name":"中学","address":"浦东新区商城路1088号(福山路商城路)"},{"poiid":"B2094757D068A0F44598","title":"梅园四街坊","lon":"121.52569","lat":"31.23312","category":"47","category_name":"住宅区","address":"上海浦东新区福山路100弄,福山路102弄,张杨路951弄,商城路1028弄"},{"poiid":"B2094757D06AA2F9429F","title":"心连心(乳山路店)","lon":"121.52534","lat":"31.23627","category":"68","category_name":"快餐厅","address":"上海浦东新区乳山路174号(福山路口)  "},{"poiid":"B2094757D06BABFD449F","title":"吉祥馄饨 乳山路店","lon":"121.526213","lat":"31.237193","category":"68","category_name":"快餐厅","address":"浦东新区乳山路162号(近福山路)"},{"poiid":"B2094654DB64A3FE4793","title":"梅园新村派出所","lon":"121.52602","lat":"31.23791","category":"609","category_name":"警察局","address":"乳山路235弄18号"},{"poiid":"B2094654DA69A0F8479C","title":"银河大厦","lon":"121.52766744072","lat":"31.23594627501","category":"46","category_name":"楼宇","address":"上海浦东新区张杨路769号"},{"poiid":"B2094654DB6AA3F54292","title":"食知味龙虾馆 商城路店","lon":"121.526278","lat":"31.234431","category":"68","category_name":"快餐厅","address":"浦东新区商城路1111号(近福山路)"},{"poiid":"B2094757D469A7F8459C","title":"绍兴名菜","lon":"121.526985054","lat":"31.234795793","category":"75","category_name":"浙江菜","address":"浦东新区商城路1129号(福山路口)"},{"poiid":"B2094757D06AA7F4479D","title":"陆家嘴社区卫生服务中心","lon":"121.5271","lat":"31.23712","category":"162","category_name":"医院","address":"浦东新区乳山路235弄1号(乳山路松林路)"},{"poiid":"B2094750D268A6F4429C","title":"牧场绿农火锅餐厅","lon":"121.5274143219","lat":"31.234252093742","category":"86","category_name":"火锅店","address":"浦东新区商城路1121号(近福山路)"},{"poiid":"B2094654DA69A4F94092","title":"长航大厦","lon":"121.52869281152","lat":"31.234432056672","category":"46","category_name":"楼宇","address":"上海浦东新区张杨路800号"},{"poiid":"B2094654DA69AAFC4692","title":"可的(新世界假日酒店东南)","lon":"121.52591","lat":"31.2355","category":"117","category_name":"便民商店/便利店","address":"福山路50-3临"},{"poiid":"B2094752D468A4F94098","title":"杭州西湖","lon":"121.524739","lat":"31.23631","category":"250","category_name":"公园户外","address":null},{"poiid":"B2094655D265A4F84299","title":"隧成小区(东门)","lon":"121.52585","lat":"31.23554","category":"47","category_name":"住宅区","address":"福山路48弄"},{"poiid":"B2094757D06BA1FA4192","title":"吉的堡少儿英语学校(福山校)","lon":"121.525933","lat":"31.235921","category":"253","category_name":"校园生活","address":"上海福山路99号2楼"},{"poiid":"B2094655D265A1F44999","title":"为民冷饮批发","lon":"121.52486","lat":"31.23631","category":"113","category_name":"冷饮店","address":"乳山路162-1"},{"poiid":"B2094751D269A1F5489E","title":"老鸿兴苏州汤包馆","lon":"121.523811","lat":"31.236158","category":"247","category_name":"餐饮美食","address":"乳山路"},{"poiid":"B2094654DA69AAFC479F","title":"康伴一生家庭医疗保健用品连锁","lon":"121.52529","lat":"31.23644","category":"162","category_name":"医院","address":"乳山路168号"},{"poiid":"B2094757D168AAFA429E","title":"潮汕海鲜粥","lon":"121.526141738","lat":"31.2351694054","category":"247","category_name":"餐饮美食","address":"上海市浦东新区东方路"},{"poiid":"B2094654DA69AAFC479C","title":"养和堂福山店","lon":"121.52526","lat":"31.23643","category":"162","category_name":"医院","address":"浦东新区乳山路168号(福山路乳山路)"},{"poiid":"B2094655D264AAF94498","title":"新招鲜本地鸡窝","lon":"121.52674","lat":"31.23466","category":"86","category_name":"火锅店","address":"浦东新区商城路1111号(近福山路)"},{"poiid":"B2094757D16CA0FD4993","title":"陆家嘴街道社区事务受理服务中心","lon":"121.524777738","lat":"31.2350854036","category":"252","category_name":"楼宇机构","address":"上海市浦东新区福山路55号"},{"poiid":"B2094750D16BAAFD419A","title":"海上小喔(上海东方明珠店)(原汇东假日酒店)","lon":"121.5243","lat":"31.2357","category":"215","category_name":"三星级宾馆","address":"上海市浦东新区乳山路136号(近东方路)"},{"poiid":"B2094654DA69AAFD409D","title":"重庆鸡公煲乳山店","lon":"121.5231","lat":"31.236","category":"71","category_name":"四川菜","address":"浦东新区乳山路90号(南泉北路崂山路间)"}]