[{"poiid":"B2094654DB65A4FE4793","title":"上海交通大学医学院","lon":"121.47212","lat":"31.21238","category":"671","category_name":"高校中心点","address":"上海市重庆南路227号"},{"poiid":"B2094757D06FA3F8449A","title":"COSTA COFFEE(思南公馆店)","lon":"121.46997364","lat":"31.21457859","category":"65","category_name":"咖啡厅","address":"卢湾区复兴中路507弄5号1楼103室(近重庆南路)"},{"poiid":"B2094757D06FA4FA4192","title":"SMUDGEstore(林俊杰SMG)","lon":"121.47483764","lat":"31.215852575","category":"141","category_name":"服装鞋帽皮具店","address":"上海市卢湾区马当路新天地时尚B108号"},{"poiid":"B2094753D76FAAFA449C","title":"上海滩国泰旗舰店","lon":"121.466011","lat":"31.216125","category":"249","category_name":"购物服务","address":"淮海中路868号"},{"poiid":"B209475CD564A7F84292","title":"上海滩新天地店","lon":"121.47463","lat":"31.22164","category":"119","category_name":"商场","address":"\"太仓路181弄新天地北里15号\r\n\""},{"poiid":"B209475CD564A7F8439E","title":"上海滩中信泰富店","lon":"121.45602","lat":"31.22851","category":"119","category_name":"商场","address":"\"南京西路1168号中信泰富广场，店铺号221.\r\n\""},{"poiid":"B2094751D265A1FB459E","title":"萌果酱女仆咖啡屋 Maid Jump","lon":"121.47213","lat":"31.21763","category":"247","category_name":"餐饮美食","address":"卢湾区自忠路453号甲(近淡水路)"},{"poiid":"B2094757D16FA6F44399","title":"新天地PAULANER","lon":"121.473980542","lat":"31.2169820769","category":"500","category_name":"未知分类","address":"上海新天地"},{"poiid":"B2094757D66EA7FC499F","title":"交通大学医学院","lon":"121.47045573","lat":"31.212595924","category":"253","category_name":"校园生活","address":"上海重庆南路280号"},{"poiid":"B2094757D164A2FF449F","title":"南北高架","lon":"121.470309792","lat":"31.2140381135","category":"500","category_name":"未知分类","address":"上海卢湾"},{"poiid":"B2094757D069ABFA409C","title":"上海市基督教诸圣堂","lon":"121.473615","lat":"31.215621","category":"245","category_name":"教堂","address":"上海复兴中路425号(近淡水路)"},{"poiid":"B2094655D36CA6FF4293","title":"复兴中路","lon":"121.47073","lat":"31.21609","category":"38","category_name":"公交车站","address":""},{"poiid":"B2094757D068A2F9409D","title":"Lavazza Espression(新天地店)","lon":"121.47317673","lat":"31.216841014","category":"260","category_name":"其他","address":"卢湾区马当路245号新天地时尚商场1楼"},{"poiid":"B2094757DB6FA7F8499B","title":"Mix drink","lon":"121.47339","lat":"31.21652","category":"113","category_name":"冷饮店","address":"卢湾区淡水路238号(近自忠路)"},{"poiid":"B2094757D065ABF94893","title":"交大医学院懿德楼","lon":"121.472265","lat":"31.212037","category":"500","category_name":"未知分类","address":"上海重庆南路227号"},{"poiid":"B2094753D76AA5FC439A","title":"树洞咖啡","lon":"121.47134","lat":"31.21385","category":"65","category_name":"咖啡厅","address":"上海市卢湾区合肥路636号(近重庆南路)"},{"poiid":"B2094757D16CA7F44999","title":"晶浦会(思南公馆店)","lon":"121.46982518","lat":"31.215764791","category":"72","category_name":"广东菜","address":"卢湾区思南路55号思南公馆35号2-3楼(近复兴中路)"},{"poiid":"B2094654DA6DA5FE429B","title":"天主教上海教区圣伯多禄堂","lon":"121.46995","lat":"31.21339","category":"245","category_name":"教堂","address":"重庆南路270"},{"poiid":"B2094757D064A5FB469E","title":"黎云阁","lon":"121.47304678","lat":"31.215470918","category":"76","category_name":"上海菜","address":"卢湾区复兴中路470号(近淡水路)"},{"poiid":"B2094654DA6FA3FE469E","title":"韬奋纪念馆","lon":"121.47106","lat":"31.2141","category":"243","category_name":"纪念馆","address":"卢湾区重庆南路205弄53-54号(合肥路重庆南路)"},{"poiid":"B2094750D665ABF8439B","title":"上海口味粽王","lon":"121.472","lat":"31.2156","category":"68","category_name":"快餐厅","address":"卢湾区复兴中路488号(淡水路复兴中路)"},{"poiid":"B2094757D064A2FB439A","title":"思南公馆诗碧阁Specialty","lon":"121.47044173","lat":"31.214863972","category":"500","category_name":"未知分类","address":"上海市卢湾区南昌路"},{"poiid":"B2094654DB65A4F8479E","title":"复兴公园(南门)","lon":"121.47041","lat":"31.21575","category":"656","category_name":"大门","address":"上海卢湾区皋兰路2号甲(近思南路)"},{"poiid":"B2094757D06AA0FB409C","title":"品芳面馆","lon":"121.470912054","lat":"31.216979793","category":"68","category_name":"快餐厅","address":"卢湾区重庆南路183号(复兴中路重庆南路)"},{"poiid":"B2094757D06AA3FF499F","title":"魚蔵","lon":"121.47018573","lat":"31.215160979","category":"500","category_name":"未知分类","address":"上海思南路55号思南公馆1号3楼(近复兴中路)"},{"poiid":"B2094752DB6CA5FA469D","title":"思南公館","lon":"121.473636","lat":"31.21627","category":"500","category_name":"未知分类","address":"上海市 上海市思南路"},{"poiid":"B2094757D16DA4FF439C","title":"复兴路","lon":"121.472567415","lat":"31.2154622888","category":"500","category_name":"未知分类","address":"上海复兴路"},{"poiid":"B2094750DA64A7FE449B","title":"新锦江饭店","lon":"121.469696","lat":"31.21635","category":"247","category_name":"餐饮美食","address":null},{"poiid":"B2094751DA6FA6FA439B","title":"cafe espmark","lon":"121.472498","lat":"31.213737","category":"248","category_name":"生活娱乐","address":"上海市黄浦区合肥路588号"},{"poiid":"B2094757D66FA0FF409D","title":"上海市奉贤区实验中学","lon":"121.471673","lat":"31.215345","category":"55","category_name":"中学","address":"上海忘了"},{"poiid":"B2094750D76CA3FF4098","title":"3Q脆皮鸡排","lon":"121.474","lat":"31.2144","category":"68","category_name":"快餐厅","address":"卢湾区合肥路297号(近淡水路)"},{"poiid":"B2094655D268A6F4459F","title":"合肥小区","lon":"121.47216","lat":"31.21409","category":"47","category_name":"住宅区","address":"合肥路592弄16-31号"},{"poiid":"B2094757D16CA6F5419C","title":"瑞雪大楼","lon":"121.471574","lat":"31.214498","category":"252","category_name":"楼宇机构","address":"陕西南路271弄"},{"poiid":"B2094655D36DA7F9459E","title":"重庆南路复兴中路","lon":"121.47099","lat":"31.21581","category":"38","category_name":"公交车站","address":""},{"poiid":"B2094654DA6FA3FE4793","title":"圣乐大酒店","lon":"121.47262","lat":"31.21314","category":"88","category_name":"海鲜酒楼","address":"卢湾区金陵西路38号(连云路口)"},{"poiid":"B2094757D169A5F9469D","title":"南北高架淮海路","lon":"121.47080473","lat":"31.21662301","category":"500","category_name":"未知分类","address":"上海市南北高架"},{"poiid":"B2094654DA6FA3FE499A","title":"淮海中路街道社区卫生服务中心","lon":"121.47365","lat":"31.21475","category":"162","category_name":"医院","address":"卢湾区淡水路285号(近合肥路)"},{"poiid":"B2094654DB6BA4FB4798","title":"花园公寓(淡水路)","lon":"121.47332","lat":"31.21504","category":"47","category_name":"住宅区","address":"上海市静安区南京西路1173弄"},{"poiid":"B2094654DA6FA3FE4598","title":"重庆公寓","lon":"121.47101","lat":"31.215334","category":"47","category_name":"住宅区","address":"上海重庆南路185号"},{"poiid":"B2094655D268A0F84899","title":"合肥小区(南门)","lon":"121.47216","lat":"31.21389","category":"47","category_name":"住宅区","address":"合肥路592弄16-31号"},{"poiid":"B2094654DB6BA4FB479F","title":"二医大小区(合肥路)","lon":"121.47165","lat":"31.21362","category":"47","category_name":"住宅区","address":"合肥路381"},{"poiid":"B2094757D66DA1FD489E","title":"嘉定汽车公园","lon":"121.47260803","lat":"31.213414041","category":"196","category_name":"公园","address":"上海嘉定汽车博物馆"},{"poiid":"B2094751D269A4F54798","title":"森Mori咖啡吧酒吧","lon":"121.472442","lat":"31.215827","category":"247","category_name":"餐饮美食","address":"卢湾区黄坡南路693号靠近合肥路"},{"poiid":"B2094655D26CA4F94699","title":"钱柜卢湾店(东门)","lon":"121.47074","lat":"31.21645","category":"68","category_name":"快餐厅","address":""},{"poiid":"B2094757D16CA2FC409E","title":"X Bistro &amp; Rumbar","lon":"121.471080538","lat":"31.2140653557","category":"500","category_name":"未知分类","address":"上海思南公馆47号3楼"},{"poiid":"B2094654DA6FA3FE4792","title":"花园理发店","lon":"121.47223","lat":"31.21387","category":"148","category_name":"美容美发店","address":""},{"poiid":"B2094654DB6BA4F94899","title":"上海市卢湾区复兴中路第二小学(复兴中路)","lon":"121.4728","lat":"31.21566","category":"55","category_name":"中学","address":"复兴中路480弄1-6号"},{"poiid":"B2094753D26BA3FF4593","title":"Caffeine-Shanghai","lon":"121.47322834","lat":"31.21616892","category":"247","category_name":"餐饮美食","address":"淡水路264号（近复兴中路）"},{"poiid":"B2094750DB69ABFC4498","title":"光明村大酒楼","lon":"121.470329","lat":"31.215513","category":"247","category_name":"餐饮美食","address":null},{"poiid":"B2094654DA6FA3FE459B","title":"La Spa御美会","lon":"121.4714","lat":"31.21539","category":"148","category_name":"美容美发店","address":"复兴中路499"},{"poiid":"B2094654DB65A4FE4793","title":"上海交通大学医学院","lon":"121.47212","lat":"31.21238","category":"671","category_name":"高校中心点","address":"上海市重庆南路227号"},{"poiid":"B2094757D06FA3F8449A","title":"COSTA COFFEE(思南公馆店)","lon":"121.46997364","lat":"31.21457859","category":"65","category_name":"咖啡厅","address":"卢湾区复兴中路507弄5号1楼103室(近重庆南路)"},{"poiid":"B2094757D06FA4FA4192","title":"SMUDGEstore(林俊杰SMG)","lon":"121.47483764","lat":"31.215852575","category":"141","category_name":"服装鞋帽皮具店","address":"上海市卢湾区马当路新天地时尚B108号"},{"poiid":"B2094753D76FAAFA449C","title":"上海滩国泰旗舰店","lon":"121.466011","lat":"31.216125","category":"249","category_name":"购物服务","address":"淮海中路868号"},{"poiid":"B209475CD564A7F84292","title":"上海滩新天地店","lon":"121.47463","lat":"31.22164","category":"119","category_name":"商场","address":"\"太仓路181弄新天地北里15号\r\n\""},{"poiid":"B209475CD564A7F8439E","title":"上海滩中信泰富店","lon":"121.45602","lat":"31.22851","category":"119","category_name":"商场","address":"\"南京西路1168号中信泰富广场，店铺号221.\r\n\""},{"poiid":"B2094751D265A1FB459E","title":"萌果酱女仆咖啡屋 Maid Jump","lon":"121.47213","lat":"31.21763","category":"247","category_name":"餐饮美食","address":"卢湾区自忠路453号甲(近淡水路)"},{"poiid":"B2094757D16FA6F44399","title":"新天地PAULANER","lon":"121.473980542","lat":"31.2169820769","category":"500","category_name":"未知分类","address":"上海新天地"},{"poiid":"B2094757D66EA7FC499F","title":"交通大学医学院","lon":"121.47045573","lat":"31.212595924","category":"253","category_name":"校园生活","address":"上海重庆南路280号"},{"poiid":"B2094757D164A2FF449F","title":"南北高架","lon":"121.470309792","lat":"31.2140381135","category":"500","category_name":"未知分类","address":"上海卢湾"},{"poiid":"B2094757D069ABFA409C","title":"上海市基督教诸圣堂","lon":"121.473615","lat":"31.215621","category":"245","category_name":"教堂","address":"上海复兴中路425号(近淡水路)"},{"poiid":"B2094655D36CA6FF4293","title":"复兴中路","lon":"121.47073","lat":"31.21609","category":"38","category_name":"公交车站","address":""},{"poiid":"B2094757D068A2F9409D","title":"Lavazza Espression(新天地店)","lon":"121.47317673","lat":"31.216841014","category":"260","category_name":"其他","address":"卢湾区马当路245号新天地时尚商场1楼"},{"poiid":"B2094757DB6FA7F8499B","title":"Mix drink","lon":"121.47339","lat":"31.21652","category":"113","category_name":"冷饮店","address":"卢湾区淡水路238号(近自忠路)"},{"poiid":"B2094757D065ABF94893","title":"交大医学院懿德楼","lon":"121.472265","lat":"31.212037","category":"500","category_name":"未知分类","address":"上海重庆南路227号"},{"poiid":"B2094753D76AA5FC439A","title":"树洞咖啡","lon":"121.47134","lat":"31.21385","category":"65","category_name":"咖啡厅","address":"上海市卢湾区合肥路636号(近重庆南路)"},{"poiid":"B2094757D16CA7F44999","title":"晶浦会(思南公馆店)","lon":"121.46982518","lat":"31.215764791","category":"72","category_name":"广东菜","address":"卢湾区思南路55号思南公馆35号2-3楼(近复兴中路)"},{"poiid":"B2094654DA6DA5FE429B","title":"天主教上海教区圣伯多禄堂","lon":"121.46995","lat":"31.21339","category":"245","category_name":"教堂","address":"重庆南路270"},{"poiid":"B2094757D064A5FB469E","title":"黎云阁","lon":"121.47304678","lat":"31.215470918","category":"76","category_name":"上海菜","address":"卢湾区复兴中路470号(近淡水路)"},{"poiid":"B2094654DA6FA3FE469E","title":"韬奋纪念馆","lon":"121.47106","lat":"31.2141","category":"243","category_name":"纪念馆","address":"卢湾区重庆南路205弄53-54号(合肥路重庆南路)"},{"poiid":"B2094750D665ABF8439B","title":"上海口味粽王","lon":"121.472","lat":"31.2156","category":"68","category_name":"快餐厅","address":"卢湾区复兴中路488号(淡水路复兴中路)"},{"poiid":"B2094757D064A2FB439A","title":"思南公馆诗碧阁Specialty","lon":"121.47044173","lat":"31.214863972","category":"500","category_name":"未知分类","address":"上海市卢湾区南昌路"},{"poiid":"B2094654DB65A4F8479E","title":"复兴公园(南门)","lon":"121.47041","lat":"31.21575","category":"656","category_name":"大门","address":"上海卢湾区皋兰路2号甲(近思南路)"},{"poiid":"B2094757D06AA0FB409C","title":"品芳面馆","lon":"121.470912054","lat":"31.216979793","category":"68","category_name":"快餐厅","address":"卢湾区重庆南路183号(复兴中路重庆南路)"},{"poiid":"B2094757D06AA3FF499F","title":"魚蔵","lon":"121.47018573","lat":"31.215160979","category":"500","category_name":"未知分类","address":"上海思南路55号思南公馆1号3楼(近复兴中路)"},{"poiid":"B2094752DB6CA5FA469D","title":"思南公館","lon":"121.473636","lat":"31.21627","category":"500","category_name":"未知分类","address":"上海市 上海市思南路"},{"poiid":"B2094757D16DA4FF439C","title":"复兴路","lon":"121.472567415","lat":"31.2154622888","category":"500","category_name":"未知分类","address":"上海复兴路"},{"poiid":"B2094750DA64A7FE449B","title":"新锦江饭店","lon":"121.469696","lat":"31.21635","category":"247","category_name":"餐饮美食","address":null},{"poiid":"B2094751DA6FA6FA439B","title":"cafe espmark","lon":"121.472498","lat":"31.213737","category":"248","category_name":"生活娱乐","address":"上海市黄浦区合肥路588号"},{"poiid":"B2094757D66FA0FF409D","title":"上海市奉贤区实验中学","lon":"121.471673","lat":"31.215345","category":"55","category_name":"中学","address":"上海忘了"},{"poiid":"B2094750D76CA3FF4098","title":"3Q脆皮鸡排","lon":"121.474","lat":"31.2144","category":"68","category_name":"快餐厅","address":"卢湾区合肥路297号(近淡水路)"},{"poiid":"B2094655D268A6F4459F","title":"合肥小区","lon":"121.47216","lat":"31.21409","category":"47","category_name":"住宅区","address":"合肥路592弄16-31号"},{"poiid":"B2094757D16CA6F5419C","title":"瑞雪大楼","lon":"121.471574","lat":"31.214498","category":"252","category_name":"楼宇机构","address":"陕西南路271弄"},{"poiid":"B2094655D36DA7F9459E","title":"重庆南路复兴中路","lon":"121.47099","lat":"31.21581","category":"38","category_name":"公交车站","address":""},{"poiid":"B2094654DA6FA3FE4793","title":"圣乐大酒店","lon":"121.47262","lat":"31.21314","category":"88","category_name":"海鲜酒楼","address":"卢湾区金陵西路38号(连云路口)"},{"poiid":"B2094757D169A5F9469D","title":"南北高架淮海路","lon":"121.47080473","lat":"31.21662301","category":"500","category_name":"未知分类","address":"上海市南北高架"},{"poiid":"B2094654DA6FA3FE499A","title":"淮海中路街道社区卫生服务中心","lon":"121.47365","lat":"31.21475","category":"162","category_name":"医院","address":"卢湾区淡水路285号(近合肥路)"},{"poiid":"B2094654DB6BA4FB4798","title":"花园公寓(淡水路)","lon":"121.47332","lat":"31.21504","category":"47","category_name":"住宅区","address":"上海市静安区南京西路1173弄"},{"poiid":"B2094654DA6FA3FE4598","title":"重庆公寓","lon":"121.47101","lat":"31.215334","category":"47","category_name":"住宅区","address":"上海重庆南路185号"},{"poiid":"B2094655D268A0F84899","title":"合肥小区(南门)","lon":"121.47216","lat":"31.21389","category":"47","category_name":"住宅区","address":"合肥路592弄16-31号"},{"poiid":"B2094654DB6BA4FB479F","title":"二医大小区(合肥路)","lon":"121.47165","lat":"31.21362","category":"47","category_name":"住宅区","address":"合肥路381"},{"poiid":"B2094757D66DA1FD489E","title":"嘉定汽车公园","lon":"121.47260803","lat":"31.213414041","category":"196","category_name":"公园","address":"上海嘉定汽车博物馆"},{"poiid":"B2094751D269A4F54798","title":"森Mori咖啡吧酒吧","lon":"121.472442","lat":"31.215827","category":"247","category_name":"餐饮美食","address":"卢湾区黄坡南路693号靠近合肥路"},{"poiid":"B2094655D26CA4F94699","title":"钱柜卢湾店(东门)","lon":"121.47074","lat":"31.21645","category":"68","category_name":"快餐厅","address":""},{"poiid":"B2094757D16CA2FC409E","title":"X Bistro &amp; Rumbar","lon":"121.471080538","lat":"31.2140653557","category":"500","category_name":"未知分类","address":"上海思南公馆47号3楼"},{"poiid":"B2094654DA6FA3FE4792","title":"花园理发店","lon":"121.47223","lat":"31.21387","category":"148","category_name":"美容美发店","address":""},{"poiid":"B2094654DB6BA4F94899","title":"上海市卢湾区复兴中路第二小学(复兴中路)","lon":"121.4728","lat":"31.21566","category":"55","category_name":"中学","address":"复兴中路480弄1-6号"},{"poiid":"B2094753D26BA3FF4593","title":"Caffeine-Shanghai","lon":"121.47322834","lat":"31.21616892","category":"247","category_name":"餐饮美食","address":"淡水路264号（近复兴中路）"},{"poiid":"B2094750DB69ABFC4498","title":"光明村大酒楼","lon":"121.470329","lat":"31.215513","category":"247","category_name":"餐饮美食","address":null},{"poiid":"B2094654DA6FA3FE459B","title":"La Spa御美会","lon":"121.4714","lat":"31.21539","category":"148","category_name":"美容美发店","address":"复兴中路499"},{"poiid":"B2094654DB65A4FE4793","title":"上海交通大学医学院","lon":"121.47212","lat":"31.21238","category":"671","category_name":"高校中心点","address":"上海市重庆南路227号"},{"poiid":"B2094757D06FA3F8449A","title":"COSTA COFFEE(思南公馆店)","lon":"121.46997364","lat":"31.21457859","category":"65","category_name":"咖啡厅","address":"卢湾区复兴中路507弄5号1楼103室(近重庆南路)"},{"poiid":"B2094757D06FA4FA4192","title":"SMUDGEstore(林俊杰SMG)","lon":"121.47483764","lat":"31.215852575","category":"141","category_name":"服装鞋帽皮具店","address":"上海市卢湾区马当路新天地时尚B108号"},{"poiid":"B2094753D76FAAFA449C","title":"上海滩国泰旗舰店","lon":"121.466011","lat":"31.216125","category":"249","category_name":"购物服务","address":"淮海中路868号"},{"poiid":"B209475CD564A7F84292","title":"上海滩新天地店","lon":"121.47463","lat":"31.22164","category":"119","category_name":"商场","address":"\"太仓路181弄新天地北里15号\r\n\""},{"poiid":"B209475CD564A7F8439E","title":"上海滩中信泰富店","lon":"121.45602","lat":"31.22851","category":"119","category_name":"商场","address":"\"南京西路1168号中信泰富广场，店铺号221.\r\n\""},{"poiid":"B2094751D265A1FB459E","title":"萌果酱女仆咖啡屋 Maid Jump","lon":"121.47213","lat":"31.21763","category":"247","category_name":"餐饮美食","address":"卢湾区自忠路453号甲(近淡水路)"},{"poiid":"B2094757D16FA6F44399","title":"新天地PAULANER","lon":"121.473980542","lat":"31.2169820769","category":"500","category_name":"未知分类","address":"上海新天地"},{"poiid":"B2094757D66EA7FC499F","title":"交通大学医学院","lon":"121.47045573","lat":"31.212595924","category":"253","category_name":"校园生活","address":"上海重庆南路280号"},{"poiid":"B2094757D164A2FF449F","title":"南北高架","lon":"121.470309792","lat":"31.2140381135","category":"500","category_name":"未知分类","address":"上海卢湾"},{"poiid":"B2094757D069ABFA409C","title":"上海市基督教诸圣堂","lon":"121.473615","lat":"31.215621","category":"245","category_name":"教堂","address":"上海复兴中路425号(近淡水路)"},{"poiid":"B2094655D36CA6FF4293","title":"复兴中路","lon":"121.47073","lat":"31.21609","category":"38","category_name":"公交车站","address":""},{"poiid":"B2094757D068A2F9409D","title":"Lavazza Espression(新天地店)","lon":"121.47317673","lat":"31.216841014","category":"260","category_name":"其他","address":"卢湾区马当路245号新天地时尚商场1楼"},{"poiid":"B2094757DB6FA7F8499B","title":"Mix drink","lon":"121.47339","lat":"31.21652","category":"113","category_name":"冷饮店","address":"卢湾区淡水路238号(近自忠路)"},{"poiid":"B2094757D065ABF94893","title":"交大医学院懿德楼","lon":"121.472265","lat":"31.212037","category":"500","category_name":"未知分类","address":"上海重庆南路227号"},{"poiid":"B2094753D76AA5FC439A","title":"树洞咖啡","lon":"121.47134","lat":"31.21385","category":"65","category_name":"咖啡厅","address":"上海市卢湾区合肥路636号(近重庆南路)"},{"poiid":"B2094757D16CA7F44999","title":"晶浦会(思南公馆店)","lon":"121.46982518","lat":"31.215764791","category":"72","category_name":"广东菜","address":"卢湾区思南路55号思南公馆35号2-3楼(近复兴中路)"},{"poiid":"B2094654DA6DA5FE429B","title":"天主教上海教区圣伯多禄堂","lon":"121.46995","lat":"31.21339","category":"245","category_name":"教堂","address":"重庆南路270"},{"poiid":"B2094757D064A5FB469E","title":"黎云阁","lon":"121.47304678","lat":"31.215470918","category":"76","category_name":"上海菜","address":"卢湾区复兴中路470号(近淡水路)"},{"poiid":"B2094654DA6FA3FE469E","title":"韬奋纪念馆","lon":"121.47106","lat":"31.2141","category":"243","category_name":"纪念馆","address":"卢湾区重庆南路205弄53-54号(合肥路重庆南路)"},{"poiid":"B2094750D665ABF8439B","title":"上海口味粽王","lon":"121.472","lat":"31.2156","category":"68","category_name":"快餐厅","address":"卢湾区复兴中路488号(淡水路复兴中路)"},{"poiid":"B2094757D064A2FB439A","title":"思南公馆诗碧阁Specialty","lon":"121.47044173","lat":"31.214863972","category":"500","category_name":"未知分类","address":"上海市卢湾区南昌路"},{"poiid":"B2094654DB65A4F8479E","title":"复兴公园(南门)","lon":"121.47041","lat":"31.21575","category":"656","category_name":"大门","address":"上海卢湾区皋兰路2号甲(近思南路)"},{"poiid":"B2094757D06AA0FB409C","title":"品芳面馆","lon":"121.470912054","lat":"31.216979793","category":"68","category_name":"快餐厅","address":"卢湾区重庆南路183号(复兴中路重庆南路)"},{"poiid":"B2094757D06AA3FF499F","title":"魚蔵","lon":"121.47018573","lat":"31.215160979","category":"500","category_name":"未知分类","address":"上海思南路55号思南公馆1号3楼(近复兴中路)"},{"poiid":"B2094752DB6CA5FA469D","title":"思南公館","lon":"121.473636","lat":"31.21627","category":"500","category_name":"未知分类","address":"上海市 上海市思南路"},{"poiid":"B2094757D16DA4FF439C","title":"复兴路","lon":"121.472567415","lat":"31.2154622888","category":"500","category_name":"未知分类","address":"上海复兴路"},{"poiid":"B2094750DA64A7FE449B","title":"新锦江饭店","lon":"121.469696","lat":"31.21635","category":"247","category_name":"餐饮美食","address":null},{"poiid":"B2094751DA6FA6FA439B","title":"cafe espmark","lon":"121.472498","lat":"31.213737","category":"248","category_name":"生活娱乐","address":"上海市黄浦区合肥路588号"},{"poiid":"B2094757D66FA0FF409D","title":"上海市奉贤区实验中学","lon":"121.471673","lat":"31.215345","category":"55","category_name":"中学","address":"上海忘了"},{"poiid":"B2094750D76CA3FF4098","title":"3Q脆皮鸡排","lon":"121.474","lat":"31.2144","category":"68","category_name":"快餐厅","address":"卢湾区合肥路297号(近淡水路)"},{"poiid":"B2094655D268A6F4459F","title":"合肥小区","lon":"121.47216","lat":"31.21409","category":"47","category_name":"住宅区","address":"合肥路592弄16-31号"},{"poiid":"B2094757D16CA6F5419C","title":"瑞雪大楼","lon":"121.471574","lat":"31.214498","category":"252","category_name":"楼宇机构","address":"陕西南路271弄"},{"poiid":"B2094655D36DA7F9459E","title":"重庆南路复兴中路","lon":"121.47099","lat":"31.21581","category":"38","category_name":"公交车站","address":""},{"poiid":"B2094654DA6FA3FE4793","title":"圣乐大酒店","lon":"121.47262","lat":"31.21314","category":"88","category_name":"海鲜酒楼","address":"卢湾区金陵西路38号(连云路口)"},{"poiid":"B2094757D169A5F9469D","title":"南北高架淮海路","lon":"121.47080473","lat":"31.21662301","category":"500","category_name":"未知分类","address":"上海市南北高架"},{"poiid":"B2094654DA6FA3FE499A","title":"淮海中路街道社区卫生服务中心","lon":"121.47365","lat":"31.21475","category":"162","category_name":"医院","address":"卢湾区淡水路285号(近合肥路)"},{"poiid":"B2094654DB6BA4FB4798","title":"花园公寓(淡水路)","lon":"121.47332","lat":"31.21504","category":"47","category_name":"住宅区","address":"上海市静安区南京西路1173弄"},{"poiid":"B2094654DA6FA3FE4598","title":"重庆公寓","lon":"121.47101","lat":"31.215334","category":"47","category_name":"住宅区","address":"上海重庆南路185号"},{"poiid":"B2094655D268A0F84899","title":"合肥小区(南门)","lon":"121.47216","lat":"31.21389","category":"47","category_name":"住宅区","address":"合肥路592弄16-31号"},{"poiid":"B2094654DB6BA4FB479F","title":"二医大小区(合肥路)","lon":"121.47165","lat":"31.21362","category":"47","category_name":"住宅区","address":"合肥路381"},{"poiid":"B2094757D66DA1FD489E","title":"嘉定汽车公园","lon":"121.47260803","lat":"31.213414041","category":"196","category_name":"公园","address":"上海嘉定汽车博物馆"},{"poiid":"B2094751D269A4F54798","title":"森Mori咖啡吧酒吧","lon":"121.472442","lat":"31.215827","category":"247","category_name":"餐饮美食","address":"卢湾区黄坡南路693号靠近合肥路"},{"poiid":"B2094655D26CA4F94699","title":"钱柜卢湾店(东门)","lon":"121.47074","lat":"31.21645","category":"68","category_name":"快餐厅","address":""},{"poiid":"B2094757D16CA2FC409E","title":"X Bistro &amp; Rumbar","lon":"121.471080538","lat":"31.2140653557","category":"500","category_name":"未知分类","address":"上海思南公馆47号3楼"},{"poiid":"B2094654DA6FA3FE4792","title":"花园理发店","lon":"121.47223","lat":"31.21387","category":"148","category_name":"美容美发店","address":""},{"poiid":"B2094654DB6BA4F94899","title":"上海市卢湾区复兴中路第二小学(复兴中路)","lon":"121.4728","lat":"31.21566","category":"55","category_name":"中学","address":"复兴中路480弄1-6号"},{"poiid":"B2094753D26BA3FF4593","title":"Caffeine-Shanghai","lon":"121.47322834","lat":"31.21616892","category":"247","category_name":"餐饮美食","address":"淡水路264号（近复兴中路）"},{"poiid":"B2094750DB69ABFC4498","title":"光明村大酒楼","lon":"121.470329","lat":"31.215513","category":"247","category_name":"餐饮美食","address":null},{"poiid":"B2094654DA6FA3FE459B","title":"La Spa御美会","lon":"121.4714","lat":"31.21539","category":"148","category_name":"美容美发店","address":"复兴中路499"},{"poiid":"B2094654DB65A4FE4793","title":"上海交通大学医学院","lon":"121.47212","lat":"31.21238","category":"671","category_name":"高校中心点","address":"上海市重庆南路227号"},{"poiid":"B2094757D06FA3F8449A","title":"COSTA COFFEE(思南公馆店)","lon":"121.46997364","lat":"31.21457859","category":"65","category_name":"咖啡厅","address":"卢湾区复兴中路507弄5号1楼103室(近重庆南路)"},{"poiid":"B2094757D06FA4FA4192","title":"SMUDGEstore(林俊杰SMG)","lon":"121.47483764","lat":"31.215852575","category":"141","category_name":"服装鞋帽皮具店","address":"上海市卢湾区马当路新天地时尚B108号"},{"poiid":"B2094753D76FAAFA449C","title":"上海滩国泰旗舰店","lon":"121.466011","lat":"31.216125","category":"249","category_name":"购物服务","address":"淮海中路868号"},{"poiid":"B209475CD564A7F84292","title":"上海滩新天地店","lon":"121.47463","lat":"31.22164","category":"119","category_name":"商场","address":"\"太仓路181弄新天地北里15号\r\n\""},{"poiid":"B209475CD564A7F8439E","title":"上海滩中信泰富店","lon":"121.45602","lat":"31.22851","category":"119","category_name":"商场","address":"\"南京西路1168号中信泰富广场，店铺号221.\r\n\""},{"poiid":"B2094751D265A1FB459E","title":"萌果酱女仆咖啡屋 Maid Jump","lon":"121.47213","lat":"31.21763","category":"247","category_name":"餐饮美食","address":"卢湾区自忠路453号甲(近淡水路)"},{"poiid":"B2094757D16FA6F44399","title":"新天地PAULANER","lon":"121.473980542","lat":"31.2169820769","category":"500","category_name":"未知分类","address":"上海新天地"},{"poiid":"B2094757D66EA7FC499F","title":"交通大学医学院","lon":"121.47045573","lat":"31.212595924","category":"253","category_name":"校园生活","address":"上海重庆南路280号"},{"poiid":"B2094757D164A2FF449F","title":"南北高架","lon":"121.470309792","lat":"31.2140381135","category":"500","category_name":"未知分类","address":"上海卢湾"},{"poiid":"B2094757D069ABFA409C","title":"上海市基督教诸圣堂","lon":"121.473615","lat":"31.215621","category":"245","category_name":"教堂","address":"上海复兴中路425号(近淡水路)"},{"poiid":"B2094655D36CA6FF4293","title":"复兴中路","lon":"121.47073","lat":"31.21609","category":"38","category_name":"公交车站","address":""},{"poiid":"B2094757D068A2F9409D","title":"Lavazza Espression(新天地店)","lon":"121.47317673","lat":"31.216841014","category":"260","category_name":"其他","address":"卢湾区马当路245号新天地时尚商场1楼"},{"poiid":"B2094757DB6FA7F8499B","title":"Mix drink","lon":"121.47339","lat":"31.21652","category":"113","category_name":"冷饮店","address":"卢湾区淡水路238号(近自忠路)"},{"poiid":"B2094757D065ABF94893","title":"交大医学院懿德楼","lon":"121.472265","lat":"31.212037","category":"500","category_name":"未知分类","address":"上海重庆南路227号"},{"poiid":"B2094753D76AA5FC439A","title":"树洞咖啡","lon":"121.47134","lat":"31.21385","category":"65","category_name":"咖啡厅","address":"上海市卢湾区合肥路636号(近重庆南路)"},{"poiid":"B2094757D16CA7F44999","title":"晶浦会(思南公馆店)","lon":"121.46982518","lat":"31.215764791","category":"72","category_name":"广东菜","address":"卢湾区思南路55号思南公馆35号2-3楼(近复兴中路)"},{"poiid":"B2094654DA6DA5FE429B","title":"天主教上海教区圣伯多禄堂","lon":"121.46995","lat":"31.21339","category":"245","category_name":"教堂","address":"重庆南路270"},{"poiid":"B2094757D064A5FB469E","title":"黎云阁","lon":"121.47304678","lat":"31.215470918","category":"76","category_name":"上海菜","address":"卢湾区复兴中路470号(近淡水路)"},{"poiid":"B2094654DA6FA3FE469E","title":"韬奋纪念馆","lon":"121.47106","lat":"31.2141","category":"243","category_name":"纪念馆","address":"卢湾区重庆南路205弄53-54号(合肥路重庆南路)"},{"poiid":"B2094750D665ABF8439B","title":"上海口味粽王","lon":"121.472","lat":"31.2156","category":"68","category_name":"快餐厅","address":"卢湾区复兴中路488号(淡水路复兴中路)"},{"poiid":"B2094757D064A2FB439A","title":"思南公馆诗碧阁Specialty","lon":"121.47044173","lat":"31.214863972","category":"500","category_name":"未知分类","address":"上海市卢湾区南昌路"},{"poiid":"B2094654DB65A4F8479E","title":"复兴公园(南门)","lon":"121.47041","lat":"31.21575","category":"656","category_name":"大门","address":"上海卢湾区皋兰路2号甲(近思南路)"},{"poiid":"B2094757D06AA0FB409C","title":"品芳面馆","lon":"121.470912054","lat":"31.216979793","category":"68","category_name":"快餐厅","address":"卢湾区重庆南路183号(复兴中路重庆南路)"},{"poiid":"B2094757D06AA3FF499F","title":"魚蔵","lon":"121.47018573","lat":"31.215160979","category":"500","category_name":"未知分类","address":"上海思南路55号思南公馆1号3楼(近复兴中路)"},{"poiid":"B2094752DB6CA5FA469D","title":"思南公館","lon":"121.473636","lat":"31.21627","category":"500","category_name":"未知分类","address":"上海市 上海市思南路"},{"poiid":"B2094757D16DA4FF439C","title":"复兴路","lon":"121.472567415","lat":"31.2154622888","category":"500","category_name":"未知分类","address":"上海复兴路"},{"poiid":"B2094750DA64A7FE449B","title":"新锦江饭店","lon":"121.469696","lat":"31.21635","category":"247","category_name":"餐饮美食","address":null},{"poiid":"B2094751DA6FA6FA439B","title":"cafe espmark","lon":"121.472498","lat":"31.213737","category":"248","category_name":"生活娱乐","address":"上海市黄浦区合肥路588号"},{"poiid":"B2094757D66FA0FF409D","title":"上海市奉贤区实验中学","lon":"121.471673","lat":"31.215345","category":"55","category_name":"中学","address":"上海忘了"},{"poiid":"B2094750D76CA3FF4098","title":"3Q脆皮鸡排","lon":"121.474","lat":"31.2144","category":"68","category_name":"快餐厅","address":"卢湾区合肥路297号(近淡水路)"},{"poiid":"B2094655D268A6F4459F","title":"合肥小区","lon":"121.47216","lat":"31.21409","category":"47","category_name":"住宅区","address":"合肥路592弄16-31号"},{"poiid":"B2094757D16CA6F5419C","title":"瑞雪大楼","lon":"121.471574","lat":"31.214498","category":"252","category_name":"楼宇机构","address":"陕西南路271弄"},{"poiid":"B2094655D36DA7F9459E","title":"重庆南路复兴中路","lon":"121.47099","lat":"31.21581","category":"38","category_name":"公交车站","address":""},{"poiid":"B2094654DA6FA3FE4793","title":"圣乐大酒店","lon":"121.47262","lat":"31.21314","category":"88","category_name":"海鲜酒楼","address":"卢湾区金陵西路38号(连云路口)"},{"poiid":"B2094757D169A5F9469D","title":"南北高架淮海路","lon":"121.47080473","lat":"31.21662301","category":"500","category_name":"未知分类","address":"上海市南北高架"},{"poiid":"B2094654DA6FA3FE499A","title":"淮海中路街道社区卫生服务中心","lon":"121.47365","lat":"31.21475","category":"162","category_name":"医院","address":"卢湾区淡水路285号(近合肥路)"},{"poiid":"B2094654DB6BA4FB4798","title":"花园公寓(淡水路)","lon":"121.47332","lat":"31.21504","category":"47","category_name":"住宅区","address":"上海市静安区南京西路1173弄"},{"poiid":"B2094654DA6FA3FE4598","title":"重庆公寓","lon":"121.47101","lat":"31.215334","category":"47","category_name":"住宅区","address":"上海重庆南路185号"},{"poiid":"B2094655D268A0F84899","title":"合肥小区(南门)","lon":"121.47216","lat":"31.21389","category":"47","category_name":"住宅区","address":"合肥路592弄16-31号"},{"poiid":"B2094654DB6BA4FB479F","title":"二医大小区(合肥路)","lon":"121.47165","lat":"31.21362","category":"47","category_name":"住宅区","address":"合肥路381"},{"poiid":"B2094757D66DA1FD489E","title":"嘉定汽车公园","lon":"121.47260803","lat":"31.213414041","category":"196","category_name":"公园","address":"上海嘉定汽车博物馆"},{"poiid":"B2094751D269A4F54798","title":"森Mori咖啡吧酒吧","lon":"121.472442","lat":"31.215827","category":"247","category_name":"餐饮美食","address":"卢湾区黄坡南路693号靠近合肥路"},{"poiid":"B2094655D26CA4F94699","title":"钱柜卢湾店(东门)","lon":"121.47074","lat":"31.21645","category":"68","category_name":"快餐厅","address":""},{"poiid":"B2094757D16CA2FC409E","title":"X Bistro &amp; Rumbar","lon":"121.471080538","lat":"31.2140653557","category":"500","category_name":"未知分类","address":"上海思南公馆47号3楼"},{"poiid":"B2094654DA6FA3FE4792","title":"花园理发店","lon":"121.47223","lat":"31.21387","category":"148","category_name":"美容美发店","address":""},{"poiid":"B2094654DB6BA4F94899","title":"上海市卢湾区复兴中路第二小学(复兴中路)","lon":"121.4728","lat":"31.21566","category":"55","category_name":"中学","address":"复兴中路480弄1-6号"},{"poiid":"B2094753D26BA3FF4593","title":"Caffeine-Shanghai","lon":"121.47322834","lat":"31.21616892","category":"247","category_name":"餐饮美食","address":"淡水路264号（近复兴中路）"},{"poiid":"B2094750DB69ABFC4498","title":"光明村大酒楼","lon":"121.470329","lat":"31.215513","category":"247","category_name":"餐饮美食","address":null},{"poiid":"B2094654DA6FA3FE459B","title":"La Spa御美会","lon":"121.4714","lat":"31.21539","category":"148","category_name":"美容美发店","address":"复兴中路499"}]