[{"poiid":"B2094757D06EAAFB469A","title":"耶里夏丽西域餐厅(The Silk Road)","lon":"121.44944","lat":"31.19932","category":"90","category_name":"清真餐馆","address":"徐汇区肇嘉浜路680号金钟大厦2号楼(近乌鲁木齐南路)"},{"poiid":"B2094757D06FA1F94399","title":"徐汇区牙病防治所(肇嘉浜路分所)","lon":"121.451361983","lat":"31.1994818967","category":"162","category_name":"医院","address":"徐汇区肇嘉浜路685号(近东安路)"},{"poiid":"B2094757D06EAAFB479A","title":"肇嘉浜路地铁站","lon":"121.45029188","lat":"31.199558753","category":"36","category_name":"地铁站","address":"上海轨道交通 七号线 九号线 轨交肇嘉浜路站 7 9"},{"poiid":"B2094753D76FAAFA449C","title":"上海滩国泰旗舰店","lon":"121.466011","lat":"31.216125","category":"249","category_name":"购物服务","address":"淮海中路868号"},{"poiid":"B2094757D06FA0FB429C","title":"苏浙汇(华泰大厦店)","lon":"121.450408","lat":"31.202926","category":"76","category_name":"上海菜","address":"徐汇区肇嘉浜路388号华泰大厦1-2楼(近襄阳南路)"},{"poiid":"B2094757D06FA6FE4998","title":"南伶酒家","lon":"121.45245","lat":"31.20485","category":"74","category_name":"江苏菜","address":"徐汇区岳阳路168号(近永嘉路)"},{"poiid":"B2094757D06AA3FC4293","title":"中科院","lon":"121.453551","lat":"31.201298","category":"500","category_name":"未知分类","address":"上海岳阳路319号"},{"poiid":"B2094757D66BA1FC489A","title":"御席公馆","lon":"121.450101","lat":"31.202679","category":"97","category_name":"法式菜品餐厅","address":"徐汇区建国西路568号(近建国西路)"},{"poiid":"B2094654DA6DABFC439A","title":"好望角大饭店","lon":"121.45418","lat":"31.20133","category":"76","category_name":"上海菜","address":"徐汇区肇嘉浜路500号好望角大饭店3楼(岳阳路口)"},{"poiid":"B2094654DA6DABFC409A","title":"中国科学院上海生命科学研究院(中科大厦西)","lon":"121.45243","lat":"31.20132","category":"191","category_name":"科研机构","address":"徐汇区岳阳路320号"},{"poiid":"B2094757D06FA5F94093","title":"建科大厦","lon":"121.452","lat":"31.2018","category":"46","category_name":"楼宇","address":"上海徐汇区宛平南路75号"},{"poiid":"B2094654DA6DA7FB469D","title":"虹桥人家酒楼","lon":"121.4501","lat":"31.19989","category":"76","category_name":"上海菜","address":"徐汇区乌鲁木齐南路406号(肇嘉浜路口)"},{"poiid":"B2094757D068AAFB439D","title":"湘鄂情","lon":"121.45401","lat":"31.20091","category":"77","category_name":"湖南菜","address":"徐汇区肇嘉浜路500号好望角大酒店裙楼(岳阳路口)"},{"poiid":"B2094654DA6DA6FC459A","title":"坤阳国际商务广场","lon":"121.452","lat":"31.2047","category":"46","category_name":"楼宇","address":"卫清西路139_149号等"},{"poiid":"B2094757D469A5F84893","title":"明晨阳光","lon":"121.4497731","lat":"31.2015067","category":"94","category_name":"西餐厅","address":"徐汇区乌鲁木齐南路302号1号(近建国路)"},{"poiid":"B2094757D065ABF9449E","title":"京翅坊","lon":"121.44984","lat":"31.20122","category":"72","category_name":"广东菜","address":"徐汇区乌鲁木齐南路298号2楼(近建国西路)"},{"poiid":"B2094757D16BA1FD4493","title":"Club15","lon":"121.450645586","lat":"31.1989508194","category":"500","category_name":"未知分类","address":"上海市徐汇区东安路15号"},{"poiid":"B2094757D069A1F8469D","title":"近江和牛","lon":"121.44934158","lat":"31.199178823","category":"247","category_name":"餐饮美食","address":"上海市徐汇区青松城一楼"},{"poiid":"B2094654DB65A6F54793","title":"兆丰帝景苑","lon":"121.45056","lat":"31.202584","category":"47","category_name":"住宅区","address":"上海市徐汇区肇嘉浜路1001号"},{"poiid":"B2094654DB69A7F94198","title":"泓园","lon":"121.45057","lat":"31.20175","category":"47","category_name":"住宅区","address":"乌鲁木齐南路167号"},{"poiid":"B2094654DA6DA4F5469E","title":"巴洛克宫廷","lon":"121.45051","lat":"31.202066","category":"47","category_name":"住宅区","address":"巴洛克宫廷位于徐汇建国西路585号"},{"poiid":"B2094751DA6AA2FC4593","title":"麦当劳","lon":"121.45223","lat":"31.199739","category":"247","category_name":"餐饮美食","address":"徐汇区斜土路1646号"},{"poiid":"B2094654DA6DA4F5419B","title":"懿园","lon":"121.45071","lat":"31.203472","category":"47","category_name":"住宅区","address":"建国西路506弄1-57号"},{"poiid":"B2094757DA65A3FF4499","title":"中山医院","lon":"121.45237118","lat":"31.20069962","category":"162","category_name":"医院","address":"徐汇区小木桥路"},{"poiid":"B209475CD36BA5F9419B","title":"Stubb's Bar-B-Q","lon":"121.45051","lat":"31.202875","category":"269","category_name":"烧烤","address":"建国西路550号近乌鲁木齐南路"},{"poiid":"B2094757D66CA7FA4193","title":"上海轨道交通7号线肇嘉滨路站","lon":"121.450491894","lat":"31.1994188993","category":"500","category_name":"未知分类","address":"上海肇嘉浜路"},{"poiid":"B2094655D36CA0F94892","title":"建国西路岳阳路","lon":"121.45119","lat":"31.20304","category":"38","category_name":"公交车站","address":""},{"poiid":"B2094757D16CAAF8489F","title":"中国科学院上海分院","lon":"121.45382308","lat":"31.203554409","category":"671","category_name":"高校中心点","address":"上海岳阳路319号"},{"poiid":"B2094655D264ABF44892","title":"宁远商务中心","lon":"121.45036","lat":"31.201","category":"46","category_name":"楼宇","address":"乌鲁木齐南路183弄1-5号"},{"poiid":"B2094655D36CA3F8499D","title":"建国西路581弄小区","lon":"121.45096","lat":"31.20238","category":"47","category_name":"住宅区","address":"建国西路581弄1-6号"},{"poiid":"B2094757D568ABFA4692","title":"中科院地下食堂","lon":"121.453315","lat":"31.20148806","category":"68","category_name":"快餐厅","address":"徐汇区岳阳路319号中科大厦B1楼(近好望角大饭店)"},{"poiid":"B2094654DA6DA4F5469B","title":"曹天钦·谢希德旧居","lon":"121.4508","lat":"31.20254","category":"243","category_name":"纪念馆","address":"徐汇区建国西路581弄1～6号"},{"poiid":"B2094757D66BA6F9429E","title":"半岛餐厅","lon":"121.45344535807","lat":"31.200745118072","category":"268","category_name":"自助","address":"徐汇区肇嘉浜路500号好望角大酒店3楼(岳阳路口)"},{"poiid":"B2094654DA6DA4F54893","title":"昌化鸡血石博物馆","lon":"121.45088","lat":"31.20029","category":"182","category_name":"博物馆","address":"肇嘉浜路600-604号"},{"poiid":"B2094757D06BA5FB449B","title":"浦发银行(徐汇支行营业部)","lon":"121.45011","lat":"31.20175","category":"500","category_name":"未知分类","address":"徐汇区建国西路589号(建国西路乌鲁木齐南路)"},{"poiid":"B2094757D66EA2FE459C","title":"49路乌鲁木齐南路建国西路站","lon":"121.4497671","lat":"31.201254218","category":"38","category_name":"公交车站","address":"上海肇嘉浜路地铁站"},{"poiid":"B2094757D66CA3F8449D","title":"东安十五号","lon":"121.450632586","lat":"31.2008028556","category":"247","category_name":"餐饮美食","address":"上海市东安路15号"},{"poiid":"B2094750D76DA5F8459F","title":"阿婆蒸菜馆","lon":"121.45","lat":"31.2008","category":"260","category_name":"其他","address":"徐汇区乌鲁木齐南路370号(近肇嘉浜路)"},{"poiid":"B2094655D26AA5F5419C","title":"梅园村珍宝馆","lon":"121.45088","lat":"31.20029","category":"247","category_name":"餐饮美食","address":"徐汇区肇嘉浜路600号"},{"poiid":"B2094655D265ABF4439B","title":"建国西路581弄小区(北门)","lon":"121.45061","lat":"31.20263","category":"47","category_name":"住宅区","address":"建国西路581弄1-6号"},{"poiid":"B2094757D06BA2FA479A","title":"Keep dancing studio","lon":"121.450496586","lat":"31.2020168793","category":"500","category_name":"未知分类","address":"上海乌鲁木齐南路183弄1号106室"},{"poiid":"B2094757D16FA1FE419F","title":"肇嘉浜路东安路公交站","lon":"121.45301988","lat":"31.200472649","category":"38","category_name":"公交车站","address":"上海肇嘉浜路东安路公交站"},{"poiid":"B2094757D76EABF44392","title":"巧克力工厂","lon":"121.4519081","lat":"31.1998594","category":"71","category_name":"四川菜","address":"肇嘉浜路近漕溪北路1111号美罗城B1五番街"},{"poiid":"B2094655D26FA7F5409B","title":"泓园(边门)","lon":"121.44995","lat":"31.20175","category":"47","category_name":"住宅区","address":""},{"poiid":"B2094654DB64AAF4439A","title":"国邦花园","lon":"121.44969","lat":"31.20015","category":"47","category_name":"住宅区","address":"乌鲁木齐南路396弄10"},{"poiid":"B2094654DA6DA4F5449F","title":"建襄小学","lon":"121.45315","lat":"31.20332","category":"56","category_name":"小学","address":"徐汇区岳阳路255号(近建国西路)"},{"poiid":"B2094654DA6DAAFF409D","title":"枫林大楼","lon":"121.45303","lat":"31.200081","category":"47","category_name":"住宅区","address":"肇嘉浜路661-665"},{"poiid":"B2094654DA6DABFC419E","title":"研究生电子阅览室","lon":"121.45332","lat":"31.20149","category":"181","category_name":"图书馆","address":"肇嘉浜路500"},{"poiid":"B209475DD66EABF5449C","title":"胡歌的店 匚FOUNT","lon":"121.450027","lat":"31.200103","category":"247","category_name":"餐饮美食","address":"上海市 上海市徐汇区永嘉路570号永嘉庭5号楼"},{"poiid":"B2094757D568A6F84793","title":"菁英会","lon":"121.45333","lat":"31.203039","category":"257","category_name":"中餐厅","address":"徐汇区岳阳路265号1-2楼(近建国西路)"},{"poiid":"B2094757D06EAAFB469A","title":"耶里夏丽西域餐厅(The Silk Road)","lon":"121.44944","lat":"31.19932","category":"90","category_name":"清真餐馆","address":"徐汇区肇嘉浜路680号金钟大厦2号楼(近乌鲁木齐南路)"},{"poiid":"B2094757D06FA1F94399","title":"徐汇区牙病防治所(肇嘉浜路分所)","lon":"121.451361983","lat":"31.1994818967","category":"162","category_name":"医院","address":"徐汇区肇嘉浜路685号(近东安路)"},{"poiid":"B2094757D06EAAFB479A","title":"肇嘉浜路地铁站","lon":"121.45029188","lat":"31.199558753","category":"36","category_name":"地铁站","address":"上海轨道交通 七号线 九号线 轨交肇嘉浜路站 7 9"},{"poiid":"B2094753D76FAAFA449C","title":"上海滩国泰旗舰店","lon":"121.466011","lat":"31.216125","category":"249","category_name":"购物服务","address":"淮海中路868号"},{"poiid":"B2094757D06FA0FB429C","title":"苏浙汇(华泰大厦店)","lon":"121.450408","lat":"31.202926","category":"76","category_name":"上海菜","address":"徐汇区肇嘉浜路388号华泰大厦1-2楼(近襄阳南路)"},{"poiid":"B2094757D06FA6FE4998","title":"南伶酒家","lon":"121.45245","lat":"31.20485","category":"74","category_name":"江苏菜","address":"徐汇区岳阳路168号(近永嘉路)"},{"poiid":"B2094757D06AA3FC4293","title":"中科院","lon":"121.453551","lat":"31.201298","category":"500","category_name":"未知分类","address":"上海岳阳路319号"},{"poiid":"B2094757D66BA1FC489A","title":"御席公馆","lon":"121.450101","lat":"31.202679","category":"97","category_name":"法式菜品餐厅","address":"徐汇区建国西路568号(近建国西路)"},{"poiid":"B2094654DA6DABFC439A","title":"好望角大饭店","lon":"121.45418","lat":"31.20133","category":"76","category_name":"上海菜","address":"徐汇区肇嘉浜路500号好望角大饭店3楼(岳阳路口)"},{"poiid":"B2094654DA6DABFC409A","title":"中国科学院上海生命科学研究院(中科大厦西)","lon":"121.45243","lat":"31.20132","category":"191","category_name":"科研机构","address":"徐汇区岳阳路320号"},{"poiid":"B2094757D06FA5F94093","title":"建科大厦","lon":"121.452","lat":"31.2018","category":"46","category_name":"楼宇","address":"上海徐汇区宛平南路75号"},{"poiid":"B2094654DA6DA7FB469D","title":"虹桥人家酒楼","lon":"121.4501","lat":"31.19989","category":"76","category_name":"上海菜","address":"徐汇区乌鲁木齐南路406号(肇嘉浜路口)"},{"poiid":"B2094757D068AAFB439D","title":"湘鄂情","lon":"121.45401","lat":"31.20091","category":"77","category_name":"湖南菜","address":"徐汇区肇嘉浜路500号好望角大酒店裙楼(岳阳路口)"},{"poiid":"B2094654DA6DA6FC459A","title":"坤阳国际商务广场","lon":"121.452","lat":"31.2047","category":"46","category_name":"楼宇","address":"卫清西路139_149号等"},{"poiid":"B2094757D469A5F84893","title":"明晨阳光","lon":"121.4497731","lat":"31.2015067","category":"94","category_name":"西餐厅","address":"徐汇区乌鲁木齐南路302号1号(近建国路)"},{"poiid":"B2094757D065ABF9449E","title":"京翅坊","lon":"121.44984","lat":"31.20122","category":"72","category_name":"广东菜","address":"徐汇区乌鲁木齐南路298号2楼(近建国西路)"},{"poiid":"B2094757D16BA1FD4493","title":"Club15","lon":"121.450645586","lat":"31.1989508194","category":"500","category_name":"未知分类","address":"上海市徐汇区东安路15号"},{"poiid":"B2094757D069A1F8469D","title":"近江和牛","lon":"121.44934158","lat":"31.199178823","category":"247","category_name":"餐饮美食","address":"上海市徐汇区青松城一楼"},{"poiid":"B2094654DB65A6F54793","title":"兆丰帝景苑","lon":"121.45056","lat":"31.202584","category":"47","category_name":"住宅区","address":"上海市徐汇区肇嘉浜路1001号"},{"poiid":"B2094654DB69A7F94198","title":"泓园","lon":"121.45057","lat":"31.20175","category":"47","category_name":"住宅区","address":"乌鲁木齐南路167号"},{"poiid":"B2094654DA6DA4F5469E","title":"巴洛克宫廷","lon":"121.45051","lat":"31.202066","category":"47","category_name":"住宅区","address":"巴洛克宫廷位于徐汇建国西路585号"},{"poiid":"B2094751DA6AA2FC4593","title":"麦当劳","lon":"121.45223","lat":"31.199739","category":"247","category_name":"餐饮美食","address":"徐汇区斜土路1646号"},{"poiid":"B2094654DA6DA4F5419B","title":"懿园","lon":"121.45071","lat":"31.203472","category":"47","category_name":"住宅区","address":"建国西路506弄1-57号"},{"poiid":"B2094757DA65A3FF4499","title":"中山医院","lon":"121.45237118","lat":"31.20069962","category":"162","category_name":"医院","address":"徐汇区小木桥路"},{"poiid":"B209475CD36BA5F9419B","title":"Stubb's Bar-B-Q","lon":"121.45051","lat":"31.202875","category":"269","category_name":"烧烤","address":"建国西路550号近乌鲁木齐南路"},{"poiid":"B2094757D66CA7FA4193","title":"上海轨道交通7号线肇嘉滨路站","lon":"121.450491894","lat":"31.1994188993","category":"500","category_name":"未知分类","address":"上海肇嘉浜路"},{"poiid":"B2094655D36CA0F94892","title":"建国西路岳阳路","lon":"121.45119","lat":"31.20304","category":"38","category_name":"公交车站","address":""},{"poiid":"B2094757D16CAAF8489F","title":"中国科学院上海分院","lon":"121.45382308","lat":"31.203554409","category":"671","category_name":"高校中心点","address":"上海岳阳路319号"},{"poiid":"B2094655D264ABF44892","title":"宁远商务中心","lon":"121.45036","lat":"31.201","category":"46","category_name":"楼宇","address":"乌鲁木齐南路183弄1-5号"},{"poiid":"B2094655D36CA3F8499D","title":"建国西路581弄小区","lon":"121.45096","lat":"31.20238","category":"47","category_name":"住宅区","address":"建国西路581弄1-6号"},{"poiid":"B2094757D568ABFA4692","title":"中科院地下食堂","lon":"121.453315","lat":"31.20148806","category":"68","category_name":"快餐厅","address":"徐汇区岳阳路319号中科大厦B1楼(近好望角大饭店)"},{"poiid":"B2094654DA6DA4F5469B","title":"曹天钦·谢希德旧居","lon":"121.4508","lat":"31.20254","category":"243","category_name":"纪念馆","address":"徐汇区建国西路581弄1～6号"},{"poiid":"B2094757D66BA6F9429E","title":"半岛餐厅","lon":"121.45344535807","lat":"31.200745118072","category":"268","category_name":"自助","address":"徐汇区肇嘉浜路500号好望角大酒店3楼(岳阳路口)"},{"poiid":"B2094654DA6DA4F54893","title":"昌化鸡血石博物馆","lon":"121.45088","lat":"31.20029","category":"182","category_name":"博物馆","address":"肇嘉浜路600-604号"},{"poiid":"B2094757D06BA5FB449B","title":"浦发银行(徐汇支行营业部)","lon":"121.45011","lat":"31.20175","category":"500","category_name":"未知分类","address":"徐汇区建国西路589号(建国西路乌鲁木齐南路)"},{"poiid":"B2094757D66EA2FE459C","title":"49路乌鲁木齐南路建国西路站","lon":"121.4497671","lat":"31.201254218","category":"38","category_name":"公交车站","address":"上海肇嘉浜路地铁站"},{"poiid":"B2094757D66CA3F8449D","title":"东安十五号","lon":"121.450632586","lat":"31.2008028556","category":"247","category_name":"餐饮美食","address":"上海市东安路15号"},{"poiid":"B2094750D76DA5F8459F","title":"阿婆蒸菜馆","lon":"121.45","lat":"31.2008","category":"260","category_name":"其他","address":"徐汇区乌鲁木齐南路370号(近肇嘉浜路)"},{"poiid":"B2094655D26AA5F5419C","title":"梅园村珍宝馆","lon":"121.45088","lat":"31.20029","category":"247","category_name":"餐饮美食","address":"徐汇区肇嘉浜路600号"},{"poiid":"B2094655D265ABF4439B","title":"建国西路581弄小区(北门)","lon":"121.45061","lat":"31.20263","category":"47","category_name":"住宅区","address":"建国西路581弄1-6号"},{"poiid":"B2094757D06BA2FA479A","title":"Keep dancing studio","lon":"121.450496586","lat":"31.2020168793","category":"500","category_name":"未知分类","address":"上海乌鲁木齐南路183弄1号106室"},{"poiid":"B2094757D16FA1FE419F","title":"肇嘉浜路东安路公交站","lon":"121.45301988","lat":"31.200472649","category":"38","category_name":"公交车站","address":"上海肇嘉浜路东安路公交站"},{"poiid":"B2094757D76EABF44392","title":"巧克力工厂","lon":"121.4519081","lat":"31.1998594","category":"71","category_name":"四川菜","address":"肇嘉浜路近漕溪北路1111号美罗城B1五番街"},{"poiid":"B2094655D26FA7F5409B","title":"泓园(边门)","lon":"121.44995","lat":"31.20175","category":"47","category_name":"住宅区","address":""},{"poiid":"B2094654DB64AAF4439A","title":"国邦花园","lon":"121.44969","lat":"31.20015","category":"47","category_name":"住宅区","address":"乌鲁木齐南路396弄10"},{"poiid":"B2094654DA6DA4F5449F","title":"建襄小学","lon":"121.45315","lat":"31.20332","category":"56","category_name":"小学","address":"徐汇区岳阳路255号(近建国西路)"},{"poiid":"B2094654DA6DAAFF409D","title":"枫林大楼","lon":"121.45303","lat":"31.200081","category":"47","category_name":"住宅区","address":"肇嘉浜路661-665"},{"poiid":"B2094654DA6DABFC419E","title":"研究生电子阅览室","lon":"121.45332","lat":"31.20149","category":"181","category_name":"图书馆","address":"肇嘉浜路500"},{"poiid":"B209475DD66EABF5449C","title":"胡歌的店 匚FOUNT","lon":"121.450027","lat":"31.200103","category":"247","category_name":"餐饮美食","address":"上海市 上海市徐汇区永嘉路570号永嘉庭5号楼"},{"poiid":"B2094757D568A6F84793","title":"菁英会","lon":"121.45333","lat":"31.203039","category":"257","category_name":"中餐厅","address":"徐汇区岳阳路265号1-2楼(近建国西路)"},{"poiid":"B2094757D06EAAFB469A","title":"耶里夏丽西域餐厅(The Silk Road)","lon":"121.44944","lat":"31.19932","category":"90","category_name":"清真餐馆","address":"徐汇区肇嘉浜路680号金钟大厦2号楼(近乌鲁木齐南路)"},{"poiid":"B2094757D06FA1F94399","title":"徐汇区牙病防治所(肇嘉浜路分所)","lon":"121.451361983","lat":"31.1994818967","category":"162","category_name":"医院","address":"徐汇区肇嘉浜路685号(近东安路)"},{"poiid":"B2094757D06EAAFB479A","title":"肇嘉浜路地铁站","lon":"121.45029188","lat":"31.199558753","category":"36","category_name":"地铁站","address":"上海轨道交通 七号线 九号线 轨交肇嘉浜路站 7 9"},{"poiid":"B2094753D76FAAFA449C","title":"上海滩国泰旗舰店","lon":"121.466011","lat":"31.216125","category":"249","category_name":"购物服务","address":"淮海中路868号"},{"poiid":"B2094757D06FA0FB429C","title":"苏浙汇(华泰大厦店)","lon":"121.450408","lat":"31.202926","category":"76","category_name":"上海菜","address":"徐汇区肇嘉浜路388号华泰大厦1-2楼(近襄阳南路)"},{"poiid":"B2094757D06FA6FE4998","title":"南伶酒家","lon":"121.45245","lat":"31.20485","category":"74","category_name":"江苏菜","address":"徐汇区岳阳路168号(近永嘉路)"},{"poiid":"B2094757D06AA3FC4293","title":"中科院","lon":"121.453551","lat":"31.201298","category":"500","category_name":"未知分类","address":"上海岳阳路319号"},{"poiid":"B2094757D66BA1FC489A","title":"御席公馆","lon":"121.450101","lat":"31.202679","category":"97","category_name":"法式菜品餐厅","address":"徐汇区建国西路568号(近建国西路)"},{"poiid":"B2094654DA6DABFC439A","title":"好望角大饭店","lon":"121.45418","lat":"31.20133","category":"76","category_name":"上海菜","address":"徐汇区肇嘉浜路500号好望角大饭店3楼(岳阳路口)"},{"poiid":"B2094654DA6DABFC409A","title":"中国科学院上海生命科学研究院(中科大厦西)","lon":"121.45243","lat":"31.20132","category":"191","category_name":"科研机构","address":"徐汇区岳阳路320号"},{"poiid":"B2094757D06FA5F94093","title":"建科大厦","lon":"121.452","lat":"31.2018","category":"46","category_name":"楼宇","address":"上海徐汇区宛平南路75号"},{"poiid":"B2094654DA6DA7FB469D","title":"虹桥人家酒楼","lon":"121.4501","lat":"31.19989","category":"76","category_name":"上海菜","address":"徐汇区乌鲁木齐南路406号(肇嘉浜路口)"},{"poiid":"B2094757D068AAFB439D","title":"湘鄂情","lon":"121.45401","lat":"31.20091","category":"77","category_name":"湖南菜","address":"徐汇区肇嘉浜路500号好望角大酒店裙楼(岳阳路口)"},{"poiid":"B2094654DA6DA6FC459A","title":"坤阳国际商务广场","lon":"121.452","lat":"31.2047","category":"46","category_name":"楼宇","address":"卫清西路139_149号等"},{"poiid":"B2094757D469A5F84893","title":"明晨阳光","lon":"121.4497731","lat":"31.2015067","category":"94","category_name":"西餐厅","address":"徐汇区乌鲁木齐南路302号1号(近建国路)"},{"poiid":"B2094757D065ABF9449E","title":"京翅坊","lon":"121.44984","lat":"31.20122","category":"72","category_name":"广东菜","address":"徐汇区乌鲁木齐南路298号2楼(近建国西路)"},{"poiid":"B2094757D16BA1FD4493","title":"Club15","lon":"121.450645586","lat":"31.1989508194","category":"500","category_name":"未知分类","address":"上海市徐汇区东安路15号"},{"poiid":"B2094757D069A1F8469D","title":"近江和牛","lon":"121.44934158","lat":"31.199178823","category":"247","category_name":"餐饮美食","address":"上海市徐汇区青松城一楼"},{"poiid":"B2094654DB65A6F54793","title":"兆丰帝景苑","lon":"121.45056","lat":"31.202584","category":"47","category_name":"住宅区","address":"上海市徐汇区肇嘉浜路1001号"},{"poiid":"B2094654DB69A7F94198","title":"泓园","lon":"121.45057","lat":"31.20175","category":"47","category_name":"住宅区","address":"乌鲁木齐南路167号"},{"poiid":"B2094654DA6DA4F5469E","title":"巴洛克宫廷","lon":"121.45051","lat":"31.202066","category":"47","category_name":"住宅区","address":"巴洛克宫廷位于徐汇建国西路585号"},{"poiid":"B2094751DA6AA2FC4593","title":"麦当劳","lon":"121.45223","lat":"31.199739","category":"247","category_name":"餐饮美食","address":"徐汇区斜土路1646号"},{"poiid":"B2094654DA6DA4F5419B","title":"懿园","lon":"121.45071","lat":"31.203472","category":"47","category_name":"住宅区","address":"建国西路506弄1-57号"},{"poiid":"B2094757DA65A3FF4499","title":"中山医院","lon":"121.45237118","lat":"31.20069962","category":"162","category_name":"医院","address":"徐汇区小木桥路"},{"poiid":"B209475CD36BA5F9419B","title":"Stubb's Bar-B-Q","lon":"121.45051","lat":"31.202875","category":"269","category_name":"烧烤","address":"建国西路550号近乌鲁木齐南路"},{"poiid":"B2094757D66CA7FA4193","title":"上海轨道交通7号线肇嘉滨路站","lon":"121.450491894","lat":"31.1994188993","category":"500","category_name":"未知分类","address":"上海肇嘉浜路"},{"poiid":"B2094655D36CA0F94892","title":"建国西路岳阳路","lon":"121.45119","lat":"31.20304","category":"38","category_name":"公交车站","address":""},{"poiid":"B2094757D16CAAF8489F","title":"中国科学院上海分院","lon":"121.45382308","lat":"31.203554409","category":"671","category_name":"高校中心点","address":"上海岳阳路319号"},{"poiid":"B2094655D264ABF44892","title":"宁远商务中心","lon":"121.45036","lat":"31.201","category":"46","category_name":"楼宇","address":"乌鲁木齐南路183弄1-5号"},{"poiid":"B2094655D36CA3F8499D","title":"建国西路581弄小区","lon":"121.45096","lat":"31.20238","category":"47","category_name":"住宅区","address":"建国西路581弄1-6号"},{"poiid":"B2094757D568ABFA4692","title":"中科院地下食堂","lon":"121.453315","lat":"31.20148806","category":"68","category_name":"快餐厅","address":"徐汇区岳阳路319号中科大厦B1楼(近好望角大饭店)"},{"poiid":"B2094654DA6DA4F5469B","title":"曹天钦·谢希德旧居","lon":"121.4508","lat":"31.20254","category":"243","category_name":"纪念馆","address":"徐汇区建国西路581弄1～6号"},{"poiid":"B2094757D66BA6F9429E","title":"半岛餐厅","lon":"121.45344535807","lat":"31.200745118072","category":"268","category_name":"自助","address":"徐汇区肇嘉浜路500号好望角大酒店3楼(岳阳路口)"},{"poiid":"B2094654DA6DA4F54893","title":"昌化鸡血石博物馆","lon":"121.45088","lat":"31.20029","category":"182","category_name":"博物馆","address":"肇嘉浜路600-604号"},{"poiid":"B2094757D06BA5FB449B","title":"浦发银行(徐汇支行营业部)","lon":"121.45011","lat":"31.20175","category":"500","category_name":"未知分类","address":"徐汇区建国西路589号(建国西路乌鲁木齐南路)"},{"poiid":"B2094757D66EA2FE459C","title":"49路乌鲁木齐南路建国西路站","lon":"121.4497671","lat":"31.201254218","category":"38","category_name":"公交车站","address":"上海肇嘉浜路地铁站"},{"poiid":"B2094757D66CA3F8449D","title":"东安十五号","lon":"121.450632586","lat":"31.2008028556","category":"247","category_name":"餐饮美食","address":"上海市东安路15号"},{"poiid":"B2094750D76DA5F8459F","title":"阿婆蒸菜馆","lon":"121.45","lat":"31.2008","category":"260","category_name":"其他","address":"徐汇区乌鲁木齐南路370号(近肇嘉浜路)"},{"poiid":"B2094655D26AA5F5419C","title":"梅园村珍宝馆","lon":"121.45088","lat":"31.20029","category":"247","category_name":"餐饮美食","address":"徐汇区肇嘉浜路600号"},{"poiid":"B2094655D265ABF4439B","title":"建国西路581弄小区(北门)","lon":"121.45061","lat":"31.20263","category":"47","category_name":"住宅区","address":"建国西路581弄1-6号"},{"poiid":"B2094757D06BA2FA479A","title":"Keep dancing studio","lon":"121.450496586","lat":"31.2020168793","category":"500","category_name":"未知分类","address":"上海乌鲁木齐南路183弄1号106室"},{"poiid":"B2094757D16FA1FE419F","title":"肇嘉浜路东安路公交站","lon":"121.45301988","lat":"31.200472649","category":"38","category_name":"公交车站","address":"上海肇嘉浜路东安路公交站"},{"poiid":"B2094757D76EABF44392","title":"巧克力工厂","lon":"121.4519081","lat":"31.1998594","category":"71","category_name":"四川菜","address":"肇嘉浜路近漕溪北路1111号美罗城B1五番街"},{"poiid":"B2094655D26FA7F5409B","title":"泓园(边门)","lon":"121.44995","lat":"31.20175","category":"47","category_name":"住宅区","address":""},{"poiid":"B2094654DB64AAF4439A","title":"国邦花园","lon":"121.44969","lat":"31.20015","category":"47","category_name":"住宅区","address":"乌鲁木齐南路396弄10"},{"poiid":"B2094654DA6DA4F5449F","title":"建襄小学","lon":"121.45315","lat":"31.20332","category":"56","category_name":"小学","address":"徐汇区岳阳路255号(近建国西路)"},{"poiid":"B2094654DA6DAAFF409D","title":"枫林大楼","lon":"121.45303","lat":"31.200081","category":"47","category_name":"住宅区","address":"肇嘉浜路661-665"},{"poiid":"B2094654DA6DABFC419E","title":"研究生电子阅览室","lon":"121.45332","lat":"31.20149","category":"181","category_name":"图书馆","address":"肇嘉浜路500"},{"poiid":"B209475DD66EABF5449C","title":"胡歌的店 匚FOUNT","lon":"121.450027","lat":"31.200103","category":"247","category_name":"餐饮美食","address":"上海市 上海市徐汇区永嘉路570号永嘉庭5号楼"},{"poiid":"B2094757D568A6F84793","title":"菁英会","lon":"121.45333","lat":"31.203039","category":"257","category_name":"中餐厅","address":"徐汇区岳阳路265号1-2楼(近建国西路)"}]