[{"poiid":"B2094655D26FA5FE4299","title":"东华大学(延安西路校区)","lon":"121.41384","lat":"31.20653","category":"671","category_name":"高校中心点","address":"上海市长宁区延安西路1882号"},{"poiid":"B2094757D06FA3F9429C","title":"银河宾馆","lon":"121.41138860008414","lat":"31.20410764288778","category":"214","category_name":"四星级宾馆","address":"长宁区中山西路888号银河宾馆内(近延安西路)"},{"poiid":"B2094757D06FA3F5459B","title":"唐宫(银河店)","lon":"121.4118","lat":"31.20395","category":"72","category_name":"广东菜","address":"长宁区中山西路888号银河宾馆2楼(近延安西路)"},{"poiid":"B2094654DB65A5F84793","title":"育音堂","lon":"121.41618","lat":"31.20858","category":"248","category_name":"生活娱乐","address":"长宁区凯旋路851号(凯旋路延安西路)"},{"poiid":"B2094750DB6BA2FA479E","title":"纽斯","lon":"121.414527","lat":"31.208843","category":"248","category_name":"生活娱乐","address":"天山路1900号"},{"poiid":"B2094757D068AAFE4598","title":"东华大学(延安路校区)体育馆","lon":"121.41717524","lat":"31.2047678154","category":"224","category_name":"综合体育馆","address":"上海长宁区延安西路1882号东华大学延安路校区"},{"poiid":"B2094757D06FA1FA499E","title":"东华大学四教","lon":"121.41704558","lat":"31.202897596","category":"253","category_name":"校园生活","address":"上海东华大学四教"},{"poiid":"B2094757D06FA2F5469F","title":"新华路","lon":"121.418994","lat":"31.205353","category":"260","category_name":"其他","address":"上海长宁区新华路"},{"poiid":"B2094757D06FA4FD489A","title":"天山公园","lon":"121.415716881","lat":"31.2089318765","category":"196","category_name":"公园","address":"长宁区延安西路1731号(近凯旋路)"},{"poiid":"B2094757D06FA6FE419E","title":"延安路高架 凯旋路口","lon":"121.4167824","lat":"31.208085769","category":"500","category_name":"未知分类","address":"上海延安西路凯旋路"},{"poiid":"B2094757D068A2FC409B","title":"东华大学图书馆(延安路校区)","lon":"121.414331897","lat":"31.2043352776","category":"253","category_name":"校园生活","address":"长宁区延安西路1882号东华大学内"},{"poiid":"B2094757D06BA1FB4698","title":"延安西路","lon":"121.418230986","lat":"31.2073979131","category":"500","category_name":"未知分类","address":"上海市长宁区中山西路"},{"poiid":"B2094757D068A5FF409C","title":"上海内环线高架路","lon":"121.412181378","lat":"31.2059787732","category":"260","category_name":"其他","address":"上海市内环线高架路"},{"poiid":"B2094654DB65A3FC469F","title":"东华大学-莱佛士国际设计学院","lon":"121.4128","lat":"31.20497","category":"671","category_name":"高校中心点","address":"上海市长宁区延安西路1882号"},{"poiid":"B2094750D76FAAF54098","title":"Perry'sCafe","lon":"121.418","lat":"31.2048","category":"111","category_name":"休闲餐饮场所","address":"长宁区凯旋路1139号3楼(近凯旋路延安西路)"},{"poiid":"B2094751D465A2F84193","title":"同一首歌KTV俱乐部（天山路店）","lon":"121.414139","lat":"31.208694","category":"248","category_name":"生活娱乐","address":"上海市长宁区天山路1900号"},{"poiid":"B2094757D06FA0F9439B","title":"小城堡","lon":"121.414903","lat":"31.207477","category":"94","category_name":"西餐厅","address":"长宁区延安西路1794号(近天山路)"},{"poiid":"B2094757D069A7F94493","title":"东华大学 旭日楼","lon":"121.412886526","lat":"31.2028334153","category":"253","category_name":"校园生活","address":"上海长宁区延安西路1882号东华大学延安路校区"},{"poiid":"B2094655D269AAFB429E","title":"银河宾馆宴会厅","lon":"121.4113","lat":"31.20401","category":"247","category_name":"餐饮美食","address":"长宁区中山西路888号银河宾馆内(近延安西路)查看地图"},{"poiid":"B2094757D069A5FD429F","title":"延安路高架西行长宁虹桥区","lon":"121.41423114","lat":"31.207561972","category":"500","category_name":"未知分类","address":"上海延安路高架"},{"poiid":"B2094757D068A7F44098","title":"东华大学一食堂","lon":"121.414841619","lat":"31.2058427558","category":"68","category_name":"快餐厅","address":"上海长宁区延安西路1882号"},{"poiid":"B2094757D16EA4FD499F","title":"大风车私家菜馆(绿洲大厦店)","lon":"121.415989986","lat":"31.2079916961","category":"76","category_name":"上海菜","address":"上海长宁区中山西路555号绿洲大厦2楼，62861737，人均:60元"},{"poiid":"B2094757D068ABFB469F","title":"东华大学(延安路校区)二教","lon":"121.413879","lat":"31.206532","category":"253","category_name":"校园生活","address":"上海市长宁区延安西路1882号 东华大学 第二教学楼"},{"poiid":"B2094757D66FA3F8489D","title":"東華大學","lon":"121.41400658","lat":"31.205343944","category":"671","category_name":"高校中心点","address":"上海市长宁区紫云路"},{"poiid":"B2094757D06FAAF4409E","title":"延安路高架外灘方向","lon":"121.413614","lat":"31.20365","category":"500","category_name":"未知分类","address":"上海延安路"},{"poiid":"B2094655D268A0FD4599","title":"真功夫 延安西路店","lon":"121.416143054","lat":"31.208666793","category":"68","category_name":"快餐厅","address":"凯旋路812号地铁三,四号线延安西路站站厅一楼"},{"poiid":"B2094757D068A5F9489D","title":"莱佛士国际设计学院","lon":"121.41444","lat":"31.202","category":"52","category_name":"高等院校","address":"长宁区延安西路1882号东华大学内"},{"poiid":"B2094655D26EA7FC4292","title":"莫泰268(上海虹桥开发区店)","lon":"121.41212","lat":"31.20283","category":"250","category_name":"公园户外","address":"上海市长宁区中山西路906号(近新华路)"},{"poiid":"B2094757D16FA3FD4698","title":"甬府酒楼","lon":"121.41141408","lat":"31.203946917","category":"75","category_name":"浙江菜","address":"长宁区中山西路888号银河宾馆1楼(近延安西路)"},{"poiid":"B2094757D16EA6F4499A","title":"厦门高崎国际机场2号登机口","lon":"121.416595019","lat":"31.2059495695","category":"21","category_name":"飞机场","address":"厦门高崎国际机场"},{"poiid":"B2094757D568A5FA4999","title":"东华大学教学大楼","lon":"121.4138523","lat":"31.20652751","category":"52","category_name":"高等院校","address":"延安西路1882号"},{"poiid":"B2094753D46BA4F5439A","title":"南小馆","lon":"121.413879","lat":"31.205633","category":"247","category_name":"餐饮美食","address":"上海市 尚嘉中心地下2层A-003"},{"poiid":"B2094757D66CAAF4479F","title":"东华食府","lon":"121.414236586","lat":"31.2063949649","category":"247","category_name":"餐饮美食","address":"长宁区延安西路1882号东华大学食堂3楼"},{"poiid":"B2094750DA6FA2F94899","title":"纽斯（天山店）","lon":"121.414314","lat":"31.209098","category":"247","category_name":"餐饮美食","address":null},{"poiid":"B2094757D06AA7FA449C","title":"东华大学(延安西路)二食堂","lon":"121.41528161","lat":"31.205777754","category":"500","category_name":"未知分类","address":"上海延安西路1882号新八宿对面"},{"poiid":"B2094753DB64A2F5439A","title":"梅赛德斯奔驰文化中心","lon":"121.415802","lat":"31.204046","category":"500","category_name":"未知分类","address":"上海市 世博园"},{"poiid":"B2094757D16AA3FA499A","title":"汉庭快捷连锁酒店(凯旋路店)","lon":"121.416063786","lat":"31.202206883","category":"217","category_name":"旅馆招待所","address":"上海市长宁区杨宅路278号(近凯旋路)"},{"poiid":"B2094750D76DA6F4429D","title":"海福阁韩国料理","lon":"121.413","lat":"31.2069","category":"96","category_name":"韩国料理","address":"长宁区延安西路1750号(近天山路)"},{"poiid":"B2094655D268ABFF4092","title":"内环延安西路立交桥","lon":"121.41219","lat":"31.20563","category":"250","category_name":"公园户外","address":""},{"poiid":"B2094654DB65A4F44598","title":"上海东华大学(西门)","lon":"121.4137","lat":"31.20675","category":"52","category_name":"高等院校","address":"长宁区延安西路1882号"},{"poiid":"B2094655D268A5FC439A","title":"上海纺织服饰博物馆","lon":"121.41358","lat":"31.20328","category":"182","category_name":"博物馆","address":"长宁区延安西路1882号东华大学内(近虹桥路)"},{"poiid":"B2094752D769A2FE4092","title":"本家","lon":"121.412352","lat":"31.207938","category":"247","category_name":"餐饮美食","address":"天山路1900号(近延安西路)"},{"poiid":"B2094750D26DA2F8419D","title":"知爱母婴专护中心","lon":"121.41734","lat":"31.206205","category":"252","category_name":"楼宇机构","address":"长宁区长宁区新华路563号(近定西路)"},{"poiid":"B2094655D26FA6FA429C","title":"延西小区","lon":"121.41643","lat":"31.207539","category":"47","category_name":"住宅区","address":"上海延安西路1740弄"},{"poiid":"B2094655D264A7FC489D","title":"联鑫虹桥苑二期","lon":"121.416","lat":"31.2065","category":"47","category_name":"住宅区","address":"上海市长宁区安顺路352号"},{"poiid":"B2094654DB69A0F44293","title":"东华大学旭日工商管理学院","lon":"121.41384","lat":"31.20653","category":"52","category_name":"高等院校","address":"长宁区延安西路1882号"},{"poiid":"B209475CD768A1FC4993","title":"STAGE 上海（iapm）环贸广场","lon":"121.41645","lat":"31.205337","category":"500","category_name":"未知分类","address":"上海市 上海市 淮海中路999号"},{"poiid":"B2094753DB65A1F54699","title":"上海展览中心","lon":"121.415534","lat":"31.204271","category":"500","category_name":"未知分类","address":"上海市 延安中路"},{"poiid":"B2094655D26EAAF5449C","title":"银河咖啡厅","lon":"121.4113","lat":"31.20401","category":"65","category_name":"咖啡厅","address":"长宁区中山西路888号银河宾馆1楼(近延安西路)"},{"poiid":"B2094654D564A7F84699","title":"东华大学-拉萨尔国际设计学院","lon":"121.4128","lat":"31.20497","category":"52","category_name":"高等院校","address":"新华路832"},{"poiid":"B2094655D26FA5FE4299","title":"东华大学(延安西路校区)","lon":"121.41384","lat":"31.20653","category":"671","category_name":"高校中心点","address":"上海市长宁区延安西路1882号"},{"poiid":"B2094757D06FA3F9429C","title":"银河宾馆","lon":"121.41138860008414","lat":"31.20410764288778","category":"214","category_name":"四星级宾馆","address":"长宁区中山西路888号银河宾馆内(近延安西路)"},{"poiid":"B2094757D06FA3F5459B","title":"唐宫(银河店)","lon":"121.4118","lat":"31.20395","category":"72","category_name":"广东菜","address":"长宁区中山西路888号银河宾馆2楼(近延安西路)"},{"poiid":"B2094654DB65A5F84793","title":"育音堂","lon":"121.41618","lat":"31.20858","category":"248","category_name":"生活娱乐","address":"长宁区凯旋路851号(凯旋路延安西路)"},{"poiid":"B2094750DB6BA2FA479E","title":"纽斯","lon":"121.414527","lat":"31.208843","category":"248","category_name":"生活娱乐","address":"天山路1900号"},{"poiid":"B2094757D068AAFE4598","title":"东华大学(延安路校区)体育馆","lon":"121.41717524","lat":"31.2047678154","category":"224","category_name":"综合体育馆","address":"上海长宁区延安西路1882号东华大学延安路校区"},{"poiid":"B2094757D06FA1FA499E","title":"东华大学四教","lon":"121.41704558","lat":"31.202897596","category":"253","category_name":"校园生活","address":"上海东华大学四教"},{"poiid":"B2094757D06FA2F5469F","title":"新华路","lon":"121.418994","lat":"31.205353","category":"260","category_name":"其他","address":"上海长宁区新华路"},{"poiid":"B2094757D06FA4FD489A","title":"天山公园","lon":"121.415716881","lat":"31.2089318765","category":"196","category_name":"公园","address":"长宁区延安西路1731号(近凯旋路)"},{"poiid":"B2094757D06FA6FE419E","title":"延安路高架 凯旋路口","lon":"121.4167824","lat":"31.208085769","category":"500","category_name":"未知分类","address":"上海延安西路凯旋路"},{"poiid":"B2094757D068A2FC409B","title":"东华大学图书馆(延安路校区)","lon":"121.414331897","lat":"31.2043352776","category":"253","category_name":"校园生活","address":"长宁区延安西路1882号东华大学内"},{"poiid":"B2094757D06BA1FB4698","title":"延安西路","lon":"121.418230986","lat":"31.2073979131","category":"500","category_name":"未知分类","address":"上海市长宁区中山西路"},{"poiid":"B2094757D068A5FF409C","title":"上海内环线高架路","lon":"121.412181378","lat":"31.2059787732","category":"260","category_name":"其他","address":"上海市内环线高架路"},{"poiid":"B2094654DB65A3FC469F","title":"东华大学-莱佛士国际设计学院","lon":"121.4128","lat":"31.20497","category":"671","category_name":"高校中心点","address":"上海市长宁区延安西路1882号"},{"poiid":"B2094750D76FAAF54098","title":"Perry'sCafe","lon":"121.418","lat":"31.2048","category":"111","category_name":"休闲餐饮场所","address":"长宁区凯旋路1139号3楼(近凯旋路延安西路)"},{"poiid":"B2094751D465A2F84193","title":"同一首歌KTV俱乐部（天山路店）","lon":"121.414139","lat":"31.208694","category":"248","category_name":"生活娱乐","address":"上海市长宁区天山路1900号"},{"poiid":"B2094757D06FA0F9439B","title":"小城堡","lon":"121.414903","lat":"31.207477","category":"94","category_name":"西餐厅","address":"长宁区延安西路1794号(近天山路)"},{"poiid":"B2094757D069A7F94493","title":"东华大学 旭日楼","lon":"121.412886526","lat":"31.2028334153","category":"253","category_name":"校园生活","address":"上海长宁区延安西路1882号东华大学延安路校区"},{"poiid":"B2094655D269AAFB429E","title":"银河宾馆宴会厅","lon":"121.4113","lat":"31.20401","category":"247","category_name":"餐饮美食","address":"长宁区中山西路888号银河宾馆内(近延安西路)查看地图"},{"poiid":"B2094757D069A5FD429F","title":"延安路高架西行长宁虹桥区","lon":"121.41423114","lat":"31.207561972","category":"500","category_name":"未知分类","address":"上海延安路高架"},{"poiid":"B2094757D068A7F44098","title":"东华大学一食堂","lon":"121.414841619","lat":"31.2058427558","category":"68","category_name":"快餐厅","address":"上海长宁区延安西路1882号"},{"poiid":"B2094757D16EA4FD499F","title":"大风车私家菜馆(绿洲大厦店)","lon":"121.415989986","lat":"31.2079916961","category":"76","category_name":"上海菜","address":"上海长宁区中山西路555号绿洲大厦2楼，62861737，人均:60元"},{"poiid":"B2094757D068ABFB469F","title":"东华大学(延安路校区)二教","lon":"121.413879","lat":"31.206532","category":"253","category_name":"校园生活","address":"上海市长宁区延安西路1882号 东华大学 第二教学楼"},{"poiid":"B2094757D66FA3F8489D","title":"東華大學","lon":"121.41400658","lat":"31.205343944","category":"671","category_name":"高校中心点","address":"上海市长宁区紫云路"},{"poiid":"B2094757D06FAAF4409E","title":"延安路高架外灘方向","lon":"121.413614","lat":"31.20365","category":"500","category_name":"未知分类","address":"上海延安路"},{"poiid":"B2094655D268A0FD4599","title":"真功夫 延安西路店","lon":"121.416143054","lat":"31.208666793","category":"68","category_name":"快餐厅","address":"凯旋路812号地铁三,四号线延安西路站站厅一楼"},{"poiid":"B2094757D068A5F9489D","title":"莱佛士国际设计学院","lon":"121.41444","lat":"31.202","category":"52","category_name":"高等院校","address":"长宁区延安西路1882号东华大学内"},{"poiid":"B2094655D26EA7FC4292","title":"莫泰268(上海虹桥开发区店)","lon":"121.41212","lat":"31.20283","category":"250","category_name":"公园户外","address":"上海市长宁区中山西路906号(近新华路)"},{"poiid":"B2094757D16FA3FD4698","title":"甬府酒楼","lon":"121.41141408","lat":"31.203946917","category":"75","category_name":"浙江菜","address":"长宁区中山西路888号银河宾馆1楼(近延安西路)"},{"poiid":"B2094757D16EA6F4499A","title":"厦门高崎国际机场2号登机口","lon":"121.416595019","lat":"31.2059495695","category":"21","category_name":"飞机场","address":"厦门高崎国际机场"},{"poiid":"B2094757D568A5FA4999","title":"东华大学教学大楼","lon":"121.4138523","lat":"31.20652751","category":"52","category_name":"高等院校","address":"延安西路1882号"},{"poiid":"B2094753D46BA4F5439A","title":"南小馆","lon":"121.413879","lat":"31.205633","category":"247","category_name":"餐饮美食","address":"上海市 尚嘉中心地下2层A-003"},{"poiid":"B2094757D66CAAF4479F","title":"东华食府","lon":"121.414236586","lat":"31.2063949649","category":"247","category_name":"餐饮美食","address":"长宁区延安西路1882号东华大学食堂3楼"},{"poiid":"B2094750DA6FA2F94899","title":"纽斯（天山店）","lon":"121.414314","lat":"31.209098","category":"247","category_name":"餐饮美食","address":null},{"poiid":"B2094757D06AA7FA449C","title":"东华大学(延安西路)二食堂","lon":"121.41528161","lat":"31.205777754","category":"500","category_name":"未知分类","address":"上海延安西路1882号新八宿对面"},{"poiid":"B2094753DB64A2F5439A","title":"梅赛德斯奔驰文化中心","lon":"121.415802","lat":"31.204046","category":"500","category_name":"未知分类","address":"上海市 世博园"},{"poiid":"B2094757D16AA3FA499A","title":"汉庭快捷连锁酒店(凯旋路店)","lon":"121.416063786","lat":"31.202206883","category":"217","category_name":"旅馆招待所","address":"上海市长宁区杨宅路278号(近凯旋路)"},{"poiid":"B2094750D76DA6F4429D","title":"海福阁韩国料理","lon":"121.413","lat":"31.2069","category":"96","category_name":"韩国料理","address":"长宁区延安西路1750号(近天山路)"},{"poiid":"B2094655D268ABFF4092","title":"内环延安西路立交桥","lon":"121.41219","lat":"31.20563","category":"250","category_name":"公园户外","address":""},{"poiid":"B2094654DB65A4F44598","title":"上海东华大学(西门)","lon":"121.4137","lat":"31.20675","category":"52","category_name":"高等院校","address":"长宁区延安西路1882号"},{"poiid":"B2094655D268A5FC439A","title":"上海纺织服饰博物馆","lon":"121.41358","lat":"31.20328","category":"182","category_name":"博物馆","address":"长宁区延安西路1882号东华大学内(近虹桥路)"},{"poiid":"B2094752D769A2FE4092","title":"本家","lon":"121.412352","lat":"31.207938","category":"247","category_name":"餐饮美食","address":"天山路1900号(近延安西路)"},{"poiid":"B2094750D26DA2F8419D","title":"知爱母婴专护中心","lon":"121.41734","lat":"31.206205","category":"252","category_name":"楼宇机构","address":"长宁区长宁区新华路563号(近定西路)"},{"poiid":"B2094655D26FA6FA429C","title":"延西小区","lon":"121.41643","lat":"31.207539","category":"47","category_name":"住宅区","address":"上海延安西路1740弄"},{"poiid":"B2094655D264A7FC489D","title":"联鑫虹桥苑二期","lon":"121.416","lat":"31.2065","category":"47","category_name":"住宅区","address":"上海市长宁区安顺路352号"},{"poiid":"B2094654DB69A0F44293","title":"东华大学旭日工商管理学院","lon":"121.41384","lat":"31.20653","category":"52","category_name":"高等院校","address":"长宁区延安西路1882号"},{"poiid":"B209475CD768A1FC4993","title":"STAGE 上海（iapm）环贸广场","lon":"121.41645","lat":"31.205337","category":"500","category_name":"未知分类","address":"上海市 上海市 淮海中路999号"},{"poiid":"B2094753DB65A1F54699","title":"上海展览中心","lon":"121.415534","lat":"31.204271","category":"500","category_name":"未知分类","address":"上海市 延安中路"},{"poiid":"B2094655D26EAAF5449C","title":"银河咖啡厅","lon":"121.4113","lat":"31.20401","category":"65","category_name":"咖啡厅","address":"长宁区中山西路888号银河宾馆1楼(近延安西路)"},{"poiid":"B2094654D564A7F84699","title":"东华大学-拉萨尔国际设计学院","lon":"121.4128","lat":"31.20497","category":"52","category_name":"高等院校","address":"新华路832"},{"poiid":"B2094655D26FA5FE4299","title":"东华大学(延安西路校区)","lon":"121.41384","lat":"31.20653","category":"671","category_name":"高校中心点","address":"上海市长宁区延安西路1882号"},{"poiid":"B2094757D06FA3F9429C","title":"银河宾馆","lon":"121.41138860008414","lat":"31.20410764288778","category":"214","category_name":"四星级宾馆","address":"长宁区中山西路888号银河宾馆内(近延安西路)"},{"poiid":"B2094757D06FA3F5459B","title":"唐宫(银河店)","lon":"121.4118","lat":"31.20395","category":"72","category_name":"广东菜","address":"长宁区中山西路888号银河宾馆2楼(近延安西路)"},{"poiid":"B2094654DB65A5F84793","title":"育音堂","lon":"121.41618","lat":"31.20858","category":"248","category_name":"生活娱乐","address":"长宁区凯旋路851号(凯旋路延安西路)"},{"poiid":"B2094750DB6BA2FA479E","title":"纽斯","lon":"121.414527","lat":"31.208843","category":"248","category_name":"生活娱乐","address":"天山路1900号"},{"poiid":"B2094757D068AAFE4598","title":"东华大学(延安路校区)体育馆","lon":"121.41717524","lat":"31.2047678154","category":"224","category_name":"综合体育馆","address":"上海长宁区延安西路1882号东华大学延安路校区"},{"poiid":"B2094757D06FA1FA499E","title":"东华大学四教","lon":"121.41704558","lat":"31.202897596","category":"253","category_name":"校园生活","address":"上海东华大学四教"},{"poiid":"B2094757D06FA2F5469F","title":"新华路","lon":"121.418994","lat":"31.205353","category":"260","category_name":"其他","address":"上海长宁区新华路"},{"poiid":"B2094757D06FA4FD489A","title":"天山公园","lon":"121.415716881","lat":"31.2089318765","category":"196","category_name":"公园","address":"长宁区延安西路1731号(近凯旋路)"},{"poiid":"B2094757D06FA6FE419E","title":"延安路高架 凯旋路口","lon":"121.4167824","lat":"31.208085769","category":"500","category_name":"未知分类","address":"上海延安西路凯旋路"},{"poiid":"B2094757D068A2FC409B","title":"东华大学图书馆(延安路校区)","lon":"121.414331897","lat":"31.2043352776","category":"253","category_name":"校园生活","address":"长宁区延安西路1882号东华大学内"},{"poiid":"B2094757D06BA1FB4698","title":"延安西路","lon":"121.418230986","lat":"31.2073979131","category":"500","category_name":"未知分类","address":"上海市长宁区中山西路"},{"poiid":"B2094757D068A5FF409C","title":"上海内环线高架路","lon":"121.412181378","lat":"31.2059787732","category":"260","category_name":"其他","address":"上海市内环线高架路"},{"poiid":"B2094654DB65A3FC469F","title":"东华大学-莱佛士国际设计学院","lon":"121.4128","lat":"31.20497","category":"671","category_name":"高校中心点","address":"上海市长宁区延安西路1882号"},{"poiid":"B2094750D76FAAF54098","title":"Perry'sCafe","lon":"121.418","lat":"31.2048","category":"111","category_name":"休闲餐饮场所","address":"长宁区凯旋路1139号3楼(近凯旋路延安西路)"},{"poiid":"B2094751D465A2F84193","title":"同一首歌KTV俱乐部（天山路店）","lon":"121.414139","lat":"31.208694","category":"248","category_name":"生活娱乐","address":"上海市长宁区天山路1900号"},{"poiid":"B2094757D06FA0F9439B","title":"小城堡","lon":"121.414903","lat":"31.207477","category":"94","category_name":"西餐厅","address":"长宁区延安西路1794号(近天山路)"},{"poiid":"B2094757D069A7F94493","title":"东华大学 旭日楼","lon":"121.412886526","lat":"31.2028334153","category":"253","category_name":"校园生活","address":"上海长宁区延安西路1882号东华大学延安路校区"},{"poiid":"B2094655D269AAFB429E","title":"银河宾馆宴会厅","lon":"121.4113","lat":"31.20401","category":"247","category_name":"餐饮美食","address":"长宁区中山西路888号银河宾馆内(近延安西路)查看地图"},{"poiid":"B2094757D069A5FD429F","title":"延安路高架西行长宁虹桥区","lon":"121.41423114","lat":"31.207561972","category":"500","category_name":"未知分类","address":"上海延安路高架"},{"poiid":"B2094757D068A7F44098","title":"东华大学一食堂","lon":"121.414841619","lat":"31.2058427558","category":"68","category_name":"快餐厅","address":"上海长宁区延安西路1882号"},{"poiid":"B2094757D16EA4FD499F","title":"大风车私家菜馆(绿洲大厦店)","lon":"121.415989986","lat":"31.2079916961","category":"76","category_name":"上海菜","address":"上海长宁区中山西路555号绿洲大厦2楼，62861737，人均:60元"},{"poiid":"B2094757D068ABFB469F","title":"东华大学(延安路校区)二教","lon":"121.413879","lat":"31.206532","category":"253","category_name":"校园生活","address":"上海市长宁区延安西路1882号 东华大学 第二教学楼"},{"poiid":"B2094757D66FA3F8489D","title":"東華大學","lon":"121.41400658","lat":"31.205343944","category":"671","category_name":"高校中心点","address":"上海市长宁区紫云路"},{"poiid":"B2094757D06FAAF4409E","title":"延安路高架外灘方向","lon":"121.413614","lat":"31.20365","category":"500","category_name":"未知分类","address":"上海延安路"},{"poiid":"B2094655D268A0FD4599","title":"真功夫 延安西路店","lon":"121.416143054","lat":"31.208666793","category":"68","category_name":"快餐厅","address":"凯旋路812号地铁三,四号线延安西路站站厅一楼"},{"poiid":"B2094757D068A5F9489D","title":"莱佛士国际设计学院","lon":"121.41444","lat":"31.202","category":"52","category_name":"高等院校","address":"长宁区延安西路1882号东华大学内"},{"poiid":"B2094655D26EA7FC4292","title":"莫泰268(上海虹桥开发区店)","lon":"121.41212","lat":"31.20283","category":"250","category_name":"公园户外","address":"上海市长宁区中山西路906号(近新华路)"},{"poiid":"B2094757D16FA3FD4698","title":"甬府酒楼","lon":"121.41141408","lat":"31.203946917","category":"75","category_name":"浙江菜","address":"长宁区中山西路888号银河宾馆1楼(近延安西路)"},{"poiid":"B2094757D16EA6F4499A","title":"厦门高崎国际机场2号登机口","lon":"121.416595019","lat":"31.2059495695","category":"21","category_name":"飞机场","address":"厦门高崎国际机场"},{"poiid":"B2094757D568A5FA4999","title":"东华大学教学大楼","lon":"121.4138523","lat":"31.20652751","category":"52","category_name":"高等院校","address":"延安西路1882号"},{"poiid":"B2094753D46BA4F5439A","title":"南小馆","lon":"121.413879","lat":"31.205633","category":"247","category_name":"餐饮美食","address":"上海市 尚嘉中心地下2层A-003"},{"poiid":"B2094757D66CAAF4479F","title":"东华食府","lon":"121.414236586","lat":"31.2063949649","category":"247","category_name":"餐饮美食","address":"长宁区延安西路1882号东华大学食堂3楼"},{"poiid":"B2094750DA6FA2F94899","title":"纽斯（天山店）","lon":"121.414314","lat":"31.209098","category":"247","category_name":"餐饮美食","address":null},{"poiid":"B2094757D06AA7FA449C","title":"东华大学(延安西路)二食堂","lon":"121.41528161","lat":"31.205777754","category":"500","category_name":"未知分类","address":"上海延安西路1882号新八宿对面"},{"poiid":"B2094753DB64A2F5439A","title":"梅赛德斯奔驰文化中心","lon":"121.415802","lat":"31.204046","category":"500","category_name":"未知分类","address":"上海市 世博园"},{"poiid":"B2094757D16AA3FA499A","title":"汉庭快捷连锁酒店(凯旋路店)","lon":"121.416063786","lat":"31.202206883","category":"217","category_name":"旅馆招待所","address":"上海市长宁区杨宅路278号(近凯旋路)"},{"poiid":"B2094750D76DA6F4429D","title":"海福阁韩国料理","lon":"121.413","lat":"31.2069","category":"96","category_name":"韩国料理","address":"长宁区延安西路1750号(近天山路)"},{"poiid":"B2094655D268ABFF4092","title":"内环延安西路立交桥","lon":"121.41219","lat":"31.20563","category":"250","category_name":"公园户外","address":""},{"poiid":"B2094654DB65A4F44598","title":"上海东华大学(西门)","lon":"121.4137","lat":"31.20675","category":"52","category_name":"高等院校","address":"长宁区延安西路1882号"},{"poiid":"B2094655D268A5FC439A","title":"上海纺织服饰博物馆","lon":"121.41358","lat":"31.20328","category":"182","category_name":"博物馆","address":"长宁区延安西路1882号东华大学内(近虹桥路)"},{"poiid":"B2094752D769A2FE4092","title":"本家","lon":"121.412352","lat":"31.207938","category":"247","category_name":"餐饮美食","address":"天山路1900号(近延安西路)"},{"poiid":"B2094750D26DA2F8419D","title":"知爱母婴专护中心","lon":"121.41734","lat":"31.206205","category":"252","category_name":"楼宇机构","address":"长宁区长宁区新华路563号(近定西路)"},{"poiid":"B2094655D26FA6FA429C","title":"延西小区","lon":"121.41643","lat":"31.207539","category":"47","category_name":"住宅区","address":"上海延安西路1740弄"},{"poiid":"B2094655D264A7FC489D","title":"联鑫虹桥苑二期","lon":"121.416","lat":"31.2065","category":"47","category_name":"住宅区","address":"上海市长宁区安顺路352号"},{"poiid":"B2094654DB69A0F44293","title":"东华大学旭日工商管理学院","lon":"121.41384","lat":"31.20653","category":"52","category_name":"高等院校","address":"长宁区延安西路1882号"},{"poiid":"B209475CD768A1FC4993","title":"STAGE 上海（iapm）环贸广场","lon":"121.41645","lat":"31.205337","category":"500","category_name":"未知分类","address":"上海市 上海市 淮海中路999号"},{"poiid":"B2094753DB65A1F54699","title":"上海展览中心","lon":"121.415534","lat":"31.204271","category":"500","category_name":"未知分类","address":"上海市 延安中路"},{"poiid":"B2094655D26EAAF5449C","title":"银河咖啡厅","lon":"121.4113","lat":"31.20401","category":"65","category_name":"咖啡厅","address":"长宁区中山西路888号银河宾馆1楼(近延安西路)"},{"poiid":"B2094654D564A7F84699","title":"东华大学-拉萨尔国际设计学院","lon":"121.4128","lat":"31.20497","category":"52","category_name":"高等院校","address":"新华路832"},{"poiid":"B2094655D26FA5FE4299","title":"东华大学(延安西路校区)","lon":"121.41384","lat":"31.20653","category":"671","category_name":"高校中心点","address":"上海市长宁区延安西路1882号"},{"poiid":"B2094757D06FA3F9429C","title":"银河宾馆","lon":"121.41138860008414","lat":"31.20410764288778","category":"214","category_name":"四星级宾馆","address":"长宁区中山西路888号银河宾馆内(近延安西路)"},{"poiid":"B2094757D06FA3F5459B","title":"唐宫(银河店)","lon":"121.4118","lat":"31.20395","category":"72","category_name":"广东菜","address":"长宁区中山西路888号银河宾馆2楼(近延安西路)"},{"poiid":"B2094654DB65A5F84793","title":"育音堂","lon":"121.41618","lat":"31.20858","category":"248","category_name":"生活娱乐","address":"长宁区凯旋路851号(凯旋路延安西路)"},{"poiid":"B2094750DB6BA2FA479E","title":"纽斯","lon":"121.414527","lat":"31.208843","category":"248","category_name":"生活娱乐","address":"天山路1900号"},{"poiid":"B2094757D068AAFE4598","title":"东华大学(延安路校区)体育馆","lon":"121.41717524","lat":"31.2047678154","category":"224","category_name":"综合体育馆","address":"上海长宁区延安西路1882号东华大学延安路校区"},{"poiid":"B2094757D06FA1FA499E","title":"东华大学四教","lon":"121.41704558","lat":"31.202897596","category":"253","category_name":"校园生活","address":"上海东华大学四教"},{"poiid":"B2094757D06FA2F5469F","title":"新华路","lon":"121.418994","lat":"31.205353","category":"260","category_name":"其他","address":"上海长宁区新华路"},{"poiid":"B2094757D06FA4FD489A","title":"天山公园","lon":"121.415716881","lat":"31.2089318765","category":"196","category_name":"公园","address":"长宁区延安西路1731号(近凯旋路)"},{"poiid":"B2094757D06FA6FE419E","title":"延安路高架 凯旋路口","lon":"121.4167824","lat":"31.208085769","category":"500","category_name":"未知分类","address":"上海延安西路凯旋路"},{"poiid":"B2094757D068A2FC409B","title":"东华大学图书馆(延安路校区)","lon":"121.414331897","lat":"31.2043352776","category":"253","category_name":"校园生活","address":"长宁区延安西路1882号东华大学内"},{"poiid":"B2094757D06BA1FB4698","title":"延安西路","lon":"121.418230986","lat":"31.2073979131","category":"500","category_name":"未知分类","address":"上海市长宁区中山西路"},{"poiid":"B2094757D068A5FF409C","title":"上海内环线高架路","lon":"121.412181378","lat":"31.2059787732","category":"260","category_name":"其他","address":"上海市内环线高架路"},{"poiid":"B2094654DB65A3FC469F","title":"东华大学-莱佛士国际设计学院","lon":"121.4128","lat":"31.20497","category":"671","category_name":"高校中心点","address":"上海市长宁区延安西路1882号"},{"poiid":"B2094750D76FAAF54098","title":"Perry'sCafe","lon":"121.418","lat":"31.2048","category":"111","category_name":"休闲餐饮场所","address":"长宁区凯旋路1139号3楼(近凯旋路延安西路)"},{"poiid":"B2094751D465A2F84193","title":"同一首歌KTV俱乐部（天山路店）","lon":"121.414139","lat":"31.208694","category":"248","category_name":"生活娱乐","address":"上海市长宁区天山路1900号"},{"poiid":"B2094757D06FA0F9439B","title":"小城堡","lon":"121.414903","lat":"31.207477","category":"94","category_name":"西餐厅","address":"长宁区延安西路1794号(近天山路)"},{"poiid":"B2094757D069A7F94493","title":"东华大学 旭日楼","lon":"121.412886526","lat":"31.2028334153","category":"253","category_name":"校园生活","address":"上海长宁区延安西路1882号东华大学延安路校区"},{"poiid":"B2094655D269AAFB429E","title":"银河宾馆宴会厅","lon":"121.4113","lat":"31.20401","category":"247","category_name":"餐饮美食","address":"长宁区中山西路888号银河宾馆内(近延安西路)查看地图"},{"poiid":"B2094757D069A5FD429F","title":"延安路高架西行长宁虹桥区","lon":"121.41423114","lat":"31.207561972","category":"500","category_name":"未知分类","address":"上海延安路高架"},{"poiid":"B2094757D068A7F44098","title":"东华大学一食堂","lon":"121.414841619","lat":"31.2058427558","category":"68","category_name":"快餐厅","address":"上海长宁区延安西路1882号"},{"poiid":"B2094757D16EA4FD499F","title":"大风车私家菜馆(绿洲大厦店)","lon":"121.415989986","lat":"31.2079916961","category":"76","category_name":"上海菜","address":"上海长宁区中山西路555号绿洲大厦2楼，62861737，人均:60元"},{"poiid":"B2094757D068ABFB469F","title":"东华大学(延安路校区)二教","lon":"121.413879","lat":"31.206532","category":"253","category_name":"校园生活","address":"上海市长宁区延安西路1882号 东华大学 第二教学楼"},{"poiid":"B2094757D66FA3F8489D","title":"東華大學","lon":"121.41400658","lat":"31.205343944","category":"671","category_name":"高校中心点","address":"上海市长宁区紫云路"},{"poiid":"B2094757D06FAAF4409E","title":"延安路高架外灘方向","lon":"121.413614","lat":"31.20365","category":"500","category_name":"未知分类","address":"上海延安路"},{"poiid":"B2094655D268A0FD4599","title":"真功夫 延安西路店","lon":"121.416143054","lat":"31.208666793","category":"68","category_name":"快餐厅","address":"凯旋路812号地铁三,四号线延安西路站站厅一楼"},{"poiid":"B2094757D068A5F9489D","title":"莱佛士国际设计学院","lon":"121.41444","lat":"31.202","category":"52","category_name":"高等院校","address":"长宁区延安西路1882号东华大学内"},{"poiid":"B2094655D26EA7FC4292","title":"莫泰268(上海虹桥开发区店)","lon":"121.41212","lat":"31.20283","category":"250","category_name":"公园户外","address":"上海市长宁区中山西路906号(近新华路)"},{"poiid":"B2094757D16FA3FD4698","title":"甬府酒楼","lon":"121.41141408","lat":"31.203946917","category":"75","category_name":"浙江菜","address":"长宁区中山西路888号银河宾馆1楼(近延安西路)"},{"poiid":"B2094757D16EA6F4499A","title":"厦门高崎国际机场2号登机口","lon":"121.416595019","lat":"31.2059495695","category":"21","category_name":"飞机场","address":"厦门高崎国际机场"},{"poiid":"B2094757D568A5FA4999","title":"东华大学教学大楼","lon":"121.4138523","lat":"31.20652751","category":"52","category_name":"高等院校","address":"延安西路1882号"},{"poiid":"B2094753D46BA4F5439A","title":"南小馆","lon":"121.413879","lat":"31.205633","category":"247","category_name":"餐饮美食","address":"上海市 尚嘉中心地下2层A-003"},{"poiid":"B2094757D66CAAF4479F","title":"东华食府","lon":"121.414236586","lat":"31.2063949649","category":"247","category_name":"餐饮美食","address":"长宁区延安西路1882号东华大学食堂3楼"},{"poiid":"B2094750DA6FA2F94899","title":"纽斯（天山店）","lon":"121.414314","lat":"31.209098","category":"247","category_name":"餐饮美食","address":null},{"poiid":"B2094757D06AA7FA449C","title":"东华大学(延安西路)二食堂","lon":"121.41528161","lat":"31.205777754","category":"500","category_name":"未知分类","address":"上海延安西路1882号新八宿对面"},{"poiid":"B2094753DB64A2F5439A","title":"梅赛德斯奔驰文化中心","lon":"121.415802","lat":"31.204046","category":"500","category_name":"未知分类","address":"上海市 世博园"},{"poiid":"B2094757D16AA3FA499A","title":"汉庭快捷连锁酒店(凯旋路店)","lon":"121.416063786","lat":"31.202206883","category":"217","category_name":"旅馆招待所","address":"上海市长宁区杨宅路278号(近凯旋路)"},{"poiid":"B2094750D76DA6F4429D","title":"海福阁韩国料理","lon":"121.413","lat":"31.2069","category":"96","category_name":"韩国料理","address":"长宁区延安西路1750号(近天山路)"},{"poiid":"B2094655D268ABFF4092","title":"内环延安西路立交桥","lon":"121.41219","lat":"31.20563","category":"250","category_name":"公园户外","address":""},{"poiid":"B2094654DB65A4F44598","title":"上海东华大学(西门)","lon":"121.4137","lat":"31.20675","category":"52","category_name":"高等院校","address":"长宁区延安西路1882号"},{"poiid":"B2094655D268A5FC439A","title":"上海纺织服饰博物馆","lon":"121.41358","lat":"31.20328","category":"182","category_name":"博物馆","address":"长宁区延安西路1882号东华大学内(近虹桥路)"},{"poiid":"B2094752D769A2FE4092","title":"本家","lon":"121.412352","lat":"31.207938","category":"247","category_name":"餐饮美食","address":"天山路1900号(近延安西路)"},{"poiid":"B2094750D26DA2F8419D","title":"知爱母婴专护中心","lon":"121.41734","lat":"31.206205","category":"252","category_name":"楼宇机构","address":"长宁区长宁区新华路563号(近定西路)"},{"poiid":"B2094655D26FA6FA429C","title":"延西小区","lon":"121.41643","lat":"31.207539","category":"47","category_name":"住宅区","address":"上海延安西路1740弄"},{"poiid":"B2094655D264A7FC489D","title":"联鑫虹桥苑二期","lon":"121.416","lat":"31.2065","category":"47","category_name":"住宅区","address":"上海市长宁区安顺路352号"},{"poiid":"B2094654DB69A0F44293","title":"东华大学旭日工商管理学院","lon":"121.41384","lat":"31.20653","category":"52","category_name":"高等院校","address":"长宁区延安西路1882号"},{"poiid":"B209475CD768A1FC4993","title":"STAGE 上海（iapm）环贸广场","lon":"121.41645","lat":"31.205337","category":"500","category_name":"未知分类","address":"上海市 上海市 淮海中路999号"},{"poiid":"B2094753DB65A1F54699","title":"上海展览中心","lon":"121.415534","lat":"31.204271","category":"500","category_name":"未知分类","address":"上海市 延安中路"},{"poiid":"B2094655D26EAAF5449C","title":"银河咖啡厅","lon":"121.4113","lat":"31.20401","category":"65","category_name":"咖啡厅","address":"长宁区中山西路888号银河宾馆1楼(近延安西路)"},{"poiid":"B2094654D564A7F84699","title":"东华大学-拉萨尔国际设计学院","lon":"121.4128","lat":"31.20497","category":"52","category_name":"高等院校","address":"新华路832"}]