[{"poiid":"B2094757D06FABFE469B","title":"兄弟盱眙龙虾","lon":"121.59986","lat":"31.2635","category":"68","category_name":"快餐厅","address":"浦东新区牟平路304弄4号(近长岛路)"},{"poiid":"B2094757D068A7F9459D","title":"段氏龙虾(长岛路店)","lon":"121.59872","lat":"31.26365","category":"68","category_name":"快餐厅","address":"浦东新区长岛路1445号"},{"poiid":"B2094757D068A7FF459E","title":"吉华花园酒店","lon":"121.60404","lat":"31.2563526036","category":"76","category_name":"上海菜","address":"浦东新区金海路18号(近杨高中路)"},{"poiid":"B2094757D06FA4FD429E","title":"长岛花苑","lon":"121.601587059","lat":"31.2631087257","category":"47","category_name":"住宅区","address":"上海长岛路1560弄"},{"poiid":"B2094757D068A0FB459B","title":"金桥新城","lon":"121.609231","lat":"31.262573","category":"47","category_name":"住宅区","address":"上海东陆路2000弄"},{"poiid":"B2094757D064A5F94792","title":"杨高中路金海路","lon":"121.60289773","lat":"31.258796399","category":"500","category_name":"未知分类","address":"上海杨高中路金海路"},{"poiid":"B2094757D06BA1FB4592","title":"公利医院(金桥门诊部)","lon":"121.59747633","lat":"31.263657111","category":"162","category_name":"医院","address":"浦东新区荷泽路582号(长岛路口)"},{"poiid":"B2094655D26DABFE4393","title":"上海金桥国际茶城","lon":"121.60696","lat":"31.26587","category":"117","category_name":"便民商店/便利店","address":"浦东新区东陆路1683号(近杨高北路)"},{"poiid":"B2094757D06BA1FC4193","title":"上海大众汽车金桥4S店","lon":"121.607505","lat":"31.258932","category":"500","category_name":"未知分类","address":"上海浦东新区金海路351号"},{"poiid":"B2094654D568A4F8499D","title":"金泽苑","lon":"121.59908","lat":"31.260952","category":"47","category_name":"住宅区","address":"荷泽路825弄1-80号"},{"poiid":"B2094654DB6AA6F8479C","title":"上海怡东大酒店","lon":"121.60604","lat":"31.26225","category":"214","category_name":"四星级宾馆","address":"上海市浦东新区金高路2200号(近金海路)"},{"poiid":"B2094654DB64A6FB499B","title":"如家快捷酒店(上海金桥店)","lon":"121.60604","lat":"31.26147","category":"216","category_name":"经济型连锁酒店","address":"上海市浦东新区金高路2200号(近金海路)"},{"poiid":"B2094655D26CA7FB4098","title":"上海亨龙汽车销售服务有限公司","lon":"121.60605","lat":"31.26058","category":"158","category_name":"汽车销售","address":"金高路2388号"},{"poiid":"B2094654D568AAFC449E","title":"银桥大厦","lon":"121.606","lat":"31.2582","category":"46","category_name":"楼宇","address":"上海市长宁区遵义南路88号"},{"poiid":"B2094654D568A0F9449C","title":"金舍苑","lon":"121.6096","lat":"31.26136","category":"47","category_name":"住宅区","address":"金高路2131弄1-52号"},{"poiid":"B2094757D06BA2F94192","title":"爱法新都","lon":"121.60023","lat":"31.256149","category":"252","category_name":"楼宇机构","address":"上海浦东新区杨高中路58弄"},{"poiid":"B2094750D165A6FE489A","title":"上海歌城","lon":"121.600227","lat":"31.259189","category":"170","category_name":"KTV","address":"金橋國際"},{"poiid":"B2094757D064A6F5449F","title":"金巷小区","lon":"121.59955","lat":"31.258591","category":"47","category_name":"住宅区","address":"上海市浦东新区杨高中路10弄3支弄43号"},{"poiid":"B2094757D06BAAFF429A","title":"世外桃源","lon":"121.60816","lat":"31.2642","category":"76","category_name":"上海菜","address":"浦东新区东陆路1755弄"},{"poiid":"B2094654D568A7FB4198","title":"南二街坊","lon":"121.60497285312","lat":"31.261057429174","category":"47","category_name":"住宅区","address":"台儿庄路663弄"},{"poiid":"B2094757D06AAAFF489E","title":"金桥商务公寓","lon":"121.606","lat":"31.2546","category":"46","category_name":"楼宇","address":"浦东新区新金桥路255号(近金桥立交桥)"},{"poiid":"B2094757D664A3FC4493","title":"天都火锅","lon":"121.600088","lat":"31.264977","category":"86","category_name":"火锅店","address":"浦东新区牟平路199号(近长岛路)"},{"poiid":"B2094757D068A6FB469D","title":"上海燃气浦东销售有限公司","lon":"121.60295482","lat":"31.260693554","category":"500","category_name":"未知分类","address":"上海浦东新区杨高北路5588号"},{"poiid":"B2094654D568A4F8499A","title":"蒲公英幼儿园彩虹岛部","lon":"121.60065","lat":"31.25992","category":"57","category_name":"幼儿园","address":""},{"poiid":"B2094757D568A6FB4099","title":"克莉丝汀胶东路店","lon":"121.600944","lat":"31.260559","category":"112","category_name":"糕饼店","address":"浦东新区胶东路820号(近牟平路)"},{"poiid":"B2094655D36CA0FF479E","title":"金高路金海路","lon":"121.60569","lat":"31.25917","category":"38","category_name":"公交车站","address":""},{"poiid":"B2094751DA69A4FE489E","title":"上海陆家嘴国金中心","lon":"121.603194","lat":"31.260703","category":"500","category_name":"未知分类","address":null},{"poiid":"B2094654DB6BA1F84398","title":"荷五小区","lon":"121.59829","lat":"31.262247","category":"47","category_name":"住宅区","address":"长岛路1398弄1-68号"},{"poiid":"B2094654D568A4F8439C","title":"上海市浦兴中学","lon":"121.59878","lat":"31.26441","category":"55","category_name":"中学","address":"浦东新区长岛路1515"},{"poiid":"B2094757D065A3FB4398","title":"羿府湘菜(东陆店)","lon":"121.60865","lat":"31.26394","category":"77","category_name":"湖南菜","address":"浦东新区东陆路1803号(近金海路)"},{"poiid":"B2094654DB6BA1F84292","title":"金和佳园胶东路","lon":"121.60085","lat":"31.26046","category":"47","category_name":"住宅区","address":"胶东路818弄1-39号"},{"poiid":"B2094757D568A6FC479A","title":"长岛公寓二期","lon":"121.60279","lat":"31.26485","category":"47","category_name":"住宅区","address":"上海市浦东新区长岛路1560弄"},{"poiid":"B2094757D66CA1FF489A","title":"金桥谷","lon":"121.60507633","lat":"31.261504061","category":"500","category_name":"未知分类","address":"上海市浦东新区金高路2216弄"},{"poiid":"B2094654D568A0F94493","title":"上海水木年华沐浴休闲俱乐部","lon":"121.60717","lat":"31.26299","category":"149","category_name":"洗浴推拿场所","address":"浦东新区金高路2216号(近佳高路)"},{"poiid":"B2094757D065A1F84993","title":"金舟苑","lon":"121.60213","lat":"31.262424","category":"252","category_name":"楼宇机构","address":"上海市卢湾区徐家汇路515弄"},{"poiid":"B2094654D568A4F84898","title":"好德便利No.755","lon":"121.60092","lat":"31.26054","category":"117","category_name":"便民商店/便利店","address":"胶东路820"},{"poiid":"B2094655D265A7F44598","title":"中惠广场","lon":"121.60476411347","lat":"31.254284733591","category":"46","category_name":"楼宇","address":"上海浦东新金桥路1088号"},{"poiid":"B2094757D66BA3FE4398","title":"老八样","lon":"121.602201","lat":"31.267495","category":"76","category_name":"上海菜","address":"浦东新区东陆路1519号(近杨高路)"},{"poiid":"B2094654D568ABFA429D","title":"建银大厦","lon":"121.60826198586","lat":"31.258656036676","category":"46","category_name":"楼宇","address":"浦东新区浙桥路289"},{"poiid":"B2094655D26BA1F84698","title":"牟平路长岛路","lon":"121.60064","lat":"31.264","category":"38","category_name":"公交车站","address":""},{"poiid":"B2094757D168A1FA4892","title":"光头烧烤","lon":"121.603451339","lat":"31.2652221472","category":"247","category_name":"餐饮美食","address":"上海金高路1895号"},{"poiid":"B2094757D068A2F5499A","title":"85路终点站","lon":"121.602798462","lat":"31.2660751343","category":"500","category_name":"未知分类","address":"上海长岛路东陆路"},{"poiid":"B2094654D568A4FF4792","title":"山野烤鱼","lon":"121.59936","lat":"31.26567","category":"87","category_name":"特色／地方风味餐厅","address":"上海浦东新区牟平路132号(近长岛路)  "},{"poiid":"B2094655D26CA7F9439C","title":"爱法新都2期","lon":"121.60073","lat":"31.25842","category":"47","category_name":"住宅区","address":"杨高中路18弄1-26号"},{"poiid":"B2094757D66DA5FD4099","title":"中化道达儿加油站","lon":"121.60766923","lat":"31.263325903","category":"154","category_name":"加油加气站","address":"上海杨高北路金海路"},{"poiid":"B2094654D568ABFB499A","title":"之江大厦","lon":"121.6042988808","lat":"31.256786224284","category":"46","category_name":"楼宇","address":"浙桥路55-77"},{"poiid":"B2094757D06BA2F94299","title":"菏泽路胶东路路口","lon":"121.600101","lat":"31.260171","category":"500","category_name":"未知分类","address":"上海菏泽路胶东路路口"},{"poiid":"B2094654DB6BA1F84293","title":"快客","lon":"121.60079","lat":"31.2604","category":"117","category_name":"便民商店/便利店","address":"杨高中路18弄15"},{"poiid":"B2094654D568A0FA409F","title":"快客No.6671","lon":"121.60753","lat":"31.26292","category":"117","category_name":"便民商店/便利店","address":"金高路2105"},{"poiid":"B2094654D568A0F9469B","title":"金石苑","lon":"121.60702","lat":"31.26455","category":"47","category_name":"住宅区","address":"杨高北路5291弄1-30号"},{"poiid":"B2094757D06FABFE469B","title":"兄弟盱眙龙虾","lon":"121.59986","lat":"31.2635","category":"68","category_name":"快餐厅","address":"浦东新区牟平路304弄4号(近长岛路)"},{"poiid":"B2094757D068A7F9459D","title":"段氏龙虾(长岛路店)","lon":"121.59872","lat":"31.26365","category":"68","category_name":"快餐厅","address":"浦东新区长岛路1445号"},{"poiid":"B2094757D068A7FF459E","title":"吉华花园酒店","lon":"121.60404","lat":"31.2563526036","category":"76","category_name":"上海菜","address":"浦东新区金海路18号(近杨高中路)"},{"poiid":"B2094757D06FA4FD429E","title":"长岛花苑","lon":"121.601587059","lat":"31.2631087257","category":"47","category_name":"住宅区","address":"上海长岛路1560弄"},{"poiid":"B2094757D068A0FB459B","title":"金桥新城","lon":"121.609231","lat":"31.262573","category":"47","category_name":"住宅区","address":"上海东陆路2000弄"},{"poiid":"B2094757D064A5F94792","title":"杨高中路金海路","lon":"121.60289773","lat":"31.258796399","category":"500","category_name":"未知分类","address":"上海杨高中路金海路"},{"poiid":"B2094757D06BA1FB4592","title":"公利医院(金桥门诊部)","lon":"121.59747633","lat":"31.263657111","category":"162","category_name":"医院","address":"浦东新区荷泽路582号(长岛路口)"},{"poiid":"B2094655D26DABFE4393","title":"上海金桥国际茶城","lon":"121.60696","lat":"31.26587","category":"117","category_name":"便民商店/便利店","address":"浦东新区东陆路1683号(近杨高北路)"},{"poiid":"B2094757D06BA1FC4193","title":"上海大众汽车金桥4S店","lon":"121.607505","lat":"31.258932","category":"500","category_name":"未知分类","address":"上海浦东新区金海路351号"},{"poiid":"B2094654D568A4F8499D","title":"金泽苑","lon":"121.59908","lat":"31.260952","category":"47","category_name":"住宅区","address":"荷泽路825弄1-80号"},{"poiid":"B2094654DB6AA6F8479C","title":"上海怡东大酒店","lon":"121.60604","lat":"31.26225","category":"214","category_name":"四星级宾馆","address":"上海市浦东新区金高路2200号(近金海路)"},{"poiid":"B2094654DB64A6FB499B","title":"如家快捷酒店(上海金桥店)","lon":"121.60604","lat":"31.26147","category":"216","category_name":"经济型连锁酒店","address":"上海市浦东新区金高路2200号(近金海路)"},{"poiid":"B2094655D26CA7FB4098","title":"上海亨龙汽车销售服务有限公司","lon":"121.60605","lat":"31.26058","category":"158","category_name":"汽车销售","address":"金高路2388号"},{"poiid":"B2094654D568AAFC449E","title":"银桥大厦","lon":"121.606","lat":"31.2582","category":"46","category_name":"楼宇","address":"上海市长宁区遵义南路88号"},{"poiid":"B2094654D568A0F9449C","title":"金舍苑","lon":"121.6096","lat":"31.26136","category":"47","category_name":"住宅区","address":"金高路2131弄1-52号"},{"poiid":"B2094757D06BA2F94192","title":"爱法新都","lon":"121.60023","lat":"31.256149","category":"252","category_name":"楼宇机构","address":"上海浦东新区杨高中路58弄"},{"poiid":"B2094750D165A6FE489A","title":"上海歌城","lon":"121.600227","lat":"31.259189","category":"170","category_name":"KTV","address":"金橋國際"},{"poiid":"B2094757D064A6F5449F","title":"金巷小区","lon":"121.59955","lat":"31.258591","category":"47","category_name":"住宅区","address":"上海市浦东新区杨高中路10弄3支弄43号"},{"poiid":"B2094757D06BAAFF429A","title":"世外桃源","lon":"121.60816","lat":"31.2642","category":"76","category_name":"上海菜","address":"浦东新区东陆路1755弄"},{"poiid":"B2094654D568A7FB4198","title":"南二街坊","lon":"121.60497285312","lat":"31.261057429174","category":"47","category_name":"住宅区","address":"台儿庄路663弄"},{"poiid":"B2094757D06AAAFF489E","title":"金桥商务公寓","lon":"121.606","lat":"31.2546","category":"46","category_name":"楼宇","address":"浦东新区新金桥路255号(近金桥立交桥)"},{"poiid":"B2094757D664A3FC4493","title":"天都火锅","lon":"121.600088","lat":"31.264977","category":"86","category_name":"火锅店","address":"浦东新区牟平路199号(近长岛路)"},{"poiid":"B2094757D068A6FB469D","title":"上海燃气浦东销售有限公司","lon":"121.60295482","lat":"31.260693554","category":"500","category_name":"未知分类","address":"上海浦东新区杨高北路5588号"},{"poiid":"B2094654D568A4F8499A","title":"蒲公英幼儿园彩虹岛部","lon":"121.60065","lat":"31.25992","category":"57","category_name":"幼儿园","address":""},{"poiid":"B2094757D568A6FB4099","title":"克莉丝汀胶东路店","lon":"121.600944","lat":"31.260559","category":"112","category_name":"糕饼店","address":"浦东新区胶东路820号(近牟平路)"},{"poiid":"B2094655D36CA0FF479E","title":"金高路金海路","lon":"121.60569","lat":"31.25917","category":"38","category_name":"公交车站","address":""},{"poiid":"B2094751DA69A4FE489E","title":"上海陆家嘴国金中心","lon":"121.603194","lat":"31.260703","category":"500","category_name":"未知分类","address":null},{"poiid":"B2094654DB6BA1F84398","title":"荷五小区","lon":"121.59829","lat":"31.262247","category":"47","category_name":"住宅区","address":"长岛路1398弄1-68号"},{"poiid":"B2094654D568A4F8439C","title":"上海市浦兴中学","lon":"121.59878","lat":"31.26441","category":"55","category_name":"中学","address":"浦东新区长岛路1515"},{"poiid":"B2094757D065A3FB4398","title":"羿府湘菜(东陆店)","lon":"121.60865","lat":"31.26394","category":"77","category_name":"湖南菜","address":"浦东新区东陆路1803号(近金海路)"},{"poiid":"B2094654DB6BA1F84292","title":"金和佳园胶东路","lon":"121.60085","lat":"31.26046","category":"47","category_name":"住宅区","address":"胶东路818弄1-39号"},{"poiid":"B2094757D568A6FC479A","title":"长岛公寓二期","lon":"121.60279","lat":"31.26485","category":"47","category_name":"住宅区","address":"上海市浦东新区长岛路1560弄"},{"poiid":"B2094757D66CA1FF489A","title":"金桥谷","lon":"121.60507633","lat":"31.261504061","category":"500","category_name":"未知分类","address":"上海市浦东新区金高路2216弄"},{"poiid":"B2094654D568A0F94493","title":"上海水木年华沐浴休闲俱乐部","lon":"121.60717","lat":"31.26299","category":"149","category_name":"洗浴推拿场所","address":"浦东新区金高路2216号(近佳高路)"},{"poiid":"B2094757D065A1F84993","title":"金舟苑","lon":"121.60213","lat":"31.262424","category":"252","category_name":"楼宇机构","address":"上海市卢湾区徐家汇路515弄"},{"poiid":"B2094654D568A4F84898","title":"好德便利No.755","lon":"121.60092","lat":"31.26054","category":"117","category_name":"便民商店/便利店","address":"胶东路820"},{"poiid":"B2094655D265A7F44598","title":"中惠广场","lon":"121.60476411347","lat":"31.254284733591","category":"46","category_name":"楼宇","address":"上海浦东新金桥路1088号"},{"poiid":"B2094757D66BA3FE4398","title":"老八样","lon":"121.602201","lat":"31.267495","category":"76","category_name":"上海菜","address":"浦东新区东陆路1519号(近杨高路)"},{"poiid":"B2094654D568ABFA429D","title":"建银大厦","lon":"121.60826198586","lat":"31.258656036676","category":"46","category_name":"楼宇","address":"浦东新区浙桥路289"},{"poiid":"B2094655D26BA1F84698","title":"牟平路长岛路","lon":"121.60064","lat":"31.264","category":"38","category_name":"公交车站","address":""},{"poiid":"B2094757D168A1FA4892","title":"光头烧烤","lon":"121.603451339","lat":"31.2652221472","category":"247","category_name":"餐饮美食","address":"上海金高路1895号"},{"poiid":"B2094757D068A2F5499A","title":"85路终点站","lon":"121.602798462","lat":"31.2660751343","category":"500","category_name":"未知分类","address":"上海长岛路东陆路"},{"poiid":"B2094654D568A4FF4792","title":"山野烤鱼","lon":"121.59936","lat":"31.26567","category":"87","category_name":"特色／地方风味餐厅","address":"上海浦东新区牟平路132号(近长岛路)  "},{"poiid":"B2094655D26CA7F9439C","title":"爱法新都2期","lon":"121.60073","lat":"31.25842","category":"47","category_name":"住宅区","address":"杨高中路18弄1-26号"},{"poiid":"B2094757D66DA5FD4099","title":"中化道达儿加油站","lon":"121.60766923","lat":"31.263325903","category":"154","category_name":"加油加气站","address":"上海杨高北路金海路"},{"poiid":"B2094654D568ABFB499A","title":"之江大厦","lon":"121.6042988808","lat":"31.256786224284","category":"46","category_name":"楼宇","address":"浙桥路55-77"},{"poiid":"B2094757D06BA2F94299","title":"菏泽路胶东路路口","lon":"121.600101","lat":"31.260171","category":"500","category_name":"未知分类","address":"上海菏泽路胶东路路口"},{"poiid":"B2094654DB6BA1F84293","title":"快客","lon":"121.60079","lat":"31.2604","category":"117","category_name":"便民商店/便利店","address":"杨高中路18弄15"},{"poiid":"B2094654D568A0FA409F","title":"快客No.6671","lon":"121.60753","lat":"31.26292","category":"117","category_name":"便民商店/便利店","address":"金高路2105"},{"poiid":"B2094654D568A0F9469B","title":"金石苑","lon":"121.60702","lat":"31.26455","category":"47","category_name":"住宅区","address":"杨高北路5291弄1-30号"},{"poiid":"B2094757D06FABFE469B","title":"兄弟盱眙龙虾","lon":"121.59986","lat":"31.2635","category":"68","category_name":"快餐厅","address":"浦东新区牟平路304弄4号(近长岛路)"},{"poiid":"B2094757D068A7F9459D","title":"段氏龙虾(长岛路店)","lon":"121.59872","lat":"31.26365","category":"68","category_name":"快餐厅","address":"浦东新区长岛路1445号"},{"poiid":"B2094757D068A7FF459E","title":"吉华花园酒店","lon":"121.60404","lat":"31.2563526036","category":"76","category_name":"上海菜","address":"浦东新区金海路18号(近杨高中路)"},{"poiid":"B2094757D06FA4FD429E","title":"长岛花苑","lon":"121.601587059","lat":"31.2631087257","category":"47","category_name":"住宅区","address":"上海长岛路1560弄"},{"poiid":"B2094757D068A0FB459B","title":"金桥新城","lon":"121.609231","lat":"31.262573","category":"47","category_name":"住宅区","address":"上海东陆路2000弄"},{"poiid":"B2094757D064A5F94792","title":"杨高中路金海路","lon":"121.60289773","lat":"31.258796399","category":"500","category_name":"未知分类","address":"上海杨高中路金海路"},{"poiid":"B2094757D06BA1FB4592","title":"公利医院(金桥门诊部)","lon":"121.59747633","lat":"31.263657111","category":"162","category_name":"医院","address":"浦东新区荷泽路582号(长岛路口)"},{"poiid":"B2094655D26DABFE4393","title":"上海金桥国际茶城","lon":"121.60696","lat":"31.26587","category":"117","category_name":"便民商店/便利店","address":"浦东新区东陆路1683号(近杨高北路)"},{"poiid":"B2094757D06BA1FC4193","title":"上海大众汽车金桥4S店","lon":"121.607505","lat":"31.258932","category":"500","category_name":"未知分类","address":"上海浦东新区金海路351号"},{"poiid":"B2094654D568A4F8499D","title":"金泽苑","lon":"121.59908","lat":"31.260952","category":"47","category_name":"住宅区","address":"荷泽路825弄1-80号"},{"poiid":"B2094654DB6AA6F8479C","title":"上海怡东大酒店","lon":"121.60604","lat":"31.26225","category":"214","category_name":"四星级宾馆","address":"上海市浦东新区金高路2200号(近金海路)"},{"poiid":"B2094654DB64A6FB499B","title":"如家快捷酒店(上海金桥店)","lon":"121.60604","lat":"31.26147","category":"216","category_name":"经济型连锁酒店","address":"上海市浦东新区金高路2200号(近金海路)"},{"poiid":"B2094655D26CA7FB4098","title":"上海亨龙汽车销售服务有限公司","lon":"121.60605","lat":"31.26058","category":"158","category_name":"汽车销售","address":"金高路2388号"},{"poiid":"B2094654D568AAFC449E","title":"银桥大厦","lon":"121.606","lat":"31.2582","category":"46","category_name":"楼宇","address":"上海市长宁区遵义南路88号"},{"poiid":"B2094654D568A0F9449C","title":"金舍苑","lon":"121.6096","lat":"31.26136","category":"47","category_name":"住宅区","address":"金高路2131弄1-52号"},{"poiid":"B2094757D06BA2F94192","title":"爱法新都","lon":"121.60023","lat":"31.256149","category":"252","category_name":"楼宇机构","address":"上海浦东新区杨高中路58弄"},{"poiid":"B2094750D165A6FE489A","title":"上海歌城","lon":"121.600227","lat":"31.259189","category":"170","category_name":"KTV","address":"金橋國際"},{"poiid":"B2094757D064A6F5449F","title":"金巷小区","lon":"121.59955","lat":"31.258591","category":"47","category_name":"住宅区","address":"上海市浦东新区杨高中路10弄3支弄43号"},{"poiid":"B2094757D06BAAFF429A","title":"世外桃源","lon":"121.60816","lat":"31.2642","category":"76","category_name":"上海菜","address":"浦东新区东陆路1755弄"},{"poiid":"B2094654D568A7FB4198","title":"南二街坊","lon":"121.60497285312","lat":"31.261057429174","category":"47","category_name":"住宅区","address":"台儿庄路663弄"},{"poiid":"B2094757D06AAAFF489E","title":"金桥商务公寓","lon":"121.606","lat":"31.2546","category":"46","category_name":"楼宇","address":"浦东新区新金桥路255号(近金桥立交桥)"},{"poiid":"B2094757D664A3FC4493","title":"天都火锅","lon":"121.600088","lat":"31.264977","category":"86","category_name":"火锅店","address":"浦东新区牟平路199号(近长岛路)"},{"poiid":"B2094757D068A6FB469D","title":"上海燃气浦东销售有限公司","lon":"121.60295482","lat":"31.260693554","category":"500","category_name":"未知分类","address":"上海浦东新区杨高北路5588号"},{"poiid":"B2094654D568A4F8499A","title":"蒲公英幼儿园彩虹岛部","lon":"121.60065","lat":"31.25992","category":"57","category_name":"幼儿园","address":""},{"poiid":"B2094757D568A6FB4099","title":"克莉丝汀胶东路店","lon":"121.600944","lat":"31.260559","category":"112","category_name":"糕饼店","address":"浦东新区胶东路820号(近牟平路)"},{"poiid":"B2094655D36CA0FF479E","title":"金高路金海路","lon":"121.60569","lat":"31.25917","category":"38","category_name":"公交车站","address":""},{"poiid":"B2094751DA69A4FE489E","title":"上海陆家嘴国金中心","lon":"121.603194","lat":"31.260703","category":"500","category_name":"未知分类","address":null},{"poiid":"B2094654DB6BA1F84398","title":"荷五小区","lon":"121.59829","lat":"31.262247","category":"47","category_name":"住宅区","address":"长岛路1398弄1-68号"},{"poiid":"B2094654D568A4F8439C","title":"上海市浦兴中学","lon":"121.59878","lat":"31.26441","category":"55","category_name":"中学","address":"浦东新区长岛路1515"},{"poiid":"B2094757D065A3FB4398","title":"羿府湘菜(东陆店)","lon":"121.60865","lat":"31.26394","category":"77","category_name":"湖南菜","address":"浦东新区东陆路1803号(近金海路)"},{"poiid":"B2094654DB6BA1F84292","title":"金和佳园胶东路","lon":"121.60085","lat":"31.26046","category":"47","category_name":"住宅区","address":"胶东路818弄1-39号"},{"poiid":"B2094757D568A6FC479A","title":"长岛公寓二期","lon":"121.60279","lat":"31.26485","category":"47","category_name":"住宅区","address":"上海市浦东新区长岛路1560弄"},{"poiid":"B2094757D66CA1FF489A","title":"金桥谷","lon":"121.60507633","lat":"31.261504061","category":"500","category_name":"未知分类","address":"上海市浦东新区金高路2216弄"},{"poiid":"B2094654D568A0F94493","title":"上海水木年华沐浴休闲俱乐部","lon":"121.60717","lat":"31.26299","category":"149","category_name":"洗浴推拿场所","address":"浦东新区金高路2216号(近佳高路)"},{"poiid":"B2094757D065A1F84993","title":"金舟苑","lon":"121.60213","lat":"31.262424","category":"252","category_name":"楼宇机构","address":"上海市卢湾区徐家汇路515弄"},{"poiid":"B2094654D568A4F84898","title":"好德便利No.755","lon":"121.60092","lat":"31.26054","category":"117","category_name":"便民商店/便利店","address":"胶东路820"},{"poiid":"B2094655D265A7F44598","title":"中惠广场","lon":"121.60476411347","lat":"31.254284733591","category":"46","category_name":"楼宇","address":"上海浦东新金桥路1088号"},{"poiid":"B2094757D66BA3FE4398","title":"老八样","lon":"121.602201","lat":"31.267495","category":"76","category_name":"上海菜","address":"浦东新区东陆路1519号(近杨高路)"},{"poiid":"B2094654D568ABFA429D","title":"建银大厦","lon":"121.60826198586","lat":"31.258656036676","category":"46","category_name":"楼宇","address":"浦东新区浙桥路289"},{"poiid":"B2094655D26BA1F84698","title":"牟平路长岛路","lon":"121.60064","lat":"31.264","category":"38","category_name":"公交车站","address":""},{"poiid":"B2094757D168A1FA4892","title":"光头烧烤","lon":"121.603451339","lat":"31.2652221472","category":"247","category_name":"餐饮美食","address":"上海金高路1895号"},{"poiid":"B2094757D068A2F5499A","title":"85路终点站","lon":"121.602798462","lat":"31.2660751343","category":"500","category_name":"未知分类","address":"上海长岛路东陆路"},{"poiid":"B2094654D568A4FF4792","title":"山野烤鱼","lon":"121.59936","lat":"31.26567","category":"87","category_name":"特色／地方风味餐厅","address":"上海浦东新区牟平路132号(近长岛路)  "},{"poiid":"B2094655D26CA7F9439C","title":"爱法新都2期","lon":"121.60073","lat":"31.25842","category":"47","category_name":"住宅区","address":"杨高中路18弄1-26号"},{"poiid":"B2094757D66DA5FD4099","title":"中化道达儿加油站","lon":"121.60766923","lat":"31.263325903","category":"154","category_name":"加油加气站","address":"上海杨高北路金海路"},{"poiid":"B2094654D568ABFB499A","title":"之江大厦","lon":"121.6042988808","lat":"31.256786224284","category":"46","category_name":"楼宇","address":"浙桥路55-77"},{"poiid":"B2094757D06BA2F94299","title":"菏泽路胶东路路口","lon":"121.600101","lat":"31.260171","category":"500","category_name":"未知分类","address":"上海菏泽路胶东路路口"},{"poiid":"B2094654DB6BA1F84293","title":"快客","lon":"121.60079","lat":"31.2604","category":"117","category_name":"便民商店/便利店","address":"杨高中路18弄15"},{"poiid":"B2094654D568A0FA409F","title":"快客No.6671","lon":"121.60753","lat":"31.26292","category":"117","category_name":"便民商店/便利店","address":"金高路2105"},{"poiid":"B2094654D568A0F9469B","title":"金石苑","lon":"121.60702","lat":"31.26455","category":"47","category_name":"住宅区","address":"杨高北路5291弄1-30号"},{"poiid":"B2094757D06FABFE469B","title":"兄弟盱眙龙虾","lon":"121.59986","lat":"31.2635","category":"68","category_name":"快餐厅","address":"浦东新区牟平路304弄4号(近长岛路)"},{"poiid":"B2094757D068A7F9459D","title":"段氏龙虾(长岛路店)","lon":"121.59872","lat":"31.26365","category":"68","category_name":"快餐厅","address":"浦东新区长岛路1445号"},{"poiid":"B2094757D068A7FF459E","title":"吉华花园酒店","lon":"121.60404","lat":"31.2563526036","category":"76","category_name":"上海菜","address":"浦东新区金海路18号(近杨高中路)"},{"poiid":"B2094757D06FA4FD429E","title":"长岛花苑","lon":"121.601587059","lat":"31.2631087257","category":"47","category_name":"住宅区","address":"上海长岛路1560弄"},{"poiid":"B2094757D068A0FB459B","title":"金桥新城","lon":"121.609231","lat":"31.262573","category":"47","category_name":"住宅区","address":"上海东陆路2000弄"},{"poiid":"B2094757D064A5F94792","title":"杨高中路金海路","lon":"121.60289773","lat":"31.258796399","category":"500","category_name":"未知分类","address":"上海杨高中路金海路"},{"poiid":"B2094757D06BA1FB4592","title":"公利医院(金桥门诊部)","lon":"121.59747633","lat":"31.263657111","category":"162","category_name":"医院","address":"浦东新区荷泽路582号(长岛路口)"},{"poiid":"B2094655D26DABFE4393","title":"上海金桥国际茶城","lon":"121.60696","lat":"31.26587","category":"117","category_name":"便民商店/便利店","address":"浦东新区东陆路1683号(近杨高北路)"},{"poiid":"B2094757D06BA1FC4193","title":"上海大众汽车金桥4S店","lon":"121.607505","lat":"31.258932","category":"500","category_name":"未知分类","address":"上海浦东新区金海路351号"},{"poiid":"B2094654D568A4F8499D","title":"金泽苑","lon":"121.59908","lat":"31.260952","category":"47","category_name":"住宅区","address":"荷泽路825弄1-80号"},{"poiid":"B2094654DB6AA6F8479C","title":"上海怡东大酒店","lon":"121.60604","lat":"31.26225","category":"214","category_name":"四星级宾馆","address":"上海市浦东新区金高路2200号(近金海路)"},{"poiid":"B2094654DB64A6FB499B","title":"如家快捷酒店(上海金桥店)","lon":"121.60604","lat":"31.26147","category":"216","category_name":"经济型连锁酒店","address":"上海市浦东新区金高路2200号(近金海路)"},{"poiid":"B2094655D26CA7FB4098","title":"上海亨龙汽车销售服务有限公司","lon":"121.60605","lat":"31.26058","category":"158","category_name":"汽车销售","address":"金高路2388号"},{"poiid":"B2094654D568AAFC449E","title":"银桥大厦","lon":"121.606","lat":"31.2582","category":"46","category_name":"楼宇","address":"上海市长宁区遵义南路88号"},{"poiid":"B2094654D568A0F9449C","title":"金舍苑","lon":"121.6096","lat":"31.26136","category":"47","category_name":"住宅区","address":"金高路2131弄1-52号"},{"poiid":"B2094757D06BA2F94192","title":"爱法新都","lon":"121.60023","lat":"31.256149","category":"252","category_name":"楼宇机构","address":"上海浦东新区杨高中路58弄"},{"poiid":"B2094750D165A6FE489A","title":"上海歌城","lon":"121.600227","lat":"31.259189","category":"170","category_name":"KTV","address":"金橋國際"},{"poiid":"B2094757D064A6F5449F","title":"金巷小区","lon":"121.59955","lat":"31.258591","category":"47","category_name":"住宅区","address":"上海市浦东新区杨高中路10弄3支弄43号"},{"poiid":"B2094757D06BAAFF429A","title":"世外桃源","lon":"121.60816","lat":"31.2642","category":"76","category_name":"上海菜","address":"浦东新区东陆路1755弄"},{"poiid":"B2094654D568A7FB4198","title":"南二街坊","lon":"121.60497285312","lat":"31.261057429174","category":"47","category_name":"住宅区","address":"台儿庄路663弄"},{"poiid":"B2094757D06AAAFF489E","title":"金桥商务公寓","lon":"121.606","lat":"31.2546","category":"46","category_name":"楼宇","address":"浦东新区新金桥路255号(近金桥立交桥)"},{"poiid":"B2094757D664A3FC4493","title":"天都火锅","lon":"121.600088","lat":"31.264977","category":"86","category_name":"火锅店","address":"浦东新区牟平路199号(近长岛路)"},{"poiid":"B2094757D068A6FB469D","title":"上海燃气浦东销售有限公司","lon":"121.60295482","lat":"31.260693554","category":"500","category_name":"未知分类","address":"上海浦东新区杨高北路5588号"},{"poiid":"B2094654D568A4F8499A","title":"蒲公英幼儿园彩虹岛部","lon":"121.60065","lat":"31.25992","category":"57","category_name":"幼儿园","address":""},{"poiid":"B2094757D568A6FB4099","title":"克莉丝汀胶东路店","lon":"121.600944","lat":"31.260559","category":"112","category_name":"糕饼店","address":"浦东新区胶东路820号(近牟平路)"},{"poiid":"B2094655D36CA0FF479E","title":"金高路金海路","lon":"121.60569","lat":"31.25917","category":"38","category_name":"公交车站","address":""},{"poiid":"B2094751DA69A4FE489E","title":"上海陆家嘴国金中心","lon":"121.603194","lat":"31.260703","category":"500","category_name":"未知分类","address":null},{"poiid":"B2094654DB6BA1F84398","title":"荷五小区","lon":"121.59829","lat":"31.262247","category":"47","category_name":"住宅区","address":"长岛路1398弄1-68号"},{"poiid":"B2094654D568A4F8439C","title":"上海市浦兴中学","lon":"121.59878","lat":"31.26441","category":"55","category_name":"中学","address":"浦东新区长岛路1515"},{"poiid":"B2094757D065A3FB4398","title":"羿府湘菜(东陆店)","lon":"121.60865","lat":"31.26394","category":"77","category_name":"湖南菜","address":"浦东新区东陆路1803号(近金海路)"},{"poiid":"B2094654DB6BA1F84292","title":"金和佳园胶东路","lon":"121.60085","lat":"31.26046","category":"47","category_name":"住宅区","address":"胶东路818弄1-39号"},{"poiid":"B2094757D568A6FC479A","title":"长岛公寓二期","lon":"121.60279","lat":"31.26485","category":"47","category_name":"住宅区","address":"上海市浦东新区长岛路1560弄"},{"poiid":"B2094757D66CA1FF489A","title":"金桥谷","lon":"121.60507633","lat":"31.261504061","category":"500","category_name":"未知分类","address":"上海市浦东新区金高路2216弄"},{"poiid":"B2094654D568A0F94493","title":"上海水木年华沐浴休闲俱乐部","lon":"121.60717","lat":"31.26299","category":"149","category_name":"洗浴推拿场所","address":"浦东新区金高路2216号(近佳高路)"},{"poiid":"B2094757D065A1F84993","title":"金舟苑","lon":"121.60213","lat":"31.262424","category":"252","category_name":"楼宇机构","address":"上海市卢湾区徐家汇路515弄"},{"poiid":"B2094654D568A4F84898","title":"好德便利No.755","lon":"121.60092","lat":"31.26054","category":"117","category_name":"便民商店/便利店","address":"胶东路820"},{"poiid":"B2094655D265A7F44598","title":"中惠广场","lon":"121.60476411347","lat":"31.254284733591","category":"46","category_name":"楼宇","address":"上海浦东新金桥路1088号"},{"poiid":"B2094757D66BA3FE4398","title":"老八样","lon":"121.602201","lat":"31.267495","category":"76","category_name":"上海菜","address":"浦东新区东陆路1519号(近杨高路)"},{"poiid":"B2094654D568ABFA429D","title":"建银大厦","lon":"121.60826198586","lat":"31.258656036676","category":"46","category_name":"楼宇","address":"浦东新区浙桥路289"},{"poiid":"B2094655D26BA1F84698","title":"牟平路长岛路","lon":"121.60064","lat":"31.264","category":"38","category_name":"公交车站","address":""},{"poiid":"B2094757D168A1FA4892","title":"光头烧烤","lon":"121.603451339","lat":"31.2652221472","category":"247","category_name":"餐饮美食","address":"上海金高路1895号"},{"poiid":"B2094757D068A2F5499A","title":"85路终点站","lon":"121.602798462","lat":"31.2660751343","category":"500","category_name":"未知分类","address":"上海长岛路东陆路"},{"poiid":"B2094654D568A4FF4792","title":"山野烤鱼","lon":"121.59936","lat":"31.26567","category":"87","category_name":"特色／地方风味餐厅","address":"上海浦东新区牟平路132号(近长岛路)  "},{"poiid":"B2094655D26CA7F9439C","title":"爱法新都2期","lon":"121.60073","lat":"31.25842","category":"47","category_name":"住宅区","address":"杨高中路18弄1-26号"},{"poiid":"B2094757D66DA5FD4099","title":"中化道达儿加油站","lon":"121.60766923","lat":"31.263325903","category":"154","category_name":"加油加气站","address":"上海杨高北路金海路"},{"poiid":"B2094654D568ABFB499A","title":"之江大厦","lon":"121.6042988808","lat":"31.256786224284","category":"46","category_name":"楼宇","address":"浙桥路55-77"},{"poiid":"B2094757D06BA2F94299","title":"菏泽路胶东路路口","lon":"121.600101","lat":"31.260171","category":"500","category_name":"未知分类","address":"上海菏泽路胶东路路口"},{"poiid":"B2094654DB6BA1F84293","title":"快客","lon":"121.60079","lat":"31.2604","category":"117","category_name":"便民商店/便利店","address":"杨高中路18弄15"},{"poiid":"B2094654D568A0FA409F","title":"快客No.6671","lon":"121.60753","lat":"31.26292","category":"117","category_name":"便民商店/便利店","address":"金高路2105"},{"poiid":"B2094654D568A0F9469B","title":"金石苑","lon":"121.60702","lat":"31.26455","category":"47","category_name":"住宅区","address":"杨高北路5291弄1-30号"}]