[{"poiid":"B2094757D06FA1FA489A","title":"上海玻璃博物馆","lon":"121.46929904","lat":"31.345047099","category":"182","category_name":"博物馆","address":"宝山区长江西路685号(近钢四路)"},{"poiid":"B2094757D068A1F8439B","title":"上海宝诚中环店","lon":"121.4615131","lat":"31.339974877","category":"500","category_name":"未知分类","address":"上海市宝山区长江西路999号"},{"poiid":"B2094654D469ABF9409F","title":"泗塘五村","lon":"121.466","lat":"31.3389","category":"47","category_name":"住宅区","address":"上海虎林路"},{"poiid":"B2094655D36DA7F4499D","title":"泗塘新村","lon":"121.465","lat":"31.3372","category":"38","category_name":"公交车站","address":"上海宝山区长江西路"},{"poiid":"B2094654D469AAFC409E","title":"淞南十村","lon":"121.47403","lat":"31.334885","category":"47","category_name":"住宅区","address":"上海市宝山区新二路"},{"poiid":"B2094757D06FA0FB449B","title":"通河二村","lon":"121.45710475911","lat":"31.341000419025","category":"47","category_name":"住宅区","address":"长江西路1568号"},{"poiid":"B2094654D469ABF9469F","title":"泗塘四村小区","lon":"121.46002","lat":"31.3368","category":"47","category_name":"住宅区","address":""},{"poiid":"B2094757D069AAFE419D","title":"永达福特4S店","lon":"121.46133","lat":"31.339723","category":"500","category_name":"未知分类","address":"宝山区长江西路977号(近江杨南路)"},{"poiid":"B2094757D068A1FB4799","title":"嘉骏香山苑","lon":"121.471118","lat":"31.336197","category":"47","category_name":"住宅区","address":"上海市静安区新闸路1518号"},{"poiid":"B2094654D56DA1FE489E","title":"泗塘七村","lon":"121.467","lat":"31.3364","category":"47","category_name":"住宅区","address":"虎林路58号"},{"poiid":"B2094655D36CA5F9439F","title":"长江西路江杨南路","lon":"121.46631","lat":"31.34127","category":"38","category_name":"公交车站","address":""},{"poiid":"B2094757D069A6FD499E","title":"上海东昌英菲尼迪旗舰店","lon":"121.474134803","lat":"31.3437922572","category":"500","category_name":"未知分类","address":"宝山区长江西路600号"},{"poiid":"B2094654D46AA0FD4392","title":"泗塘一村小区","lon":"121.45582","lat":"31.33941","category":"47","category_name":"住宅区","address":"泗塘新村"},{"poiid":"B2094757D069A4F94399","title":"喜阁亭(长江西路店)","lon":"121.45782","lat":"31.33712","category":"76","category_name":"上海菜","address":"宝山区长江西路1230号(近虎林路)"},{"poiid":"B2094757DB6BA4F4499E","title":"相爷食府","lon":"121.4746065","lat":"31.3375408","category":"76","category_name":"上海菜","address":"宝山区通南路111号(近新二路)"},{"poiid":"B2094757D06AA7FB459D","title":"宝钢不锈钢事业部","lon":"121.469065722","lat":"31.3482048173","category":"46","category_name":"楼宇","address":"上海不知"},{"poiid":"B2094757D06FA6F94092","title":"85度C(虎林店)","lon":"121.458866","lat":"31.335496","category":"112","category_name":"糕饼店","address":"宝山区虎林路313号(近长江西路)"},{"poiid":"B2094757D065A5F94093","title":"MG 4S店","lon":"121.4653621","lat":"31.338357843","category":"249","category_name":"购物服务","address":"上海市宝山区长江西路963号"},{"poiid":"B2094757D06BA5F9449E","title":"淞南九村","lon":"121.475082253","lat":"31.3346223652","category":"47","category_name":"住宅区","address":"上海宝山区淞南九村"},{"poiid":"B2094757D16DA6FC489D","title":"一汽大众宝山店","lon":"121.464641103","lat":"31.3374038234","category":"500","category_name":"未知分类","address":"上海江扬南路"},{"poiid":"B2094757D06FA0F9479F","title":"泗塘一村","lon":"121.46240339826","lat":"31.345710773169","category":"500","category_name":"未知分类","address":"上海宝山区长江西路爱辉路"},{"poiid":"B2094757D065A6FB409B","title":"上海二十一机动车安全检测站","lon":"121.460246","lat":"31.338679","category":"500","category_name":"未知分类","address":"上海长江西路1038号"},{"poiid":"B2094757D068AAFE469D","title":"泗塘二村","lon":"121.46104238731","lat":"31.339332167225","category":"47","category_name":"住宅区","address":"上海宝山区长江西路爱晖路"},{"poiid":"B2094757D66DA4FD429B","title":"上海申通二部","lon":"121.4719001","lat":"31.346243008","category":"500","category_name":"未知分类","address":"上海上钢一长"},{"poiid":"B2094654D46AA2F4479F","title":"上海压缩机有限公司(长江西路)","lon":"121.47039","lat":"31.34288","category":"263","category_name":"公司","address":"长江西路815号"},{"poiid":"B2094654D46AA2F4459B","title":"上海轻玻都市型工业园区","lon":"121.47255","lat":"31.34364","category":"45","category_name":"产业园区","address":"长江西路685号"},{"poiid":"B2094655D36CA2FB449F","title":"三转炉","lon":"121.47314","lat":"31.34368","category":"38","category_name":"公交车站","address":""},{"poiid":"B2094654D469AAFC409B","title":"宝山钢铁股份有限公司冷轧薄板厂","lon":"121.46224","lat":"31.34715","category":"263","category_name":"公司","address":"江杨南路2288"},{"poiid":"B2094757D069ABFB4792","title":"宝景苑","lon":"121.47723","lat":"31.338472","category":"252","category_name":"楼宇机构","address":"上海宝山区通南路55弄"},{"poiid":"B2094757D16BA6FD4593","title":"新贸海","lon":"121.4713431","lat":"31.34253593","category":"500","category_name":"未知分类","address":"上海市宝山区江杨南路"},{"poiid":"B2094751DA6EABFF499A","title":"宾利上海","lon":"121.463745","lat":"31.340881","category":"263","category_name":"公司","address":"长江西路935号"},{"poiid":"B2094757D068A7F8439B","title":"泗塘三村","lon":"121.461","lat":"31.3399","category":"252","category_name":"楼宇机构","address":"上海长江西路泗塘三村"},{"poiid":"B2094757D068A1F9409C","title":"锦通苑","lon":"121.47403","lat":"31.336796","category":"252","category_name":"楼宇机构","address":"上海市宝山区新二路1398弄36号"},{"poiid":"B2094750D664A0F84193","title":"玻璃博物馆咖啡厅","lon":"121.473","lat":"31.3437","category":"260","category_name":"其他","address":"宝山区长江西路685号玻璃博物馆2楼(近钢四路)"},{"poiid":"B2094757D16CA5FE409C","title":"上海建工集团股份有限公司技术中心","lon":"121.466471","lat":"31.337007","category":"46","category_name":"楼宇","address":"上海江杨南路1646号"},{"poiid":"B2094757D66CA6F8429B","title":"上海龙祥汽车销售服务有限公司","lon":"121.4664437","lat":"31.3380432","category":"500","category_name":"未知分类","address":"上海江杨南路1708号(近长江西路)"},{"poiid":"B2094757D064A4FE429F","title":"泗塘八村","lon":"121.466","lat":"31.3365","category":"252","category_name":"楼宇机构","address":"上海市宝山区共江路"},{"poiid":"B2094757DA69A2FA489F","title":"一汽-大众上海锦腾4s店","lon":"121.46595","lat":"31.33776","category":"639","category_name":"汽车交通类公司","address":"江杨南路1706号"},{"poiid":"B2094757D16CA2FF489D","title":"西上海信杰 捷豹路虎4S店","lon":"121.4662051","lat":"31.332297716","category":"500","category_name":"未知分类","address":"上海市宝山区江杨南路1373号"},{"poiid":"B2094757D168A0FD479D","title":"雪铁龙4S场中路店","lon":"121.463363","lat":"31.339375864","category":"500","category_name":"未知分类","address":"上海场中路"},{"poiid":"B2094654DB64A5FE499F","title":"上海宝诚中环汽车销售服务有限公司","lon":"121.46093","lat":"31.33988","category":"158","category_name":"汽车销售","address":"长江西路999号"},{"poiid":"B2094757DA69A1FB489E","title":"上海威仕华凯_MG4S","lon":"121.4632042616","lat":"31.340500072808","category":"639","category_name":"汽车交通类公司","address":"长江西路963号"},{"poiid":"B2094757D568A5FD479E","title":"天安幼儿园","lon":"121.46236491","lat":"31.33897298","category":"57","category_name":"幼儿园","address":"联长路325"},{"poiid":"B2094757D16DA5F94299","title":"三湘海尚","lon":"121.4767795","lat":"31.340800894","category":"47","category_name":"住宅区","address":"上海长江南路888号"},{"poiid":"B2094757D16FA5FD4493","title":"中国移动通信（泗塘营业厅）","lon":"121.46756302","lat":"31.338336717","category":"249","category_name":"购物服务","address":"上海长江西路1260号"},{"poiid":"B2094654DB64A5FE4898","title":"东风本田汽车申银特约销售服务店","lon":"121.46718","lat":"31.33701","category":"159","category_name":"汽车维修","address":"宝山区江杨南路1645号(近联长路)"},{"poiid":"B2094757D06FABFE439F","title":"冷轧薄板厂酸洗车间","lon":"121.46160701","lat":"31.345430512","category":"500","category_name":"未知分类","address":"上海冷轧薄板厂酸洗车间"},{"poiid":"B2094757DA6EA6FB429C","title":"上海锦腾汽车销售服务有限公司","lon":"121.465015411378","lat":"31.3384265811994","category":"263","category_name":"公司","address":"宝山区江杨南路1706号"},{"poiid":"B2094655D36DA0FC439D","title":"新二路","lon":"121.47409","lat":"31.33733","category":"38","category_name":"公交车站","address":"殷高西路"},{"poiid":"B2094752D46AA2F44399","title":"上海申银本业汽车销售有限公司","lon":"121.473435","lat":"31.343292","category":"158","category_name":"汽车销售","address":"宝山区江杨南路1645号"},{"poiid":"B2094757D06FA1FA489A","title":"上海玻璃博物馆","lon":"121.46929904","lat":"31.345047099","category":"182","category_name":"博物馆","address":"宝山区长江西路685号(近钢四路)"},{"poiid":"B2094757D068A1F8439B","title":"上海宝诚中环店","lon":"121.4615131","lat":"31.339974877","category":"500","category_name":"未知分类","address":"上海市宝山区长江西路999号"},{"poiid":"B2094654D469ABF9409F","title":"泗塘五村","lon":"121.466","lat":"31.3389","category":"47","category_name":"住宅区","address":"上海虎林路"},{"poiid":"B2094655D36DA7F4499D","title":"泗塘新村","lon":"121.465","lat":"31.3372","category":"38","category_name":"公交车站","address":"上海宝山区长江西路"},{"poiid":"B2094654D469AAFC409E","title":"淞南十村","lon":"121.47403","lat":"31.334885","category":"47","category_name":"住宅区","address":"上海市宝山区新二路"},{"poiid":"B2094757D06FA0FB449B","title":"通河二村","lon":"121.45710475911","lat":"31.341000419025","category":"47","category_name":"住宅区","address":"长江西路1568号"},{"poiid":"B2094654D469ABF9469F","title":"泗塘四村小区","lon":"121.46002","lat":"31.3368","category":"47","category_name":"住宅区","address":""},{"poiid":"B2094757D069AAFE419D","title":"永达福特4S店","lon":"121.46133","lat":"31.339723","category":"500","category_name":"未知分类","address":"宝山区长江西路977号(近江杨南路)"},{"poiid":"B2094757D068A1FB4799","title":"嘉骏香山苑","lon":"121.471118","lat":"31.336197","category":"47","category_name":"住宅区","address":"上海市静安区新闸路1518号"},{"poiid":"B2094654D56DA1FE489E","title":"泗塘七村","lon":"121.467","lat":"31.3364","category":"47","category_name":"住宅区","address":"虎林路58号"},{"poiid":"B2094655D36CA5F9439F","title":"长江西路江杨南路","lon":"121.46631","lat":"31.34127","category":"38","category_name":"公交车站","address":""},{"poiid":"B2094757D069A6FD499E","title":"上海东昌英菲尼迪旗舰店","lon":"121.474134803","lat":"31.3437922572","category":"500","category_name":"未知分类","address":"宝山区长江西路600号"},{"poiid":"B2094654D46AA0FD4392","title":"泗塘一村小区","lon":"121.45582","lat":"31.33941","category":"47","category_name":"住宅区","address":"泗塘新村"},{"poiid":"B2094757D069A4F94399","title":"喜阁亭(长江西路店)","lon":"121.45782","lat":"31.33712","category":"76","category_name":"上海菜","address":"宝山区长江西路1230号(近虎林路)"},{"poiid":"B2094757DB6BA4F4499E","title":"相爷食府","lon":"121.4746065","lat":"31.3375408","category":"76","category_name":"上海菜","address":"宝山区通南路111号(近新二路)"},{"poiid":"B2094757D06AA7FB459D","title":"宝钢不锈钢事业部","lon":"121.469065722","lat":"31.3482048173","category":"46","category_name":"楼宇","address":"上海不知"},{"poiid":"B2094757D06FA6F94092","title":"85度C(虎林店)","lon":"121.458866","lat":"31.335496","category":"112","category_name":"糕饼店","address":"宝山区虎林路313号(近长江西路)"},{"poiid":"B2094757D065A5F94093","title":"MG 4S店","lon":"121.4653621","lat":"31.338357843","category":"249","category_name":"购物服务","address":"上海市宝山区长江西路963号"},{"poiid":"B2094757D06BA5F9449E","title":"淞南九村","lon":"121.475082253","lat":"31.3346223652","category":"47","category_name":"住宅区","address":"上海宝山区淞南九村"},{"poiid":"B2094757D16DA6FC489D","title":"一汽大众宝山店","lon":"121.464641103","lat":"31.3374038234","category":"500","category_name":"未知分类","address":"上海江扬南路"},{"poiid":"B2094757D06FA0F9479F","title":"泗塘一村","lon":"121.46240339826","lat":"31.345710773169","category":"500","category_name":"未知分类","address":"上海宝山区长江西路爱辉路"},{"poiid":"B2094757D065A6FB409B","title":"上海二十一机动车安全检测站","lon":"121.460246","lat":"31.338679","category":"500","category_name":"未知分类","address":"上海长江西路1038号"},{"poiid":"B2094757D068AAFE469D","title":"泗塘二村","lon":"121.46104238731","lat":"31.339332167225","category":"47","category_name":"住宅区","address":"上海宝山区长江西路爱晖路"},{"poiid":"B2094757D66DA4FD429B","title":"上海申通二部","lon":"121.4719001","lat":"31.346243008","category":"500","category_name":"未知分类","address":"上海上钢一长"},{"poiid":"B2094654D46AA2F4479F","title":"上海压缩机有限公司(长江西路)","lon":"121.47039","lat":"31.34288","category":"263","category_name":"公司","address":"长江西路815号"},{"poiid":"B2094654D46AA2F4459B","title":"上海轻玻都市型工业园区","lon":"121.47255","lat":"31.34364","category":"45","category_name":"产业园区","address":"长江西路685号"},{"poiid":"B2094655D36CA2FB449F","title":"三转炉","lon":"121.47314","lat":"31.34368","category":"38","category_name":"公交车站","address":""},{"poiid":"B2094654D469AAFC409B","title":"宝山钢铁股份有限公司冷轧薄板厂","lon":"121.46224","lat":"31.34715","category":"263","category_name":"公司","address":"江杨南路2288"},{"poiid":"B2094757D069ABFB4792","title":"宝景苑","lon":"121.47723","lat":"31.338472","category":"252","category_name":"楼宇机构","address":"上海宝山区通南路55弄"},{"poiid":"B2094757D16BA6FD4593","title":"新贸海","lon":"121.4713431","lat":"31.34253593","category":"500","category_name":"未知分类","address":"上海市宝山区江杨南路"},{"poiid":"B2094751DA6EABFF499A","title":"宾利上海","lon":"121.463745","lat":"31.340881","category":"263","category_name":"公司","address":"长江西路935号"},{"poiid":"B2094757D068A7F8439B","title":"泗塘三村","lon":"121.461","lat":"31.3399","category":"252","category_name":"楼宇机构","address":"上海长江西路泗塘三村"},{"poiid":"B2094757D068A1F9409C","title":"锦通苑","lon":"121.47403","lat":"31.336796","category":"252","category_name":"楼宇机构","address":"上海市宝山区新二路1398弄36号"},{"poiid":"B2094750D664A0F84193","title":"玻璃博物馆咖啡厅","lon":"121.473","lat":"31.3437","category":"260","category_name":"其他","address":"宝山区长江西路685号玻璃博物馆2楼(近钢四路)"},{"poiid":"B2094757D16CA5FE409C","title":"上海建工集团股份有限公司技术中心","lon":"121.466471","lat":"31.337007","category":"46","category_name":"楼宇","address":"上海江杨南路1646号"},{"poiid":"B2094757D66CA6F8429B","title":"上海龙祥汽车销售服务有限公司","lon":"121.4664437","lat":"31.3380432","category":"500","category_name":"未知分类","address":"上海江杨南路1708号(近长江西路)"},{"poiid":"B2094757D064A4FE429F","title":"泗塘八村","lon":"121.466","lat":"31.3365","category":"252","category_name":"楼宇机构","address":"上海市宝山区共江路"},{"poiid":"B2094757DA69A2FA489F","title":"一汽-大众上海锦腾4s店","lon":"121.46595","lat":"31.33776","category":"639","category_name":"汽车交通类公司","address":"江杨南路1706号"},{"poiid":"B2094757D16CA2FF489D","title":"西上海信杰 捷豹路虎4S店","lon":"121.4662051","lat":"31.332297716","category":"500","category_name":"未知分类","address":"上海市宝山区江杨南路1373号"},{"poiid":"B2094757D168A0FD479D","title":"雪铁龙4S场中路店","lon":"121.463363","lat":"31.339375864","category":"500","category_name":"未知分类","address":"上海场中路"},{"poiid":"B2094654DB64A5FE499F","title":"上海宝诚中环汽车销售服务有限公司","lon":"121.46093","lat":"31.33988","category":"158","category_name":"汽车销售","address":"长江西路999号"},{"poiid":"B2094757DA69A1FB489E","title":"上海威仕华凯_MG4S","lon":"121.4632042616","lat":"31.340500072808","category":"639","category_name":"汽车交通类公司","address":"长江西路963号"},{"poiid":"B2094757D568A5FD479E","title":"天安幼儿园","lon":"121.46236491","lat":"31.33897298","category":"57","category_name":"幼儿园","address":"联长路325"},{"poiid":"B2094757D16DA5F94299","title":"三湘海尚","lon":"121.4767795","lat":"31.340800894","category":"47","category_name":"住宅区","address":"上海长江南路888号"},{"poiid":"B2094757D16FA5FD4493","title":"中国移动通信（泗塘营业厅）","lon":"121.46756302","lat":"31.338336717","category":"249","category_name":"购物服务","address":"上海长江西路1260号"},{"poiid":"B2094654DB64A5FE4898","title":"东风本田汽车申银特约销售服务店","lon":"121.46718","lat":"31.33701","category":"159","category_name":"汽车维修","address":"宝山区江杨南路1645号(近联长路)"},{"poiid":"B2094757D06FABFE439F","title":"冷轧薄板厂酸洗车间","lon":"121.46160701","lat":"31.345430512","category":"500","category_name":"未知分类","address":"上海冷轧薄板厂酸洗车间"},{"poiid":"B2094757DA6EA6FB429C","title":"上海锦腾汽车销售服务有限公司","lon":"121.465015411378","lat":"31.3384265811994","category":"263","category_name":"公司","address":"宝山区江杨南路1706号"},{"poiid":"B2094655D36DA0FC439D","title":"新二路","lon":"121.47409","lat":"31.33733","category":"38","category_name":"公交车站","address":"殷高西路"},{"poiid":"B2094752D46AA2F44399","title":"上海申银本业汽车销售有限公司","lon":"121.473435","lat":"31.343292","category":"158","category_name":"汽车销售","address":"宝山区江杨南路1645号"},{"poiid":"B2094757D06FA1FA489A","title":"上海玻璃博物馆","lon":"121.46929904","lat":"31.345047099","category":"182","category_name":"博物馆","address":"宝山区长江西路685号(近钢四路)"},{"poiid":"B2094757D068A1F8439B","title":"上海宝诚中环店","lon":"121.4615131","lat":"31.339974877","category":"500","category_name":"未知分类","address":"上海市宝山区长江西路999号"},{"poiid":"B2094654D469ABF9409F","title":"泗塘五村","lon":"121.466","lat":"31.3389","category":"47","category_name":"住宅区","address":"上海虎林路"},{"poiid":"B2094655D36DA7F4499D","title":"泗塘新村","lon":"121.465","lat":"31.3372","category":"38","category_name":"公交车站","address":"上海宝山区长江西路"},{"poiid":"B2094654D469AAFC409E","title":"淞南十村","lon":"121.47403","lat":"31.334885","category":"47","category_name":"住宅区","address":"上海市宝山区新二路"},{"poiid":"B2094757D06FA0FB449B","title":"通河二村","lon":"121.45710475911","lat":"31.341000419025","category":"47","category_name":"住宅区","address":"长江西路1568号"},{"poiid":"B2094654D469ABF9469F","title":"泗塘四村小区","lon":"121.46002","lat":"31.3368","category":"47","category_name":"住宅区","address":""},{"poiid":"B2094757D069AAFE419D","title":"永达福特4S店","lon":"121.46133","lat":"31.339723","category":"500","category_name":"未知分类","address":"宝山区长江西路977号(近江杨南路)"},{"poiid":"B2094757D068A1FB4799","title":"嘉骏香山苑","lon":"121.471118","lat":"31.336197","category":"47","category_name":"住宅区","address":"上海市静安区新闸路1518号"},{"poiid":"B2094654D56DA1FE489E","title":"泗塘七村","lon":"121.467","lat":"31.3364","category":"47","category_name":"住宅区","address":"虎林路58号"},{"poiid":"B2094655D36CA5F9439F","title":"长江西路江杨南路","lon":"121.46631","lat":"31.34127","category":"38","category_name":"公交车站","address":""},{"poiid":"B2094757D069A6FD499E","title":"上海东昌英菲尼迪旗舰店","lon":"121.474134803","lat":"31.3437922572","category":"500","category_name":"未知分类","address":"宝山区长江西路600号"},{"poiid":"B2094654D46AA0FD4392","title":"泗塘一村小区","lon":"121.45582","lat":"31.33941","category":"47","category_name":"住宅区","address":"泗塘新村"},{"poiid":"B2094757D069A4F94399","title":"喜阁亭(长江西路店)","lon":"121.45782","lat":"31.33712","category":"76","category_name":"上海菜","address":"宝山区长江西路1230号(近虎林路)"},{"poiid":"B2094757DB6BA4F4499E","title":"相爷食府","lon":"121.4746065","lat":"31.3375408","category":"76","category_name":"上海菜","address":"宝山区通南路111号(近新二路)"},{"poiid":"B2094757D06AA7FB459D","title":"宝钢不锈钢事业部","lon":"121.469065722","lat":"31.3482048173","category":"46","category_name":"楼宇","address":"上海不知"},{"poiid":"B2094757D06FA6F94092","title":"85度C(虎林店)","lon":"121.458866","lat":"31.335496","category":"112","category_name":"糕饼店","address":"宝山区虎林路313号(近长江西路)"},{"poiid":"B2094757D065A5F94093","title":"MG 4S店","lon":"121.4653621","lat":"31.338357843","category":"249","category_name":"购物服务","address":"上海市宝山区长江西路963号"},{"poiid":"B2094757D06BA5F9449E","title":"淞南九村","lon":"121.475082253","lat":"31.3346223652","category":"47","category_name":"住宅区","address":"上海宝山区淞南九村"},{"poiid":"B2094757D16DA6FC489D","title":"一汽大众宝山店","lon":"121.464641103","lat":"31.3374038234","category":"500","category_name":"未知分类","address":"上海江扬南路"},{"poiid":"B2094757D06FA0F9479F","title":"泗塘一村","lon":"121.46240339826","lat":"31.345710773169","category":"500","category_name":"未知分类","address":"上海宝山区长江西路爱辉路"},{"poiid":"B2094757D065A6FB409B","title":"上海二十一机动车安全检测站","lon":"121.460246","lat":"31.338679","category":"500","category_name":"未知分类","address":"上海长江西路1038号"},{"poiid":"B2094757D068AAFE469D","title":"泗塘二村","lon":"121.46104238731","lat":"31.339332167225","category":"47","category_name":"住宅区","address":"上海宝山区长江西路爱晖路"},{"poiid":"B2094757D66DA4FD429B","title":"上海申通二部","lon":"121.4719001","lat":"31.346243008","category":"500","category_name":"未知分类","address":"上海上钢一长"},{"poiid":"B2094654D46AA2F4479F","title":"上海压缩机有限公司(长江西路)","lon":"121.47039","lat":"31.34288","category":"263","category_name":"公司","address":"长江西路815号"},{"poiid":"B2094654D46AA2F4459B","title":"上海轻玻都市型工业园区","lon":"121.47255","lat":"31.34364","category":"45","category_name":"产业园区","address":"长江西路685号"},{"poiid":"B2094655D36CA2FB449F","title":"三转炉","lon":"121.47314","lat":"31.34368","category":"38","category_name":"公交车站","address":""},{"poiid":"B2094654D469AAFC409B","title":"宝山钢铁股份有限公司冷轧薄板厂","lon":"121.46224","lat":"31.34715","category":"263","category_name":"公司","address":"江杨南路2288"},{"poiid":"B2094757D069ABFB4792","title":"宝景苑","lon":"121.47723","lat":"31.338472","category":"252","category_name":"楼宇机构","address":"上海宝山区通南路55弄"},{"poiid":"B2094757D16BA6FD4593","title":"新贸海","lon":"121.4713431","lat":"31.34253593","category":"500","category_name":"未知分类","address":"上海市宝山区江杨南路"},{"poiid":"B2094751DA6EABFF499A","title":"宾利上海","lon":"121.463745","lat":"31.340881","category":"263","category_name":"公司","address":"长江西路935号"},{"poiid":"B2094757D068A7F8439B","title":"泗塘三村","lon":"121.461","lat":"31.3399","category":"252","category_name":"楼宇机构","address":"上海长江西路泗塘三村"},{"poiid":"B2094757D068A1F9409C","title":"锦通苑","lon":"121.47403","lat":"31.336796","category":"252","category_name":"楼宇机构","address":"上海市宝山区新二路1398弄36号"},{"poiid":"B2094750D664A0F84193","title":"玻璃博物馆咖啡厅","lon":"121.473","lat":"31.3437","category":"260","category_name":"其他","address":"宝山区长江西路685号玻璃博物馆2楼(近钢四路)"},{"poiid":"B2094757D16CA5FE409C","title":"上海建工集团股份有限公司技术中心","lon":"121.466471","lat":"31.337007","category":"46","category_name":"楼宇","address":"上海江杨南路1646号"},{"poiid":"B2094757D66CA6F8429B","title":"上海龙祥汽车销售服务有限公司","lon":"121.4664437","lat":"31.3380432","category":"500","category_name":"未知分类","address":"上海江杨南路1708号(近长江西路)"},{"poiid":"B2094757D064A4FE429F","title":"泗塘八村","lon":"121.466","lat":"31.3365","category":"252","category_name":"楼宇机构","address":"上海市宝山区共江路"},{"poiid":"B2094757DA69A2FA489F","title":"一汽-大众上海锦腾4s店","lon":"121.46595","lat":"31.33776","category":"639","category_name":"汽车交通类公司","address":"江杨南路1706号"},{"poiid":"B2094757D16CA2FF489D","title":"西上海信杰 捷豹路虎4S店","lon":"121.4662051","lat":"31.332297716","category":"500","category_name":"未知分类","address":"上海市宝山区江杨南路1373号"},{"poiid":"B2094757D168A0FD479D","title":"雪铁龙4S场中路店","lon":"121.463363","lat":"31.339375864","category":"500","category_name":"未知分类","address":"上海场中路"},{"poiid":"B2094654DB64A5FE499F","title":"上海宝诚中环汽车销售服务有限公司","lon":"121.46093","lat":"31.33988","category":"158","category_name":"汽车销售","address":"长江西路999号"},{"poiid":"B2094757DA69A1FB489E","title":"上海威仕华凯_MG4S","lon":"121.4632042616","lat":"31.340500072808","category":"639","category_name":"汽车交通类公司","address":"长江西路963号"},{"poiid":"B2094757D568A5FD479E","title":"天安幼儿园","lon":"121.46236491","lat":"31.33897298","category":"57","category_name":"幼儿园","address":"联长路325"},{"poiid":"B2094757D16DA5F94299","title":"三湘海尚","lon":"121.4767795","lat":"31.340800894","category":"47","category_name":"住宅区","address":"上海长江南路888号"},{"poiid":"B2094757D16FA5FD4493","title":"中国移动通信（泗塘营业厅）","lon":"121.46756302","lat":"31.338336717","category":"249","category_name":"购物服务","address":"上海长江西路1260号"},{"poiid":"B2094654DB64A5FE4898","title":"东风本田汽车申银特约销售服务店","lon":"121.46718","lat":"31.33701","category":"159","category_name":"汽车维修","address":"宝山区江杨南路1645号(近联长路)"},{"poiid":"B2094757D06FABFE439F","title":"冷轧薄板厂酸洗车间","lon":"121.46160701","lat":"31.345430512","category":"500","category_name":"未知分类","address":"上海冷轧薄板厂酸洗车间"},{"poiid":"B2094757DA6EA6FB429C","title":"上海锦腾汽车销售服务有限公司","lon":"121.465015411378","lat":"31.3384265811994","category":"263","category_name":"公司","address":"宝山区江杨南路1706号"},{"poiid":"B2094655D36DA0FC439D","title":"新二路","lon":"121.47409","lat":"31.33733","category":"38","category_name":"公交车站","address":"殷高西路"},{"poiid":"B2094752D46AA2F44399","title":"上海申银本业汽车销售有限公司","lon":"121.473435","lat":"31.343292","category":"158","category_name":"汽车销售","address":"宝山区江杨南路1645号"},{"poiid":"B2094757D06FA1FA489A","title":"上海玻璃博物馆","lon":"121.46929904","lat":"31.345047099","category":"182","category_name":"博物馆","address":"宝山区长江西路685号(近钢四路)"},{"poiid":"B2094757D068A1F8439B","title":"上海宝诚中环店","lon":"121.4615131","lat":"31.339974877","category":"500","category_name":"未知分类","address":"上海市宝山区长江西路999号"},{"poiid":"B2094654D469ABF9409F","title":"泗塘五村","lon":"121.466","lat":"31.3389","category":"47","category_name":"住宅区","address":"上海虎林路"},{"poiid":"B2094655D36DA7F4499D","title":"泗塘新村","lon":"121.465","lat":"31.3372","category":"38","category_name":"公交车站","address":"上海宝山区长江西路"},{"poiid":"B2094654D469AAFC409E","title":"淞南十村","lon":"121.47403","lat":"31.334885","category":"47","category_name":"住宅区","address":"上海市宝山区新二路"},{"poiid":"B2094757D06FA0FB449B","title":"通河二村","lon":"121.45710475911","lat":"31.341000419025","category":"47","category_name":"住宅区","address":"长江西路1568号"},{"poiid":"B2094654D469ABF9469F","title":"泗塘四村小区","lon":"121.46002","lat":"31.3368","category":"47","category_name":"住宅区","address":""},{"poiid":"B2094757D069AAFE419D","title":"永达福特4S店","lon":"121.46133","lat":"31.339723","category":"500","category_name":"未知分类","address":"宝山区长江西路977号(近江杨南路)"},{"poiid":"B2094757D068A1FB4799","title":"嘉骏香山苑","lon":"121.471118","lat":"31.336197","category":"47","category_name":"住宅区","address":"上海市静安区新闸路1518号"},{"poiid":"B2094654D56DA1FE489E","title":"泗塘七村","lon":"121.467","lat":"31.3364","category":"47","category_name":"住宅区","address":"虎林路58号"},{"poiid":"B2094655D36CA5F9439F","title":"长江西路江杨南路","lon":"121.46631","lat":"31.34127","category":"38","category_name":"公交车站","address":""},{"poiid":"B2094757D069A6FD499E","title":"上海东昌英菲尼迪旗舰店","lon":"121.474134803","lat":"31.3437922572","category":"500","category_name":"未知分类","address":"宝山区长江西路600号"},{"poiid":"B2094654D46AA0FD4392","title":"泗塘一村小区","lon":"121.45582","lat":"31.33941","category":"47","category_name":"住宅区","address":"泗塘新村"},{"poiid":"B2094757D069A4F94399","title":"喜阁亭(长江西路店)","lon":"121.45782","lat":"31.33712","category":"76","category_name":"上海菜","address":"宝山区长江西路1230号(近虎林路)"},{"poiid":"B2094757DB6BA4F4499E","title":"相爷食府","lon":"121.4746065","lat":"31.3375408","category":"76","category_name":"上海菜","address":"宝山区通南路111号(近新二路)"},{"poiid":"B2094757D06AA7FB459D","title":"宝钢不锈钢事业部","lon":"121.469065722","lat":"31.3482048173","category":"46","category_name":"楼宇","address":"上海不知"},{"poiid":"B2094757D06FA6F94092","title":"85度C(虎林店)","lon":"121.458866","lat":"31.335496","category":"112","category_name":"糕饼店","address":"宝山区虎林路313号(近长江西路)"},{"poiid":"B2094757D065A5F94093","title":"MG 4S店","lon":"121.4653621","lat":"31.338357843","category":"249","category_name":"购物服务","address":"上海市宝山区长江西路963号"},{"poiid":"B2094757D06BA5F9449E","title":"淞南九村","lon":"121.475082253","lat":"31.3346223652","category":"47","category_name":"住宅区","address":"上海宝山区淞南九村"},{"poiid":"B2094757D16DA6FC489D","title":"一汽大众宝山店","lon":"121.464641103","lat":"31.3374038234","category":"500","category_name":"未知分类","address":"上海江扬南路"},{"poiid":"B2094757D06FA0F9479F","title":"泗塘一村","lon":"121.46240339826","lat":"31.345710773169","category":"500","category_name":"未知分类","address":"上海宝山区长江西路爱辉路"},{"poiid":"B2094757D065A6FB409B","title":"上海二十一机动车安全检测站","lon":"121.460246","lat":"31.338679","category":"500","category_name":"未知分类","address":"上海长江西路1038号"},{"poiid":"B2094757D068AAFE469D","title":"泗塘二村","lon":"121.46104238731","lat":"31.339332167225","category":"47","category_name":"住宅区","address":"上海宝山区长江西路爱晖路"},{"poiid":"B2094757D66DA4FD429B","title":"上海申通二部","lon":"121.4719001","lat":"31.346243008","category":"500","category_name":"未知分类","address":"上海上钢一长"},{"poiid":"B2094654D46AA2F4479F","title":"上海压缩机有限公司(长江西路)","lon":"121.47039","lat":"31.34288","category":"263","category_name":"公司","address":"长江西路815号"},{"poiid":"B2094654D46AA2F4459B","title":"上海轻玻都市型工业园区","lon":"121.47255","lat":"31.34364","category":"45","category_name":"产业园区","address":"长江西路685号"},{"poiid":"B2094655D36CA2FB449F","title":"三转炉","lon":"121.47314","lat":"31.34368","category":"38","category_name":"公交车站","address":""},{"poiid":"B2094654D469AAFC409B","title":"宝山钢铁股份有限公司冷轧薄板厂","lon":"121.46224","lat":"31.34715","category":"263","category_name":"公司","address":"江杨南路2288"},{"poiid":"B2094757D069ABFB4792","title":"宝景苑","lon":"121.47723","lat":"31.338472","category":"252","category_name":"楼宇机构","address":"上海宝山区通南路55弄"},{"poiid":"B2094757D16BA6FD4593","title":"新贸海","lon":"121.4713431","lat":"31.34253593","category":"500","category_name":"未知分类","address":"上海市宝山区江杨南路"},{"poiid":"B2094751DA6EABFF499A","title":"宾利上海","lon":"121.463745","lat":"31.340881","category":"263","category_name":"公司","address":"长江西路935号"},{"poiid":"B2094757D068A7F8439B","title":"泗塘三村","lon":"121.461","lat":"31.3399","category":"252","category_name":"楼宇机构","address":"上海长江西路泗塘三村"},{"poiid":"B2094757D068A1F9409C","title":"锦通苑","lon":"121.47403","lat":"31.336796","category":"252","category_name":"楼宇机构","address":"上海市宝山区新二路1398弄36号"},{"poiid":"B2094750D664A0F84193","title":"玻璃博物馆咖啡厅","lon":"121.473","lat":"31.3437","category":"260","category_name":"其他","address":"宝山区长江西路685号玻璃博物馆2楼(近钢四路)"},{"poiid":"B2094757D16CA5FE409C","title":"上海建工集团股份有限公司技术中心","lon":"121.466471","lat":"31.337007","category":"46","category_name":"楼宇","address":"上海江杨南路1646号"},{"poiid":"B2094757D66CA6F8429B","title":"上海龙祥汽车销售服务有限公司","lon":"121.4664437","lat":"31.3380432","category":"500","category_name":"未知分类","address":"上海江杨南路1708号(近长江西路)"},{"poiid":"B2094757D064A4FE429F","title":"泗塘八村","lon":"121.466","lat":"31.3365","category":"252","category_name":"楼宇机构","address":"上海市宝山区共江路"},{"poiid":"B2094757DA69A2FA489F","title":"一汽-大众上海锦腾4s店","lon":"121.46595","lat":"31.33776","category":"639","category_name":"汽车交通类公司","address":"江杨南路1706号"},{"poiid":"B2094757D16CA2FF489D","title":"西上海信杰 捷豹路虎4S店","lon":"121.4662051","lat":"31.332297716","category":"500","category_name":"未知分类","address":"上海市宝山区江杨南路1373号"},{"poiid":"B2094757D168A0FD479D","title":"雪铁龙4S场中路店","lon":"121.463363","lat":"31.339375864","category":"500","category_name":"未知分类","address":"上海场中路"},{"poiid":"B2094654DB64A5FE499F","title":"上海宝诚中环汽车销售服务有限公司","lon":"121.46093","lat":"31.33988","category":"158","category_name":"汽车销售","address":"长江西路999号"},{"poiid":"B2094757DA69A1FB489E","title":"上海威仕华凯_MG4S","lon":"121.4632042616","lat":"31.340500072808","category":"639","category_name":"汽车交通类公司","address":"长江西路963号"},{"poiid":"B2094757D568A5FD479E","title":"天安幼儿园","lon":"121.46236491","lat":"31.33897298","category":"57","category_name":"幼儿园","address":"联长路325"},{"poiid":"B2094757D16DA5F94299","title":"三湘海尚","lon":"121.4767795","lat":"31.340800894","category":"47","category_name":"住宅区","address":"上海长江南路888号"},{"poiid":"B2094757D16FA5FD4493","title":"中国移动通信（泗塘营业厅）","lon":"121.46756302","lat":"31.338336717","category":"249","category_name":"购物服务","address":"上海长江西路1260号"},{"poiid":"B2094654DB64A5FE4898","title":"东风本田汽车申银特约销售服务店","lon":"121.46718","lat":"31.33701","category":"159","category_name":"汽车维修","address":"宝山区江杨南路1645号(近联长路)"},{"poiid":"B2094757D06FABFE439F","title":"冷轧薄板厂酸洗车间","lon":"121.46160701","lat":"31.345430512","category":"500","category_name":"未知分类","address":"上海冷轧薄板厂酸洗车间"},{"poiid":"B2094757DA6EA6FB429C","title":"上海锦腾汽车销售服务有限公司","lon":"121.465015411378","lat":"31.3384265811994","category":"263","category_name":"公司","address":"宝山区江杨南路1706号"},{"poiid":"B2094655D36DA0FC439D","title":"新二路","lon":"121.47409","lat":"31.33733","category":"38","category_name":"公交车站","address":"殷高西路"},{"poiid":"B2094752D46AA2F44399","title":"上海申银本业汽车销售有限公司","lon":"121.473435","lat":"31.343292","category":"158","category_name":"汽车销售","address":"宝山区江杨南路1645号"}]