[{"poiid":"B2094757D06FA0F84492","title":"旗忠驾校训练基地","lon":"121.358043","lat":"31.059896","category":"500","category_name":"未知分类","address":"闵行区颛桥光华路2118号(近旗忠村)"},{"poiid":"B2094757D068A7FD469E","title":"得丘园商务会所","lon":"121.371446","lat":"31.077766","category":"217","category_name":"旅馆招待所","address":"闵行区申富路788号"},{"poiid":"B2094757D168A0FF409D","title":"上海市检察官培训中心","lon":"121.361431324","lat":"31.0568952328","category":"500","category_name":"未知分类","address":"上海闵行区昆阳路光华路"},{"poiid":"B2094654DB6EA0F8469E","title":"上海市机动车驾驶员第一培训学校","lon":"121.35804","lat":"31.0599","category":"192","category_name":"驾校","address":"光华路2118"},{"poiid":"B2094757D069A3FD479A","title":"莘庄工业园","lon":"121.37200164","lat":"31.077205658","category":"46","category_name":"楼宇","address":"上海市闵行区申富路789号"},{"poiid":"B2094757DB68A7FE4699","title":"银都驾驶训练基地","lon":"121.345697","lat":"31.072467","category":"253","category_name":"校园生活","address":"申港路298号"},{"poiid":"B2094655D26FA3F4409A","title":"春华苑","lon":"121.35646","lat":"31.07574","category":"47","category_name":"住宅区","address":"虹梅南路126弄1-23号"},{"poiid":"B2094757D06AA6FD499B","title":"莘庄工业区","lon":"121.37030585","lat":"31.066487691","category":"500","category_name":"未知分类","address":"上海市闵行区莘庄工业区"},{"poiid":"B2094654DB6EA0F84992","title":"上海旗忠高尔夫俱乐部","lon":"121.35407","lat":"31.05601","category":"76","category_name":"上海菜","address":"闵行区昆阳北路3888号旗忠高尔夫俱乐部内"},{"poiid":"B2094655D36CA7F5439B","title":"光华路华西路","lon":"121.36608","lat":"31.06242","category":"38","category_name":"公交车站","address":""},{"poiid":"B2094655D36CA2FE499B","title":"旗忠驾驶培训部","lon":"121.35686","lat":"31.05934","category":"38","category_name":"公交车站","address":""},{"poiid":"B2094655D36CA5F9479A","title":"长岛别墅","lon":"121.365","lat":"31.0565","category":"47","category_name":"住宅区","address":"上海市闵行区昆阳北路3558号"},{"poiid":"B2094757D568A0F4499B","title":"上海市公安局交巡警总队车辆管理所第六考试场","lon":"121.35805556","lat":"31.05991428","category":"192","category_name":"驾校","address":"中国上海市闵行区光华路"},{"poiid":"B2094654DB6EA7FF4299","title":"上海纳杰电气成套有限公司","lon":"121.35927","lat":"31.06017","category":"263","category_name":"公司","address":""},{"poiid":"B2094655D26FA3F44792","title":"长岛别墅(东门)","lon":"121.35848","lat":"31.0506","category":"47","category_name":"住宅区","address":"昆阳路3558弄"},{"poiid":"B2094655D26FA3F5429B","title":"春华苑(东南门)","lon":"121.36051","lat":"31.06982","category":"47","category_name":"住宅区","address":""},{"poiid":"B2094654DB6EA0F94398","title":"上海莘闵高科技园区","lon":"121.36937","lat":"31.06384","category":"45","category_name":"产业园区","address":"光华路1508"},{"poiid":"B2094757D168A0F4499E","title":"上海橙果摄影","lon":"121.350372831","lat":"31.0674696757","category":"500","category_name":"未知分类","address":"松江区申港路518号(申徐路申忠路间)查看地图"},{"poiid":"B2094757D66DA1F8409F","title":"上海法官培训基地","lon":"121.342467131","lat":"31.0656326361","category":"253","category_name":"校园生活","address":"上海市光华路2888号"},{"poiid":"B2094757D16FA0FE449C","title":"颛桥税务局","lon":"121.354688857","lat":"31.0625376123","category":"500","category_name":"未知分类","address":"上海市闵行区联农路"},{"poiid":"B2094654DB6EA7FF489F","title":"上海旗忠高尔夫俱乐部练习场","lon":"121.35676","lat":"31.05476","category":"206","category_name":"高尔夫相关","address":"闵行区昆阳北路3888号"},{"poiid":"B2094655D36CA7FC469B","title":"华宁路颛兴路","lon":"121.37441","lat":"31.06025","category":"38","category_name":"公交车站","address":""},{"poiid":"B2094655D36CA0FF489C","title":"金都西路申徐路","lon":"121.35112","lat":"31.0661","category":"38","category_name":"公交车站","address":""},{"poiid":"B2094654DB6AA1FA4693","title":"鑫都城柳岸人家","lon":"121.371","lat":"31.0623","category":"47","category_name":"住宅区","address":"闵行区颛兴路748弄"},{"poiid":"B2094654DB6EA7FF429C","title":"上海南洋-藤仓电缆有限公司(光华路)","lon":"121.35511","lat":"31.05912","category":"263","category_name":"公司","address":"光华路2188"},{"poiid":"B2094654DB6EA0F94399","title":"上海笙翔商标织造有限公司","lon":"121.36869","lat":"31.06314","category":"263","category_name":"公司","address":"光华路1599"},{"poiid":"B2094757D065A3FC479B","title":"奥特斯(中国)有限公司","lon":"121.367153","lat":"31.072211","category":"249","category_name":"购物服务","address":"上海闵行区金都路5000号"},{"poiid":"B2094654DB6EA0F9419B","title":"中房森林","lon":"121.366367","lat":"31.05283","category":"47","category_name":"住宅区","address":"上海市闵行区昆阳路3388号"},{"poiid":"B2094654DB6EA0F54998","title":"上海天为经济城光中路工业小区","lon":"121.37007","lat":"31.06653","category":"47","category_name":"住宅区","address":"华宁路4018弄58号"},{"poiid":"B2094654DB6EA7FF4199","title":"上海昆杰五金工具有限公司","lon":"121.36885","lat":"31.05998","category":"263","category_name":"公司","address":"华宁路3740弄198号"},{"poiid":"B2094654DB6EA0F84993","title":"山水高尔夫别墅","lon":"121.351","lat":"31.0583","category":"47","category_name":"住宅区","address":"曙光路1688弄"},{"poiid":"B2094757D164A6FA499C","title":"森林溪谷","lon":"121.36144485","lat":"31.049821358","category":"47","category_name":"住宅区","address":"闵行区昆阳路3388弄105号"},{"poiid":"B2094654DB6EA0F4439E","title":"小李饮食店(申港路)","lon":"121.35463","lat":"31.06975","category":"257","category_name":"中餐厅","address":""},{"poiid":"B2094750DB68ABF5439C","title":"银都驾校","lon":"121.35054","lat":"31.070642","category":"627","category_name":"一般地点标志","address":"松江区申港路298号(近申徐路)"},{"poiid":"B2094654DB6EA0F4459B","title":"申港饮食店","lon":"121.35209","lat":"31.06879","category":"257","category_name":"中餐厅","address":""},{"poiid":"B2094654DB6EA0F4449D","title":"重庆麻辣烫(汉图展览南)","lon":"121.35372","lat":"31.07011","category":"71","category_name":"四川菜","address":""},{"poiid":"B2094654DB6EA7F54993","title":"上海市地方税务局闵行分局第十三税务所","lon":"121.36699","lat":"31.07168","category":"250","category_name":"公园户外","address":"金都路5119号"},{"poiid":"B2094654DB6EA0F4449E","title":"福建沙县营养小吃(汉图展览南)","lon":"121.35364","lat":"31.07025","category":"68","category_name":"快餐厅","address":""},{"poiid":"B2094654DB6EA0F4479F","title":"上海市建筑科学研究院机械生产基地","lon":"121.35275","lat":"31.06309","category":"191","category_name":"科研机构","address":"申徐路39号(4幢)"},{"poiid":"B2094655D26BABFE4799","title":"上海人济酒店","lon":"121.36378","lat":"31.04834","category":"214","category_name":"四星级宾馆","address":"闵行区昆阳路3558弄(近旗忠高尔夫球场)"},{"poiid":"B2094654DB6EA0F84999","title":"金都派出所","lon":"121.36698","lat":"31.07169","category":"609","category_name":"警察局","address":"闵行区金都路5115号"},{"poiid":"B2094654DB6EA7FE4992","title":"仙泰研发中心","lon":"121.37126","lat":"31.05878","category":"263","category_name":"公司","address":"颛兴路1688"},{"poiid":"B2094654DB6EA0F5409E","title":"上海捷朗光机电有限公司","lon":"121.35362","lat":"31.06728","category":"263","category_name":"公司","address":"金都西路518"},{"poiid":"B2094757D16FABFA469F","title":"小白宫酒店","lon":"121.36136","lat":"31.08055","category":"76","category_name":"上海菜","address":"闵行区银都西路333号(近申南三路)"},{"poiid":"B2094757D06AA0FB469C","title":"华宁路","lon":"121.373209","lat":"31.064894","category":"500","category_name":"未知分类","address":"上海华宁路"},{"poiid":"B2094654DB6EA6FC409A","title":"上海莘闵科技创业园","lon":"121.37053","lat":"31.07306","category":"45","category_name":"产业园区","address":"金都路4299"},{"poiid":"B2094655D26EA5F84393","title":"旗忠公园(南门)","lon":"121.35078","lat":"31.05792","category":"680","category_name":"楼宇机构","address":"马桥镇"},{"poiid":"B2094654DB6EA7F54992","title":"闵行区国家税务局第十三税务所","lon":"121.36698","lat":"31.07169","category":"250","category_name":"公园户外","address":"金都路5119号"},{"poiid":"B2094654DB6EA0F9439A","title":"欧纷泰化工(上海)有限公司","lon":"121.37168","lat":"31.06461","category":"263","category_name":"公司","address":"光华路1258"},{"poiid":"B2094654DB6EA7F5499D","title":"中国船舶重工集团公司第七二六研究所","lon":"121.36428","lat":"31.0711","category":"191","category_name":"科研机构","address":"金都路5200号"},{"poiid":"B2094757D06FA0F84492","title":"旗忠驾校训练基地","lon":"121.358043","lat":"31.059896","category":"500","category_name":"未知分类","address":"闵行区颛桥光华路2118号(近旗忠村)"},{"poiid":"B2094757D068A7FD469E","title":"得丘园商务会所","lon":"121.371446","lat":"31.077766","category":"217","category_name":"旅馆招待所","address":"闵行区申富路788号"},{"poiid":"B2094757D168A0FF409D","title":"上海市检察官培训中心","lon":"121.361431324","lat":"31.0568952328","category":"500","category_name":"未知分类","address":"上海闵行区昆阳路光华路"},{"poiid":"B2094654DB6EA0F8469E","title":"上海市机动车驾驶员第一培训学校","lon":"121.35804","lat":"31.0599","category":"192","category_name":"驾校","address":"光华路2118"},{"poiid":"B2094757D069A3FD479A","title":"莘庄工业园","lon":"121.37200164","lat":"31.077205658","category":"46","category_name":"楼宇","address":"上海市闵行区申富路789号"},{"poiid":"B2094757DB68A7FE4699","title":"银都驾驶训练基地","lon":"121.345697","lat":"31.072467","category":"253","category_name":"校园生活","address":"申港路298号"},{"poiid":"B2094655D26FA3F4409A","title":"春华苑","lon":"121.35646","lat":"31.07574","category":"47","category_name":"住宅区","address":"虹梅南路126弄1-23号"},{"poiid":"B2094757D06AA6FD499B","title":"莘庄工业区","lon":"121.37030585","lat":"31.066487691","category":"500","category_name":"未知分类","address":"上海市闵行区莘庄工业区"},{"poiid":"B2094654DB6EA0F84992","title":"上海旗忠高尔夫俱乐部","lon":"121.35407","lat":"31.05601","category":"76","category_name":"上海菜","address":"闵行区昆阳北路3888号旗忠高尔夫俱乐部内"},{"poiid":"B2094655D36CA7F5439B","title":"光华路华西路","lon":"121.36608","lat":"31.06242","category":"38","category_name":"公交车站","address":""},{"poiid":"B2094655D36CA2FE499B","title":"旗忠驾驶培训部","lon":"121.35686","lat":"31.05934","category":"38","category_name":"公交车站","address":""},{"poiid":"B2094655D36CA5F9479A","title":"长岛别墅","lon":"121.365","lat":"31.0565","category":"47","category_name":"住宅区","address":"上海市闵行区昆阳北路3558号"},{"poiid":"B2094757D568A0F4499B","title":"上海市公安局交巡警总队车辆管理所第六考试场","lon":"121.35805556","lat":"31.05991428","category":"192","category_name":"驾校","address":"中国上海市闵行区光华路"},{"poiid":"B2094654DB6EA7FF4299","title":"上海纳杰电气成套有限公司","lon":"121.35927","lat":"31.06017","category":"263","category_name":"公司","address":""},{"poiid":"B2094655D26FA3F44792","title":"长岛别墅(东门)","lon":"121.35848","lat":"31.0506","category":"47","category_name":"住宅区","address":"昆阳路3558弄"},{"poiid":"B2094655D26FA3F5429B","title":"春华苑(东南门)","lon":"121.36051","lat":"31.06982","category":"47","category_name":"住宅区","address":""},{"poiid":"B2094654DB6EA0F94398","title":"上海莘闵高科技园区","lon":"121.36937","lat":"31.06384","category":"45","category_name":"产业园区","address":"光华路1508"},{"poiid":"B2094757D168A0F4499E","title":"上海橙果摄影","lon":"121.350372831","lat":"31.0674696757","category":"500","category_name":"未知分类","address":"松江区申港路518号(申徐路申忠路间)查看地图"},{"poiid":"B2094757D66DA1F8409F","title":"上海法官培训基地","lon":"121.342467131","lat":"31.0656326361","category":"253","category_name":"校园生活","address":"上海市光华路2888号"},{"poiid":"B2094757D16FA0FE449C","title":"颛桥税务局","lon":"121.354688857","lat":"31.0625376123","category":"500","category_name":"未知分类","address":"上海市闵行区联农路"},{"poiid":"B2094654DB6EA7FF489F","title":"上海旗忠高尔夫俱乐部练习场","lon":"121.35676","lat":"31.05476","category":"206","category_name":"高尔夫相关","address":"闵行区昆阳北路3888号"},{"poiid":"B2094655D36CA7FC469B","title":"华宁路颛兴路","lon":"121.37441","lat":"31.06025","category":"38","category_name":"公交车站","address":""},{"poiid":"B2094655D36CA0FF489C","title":"金都西路申徐路","lon":"121.35112","lat":"31.0661","category":"38","category_name":"公交车站","address":""},{"poiid":"B2094654DB6AA1FA4693","title":"鑫都城柳岸人家","lon":"121.371","lat":"31.0623","category":"47","category_name":"住宅区","address":"闵行区颛兴路748弄"},{"poiid":"B2094654DB6EA7FF429C","title":"上海南洋-藤仓电缆有限公司(光华路)","lon":"121.35511","lat":"31.05912","category":"263","category_name":"公司","address":"光华路2188"},{"poiid":"B2094654DB6EA0F94399","title":"上海笙翔商标织造有限公司","lon":"121.36869","lat":"31.06314","category":"263","category_name":"公司","address":"光华路1599"},{"poiid":"B2094757D065A3FC479B","title":"奥特斯(中国)有限公司","lon":"121.367153","lat":"31.072211","category":"249","category_name":"购物服务","address":"上海闵行区金都路5000号"},{"poiid":"B2094654DB6EA0F9419B","title":"中房森林","lon":"121.366367","lat":"31.05283","category":"47","category_name":"住宅区","address":"上海市闵行区昆阳路3388号"},{"poiid":"B2094654DB6EA0F54998","title":"上海天为经济城光中路工业小区","lon":"121.37007","lat":"31.06653","category":"47","category_name":"住宅区","address":"华宁路4018弄58号"},{"poiid":"B2094654DB6EA7FF4199","title":"上海昆杰五金工具有限公司","lon":"121.36885","lat":"31.05998","category":"263","category_name":"公司","address":"华宁路3740弄198号"},{"poiid":"B2094654DB6EA0F84993","title":"山水高尔夫别墅","lon":"121.351","lat":"31.0583","category":"47","category_name":"住宅区","address":"曙光路1688弄"},{"poiid":"B2094757D164A6FA499C","title":"森林溪谷","lon":"121.36144485","lat":"31.049821358","category":"47","category_name":"住宅区","address":"闵行区昆阳路3388弄105号"},{"poiid":"B2094654DB6EA0F4439E","title":"小李饮食店(申港路)","lon":"121.35463","lat":"31.06975","category":"257","category_name":"中餐厅","address":""},{"poiid":"B2094750DB68ABF5439C","title":"银都驾校","lon":"121.35054","lat":"31.070642","category":"627","category_name":"一般地点标志","address":"松江区申港路298号(近申徐路)"},{"poiid":"B2094654DB6EA0F4459B","title":"申港饮食店","lon":"121.35209","lat":"31.06879","category":"257","category_name":"中餐厅","address":""},{"poiid":"B2094654DB6EA0F4449D","title":"重庆麻辣烫(汉图展览南)","lon":"121.35372","lat":"31.07011","category":"71","category_name":"四川菜","address":""},{"poiid":"B2094654DB6EA7F54993","title":"上海市地方税务局闵行分局第十三税务所","lon":"121.36699","lat":"31.07168","category":"250","category_name":"公园户外","address":"金都路5119号"},{"poiid":"B2094654DB6EA0F4449E","title":"福建沙县营养小吃(汉图展览南)","lon":"121.35364","lat":"31.07025","category":"68","category_name":"快餐厅","address":""},{"poiid":"B2094654DB6EA0F4479F","title":"上海市建筑科学研究院机械生产基地","lon":"121.35275","lat":"31.06309","category":"191","category_name":"科研机构","address":"申徐路39号(4幢)"},{"poiid":"B2094655D26BABFE4799","title":"上海人济酒店","lon":"121.36378","lat":"31.04834","category":"214","category_name":"四星级宾馆","address":"闵行区昆阳路3558弄(近旗忠高尔夫球场)"},{"poiid":"B2094654DB6EA0F84999","title":"金都派出所","lon":"121.36698","lat":"31.07169","category":"609","category_name":"警察局","address":"闵行区金都路5115号"},{"poiid":"B2094654DB6EA7FE4992","title":"仙泰研发中心","lon":"121.37126","lat":"31.05878","category":"263","category_name":"公司","address":"颛兴路1688"},{"poiid":"B2094654DB6EA0F5409E","title":"上海捷朗光机电有限公司","lon":"121.35362","lat":"31.06728","category":"263","category_name":"公司","address":"金都西路518"},{"poiid":"B2094757D16FABFA469F","title":"小白宫酒店","lon":"121.36136","lat":"31.08055","category":"76","category_name":"上海菜","address":"闵行区银都西路333号(近申南三路)"},{"poiid":"B2094757D06AA0FB469C","title":"华宁路","lon":"121.373209","lat":"31.064894","category":"500","category_name":"未知分类","address":"上海华宁路"},{"poiid":"B2094654DB6EA6FC409A","title":"上海莘闵科技创业园","lon":"121.37053","lat":"31.07306","category":"45","category_name":"产业园区","address":"金都路4299"},{"poiid":"B2094655D26EA5F84393","title":"旗忠公园(南门)","lon":"121.35078","lat":"31.05792","category":"680","category_name":"楼宇机构","address":"马桥镇"},{"poiid":"B2094654DB6EA7F54992","title":"闵行区国家税务局第十三税务所","lon":"121.36698","lat":"31.07169","category":"250","category_name":"公园户外","address":"金都路5119号"},{"poiid":"B2094654DB6EA0F9439A","title":"欧纷泰化工(上海)有限公司","lon":"121.37168","lat":"31.06461","category":"263","category_name":"公司","address":"光华路1258"},{"poiid":"B2094654DB6EA7F5499D","title":"中国船舶重工集团公司第七二六研究所","lon":"121.36428","lat":"31.0711","category":"191","category_name":"科研机构","address":"金都路5200号"},{"poiid":"B2094757D06FA0F84492","title":"旗忠驾校训练基地","lon":"121.358043","lat":"31.059896","category":"500","category_name":"未知分类","address":"闵行区颛桥光华路2118号(近旗忠村)"},{"poiid":"B2094757D068A7FD469E","title":"得丘园商务会所","lon":"121.371446","lat":"31.077766","category":"217","category_name":"旅馆招待所","address":"闵行区申富路788号"},{"poiid":"B2094757D168A0FF409D","title":"上海市检察官培训中心","lon":"121.361431324","lat":"31.0568952328","category":"500","category_name":"未知分类","address":"上海闵行区昆阳路光华路"},{"poiid":"B2094654DB6EA0F8469E","title":"上海市机动车驾驶员第一培训学校","lon":"121.35804","lat":"31.0599","category":"192","category_name":"驾校","address":"光华路2118"},{"poiid":"B2094757D069A3FD479A","title":"莘庄工业园","lon":"121.37200164","lat":"31.077205658","category":"46","category_name":"楼宇","address":"上海市闵行区申富路789号"},{"poiid":"B2094757DB68A7FE4699","title":"银都驾驶训练基地","lon":"121.345697","lat":"31.072467","category":"253","category_name":"校园生活","address":"申港路298号"},{"poiid":"B2094655D26FA3F4409A","title":"春华苑","lon":"121.35646","lat":"31.07574","category":"47","category_name":"住宅区","address":"虹梅南路126弄1-23号"},{"poiid":"B2094757D06AA6FD499B","title":"莘庄工业区","lon":"121.37030585","lat":"31.066487691","category":"500","category_name":"未知分类","address":"上海市闵行区莘庄工业区"},{"poiid":"B2094654DB6EA0F84992","title":"上海旗忠高尔夫俱乐部","lon":"121.35407","lat":"31.05601","category":"76","category_name":"上海菜","address":"闵行区昆阳北路3888号旗忠高尔夫俱乐部内"},{"poiid":"B2094655D36CA7F5439B","title":"光华路华西路","lon":"121.36608","lat":"31.06242","category":"38","category_name":"公交车站","address":""},{"poiid":"B2094655D36CA2FE499B","title":"旗忠驾驶培训部","lon":"121.35686","lat":"31.05934","category":"38","category_name":"公交车站","address":""},{"poiid":"B2094655D36CA5F9479A","title":"长岛别墅","lon":"121.365","lat":"31.0565","category":"47","category_name":"住宅区","address":"上海市闵行区昆阳北路3558号"},{"poiid":"B2094757D568A0F4499B","title":"上海市公安局交巡警总队车辆管理所第六考试场","lon":"121.35805556","lat":"31.05991428","category":"192","category_name":"驾校","address":"中国上海市闵行区光华路"},{"poiid":"B2094654DB6EA7FF4299","title":"上海纳杰电气成套有限公司","lon":"121.35927","lat":"31.06017","category":"263","category_name":"公司","address":""},{"poiid":"B2094655D26FA3F44792","title":"长岛别墅(东门)","lon":"121.35848","lat":"31.0506","category":"47","category_name":"住宅区","address":"昆阳路3558弄"},{"poiid":"B2094655D26FA3F5429B","title":"春华苑(东南门)","lon":"121.36051","lat":"31.06982","category":"47","category_name":"住宅区","address":""},{"poiid":"B2094654DB6EA0F94398","title":"上海莘闵高科技园区","lon":"121.36937","lat":"31.06384","category":"45","category_name":"产业园区","address":"光华路1508"},{"poiid":"B2094757D168A0F4499E","title":"上海橙果摄影","lon":"121.350372831","lat":"31.0674696757","category":"500","category_name":"未知分类","address":"松江区申港路518号(申徐路申忠路间)查看地图"},{"poiid":"B2094757D66DA1F8409F","title":"上海法官培训基地","lon":"121.342467131","lat":"31.0656326361","category":"253","category_name":"校园生活","address":"上海市光华路2888号"},{"poiid":"B2094757D16FA0FE449C","title":"颛桥税务局","lon":"121.354688857","lat":"31.0625376123","category":"500","category_name":"未知分类","address":"上海市闵行区联农路"},{"poiid":"B2094654DB6EA7FF489F","title":"上海旗忠高尔夫俱乐部练习场","lon":"121.35676","lat":"31.05476","category":"206","category_name":"高尔夫相关","address":"闵行区昆阳北路3888号"},{"poiid":"B2094655D36CA7FC469B","title":"华宁路颛兴路","lon":"121.37441","lat":"31.06025","category":"38","category_name":"公交车站","address":""},{"poiid":"B2094655D36CA0FF489C","title":"金都西路申徐路","lon":"121.35112","lat":"31.0661","category":"38","category_name":"公交车站","address":""},{"poiid":"B2094654DB6AA1FA4693","title":"鑫都城柳岸人家","lon":"121.371","lat":"31.0623","category":"47","category_name":"住宅区","address":"闵行区颛兴路748弄"},{"poiid":"B2094654DB6EA7FF429C","title":"上海南洋-藤仓电缆有限公司(光华路)","lon":"121.35511","lat":"31.05912","category":"263","category_name":"公司","address":"光华路2188"},{"poiid":"B2094654DB6EA0F94399","title":"上海笙翔商标织造有限公司","lon":"121.36869","lat":"31.06314","category":"263","category_name":"公司","address":"光华路1599"},{"poiid":"B2094757D065A3FC479B","title":"奥特斯(中国)有限公司","lon":"121.367153","lat":"31.072211","category":"249","category_name":"购物服务","address":"上海闵行区金都路5000号"},{"poiid":"B2094654DB6EA0F9419B","title":"中房森林","lon":"121.366367","lat":"31.05283","category":"47","category_name":"住宅区","address":"上海市闵行区昆阳路3388号"},{"poiid":"B2094654DB6EA0F54998","title":"上海天为经济城光中路工业小区","lon":"121.37007","lat":"31.06653","category":"47","category_name":"住宅区","address":"华宁路4018弄58号"},{"poiid":"B2094654DB6EA7FF4199","title":"上海昆杰五金工具有限公司","lon":"121.36885","lat":"31.05998","category":"263","category_name":"公司","address":"华宁路3740弄198号"},{"poiid":"B2094654DB6EA0F84993","title":"山水高尔夫别墅","lon":"121.351","lat":"31.0583","category":"47","category_name":"住宅区","address":"曙光路1688弄"},{"poiid":"B2094757D164A6FA499C","title":"森林溪谷","lon":"121.36144485","lat":"31.049821358","category":"47","category_name":"住宅区","address":"闵行区昆阳路3388弄105号"},{"poiid":"B2094654DB6EA0F4439E","title":"小李饮食店(申港路)","lon":"121.35463","lat":"31.06975","category":"257","category_name":"中餐厅","address":""},{"poiid":"B2094750DB68ABF5439C","title":"银都驾校","lon":"121.35054","lat":"31.070642","category":"627","category_name":"一般地点标志","address":"松江区申港路298号(近申徐路)"},{"poiid":"B2094654DB6EA0F4459B","title":"申港饮食店","lon":"121.35209","lat":"31.06879","category":"257","category_name":"中餐厅","address":""},{"poiid":"B2094654DB6EA0F4449D","title":"重庆麻辣烫(汉图展览南)","lon":"121.35372","lat":"31.07011","category":"71","category_name":"四川菜","address":""},{"poiid":"B2094654DB6EA7F54993","title":"上海市地方税务局闵行分局第十三税务所","lon":"121.36699","lat":"31.07168","category":"250","category_name":"公园户外","address":"金都路5119号"},{"poiid":"B2094654DB6EA0F4449E","title":"福建沙县营养小吃(汉图展览南)","lon":"121.35364","lat":"31.07025","category":"68","category_name":"快餐厅","address":""},{"poiid":"B2094654DB6EA0F4479F","title":"上海市建筑科学研究院机械生产基地","lon":"121.35275","lat":"31.06309","category":"191","category_name":"科研机构","address":"申徐路39号(4幢)"},{"poiid":"B2094655D26BABFE4799","title":"上海人济酒店","lon":"121.36378","lat":"31.04834","category":"214","category_name":"四星级宾馆","address":"闵行区昆阳路3558弄(近旗忠高尔夫球场)"},{"poiid":"B2094654DB6EA0F84999","title":"金都派出所","lon":"121.36698","lat":"31.07169","category":"609","category_name":"警察局","address":"闵行区金都路5115号"},{"poiid":"B2094654DB6EA7FE4992","title":"仙泰研发中心","lon":"121.37126","lat":"31.05878","category":"263","category_name":"公司","address":"颛兴路1688"},{"poiid":"B2094654DB6EA0F5409E","title":"上海捷朗光机电有限公司","lon":"121.35362","lat":"31.06728","category":"263","category_name":"公司","address":"金都西路518"},{"poiid":"B2094757D16FABFA469F","title":"小白宫酒店","lon":"121.36136","lat":"31.08055","category":"76","category_name":"上海菜","address":"闵行区银都西路333号(近申南三路)"},{"poiid":"B2094757D06AA0FB469C","title":"华宁路","lon":"121.373209","lat":"31.064894","category":"500","category_name":"未知分类","address":"上海华宁路"},{"poiid":"B2094654DB6EA6FC409A","title":"上海莘闵科技创业园","lon":"121.37053","lat":"31.07306","category":"45","category_name":"产业园区","address":"金都路4299"},{"poiid":"B2094655D26EA5F84393","title":"旗忠公园(南门)","lon":"121.35078","lat":"31.05792","category":"680","category_name":"楼宇机构","address":"马桥镇"},{"poiid":"B2094654DB6EA7F54992","title":"闵行区国家税务局第十三税务所","lon":"121.36698","lat":"31.07169","category":"250","category_name":"公园户外","address":"金都路5119号"},{"poiid":"B2094654DB6EA0F9439A","title":"欧纷泰化工(上海)有限公司","lon":"121.37168","lat":"31.06461","category":"263","category_name":"公司","address":"光华路1258"},{"poiid":"B2094654DB6EA7F5499D","title":"中国船舶重工集团公司第七二六研究所","lon":"121.36428","lat":"31.0711","category":"191","category_name":"科研机构","address":"金都路5200号"}]