[{"poiid":"B2094654D56FABF44092","title":"新南华大酒店五角场店","lon":"121.51967","lat":"31.30274","category":"250","category_name":"公园户外","address":"杨浦区国和路51号(近政旦东路)"},{"poiid":"B2094751D469A1FE489B","title":"西九巷咖啡（五角场店）","lon":"121.517806","lat":"31.304554","category":"65","category_name":"咖啡厅","address":"杨浦区政通路132-1号(近国济路)"},{"poiid":"B2094757D06FA3F54692","title":"江湾游泳池","lon":"121.51884","lat":"31.30675","category":"220","category_name":"运动场所","address":"杨浦区国和路346号(近政立路)"},{"poiid":"B2094757D06FA7FF479B","title":"金米箩大酒店(五角场店)","lon":"121.5192","lat":"31.30395","category":"76","category_name":"上海菜","address":"杨浦区翔殷路1088号凯迪金融大厦4楼(近国和路)"},{"poiid":"B2094655D26AAAFA449D","title":"五角场万达广场","lon":"121.520106","lat":"31.305715","category":"72","category_name":"广东菜","address":"杨浦区邯郸路600号万达广场第一食品店5楼近淞沪路国宾路;;"},{"poiid":"B2094654D56FA1F9419B","title":"上海基督教沪东堂","lon":"121.51884","lat":"31.30827","category":"245","category_name":"教堂","address":"杨浦区国和路350号(国和路政立路)"},{"poiid":"B2094757D169A7F8489B","title":"长海医院六号楼","lon":"121.523173103","lat":"31.3084360171","category":"162","category_name":"医院","address":"上海长海路168号"},{"poiid":"B2094655D26EA4FB4798","title":"金米萝大酒店(杨浦店)","lon":"121.51895","lat":"31.30404","category":"250","category_name":"公园户外","address":"杨浦区国和路60号"},{"poiid":"B2094757D06BA0F9439A","title":"第二军医大学继续教育学院","lon":"121.520428","lat":"31.305016","category":"253","category_name":"校园生活","address":"上海政通路41号"},{"poiid":"B2094757D065A5F8469A","title":"又一会","lon":"121.51566","lat":"31.30174","category":"72","category_name":"广东菜","address":"杨浦区淞沪路8号百联又一城7楼北侧(近邯郸路)"},{"poiid":"B2094655D26AA7FB449F","title":"江湾体育场足球场","lon":"121.51909","lat":"31.30708","category":"247","category_name":"餐饮美食","address":"杨浦区国和路346号江湾体育馆(近政立路)"},{"poiid":"B2094757D06FA4FB4892","title":"天行健瑜伽健身会所","lon":"121.51888","lat":"31.30732","category":"221","category_name":"健身中心","address":"杨浦区国和路346号江湾体育场内10号看台152号(近邯郸路)"},{"poiid":"B2094757D66DA7F44093","title":"火锅传奇(五角场店)","lon":"121.518724103","lat":"31.3064921764","category":"247","category_name":"餐饮美食","address":"上海五角场百联又一城"},{"poiid":"B2094655D26DA4FD459C","title":"江湾体育中心综合体育馆","lon":"121.51842","lat":"31.30756","category":"224","category_name":"综合体育馆","address":""},{"poiid":"B2094654D56FABF84092","title":"沪东金融大厦","lon":"121.523","lat":"31.307","category":"46","category_name":"楼宇","address":"越秀区环市东路362-366号"},{"poiid":"B2094750D464AAFA469B","title":"巫山烤鱼","lon":"121.517814","lat":"31.306459","category":"247","category_name":"餐饮美食","address":"五角场"},{"poiid":"B2094654D56FABF4489E","title":"同济中学(政立路)","lon":"121.52196","lat":"31.3076","category":"55","category_name":"中学","address":"政立路20号"},{"poiid":"B2094654D56EA4FC4198","title":"中环国际大厦","lon":"121.52","lat":"31.3093","category":"46","category_name":"楼宇","address":"上海市四川北路1851号"},{"poiid":"B2094757D06FABFE4399","title":"五角场花鸟市场","lon":"121.52073","lat":"31.31018","category":"249","category_name":"购物服务","address":"上海杨浦区国和路493号(近长海医院)  "},{"poiid":"B2094757D56DA6F94392","title":"模子奶茶MuziNazu","lon":"121.52136325836182","lat":"31.3034517550005","category":"247","category_name":"餐饮美食","address":"杨浦区翔殷路938号A9西(近国和路)"},{"poiid":"B2094654D56FABFA4598","title":"金太子形象设计政通路店(政通路)","lon":"121.51831","lat":"31.30423","category":"148","category_name":"美容美发店","address":"杨浦区政通路81号(近国和路)"},{"poiid":"B2094757D069A5FB439E","title":"中环五角场匝道口","lon":"121.519314","lat":"31.305076","category":"500","category_name":"未知分类","address":"上海国和路政通路"},{"poiid":"B2094757D568AAF5409C","title":"百联购物又一城","lon":"121.522566","lat":"31.306448","category":"249","category_name":"购物服务","address":"杨浦区淞沪路8号(近邯郸路)"},{"poiid":"B2094750D26AABFC489C","title":"上海明高高尔夫俱乐部","lon":"121.51939887829587","lat":"31.306802535654885","category":"206","category_name":"高尔夫相关","address":"杨浦区国和路346号"},{"poiid":"B2094654DB64A6F94492","title":"上岛咖啡 长海路店 UBC Coffee","lon":"121.520090054","lat":"31.309342793","category":"260","category_name":"其他","address":"杨浦区长海路560号(国和路)"},{"poiid":"B2094655D26FA0F8409B","title":"江湾体育中心(东门)","lon":"121.51906","lat":"31.30716","category":"224","category_name":"综合体育馆","address":"国和路346号"},{"poiid":"B2094654DB6BA2FA4892","title":"江湾体育场(六号门)","lon":"121.51628","lat":"31.30522","category":"224","category_name":"综合体育馆","address":"政通路108号"},{"poiid":"B2094654D56FABF8499B","title":"平盛大厦","lon":"121.522","lat":"31.3087","category":"46","category_name":"楼宇","address":"丰台学城海鹰路1号,3号"},{"poiid":"B2094757D568A4F4499C","title":"五角丰达商务广场","lon":"121.51834337","lat":"31.30299696","category":"46","category_name":"楼宇","address":"五角场政益路8号(近国和路)"},{"poiid":"B2094654D56FABF4429A","title":"稻谷鸡美食林 五角场店","lon":"121.519647054","lat":"31.304047793","category":"68","category_name":"快餐厅","address":"杨浦区国和路81号(政通路口)"},{"poiid":"B2094654D56FABF4439C","title":"上海市六一小学","lon":"121.52154","lat":"31.30499","category":"56","category_name":"小学","address":"杨浦区政通路25号(近国和路)"},{"poiid":"B2094750DA65A6F9469D","title":"共青森林公园","lon":"121.517395","lat":"31.303913","category":"250","category_name":"公园户外","address":null},{"poiid":"B2094757D065A4FD4692","title":"五角场镇派出所","lon":"121.51943192","lat":"31.308267826","category":"609","category_name":"警察局","address":"上海杨浦区政立路56号"},{"poiid":"B2094655D26CA5FC4992","title":"政通路40-42弄小区","lon":"121.52062","lat":"31.30573","category":"47","category_name":"住宅区","address":"政通路40-42弄"},{"poiid":"B2094757D66CA3FF409F","title":"上海歌城(吴中路店)","lon":"121.5196671","lat":"31.307259192","category":"170","category_name":"KTV","address":"上海吴中路"},{"poiid":"B2094753D165A2FE4893","title":"冰火名家巫山烤全鱼","lon":"121.518688","lat":"31.306443","category":"247","category_name":"餐饮美食","address":"上海市 政通路132号"},{"poiid":"B209475DDB6CA1FE4393","title":"五角场万达广场","lon":"121.521919","lat":"31.306192","category":"247","category_name":"餐饮美食","address":"上海市 上海市杨浦区邯郸路600号"},{"poiid":"B2094654D56FABF4479E","title":"政立路80弄住宅小区(北门)","lon":"121.51994","lat":"31.3078","category":"47","category_name":"住宅区","address":"政立路80弄1-18号"},{"poiid":"B2094750D26CA5F44593","title":"避风塘","lon":"121.5204989651532","lat":"31.30947483559236","category":"68","category_name":"快餐厅","address":"杨浦区政立路56号(近国和路)"},{"poiid":"B2094655D26FA1FF469B","title":"营房小区","lon":"121.52164","lat":"31.30694","category":"47","category_name":"住宅区","address":"政衷路36弄1-6号"},{"poiid":"B2094654D56FABF4429B","title":"咩咩小羊 国和店","lon":"121.51968191681","lat":"31.304495324565","category":"86","category_name":"火锅店","address":"杨浦区国和路81号(近政通路)"},{"poiid":"B2094655D36CA7F4409A","title":"国和路政通路","lon":"121.51933","lat":"31.30508","category":"38","category_name":"公交车站","address":""},{"poiid":"B2094757D66BA6F8419C","title":"巴蜀餐厅","lon":"121.522541054","lat":"31.305975793","category":"71","category_name":"四川菜","address":"杨浦区政通路16号(近黑山路)"},{"poiid":"B2094757D465A4FF459E","title":"休闲岛","lon":"121.51928","lat":"31.30972","category":"68","category_name":"快餐厅","address":"杨浦区国和路489号(近长海路)"},{"poiid":"B2094757D16DA7FC449A","title":"创智天地1号楼","lon":"121.5190029","lat":"31.307981507","category":"500","category_name":"未知分类","address":"上海杨浦区淞沪路政立路"},{"poiid":"B2094654D56FABFB479D","title":"政通新苑","lon":"121.51855","lat":"31.305019","category":"47","category_name":"住宅区","address":"政通新苑位于杨浦政通路70弄"},{"poiid":"B2094654D56EA4FC419E","title":"邯郸路500-524弄住宅小区","lon":"121.519","lat":"31.3051","category":"47","category_name":"住宅区","address":"邯郸路500-524弄"},{"poiid":"B2094757D168A7FA409A","title":"942","lon":"121.519380203","lat":"31.3060433671","category":"249","category_name":"购物服务","address":"上海车上"},{"poiid":"B2094655D26CA7FE469D","title":"江湾体育场(四号门)","lon":"121.51798","lat":"31.30769","category":"224","category_name":"综合体育馆","address":"政立路120号"},{"poiid":"B2094757D16BA3F44592","title":"宾皇夜总会","lon":"121.521433103","lat":"31.3072581925","category":"500","category_name":"未知分类","address":"上海长海路"},{"poiid":"B2094654D56FABF44092","title":"新南华大酒店五角场店","lon":"121.51967","lat":"31.30274","category":"250","category_name":"公园户外","address":"杨浦区国和路51号(近政旦东路)"},{"poiid":"B2094751D469A1FE489B","title":"西九巷咖啡（五角场店）","lon":"121.517806","lat":"31.304554","category":"65","category_name":"咖啡厅","address":"杨浦区政通路132-1号(近国济路)"},{"poiid":"B2094757D06FA3F54692","title":"江湾游泳池","lon":"121.51884","lat":"31.30675","category":"220","category_name":"运动场所","address":"杨浦区国和路346号(近政立路)"},{"poiid":"B2094757D06FA7FF479B","title":"金米箩大酒店(五角场店)","lon":"121.5192","lat":"31.30395","category":"76","category_name":"上海菜","address":"杨浦区翔殷路1088号凯迪金融大厦4楼(近国和路)"},{"poiid":"B2094655D26AAAFA449D","title":"五角场万达广场","lon":"121.520106","lat":"31.305715","category":"72","category_name":"广东菜","address":"杨浦区邯郸路600号万达广场第一食品店5楼近淞沪路国宾路;;"},{"poiid":"B2094654D56FA1F9419B","title":"上海基督教沪东堂","lon":"121.51884","lat":"31.30827","category":"245","category_name":"教堂","address":"杨浦区国和路350号(国和路政立路)"},{"poiid":"B2094757D169A7F8489B","title":"长海医院六号楼","lon":"121.523173103","lat":"31.3084360171","category":"162","category_name":"医院","address":"上海长海路168号"},{"poiid":"B2094655D26EA4FB4798","title":"金米萝大酒店(杨浦店)","lon":"121.51895","lat":"31.30404","category":"250","category_name":"公园户外","address":"杨浦区国和路60号"},{"poiid":"B2094757D06BA0F9439A","title":"第二军医大学继续教育学院","lon":"121.520428","lat":"31.305016","category":"253","category_name":"校园生活","address":"上海政通路41号"},{"poiid":"B2094757D065A5F8469A","title":"又一会","lon":"121.51566","lat":"31.30174","category":"72","category_name":"广东菜","address":"杨浦区淞沪路8号百联又一城7楼北侧(近邯郸路)"},{"poiid":"B2094655D26AA7FB449F","title":"江湾体育场足球场","lon":"121.51909","lat":"31.30708","category":"247","category_name":"餐饮美食","address":"杨浦区国和路346号江湾体育馆(近政立路)"},{"poiid":"B2094757D06FA4FB4892","title":"天行健瑜伽健身会所","lon":"121.51888","lat":"31.30732","category":"221","category_name":"健身中心","address":"杨浦区国和路346号江湾体育场内10号看台152号(近邯郸路)"},{"poiid":"B2094757D66DA7F44093","title":"火锅传奇(五角场店)","lon":"121.518724103","lat":"31.3064921764","category":"247","category_name":"餐饮美食","address":"上海五角场百联又一城"},{"poiid":"B2094655D26DA4FD459C","title":"江湾体育中心综合体育馆","lon":"121.51842","lat":"31.30756","category":"224","category_name":"综合体育馆","address":""},{"poiid":"B2094654D56FABF84092","title":"沪东金融大厦","lon":"121.523","lat":"31.307","category":"46","category_name":"楼宇","address":"越秀区环市东路362-366号"},{"poiid":"B2094750D464AAFA469B","title":"巫山烤鱼","lon":"121.517814","lat":"31.306459","category":"247","category_name":"餐饮美食","address":"五角场"},{"poiid":"B2094654D56FABF4489E","title":"同济中学(政立路)","lon":"121.52196","lat":"31.3076","category":"55","category_name":"中学","address":"政立路20号"},{"poiid":"B2094654D56EA4FC4198","title":"中环国际大厦","lon":"121.52","lat":"31.3093","category":"46","category_name":"楼宇","address":"上海市四川北路1851号"},{"poiid":"B2094757D06FABFE4399","title":"五角场花鸟市场","lon":"121.52073","lat":"31.31018","category":"249","category_name":"购物服务","address":"上海杨浦区国和路493号(近长海医院)  "},{"poiid":"B2094757D56DA6F94392","title":"模子奶茶MuziNazu","lon":"121.52136325836182","lat":"31.3034517550005","category":"247","category_name":"餐饮美食","address":"杨浦区翔殷路938号A9西(近国和路)"},{"poiid":"B2094654D56FABFA4598","title":"金太子形象设计政通路店(政通路)","lon":"121.51831","lat":"31.30423","category":"148","category_name":"美容美发店","address":"杨浦区政通路81号(近国和路)"},{"poiid":"B2094757D069A5FB439E","title":"中环五角场匝道口","lon":"121.519314","lat":"31.305076","category":"500","category_name":"未知分类","address":"上海国和路政通路"},{"poiid":"B2094757D568AAF5409C","title":"百联购物又一城","lon":"121.522566","lat":"31.306448","category":"249","category_name":"购物服务","address":"杨浦区淞沪路8号(近邯郸路)"},{"poiid":"B2094750D26AABFC489C","title":"上海明高高尔夫俱乐部","lon":"121.51939887829587","lat":"31.306802535654885","category":"206","category_name":"高尔夫相关","address":"杨浦区国和路346号"},{"poiid":"B2094654DB64A6F94492","title":"上岛咖啡 长海路店 UBC Coffee","lon":"121.520090054","lat":"31.309342793","category":"260","category_name":"其他","address":"杨浦区长海路560号(国和路)"},{"poiid":"B2094655D26FA0F8409B","title":"江湾体育中心(东门)","lon":"121.51906","lat":"31.30716","category":"224","category_name":"综合体育馆","address":"国和路346号"},{"poiid":"B2094654DB6BA2FA4892","title":"江湾体育场(六号门)","lon":"121.51628","lat":"31.30522","category":"224","category_name":"综合体育馆","address":"政通路108号"},{"poiid":"B2094654D56FABF8499B","title":"平盛大厦","lon":"121.522","lat":"31.3087","category":"46","category_name":"楼宇","address":"丰台学城海鹰路1号,3号"},{"poiid":"B2094757D568A4F4499C","title":"五角丰达商务广场","lon":"121.51834337","lat":"31.30299696","category":"46","category_name":"楼宇","address":"五角场政益路8号(近国和路)"},{"poiid":"B2094654D56FABF4429A","title":"稻谷鸡美食林 五角场店","lon":"121.519647054","lat":"31.304047793","category":"68","category_name":"快餐厅","address":"杨浦区国和路81号(政通路口)"},{"poiid":"B2094654D56FABF4439C","title":"上海市六一小学","lon":"121.52154","lat":"31.30499","category":"56","category_name":"小学","address":"杨浦区政通路25号(近国和路)"},{"poiid":"B2094750DA65A6F9469D","title":"共青森林公园","lon":"121.517395","lat":"31.303913","category":"250","category_name":"公园户外","address":null},{"poiid":"B2094757D065A4FD4692","title":"五角场镇派出所","lon":"121.51943192","lat":"31.308267826","category":"609","category_name":"警察局","address":"上海杨浦区政立路56号"},{"poiid":"B2094655D26CA5FC4992","title":"政通路40-42弄小区","lon":"121.52062","lat":"31.30573","category":"47","category_name":"住宅区","address":"政通路40-42弄"},{"poiid":"B2094757D66CA3FF409F","title":"上海歌城(吴中路店)","lon":"121.5196671","lat":"31.307259192","category":"170","category_name":"KTV","address":"上海吴中路"},{"poiid":"B2094753D165A2FE4893","title":"冰火名家巫山烤全鱼","lon":"121.518688","lat":"31.306443","category":"247","category_name":"餐饮美食","address":"上海市 政通路132号"},{"poiid":"B209475DDB6CA1FE4393","title":"五角场万达广场","lon":"121.521919","lat":"31.306192","category":"247","category_name":"餐饮美食","address":"上海市 上海市杨浦区邯郸路600号"},{"poiid":"B2094654D56FABF4479E","title":"政立路80弄住宅小区(北门)","lon":"121.51994","lat":"31.3078","category":"47","category_name":"住宅区","address":"政立路80弄1-18号"},{"poiid":"B2094750D26CA5F44593","title":"避风塘","lon":"121.5204989651532","lat":"31.30947483559236","category":"68","category_name":"快餐厅","address":"杨浦区政立路56号(近国和路)"},{"poiid":"B2094655D26FA1FF469B","title":"营房小区","lon":"121.52164","lat":"31.30694","category":"47","category_name":"住宅区","address":"政衷路36弄1-6号"},{"poiid":"B2094654D56FABF4429B","title":"咩咩小羊 国和店","lon":"121.51968191681","lat":"31.304495324565","category":"86","category_name":"火锅店","address":"杨浦区国和路81号(近政通路)"},{"poiid":"B2094655D36CA7F4409A","title":"国和路政通路","lon":"121.51933","lat":"31.30508","category":"38","category_name":"公交车站","address":""},{"poiid":"B2094757D66BA6F8419C","title":"巴蜀餐厅","lon":"121.522541054","lat":"31.305975793","category":"71","category_name":"四川菜","address":"杨浦区政通路16号(近黑山路)"},{"poiid":"B2094757D465A4FF459E","title":"休闲岛","lon":"121.51928","lat":"31.30972","category":"68","category_name":"快餐厅","address":"杨浦区国和路489号(近长海路)"},{"poiid":"B2094757D16DA7FC449A","title":"创智天地1号楼","lon":"121.5190029","lat":"31.307981507","category":"500","category_name":"未知分类","address":"上海杨浦区淞沪路政立路"},{"poiid":"B2094654D56FABFB479D","title":"政通新苑","lon":"121.51855","lat":"31.305019","category":"47","category_name":"住宅区","address":"政通新苑位于杨浦政通路70弄"},{"poiid":"B2094654D56EA4FC419E","title":"邯郸路500-524弄住宅小区","lon":"121.519","lat":"31.3051","category":"47","category_name":"住宅区","address":"邯郸路500-524弄"},{"poiid":"B2094757D168A7FA409A","title":"942","lon":"121.519380203","lat":"31.3060433671","category":"249","category_name":"购物服务","address":"上海车上"},{"poiid":"B2094655D26CA7FE469D","title":"江湾体育场(四号门)","lon":"121.51798","lat":"31.30769","category":"224","category_name":"综合体育馆","address":"政立路120号"},{"poiid":"B2094757D16BA3F44592","title":"宾皇夜总会","lon":"121.521433103","lat":"31.3072581925","category":"500","category_name":"未知分类","address":"上海长海路"},{"poiid":"B2094654D56FABF44092","title":"新南华大酒店五角场店","lon":"121.51967","lat":"31.30274","category":"250","category_name":"公园户外","address":"杨浦区国和路51号(近政旦东路)"},{"poiid":"B2094751D469A1FE489B","title":"西九巷咖啡（五角场店）","lon":"121.517806","lat":"31.304554","category":"65","category_name":"咖啡厅","address":"杨浦区政通路132-1号(近国济路)"},{"poiid":"B2094757D06FA3F54692","title":"江湾游泳池","lon":"121.51884","lat":"31.30675","category":"220","category_name":"运动场所","address":"杨浦区国和路346号(近政立路)"},{"poiid":"B2094757D06FA7FF479B","title":"金米箩大酒店(五角场店)","lon":"121.5192","lat":"31.30395","category":"76","category_name":"上海菜","address":"杨浦区翔殷路1088号凯迪金融大厦4楼(近国和路)"},{"poiid":"B2094655D26AAAFA449D","title":"五角场万达广场","lon":"121.520106","lat":"31.305715","category":"72","category_name":"广东菜","address":"杨浦区邯郸路600号万达广场第一食品店5楼近淞沪路国宾路;;"},{"poiid":"B2094654D56FA1F9419B","title":"上海基督教沪东堂","lon":"121.51884","lat":"31.30827","category":"245","category_name":"教堂","address":"杨浦区国和路350号(国和路政立路)"},{"poiid":"B2094757D169A7F8489B","title":"长海医院六号楼","lon":"121.523173103","lat":"31.3084360171","category":"162","category_name":"医院","address":"上海长海路168号"},{"poiid":"B2094655D26EA4FB4798","title":"金米萝大酒店(杨浦店)","lon":"121.51895","lat":"31.30404","category":"250","category_name":"公园户外","address":"杨浦区国和路60号"},{"poiid":"B2094757D06BA0F9439A","title":"第二军医大学继续教育学院","lon":"121.520428","lat":"31.305016","category":"253","category_name":"校园生活","address":"上海政通路41号"},{"poiid":"B2094757D065A5F8469A","title":"又一会","lon":"121.51566","lat":"31.30174","category":"72","category_name":"广东菜","address":"杨浦区淞沪路8号百联又一城7楼北侧(近邯郸路)"},{"poiid":"B2094655D26AA7FB449F","title":"江湾体育场足球场","lon":"121.51909","lat":"31.30708","category":"247","category_name":"餐饮美食","address":"杨浦区国和路346号江湾体育馆(近政立路)"},{"poiid":"B2094757D06FA4FB4892","title":"天行健瑜伽健身会所","lon":"121.51888","lat":"31.30732","category":"221","category_name":"健身中心","address":"杨浦区国和路346号江湾体育场内10号看台152号(近邯郸路)"},{"poiid":"B2094757D66DA7F44093","title":"火锅传奇(五角场店)","lon":"121.518724103","lat":"31.3064921764","category":"247","category_name":"餐饮美食","address":"上海五角场百联又一城"},{"poiid":"B2094655D26DA4FD459C","title":"江湾体育中心综合体育馆","lon":"121.51842","lat":"31.30756","category":"224","category_name":"综合体育馆","address":""},{"poiid":"B2094654D56FABF84092","title":"沪东金融大厦","lon":"121.523","lat":"31.307","category":"46","category_name":"楼宇","address":"越秀区环市东路362-366号"},{"poiid":"B2094750D464AAFA469B","title":"巫山烤鱼","lon":"121.517814","lat":"31.306459","category":"247","category_name":"餐饮美食","address":"五角场"},{"poiid":"B2094654D56FABF4489E","title":"同济中学(政立路)","lon":"121.52196","lat":"31.3076","category":"55","category_name":"中学","address":"政立路20号"},{"poiid":"B2094654D56EA4FC4198","title":"中环国际大厦","lon":"121.52","lat":"31.3093","category":"46","category_name":"楼宇","address":"上海市四川北路1851号"},{"poiid":"B2094757D06FABFE4399","title":"五角场花鸟市场","lon":"121.52073","lat":"31.31018","category":"249","category_name":"购物服务","address":"上海杨浦区国和路493号(近长海医院)  "},{"poiid":"B2094757D56DA6F94392","title":"模子奶茶MuziNazu","lon":"121.52136325836182","lat":"31.3034517550005","category":"247","category_name":"餐饮美食","address":"杨浦区翔殷路938号A9西(近国和路)"},{"poiid":"B2094654D56FABFA4598","title":"金太子形象设计政通路店(政通路)","lon":"121.51831","lat":"31.30423","category":"148","category_name":"美容美发店","address":"杨浦区政通路81号(近国和路)"},{"poiid":"B2094757D069A5FB439E","title":"中环五角场匝道口","lon":"121.519314","lat":"31.305076","category":"500","category_name":"未知分类","address":"上海国和路政通路"},{"poiid":"B2094757D568AAF5409C","title":"百联购物又一城","lon":"121.522566","lat":"31.306448","category":"249","category_name":"购物服务","address":"杨浦区淞沪路8号(近邯郸路)"},{"poiid":"B2094750D26AABFC489C","title":"上海明高高尔夫俱乐部","lon":"121.51939887829587","lat":"31.306802535654885","category":"206","category_name":"高尔夫相关","address":"杨浦区国和路346号"},{"poiid":"B2094654DB64A6F94492","title":"上岛咖啡 长海路店 UBC Coffee","lon":"121.520090054","lat":"31.309342793","category":"260","category_name":"其他","address":"杨浦区长海路560号(国和路)"},{"poiid":"B2094655D26FA0F8409B","title":"江湾体育中心(东门)","lon":"121.51906","lat":"31.30716","category":"224","category_name":"综合体育馆","address":"国和路346号"},{"poiid":"B2094654DB6BA2FA4892","title":"江湾体育场(六号门)","lon":"121.51628","lat":"31.30522","category":"224","category_name":"综合体育馆","address":"政通路108号"},{"poiid":"B2094654D56FABF8499B","title":"平盛大厦","lon":"121.522","lat":"31.3087","category":"46","category_name":"楼宇","address":"丰台学城海鹰路1号,3号"},{"poiid":"B2094757D568A4F4499C","title":"五角丰达商务广场","lon":"121.51834337","lat":"31.30299696","category":"46","category_name":"楼宇","address":"五角场政益路8号(近国和路)"},{"poiid":"B2094654D56FABF4429A","title":"稻谷鸡美食林 五角场店","lon":"121.519647054","lat":"31.304047793","category":"68","category_name":"快餐厅","address":"杨浦区国和路81号(政通路口)"},{"poiid":"B2094654D56FABF4439C","title":"上海市六一小学","lon":"121.52154","lat":"31.30499","category":"56","category_name":"小学","address":"杨浦区政通路25号(近国和路)"},{"poiid":"B2094750DA65A6F9469D","title":"共青森林公园","lon":"121.517395","lat":"31.303913","category":"250","category_name":"公园户外","address":null},{"poiid":"B2094757D065A4FD4692","title":"五角场镇派出所","lon":"121.51943192","lat":"31.308267826","category":"609","category_name":"警察局","address":"上海杨浦区政立路56号"},{"poiid":"B2094655D26CA5FC4992","title":"政通路40-42弄小区","lon":"121.52062","lat":"31.30573","category":"47","category_name":"住宅区","address":"政通路40-42弄"},{"poiid":"B2094757D66CA3FF409F","title":"上海歌城(吴中路店)","lon":"121.5196671","lat":"31.307259192","category":"170","category_name":"KTV","address":"上海吴中路"},{"poiid":"B2094753D165A2FE4893","title":"冰火名家巫山烤全鱼","lon":"121.518688","lat":"31.306443","category":"247","category_name":"餐饮美食","address":"上海市 政通路132号"},{"poiid":"B209475DDB6CA1FE4393","title":"五角场万达广场","lon":"121.521919","lat":"31.306192","category":"247","category_name":"餐饮美食","address":"上海市 上海市杨浦区邯郸路600号"},{"poiid":"B2094654D56FABF4479E","title":"政立路80弄住宅小区(北门)","lon":"121.51994","lat":"31.3078","category":"47","category_name":"住宅区","address":"政立路80弄1-18号"},{"poiid":"B2094750D26CA5F44593","title":"避风塘","lon":"121.5204989651532","lat":"31.30947483559236","category":"68","category_name":"快餐厅","address":"杨浦区政立路56号(近国和路)"},{"poiid":"B2094655D26FA1FF469B","title":"营房小区","lon":"121.52164","lat":"31.30694","category":"47","category_name":"住宅区","address":"政衷路36弄1-6号"},{"poiid":"B2094654D56FABF4429B","title":"咩咩小羊 国和店","lon":"121.51968191681","lat":"31.304495324565","category":"86","category_name":"火锅店","address":"杨浦区国和路81号(近政通路)"},{"poiid":"B2094655D36CA7F4409A","title":"国和路政通路","lon":"121.51933","lat":"31.30508","category":"38","category_name":"公交车站","address":""},{"poiid":"B2094757D66BA6F8419C","title":"巴蜀餐厅","lon":"121.522541054","lat":"31.305975793","category":"71","category_name":"四川菜","address":"杨浦区政通路16号(近黑山路)"},{"poiid":"B2094757D465A4FF459E","title":"休闲岛","lon":"121.51928","lat":"31.30972","category":"68","category_name":"快餐厅","address":"杨浦区国和路489号(近长海路)"},{"poiid":"B2094757D16DA7FC449A","title":"创智天地1号楼","lon":"121.5190029","lat":"31.307981507","category":"500","category_name":"未知分类","address":"上海杨浦区淞沪路政立路"},{"poiid":"B2094654D56FABFB479D","title":"政通新苑","lon":"121.51855","lat":"31.305019","category":"47","category_name":"住宅区","address":"政通新苑位于杨浦政通路70弄"},{"poiid":"B2094654D56EA4FC419E","title":"邯郸路500-524弄住宅小区","lon":"121.519","lat":"31.3051","category":"47","category_name":"住宅区","address":"邯郸路500-524弄"},{"poiid":"B2094757D168A7FA409A","title":"942","lon":"121.519380203","lat":"31.3060433671","category":"249","category_name":"购物服务","address":"上海车上"},{"poiid":"B2094655D26CA7FE469D","title":"江湾体育场(四号门)","lon":"121.51798","lat":"31.30769","category":"224","category_name":"综合体育馆","address":"政立路120号"},{"poiid":"B2094757D16BA3F44592","title":"宾皇夜总会","lon":"121.521433103","lat":"31.3072581925","category":"500","category_name":"未知分类","address":"上海长海路"},{"poiid":"B2094654D56FABF44092","title":"新南华大酒店五角场店","lon":"121.51967","lat":"31.30274","category":"250","category_name":"公园户外","address":"杨浦区国和路51号(近政旦东路)"},{"poiid":"B2094751D469A1FE489B","title":"西九巷咖啡（五角场店）","lon":"121.517806","lat":"31.304554","category":"65","category_name":"咖啡厅","address":"杨浦区政通路132-1号(近国济路)"},{"poiid":"B2094757D06FA3F54692","title":"江湾游泳池","lon":"121.51884","lat":"31.30675","category":"220","category_name":"运动场所","address":"杨浦区国和路346号(近政立路)"},{"poiid":"B2094757D06FA7FF479B","title":"金米箩大酒店(五角场店)","lon":"121.5192","lat":"31.30395","category":"76","category_name":"上海菜","address":"杨浦区翔殷路1088号凯迪金融大厦4楼(近国和路)"},{"poiid":"B2094655D26AAAFA449D","title":"五角场万达广场","lon":"121.520106","lat":"31.305715","category":"72","category_name":"广东菜","address":"杨浦区邯郸路600号万达广场第一食品店5楼近淞沪路国宾路;;"},{"poiid":"B2094654D56FA1F9419B","title":"上海基督教沪东堂","lon":"121.51884","lat":"31.30827","category":"245","category_name":"教堂","address":"杨浦区国和路350号(国和路政立路)"},{"poiid":"B2094757D169A7F8489B","title":"长海医院六号楼","lon":"121.523173103","lat":"31.3084360171","category":"162","category_name":"医院","address":"上海长海路168号"},{"poiid":"B2094655D26EA4FB4798","title":"金米萝大酒店(杨浦店)","lon":"121.51895","lat":"31.30404","category":"250","category_name":"公园户外","address":"杨浦区国和路60号"},{"poiid":"B2094757D06BA0F9439A","title":"第二军医大学继续教育学院","lon":"121.520428","lat":"31.305016","category":"253","category_name":"校园生活","address":"上海政通路41号"},{"poiid":"B2094757D065A5F8469A","title":"又一会","lon":"121.51566","lat":"31.30174","category":"72","category_name":"广东菜","address":"杨浦区淞沪路8号百联又一城7楼北侧(近邯郸路)"},{"poiid":"B2094655D26AA7FB449F","title":"江湾体育场足球场","lon":"121.51909","lat":"31.30708","category":"247","category_name":"餐饮美食","address":"杨浦区国和路346号江湾体育馆(近政立路)"},{"poiid":"B2094757D06FA4FB4892","title":"天行健瑜伽健身会所","lon":"121.51888","lat":"31.30732","category":"221","category_name":"健身中心","address":"杨浦区国和路346号江湾体育场内10号看台152号(近邯郸路)"},{"poiid":"B2094757D66DA7F44093","title":"火锅传奇(五角场店)","lon":"121.518724103","lat":"31.3064921764","category":"247","category_name":"餐饮美食","address":"上海五角场百联又一城"},{"poiid":"B2094655D26DA4FD459C","title":"江湾体育中心综合体育馆","lon":"121.51842","lat":"31.30756","category":"224","category_name":"综合体育馆","address":""},{"poiid":"B2094654D56FABF84092","title":"沪东金融大厦","lon":"121.523","lat":"31.307","category":"46","category_name":"楼宇","address":"越秀区环市东路362-366号"},{"poiid":"B2094750D464AAFA469B","title":"巫山烤鱼","lon":"121.517814","lat":"31.306459","category":"247","category_name":"餐饮美食","address":"五角场"},{"poiid":"B2094654D56FABF4489E","title":"同济中学(政立路)","lon":"121.52196","lat":"31.3076","category":"55","category_name":"中学","address":"政立路20号"},{"poiid":"B2094654D56EA4FC4198","title":"中环国际大厦","lon":"121.52","lat":"31.3093","category":"46","category_name":"楼宇","address":"上海市四川北路1851号"},{"poiid":"B2094757D06FABFE4399","title":"五角场花鸟市场","lon":"121.52073","lat":"31.31018","category":"249","category_name":"购物服务","address":"上海杨浦区国和路493号(近长海医院)  "},{"poiid":"B2094757D56DA6F94392","title":"模子奶茶MuziNazu","lon":"121.52136325836182","lat":"31.3034517550005","category":"247","category_name":"餐饮美食","address":"杨浦区翔殷路938号A9西(近国和路)"},{"poiid":"B2094654D56FABFA4598","title":"金太子形象设计政通路店(政通路)","lon":"121.51831","lat":"31.30423","category":"148","category_name":"美容美发店","address":"杨浦区政通路81号(近国和路)"},{"poiid":"B2094757D069A5FB439E","title":"中环五角场匝道口","lon":"121.519314","lat":"31.305076","category":"500","category_name":"未知分类","address":"上海国和路政通路"},{"poiid":"B2094757D568AAF5409C","title":"百联购物又一城","lon":"121.522566","lat":"31.306448","category":"249","category_name":"购物服务","address":"杨浦区淞沪路8号(近邯郸路)"},{"poiid":"B2094750D26AABFC489C","title":"上海明高高尔夫俱乐部","lon":"121.51939887829587","lat":"31.306802535654885","category":"206","category_name":"高尔夫相关","address":"杨浦区国和路346号"},{"poiid":"B2094654DB64A6F94492","title":"上岛咖啡 长海路店 UBC Coffee","lon":"121.520090054","lat":"31.309342793","category":"260","category_name":"其他","address":"杨浦区长海路560号(国和路)"},{"poiid":"B2094655D26FA0F8409B","title":"江湾体育中心(东门)","lon":"121.51906","lat":"31.30716","category":"224","category_name":"综合体育馆","address":"国和路346号"},{"poiid":"B2094654DB6BA2FA4892","title":"江湾体育场(六号门)","lon":"121.51628","lat":"31.30522","category":"224","category_name":"综合体育馆","address":"政通路108号"},{"poiid":"B2094654D56FABF8499B","title":"平盛大厦","lon":"121.522","lat":"31.3087","category":"46","category_name":"楼宇","address":"丰台学城海鹰路1号,3号"},{"poiid":"B2094757D568A4F4499C","title":"五角丰达商务广场","lon":"121.51834337","lat":"31.30299696","category":"46","category_name":"楼宇","address":"五角场政益路8号(近国和路)"},{"poiid":"B2094654D56FABF4429A","title":"稻谷鸡美食林 五角场店","lon":"121.519647054","lat":"31.304047793","category":"68","category_name":"快餐厅","address":"杨浦区国和路81号(政通路口)"},{"poiid":"B2094654D56FABF4439C","title":"上海市六一小学","lon":"121.52154","lat":"31.30499","category":"56","category_name":"小学","address":"杨浦区政通路25号(近国和路)"},{"poiid":"B2094750DA65A6F9469D","title":"共青森林公园","lon":"121.517395","lat":"31.303913","category":"250","category_name":"公园户外","address":null},{"poiid":"B2094757D065A4FD4692","title":"五角场镇派出所","lon":"121.51943192","lat":"31.308267826","category":"609","category_name":"警察局","address":"上海杨浦区政立路56号"},{"poiid":"B2094655D26CA5FC4992","title":"政通路40-42弄小区","lon":"121.52062","lat":"31.30573","category":"47","category_name":"住宅区","address":"政通路40-42弄"},{"poiid":"B2094757D66CA3FF409F","title":"上海歌城(吴中路店)","lon":"121.5196671","lat":"31.307259192","category":"170","category_name":"KTV","address":"上海吴中路"},{"poiid":"B2094753D165A2FE4893","title":"冰火名家巫山烤全鱼","lon":"121.518688","lat":"31.306443","category":"247","category_name":"餐饮美食","address":"上海市 政通路132号"},{"poiid":"B209475DDB6CA1FE4393","title":"五角场万达广场","lon":"121.521919","lat":"31.306192","category":"247","category_name":"餐饮美食","address":"上海市 上海市杨浦区邯郸路600号"},{"poiid":"B2094654D56FABF4479E","title":"政立路80弄住宅小区(北门)","lon":"121.51994","lat":"31.3078","category":"47","category_name":"住宅区","address":"政立路80弄1-18号"},{"poiid":"B2094750D26CA5F44593","title":"避风塘","lon":"121.5204989651532","lat":"31.30947483559236","category":"68","category_name":"快餐厅","address":"杨浦区政立路56号(近国和路)"},{"poiid":"B2094655D26FA1FF469B","title":"营房小区","lon":"121.52164","lat":"31.30694","category":"47","category_name":"住宅区","address":"政衷路36弄1-6号"},{"poiid":"B2094654D56FABF4429B","title":"咩咩小羊 国和店","lon":"121.51968191681","lat":"31.304495324565","category":"86","category_name":"火锅店","address":"杨浦区国和路81号(近政通路)"},{"poiid":"B2094655D36CA7F4409A","title":"国和路政通路","lon":"121.51933","lat":"31.30508","category":"38","category_name":"公交车站","address":""},{"poiid":"B2094757D66BA6F8419C","title":"巴蜀餐厅","lon":"121.522541054","lat":"31.305975793","category":"71","category_name":"四川菜","address":"杨浦区政通路16号(近黑山路)"},{"poiid":"B2094757D465A4FF459E","title":"休闲岛","lon":"121.51928","lat":"31.30972","category":"68","category_name":"快餐厅","address":"杨浦区国和路489号(近长海路)"},{"poiid":"B2094757D16DA7FC449A","title":"创智天地1号楼","lon":"121.5190029","lat":"31.307981507","category":"500","category_name":"未知分类","address":"上海杨浦区淞沪路政立路"},{"poiid":"B2094654D56FABFB479D","title":"政通新苑","lon":"121.51855","lat":"31.305019","category":"47","category_name":"住宅区","address":"政通新苑位于杨浦政通路70弄"},{"poiid":"B2094654D56EA4FC419E","title":"邯郸路500-524弄住宅小区","lon":"121.519","lat":"31.3051","category":"47","category_name":"住宅区","address":"邯郸路500-524弄"},{"poiid":"B2094757D168A7FA409A","title":"942","lon":"121.519380203","lat":"31.3060433671","category":"249","category_name":"购物服务","address":"上海车上"},{"poiid":"B2094655D26CA7FE469D","title":"江湾体育场(四号门)","lon":"121.51798","lat":"31.30769","category":"224","category_name":"综合体育馆","address":"政立路120号"},{"poiid":"B2094757D16BA3F44592","title":"宾皇夜总会","lon":"121.521433103","lat":"31.3072581925","category":"500","category_name":"未知分类","address":"上海长海路"}]