[{"poiid":"B2094757D068A6F4499D","title":"杨浦区房地产交易中心","lon":"121.51926285","lat":"31.283139442","category":"46","category_name":"楼宇","address":"上海杨浦区长岭路111号"},{"poiid":"B2094655D26CA7F54593","title":"凤城三村","lon":"121.51731","lat":"31.28038","category":"47","category_name":"住宅区","address":"上海杨浦区延吉西路江浦路"},{"poiid":"B2094750D26EABFA4098","title":"虹口龙之梦","lon":"121.515884","lat":"31.280075","category":"500","category_name":"未知分类","address":"西江湾路388号"},{"poiid":"B2094757D168A6FD4398","title":"同济大学中芬中心","lon":"121.514669103","lat":"31.2831076874","category":"500","category_name":"未知分类","address":"上海彰武路100号"},{"poiid":"B2094757D06FA0F84398","title":"大运盛","lon":"121.519403","lat":"31.284925","category":"47","category_name":"住宅区","address":"上海杨浦区中山北二路99弄"},{"poiid":"B2094757D06FA5FA4398","title":"杨浦区教师进修学院","lon":"121.5124424","lat":"31.279319668","category":"253","category_name":"校园生活","address":"上海抚顺路340号"},{"poiid":"B2094757D06FA7F44293","title":"鞍山四村","lon":"121.51586095177","lat":"31.282573922167","category":"47","category_name":"住宅区","address":"上海锦西路鞍山路"},{"poiid":"B2094757D065A7F8479F","title":"同济大学 留德预备部","lon":"121.51239013","lat":"31.282131195","category":"52","category_name":"高等院校","address":"上海杨浦区彰武路100号"},{"poiid":"B2094654D56EA7FE419F","title":"馨怡花园","lon":"121.51451","lat":"31.278519","category":"47","category_name":"住宅区","address":"上海市杨浦区铁岭路28弄(近锦西路)"},{"poiid":"B2094757D068A4F44699","title":"茗菁阁","lon":"121.51742","lat":"31.28104","category":"76","category_name":"上海菜","address":"杨浦区抚顺路198号(江浦路口)"},{"poiid":"B2094757D16BA3FD419C","title":"同济大学彰武校区宿舍6号楼","lon":"121.5131464","lat":"31.281310049","category":"500","category_name":"未知分类","address":"上海杨浦区彰武路100号"},{"poiid":"B2094654D56EA4FB4292","title":"法善庵","lon":"121.5152","lat":"31.28554","category":"244","category_name":"寺庙道观","address":"杨浦区政本路338号(国科路政本路)"},{"poiid":"B2094757D06FABF84993","title":"松鹤公园","lon":"121.51463","lat":"31.2798","category":"196","category_name":"公园","address":"杨浦区抚顺路240号(近江浦路)"},{"poiid":"B2094757D169A1F84098","title":"妙亭涮羊肉","lon":"121.512509603","lat":"31.2801730261","category":"86","category_name":"火锅店","address":"杨浦区抚顺路263号(近铁岭路)"},{"poiid":"B2094757D06FA5FA469B","title":"凤城六村","lon":"121.5166","lat":"31.283543","category":"47","category_name":"住宅区","address":"上海杨浦区长岭路91号"},{"poiid":"B2094757D069ABF44099","title":"恒联新天地花园","lon":"121.515","lat":"31.281771","category":"47","category_name":"住宅区","address":"上海江浦路2089弄"},{"poiid":"B2094757D069AAFD4698","title":"凤城路本溪路","lon":"121.51841","lat":"31.278878","category":"47","category_name":"住宅区","address":"上海凤城二村"},{"poiid":"B2094750DB6FA4FD429E","title":"上海国际时尚中心","lon":"121.518852","lat":"31.284042","category":"500","category_name":"未知分类","address":"杨树浦路内江路"},{"poiid":"B2094757D16DA7FA4393","title":"同济大学研究生一号楼","lon":"121.51331517","lat":"31.281972624","category":"500","category_name":"未知分类","address":"上海杨浦区彰武路100号校内"},{"poiid":"B2094757D068A7FC439A","title":"凤城五村","lon":"121.5178502","lat":"31.282865282","category":"252","category_name":"楼宇机构","address":"上海江浦路抚顺路"},{"poiid":"B2094757D069A3F84892","title":"长岭路抚顺路","lon":"121.520264103","lat":"31.2819826639","category":"500","category_name":"未知分类","address":"上海市杨浦区长岭路抚顺路"},{"poiid":"B2094654D56EA7FE439F","title":"铁岭路50弄小区","lon":"121.51462","lat":"31.27923","category":"47","category_name":"住宅区","address":"铁岭路50弄"},{"poiid":"B2094654D56EA7FE449E","title":"克丽缇娜专业美容护肤中心(江浦路)","lon":"121.51609","lat":"31.2821","category":"148","category_name":"美容美发店","address":"江浦路2093-2097"},{"poiid":"B2094654D56EA7FE449F","title":"好德No.170","lon":"121.51606","lat":"31.28215","category":"117","category_name":"便民商店/便利店","address":"江浦路2111"},{"poiid":"B2094655D36CA0F94298","title":"江浦路抚顺路","lon":"121.51678","lat":"31.28065","category":"38","category_name":"公交车站","address":""},{"poiid":"B2094655D265A2FF479F","title":"天天唱吧茶苑","lon":"121.51632","lat":"31.28127","category":"66","category_name":"茶艺馆","address":"江浦路2065、2069"},{"poiid":"B2094654D56EA7FE4393","title":"上海明潭眼科","lon":"121.51634","lat":"31.2812","category":"162","category_name":"医院","address":"杨浦区江浦路2057号(近抚顺路)"},{"poiid":"B2094655D36CA6FF4492","title":"抚顺路长岭路","lon":"121.5186","lat":"31.28191","category":"38","category_name":"公交车站","address":""},{"poiid":"B2094757D16DA3FE4099","title":"动物防疫点","lon":"121.5166","lat":"31.28063","category":"162","category_name":"医院","address":"杨浦区抚顺路206号(近江浦路)"},{"poiid":"B2094654D56EA0F5429B","title":"上海沪齿口腔专科门诊部","lon":"121.51638","lat":"31.28104","category":"162","category_name":"医院","address":"江浦路2041-2043"},{"poiid":"B2094752DA6AA5F94693","title":"杨浦区五角场黄金城","lon":"121.515773","lat":"31.281827","category":"500","category_name":"未知分类","address":"上海市 杨浦区五角场黄金城"},{"poiid":"B2094753D765A0FD409D","title":"黄兴公园","lon":"121.516494","lat":"31.28178","category":"196","category_name":"公园","address":"上海市 杨浦区"},{"poiid":"B209475CD46CA0F44299","title":"同济大学研究生二号楼","lon":"121.515007","lat":"31.281801","category":"500","category_name":"未知分类","address":"上海市 彰武路100号2栋"},{"poiid":"B2094752DA6EABFF479D","title":"丽思卡尔顿大酒店","lon":"121.516763","lat":"31.281351","category":"500","category_name":"未知分类","address":"上海市 浦东新区世纪大道国金中心"},{"poiid":"B2094757D064A6FF4792","title":"伊加伊(江浦路店)","lon":"121.51671784","lat":"31.280942467","category":"500","category_name":"未知分类","address":"杨浦区江浦路1527号(本溪路口)"},{"poiid":"B2094654D56EA7FE409C","title":"铁岭中学","lon":"121.51239","lat":"31.27947","category":"55","category_name":"中学","address":"杨浦区鞍山路300号(鞍山路鞍山支路)"},{"poiid":"B2094655D26EABFA449B","title":"樱云茶园","lon":"121.51667","lat":"31.28039","category":"66","category_name":"茶艺馆","address":"杨浦区江浦路2017号"},{"poiid":"B2094655D26BA0FA459B","title":"同济绿苑二期","lon":"121.517802","lat":"31.280683","category":"47","category_name":"住宅区","address":"上海市杨浦区锦西路78号"},{"poiid":"B2094655D36CA0F94192","title":"江浦路延吉西路","lon":"121.51695","lat":"31.28024","category":"38","category_name":"公交车站","address":""},{"poiid":"B2094757D168A4F5409C","title":"重庆鸡公煲(抚顺路店)","lon":"121.5195","lat":"31.28206","category":"71","category_name":"四川菜","address":"杨浦区抚顺路99号(近长岭路)"},{"poiid":"B2094655D36DA0F84598","title":"延吉西路江浦路","lon":"121.51777","lat":"31.27913","category":"38","category_name":"公交车站","address":""},{"poiid":"B2094655D269ABFA459A","title":"来伊份 江浦路店","lon":"121.516708054","lat":"31.280490793","category":"247","category_name":"餐饮美食","address":"杨浦区江浦路1082号(近周家嘴路)"},{"poiid":"B2094654D56EA7FE4498","title":"恒联新天地花园(东门)","lon":"121.51599","lat":"31.28194","category":"656","category_name":"大门","address":"江浦路2089弄"},{"poiid":"B2094655D265A1FB439A","title":"长岭路早点店","lon":"121.51924","lat":"31.28269","category":"68","category_name":"快餐厅","address":"杨浦区长岭路74号(近抚顺路)"},{"poiid":"B2094654D56EA4FB4892","title":"凤六新苑","lon":"121.51641","lat":"31.284403","category":"47","category_name":"住宅区","address":"凤六新苑位于虹口中山北二路345弄(近长岭路)"},{"poiid":"B2094654D56EA0F5469F","title":"同济大学出国培训学院","lon":"121.51313","lat":"31.28196","category":"52","category_name":"高等院校","address":"彰武路100"},{"poiid":"B2094654D56EA0F84493","title":"良友金伴No.311","lon":"121.5168","lat":"31.27996","category":"117","category_name":"便民商店/便利店","address":"江浦路2013-2识别"},{"poiid":"B2094757D16BA0FE489E","title":"唐朝","lon":"121.512867103","lat":"31.2814586529","category":"500","category_name":"未知分类","address":"上海同济大学"},{"poiid":"B2094655D26EA1FD479F","title":"同济大学航空航天与力学学院","lon":"121.51264","lat":"31.28205","category":"52","category_name":"高等院校","address":"杨浦区彰武路100"},{"poiid":"B2094655D36CA6FF449C","title":"抚顺路铁岭路","lon":"121.51354","lat":"31.27947","category":"38","category_name":"公交车站","address":""},{"poiid":"B2094757D16CA3FB499A","title":"江浦路2009弄","lon":"121.516144103","lat":"31.2801996266","category":"252","category_name":"楼宇机构","address":"上海江浦路2009弄"},{"poiid":"B2094757D16AA2F54098","title":"同飞楼302室","lon":"121.516010403","lat":"31.2831052874","category":"253","category_name":"校园生活","address":null},{"poiid":"B2094757D064A4F4429E","title":"上海特色小笼店","lon":"121.512729","lat":"31.280161","category":"68","category_name":"快餐厅","address":"杨浦区铁岭路90弄小区门口"},{"poiid":"B2094655D26CA7F5469A","title":"凤城三村(西门)","lon":"121.51708","lat":"31.28015","category":"47","category_name":"住宅区","address":""},{"poiid":"B2094757D16FA6FF4599","title":"小天鹅麻辣烫","lon":"121.511811","lat":"31.280789","category":"68","category_name":"快餐厅","address":"杨浦区铁岭路117号(近彰武路)"},{"poiid":"B2094655D26BA2F8429D","title":"铁岭路","lon":"121.51233","lat":"31.28042","category":"38","category_name":"公交车站","address":""},{"poiid":"B2094757D068A3FC4892","title":"阿尔托-同济设计工厂","lon":"121.51375261","lat":"31.283846618","category":"253","category_name":"校园生活","address":"上海彰武路100号同济大学金工实习工厂4层"},{"poiid":"B2094654D56EA0F5429E","title":"上海牧医宠物医院杨浦诊所","lon":"121.51633","lat":"31.28091","category":"668","category_name":"诊所","address":"抚顺路206"},{"poiid":"B2094757D164A2FE479E","title":"馨怡花苑","lon":"121.5167741","lat":"31.279723616","category":"500","category_name":"未知分类","address":"上海市铁岭路"},{"poiid":"B2094757D16FA3FE4892","title":"杨浦区教师进修学院附属幼儿园","lon":"121.512826703","lat":"31.2809388421","category":"57","category_name":"幼儿园","address":"杨浦区铁岭路100号(近抚顺路)"},{"poiid":"B2094654D56EA0F54699","title":"铁岭路110弄住宅小区","lon":"121.51229","lat":"31.2812","category":"47","category_name":"住宅区","address":"铁岭路110弄"},{"poiid":"B2094654D56EA4F4479F","title":"时代玩具","lon":"121.51776","lat":"31.28157","category":"255","category_name":"专卖店","address":"抚顺路164临"},{"poiid":"B2094757D068A5FB4999","title":"铁岭路95号","lon":"121.516621603","lat":"31.2835357964","category":"500","category_name":"未知分类","address":"上海燃气公司铁岭办事处"},{"poiid":"B2094757D064A4F94499","title":"热气羊肉","lon":"121.5133731","lat":"31.279322608","category":"247","category_name":"餐饮美食","address":"上海抚顺路263号"},{"poiid":"B2094757D66CA6FC4992","title":"重口味临时宿舍","lon":"121.517196103","lat":"31.2832266899","category":"500","category_name":"未知分类","address":"上海同济大学"},{"poiid":"B2094655D26CA7F4489A","title":"控江路2026弄小区","lon":"121.51660237176","lat":"31.279464339189","category":"47","category_name":"住宅区","address":"控江路2026弄"},{"poiid":"B2094655D26DABF5439D","title":"江浦路2000弄小区(西门)","lon":"121.51724","lat":"31.27968","category":"47","category_name":"住宅区","address":"江浦路2000弄"},{"poiid":"B2094757D16CA5FC479B","title":"国兰面菜馆","lon":"121.51957","lat":"31.28225","category":"68","category_name":"快餐厅","address":"杨浦区长岭路66-1号(教育局对面)"},{"poiid":"B209475CDA6AA4FF449D","title":"同济大学彰武路校区5号楼","lon":"121.513671","lat":"31.281124","category":"500","category_name":"未知分类","address":"上海市 杨浦区彰武路100号"},{"poiid":"B2094655D26DA6F94699","title":"良友(长岭路)","lon":"121.51919","lat":"31.28274","category":"117","category_name":"便民商店/便利店","address":"长岭路76识别"},{"poiid":"B209475CD16FAAF94498","title":"同济大学彰武校区宿舍5号楼","lon":"121.513641","lat":"31.280738","category":"500","category_name":"未知分类","address":"上海市 上海杨浦区彰武路100号"},{"poiid":"B2094752D66BA3F44892","title":"长海医院","lon":"121.51973","lat":"31.280792","category":"162","category_name":"医院","address":null},{"poiid":"B2094757D66DA6FD4693","title":"Siemens Center","lon":"121.516384423","lat":"31.2838597931","category":"500","category_name":"未知分类","address":"上海大连路500号"},{"poiid":"B2094655D26DAAFE409E","title":"鞍山三村","lon":"121.51364","lat":"31.27793","category":"47","category_name":"住宅区","address":"上海市杨浦区锦西路"},{"poiid":"B2094655D26CA5F9459A","title":"恒联新天地花园(东二门)","lon":"121.51582","lat":"31.28272","category":"656","category_name":"大门","address":""},{"poiid":"B2094654D56EA0F5469C","title":"同济大学出国培训学院(1号门)","lon":"121.51238","lat":"31.28213","category":"52","category_name":"高等院校","address":"杨浦区彰武路100"},{"poiid":"B2094752D365A1FF479C","title":"海底捞","lon":"121.517639","lat":"31.284439","category":"247","category_name":"餐饮美食","address":"五角场"},{"poiid":"B2094757D569A2FA4998","title":"大运盛城四期","lon":"121.5194089","lat":"31.284925","category":"47","category_name":"住宅区","address":"上海市杨浦区中山北二路99弄"},{"poiid":"B2094757D66EA2F8439D","title":"妙亭私房菜(抚顺路店)","lon":"121.51427","lat":"31.27923","category":"247","category_name":"餐饮美食","address":"上海杨浦区抚顺路263号(近铁岭路)  "},{"poiid":"B209475DD364A1F84499","title":"同济大学彰武路校区","lon":"121.512542","lat":"31.281103","category":"500","category_name":"未知分类","address":"上海市 杨浦区彰武路100号"},{"poiid":"B2094655D26CA7F5439D","title":"铁岭路五十弄小区(北一门)","lon":"121.51392","lat":"31.27944","category":"47","category_name":"住宅区","address":""},{"poiid":"B2094654DB65A2F8419B","title":"纽带","lon":"121.51768","lat":"31.27893","category":"196","category_name":"公园","address":""},{"poiid":"B2094654D56EA7FC469A","title":"通华大楼","lon":"121.512","lat":"31.2843","category":"46","category_name":"楼宇","address":"四平路1230号"},{"poiid":"B2094752D46AA2F84699","title":"中国农业银行五角场控江路支行","lon":"121.519616","lat":"31.280281","category":"150","category_name":"银行","address":"杨浦区鞍山路7号(鞍山路本溪路)"},{"poiid":"B2094654D56EA4F5499C","title":"奶茶店","lon":"121.51884","lat":"31.27931","category":"113","category_name":"冷饮店","address":""},{"poiid":"B2094750D565A4F94199","title":"上海皇家商学院","lon":"121.515609","lat":"31.285202","category":"500","category_name":"未知分类","address":null},{"poiid":"B2094654D56EA0F5439C","title":"良友(抚顺路)","lon":"121.51329","lat":"31.27955","category":"117","category_name":"便民商店/便利店","address":"抚顺路254-1"},{"poiid":"B2094655D26BA6FA429F","title":"勤静斋面馆","lon":"121.521546054","lat":"31.280477793","category":"68","category_name":"快餐厅","address":"杨浦区延吉西路118号(近长岭路)"},{"poiid":"B2094654D56EA0F54392","title":"可的(抚顺路)","lon":"121.51317","lat":"31.2795","category":"117","category_name":"便民商店/便利店","address":"杨浦区抚顺路258号(抚顺路铁岭路)"},{"poiid":"B2094654D56EA0FB479D","title":"四平社区卫生服务中心","lon":"121.51432","lat":"31.27746","category":"162","category_name":"医院","address":"杨浦区铁岭路39号(锦西路)"},{"poiid":"B2094757D16BA3FE499C","title":"热气刷羊肉","lon":"121.513559103","lat":"31.2794206103","category":"247","category_name":"餐饮美食","address":"上海抚顺路263号"},{"poiid":"B2094655D26CA7F5469C","title":"杨浦区教师进修学院(分部)(东门)","lon":"121.52044","lat":"31.2803","category":"678","category_name":"学校大门","address":"长岭路50"},{"poiid":"B2094757D16DAAFE449E","title":"航空航天与力学学院","lon":"121.513201844","lat":"31.2811184607","category":"253","category_name":"校园生活","address":"上海彰武路100号"},{"poiid":"B2094757D06AA1FD439C","title":"杨浦区房屋土地管理局","lon":"121.5187491","lat":"31.284048707","category":"500","category_name":"未知分类","address":"上海长岭路"},{"poiid":"B2094757D66DA1F4489B","title":"中石化加油站","lon":"121.5155871","lat":"31.284543717","category":"154","category_name":"加油加气站","address":"上海市杨浦区内环高架路"},{"poiid":"B2094757D06BA2FC419F","title":"伍缘超市","lon":"121.519171593","lat":"31.2804387716","category":"117","category_name":"便民商店/便利店","address":"上海长岭路"},{"poiid":"B2094654D56EA7FD4992","title":"鞍山八村住宅小区(2号门)","lon":"121.51227","lat":"31.28023","category":"47","category_name":"住宅区","address":""},{"poiid":"B2094757D06AA5FB4192","title":"四平街道医院","lon":"121.51477","lat":"31.27743","category":"162","category_name":"医院","address":"上海杨浦区铁岭路39号  "},{"poiid":"B2094757D065A1F4489B","title":"延吉西路江浦路车站103.863.713等","lon":"121.517549903","lat":"31.2792664071","category":"500","category_name":"未知分类","address":"上海延吉西路江浦路"},{"poiid":"B2094757D16AAAFB4793","title":"上海市动物疫病预防控制中心","lon":"121.5178291","lat":"31.27943861","category":"149","category_name":"洗浴推拿场所","address":"上海市杨浦区江浦路2129号"},{"poiid":"B2094757D66EA0FF419A","title":"河南特色烩面店","lon":"121.5123181","lat":"31.280483632","category":"247","category_name":"餐饮美食","address":"上海彰武路"},{"poiid":"B2094757D16BA2F9459A","title":"蛋蛋","lon":"121.51881253","lat":"31.284423484","category":"247","category_name":"餐饮美食","address":"上海五角场"},{"poiid":"B2094757D064A7FD459D","title":"爱乐鱼","lon":"121.519693103","lat":"31.2805646342","category":"247","category_name":"餐饮美食","address":"上海南京西路819号开欣商厦四楼"},{"poiid":"B2094654D56EA7FE4599","title":"益海佳苑","lon":"121.51278","lat":"31.283871","category":"47","category_name":"住宅区","address":"中山北二路709弄"},{"poiid":"B2094655D36DA7F84093","title":"中山北二路黄兴路","lon":"121.51907","lat":"31.28541","category":"38","category_name":"公交车站","address":""},{"poiid":"B2094757D569A2FD479B","title":"法善庵素斋","lon":"121.5153961","lat":"31.28568389","category":"247","category_name":"餐饮美食","address":"政本路338号"},{"poiid":"B2094654DB6BA2FC4392","title":"凤城二村小区(北二门)","lon":"121.51976","lat":"31.2796","category":"656","category_name":"大门","address":""},{"poiid":"B2094655D26FA0F9429D","title":"松鹤公园(南门)","lon":"121.51383","lat":"31.2797","category":"680","category_name":"楼宇机构","address":"抚顺路240"},{"poiid":"B2094655D264AAF4469E","title":"布施咖啡厅","lon":"121.51893","lat":"31.28504","category":"65","category_name":"咖啡厅","address":"中山北二路117"},{"poiid":"B2094757D064AAFF4492","title":"五角场高新技术产业园同叶大厦","lon":"121.51455626","lat":"31.277779888","category":"46","category_name":"楼宇","address":"上海铁岭路32号"},{"poiid":"B2094655D26CA6F54792","title":"政本路350弄小区(西门)","lon":"121.515","lat":"31.28529","category":"47","category_name":"住宅区","address":"政本路350弄"},{"poiid":"B2094654D56FA4FB4093","title":"建信大楼","lon":"121.51535083523","lat":"31.277499409098","category":"46","category_name":"楼宇","address":"上海长阳路1760号"},{"poiid":"B2094655D26FA7FA4193","title":"益海佳苑(北门)","lon":"121.51282","lat":"31.28413","category":"47","category_name":"住宅区","address":"中山北二路709弄"},{"poiid":"B2094757D66FA0FA4293","title":"胖子家","lon":"121.517548","lat":"31.279268007","category":"500","category_name":"未知分类","address":null},{"poiid":"B2094757D065AAF4479D","title":"同济大学 金工工厂","lon":"121.512388","lat":"31.282131","category":"500","category_name":"未知分类","address":"上海彰武路100号"},{"poiid":"B209475CD56CA6FC469B","title":"同济大学彰武路北楼","lon":"121.512321","lat":"31.282407","category":"500","category_name":"未知分类","address":"上海市 上海市彰武路100号"},{"poiid":"B2094655D26DA6FA479C","title":"才茂公寓","lon":"121.51701","lat":"31.277561","category":"47","category_name":"住宅区","address":"本溪路138弄"},{"poiid":"B2094654D56EABFE4893","title":"凤城六村(西门)","lon":"121.51596","lat":"31.28401","category":"656","category_name":"大门","address":""},{"poiid":"B2094655D26CA5F4419B","title":"江浦路2009弄小区(东一门)","lon":"121.51672","lat":"31.2803","category":"656","category_name":"大门","address":"江浦路2009弄"},{"poiid":"B2094655D265A2FD419E","title":"同济大学空天技术研究中心","lon":"121.51314","lat":"31.28197","category":"191","category_name":"科研机构","address":""},{"poiid":"B2094655D265A3F5449C","title":"上海电视大学外经贸分校","lon":"121.51786","lat":"31.28615","category":"52","category_name":"高等院校","address":"国科路75号"},{"poiid":"B2094757D16AA7FD429D","title":"杨浦区房交所","lon":"121.5197","lat":"31.282455","category":"500","category_name":"未知分类","address":"上海长岭路"},{"poiid":"B2094654DB6BA2FC429E","title":"叶子足浴坊","lon":"121.51904","lat":"31.28507","category":"149","category_name":"洗浴推拿场所","address":"中山北二路109号"},{"poiid":"B2094654D56EA0F8459C","title":"本西花鸟市场","lon":"121.51733","lat":"31.27822","category":"117","category_name":"便民商店/便利店","address":"四平路"},{"poiid":"B2094655D26FA7FA449B","title":"凤城五村(南一门)","lon":"121.51805","lat":"31.2817","category":"656","category_name":"大门","address":"抚顺路148-1识别"},{"poiid":"B2094757D165ABFB469F","title":"凤城新村小学","lon":"121.51991","lat":"31.2819","category":"253","category_name":"校园生活","address":"杨浦区长岭路91号(近抚顺路)"},{"poiid":"B2094757D164A2FD4799","title":"北湖湾度假村","lon":"121.519533503","lat":"31.2826903787","category":"500","category_name":"未知分类","address":"上海崇明北沿公路1288号"},{"poiid":"B2094655D26BA5FC4792","title":"灵感形象设计","lon":"121.5118","lat":"31.28086","category":"148","category_name":"美容美发店","address":"铁岭路119"},{"poiid":"B2094654D56EA0F5449C","title":"上海市杨浦区四平法律服务所","lon":"121.513","lat":"31.27975","category":"252","category_name":"楼宇机构","address":"铁岭路88号-2"},{"poiid":"B2094757DA6EAAF8469F","title":"杨浦区邮政局","lon":"121.515935888519","lat":"31.2789557285598","category":"248","category_name":"生活娱乐","address":"杨浦区控江路1555号"},{"poiid":"B2094654D56EA7FE4093","title":"旺角桑拿俱乐部","lon":"121.51364","lat":"31.27891","category":"149","category_name":"洗浴推拿场所","address":"铁岭路78"},{"poiid":"B2094757D16DA4FC429E","title":"杨浦区信息中心","lon":"121.520261","lat":"31.280376","category":"500","category_name":"未知分类","address":"上海长岭路50号"},{"poiid":"B2094654D56EA4F5429E","title":"上海市普通话测试中心杨浦测试站","lon":"121.52027","lat":"31.28038","category":"250","category_name":"公园户外","address":"长岭路50"},{"poiid":"B2094655D26CA7F54392","title":"铁岭路50弄小区(北三门)","lon":"121.51485","lat":"31.27988","category":"656","category_name":"大门","address":"铁岭路50弄"},{"poiid":"B2094654D56EA4F5429C","title":"加拿大多伦多枫叶天使美甲机构","lon":"121.52025","lat":"31.28005","category":"148","category_name":"美容美发店","address":"延吉西路118-2临"},{"poiid":"B2094757D16CA3FA4793","title":"益华小区","lon":"121.516372","lat":"31.286511","category":"47","category_name":"住宅区","address":"仁德路399弄1-11号"},{"poiid":"B2094655D26FA0F9429B","title":"鞍山三村住宅小区(北门)","lon":"121.51242","lat":"31.27892","category":"47","category_name":"住宅区","address":""},{"poiid":"B2094655D26CA5FF4993","title":"凤六新苑(西门)","lon":"121.51586","lat":"31.28413","category":"656","category_name":"大门","address":""},{"poiid":"B2094655D26BAAFC489E","title":"上海兰生外经贸进修学院","lon":"121.51785","lat":"31.28615","category":"53","category_name":"成人教育","address":"国科路75号"},{"poiid":"B2094655D26EA2FE459E","title":"江浦路2009弄小区(东二门)","lon":"121.51689","lat":"31.27983","category":"656","category_name":"大门","address":"江浦路2009弄"},{"poiid":"B2094757D165A6FD469D","title":"政本路国科路","lon":"121.5137483","lat":"31.285523737","category":"500","category_name":"未知分类","address":"上海政本路国科路"},{"poiid":"B2094757D569A1FF4599","title":"快客大运店","lon":"121.519195","lat":"31.285125","category":"117","category_name":"便民商店/便利店","address":"中国上海市杨浦区"},{"poiid":"B2094757D16AAAF4499A","title":"137终点站","lon":"121.512271203","lat":"31.2801586258","category":"500","category_name":"未知分类","address":"上海杨树浦路临平路"},{"poiid":"B2094654D56EA0F54399","title":"好运棋牌室","lon":"121.51338","lat":"31.27957","category":"175","category_name":"棋牌室","address":"抚顺路252"},{"poiid":"B2094654D56EA4F54293","title":"悦美服饰","lon":"121.52019","lat":"31.28002","category":"141","category_name":"服装鞋帽皮具店","address":"霍山路"},{"poiid":"B2094654D56EA0F5469A","title":"杨浦区铁岭90弄社区老年活动室","lon":"121.51255","lat":"31.28036","category":"248","category_name":"生活娱乐","address":"铁岭路98识别"},{"poiid":"B2094757D168A4F9489F","title":"长岭路 菜场","lon":"121.520278","lat":"31.280579","category":"500","category_name":"未知分类","address":"上海长岭路菜市场"},{"poiid":"B2094757D06FA0FB4599","title":"上海海事大学临港校区中远图书馆","lon":"121.5155936","lat":"31.28611225","category":"253","category_name":"校园生活","address":"浦东新区海港大道1550号上海海事大学内"},{"poiid":"B2094753D56AA5FB479B","title":"同济大学铁岭宿舍区","lon":"121.51828","lat":"31.278081","category":"500","category_name":"未知分类","address":"上海市 铁岭路68弄"},{"poiid":"B2094757D568A7F8459C","title":"JE猴子店","lon":"121.5193631","lat":"31.27949694","category":"249","category_name":"购物服务","address":"延吉西路121号"},{"poiid":"B2094655D26DABFF409A","title":"凤城五村(南二门)","lon":"121.51906","lat":"31.28233","category":"656","category_name":"大门","address":""},{"poiid":"B2094757D568A0FE4099","title":"回力延吉西路店","lon":"121.5195231","lat":"31.27954806","category":"249","category_name":"购物服务","address":"延吉西路115号"},{"poiid":"B2094654D56EA7FE439E","title":"铁岭路50弄小区(北门)","lon":"121.51438","lat":"31.27964","category":"656","category_name":"大门","address":"铁岭路50弄"},{"poiid":"B2094654D56EABFE4892","title":"凤六新苑(北门)","lon":"121.5166","lat":"31.28466","category":"656","category_name":"大门","address":"中山北二路345弄"},{"poiid":"B2094757D16EA1F5409E","title":"打虎大楼","lon":"121.516","lat":"31.278","category":"252","category_name":"楼宇机构","address":"上海控江路2023号"},{"poiid":"B2094655D26CA7F5439C","title":"万车缘汽车美容中心","lon":"121.51431","lat":"31.27821","category":"159","category_name":"汽车维修","address":""},{"poiid":"B2094654D56EABFE489C","title":"凤城六村(东门)","lon":"121.51856","lat":"31.28404","category":"656","category_name":"大门","address":""},{"poiid":"B2094757D165A4FB479B","title":"13点星座","lon":"121.512357103","lat":"31.2844987165","category":"252","category_name":"楼宇机构","address":"上海某处"},{"poiid":"B2094757D06BA6FF4193","title":"饿肚皮","lon":"121.519573103","lat":"31.2846989207","category":"500","category_name":"未知分类","address":"上海饿死不偿命"},{"poiid":"B2094655D26CA5FA409E","title":"铁岭路90弄小区(西门)","lon":"121.51264","lat":"31.28026","category":"656","category_name":"大门","address":"铁岭路90弄"},{"poiid":"B2094757D065A1F54593","title":"小麽麽家","lon":"121.513647","lat":"31.277938","category":"500","category_name":"未知分类","address":"上海鞍山三村"},{"poiid":"B2094655D26CA5F94599","title":"彰武路120弄小区(西一门)","lon":"121.51284","lat":"31.28311","category":"656","category_name":"大门","address":"彰武路120弄"},{"poiid":"B2094655D26EA2FF429A","title":"彰武路120弄小区(西二门)","lon":"121.51309","lat":"31.28352","category":"656","category_name":"大门","address":"彰武路120弄"},{"poiid":"B2094655D26CA5F9429F","title":"长岭路60弄小区(南二门)","lon":"121.51803","lat":"31.2793","category":"656","category_name":"大门","address":"长岭路60弄"},{"poiid":"B2094655D26FA7FE489B","title":"馨怡花园(西门)","lon":"121.51425","lat":"31.27811","category":"48","category_name":"楼宇大门","address":"铁岭路28弄"},{"poiid":"B2094655D26CA6F94893","title":"凤城三村小区(西一门)","lon":"121.52001","lat":"31.28179","category":"656","category_name":"大门","address":"长岭路75弄"},{"poiid":"B2094655D26CA7F5469B","title":"长岭路60弄小区(东门)","lon":"121.51985","lat":"31.28148","category":"656","category_name":"大门","address":"长岭路60弄"},{"poiid":"B2094655D26CA5FC409F","title":"铁岭路90弄小区(南门)","lon":"121.51347","lat":"31.27958","category":"656","category_name":"大门","address":"抚顺路250弄"},{"poiid":"B2094655D26FA0FC469D","title":"凤城二村小区(北一门)","lon":"121.51856","lat":"31.2792","category":"656","category_name":"大门","address":""},{"poiid":"B2094654D56EA4F5429D","title":"电玩台球厅","lon":"121.52024","lat":"31.28004","category":"173","category_name":"游戏厅","address":"延吉西路118-2临"},{"poiid":"B2094655D26CA7F5479B","title":"长岭路60弄小区(南一门)","lon":"121.51931","lat":"31.27971","category":"656","category_name":"大门","address":"长岭路60弄"},{"poiid":"B2094655D26CA5F9459B","title":"铁岭路110弄住宅小区(西一门)","lon":"121.51206","lat":"31.28092","category":"656","category_name":"大门","address":"铁岭路110弄"},{"poiid":"B2094655D26DA5F9499E","title":"江浦路1709弄小区(东一门)","lon":"121.51727","lat":"31.27864","category":"656","category_name":"大门","address":"江浦路1709弄"},{"poiid":"B2094654D56EA4FB499A","title":"大运盛(西门)","lon":"121.51848","lat":"31.28474","category":"656","category_name":"大门","address":"长岭路"},{"poiid":"B2094655D26FA0F94192","title":"铁岭路110弄住宅小区(西二门)","lon":"121.51194","lat":"31.28114","category":"656","category_name":"大门","address":"铁岭路110弄"},{"poiid":"B2094655D26FA0FF4193","title":"法善庵(北门)","lon":"121.5154","lat":"31.28569","category":"656","category_name":"大门","address":"政本路338号"},{"poiid":"B2094655D26CA6F5479C","title":"法善庵(西门)","lon":"121.51502","lat":"31.28551","category":"656","category_name":"大门","address":""},{"poiid":"B2094654DB6BA2FC439E","title":"凤城三村小区(西二门)","lon":"121.52024","lat":"31.28131","category":"656","category_name":"大门","address":""},{"poiid":"B2094654D56EA7FE419C","title":"铁岭路50弄小区(西门)","lon":"121.51392","lat":"31.27859","category":"656","category_name":"大门","address":"铁岭路50弄"},{"poiid":"B2094757D16DA5FB4199","title":"南京师范大学","lon":"121.5179002","lat":"31.28564364","category":"260","category_name":"其他","address":"南京文苑路1号"},{"poiid":"B2094654DB6BA2FC4599","title":"凤城二村(二)小区(西门)","lon":"121.51774","lat":"31.27824","category":"656","category_name":"大门","address":""},{"poiid":"B2094655D26CA5F44092","title":"江浦路1709弄小区(东二门)","lon":"121.51751","lat":"31.27766","category":"656","category_name":"大门","address":"江浦路1709弄"}]