[{"poiid":"B2094654DB65A6FA409D","title":"复兴公园","lon":"121.46890775116913","lat":"31.216458585904284","category":"196","category_name":"公园","address":"卢湾区皋兰路2号甲(近思南路)"},{"poiid":"B2094654DB69A4FE4392","title":"钱柜(卢湾店)","lon":"121.46958","lat":"31.21854","category":"170","category_name":"KTV","address":"卢湾区雁荡路109号复兴公园内(近复兴中路)"},{"poiid":"B2094655D26EAAFC409C","title":"Richy(复兴公园店)","lon":"121.47016","lat":"31.2177","category":"260","category_name":"其他","address":"卢湾区皋兰路2号甲复兴公园内(近思南路)"},{"poiid":"B2094753D76FAAFA449C","title":"上海滩国泰旗舰店","lon":"121.466011","lat":"31.216125","category":"249","category_name":"购物服务","address":"淮海中路868号"},{"poiid":"B209475CD564A7F84292","title":"上海滩新天地店","lon":"121.47463","lat":"31.22164","category":"119","category_name":"商场","address":"\"太仓路181弄新天地北里15号\r\n\""},{"poiid":"B209475CD564A7F8439E","title":"上海滩中信泰富店","lon":"121.45602","lat":"31.22851","category":"119","category_name":"商场","address":"\"南京西路1168号中信泰富广场，店铺号221.\r\n\""},{"poiid":"B2094757D06FA2F44698","title":"California Pizza Kitchen(思南公馆店)","lon":"121.46871509","lat":"31.215263676","category":"94","category_name":"西餐厅","address":"卢湾区复兴中路507弄思南公馆3号2楼(近重庆南路)"},{"poiid":"B2094751D56FABF84099","title":"Pizza Marzano 比萨马上诺（上海K11店）","lon":"121.470165","lat":"31.219408","category":"247","category_name":"餐饮美食","address":"上海市 淮海中路300号上海K11购物艺术中心403"},{"poiid":"B2094757D06FA3F8449A","title":"COSTA COFFEE(思南公馆店)","lon":"121.46997364","lat":"31.21457859","category":"65","category_name":"咖啡厅","address":"卢湾区复兴中路507弄5号1楼103室(近重庆南路)"},{"poiid":"B2094757D06FA0FC4493","title":"Shanghai Slim's","lon":"121.46852999","lat":"31.215135828","category":"94","category_name":"西餐厅","address":"卢湾区复兴中路523弄思南公馆10-12号26D"},{"poiid":"B2094750D26CA2FE4699","title":"安薇塔英国茶体系 复兴中路店","lon":"121.4684398","lat":"31.2151914","category":"260","category_name":"其他","address":"卢湾区复兴中路529号思南公馆27幢(近思南路)"},{"poiid":"B2094757DB6AA4F5439F","title":"猫的天空之城","lon":"121.470243","lat":"31.218327","category":"248","category_name":"生活娱乐","address":"马当路245号新天地时尚购物广场B112号(近自忠路)"},{"poiid":"B2094751D265A1FB459E","title":"萌果酱女仆咖啡屋 Maid Jump","lon":"121.47213","lat":"31.21763","category":"247","category_name":"餐饮美食","address":"卢湾区自忠路453号甲(近淡水路)"},{"poiid":"B2094757D06FA7FB489E","title":"官邸","lon":"121.4676","lat":"31.21717","category":"47","category_name":"住宅区","address":"卢湾区皋兰路2号甲复兴公园内(近思南路)"},{"poiid":"B2094757D06FA7FC4693","title":"Nuevo 66 Coffee in Coffee","lon":"121.46992","lat":"31.2192","category":"260","category_name":"其他","address":"卢湾区南昌路66号(近雁荡路)"},{"poiid":"B2094757D06FA0FF489C","title":"Alchemist Cocktail Kitchen","lon":"121.46824419","lat":"31.215264793","category":"260","category_name":"其他","address":"卢湾区思南路45号思南公馆32号楼1-2楼(近复兴中路)"},{"poiid":"B2094750D26FABFF429F","title":"True color本色酒吧","lon":"121.469528","lat":"31.218008","category":"248","category_name":"生活娱乐","address":"复兴公园"},{"poiid":"B2094750D76FA6F4409F","title":"本色酒吧","lon":"121.469","lat":"31.2186","category":"260","category_name":"其他","address":"卢湾区雁荡路109号复兴广场1楼(近复兴公园)"},{"poiid":"B2094751D56FABF8419B","title":"Celeb de Tomato 铭品番茄（上海K11店）","lon":"121.470852","lat":"31.219114","category":"247","category_name":"餐饮美食","address":"上海市 淮海中路300号上海K11购物艺术中心406"},{"poiid":"B2094757D068A1FE409B","title":"The Funky Chicken","lon":"121.468556271","lat":"31.2149832923","category":"94","category_name":"西餐厅","address":"卢湾区思南路55号思南公馆26号楼1楼(近复兴中路)"},{"poiid":"B2094757D06FAAF5449C","title":"火山碳烤鱼(复兴店)","lon":"121.46989","lat":"31.21906","category":"71","category_name":"四川菜","address":"卢湾区南昌路70号(雁荡路口)"},{"poiid":"B2094654DB6AA6F84698","title":"上海璞邸精品酒店","lon":"121.47023","lat":"31.21926","category":"213","category_name":"五星级宾馆","address":"卢湾区雁荡路99号(近南昌路)"},{"poiid":"B2094655D36CA6FF4293","title":"复兴中路","lon":"121.47073","lat":"31.21609","category":"38","category_name":"公交车站","address":""},{"poiid":"B2094757D069A2FD419E","title":"洁而精川菜馆","lon":"121.46946988001","lat":"31.219134393624","category":"71","category_name":"四川菜","address":"卢湾区雁荡路82号(近南昌路)"},{"poiid":"B2094757D16CA7F44999","title":"晶浦会(思南公馆店)","lon":"121.46982518","lat":"31.215764791","category":"72","category_name":"广东菜","address":"卢湾区思南路55号思南公馆35号2-3楼(近复兴中路)"},{"poiid":"B2094750D26AA3FB479D","title":"Annvita tea time","lon":"121.468894","lat":"31.215209","category":"500","category_name":"未知分类","address":"思南公馆59号"},{"poiid":"B2094757D06BA0FE4198","title":"橘(思南公馆)","lon":"121.468265738","lat":"31.2155129865","category":"95","category_name":"日本料理","address":"卢湾区思南路55号思南公馆26E(近复兴公园)"},{"poiid":"B2094654DA6DABFA4698","title":"钱柜(重庆南路)","lon":"121.4701","lat":"31.21783","category":"68","category_name":"快餐厅","address":"瑞金二路"},{"poiid":"B2094655D26CA1FE4599","title":"复兴公园(北门)","lon":"121.46957","lat":"31.21833","category":"656","category_name":"大门","address":"上海卢湾区皋兰路2号甲(近思南路)"},{"poiid":"B2094750DA64A7FE449B","title":"新锦江饭店","lon":"121.469696","lat":"31.21635","category":"247","category_name":"餐饮美食","address":null},{"poiid":"B2094655D26BA3FB419C","title":"VIVAN婚纱","lon":"121.46997","lat":"31.21851","category":"141","category_name":"服装鞋帽皮具店","address":"卢湾区雁荡路107号雁荡大厦10楼H座(近复兴公园)"},{"poiid":"B2094654DA6DABFA459D","title":"科学会堂(雁荡路)","lon":"121.46915","lat":"31.21877","category":"185","category_name":"会展中心","address":"卢湾区南昌路47号"},{"poiid":"B2094750D165A7FC489D","title":"城汇大厦","lon":"121.470672","lat":"31.219001","category":"252","category_name":"楼宇机构","address":"南昌路45号"},{"poiid":"B2094757D06AAAFD419E","title":"卢湾区人民政府","lon":"121.47066473","lat":"31.21806004","category":"500","category_name":"未知分类","address":"上海ShanghaiLuwanchongqinqingnanlu Rd"},{"poiid":"B2094751DA6EA0F8459D","title":"W","lon":"121.469925","lat":"31.219284","category":"247","category_name":"餐饮美食","address":"上海市盧灣區南昌路62號"},{"poiid":"B2094654DB65A4F8479E","title":"复兴公园(南门)","lon":"121.47041","lat":"31.21575","category":"656","category_name":"大门","address":"上海卢湾区皋兰路2号甲(近思南路)"},{"poiid":"B2094757D06AA0FB409C","title":"品芳面馆","lon":"121.470912054","lat":"31.216979793","category":"68","category_name":"快餐厅","address":"卢湾区重庆南路183号(复兴中路重庆南路)"},{"poiid":"B2094757D06AA3FF499F","title":"魚蔵","lon":"121.47018573","lat":"31.215160979","category":"500","category_name":"未知分类","address":"上海思南路55号思南公馆1号3楼(近复兴中路)"},{"poiid":"B2094757D169A5F9469D","title":"南北高架淮海路","lon":"121.47080473","lat":"31.21662301","category":"500","category_name":"未知分类","address":"上海市南北高架"},{"poiid":"B2094757D468AAFE409B","title":"璞邸精品酒店西餐厅","lon":"121.469663054","lat":"31.218762793","category":"94","category_name":"西餐厅","address":"卢湾区雁荡路99号(近南昌路)"},{"poiid":"B2094757D064A2FB439A","title":"思南公馆诗碧阁Specialty","lon":"121.47044173","lat":"31.214863972","category":"500","category_name":"未知分类","address":"上海市卢湾区南昌路"},{"poiid":"B2094655D26CA4F94699","title":"钱柜卢湾店(东门)","lon":"121.47074","lat":"31.21645","category":"68","category_name":"快餐厅","address":""},{"poiid":"B2094654DA6EA4FA459F","title":"上海市卢湾区教育学院","lon":"121.47191","lat":"31.21754","category":"53","category_name":"成人教育","address":"自忠路455"},{"poiid":"B2094751DA64ABFC419B","title":"miss one","lon":"121.470138","lat":"31.219063","category":"247","category_name":"餐饮美食","address":"新天地 时尚商场"},{"poiid":"B2094757D06EAAFA4399","title":"Boom Cafe &amp; Bar","lon":"121.47029","lat":"31.21917","category":"260","category_name":"其他","address":"卢湾区南昌路62号底商(近雁荡路)"},{"poiid":"B2094750D665ABF8439B","title":"上海口味粽王","lon":"121.472","lat":"31.2156","category":"68","category_name":"快餐厅","address":"卢湾区复兴中路488号(淡水路复兴中路)"},{"poiid":"B2094757D06BA0FF419D","title":"金沙概念餐厅","lon":"121.47122234588","lat":"31.217087273718","category":"76","category_name":"上海菜","address":"卢湾区自忠路453-455号(重庆南路自忠路)"},{"poiid":"B2094655D264A6FE4398","title":"全家","lon":"121.46948","lat":"31.21876","category":"117","category_name":"便民商店/便利店","address":""},{"poiid":"B2094655D36DA7F9459E","title":"重庆南路复兴中路","lon":"121.47099","lat":"31.21581","category":"38","category_name":"公交车站","address":""},{"poiid":"B2094654DA6EA1F44392","title":"海佳大厦","lon":"121.469","lat":"31.2164","category":"46","category_name":"楼宇","address":"永嘉路41号"},{"poiid":"B2094654DB65A6FA409D","title":"复兴公园","lon":"121.46890775116913","lat":"31.216458585904284","category":"196","category_name":"公园","address":"卢湾区皋兰路2号甲(近思南路)"},{"poiid":"B2094654DB69A4FE4392","title":"钱柜(卢湾店)","lon":"121.46958","lat":"31.21854","category":"170","category_name":"KTV","address":"卢湾区雁荡路109号复兴公园内(近复兴中路)"},{"poiid":"B2094655D26EAAFC409C","title":"Richy(复兴公园店)","lon":"121.47016","lat":"31.2177","category":"260","category_name":"其他","address":"卢湾区皋兰路2号甲复兴公园内(近思南路)"},{"poiid":"B2094753D76FAAFA449C","title":"上海滩国泰旗舰店","lon":"121.466011","lat":"31.216125","category":"249","category_name":"购物服务","address":"淮海中路868号"},{"poiid":"B209475CD564A7F84292","title":"上海滩新天地店","lon":"121.47463","lat":"31.22164","category":"119","category_name":"商场","address":"\"太仓路181弄新天地北里15号\r\n\""},{"poiid":"B209475CD564A7F8439E","title":"上海滩中信泰富店","lon":"121.45602","lat":"31.22851","category":"119","category_name":"商场","address":"\"南京西路1168号中信泰富广场，店铺号221.\r\n\""},{"poiid":"B2094757D06FA2F44698","title":"California Pizza Kitchen(思南公馆店)","lon":"121.46871509","lat":"31.215263676","category":"94","category_name":"西餐厅","address":"卢湾区复兴中路507弄思南公馆3号2楼(近重庆南路)"},{"poiid":"B2094751D56FABF84099","title":"Pizza Marzano 比萨马上诺（上海K11店）","lon":"121.470165","lat":"31.219408","category":"247","category_name":"餐饮美食","address":"上海市 淮海中路300号上海K11购物艺术中心403"},{"poiid":"B2094757D06FA3F8449A","title":"COSTA COFFEE(思南公馆店)","lon":"121.46997364","lat":"31.21457859","category":"65","category_name":"咖啡厅","address":"卢湾区复兴中路507弄5号1楼103室(近重庆南路)"},{"poiid":"B2094757D06FA0FC4493","title":"Shanghai Slim's","lon":"121.46852999","lat":"31.215135828","category":"94","category_name":"西餐厅","address":"卢湾区复兴中路523弄思南公馆10-12号26D"},{"poiid":"B2094750D26CA2FE4699","title":"安薇塔英国茶体系 复兴中路店","lon":"121.4684398","lat":"31.2151914","category":"260","category_name":"其他","address":"卢湾区复兴中路529号思南公馆27幢(近思南路)"},{"poiid":"B2094757DB6AA4F5439F","title":"猫的天空之城","lon":"121.470243","lat":"31.218327","category":"248","category_name":"生活娱乐","address":"马当路245号新天地时尚购物广场B112号(近自忠路)"},{"poiid":"B2094751D265A1FB459E","title":"萌果酱女仆咖啡屋 Maid Jump","lon":"121.47213","lat":"31.21763","category":"247","category_name":"餐饮美食","address":"卢湾区自忠路453号甲(近淡水路)"},{"poiid":"B2094757D06FA7FB489E","title":"官邸","lon":"121.4676","lat":"31.21717","category":"47","category_name":"住宅区","address":"卢湾区皋兰路2号甲复兴公园内(近思南路)"},{"poiid":"B2094757D06FA7FC4693","title":"Nuevo 66 Coffee in Coffee","lon":"121.46992","lat":"31.2192","category":"260","category_name":"其他","address":"卢湾区南昌路66号(近雁荡路)"},{"poiid":"B2094757D06FA0FF489C","title":"Alchemist Cocktail Kitchen","lon":"121.46824419","lat":"31.215264793","category":"260","category_name":"其他","address":"卢湾区思南路45号思南公馆32号楼1-2楼(近复兴中路)"},{"poiid":"B2094750D26FABFF429F","title":"True color本色酒吧","lon":"121.469528","lat":"31.218008","category":"248","category_name":"生活娱乐","address":"复兴公园"},{"poiid":"B2094750D76FA6F4409F","title":"本色酒吧","lon":"121.469","lat":"31.2186","category":"260","category_name":"其他","address":"卢湾区雁荡路109号复兴广场1楼(近复兴公园)"},{"poiid":"B2094751D56FABF8419B","title":"Celeb de Tomato 铭品番茄（上海K11店）","lon":"121.470852","lat":"31.219114","category":"247","category_name":"餐饮美食","address":"上海市 淮海中路300号上海K11购物艺术中心406"},{"poiid":"B2094757D068A1FE409B","title":"The Funky Chicken","lon":"121.468556271","lat":"31.2149832923","category":"94","category_name":"西餐厅","address":"卢湾区思南路55号思南公馆26号楼1楼(近复兴中路)"},{"poiid":"B2094757D06FAAF5449C","title":"火山碳烤鱼(复兴店)","lon":"121.46989","lat":"31.21906","category":"71","category_name":"四川菜","address":"卢湾区南昌路70号(雁荡路口)"},{"poiid":"B2094654DB6AA6F84698","title":"上海璞邸精品酒店","lon":"121.47023","lat":"31.21926","category":"213","category_name":"五星级宾馆","address":"卢湾区雁荡路99号(近南昌路)"},{"poiid":"B2094655D36CA6FF4293","title":"复兴中路","lon":"121.47073","lat":"31.21609","category":"38","category_name":"公交车站","address":""},{"poiid":"B2094757D069A2FD419E","title":"洁而精川菜馆","lon":"121.46946988001","lat":"31.219134393624","category":"71","category_name":"四川菜","address":"卢湾区雁荡路82号(近南昌路)"},{"poiid":"B2094757D16CA7F44999","title":"晶浦会(思南公馆店)","lon":"121.46982518","lat":"31.215764791","category":"72","category_name":"广东菜","address":"卢湾区思南路55号思南公馆35号2-3楼(近复兴中路)"},{"poiid":"B2094750D26AA3FB479D","title":"Annvita tea time","lon":"121.468894","lat":"31.215209","category":"500","category_name":"未知分类","address":"思南公馆59号"},{"poiid":"B2094757D06BA0FE4198","title":"橘(思南公馆)","lon":"121.468265738","lat":"31.2155129865","category":"95","category_name":"日本料理","address":"卢湾区思南路55号思南公馆26E(近复兴公园)"},{"poiid":"B2094654DA6DABFA4698","title":"钱柜(重庆南路)","lon":"121.4701","lat":"31.21783","category":"68","category_name":"快餐厅","address":"瑞金二路"},{"poiid":"B2094655D26CA1FE4599","title":"复兴公园(北门)","lon":"121.46957","lat":"31.21833","category":"656","category_name":"大门","address":"上海卢湾区皋兰路2号甲(近思南路)"},{"poiid":"B2094750DA64A7FE449B","title":"新锦江饭店","lon":"121.469696","lat":"31.21635","category":"247","category_name":"餐饮美食","address":null},{"poiid":"B2094655D26BA3FB419C","title":"VIVAN婚纱","lon":"121.46997","lat":"31.21851","category":"141","category_name":"服装鞋帽皮具店","address":"卢湾区雁荡路107号雁荡大厦10楼H座(近复兴公园)"},{"poiid":"B2094654DA6DABFA459D","title":"科学会堂(雁荡路)","lon":"121.46915","lat":"31.21877","category":"185","category_name":"会展中心","address":"卢湾区南昌路47号"},{"poiid":"B2094750D165A7FC489D","title":"城汇大厦","lon":"121.470672","lat":"31.219001","category":"252","category_name":"楼宇机构","address":"南昌路45号"},{"poiid":"B2094757D06AAAFD419E","title":"卢湾区人民政府","lon":"121.47066473","lat":"31.21806004","category":"500","category_name":"未知分类","address":"上海ShanghaiLuwanchongqinqingnanlu Rd"},{"poiid":"B2094751DA6EA0F8459D","title":"W","lon":"121.469925","lat":"31.219284","category":"247","category_name":"餐饮美食","address":"上海市盧灣區南昌路62號"},{"poiid":"B2094654DB65A4F8479E","title":"复兴公园(南门)","lon":"121.47041","lat":"31.21575","category":"656","category_name":"大门","address":"上海卢湾区皋兰路2号甲(近思南路)"},{"poiid":"B2094757D06AA0FB409C","title":"品芳面馆","lon":"121.470912054","lat":"31.216979793","category":"68","category_name":"快餐厅","address":"卢湾区重庆南路183号(复兴中路重庆南路)"},{"poiid":"B2094757D06AA3FF499F","title":"魚蔵","lon":"121.47018573","lat":"31.215160979","category":"500","category_name":"未知分类","address":"上海思南路55号思南公馆1号3楼(近复兴中路)"},{"poiid":"B2094757D169A5F9469D","title":"南北高架淮海路","lon":"121.47080473","lat":"31.21662301","category":"500","category_name":"未知分类","address":"上海市南北高架"},{"poiid":"B2094757D468AAFE409B","title":"璞邸精品酒店西餐厅","lon":"121.469663054","lat":"31.218762793","category":"94","category_name":"西餐厅","address":"卢湾区雁荡路99号(近南昌路)"},{"poiid":"B2094757D064A2FB439A","title":"思南公馆诗碧阁Specialty","lon":"121.47044173","lat":"31.214863972","category":"500","category_name":"未知分类","address":"上海市卢湾区南昌路"},{"poiid":"B2094655D26CA4F94699","title":"钱柜卢湾店(东门)","lon":"121.47074","lat":"31.21645","category":"68","category_name":"快餐厅","address":""},{"poiid":"B2094654DA6EA4FA459F","title":"上海市卢湾区教育学院","lon":"121.47191","lat":"31.21754","category":"53","category_name":"成人教育","address":"自忠路455"},{"poiid":"B2094751DA64ABFC419B","title":"miss one","lon":"121.470138","lat":"31.219063","category":"247","category_name":"餐饮美食","address":"新天地 时尚商场"},{"poiid":"B2094757D06EAAFA4399","title":"Boom Cafe &amp; Bar","lon":"121.47029","lat":"31.21917","category":"260","category_name":"其他","address":"卢湾区南昌路62号底商(近雁荡路)"},{"poiid":"B2094750D665ABF8439B","title":"上海口味粽王","lon":"121.472","lat":"31.2156","category":"68","category_name":"快餐厅","address":"卢湾区复兴中路488号(淡水路复兴中路)"},{"poiid":"B2094757D06BA0FF419D","title":"金沙概念餐厅","lon":"121.47122234588","lat":"31.217087273718","category":"76","category_name":"上海菜","address":"卢湾区自忠路453-455号(重庆南路自忠路)"},{"poiid":"B2094655D264A6FE4398","title":"全家","lon":"121.46948","lat":"31.21876","category":"117","category_name":"便民商店/便利店","address":""},{"poiid":"B2094655D36DA7F9459E","title":"重庆南路复兴中路","lon":"121.47099","lat":"31.21581","category":"38","category_name":"公交车站","address":""},{"poiid":"B2094654DA6EA1F44392","title":"海佳大厦","lon":"121.469","lat":"31.2164","category":"46","category_name":"楼宇","address":"永嘉路41号"},{"poiid":"B2094654DB65A6FA409D","title":"复兴公园","lon":"121.46890775116913","lat":"31.216458585904284","category":"196","category_name":"公园","address":"卢湾区皋兰路2号甲(近思南路)"},{"poiid":"B2094654DB69A4FE4392","title":"钱柜(卢湾店)","lon":"121.46958","lat":"31.21854","category":"170","category_name":"KTV","address":"卢湾区雁荡路109号复兴公园内(近复兴中路)"},{"poiid":"B2094655D26EAAFC409C","title":"Richy(复兴公园店)","lon":"121.47016","lat":"31.2177","category":"260","category_name":"其他","address":"卢湾区皋兰路2号甲复兴公园内(近思南路)"},{"poiid":"B2094753D76FAAFA449C","title":"上海滩国泰旗舰店","lon":"121.466011","lat":"31.216125","category":"249","category_name":"购物服务","address":"淮海中路868号"},{"poiid":"B209475CD564A7F84292","title":"上海滩新天地店","lon":"121.47463","lat":"31.22164","category":"119","category_name":"商场","address":"\"太仓路181弄新天地北里15号\r\n\""},{"poiid":"B209475CD564A7F8439E","title":"上海滩中信泰富店","lon":"121.45602","lat":"31.22851","category":"119","category_name":"商场","address":"\"南京西路1168号中信泰富广场，店铺号221.\r\n\""},{"poiid":"B2094757D06FA2F44698","title":"California Pizza Kitchen(思南公馆店)","lon":"121.46871509","lat":"31.215263676","category":"94","category_name":"西餐厅","address":"卢湾区复兴中路507弄思南公馆3号2楼(近重庆南路)"},{"poiid":"B2094751D56FABF84099","title":"Pizza Marzano 比萨马上诺（上海K11店）","lon":"121.470165","lat":"31.219408","category":"247","category_name":"餐饮美食","address":"上海市 淮海中路300号上海K11购物艺术中心403"},{"poiid":"B2094757D06FA3F8449A","title":"COSTA COFFEE(思南公馆店)","lon":"121.46997364","lat":"31.21457859","category":"65","category_name":"咖啡厅","address":"卢湾区复兴中路507弄5号1楼103室(近重庆南路)"},{"poiid":"B2094757D06FA0FC4493","title":"Shanghai Slim's","lon":"121.46852999","lat":"31.215135828","category":"94","category_name":"西餐厅","address":"卢湾区复兴中路523弄思南公馆10-12号26D"},{"poiid":"B2094750D26CA2FE4699","title":"安薇塔英国茶体系 复兴中路店","lon":"121.4684398","lat":"31.2151914","category":"260","category_name":"其他","address":"卢湾区复兴中路529号思南公馆27幢(近思南路)"},{"poiid":"B2094757DB6AA4F5439F","title":"猫的天空之城","lon":"121.470243","lat":"31.218327","category":"248","category_name":"生活娱乐","address":"马当路245号新天地时尚购物广场B112号(近自忠路)"},{"poiid":"B2094751D265A1FB459E","title":"萌果酱女仆咖啡屋 Maid Jump","lon":"121.47213","lat":"31.21763","category":"247","category_name":"餐饮美食","address":"卢湾区自忠路453号甲(近淡水路)"},{"poiid":"B2094757D06FA7FB489E","title":"官邸","lon":"121.4676","lat":"31.21717","category":"47","category_name":"住宅区","address":"卢湾区皋兰路2号甲复兴公园内(近思南路)"},{"poiid":"B2094757D06FA7FC4693","title":"Nuevo 66 Coffee in Coffee","lon":"121.46992","lat":"31.2192","category":"260","category_name":"其他","address":"卢湾区南昌路66号(近雁荡路)"},{"poiid":"B2094757D06FA0FF489C","title":"Alchemist Cocktail Kitchen","lon":"121.46824419","lat":"31.215264793","category":"260","category_name":"其他","address":"卢湾区思南路45号思南公馆32号楼1-2楼(近复兴中路)"},{"poiid":"B2094750D26FABFF429F","title":"True color本色酒吧","lon":"121.469528","lat":"31.218008","category":"248","category_name":"生活娱乐","address":"复兴公园"},{"poiid":"B2094750D76FA6F4409F","title":"本色酒吧","lon":"121.469","lat":"31.2186","category":"260","category_name":"其他","address":"卢湾区雁荡路109号复兴广场1楼(近复兴公园)"},{"poiid":"B2094751D56FABF8419B","title":"Celeb de Tomato 铭品番茄（上海K11店）","lon":"121.470852","lat":"31.219114","category":"247","category_name":"餐饮美食","address":"上海市 淮海中路300号上海K11购物艺术中心406"},{"poiid":"B2094757D068A1FE409B","title":"The Funky Chicken","lon":"121.468556271","lat":"31.2149832923","category":"94","category_name":"西餐厅","address":"卢湾区思南路55号思南公馆26号楼1楼(近复兴中路)"},{"poiid":"B2094757D06FAAF5449C","title":"火山碳烤鱼(复兴店)","lon":"121.46989","lat":"31.21906","category":"71","category_name":"四川菜","address":"卢湾区南昌路70号(雁荡路口)"},{"poiid":"B2094654DB6AA6F84698","title":"上海璞邸精品酒店","lon":"121.47023","lat":"31.21926","category":"213","category_name":"五星级宾馆","address":"卢湾区雁荡路99号(近南昌路)"},{"poiid":"B2094655D36CA6FF4293","title":"复兴中路","lon":"121.47073","lat":"31.21609","category":"38","category_name":"公交车站","address":""},{"poiid":"B2094757D069A2FD419E","title":"洁而精川菜馆","lon":"121.46946988001","lat":"31.219134393624","category":"71","category_name":"四川菜","address":"卢湾区雁荡路82号(近南昌路)"},{"poiid":"B2094757D16CA7F44999","title":"晶浦会(思南公馆店)","lon":"121.46982518","lat":"31.215764791","category":"72","category_name":"广东菜","address":"卢湾区思南路55号思南公馆35号2-3楼(近复兴中路)"},{"poiid":"B2094750D26AA3FB479D","title":"Annvita tea time","lon":"121.468894","lat":"31.215209","category":"500","category_name":"未知分类","address":"思南公馆59号"},{"poiid":"B2094757D06BA0FE4198","title":"橘(思南公馆)","lon":"121.468265738","lat":"31.2155129865","category":"95","category_name":"日本料理","address":"卢湾区思南路55号思南公馆26E(近复兴公园)"},{"poiid":"B2094654DA6DABFA4698","title":"钱柜(重庆南路)","lon":"121.4701","lat":"31.21783","category":"68","category_name":"快餐厅","address":"瑞金二路"},{"poiid":"B2094655D26CA1FE4599","title":"复兴公园(北门)","lon":"121.46957","lat":"31.21833","category":"656","category_name":"大门","address":"上海卢湾区皋兰路2号甲(近思南路)"},{"poiid":"B2094750DA64A7FE449B","title":"新锦江饭店","lon":"121.469696","lat":"31.21635","category":"247","category_name":"餐饮美食","address":null},{"poiid":"B2094655D26BA3FB419C","title":"VIVAN婚纱","lon":"121.46997","lat":"31.21851","category":"141","category_name":"服装鞋帽皮具店","address":"卢湾区雁荡路107号雁荡大厦10楼H座(近复兴公园)"},{"poiid":"B2094654DA6DABFA459D","title":"科学会堂(雁荡路)","lon":"121.46915","lat":"31.21877","category":"185","category_name":"会展中心","address":"卢湾区南昌路47号"},{"poiid":"B2094750D165A7FC489D","title":"城汇大厦","lon":"121.470672","lat":"31.219001","category":"252","category_name":"楼宇机构","address":"南昌路45号"},{"poiid":"B2094757D06AAAFD419E","title":"卢湾区人民政府","lon":"121.47066473","lat":"31.21806004","category":"500","category_name":"未知分类","address":"上海ShanghaiLuwanchongqinqingnanlu Rd"},{"poiid":"B2094751DA6EA0F8459D","title":"W","lon":"121.469925","lat":"31.219284","category":"247","category_name":"餐饮美食","address":"上海市盧灣區南昌路62號"},{"poiid":"B2094654DB65A4F8479E","title":"复兴公园(南门)","lon":"121.47041","lat":"31.21575","category":"656","category_name":"大门","address":"上海卢湾区皋兰路2号甲(近思南路)"},{"poiid":"B2094757D06AA0FB409C","title":"品芳面馆","lon":"121.470912054","lat":"31.216979793","category":"68","category_name":"快餐厅","address":"卢湾区重庆南路183号(复兴中路重庆南路)"},{"poiid":"B2094757D06AA3FF499F","title":"魚蔵","lon":"121.47018573","lat":"31.215160979","category":"500","category_name":"未知分类","address":"上海思南路55号思南公馆1号3楼(近复兴中路)"},{"poiid":"B2094757D169A5F9469D","title":"南北高架淮海路","lon":"121.47080473","lat":"31.21662301","category":"500","category_name":"未知分类","address":"上海市南北高架"},{"poiid":"B2094757D468AAFE409B","title":"璞邸精品酒店西餐厅","lon":"121.469663054","lat":"31.218762793","category":"94","category_name":"西餐厅","address":"卢湾区雁荡路99号(近南昌路)"},{"poiid":"B2094757D064A2FB439A","title":"思南公馆诗碧阁Specialty","lon":"121.47044173","lat":"31.214863972","category":"500","category_name":"未知分类","address":"上海市卢湾区南昌路"},{"poiid":"B2094655D26CA4F94699","title":"钱柜卢湾店(东门)","lon":"121.47074","lat":"31.21645","category":"68","category_name":"快餐厅","address":""},{"poiid":"B2094654DA6EA4FA459F","title":"上海市卢湾区教育学院","lon":"121.47191","lat":"31.21754","category":"53","category_name":"成人教育","address":"自忠路455"},{"poiid":"B2094751DA64ABFC419B","title":"miss one","lon":"121.470138","lat":"31.219063","category":"247","category_name":"餐饮美食","address":"新天地 时尚商场"},{"poiid":"B2094757D06EAAFA4399","title":"Boom Cafe &amp; Bar","lon":"121.47029","lat":"31.21917","category":"260","category_name":"其他","address":"卢湾区南昌路62号底商(近雁荡路)"},{"poiid":"B2094750D665ABF8439B","title":"上海口味粽王","lon":"121.472","lat":"31.2156","category":"68","category_name":"快餐厅","address":"卢湾区复兴中路488号(淡水路复兴中路)"},{"poiid":"B2094757D06BA0FF419D","title":"金沙概念餐厅","lon":"121.47122234588","lat":"31.217087273718","category":"76","category_name":"上海菜","address":"卢湾区自忠路453-455号(重庆南路自忠路)"},{"poiid":"B2094655D264A6FE4398","title":"全家","lon":"121.46948","lat":"31.21876","category":"117","category_name":"便民商店/便利店","address":""},{"poiid":"B2094655D36DA7F9459E","title":"重庆南路复兴中路","lon":"121.47099","lat":"31.21581","category":"38","category_name":"公交车站","address":""},{"poiid":"B2094654DA6EA1F44392","title":"海佳大厦","lon":"121.469","lat":"31.2164","category":"46","category_name":"楼宇","address":"永嘉路41号"},{"poiid":"B2094654DB65A6FA409D","title":"复兴公园","lon":"121.46890775116913","lat":"31.216458585904284","category":"196","category_name":"公园","address":"卢湾区皋兰路2号甲(近思南路)"},{"poiid":"B2094654DB69A4FE4392","title":"钱柜(卢湾店)","lon":"121.46958","lat":"31.21854","category":"170","category_name":"KTV","address":"卢湾区雁荡路109号复兴公园内(近复兴中路)"},{"poiid":"B2094655D26EAAFC409C","title":"Richy(复兴公园店)","lon":"121.47016","lat":"31.2177","category":"260","category_name":"其他","address":"卢湾区皋兰路2号甲复兴公园内(近思南路)"},{"poiid":"B2094753D76FAAFA449C","title":"上海滩国泰旗舰店","lon":"121.466011","lat":"31.216125","category":"249","category_name":"购物服务","address":"淮海中路868号"},{"poiid":"B209475CD564A7F84292","title":"上海滩新天地店","lon":"121.47463","lat":"31.22164","category":"119","category_name":"商场","address":"\"太仓路181弄新天地北里15号\r\n\""},{"poiid":"B209475CD564A7F8439E","title":"上海滩中信泰富店","lon":"121.45602","lat":"31.22851","category":"119","category_name":"商场","address":"\"南京西路1168号中信泰富广场，店铺号221.\r\n\""},{"poiid":"B2094757D06FA2F44698","title":"California Pizza Kitchen(思南公馆店)","lon":"121.46871509","lat":"31.215263676","category":"94","category_name":"西餐厅","address":"卢湾区复兴中路507弄思南公馆3号2楼(近重庆南路)"},{"poiid":"B2094751D56FABF84099","title":"Pizza Marzano 比萨马上诺（上海K11店）","lon":"121.470165","lat":"31.219408","category":"247","category_name":"餐饮美食","address":"上海市 淮海中路300号上海K11购物艺术中心403"},{"poiid":"B2094757D06FA3F8449A","title":"COSTA COFFEE(思南公馆店)","lon":"121.46997364","lat":"31.21457859","category":"65","category_name":"咖啡厅","address":"卢湾区复兴中路507弄5号1楼103室(近重庆南路)"},{"poiid":"B2094757D06FA0FC4493","title":"Shanghai Slim's","lon":"121.46852999","lat":"31.215135828","category":"94","category_name":"西餐厅","address":"卢湾区复兴中路523弄思南公馆10-12号26D"},{"poiid":"B2094750D26CA2FE4699","title":"安薇塔英国茶体系 复兴中路店","lon":"121.4684398","lat":"31.2151914","category":"260","category_name":"其他","address":"卢湾区复兴中路529号思南公馆27幢(近思南路)"},{"poiid":"B2094757DB6AA4F5439F","title":"猫的天空之城","lon":"121.470243","lat":"31.218327","category":"248","category_name":"生活娱乐","address":"马当路245号新天地时尚购物广场B112号(近自忠路)"},{"poiid":"B2094751D265A1FB459E","title":"萌果酱女仆咖啡屋 Maid Jump","lon":"121.47213","lat":"31.21763","category":"247","category_name":"餐饮美食","address":"卢湾区自忠路453号甲(近淡水路)"},{"poiid":"B2094757D06FA7FB489E","title":"官邸","lon":"121.4676","lat":"31.21717","category":"47","category_name":"住宅区","address":"卢湾区皋兰路2号甲复兴公园内(近思南路)"},{"poiid":"B2094757D06FA7FC4693","title":"Nuevo 66 Coffee in Coffee","lon":"121.46992","lat":"31.2192","category":"260","category_name":"其他","address":"卢湾区南昌路66号(近雁荡路)"},{"poiid":"B2094757D06FA0FF489C","title":"Alchemist Cocktail Kitchen","lon":"121.46824419","lat":"31.215264793","category":"260","category_name":"其他","address":"卢湾区思南路45号思南公馆32号楼1-2楼(近复兴中路)"},{"poiid":"B2094750D26FABFF429F","title":"True color本色酒吧","lon":"121.469528","lat":"31.218008","category":"248","category_name":"生活娱乐","address":"复兴公园"},{"poiid":"B2094750D76FA6F4409F","title":"本色酒吧","lon":"121.469","lat":"31.2186","category":"260","category_name":"其他","address":"卢湾区雁荡路109号复兴广场1楼(近复兴公园)"},{"poiid":"B2094751D56FABF8419B","title":"Celeb de Tomato 铭品番茄（上海K11店）","lon":"121.470852","lat":"31.219114","category":"247","category_name":"餐饮美食","address":"上海市 淮海中路300号上海K11购物艺术中心406"},{"poiid":"B2094757D068A1FE409B","title":"The Funky Chicken","lon":"121.468556271","lat":"31.2149832923","category":"94","category_name":"西餐厅","address":"卢湾区思南路55号思南公馆26号楼1楼(近复兴中路)"},{"poiid":"B2094757D06FAAF5449C","title":"火山碳烤鱼(复兴店)","lon":"121.46989","lat":"31.21906","category":"71","category_name":"四川菜","address":"卢湾区南昌路70号(雁荡路口)"},{"poiid":"B2094654DB6AA6F84698","title":"上海璞邸精品酒店","lon":"121.47023","lat":"31.21926","category":"213","category_name":"五星级宾馆","address":"卢湾区雁荡路99号(近南昌路)"},{"poiid":"B2094655D36CA6FF4293","title":"复兴中路","lon":"121.47073","lat":"31.21609","category":"38","category_name":"公交车站","address":""},{"poiid":"B2094757D069A2FD419E","title":"洁而精川菜馆","lon":"121.46946988001","lat":"31.219134393624","category":"71","category_name":"四川菜","address":"卢湾区雁荡路82号(近南昌路)"},{"poiid":"B2094757D16CA7F44999","title":"晶浦会(思南公馆店)","lon":"121.46982518","lat":"31.215764791","category":"72","category_name":"广东菜","address":"卢湾区思南路55号思南公馆35号2-3楼(近复兴中路)"},{"poiid":"B2094750D26AA3FB479D","title":"Annvita tea time","lon":"121.468894","lat":"31.215209","category":"500","category_name":"未知分类","address":"思南公馆59号"},{"poiid":"B2094757D06BA0FE4198","title":"橘(思南公馆)","lon":"121.468265738","lat":"31.2155129865","category":"95","category_name":"日本料理","address":"卢湾区思南路55号思南公馆26E(近复兴公园)"},{"poiid":"B2094654DA6DABFA4698","title":"钱柜(重庆南路)","lon":"121.4701","lat":"31.21783","category":"68","category_name":"快餐厅","address":"瑞金二路"},{"poiid":"B2094655D26CA1FE4599","title":"复兴公园(北门)","lon":"121.46957","lat":"31.21833","category":"656","category_name":"大门","address":"上海卢湾区皋兰路2号甲(近思南路)"},{"poiid":"B2094750DA64A7FE449B","title":"新锦江饭店","lon":"121.469696","lat":"31.21635","category":"247","category_name":"餐饮美食","address":null},{"poiid":"B2094655D26BA3FB419C","title":"VIVAN婚纱","lon":"121.46997","lat":"31.21851","category":"141","category_name":"服装鞋帽皮具店","address":"卢湾区雁荡路107号雁荡大厦10楼H座(近复兴公园)"},{"poiid":"B2094654DA6DABFA459D","title":"科学会堂(雁荡路)","lon":"121.46915","lat":"31.21877","category":"185","category_name":"会展中心","address":"卢湾区南昌路47号"},{"poiid":"B2094750D165A7FC489D","title":"城汇大厦","lon":"121.470672","lat":"31.219001","category":"252","category_name":"楼宇机构","address":"南昌路45号"},{"poiid":"B2094757D06AAAFD419E","title":"卢湾区人民政府","lon":"121.47066473","lat":"31.21806004","category":"500","category_name":"未知分类","address":"上海ShanghaiLuwanchongqinqingnanlu Rd"},{"poiid":"B2094751DA6EA0F8459D","title":"W","lon":"121.469925","lat":"31.219284","category":"247","category_name":"餐饮美食","address":"上海市盧灣區南昌路62號"},{"poiid":"B2094654DB65A4F8479E","title":"复兴公园(南门)","lon":"121.47041","lat":"31.21575","category":"656","category_name":"大门","address":"上海卢湾区皋兰路2号甲(近思南路)"},{"poiid":"B2094757D06AA0FB409C","title":"品芳面馆","lon":"121.470912054","lat":"31.216979793","category":"68","category_name":"快餐厅","address":"卢湾区重庆南路183号(复兴中路重庆南路)"},{"poiid":"B2094757D06AA3FF499F","title":"魚蔵","lon":"121.47018573","lat":"31.215160979","category":"500","category_name":"未知分类","address":"上海思南路55号思南公馆1号3楼(近复兴中路)"},{"poiid":"B2094757D169A5F9469D","title":"南北高架淮海路","lon":"121.47080473","lat":"31.21662301","category":"500","category_name":"未知分类","address":"上海市南北高架"},{"poiid":"B2094757D468AAFE409B","title":"璞邸精品酒店西餐厅","lon":"121.469663054","lat":"31.218762793","category":"94","category_name":"西餐厅","address":"卢湾区雁荡路99号(近南昌路)"},{"poiid":"B2094757D064A2FB439A","title":"思南公馆诗碧阁Specialty","lon":"121.47044173","lat":"31.214863972","category":"500","category_name":"未知分类","address":"上海市卢湾区南昌路"},{"poiid":"B2094655D26CA4F94699","title":"钱柜卢湾店(东门)","lon":"121.47074","lat":"31.21645","category":"68","category_name":"快餐厅","address":""},{"poiid":"B2094654DA6EA4FA459F","title":"上海市卢湾区教育学院","lon":"121.47191","lat":"31.21754","category":"53","category_name":"成人教育","address":"自忠路455"},{"poiid":"B2094751DA64ABFC419B","title":"miss one","lon":"121.470138","lat":"31.219063","category":"247","category_name":"餐饮美食","address":"新天地 时尚商场"},{"poiid":"B2094757D06EAAFA4399","title":"Boom Cafe &amp; Bar","lon":"121.47029","lat":"31.21917","category":"260","category_name":"其他","address":"卢湾区南昌路62号底商(近雁荡路)"},{"poiid":"B2094750D665ABF8439B","title":"上海口味粽王","lon":"121.472","lat":"31.2156","category":"68","category_name":"快餐厅","address":"卢湾区复兴中路488号(淡水路复兴中路)"},{"poiid":"B2094757D06BA0FF419D","title":"金沙概念餐厅","lon":"121.47122234588","lat":"31.217087273718","category":"76","category_name":"上海菜","address":"卢湾区自忠路453-455号(重庆南路自忠路)"},{"poiid":"B2094655D264A6FE4398","title":"全家","lon":"121.46948","lat":"31.21876","category":"117","category_name":"便民商店/便利店","address":""},{"poiid":"B2094655D36DA7F9459E","title":"重庆南路复兴中路","lon":"121.47099","lat":"31.21581","category":"38","category_name":"公交车站","address":""},{"poiid":"B2094654DA6EA1F44392","title":"海佳大厦","lon":"121.469","lat":"31.2164","category":"46","category_name":"楼宇","address":"永嘉路41号"}]