[{"poiid":"B2094655D26AA0FA459D","title":"地铁松江大学城站","lon":"121.2328121282244","lat":"31.053876849388867","category":"36","category_name":"地铁站","address":"上海市松江区"},{"poiid":"B2094655D26FABFB479E","title":"开元地中海","lon":"121.226","lat":"31.0447","category":"119","category_name":"商场","address":"上海松江区新松江路925号(人民北路口)"},{"poiid":"B2094757DA64A0FF419E","title":"松江万达广场","lon":"121.2428","lat":"31.058927","category":"252","category_name":"楼宇机构","address":"松江新城茸梅环路广富林路"},{"poiid":"B2094654DB6EA2F84299","title":"三湘四季花城","lon":"121.23571694306","lat":"31.062261787972","category":"47","category_name":"住宅区","address":"松江广富林路1599弄,梅家浜路1508弄"},{"poiid":"B2094757D06AA0F9409D","title":"上海外国语大学图文信息中心","lon":"121.225394867","lat":"31.0475109834","category":"253","category_name":"校园生活","address":"松江区文翔路1550号上海外国语大学图文信息中心"},{"poiid":"B2094757D568ABF94192","title":"保利·西子湾","lon":"121.23235704","lat":"31.06264133","category":"47","category_name":"住宅区","address":"松江区广富林路1188弄"},{"poiid":"B2094757D16DA5FB4998","title":"绿地蔷薇九里","lon":"121.23585033902","lat":"31.071184573855","category":"47","category_name":"住宅区","address":"上海市松江区广富林路"},{"poiid":"B2094757D569A2F8419D","title":"御上海","lon":"121.23415","lat":"31.049538","category":"47","category_name":"住宅区","address":"上海松江区谷阳北路2399弄"},{"poiid":"B2094757D06FA2FA409F","title":"上海外国语大学英语学院","lon":"121.226543","lat":"31.047136","category":"253","category_name":"校园生活","address":"松江区文翔路1550号上海外国语大学五教楼(英院)"},{"poiid":"B2094655D26FAAFA4592","title":"上外小别墅","lon":"121.22942","lat":"31.04522","category":"47","category_name":"住宅区","address":"松江区文翔路1550号上海外国语大学松江校区内(文翔路西林北路)"},{"poiid":"B2094654DB6EA0FE4599","title":"上海阳光康复中心","lon":"121.24295","lat":"31.06563","category":"162","category_name":"医院","address":"松江区松江新城区光星路2209号"},{"poiid":"B2094655D268A1FB429A","title":"新沙珑国际宾馆","lon":"121.23057","lat":"31.05185","category":"250","category_name":"公园户外","address":"松江区梅家浜路1501号(地铁9号线松江大学城站对面)"},{"poiid":"B2094757D164A2FC429A","title":"上海外国语大学西外外国语学校","lon":"121.23489246","lat":"31.042756779","category":"500","category_name":"未知分类","address":"松江区文翔路1100号"},{"poiid":"B2094654DB6EA0FE459E","title":"莱顿小城高尔夫公寓","lon":"121.24435","lat":"31.0686","category":"47","category_name":"住宅区","address":"上海松江区辰花公路839弄"},{"poiid":"B2094757DA6BA6FD4598","title":"三湘财富广场","lon":"121.236631","lat":"31.058337","category":"252","category_name":"楼宇机构","address":"松江区梅家浜路1508弄"},{"poiid":"B2094753D16EA0FD439B","title":"优麦克主题KTV","lon":"121.23027","lat":"31.05259","category":"170","category_name":"KTV","address":"松江区梅家浜路1500弄1号305(大学城地铁站对面)"},{"poiid":"B2094757D06FA2FF4498","title":"上海外国语大学二教楼","lon":"121.223657","lat":"31.047221","category":"253","category_name":"校园生活","address":"松江区文翔路1550号上海外国语大学二教楼,(国际工商管理学院,国际金融贸易学院)"},{"poiid":"B2094655D268A0F44098","title":"荣御景苑","lon":"121.240938","lat":"31.05594","category":"47","category_name":"住宅区","address":"上海市松江区谷阳北路2399弄"},{"poiid":"B2094757D06FA1FB4192","title":"上海外国语大学一教楼","lon":"121.223258","lat":"31.048041","category":"253","category_name":"校园生活","address":"松江区文翔路1550号上海外国语大学一教楼(国际教育学院,新闻传播学院)"},{"poiid":"B2094757D16CA1F9499D","title":"天萌羽毛球馆","lon":"121.250976793","lat":"31.048601684","category":"500","category_name":"未知分类","address":"松江区茸阳路250号(近茸兴路)"},{"poiid":"B2094751D369A6FE4693","title":"宝都海鲜大酒店","lon":"121.23422","lat":"31.05845","category":"76","category_name":"上海菜","address":"松江区广富林路1222号保利西子湾风情街(近嘉松南路)"},{"poiid":"B2094655D268A0FA4693","title":"沙珑餐店","lon":"121.23085","lat":"31.05185","category":"257","category_name":"中餐厅","address":"梅家浜路1501号"},{"poiid":"B2094757D16CA0F84998","title":"松江辰山植物园山顶","lon":"121.232345","lat":"31.053298","category":"500","category_name":"未知分类","address":"上海松江"},{"poiid":"B2094752D26DA0FD459B","title":"新石器烤肉(三湘店)","lon":"121.23001","lat":"31.05212","category":"68","category_name":"快餐厅","address":"松江区梅家浜路1500弄三湘财富广场(近9号线松江大学城站)"},{"poiid":"B2094655D268A0FA479A","title":"神户亭铁板烧","lon":"121.23086","lat":"31.05185","category":"269","category_name":"烧烤","address":"松江区梅家浜路1501号新沙珑国际宾馆1楼(近松江大学城)"},{"poiid":"B2094654DB6EA2F4449B","title":"名庭花苑","lon":"121.24","lat":"31.0444","category":"47","category_name":"住宅区","address":"上海市松江区新松江路259弄"},{"poiid":"B2094654DB6DA4F4489C","title":"松云水苑","lon":"121.23747","lat":"31.044041","category":"47","category_name":"住宅区","address":"文翔路928弄"},{"poiid":"B2094752D26CA5FE4592","title":"永和大王(三湘店)","lon":"121.23556","lat":"31.05132","category":"68","category_name":"快餐厅","address":"松江区梅家浜路1500弄三湘财富广场内(近9号线松江大学城站)"},{"poiid":"B2094454D268A5F9489B","title":"万达大歌星KTV上海松江店","lon":"121.241351","lat":"31.058821","category":"170","category_name":"KTV","address":"上海市松江区广富林路658弄松江万达广场三楼"},{"poiid":"B2094751D565A1FC4293","title":"麻里麻里","lon":"121.230762","lat":"31.0504426","category":"71","category_name":"四川菜","address":"松江区梅家浜路1500弄三湘财富广场内"},{"poiid":"B2094757D06FA0FD4699","title":"上海外国语大学日本文化经济学院","lon":"121.22527859","lat":"31.049337791","category":"253","category_name":"校园生活","address":"松江区文翔路1550号上海外国语大学八教楼(日院)"},{"poiid":"B2094757D16DA2FE479A","title":"三湘四季花城桂花苑","lon":"121.23594391","lat":"31.054117542","category":"500","category_name":"未知分类","address":"上海松江区广富林路1599弄"},{"poiid":"B2094454D36FA7FE4999","title":"EAsmart上海松江万达店","lon":"121.242378","lat":"31.0571","category":"249","category_name":"购物服务","address":"上海市 上海松江区广富林路658弄万达商广场综合楼一楼"},{"poiid":"B2094455DB6CABF8419C","title":"茴忆传家菜","lon":"121.23424","lat":"31.05103","category":"247","category_name":"餐饮美食","address":"松江区三湘四季财富广场2楼"},{"poiid":"B2094757D064A1FE4292","title":"松江5路","lon":"121.23281415","lat":"31.052513301","category":"38","category_name":"公交车站","address":"上海松江客运中心——松江永丰站"},{"poiid":"B2094757D06FA5FD419E","title":"上海外国语大学法学院","lon":"121.226377","lat":"31.045086","category":"253","category_name":"校园生活","address":"松江区文翔路1550号上海外国语大学四教楼(法学院)"},{"poiid":"B2094757D16FAAFE409A","title":"五木亭拉面馆","lon":"121.230288496","lat":"31.0523786123","category":"95","category_name":"日本料理","address":"松江区梅家浜路1507号(近九号线松江大学城站)"},{"poiid":"B2094757D66EA5FD429A","title":"沙龙餐厅","lon":"121.235630196","lat":"31.0562742206","category":"500","category_name":"未知分类","address":"上海市松江区广富林路"},{"poiid":"B2094750DB6EABF8499D","title":"星辰园","lon":"121.23","lat":"31.051447","category":"47","category_name":"住宅区","address":"上海市松江区松江区梅家浜路1505弄"},{"poiid":"B2094757D06BA1FE409D","title":"三湘四季花城紫薇苑","lon":"121.23387908","lat":"31.056329727","category":"252","category_name":"楼宇机构","address":"上海市松江新城嘉松南路、梅家浜路口"},{"poiid":"B2094655D36CA2F9489C","title":"茸梅路施惠路","lon":"121.24582","lat":"31.04638","category":"38","category_name":"公交车站","address":""},{"poiid":"B2094757D16EA3F9489A","title":"松江客运中心","lon":"121.23240902","lat":"31.049586111","category":"38","category_name":"公交车站","address":"松江区梅家浜路嘉松南路(近松江大学城站)"},{"poiid":"B2094757D164A2F9469A","title":"西湾桌球（Westbay）","lon":"121.23732559","lat":"31.056794907","category":"248","category_name":"生活娱乐","address":"松江区广富林路1188弄(近嘉松南路)"},{"poiid":"B2094655D26FAAFE4499","title":"星辰园(北门)","lon":"121.22983","lat":"31.05194","category":"656","category_name":"大门","address":"梅家浜路1505弄"},{"poiid":"B2094751D26EA4FD4993","title":"上海第一人民医院松江分院","lon":"121.241577","lat":"31.049028","category":"500","category_name":"未知分类","address":null},{"poiid":"B2094655D268A0F4409A","title":"荣御景苑(东门)","lon":"121.23554","lat":"31.04904","category":"47","category_name":"住宅区","address":""},{"poiid":"B2094655D36CA7F54092","title":"广富林路嘉松公路","lon":"121.23071","lat":"31.05855","category":"38","category_name":"公交车站","address":""},{"poiid":"B2094757D66EA3F9419A","title":"大眼包子","lon":"121.232161196","lat":"31.0539741714","category":"247","category_name":"餐饮美食","address":"上海新语大包旁边"},{"poiid":"B2094750D66BAAFA4092","title":"养园和","lon":"121.232","lat":"31.054","category":"68","category_name":"快餐厅","address":"松江区地铁9号线松江新城地铁站1楼"},{"poiid":"B2094750D16AA0FA4392","title":"上海市虹口区黄浦路199号上海外滩茂悦大酒店","lon":"121.23513","lat":"31.048934","category":"500","category_name":"未知分类","address":null},{"poiid":"B2094655D26AA0FA459D","title":"地铁松江大学城站","lon":"121.2328121282244","lat":"31.053876849388867","category":"36","category_name":"地铁站","address":"上海市松江区"},{"poiid":"B2094655D26FABFB479E","title":"开元地中海","lon":"121.226","lat":"31.0447","category":"119","category_name":"商场","address":"上海松江区新松江路925号(人民北路口)"},{"poiid":"B2094757DA64A0FF419E","title":"松江万达广场","lon":"121.2428","lat":"31.058927","category":"252","category_name":"楼宇机构","address":"松江新城茸梅环路广富林路"},{"poiid":"B2094654DB6EA2F84299","title":"三湘四季花城","lon":"121.23571694306","lat":"31.062261787972","category":"47","category_name":"住宅区","address":"松江广富林路1599弄,梅家浜路1508弄"},{"poiid":"B2094757D06AA0F9409D","title":"上海外国语大学图文信息中心","lon":"121.225394867","lat":"31.0475109834","category":"253","category_name":"校园生活","address":"松江区文翔路1550号上海外国语大学图文信息中心"},{"poiid":"B2094757D568ABF94192","title":"保利·西子湾","lon":"121.23235704","lat":"31.06264133","category":"47","category_name":"住宅区","address":"松江区广富林路1188弄"},{"poiid":"B2094757D16DA5FB4998","title":"绿地蔷薇九里","lon":"121.23585033902","lat":"31.071184573855","category":"47","category_name":"住宅区","address":"上海市松江区广富林路"},{"poiid":"B2094757D569A2F8419D","title":"御上海","lon":"121.23415","lat":"31.049538","category":"47","category_name":"住宅区","address":"上海松江区谷阳北路2399弄"},{"poiid":"B2094757D06FA2FA409F","title":"上海外国语大学英语学院","lon":"121.226543","lat":"31.047136","category":"253","category_name":"校园生活","address":"松江区文翔路1550号上海外国语大学五教楼(英院)"},{"poiid":"B2094655D26FAAFA4592","title":"上外小别墅","lon":"121.22942","lat":"31.04522","category":"47","category_name":"住宅区","address":"松江区文翔路1550号上海外国语大学松江校区内(文翔路西林北路)"},{"poiid":"B2094654DB6EA0FE4599","title":"上海阳光康复中心","lon":"121.24295","lat":"31.06563","category":"162","category_name":"医院","address":"松江区松江新城区光星路2209号"},{"poiid":"B2094655D268A1FB429A","title":"新沙珑国际宾馆","lon":"121.23057","lat":"31.05185","category":"250","category_name":"公园户外","address":"松江区梅家浜路1501号(地铁9号线松江大学城站对面)"},{"poiid":"B2094757D164A2FC429A","title":"上海外国语大学西外外国语学校","lon":"121.23489246","lat":"31.042756779","category":"500","category_name":"未知分类","address":"松江区文翔路1100号"},{"poiid":"B2094654DB6EA0FE459E","title":"莱顿小城高尔夫公寓","lon":"121.24435","lat":"31.0686","category":"47","category_name":"住宅区","address":"上海松江区辰花公路839弄"},{"poiid":"B2094757DA6BA6FD4598","title":"三湘财富广场","lon":"121.236631","lat":"31.058337","category":"252","category_name":"楼宇机构","address":"松江区梅家浜路1508弄"},{"poiid":"B2094753D16EA0FD439B","title":"优麦克主题KTV","lon":"121.23027","lat":"31.05259","category":"170","category_name":"KTV","address":"松江区梅家浜路1500弄1号305(大学城地铁站对面)"},{"poiid":"B2094757D06FA2FF4498","title":"上海外国语大学二教楼","lon":"121.223657","lat":"31.047221","category":"253","category_name":"校园生活","address":"松江区文翔路1550号上海外国语大学二教楼,(国际工商管理学院,国际金融贸易学院)"},{"poiid":"B2094655D268A0F44098","title":"荣御景苑","lon":"121.240938","lat":"31.05594","category":"47","category_name":"住宅区","address":"上海市松江区谷阳北路2399弄"},{"poiid":"B2094757D06FA1FB4192","title":"上海外国语大学一教楼","lon":"121.223258","lat":"31.048041","category":"253","category_name":"校园生活","address":"松江区文翔路1550号上海外国语大学一教楼(国际教育学院,新闻传播学院)"},{"poiid":"B2094757D16CA1F9499D","title":"天萌羽毛球馆","lon":"121.250976793","lat":"31.048601684","category":"500","category_name":"未知分类","address":"松江区茸阳路250号(近茸兴路)"},{"poiid":"B2094751D369A6FE4693","title":"宝都海鲜大酒店","lon":"121.23422","lat":"31.05845","category":"76","category_name":"上海菜","address":"松江区广富林路1222号保利西子湾风情街(近嘉松南路)"},{"poiid":"B2094655D268A0FA4693","title":"沙珑餐店","lon":"121.23085","lat":"31.05185","category":"257","category_name":"中餐厅","address":"梅家浜路1501号"},{"poiid":"B2094757D16CA0F84998","title":"松江辰山植物园山顶","lon":"121.232345","lat":"31.053298","category":"500","category_name":"未知分类","address":"上海松江"},{"poiid":"B2094752D26DA0FD459B","title":"新石器烤肉(三湘店)","lon":"121.23001","lat":"31.05212","category":"68","category_name":"快餐厅","address":"松江区梅家浜路1500弄三湘财富广场(近9号线松江大学城站)"},{"poiid":"B2094655D268A0FA479A","title":"神户亭铁板烧","lon":"121.23086","lat":"31.05185","category":"269","category_name":"烧烤","address":"松江区梅家浜路1501号新沙珑国际宾馆1楼(近松江大学城)"},{"poiid":"B2094654DB6EA2F4449B","title":"名庭花苑","lon":"121.24","lat":"31.0444","category":"47","category_name":"住宅区","address":"上海市松江区新松江路259弄"},{"poiid":"B2094654DB6DA4F4489C","title":"松云水苑","lon":"121.23747","lat":"31.044041","category":"47","category_name":"住宅区","address":"文翔路928弄"},{"poiid":"B2094752D26CA5FE4592","title":"永和大王(三湘店)","lon":"121.23556","lat":"31.05132","category":"68","category_name":"快餐厅","address":"松江区梅家浜路1500弄三湘财富广场内(近9号线松江大学城站)"},{"poiid":"B2094454D268A5F9489B","title":"万达大歌星KTV上海松江店","lon":"121.241351","lat":"31.058821","category":"170","category_name":"KTV","address":"上海市松江区广富林路658弄松江万达广场三楼"},{"poiid":"B2094751D565A1FC4293","title":"麻里麻里","lon":"121.230762","lat":"31.0504426","category":"71","category_name":"四川菜","address":"松江区梅家浜路1500弄三湘财富广场内"},{"poiid":"B2094757D06FA0FD4699","title":"上海外国语大学日本文化经济学院","lon":"121.22527859","lat":"31.049337791","category":"253","category_name":"校园生活","address":"松江区文翔路1550号上海外国语大学八教楼(日院)"},{"poiid":"B2094757D16DA2FE479A","title":"三湘四季花城桂花苑","lon":"121.23594391","lat":"31.054117542","category":"500","category_name":"未知分类","address":"上海松江区广富林路1599弄"},{"poiid":"B2094454D36FA7FE4999","title":"EAsmart上海松江万达店","lon":"121.242378","lat":"31.0571","category":"249","category_name":"购物服务","address":"上海市 上海松江区广富林路658弄万达商广场综合楼一楼"},{"poiid":"B2094455DB6CABF8419C","title":"茴忆传家菜","lon":"121.23424","lat":"31.05103","category":"247","category_name":"餐饮美食","address":"松江区三湘四季财富广场2楼"},{"poiid":"B2094757D064A1FE4292","title":"松江5路","lon":"121.23281415","lat":"31.052513301","category":"38","category_name":"公交车站","address":"上海松江客运中心——松江永丰站"},{"poiid":"B2094757D06FA5FD419E","title":"上海外国语大学法学院","lon":"121.226377","lat":"31.045086","category":"253","category_name":"校园生活","address":"松江区文翔路1550号上海外国语大学四教楼(法学院)"},{"poiid":"B2094757D16FAAFE409A","title":"五木亭拉面馆","lon":"121.230288496","lat":"31.0523786123","category":"95","category_name":"日本料理","address":"松江区梅家浜路1507号(近九号线松江大学城站)"},{"poiid":"B2094757D66EA5FD429A","title":"沙龙餐厅","lon":"121.235630196","lat":"31.0562742206","category":"500","category_name":"未知分类","address":"上海市松江区广富林路"},{"poiid":"B2094750DB6EABF8499D","title":"星辰园","lon":"121.23","lat":"31.051447","category":"47","category_name":"住宅区","address":"上海市松江区松江区梅家浜路1505弄"},{"poiid":"B2094757D06BA1FE409D","title":"三湘四季花城紫薇苑","lon":"121.23387908","lat":"31.056329727","category":"252","category_name":"楼宇机构","address":"上海市松江新城嘉松南路、梅家浜路口"},{"poiid":"B2094655D36CA2F9489C","title":"茸梅路施惠路","lon":"121.24582","lat":"31.04638","category":"38","category_name":"公交车站","address":""},{"poiid":"B2094757D16EA3F9489A","title":"松江客运中心","lon":"121.23240902","lat":"31.049586111","category":"38","category_name":"公交车站","address":"松江区梅家浜路嘉松南路(近松江大学城站)"},{"poiid":"B2094757D164A2F9469A","title":"西湾桌球（Westbay）","lon":"121.23732559","lat":"31.056794907","category":"248","category_name":"生活娱乐","address":"松江区广富林路1188弄(近嘉松南路)"},{"poiid":"B2094655D26FAAFE4499","title":"星辰园(北门)","lon":"121.22983","lat":"31.05194","category":"656","category_name":"大门","address":"梅家浜路1505弄"},{"poiid":"B2094751D26EA4FD4993","title":"上海第一人民医院松江分院","lon":"121.241577","lat":"31.049028","category":"500","category_name":"未知分类","address":null},{"poiid":"B2094655D268A0F4409A","title":"荣御景苑(东门)","lon":"121.23554","lat":"31.04904","category":"47","category_name":"住宅区","address":""},{"poiid":"B2094655D36CA7F54092","title":"广富林路嘉松公路","lon":"121.23071","lat":"31.05855","category":"38","category_name":"公交车站","address":""},{"poiid":"B2094757D66EA3F9419A","title":"大眼包子","lon":"121.232161196","lat":"31.0539741714","category":"247","category_name":"餐饮美食","address":"上海新语大包旁边"},{"poiid":"B2094750D66BAAFA4092","title":"养园和","lon":"121.232","lat":"31.054","category":"68","category_name":"快餐厅","address":"松江区地铁9号线松江新城地铁站1楼"},{"poiid":"B2094750D16AA0FA4392","title":"上海市虹口区黄浦路199号上海外滩茂悦大酒店","lon":"121.23513","lat":"31.048934","category":"500","category_name":"未知分类","address":null},{"poiid":"B2094655D26AA0FA459D","title":"地铁松江大学城站","lon":"121.2328121282244","lat":"31.053876849388867","category":"36","category_name":"地铁站","address":"上海市松江区"},{"poiid":"B2094655D26FABFB479E","title":"开元地中海","lon":"121.226","lat":"31.0447","category":"119","category_name":"商场","address":"上海松江区新松江路925号(人民北路口)"},{"poiid":"B2094757DA64A0FF419E","title":"松江万达广场","lon":"121.2428","lat":"31.058927","category":"252","category_name":"楼宇机构","address":"松江新城茸梅环路广富林路"},{"poiid":"B2094654DB6EA2F84299","title":"三湘四季花城","lon":"121.23571694306","lat":"31.062261787972","category":"47","category_name":"住宅区","address":"松江广富林路1599弄,梅家浜路1508弄"},{"poiid":"B2094757D06AA0F9409D","title":"上海外国语大学图文信息中心","lon":"121.225394867","lat":"31.0475109834","category":"253","category_name":"校园生活","address":"松江区文翔路1550号上海外国语大学图文信息中心"},{"poiid":"B2094757D568ABF94192","title":"保利·西子湾","lon":"121.23235704","lat":"31.06264133","category":"47","category_name":"住宅区","address":"松江区广富林路1188弄"},{"poiid":"B2094757D16DA5FB4998","title":"绿地蔷薇九里","lon":"121.23585033902","lat":"31.071184573855","category":"47","category_name":"住宅区","address":"上海市松江区广富林路"},{"poiid":"B2094757D569A2F8419D","title":"御上海","lon":"121.23415","lat":"31.049538","category":"47","category_name":"住宅区","address":"上海松江区谷阳北路2399弄"},{"poiid":"B2094757D06FA2FA409F","title":"上海外国语大学英语学院","lon":"121.226543","lat":"31.047136","category":"253","category_name":"校园生活","address":"松江区文翔路1550号上海外国语大学五教楼(英院)"},{"poiid":"B2094655D26FAAFA4592","title":"上外小别墅","lon":"121.22942","lat":"31.04522","category":"47","category_name":"住宅区","address":"松江区文翔路1550号上海外国语大学松江校区内(文翔路西林北路)"},{"poiid":"B2094654DB6EA0FE4599","title":"上海阳光康复中心","lon":"121.24295","lat":"31.06563","category":"162","category_name":"医院","address":"松江区松江新城区光星路2209号"},{"poiid":"B2094655D268A1FB429A","title":"新沙珑国际宾馆","lon":"121.23057","lat":"31.05185","category":"250","category_name":"公园户外","address":"松江区梅家浜路1501号(地铁9号线松江大学城站对面)"},{"poiid":"B2094757D164A2FC429A","title":"上海外国语大学西外外国语学校","lon":"121.23489246","lat":"31.042756779","category":"500","category_name":"未知分类","address":"松江区文翔路1100号"},{"poiid":"B2094654DB6EA0FE459E","title":"莱顿小城高尔夫公寓","lon":"121.24435","lat":"31.0686","category":"47","category_name":"住宅区","address":"上海松江区辰花公路839弄"},{"poiid":"B2094757DA6BA6FD4598","title":"三湘财富广场","lon":"121.236631","lat":"31.058337","category":"252","category_name":"楼宇机构","address":"松江区梅家浜路1508弄"},{"poiid":"B2094753D16EA0FD439B","title":"优麦克主题KTV","lon":"121.23027","lat":"31.05259","category":"170","category_name":"KTV","address":"松江区梅家浜路1500弄1号305(大学城地铁站对面)"},{"poiid":"B2094757D06FA2FF4498","title":"上海外国语大学二教楼","lon":"121.223657","lat":"31.047221","category":"253","category_name":"校园生活","address":"松江区文翔路1550号上海外国语大学二教楼,(国际工商管理学院,国际金融贸易学院)"},{"poiid":"B2094655D268A0F44098","title":"荣御景苑","lon":"121.240938","lat":"31.05594","category":"47","category_name":"住宅区","address":"上海市松江区谷阳北路2399弄"},{"poiid":"B2094757D06FA1FB4192","title":"上海外国语大学一教楼","lon":"121.223258","lat":"31.048041","category":"253","category_name":"校园生活","address":"松江区文翔路1550号上海外国语大学一教楼(国际教育学院,新闻传播学院)"},{"poiid":"B2094757D16CA1F9499D","title":"天萌羽毛球馆","lon":"121.250976793","lat":"31.048601684","category":"500","category_name":"未知分类","address":"松江区茸阳路250号(近茸兴路)"},{"poiid":"B2094751D369A6FE4693","title":"宝都海鲜大酒店","lon":"121.23422","lat":"31.05845","category":"76","category_name":"上海菜","address":"松江区广富林路1222号保利西子湾风情街(近嘉松南路)"},{"poiid":"B2094655D268A0FA4693","title":"沙珑餐店","lon":"121.23085","lat":"31.05185","category":"257","category_name":"中餐厅","address":"梅家浜路1501号"},{"poiid":"B2094757D16CA0F84998","title":"松江辰山植物园山顶","lon":"121.232345","lat":"31.053298","category":"500","category_name":"未知分类","address":"上海松江"},{"poiid":"B2094752D26DA0FD459B","title":"新石器烤肉(三湘店)","lon":"121.23001","lat":"31.05212","category":"68","category_name":"快餐厅","address":"松江区梅家浜路1500弄三湘财富广场(近9号线松江大学城站)"},{"poiid":"B2094655D268A0FA479A","title":"神户亭铁板烧","lon":"121.23086","lat":"31.05185","category":"269","category_name":"烧烤","address":"松江区梅家浜路1501号新沙珑国际宾馆1楼(近松江大学城)"},{"poiid":"B2094654DB6EA2F4449B","title":"名庭花苑","lon":"121.24","lat":"31.0444","category":"47","category_name":"住宅区","address":"上海市松江区新松江路259弄"},{"poiid":"B2094654DB6DA4F4489C","title":"松云水苑","lon":"121.23747","lat":"31.044041","category":"47","category_name":"住宅区","address":"文翔路928弄"},{"poiid":"B2094752D26CA5FE4592","title":"永和大王(三湘店)","lon":"121.23556","lat":"31.05132","category":"68","category_name":"快餐厅","address":"松江区梅家浜路1500弄三湘财富广场内(近9号线松江大学城站)"},{"poiid":"B2094454D268A5F9489B","title":"万达大歌星KTV上海松江店","lon":"121.241351","lat":"31.058821","category":"170","category_name":"KTV","address":"上海市松江区广富林路658弄松江万达广场三楼"},{"poiid":"B2094751D565A1FC4293","title":"麻里麻里","lon":"121.230762","lat":"31.0504426","category":"71","category_name":"四川菜","address":"松江区梅家浜路1500弄三湘财富广场内"},{"poiid":"B2094757D06FA0FD4699","title":"上海外国语大学日本文化经济学院","lon":"121.22527859","lat":"31.049337791","category":"253","category_name":"校园生活","address":"松江区文翔路1550号上海外国语大学八教楼(日院)"},{"poiid":"B2094757D16DA2FE479A","title":"三湘四季花城桂花苑","lon":"121.23594391","lat":"31.054117542","category":"500","category_name":"未知分类","address":"上海松江区广富林路1599弄"},{"poiid":"B2094454D36FA7FE4999","title":"EAsmart上海松江万达店","lon":"121.242378","lat":"31.0571","category":"249","category_name":"购物服务","address":"上海市 上海松江区广富林路658弄万达商广场综合楼一楼"},{"poiid":"B2094455DB6CABF8419C","title":"茴忆传家菜","lon":"121.23424","lat":"31.05103","category":"247","category_name":"餐饮美食","address":"松江区三湘四季财富广场2楼"},{"poiid":"B2094757D064A1FE4292","title":"松江5路","lon":"121.23281415","lat":"31.052513301","category":"38","category_name":"公交车站","address":"上海松江客运中心——松江永丰站"},{"poiid":"B2094757D06FA5FD419E","title":"上海外国语大学法学院","lon":"121.226377","lat":"31.045086","category":"253","category_name":"校园生活","address":"松江区文翔路1550号上海外国语大学四教楼(法学院)"},{"poiid":"B2094757D16FAAFE409A","title":"五木亭拉面馆","lon":"121.230288496","lat":"31.0523786123","category":"95","category_name":"日本料理","address":"松江区梅家浜路1507号(近九号线松江大学城站)"},{"poiid":"B2094757D66EA5FD429A","title":"沙龙餐厅","lon":"121.235630196","lat":"31.0562742206","category":"500","category_name":"未知分类","address":"上海市松江区广富林路"},{"poiid":"B2094750DB6EABF8499D","title":"星辰园","lon":"121.23","lat":"31.051447","category":"47","category_name":"住宅区","address":"上海市松江区松江区梅家浜路1505弄"},{"poiid":"B2094757D06BA1FE409D","title":"三湘四季花城紫薇苑","lon":"121.23387908","lat":"31.056329727","category":"252","category_name":"楼宇机构","address":"上海市松江新城嘉松南路、梅家浜路口"},{"poiid":"B2094655D36CA2F9489C","title":"茸梅路施惠路","lon":"121.24582","lat":"31.04638","category":"38","category_name":"公交车站","address":""},{"poiid":"B2094757D16EA3F9489A","title":"松江客运中心","lon":"121.23240902","lat":"31.049586111","category":"38","category_name":"公交车站","address":"松江区梅家浜路嘉松南路(近松江大学城站)"},{"poiid":"B2094757D164A2F9469A","title":"西湾桌球（Westbay）","lon":"121.23732559","lat":"31.056794907","category":"248","category_name":"生活娱乐","address":"松江区广富林路1188弄(近嘉松南路)"},{"poiid":"B2094655D26FAAFE4499","title":"星辰园(北门)","lon":"121.22983","lat":"31.05194","category":"656","category_name":"大门","address":"梅家浜路1505弄"},{"poiid":"B2094751D26EA4FD4993","title":"上海第一人民医院松江分院","lon":"121.241577","lat":"31.049028","category":"500","category_name":"未知分类","address":null},{"poiid":"B2094655D268A0F4409A","title":"荣御景苑(东门)","lon":"121.23554","lat":"31.04904","category":"47","category_name":"住宅区","address":""},{"poiid":"B2094655D36CA7F54092","title":"广富林路嘉松公路","lon":"121.23071","lat":"31.05855","category":"38","category_name":"公交车站","address":""},{"poiid":"B2094757D66EA3F9419A","title":"大眼包子","lon":"121.232161196","lat":"31.0539741714","category":"247","category_name":"餐饮美食","address":"上海新语大包旁边"},{"poiid":"B2094750D66BAAFA4092","title":"养园和","lon":"121.232","lat":"31.054","category":"68","category_name":"快餐厅","address":"松江区地铁9号线松江新城地铁站1楼"},{"poiid":"B2094750D16AA0FA4392","title":"上海市虹口区黄浦路199号上海外滩茂悦大酒店","lon":"121.23513","lat":"31.048934","category":"500","category_name":"未知分类","address":null},{"poiid":"B2094655D26AA0FA459D","title":"地铁松江大学城站","lon":"121.2328121282244","lat":"31.053876849388867","category":"36","category_name":"地铁站","address":"上海市松江区"},{"poiid":"B2094655D26FABFB479E","title":"开元地中海","lon":"121.226","lat":"31.0447","category":"119","category_name":"商场","address":"上海松江区新松江路925号(人民北路口)"},{"poiid":"B2094757DA64A0FF419E","title":"松江万达广场","lon":"121.2428","lat":"31.058927","category":"252","category_name":"楼宇机构","address":"松江新城茸梅环路广富林路"},{"poiid":"B2094654DB6EA2F84299","title":"三湘四季花城","lon":"121.23571694306","lat":"31.062261787972","category":"47","category_name":"住宅区","address":"松江广富林路1599弄,梅家浜路1508弄"},{"poiid":"B2094757D06AA0F9409D","title":"上海外国语大学图文信息中心","lon":"121.225394867","lat":"31.0475109834","category":"253","category_name":"校园生活","address":"松江区文翔路1550号上海外国语大学图文信息中心"},{"poiid":"B2094757D568ABF94192","title":"保利·西子湾","lon":"121.23235704","lat":"31.06264133","category":"47","category_name":"住宅区","address":"松江区广富林路1188弄"},{"poiid":"B2094757D16DA5FB4998","title":"绿地蔷薇九里","lon":"121.23585033902","lat":"31.071184573855","category":"47","category_name":"住宅区","address":"上海市松江区广富林路"},{"poiid":"B2094757D569A2F8419D","title":"御上海","lon":"121.23415","lat":"31.049538","category":"47","category_name":"住宅区","address":"上海松江区谷阳北路2399弄"},{"poiid":"B2094757D06FA2FA409F","title":"上海外国语大学英语学院","lon":"121.226543","lat":"31.047136","category":"253","category_name":"校园生活","address":"松江区文翔路1550号上海外国语大学五教楼(英院)"},{"poiid":"B2094655D26FAAFA4592","title":"上外小别墅","lon":"121.22942","lat":"31.04522","category":"47","category_name":"住宅区","address":"松江区文翔路1550号上海外国语大学松江校区内(文翔路西林北路)"},{"poiid":"B2094654DB6EA0FE4599","title":"上海阳光康复中心","lon":"121.24295","lat":"31.06563","category":"162","category_name":"医院","address":"松江区松江新城区光星路2209号"},{"poiid":"B2094655D268A1FB429A","title":"新沙珑国际宾馆","lon":"121.23057","lat":"31.05185","category":"250","category_name":"公园户外","address":"松江区梅家浜路1501号(地铁9号线松江大学城站对面)"},{"poiid":"B2094757D164A2FC429A","title":"上海外国语大学西外外国语学校","lon":"121.23489246","lat":"31.042756779","category":"500","category_name":"未知分类","address":"松江区文翔路1100号"},{"poiid":"B2094654DB6EA0FE459E","title":"莱顿小城高尔夫公寓","lon":"121.24435","lat":"31.0686","category":"47","category_name":"住宅区","address":"上海松江区辰花公路839弄"},{"poiid":"B2094757DA6BA6FD4598","title":"三湘财富广场","lon":"121.236631","lat":"31.058337","category":"252","category_name":"楼宇机构","address":"松江区梅家浜路1508弄"},{"poiid":"B2094753D16EA0FD439B","title":"优麦克主题KTV","lon":"121.23027","lat":"31.05259","category":"170","category_name":"KTV","address":"松江区梅家浜路1500弄1号305(大学城地铁站对面)"},{"poiid":"B2094757D06FA2FF4498","title":"上海外国语大学二教楼","lon":"121.223657","lat":"31.047221","category":"253","category_name":"校园生活","address":"松江区文翔路1550号上海外国语大学二教楼,(国际工商管理学院,国际金融贸易学院)"},{"poiid":"B2094655D268A0F44098","title":"荣御景苑","lon":"121.240938","lat":"31.05594","category":"47","category_name":"住宅区","address":"上海市松江区谷阳北路2399弄"},{"poiid":"B2094757D06FA1FB4192","title":"上海外国语大学一教楼","lon":"121.223258","lat":"31.048041","category":"253","category_name":"校园生活","address":"松江区文翔路1550号上海外国语大学一教楼(国际教育学院,新闻传播学院)"},{"poiid":"B2094757D16CA1F9499D","title":"天萌羽毛球馆","lon":"121.250976793","lat":"31.048601684","category":"500","category_name":"未知分类","address":"松江区茸阳路250号(近茸兴路)"},{"poiid":"B2094751D369A6FE4693","title":"宝都海鲜大酒店","lon":"121.23422","lat":"31.05845","category":"76","category_name":"上海菜","address":"松江区广富林路1222号保利西子湾风情街(近嘉松南路)"},{"poiid":"B2094655D268A0FA4693","title":"沙珑餐店","lon":"121.23085","lat":"31.05185","category":"257","category_name":"中餐厅","address":"梅家浜路1501号"},{"poiid":"B2094757D16CA0F84998","title":"松江辰山植物园山顶","lon":"121.232345","lat":"31.053298","category":"500","category_name":"未知分类","address":"上海松江"},{"poiid":"B2094752D26DA0FD459B","title":"新石器烤肉(三湘店)","lon":"121.23001","lat":"31.05212","category":"68","category_name":"快餐厅","address":"松江区梅家浜路1500弄三湘财富广场(近9号线松江大学城站)"},{"poiid":"B2094655D268A0FA479A","title":"神户亭铁板烧","lon":"121.23086","lat":"31.05185","category":"269","category_name":"烧烤","address":"松江区梅家浜路1501号新沙珑国际宾馆1楼(近松江大学城)"},{"poiid":"B2094654DB6EA2F4449B","title":"名庭花苑","lon":"121.24","lat":"31.0444","category":"47","category_name":"住宅区","address":"上海市松江区新松江路259弄"},{"poiid":"B2094654DB6DA4F4489C","title":"松云水苑","lon":"121.23747","lat":"31.044041","category":"47","category_name":"住宅区","address":"文翔路928弄"},{"poiid":"B2094752D26CA5FE4592","title":"永和大王(三湘店)","lon":"121.23556","lat":"31.05132","category":"68","category_name":"快餐厅","address":"松江区梅家浜路1500弄三湘财富广场内(近9号线松江大学城站)"},{"poiid":"B2094454D268A5F9489B","title":"万达大歌星KTV上海松江店","lon":"121.241351","lat":"31.058821","category":"170","category_name":"KTV","address":"上海市松江区广富林路658弄松江万达广场三楼"},{"poiid":"B2094751D565A1FC4293","title":"麻里麻里","lon":"121.230762","lat":"31.0504426","category":"71","category_name":"四川菜","address":"松江区梅家浜路1500弄三湘财富广场内"},{"poiid":"B2094757D06FA0FD4699","title":"上海外国语大学日本文化经济学院","lon":"121.22527859","lat":"31.049337791","category":"253","category_name":"校园生活","address":"松江区文翔路1550号上海外国语大学八教楼(日院)"},{"poiid":"B2094757D16DA2FE479A","title":"三湘四季花城桂花苑","lon":"121.23594391","lat":"31.054117542","category":"500","category_name":"未知分类","address":"上海松江区广富林路1599弄"},{"poiid":"B2094454D36FA7FE4999","title":"EAsmart上海松江万达店","lon":"121.242378","lat":"31.0571","category":"249","category_name":"购物服务","address":"上海市 上海松江区广富林路658弄万达商广场综合楼一楼"},{"poiid":"B2094455DB6CABF8419C","title":"茴忆传家菜","lon":"121.23424","lat":"31.05103","category":"247","category_name":"餐饮美食","address":"松江区三湘四季财富广场2楼"},{"poiid":"B2094757D064A1FE4292","title":"松江5路","lon":"121.23281415","lat":"31.052513301","category":"38","category_name":"公交车站","address":"上海松江客运中心——松江永丰站"},{"poiid":"B2094757D06FA5FD419E","title":"上海外国语大学法学院","lon":"121.226377","lat":"31.045086","category":"253","category_name":"校园生活","address":"松江区文翔路1550号上海外国语大学四教楼(法学院)"},{"poiid":"B2094757D16FAAFE409A","title":"五木亭拉面馆","lon":"121.230288496","lat":"31.0523786123","category":"95","category_name":"日本料理","address":"松江区梅家浜路1507号(近九号线松江大学城站)"},{"poiid":"B2094757D66EA5FD429A","title":"沙龙餐厅","lon":"121.235630196","lat":"31.0562742206","category":"500","category_name":"未知分类","address":"上海市松江区广富林路"},{"poiid":"B2094750DB6EABF8499D","title":"星辰园","lon":"121.23","lat":"31.051447","category":"47","category_name":"住宅区","address":"上海市松江区松江区梅家浜路1505弄"},{"poiid":"B2094757D06BA1FE409D","title":"三湘四季花城紫薇苑","lon":"121.23387908","lat":"31.056329727","category":"252","category_name":"楼宇机构","address":"上海市松江新城嘉松南路、梅家浜路口"},{"poiid":"B2094655D36CA2F9489C","title":"茸梅路施惠路","lon":"121.24582","lat":"31.04638","category":"38","category_name":"公交车站","address":""},{"poiid":"B2094757D16EA3F9489A","title":"松江客运中心","lon":"121.23240902","lat":"31.049586111","category":"38","category_name":"公交车站","address":"松江区梅家浜路嘉松南路(近松江大学城站)"},{"poiid":"B2094757D164A2F9469A","title":"西湾桌球（Westbay）","lon":"121.23732559","lat":"31.056794907","category":"248","category_name":"生活娱乐","address":"松江区广富林路1188弄(近嘉松南路)"},{"poiid":"B2094655D26FAAFE4499","title":"星辰园(北门)","lon":"121.22983","lat":"31.05194","category":"656","category_name":"大门","address":"梅家浜路1505弄"},{"poiid":"B2094751D26EA4FD4993","title":"上海第一人民医院松江分院","lon":"121.241577","lat":"31.049028","category":"500","category_name":"未知分类","address":null},{"poiid":"B2094655D268A0F4409A","title":"荣御景苑(东门)","lon":"121.23554","lat":"31.04904","category":"47","category_name":"住宅区","address":""},{"poiid":"B2094655D36CA7F54092","title":"广富林路嘉松公路","lon":"121.23071","lat":"31.05855","category":"38","category_name":"公交车站","address":""},{"poiid":"B2094757D66EA3F9419A","title":"大眼包子","lon":"121.232161196","lat":"31.0539741714","category":"247","category_name":"餐饮美食","address":"上海新语大包旁边"},{"poiid":"B2094750D66BAAFA4092","title":"养园和","lon":"121.232","lat":"31.054","category":"68","category_name":"快餐厅","address":"松江区地铁9号线松江新城地铁站1楼"},{"poiid":"B2094750D16AA0FA4392","title":"上海市虹口区黄浦路199号上海外滩茂悦大酒店","lon":"121.23513","lat":"31.048934","category":"500","category_name":"未知分类","address":null}]