[{"poiid":"B2094757D068A2FF4792","title":"梅陇镇文化体育中心","lon":"121.40527285","lat":"31.113818638","category":"500","category_name":"未知分类","address":"闵行区高兴路108号(近莲花南路)"},{"poiid":"B2094757D16CA1FB419F","title":"江南名邸","lon":"121.39625","lat":"31.108831","category":"47","category_name":"住宅区","address":"上海市闵行区高兴路666弄"},{"poiid":"B2094757D06FABF5459F","title":"华东医院(闵行门诊部)","lon":"121.40714137","lat":"31.107753836","category":"162","category_name":"医院","address":"闵行区春申路2869号(莲花南路口)"},{"poiid":"B2094757D065A5FE479D","title":"COSTA COFFEE(兴梅路店)","lon":"121.40269185","lat":"31.106029482","category":"65","category_name":"咖啡厅","address":"闵行区兴梅路1234号春申景城裙楼(近莲花南路)"},{"poiid":"B2094757D069A5FE439A","title":"恒隆大酒店(春申店)","lon":"121.3996","lat":"31.10565","category":"76","category_name":"上海菜","address":"闵行区春申路2828号(近洱海路)"},{"poiid":"B2094757D06BA1FB4292","title":"小尾羊 春申店","lon":"121.40347","lat":"31.1068","category":"86","category_name":"火锅店","address":"春申路2688号近莲花南路"},{"poiid":"B2094757D069AAFB499A","title":"奥塞花园","lon":"121.39630686356","lat":"31.103186829537","category":"47","category_name":"住宅区","address":"上海普洱路88弄"},{"poiid":"B2094654DB6CAAF9429A","title":"春申玫瑰苑(南门)","lon":"121.39797","lat":"31.10689","category":"656","category_name":"大门","address":"洱海路99弄"},{"poiid":"B2094654DB69A5FF439B","title":"莫泰168连锁旅店(畹町路店)","lon":"121.39817","lat":"31.11209","category":"216","category_name":"经济型连锁酒店","address":"闵行区畹町路479号(近春申路)"},{"poiid":"B2094654DB6CAAF84593","title":"中城绿苑·西苑","lon":"121.40098","lat":"31.11277","category":"47","category_name":"住宅区","address":"上海闵行区伟业路621弄"},{"poiid":"B2094654DB6CAAFC479A","title":"闵行区实验小学春城校区","lon":"121.40608","lat":"31.1061","category":"56","category_name":"小学","address":"伟业路228"},{"poiid":"B2094655D265A0FE4099","title":"春申大厦","lon":"121.397763","lat":"31.107486","category":"46","category_name":"楼宇","address":"上海市闵行区春申路3555号"},{"poiid":"B2094757D068A4FD499D","title":"春申路A4口","lon":"121.401133","lat":"31.106997","category":"260","category_name":"其他","address":"上海春申路畹町路"},{"poiid":"B2094757D069AAF8409F","title":"五云德小笼","lon":"121.401154","lat":"31.105544","category":"68","category_name":"快餐厅","address":"闵行区畹町路万科假日广场117号104室(近春申路)"},{"poiid":"B2094757D66AA0FE4499","title":"川流不息 春申店","lon":"121.401841","lat":"31.106043","category":"71","category_name":"四川菜","address":"闵行区畹町路99弄万科假日风景102室(近春申路)"},{"poiid":"B2094654DB6CAAF8419E","title":"绿地春申花园","lon":"121.40632","lat":"31.110668","category":"47","category_name":"住宅区","address":"绿地春申花园位于闵行莲花南路988弄"},{"poiid":"B2094655D36DA6FC449B","title":"畹町路","lon":"121.39903","lat":"31.11112","category":"38","category_name":"公交车站","address":""},{"poiid":"B2094655D26BA4F4449E","title":"华丽家园一期","lon":"121.400713","lat":"31.108325","category":"47","category_name":"住宅区","address":"上海市闵行区春申路3455弄"},{"poiid":"B2094654DB6CAAF94098","title":"上海市高兴实验学校","lon":"121.40003","lat":"31.11116","category":"55","category_name":"中学","address":"高兴路389"},{"poiid":"B2094757D068A1FF409A","title":"品家都市星城","lon":"121.39611682655","lat":"31.108100694837","category":"500","category_name":"未知分类","address":"上海闵行区富都路111弄"},{"poiid":"B2094655D26FA3F44492","title":"莘南花苑二村(东门)","lon":"121.39923","lat":"31.10995","category":"47","category_name":"住宅区","address":""},{"poiid":"B2094757D66EA1F84393","title":"水仙苑","lon":"121.400803","lat":"31.108111","category":"500","category_name":"未知分类","address":"水仙苑位于闵行春申路2828号"},{"poiid":"B2094757D66AA7F4419C","title":"翠花老菜饺子","lon":"121.401745054","lat":"31.105942793","category":"82","category_name":"东北菜","address":"闵行区畹町路99弄万科假日风景109号204室(近春申路)"},{"poiid":"B2094757D16DA5FF4298","title":"和庭小菜","lon":"121.40132","lat":"31.1088","category":"76","category_name":"上海菜","address":"闵行区畹町路1221号万科假日广场(春申路口)"},{"poiid":"B2094654DB6CAAFE4092","title":"假日广场步行街","lon":"121.40164","lat":"31.10588","category":"116","category_name":"特色商业街","address":""},{"poiid":"B2094757D064ABFF489C","title":"柏林春天二期","lon":"121.40193604054","lat":"31.109334971276","category":"47","category_name":"住宅区","address":"上海闵行区都市路4580弄"},{"poiid":"B2094654DB64A1FF4593","title":"花之林人文茶馆 春申店","lon":"121.401503054","lat":"31.106423793","category":"66","category_name":"茶艺馆","address":"闵行区畹町路99弄万科假日风景102(近春申路)"},{"poiid":"B2094654DB64A1FF4799","title":"莘南花苑二村","lon":"121.39724","lat":"31.108997","category":"47","category_name":"住宅区","address":"莘南花苑二村"},{"poiid":"B2094655D268A2FF4999","title":"闵行区老师进修学院附属梅陇实验学校","lon":"121.40003","lat":"31.11116","category":"55","category_name":"中学","address":"高兴路389"},{"poiid":"B2094655D26AA2FE4598","title":"克莉丝汀 春申店","lon":"121.401176054","lat":"31.105848793","category":"112","category_name":"糕饼店","address":"闵行区春申路2758号(近畹町路)"},{"poiid":"B2094654DB6CAAF94192","title":"新申花城茉莉苑3号门","lon":"121.40004","lat":"31.10754","category":"47","category_name":"住宅区","address":"洱海路"},{"poiid":"B2094655D26FA3FB4092","title":"中城绿苑东苑","lon":"121.40235","lat":"31.11334","category":"47","category_name":"住宅区","address":"上海市闵行区伟业路620弄"},{"poiid":"B2094654DB6CAAFD4993","title":"金城港式小厨","lon":"121.40157","lat":"31.10517","category":"72","category_name":"广东菜","address":"闵行区畹町路133号万科假日广场内(近春申路)"},{"poiid":"B2094757D068A2FF459B","title":"春申玫瑰苑","lon":"121.39872","lat":"31.108006","category":"500","category_name":"未知分类","address":"上海市闵行区洱海路99弄"},{"poiid":"B2094757D569A0FE499F","title":"名都新城三期","lon":"121.397809","lat":"31.109505","category":"47","category_name":"住宅区","address":"上海市闵行区富都路55弄"},{"poiid":"B2094654DB6CAAFF449D","title":"随园玉兰苑","lon":"121.40493","lat":"31.10965","category":"47","category_name":"住宅区","address":"伟业路388弄"},{"poiid":"B2094654DB6CAAF94193","title":"闵行区佳佳幼儿园分园","lon":"121.39914","lat":"31.107","category":"57","category_name":"幼儿园","address":"闵行区莘庄镇春申路茉莉苑1768号"},{"poiid":"B2094654DB6CAAF94099","title":"上海市高兴实验学校向明中学附属学校","lon":"121.40003","lat":"31.11116","category":"55","category_name":"中学","address":"高兴路389"},{"poiid":"B2094757D169A0F5469B","title":"闵行25路","lon":"121.400644157","lat":"31.1099329609","category":"500","category_name":"未知分类","address":"上海莲花南路地铁站到都庄路"},{"poiid":"B2094752D768A4F54392","title":"永和大王","lon":"121.402747","lat":"31.110914","category":"247","category_name":"餐饮美食","address":"大潤發"},{"poiid":"B2094750D66BAAF5459D","title":"塔哈尔羊蝎子火锅","lon":"121.396","lat":"31.1121","category":"86","category_name":"火锅店","address":"闵行区莘朱路751号(近莘吉路)"},{"poiid":"B2094757D568A7F94893","title":"村濑食苑","lon":"121.40158393","lat":"31.10512234","category":"95","category_name":"日本料理","address":"闵行区畹町路109号商业中心104(春申路口)"},{"poiid":"B2094655D36CA6FD489F","title":"高兴路伟业路","lon":"121.40148","lat":"31.11215","category":"38","category_name":"公交车站","address":""},{"poiid":"B2094654DB6CAAF8499E","title":"高兴花园二-四街坊(3号门)","lon":"121.40287","lat":"31.11152","category":"47","category_name":"住宅区","address":"莘朱路879弄"},{"poiid":"B2094757D66CABFC439D","title":"蜀怡浓酒家","lon":"121.395901054","lat":"31.111994793","category":"71","category_name":"四川菜","address":"闵行区莘朱路763号(近畹町路)"},{"poiid":"B2094655D264A0F94893","title":"都市星城二期","lon":"121.39549","lat":"31.106675","category":"47","category_name":"住宅区","address":"上海市闵行区天河路8号"},{"poiid":"B2094757D06AA7FC4593","title":"翼立运动俱乐部","lon":"121.4036303","lat":"31.103369109","category":"253","category_name":"校园生活","address":"闵行区畹町路99弄万科假日风景48号(近春申路)"},{"poiid":"B2094655D26EA2F4489C","title":"常兴家园","lon":"121.39986","lat":"31.112307","category":"47","category_name":"住宅区","address":"莘朱路851弄"},{"poiid":"B2094654DB6CAAFF459E","title":"新申花城","lon":"121.40095","lat":"31.10612","category":"47","category_name":"住宅区","address":"春申路2768弄"},{"poiid":"B2094655D268A4F94292","title":"莘南花苑一村(三号门)","lon":"121.39827","lat":"31.11137","category":"47","category_name":"住宅区","address":""},{"poiid":"B2094757D068A2FF4792","title":"梅陇镇文化体育中心","lon":"121.40527285","lat":"31.113818638","category":"500","category_name":"未知分类","address":"闵行区高兴路108号(近莲花南路)"},{"poiid":"B2094757D16CA1FB419F","title":"江南名邸","lon":"121.39625","lat":"31.108831","category":"47","category_name":"住宅区","address":"上海市闵行区高兴路666弄"},{"poiid":"B2094757D06FABF5459F","title":"华东医院(闵行门诊部)","lon":"121.40714137","lat":"31.107753836","category":"162","category_name":"医院","address":"闵行区春申路2869号(莲花南路口)"},{"poiid":"B2094757D065A5FE479D","title":"COSTA COFFEE(兴梅路店)","lon":"121.40269185","lat":"31.106029482","category":"65","category_name":"咖啡厅","address":"闵行区兴梅路1234号春申景城裙楼(近莲花南路)"},{"poiid":"B2094757D069A5FE439A","title":"恒隆大酒店(春申店)","lon":"121.3996","lat":"31.10565","category":"76","category_name":"上海菜","address":"闵行区春申路2828号(近洱海路)"},{"poiid":"B2094757D06BA1FB4292","title":"小尾羊 春申店","lon":"121.40347","lat":"31.1068","category":"86","category_name":"火锅店","address":"春申路2688号近莲花南路"},{"poiid":"B2094757D069AAFB499A","title":"奥塞花园","lon":"121.39630686356","lat":"31.103186829537","category":"47","category_name":"住宅区","address":"上海普洱路88弄"},{"poiid":"B2094654DB6CAAF9429A","title":"春申玫瑰苑(南门)","lon":"121.39797","lat":"31.10689","category":"656","category_name":"大门","address":"洱海路99弄"},{"poiid":"B2094654DB69A5FF439B","title":"莫泰168连锁旅店(畹町路店)","lon":"121.39817","lat":"31.11209","category":"216","category_name":"经济型连锁酒店","address":"闵行区畹町路479号(近春申路)"},{"poiid":"B2094654DB6CAAF84593","title":"中城绿苑·西苑","lon":"121.40098","lat":"31.11277","category":"47","category_name":"住宅区","address":"上海闵行区伟业路621弄"},{"poiid":"B2094654DB6CAAFC479A","title":"闵行区实验小学春城校区","lon":"121.40608","lat":"31.1061","category":"56","category_name":"小学","address":"伟业路228"},{"poiid":"B2094655D265A0FE4099","title":"春申大厦","lon":"121.397763","lat":"31.107486","category":"46","category_name":"楼宇","address":"上海市闵行区春申路3555号"},{"poiid":"B2094757D068A4FD499D","title":"春申路A4口","lon":"121.401133","lat":"31.106997","category":"260","category_name":"其他","address":"上海春申路畹町路"},{"poiid":"B2094757D069AAF8409F","title":"五云德小笼","lon":"121.401154","lat":"31.105544","category":"68","category_name":"快餐厅","address":"闵行区畹町路万科假日广场117号104室(近春申路)"},{"poiid":"B2094757D66AA0FE4499","title":"川流不息 春申店","lon":"121.401841","lat":"31.106043","category":"71","category_name":"四川菜","address":"闵行区畹町路99弄万科假日风景102室(近春申路)"},{"poiid":"B2094654DB6CAAF8419E","title":"绿地春申花园","lon":"121.40632","lat":"31.110668","category":"47","category_name":"住宅区","address":"绿地春申花园位于闵行莲花南路988弄"},{"poiid":"B2094655D36DA6FC449B","title":"畹町路","lon":"121.39903","lat":"31.11112","category":"38","category_name":"公交车站","address":""},{"poiid":"B2094655D26BA4F4449E","title":"华丽家园一期","lon":"121.400713","lat":"31.108325","category":"47","category_name":"住宅区","address":"上海市闵行区春申路3455弄"},{"poiid":"B2094654DB6CAAF94098","title":"上海市高兴实验学校","lon":"121.40003","lat":"31.11116","category":"55","category_name":"中学","address":"高兴路389"},{"poiid":"B2094757D068A1FF409A","title":"品家都市星城","lon":"121.39611682655","lat":"31.108100694837","category":"500","category_name":"未知分类","address":"上海闵行区富都路111弄"},{"poiid":"B2094655D26FA3F44492","title":"莘南花苑二村(东门)","lon":"121.39923","lat":"31.10995","category":"47","category_name":"住宅区","address":""},{"poiid":"B2094757D66EA1F84393","title":"水仙苑","lon":"121.400803","lat":"31.108111","category":"500","category_name":"未知分类","address":"水仙苑位于闵行春申路2828号"},{"poiid":"B2094757D66AA7F4419C","title":"翠花老菜饺子","lon":"121.401745054","lat":"31.105942793","category":"82","category_name":"东北菜","address":"闵行区畹町路99弄万科假日风景109号204室(近春申路)"},{"poiid":"B2094757D16DA5FF4298","title":"和庭小菜","lon":"121.40132","lat":"31.1088","category":"76","category_name":"上海菜","address":"闵行区畹町路1221号万科假日广场(春申路口)"},{"poiid":"B2094654DB6CAAFE4092","title":"假日广场步行街","lon":"121.40164","lat":"31.10588","category":"116","category_name":"特色商业街","address":""},{"poiid":"B2094757D064ABFF489C","title":"柏林春天二期","lon":"121.40193604054","lat":"31.109334971276","category":"47","category_name":"住宅区","address":"上海闵行区都市路4580弄"},{"poiid":"B2094654DB64A1FF4593","title":"花之林人文茶馆 春申店","lon":"121.401503054","lat":"31.106423793","category":"66","category_name":"茶艺馆","address":"闵行区畹町路99弄万科假日风景102(近春申路)"},{"poiid":"B2094654DB64A1FF4799","title":"莘南花苑二村","lon":"121.39724","lat":"31.108997","category":"47","category_name":"住宅区","address":"莘南花苑二村"},{"poiid":"B2094655D268A2FF4999","title":"闵行区老师进修学院附属梅陇实验学校","lon":"121.40003","lat":"31.11116","category":"55","category_name":"中学","address":"高兴路389"},{"poiid":"B2094655D26AA2FE4598","title":"克莉丝汀 春申店","lon":"121.401176054","lat":"31.105848793","category":"112","category_name":"糕饼店","address":"闵行区春申路2758号(近畹町路)"},{"poiid":"B2094654DB6CAAF94192","title":"新申花城茉莉苑3号门","lon":"121.40004","lat":"31.10754","category":"47","category_name":"住宅区","address":"洱海路"},{"poiid":"B2094655D26FA3FB4092","title":"中城绿苑东苑","lon":"121.40235","lat":"31.11334","category":"47","category_name":"住宅区","address":"上海市闵行区伟业路620弄"},{"poiid":"B2094654DB6CAAFD4993","title":"金城港式小厨","lon":"121.40157","lat":"31.10517","category":"72","category_name":"广东菜","address":"闵行区畹町路133号万科假日广场内(近春申路)"},{"poiid":"B2094757D068A2FF459B","title":"春申玫瑰苑","lon":"121.39872","lat":"31.108006","category":"500","category_name":"未知分类","address":"上海市闵行区洱海路99弄"},{"poiid":"B2094757D569A0FE499F","title":"名都新城三期","lon":"121.397809","lat":"31.109505","category":"47","category_name":"住宅区","address":"上海市闵行区富都路55弄"},{"poiid":"B2094654DB6CAAFF449D","title":"随园玉兰苑","lon":"121.40493","lat":"31.10965","category":"47","category_name":"住宅区","address":"伟业路388弄"},{"poiid":"B2094654DB6CAAF94193","title":"闵行区佳佳幼儿园分园","lon":"121.39914","lat":"31.107","category":"57","category_name":"幼儿园","address":"闵行区莘庄镇春申路茉莉苑1768号"},{"poiid":"B2094654DB6CAAF94099","title":"上海市高兴实验学校向明中学附属学校","lon":"121.40003","lat":"31.11116","category":"55","category_name":"中学","address":"高兴路389"},{"poiid":"B2094757D169A0F5469B","title":"闵行25路","lon":"121.400644157","lat":"31.1099329609","category":"500","category_name":"未知分类","address":"上海莲花南路地铁站到都庄路"},{"poiid":"B2094752D768A4F54392","title":"永和大王","lon":"121.402747","lat":"31.110914","category":"247","category_name":"餐饮美食","address":"大潤發"},{"poiid":"B2094750D66BAAF5459D","title":"塔哈尔羊蝎子火锅","lon":"121.396","lat":"31.1121","category":"86","category_name":"火锅店","address":"闵行区莘朱路751号(近莘吉路)"},{"poiid":"B2094757D568A7F94893","title":"村濑食苑","lon":"121.40158393","lat":"31.10512234","category":"95","category_name":"日本料理","address":"闵行区畹町路109号商业中心104(春申路口)"},{"poiid":"B2094655D36CA6FD489F","title":"高兴路伟业路","lon":"121.40148","lat":"31.11215","category":"38","category_name":"公交车站","address":""},{"poiid":"B2094654DB6CAAF8499E","title":"高兴花园二-四街坊(3号门)","lon":"121.40287","lat":"31.11152","category":"47","category_name":"住宅区","address":"莘朱路879弄"},{"poiid":"B2094757D66CABFC439D","title":"蜀怡浓酒家","lon":"121.395901054","lat":"31.111994793","category":"71","category_name":"四川菜","address":"闵行区莘朱路763号(近畹町路)"},{"poiid":"B2094655D264A0F94893","title":"都市星城二期","lon":"121.39549","lat":"31.106675","category":"47","category_name":"住宅区","address":"上海市闵行区天河路8号"},{"poiid":"B2094757D06AA7FC4593","title":"翼立运动俱乐部","lon":"121.4036303","lat":"31.103369109","category":"253","category_name":"校园生活","address":"闵行区畹町路99弄万科假日风景48号(近春申路)"},{"poiid":"B2094655D26EA2F4489C","title":"常兴家园","lon":"121.39986","lat":"31.112307","category":"47","category_name":"住宅区","address":"莘朱路851弄"},{"poiid":"B2094654DB6CAAFF459E","title":"新申花城","lon":"121.40095","lat":"31.10612","category":"47","category_name":"住宅区","address":"春申路2768弄"},{"poiid":"B2094655D268A4F94292","title":"莘南花苑一村(三号门)","lon":"121.39827","lat":"31.11137","category":"47","category_name":"住宅区","address":""},{"poiid":"B2094757D068A2FF4792","title":"梅陇镇文化体育中心","lon":"121.40527285","lat":"31.113818638","category":"500","category_name":"未知分类","address":"闵行区高兴路108号(近莲花南路)"},{"poiid":"B2094757D16CA1FB419F","title":"江南名邸","lon":"121.39625","lat":"31.108831","category":"47","category_name":"住宅区","address":"上海市闵行区高兴路666弄"},{"poiid":"B2094757D06FABF5459F","title":"华东医院(闵行门诊部)","lon":"121.40714137","lat":"31.107753836","category":"162","category_name":"医院","address":"闵行区春申路2869号(莲花南路口)"},{"poiid":"B2094757D065A5FE479D","title":"COSTA COFFEE(兴梅路店)","lon":"121.40269185","lat":"31.106029482","category":"65","category_name":"咖啡厅","address":"闵行区兴梅路1234号春申景城裙楼(近莲花南路)"},{"poiid":"B2094757D069A5FE439A","title":"恒隆大酒店(春申店)","lon":"121.3996","lat":"31.10565","category":"76","category_name":"上海菜","address":"闵行区春申路2828号(近洱海路)"},{"poiid":"B2094757D06BA1FB4292","title":"小尾羊 春申店","lon":"121.40347","lat":"31.1068","category":"86","category_name":"火锅店","address":"春申路2688号近莲花南路"},{"poiid":"B2094757D069AAFB499A","title":"奥塞花园","lon":"121.39630686356","lat":"31.103186829537","category":"47","category_name":"住宅区","address":"上海普洱路88弄"},{"poiid":"B2094654DB6CAAF9429A","title":"春申玫瑰苑(南门)","lon":"121.39797","lat":"31.10689","category":"656","category_name":"大门","address":"洱海路99弄"},{"poiid":"B2094654DB69A5FF439B","title":"莫泰168连锁旅店(畹町路店)","lon":"121.39817","lat":"31.11209","category":"216","category_name":"经济型连锁酒店","address":"闵行区畹町路479号(近春申路)"},{"poiid":"B2094654DB6CAAF84593","title":"中城绿苑·西苑","lon":"121.40098","lat":"31.11277","category":"47","category_name":"住宅区","address":"上海闵行区伟业路621弄"},{"poiid":"B2094654DB6CAAFC479A","title":"闵行区实验小学春城校区","lon":"121.40608","lat":"31.1061","category":"56","category_name":"小学","address":"伟业路228"},{"poiid":"B2094655D265A0FE4099","title":"春申大厦","lon":"121.397763","lat":"31.107486","category":"46","category_name":"楼宇","address":"上海市闵行区春申路3555号"},{"poiid":"B2094757D068A4FD499D","title":"春申路A4口","lon":"121.401133","lat":"31.106997","category":"260","category_name":"其他","address":"上海春申路畹町路"},{"poiid":"B2094757D069AAF8409F","title":"五云德小笼","lon":"121.401154","lat":"31.105544","category":"68","category_name":"快餐厅","address":"闵行区畹町路万科假日广场117号104室(近春申路)"},{"poiid":"B2094757D66AA0FE4499","title":"川流不息 春申店","lon":"121.401841","lat":"31.106043","category":"71","category_name":"四川菜","address":"闵行区畹町路99弄万科假日风景102室(近春申路)"},{"poiid":"B2094654DB6CAAF8419E","title":"绿地春申花园","lon":"121.40632","lat":"31.110668","category":"47","category_name":"住宅区","address":"绿地春申花园位于闵行莲花南路988弄"},{"poiid":"B2094655D36DA6FC449B","title":"畹町路","lon":"121.39903","lat":"31.11112","category":"38","category_name":"公交车站","address":""},{"poiid":"B2094655D26BA4F4449E","title":"华丽家园一期","lon":"121.400713","lat":"31.108325","category":"47","category_name":"住宅区","address":"上海市闵行区春申路3455弄"},{"poiid":"B2094654DB6CAAF94098","title":"上海市高兴实验学校","lon":"121.40003","lat":"31.11116","category":"55","category_name":"中学","address":"高兴路389"},{"poiid":"B2094757D068A1FF409A","title":"品家都市星城","lon":"121.39611682655","lat":"31.108100694837","category":"500","category_name":"未知分类","address":"上海闵行区富都路111弄"},{"poiid":"B2094655D26FA3F44492","title":"莘南花苑二村(东门)","lon":"121.39923","lat":"31.10995","category":"47","category_name":"住宅区","address":""},{"poiid":"B2094757D66EA1F84393","title":"水仙苑","lon":"121.400803","lat":"31.108111","category":"500","category_name":"未知分类","address":"水仙苑位于闵行春申路2828号"},{"poiid":"B2094757D66AA7F4419C","title":"翠花老菜饺子","lon":"121.401745054","lat":"31.105942793","category":"82","category_name":"东北菜","address":"闵行区畹町路99弄万科假日风景109号204室(近春申路)"},{"poiid":"B2094757D16DA5FF4298","title":"和庭小菜","lon":"121.40132","lat":"31.1088","category":"76","category_name":"上海菜","address":"闵行区畹町路1221号万科假日广场(春申路口)"},{"poiid":"B2094654DB6CAAFE4092","title":"假日广场步行街","lon":"121.40164","lat":"31.10588","category":"116","category_name":"特色商业街","address":""},{"poiid":"B2094757D064ABFF489C","title":"柏林春天二期","lon":"121.40193604054","lat":"31.109334971276","category":"47","category_name":"住宅区","address":"上海闵行区都市路4580弄"},{"poiid":"B2094654DB64A1FF4593","title":"花之林人文茶馆 春申店","lon":"121.401503054","lat":"31.106423793","category":"66","category_name":"茶艺馆","address":"闵行区畹町路99弄万科假日风景102(近春申路)"},{"poiid":"B2094654DB64A1FF4799","title":"莘南花苑二村","lon":"121.39724","lat":"31.108997","category":"47","category_name":"住宅区","address":"莘南花苑二村"},{"poiid":"B2094655D268A2FF4999","title":"闵行区老师进修学院附属梅陇实验学校","lon":"121.40003","lat":"31.11116","category":"55","category_name":"中学","address":"高兴路389"},{"poiid":"B2094655D26AA2FE4598","title":"克莉丝汀 春申店","lon":"121.401176054","lat":"31.105848793","category":"112","category_name":"糕饼店","address":"闵行区春申路2758号(近畹町路)"},{"poiid":"B2094654DB6CAAF94192","title":"新申花城茉莉苑3号门","lon":"121.40004","lat":"31.10754","category":"47","category_name":"住宅区","address":"洱海路"},{"poiid":"B2094655D26FA3FB4092","title":"中城绿苑东苑","lon":"121.40235","lat":"31.11334","category":"47","category_name":"住宅区","address":"上海市闵行区伟业路620弄"},{"poiid":"B2094654DB6CAAFD4993","title":"金城港式小厨","lon":"121.40157","lat":"31.10517","category":"72","category_name":"广东菜","address":"闵行区畹町路133号万科假日广场内(近春申路)"},{"poiid":"B2094757D068A2FF459B","title":"春申玫瑰苑","lon":"121.39872","lat":"31.108006","category":"500","category_name":"未知分类","address":"上海市闵行区洱海路99弄"},{"poiid":"B2094757D569A0FE499F","title":"名都新城三期","lon":"121.397809","lat":"31.109505","category":"47","category_name":"住宅区","address":"上海市闵行区富都路55弄"},{"poiid":"B2094654DB6CAAFF449D","title":"随园玉兰苑","lon":"121.40493","lat":"31.10965","category":"47","category_name":"住宅区","address":"伟业路388弄"},{"poiid":"B2094654DB6CAAF94193","title":"闵行区佳佳幼儿园分园","lon":"121.39914","lat":"31.107","category":"57","category_name":"幼儿园","address":"闵行区莘庄镇春申路茉莉苑1768号"},{"poiid":"B2094654DB6CAAF94099","title":"上海市高兴实验学校向明中学附属学校","lon":"121.40003","lat":"31.11116","category":"55","category_name":"中学","address":"高兴路389"},{"poiid":"B2094757D169A0F5469B","title":"闵行25路","lon":"121.400644157","lat":"31.1099329609","category":"500","category_name":"未知分类","address":"上海莲花南路地铁站到都庄路"},{"poiid":"B2094752D768A4F54392","title":"永和大王","lon":"121.402747","lat":"31.110914","category":"247","category_name":"餐饮美食","address":"大潤發"},{"poiid":"B2094750D66BAAF5459D","title":"塔哈尔羊蝎子火锅","lon":"121.396","lat":"31.1121","category":"86","category_name":"火锅店","address":"闵行区莘朱路751号(近莘吉路)"},{"poiid":"B2094757D568A7F94893","title":"村濑食苑","lon":"121.40158393","lat":"31.10512234","category":"95","category_name":"日本料理","address":"闵行区畹町路109号商业中心104(春申路口)"},{"poiid":"B2094655D36CA6FD489F","title":"高兴路伟业路","lon":"121.40148","lat":"31.11215","category":"38","category_name":"公交车站","address":""},{"poiid":"B2094654DB6CAAF8499E","title":"高兴花园二-四街坊(3号门)","lon":"121.40287","lat":"31.11152","category":"47","category_name":"住宅区","address":"莘朱路879弄"},{"poiid":"B2094757D66CABFC439D","title":"蜀怡浓酒家","lon":"121.395901054","lat":"31.111994793","category":"71","category_name":"四川菜","address":"闵行区莘朱路763号(近畹町路)"},{"poiid":"B2094655D264A0F94893","title":"都市星城二期","lon":"121.39549","lat":"31.106675","category":"47","category_name":"住宅区","address":"上海市闵行区天河路8号"},{"poiid":"B2094757D06AA7FC4593","title":"翼立运动俱乐部","lon":"121.4036303","lat":"31.103369109","category":"253","category_name":"校园生活","address":"闵行区畹町路99弄万科假日风景48号(近春申路)"},{"poiid":"B2094655D26EA2F4489C","title":"常兴家园","lon":"121.39986","lat":"31.112307","category":"47","category_name":"住宅区","address":"莘朱路851弄"},{"poiid":"B2094654DB6CAAFF459E","title":"新申花城","lon":"121.40095","lat":"31.10612","category":"47","category_name":"住宅区","address":"春申路2768弄"},{"poiid":"B2094655D268A4F94292","title":"莘南花苑一村(三号门)","lon":"121.39827","lat":"31.11137","category":"47","category_name":"住宅区","address":""},{"poiid":"B2094757D068A2FF4792","title":"梅陇镇文化体育中心","lon":"121.40527285","lat":"31.113818638","category":"500","category_name":"未知分类","address":"闵行区高兴路108号(近莲花南路)"},{"poiid":"B2094757D16CA1FB419F","title":"江南名邸","lon":"121.39625","lat":"31.108831","category":"47","category_name":"住宅区","address":"上海市闵行区高兴路666弄"},{"poiid":"B2094757D06FABF5459F","title":"华东医院(闵行门诊部)","lon":"121.40714137","lat":"31.107753836","category":"162","category_name":"医院","address":"闵行区春申路2869号(莲花南路口)"},{"poiid":"B2094757D065A5FE479D","title":"COSTA COFFEE(兴梅路店)","lon":"121.40269185","lat":"31.106029482","category":"65","category_name":"咖啡厅","address":"闵行区兴梅路1234号春申景城裙楼(近莲花南路)"},{"poiid":"B2094757D069A5FE439A","title":"恒隆大酒店(春申店)","lon":"121.3996","lat":"31.10565","category":"76","category_name":"上海菜","address":"闵行区春申路2828号(近洱海路)"},{"poiid":"B2094757D06BA1FB4292","title":"小尾羊 春申店","lon":"121.40347","lat":"31.1068","category":"86","category_name":"火锅店","address":"春申路2688号近莲花南路"},{"poiid":"B2094757D069AAFB499A","title":"奥塞花园","lon":"121.39630686356","lat":"31.103186829537","category":"47","category_name":"住宅区","address":"上海普洱路88弄"},{"poiid":"B2094654DB6CAAF9429A","title":"春申玫瑰苑(南门)","lon":"121.39797","lat":"31.10689","category":"656","category_name":"大门","address":"洱海路99弄"},{"poiid":"B2094654DB69A5FF439B","title":"莫泰168连锁旅店(畹町路店)","lon":"121.39817","lat":"31.11209","category":"216","category_name":"经济型连锁酒店","address":"闵行区畹町路479号(近春申路)"},{"poiid":"B2094654DB6CAAF84593","title":"中城绿苑·西苑","lon":"121.40098","lat":"31.11277","category":"47","category_name":"住宅区","address":"上海闵行区伟业路621弄"},{"poiid":"B2094654DB6CAAFC479A","title":"闵行区实验小学春城校区","lon":"121.40608","lat":"31.1061","category":"56","category_name":"小学","address":"伟业路228"},{"poiid":"B2094655D265A0FE4099","title":"春申大厦","lon":"121.397763","lat":"31.107486","category":"46","category_name":"楼宇","address":"上海市闵行区春申路3555号"},{"poiid":"B2094757D068A4FD499D","title":"春申路A4口","lon":"121.401133","lat":"31.106997","category":"260","category_name":"其他","address":"上海春申路畹町路"},{"poiid":"B2094757D069AAF8409F","title":"五云德小笼","lon":"121.401154","lat":"31.105544","category":"68","category_name":"快餐厅","address":"闵行区畹町路万科假日广场117号104室(近春申路)"},{"poiid":"B2094757D66AA0FE4499","title":"川流不息 春申店","lon":"121.401841","lat":"31.106043","category":"71","category_name":"四川菜","address":"闵行区畹町路99弄万科假日风景102室(近春申路)"},{"poiid":"B2094654DB6CAAF8419E","title":"绿地春申花园","lon":"121.40632","lat":"31.110668","category":"47","category_name":"住宅区","address":"绿地春申花园位于闵行莲花南路988弄"},{"poiid":"B2094655D36DA6FC449B","title":"畹町路","lon":"121.39903","lat":"31.11112","category":"38","category_name":"公交车站","address":""},{"poiid":"B2094655D26BA4F4449E","title":"华丽家园一期","lon":"121.400713","lat":"31.108325","category":"47","category_name":"住宅区","address":"上海市闵行区春申路3455弄"},{"poiid":"B2094654DB6CAAF94098","title":"上海市高兴实验学校","lon":"121.40003","lat":"31.11116","category":"55","category_name":"中学","address":"高兴路389"},{"poiid":"B2094757D068A1FF409A","title":"品家都市星城","lon":"121.39611682655","lat":"31.108100694837","category":"500","category_name":"未知分类","address":"上海闵行区富都路111弄"},{"poiid":"B2094655D26FA3F44492","title":"莘南花苑二村(东门)","lon":"121.39923","lat":"31.10995","category":"47","category_name":"住宅区","address":""},{"poiid":"B2094757D66EA1F84393","title":"水仙苑","lon":"121.400803","lat":"31.108111","category":"500","category_name":"未知分类","address":"水仙苑位于闵行春申路2828号"},{"poiid":"B2094757D66AA7F4419C","title":"翠花老菜饺子","lon":"121.401745054","lat":"31.105942793","category":"82","category_name":"东北菜","address":"闵行区畹町路99弄万科假日风景109号204室(近春申路)"},{"poiid":"B2094757D16DA5FF4298","title":"和庭小菜","lon":"121.40132","lat":"31.1088","category":"76","category_name":"上海菜","address":"闵行区畹町路1221号万科假日广场(春申路口)"},{"poiid":"B2094654DB6CAAFE4092","title":"假日广场步行街","lon":"121.40164","lat":"31.10588","category":"116","category_name":"特色商业街","address":""},{"poiid":"B2094757D064ABFF489C","title":"柏林春天二期","lon":"121.40193604054","lat":"31.109334971276","category":"47","category_name":"住宅区","address":"上海闵行区都市路4580弄"},{"poiid":"B2094654DB64A1FF4593","title":"花之林人文茶馆 春申店","lon":"121.401503054","lat":"31.106423793","category":"66","category_name":"茶艺馆","address":"闵行区畹町路99弄万科假日风景102(近春申路)"},{"poiid":"B2094654DB64A1FF4799","title":"莘南花苑二村","lon":"121.39724","lat":"31.108997","category":"47","category_name":"住宅区","address":"莘南花苑二村"},{"poiid":"B2094655D268A2FF4999","title":"闵行区老师进修学院附属梅陇实验学校","lon":"121.40003","lat":"31.11116","category":"55","category_name":"中学","address":"高兴路389"},{"poiid":"B2094655D26AA2FE4598","title":"克莉丝汀 春申店","lon":"121.401176054","lat":"31.105848793","category":"112","category_name":"糕饼店","address":"闵行区春申路2758号(近畹町路)"},{"poiid":"B2094654DB6CAAF94192","title":"新申花城茉莉苑3号门","lon":"121.40004","lat":"31.10754","category":"47","category_name":"住宅区","address":"洱海路"},{"poiid":"B2094655D26FA3FB4092","title":"中城绿苑东苑","lon":"121.40235","lat":"31.11334","category":"47","category_name":"住宅区","address":"上海市闵行区伟业路620弄"},{"poiid":"B2094654DB6CAAFD4993","title":"金城港式小厨","lon":"121.40157","lat":"31.10517","category":"72","category_name":"广东菜","address":"闵行区畹町路133号万科假日广场内(近春申路)"},{"poiid":"B2094757D068A2FF459B","title":"春申玫瑰苑","lon":"121.39872","lat":"31.108006","category":"500","category_name":"未知分类","address":"上海市闵行区洱海路99弄"},{"poiid":"B2094757D569A0FE499F","title":"名都新城三期","lon":"121.397809","lat":"31.109505","category":"47","category_name":"住宅区","address":"上海市闵行区富都路55弄"},{"poiid":"B2094654DB6CAAFF449D","title":"随园玉兰苑","lon":"121.40493","lat":"31.10965","category":"47","category_name":"住宅区","address":"伟业路388弄"},{"poiid":"B2094654DB6CAAF94193","title":"闵行区佳佳幼儿园分园","lon":"121.39914","lat":"31.107","category":"57","category_name":"幼儿园","address":"闵行区莘庄镇春申路茉莉苑1768号"},{"poiid":"B2094654DB6CAAF94099","title":"上海市高兴实验学校向明中学附属学校","lon":"121.40003","lat":"31.11116","category":"55","category_name":"中学","address":"高兴路389"},{"poiid":"B2094757D169A0F5469B","title":"闵行25路","lon":"121.400644157","lat":"31.1099329609","category":"500","category_name":"未知分类","address":"上海莲花南路地铁站到都庄路"},{"poiid":"B2094752D768A4F54392","title":"永和大王","lon":"121.402747","lat":"31.110914","category":"247","category_name":"餐饮美食","address":"大潤發"},{"poiid":"B2094750D66BAAF5459D","title":"塔哈尔羊蝎子火锅","lon":"121.396","lat":"31.1121","category":"86","category_name":"火锅店","address":"闵行区莘朱路751号(近莘吉路)"},{"poiid":"B2094757D568A7F94893","title":"村濑食苑","lon":"121.40158393","lat":"31.10512234","category":"95","category_name":"日本料理","address":"闵行区畹町路109号商业中心104(春申路口)"},{"poiid":"B2094655D36CA6FD489F","title":"高兴路伟业路","lon":"121.40148","lat":"31.11215","category":"38","category_name":"公交车站","address":""},{"poiid":"B2094654DB6CAAF8499E","title":"高兴花园二-四街坊(3号门)","lon":"121.40287","lat":"31.11152","category":"47","category_name":"住宅区","address":"莘朱路879弄"},{"poiid":"B2094757D66CABFC439D","title":"蜀怡浓酒家","lon":"121.395901054","lat":"31.111994793","category":"71","category_name":"四川菜","address":"闵行区莘朱路763号(近畹町路)"},{"poiid":"B2094655D264A0F94893","title":"都市星城二期","lon":"121.39549","lat":"31.106675","category":"47","category_name":"住宅区","address":"上海市闵行区天河路8号"},{"poiid":"B2094757D06AA7FC4593","title":"翼立运动俱乐部","lon":"121.4036303","lat":"31.103369109","category":"253","category_name":"校园生活","address":"闵行区畹町路99弄万科假日风景48号(近春申路)"},{"poiid":"B2094655D26EA2F4489C","title":"常兴家园","lon":"121.39986","lat":"31.112307","category":"47","category_name":"住宅区","address":"莘朱路851弄"},{"poiid":"B2094654DB6CAAFF459E","title":"新申花城","lon":"121.40095","lat":"31.10612","category":"47","category_name":"住宅区","address":"春申路2768弄"},{"poiid":"B2094655D268A4F94292","title":"莘南花苑一村(三号门)","lon":"121.39827","lat":"31.11137","category":"47","category_name":"住宅区","address":""}]