[{"poiid":"B2094757D06EAAFC449B","title":"串串香麻辣烫(襄阳路店)","lon":"121.45859","lat":"31.20867","category":"68","category_name":"快餐厅","address":"徐汇区襄阳南路311号(近永嘉路)"},{"poiid":"B2094655D36DA1F44793","title":"襄阳南路永嘉路","lon":"121.45791","lat":"31.20864","category":"38","category_name":"公交车站","address":""},{"poiid":"B2094654DB6AA7FB479E","title":"罗斯福顶级牛排馆","lon":"121.45432","lat":"31.20603","category":"94","category_name":"西餐厅","address":"徐汇区太原路160号太原别墅瑞金宾馆内(近永嘉路)"},{"poiid":"B2094753D76FAAFA449C","title":"上海滩国泰旗舰店","lon":"121.466011","lat":"31.216125","category":"249","category_name":"购物服务","address":"淮海中路868号"},{"poiid":"B209475CD564A7F84292","title":"上海滩新天地店","lon":"121.47463","lat":"31.22164","category":"119","category_name":"商场","address":"\"太仓路181弄新天地北里15号\r\n\""},{"poiid":"B209475CD564A7F8439E","title":"上海滩中信泰富店","lon":"121.45602","lat":"31.22851","category":"119","category_name":"商场","address":"\"南京西路1168号中信泰富广场，店铺号221.\r\n\""},{"poiid":"B2094654DA6DA6F94298","title":"大可堂普洱会所","lon":"121.45772","lat":"31.20758","category":"260","category_name":"其他","address":"徐汇区襄阳南路388弄25号(近永嘉路)"},{"poiid":"B2094750D665A0FA409D","title":"水稻咖啡","lon":"121.456","lat":"31.208","category":"260","category_name":"其他","address":"徐汇区永嘉路394号(近太原路)"},{"poiid":"B2094757D069A7F5479F","title":"襄阳会馆","lon":"121.45852","lat":"31.20484","category":"76","category_name":"上海菜","address":"徐汇区建国西路296号(近襄阳南路)"},{"poiid":"B2094654DA6DA6F8479B","title":"点石斋小宴","lon":"121.45729","lat":"31.20882","category":"76","category_name":"上海菜","address":"徐汇区永嘉路320号(近襄阳南路)"},{"poiid":"B2094750D16BA4FD449E","title":"板烧王","lon":"121.454582","lat":"31.20439","category":"247","category_name":"餐饮美食","address":"卢湾区徐家汇路618号日月光中心广场B2楼台湾美食馆BT20-23室(近瑞金二路)"},{"poiid":"B2094655D36CA0F94999","title":"建国西路","lon":"121.45565","lat":"31.20408","category":"38","category_name":"公交车站","address":"建国西路354弄"},{"poiid":"B2094757D06AA3FA489E","title":"小荧星艺校(尚街校区)","lon":"121.457245738","lat":"31.2069285447","category":"500","category_name":"未知分类","address":"上海卢湾区建国西路283号(近嘉善路)"},{"poiid":"B2094750DB64A6F84193","title":"复旦大学眼耳喉鼻科医院","lon":"121.456497","lat":"31.207393","category":"162","category_name":"医院","address":null},{"poiid":"B2094757D068A6FA4299","title":"巴黎时韵","lon":"121.45768","lat":"31.205799","category":"46","category_name":"楼宇","address":"巴黎时韵位于卢湾襄阳南路500号建国西路口"},{"poiid":"B2094757D069A6FB4192","title":"The Chalet","lon":"121.45457","lat":"31.20623","category":"500","category_name":"未知分类","address":"上海徐汇区永嘉路385弄(近太原路)  "},{"poiid":"B2094655D36DA1F44792","title":"襄阳南路建国西路","lon":"121.45804","lat":"31.20557","category":"38","category_name":"公交车站","address":"上海襄阳南路建国西路"},{"poiid":"B2094751DA6FA3FC469F","title":"捞王猪肚鸡","lon":"121.45716","lat":"31.20452","category":"86","category_name":"火锅店","address":"徐汇区肇嘉浜路268号2楼(近嘉善路地铁站2号出口)"},{"poiid":"B2094654DB69A7FD439F","title":"秋萍茶宴馆","lon":"121.4576585804","lat":"31.205616427492","category":"75","category_name":"浙江菜","address":"徐汇区襄阳南路500号(近建国西路)"},{"poiid":"B2094757D16DA6F8459F","title":"中国中学","lon":"121.456","lat":"31.20754","category":"55","category_name":"中学","address":"上海徐汇区永嘉路388号(近太原路)  "},{"poiid":"B2094654DA6DA4F5489C","title":"联业大厦","lon":"121.457","lat":"31.2063","category":"46","category_name":"楼宇","address":"联业大厦位于徐汇乌鲁木齐南路299号"},{"poiid":"B2094757D16CA6FE4499","title":"Venus Spring Massage","lon":"121.460971","lat":"31.207268","category":"500","category_name":"未知分类","address":"上海市,陕西南路550弄37号嘉善坊E栋(近绍兴路)"},{"poiid":"B2094654DB6BA5FB4298","title":"向阳小学","lon":"121.45718","lat":"31.20754","category":"56","category_name":"小学","address":"徐汇区襄阳南路388弄15号(近永嘉路)"},{"poiid":"B2094654DA6DA7F4429A","title":"金钟大厦","lon":"121.455","lat":"31.2058","category":"46","category_name":"楼宇","address":"沈河北中街123号"},{"poiid":"B2094750D76EA6FC439C","title":"游者","lon":"121.457","lat":"31.2087","category":"95","category_name":"日本料理","address":"徐汇区永嘉路335号(近襄阳路)"},{"poiid":"B2094654DA6DA4FB469C","title":"天平街道社区卫生服务中心","lon":"121.45476","lat":"31.20681","category":"162","category_name":"医院","address":"徐汇区太原路110号(近永嘉路)"},{"poiid":"B2094654DA6DA6F9419C","title":"阿根厨房","lon":"121.45791","lat":"31.20689","category":"76","category_name":"上海菜","address":"徐汇区襄阳南路414号(建国西路永嘉路间)"},{"poiid":"B2094757D069A5F44799","title":"Lola Club","lon":"121.455173279","lat":"31.2044100305","category":"500","category_name":"未知分类","address":"上海永嘉路570号"},{"poiid":"B2094757DB6EA6FE4898","title":"上海客堂间精品酒店","lon":"121.455813","lat":"31.207727","category":"213","category_name":"五星级宾馆","address":"上海市徐汇区永嘉路335号(近襄阳南路)"},{"poiid":"B2094757D06AA6FA459F","title":"宋芳茶馆 Song Fang Maison de The","lon":"121.45904294968","lat":"31.209497617878","category":"66","category_name":"茶艺馆","address":"永嘉路227号甲1-3楼近陕西南路"},{"poiid":"B2094753D66BAAFE4399","title":"D.O.C GASTRONOMIA ITALIANA","lon":"121.455818","lat":"31.206611","category":"500","category_name":"未知分类","address":"上海市 东平路5号-2,-3"},{"poiid":"B2094757D16AA1FA469F","title":"永康里","lon":"121.45614","lat":"31.20967","category":"76","category_name":"上海菜","address":"徐汇区永康路(近襄阳路)"},{"poiid":"B2094757D16AA2F54399","title":"瑞金宾馆太原别墅中餐厅","lon":"121.45543","lat":"31.20554","category":"76","category_name":"上海菜","address":"杨浦区靖宇南路16号(靖宇南路永吉路)"},{"poiid":"B2094654DA6DA6F8489E","title":"达汇花园","lon":"121.45573","lat":"31.206635","category":"47","category_name":"住宅区","address":"太原路105弄1-2号,125弄1-4号"},{"poiid":"B2094655D26BA7F54493","title":"锦岩小区","lon":"121.456","lat":"31.207531","category":"47","category_name":"住宅区","address":"永嘉路385弄"},{"poiid":"B2094757D66BABFE4898","title":"德兴坊西点 襄阳南路店","lon":"121.457790054","lat":"31.207215793","category":"67","category_name":"甜品店","address":"徐汇区襄阳南路293号(近永嘉路)"},{"poiid":"B2094757D16EA7FA469D","title":"乔家栅食府","lon":"121.457663373","lat":"31.2089027357","category":"68","category_name":"快餐厅","address":"徐汇区襄阳南路336号(近永嘉路)"},{"poiid":"B2094757D068A0F8469E","title":"龙头大厦","lon":"121.454","lat":"31.205","category":"46","category_name":"楼宇","address":"徐汇区肇嘉浜路736号(近高安路)"},{"poiid":"B2094654DA6DA6F9499D","title":"皇宫爆烤鸭","lon":"121.457991054","lat":"31.208769793","category":"68","category_name":"快餐厅","address":"徐汇区襄阳南路311号(近永嘉路)"},{"poiid":"B2094655D26BABFB449E","title":"锦岩小区(北门)","lon":"121.45599","lat":"31.20776","category":"47","category_name":"住宅区","address":""},{"poiid":"B2094655D26BAAFE4293","title":"正蕃小筑(南门)","lon":"121.45565","lat":"31.20793","category":"47","category_name":"住宅区","address":"永嘉路396弄1-8号"},{"poiid":"B2094654DB65A1FA4198","title":"小棚屋酒吧","lon":"121.45589","lat":"31.20772","category":"172","category_name":"酒吧","address":"永嘉路385弄5号"},{"poiid":"B2094654DB6AA7FA4992","title":"上海市永嘉医院","lon":"121.45476","lat":"31.20681","category":"162","category_name":"医院","address":"徐汇区太原路110号"},{"poiid":"B2094757D464A5F9479B","title":"哈尔滨刘记饺子馆 永嘉路店","lon":"121.456988054","lat":"31.208580793","category":"82","category_name":"东北菜","address":"徐汇区永嘉路297号(近嘉善路)"},{"poiid":"B2094750DA6AAAFC479F","title":"奈良本寿司","lon":"121.45543","lat":"31.20401","category":"95","category_name":"日本料理","address":"徐汇区永嘉路557号"},{"poiid":"B2094753DB6EA2F8429E","title":"上海瑞金宾馆太原别墅","lon":"121.455098","lat":"31.206012","category":"214","category_name":"四星级宾馆","address":"上海徐汇区太原路160号"},{"poiid":"B2094654DA6DA6F84592","title":"中国中学操场","lon":"121.45523","lat":"31.20794","category":"55","category_name":"中学","address":"永嘉路398"},{"poiid":"B2094753D465A3F5419C","title":"鼎王无老锅","lon":"121.454528","lat":"31.207159","category":"247","category_name":"餐饮美食","address":"上海市 徐汇区衡山路2号"},{"poiid":"B2094757D06FA5FF469B","title":"乐弗涯亚洲餐厅","lon":"121.45746374","lat":"31.208731608","category":"110","category_name":"其他亚洲菜","address":"上海卢湾区永嘉路335号(近襄阳南路)"},{"poiid":"B209475CDA6AA3FC449B","title":"辉哥海鲜火锅（桃江路店）","lon":"121.45433","lat":"31.207509","category":"247","category_name":"餐饮美食","address":"上海市 桃江路近宝庆路"},{"poiid":"B2094757D06EAAFC449B","title":"串串香麻辣烫(襄阳路店)","lon":"121.45859","lat":"31.20867","category":"68","category_name":"快餐厅","address":"徐汇区襄阳南路311号(近永嘉路)"},{"poiid":"B2094655D36DA1F44793","title":"襄阳南路永嘉路","lon":"121.45791","lat":"31.20864","category":"38","category_name":"公交车站","address":""},{"poiid":"B2094654DB6AA7FB479E","title":"罗斯福顶级牛排馆","lon":"121.45432","lat":"31.20603","category":"94","category_name":"西餐厅","address":"徐汇区太原路160号太原别墅瑞金宾馆内(近永嘉路)"},{"poiid":"B2094753D76FAAFA449C","title":"上海滩国泰旗舰店","lon":"121.466011","lat":"31.216125","category":"249","category_name":"购物服务","address":"淮海中路868号"},{"poiid":"B209475CD564A7F84292","title":"上海滩新天地店","lon":"121.47463","lat":"31.22164","category":"119","category_name":"商场","address":"\"太仓路181弄新天地北里15号\r\n\""},{"poiid":"B209475CD564A7F8439E","title":"上海滩中信泰富店","lon":"121.45602","lat":"31.22851","category":"119","category_name":"商场","address":"\"南京西路1168号中信泰富广场，店铺号221.\r\n\""},{"poiid":"B2094654DA6DA6F94298","title":"大可堂普洱会所","lon":"121.45772","lat":"31.20758","category":"260","category_name":"其他","address":"徐汇区襄阳南路388弄25号(近永嘉路)"},{"poiid":"B2094750D665A0FA409D","title":"水稻咖啡","lon":"121.456","lat":"31.208","category":"260","category_name":"其他","address":"徐汇区永嘉路394号(近太原路)"},{"poiid":"B2094757D069A7F5479F","title":"襄阳会馆","lon":"121.45852","lat":"31.20484","category":"76","category_name":"上海菜","address":"徐汇区建国西路296号(近襄阳南路)"},{"poiid":"B2094654DA6DA6F8479B","title":"点石斋小宴","lon":"121.45729","lat":"31.20882","category":"76","category_name":"上海菜","address":"徐汇区永嘉路320号(近襄阳南路)"},{"poiid":"B2094750D16BA4FD449E","title":"板烧王","lon":"121.454582","lat":"31.20439","category":"247","category_name":"餐饮美食","address":"卢湾区徐家汇路618号日月光中心广场B2楼台湾美食馆BT20-23室(近瑞金二路)"},{"poiid":"B2094655D36CA0F94999","title":"建国西路","lon":"121.45565","lat":"31.20408","category":"38","category_name":"公交车站","address":"建国西路354弄"},{"poiid":"B2094757D06AA3FA489E","title":"小荧星艺校(尚街校区)","lon":"121.457245738","lat":"31.2069285447","category":"500","category_name":"未知分类","address":"上海卢湾区建国西路283号(近嘉善路)"},{"poiid":"B2094750DB64A6F84193","title":"复旦大学眼耳喉鼻科医院","lon":"121.456497","lat":"31.207393","category":"162","category_name":"医院","address":null},{"poiid":"B2094757D068A6FA4299","title":"巴黎时韵","lon":"121.45768","lat":"31.205799","category":"46","category_name":"楼宇","address":"巴黎时韵位于卢湾襄阳南路500号建国西路口"},{"poiid":"B2094757D069A6FB4192","title":"The Chalet","lon":"121.45457","lat":"31.20623","category":"500","category_name":"未知分类","address":"上海徐汇区永嘉路385弄(近太原路)  "},{"poiid":"B2094655D36DA1F44792","title":"襄阳南路建国西路","lon":"121.45804","lat":"31.20557","category":"38","category_name":"公交车站","address":"上海襄阳南路建国西路"},{"poiid":"B2094751DA6FA3FC469F","title":"捞王猪肚鸡","lon":"121.45716","lat":"31.20452","category":"86","category_name":"火锅店","address":"徐汇区肇嘉浜路268号2楼(近嘉善路地铁站2号出口)"},{"poiid":"B2094654DB69A7FD439F","title":"秋萍茶宴馆","lon":"121.4576585804","lat":"31.205616427492","category":"75","category_name":"浙江菜","address":"徐汇区襄阳南路500号(近建国西路)"},{"poiid":"B2094757D16DA6F8459F","title":"中国中学","lon":"121.456","lat":"31.20754","category":"55","category_name":"中学","address":"上海徐汇区永嘉路388号(近太原路)  "},{"poiid":"B2094654DA6DA4F5489C","title":"联业大厦","lon":"121.457","lat":"31.2063","category":"46","category_name":"楼宇","address":"联业大厦位于徐汇乌鲁木齐南路299号"},{"poiid":"B2094757D16CA6FE4499","title":"Venus Spring Massage","lon":"121.460971","lat":"31.207268","category":"500","category_name":"未知分类","address":"上海市,陕西南路550弄37号嘉善坊E栋(近绍兴路)"},{"poiid":"B2094654DB6BA5FB4298","title":"向阳小学","lon":"121.45718","lat":"31.20754","category":"56","category_name":"小学","address":"徐汇区襄阳南路388弄15号(近永嘉路)"},{"poiid":"B2094654DA6DA7F4429A","title":"金钟大厦","lon":"121.455","lat":"31.2058","category":"46","category_name":"楼宇","address":"沈河北中街123号"},{"poiid":"B2094750D76EA6FC439C","title":"游者","lon":"121.457","lat":"31.2087","category":"95","category_name":"日本料理","address":"徐汇区永嘉路335号(近襄阳路)"},{"poiid":"B2094654DA6DA4FB469C","title":"天平街道社区卫生服务中心","lon":"121.45476","lat":"31.20681","category":"162","category_name":"医院","address":"徐汇区太原路110号(近永嘉路)"},{"poiid":"B2094654DA6DA6F9419C","title":"阿根厨房","lon":"121.45791","lat":"31.20689","category":"76","category_name":"上海菜","address":"徐汇区襄阳南路414号(建国西路永嘉路间)"},{"poiid":"B2094757D069A5F44799","title":"Lola Club","lon":"121.455173279","lat":"31.2044100305","category":"500","category_name":"未知分类","address":"上海永嘉路570号"},{"poiid":"B2094757DB6EA6FE4898","title":"上海客堂间精品酒店","lon":"121.455813","lat":"31.207727","category":"213","category_name":"五星级宾馆","address":"上海市徐汇区永嘉路335号(近襄阳南路)"},{"poiid":"B2094757D06AA6FA459F","title":"宋芳茶馆 Song Fang Maison de The","lon":"121.45904294968","lat":"31.209497617878","category":"66","category_name":"茶艺馆","address":"永嘉路227号甲1-3楼近陕西南路"},{"poiid":"B2094753D66BAAFE4399","title":"D.O.C GASTRONOMIA ITALIANA","lon":"121.455818","lat":"31.206611","category":"500","category_name":"未知分类","address":"上海市 东平路5号-2,-3"},{"poiid":"B2094757D16AA1FA469F","title":"永康里","lon":"121.45614","lat":"31.20967","category":"76","category_name":"上海菜","address":"徐汇区永康路(近襄阳路)"},{"poiid":"B2094757D16AA2F54399","title":"瑞金宾馆太原别墅中餐厅","lon":"121.45543","lat":"31.20554","category":"76","category_name":"上海菜","address":"杨浦区靖宇南路16号(靖宇南路永吉路)"},{"poiid":"B2094654DA6DA6F8489E","title":"达汇花园","lon":"121.45573","lat":"31.206635","category":"47","category_name":"住宅区","address":"太原路105弄1-2号,125弄1-4号"},{"poiid":"B2094655D26BA7F54493","title":"锦岩小区","lon":"121.456","lat":"31.207531","category":"47","category_name":"住宅区","address":"永嘉路385弄"},{"poiid":"B2094757D66BABFE4898","title":"德兴坊西点 襄阳南路店","lon":"121.457790054","lat":"31.207215793","category":"67","category_name":"甜品店","address":"徐汇区襄阳南路293号(近永嘉路)"},{"poiid":"B2094757D16EA7FA469D","title":"乔家栅食府","lon":"121.457663373","lat":"31.2089027357","category":"68","category_name":"快餐厅","address":"徐汇区襄阳南路336号(近永嘉路)"},{"poiid":"B2094757D068A0F8469E","title":"龙头大厦","lon":"121.454","lat":"31.205","category":"46","category_name":"楼宇","address":"徐汇区肇嘉浜路736号(近高安路)"},{"poiid":"B2094654DA6DA6F9499D","title":"皇宫爆烤鸭","lon":"121.457991054","lat":"31.208769793","category":"68","category_name":"快餐厅","address":"徐汇区襄阳南路311号(近永嘉路)"},{"poiid":"B2094655D26BABFB449E","title":"锦岩小区(北门)","lon":"121.45599","lat":"31.20776","category":"47","category_name":"住宅区","address":""},{"poiid":"B2094655D26BAAFE4293","title":"正蕃小筑(南门)","lon":"121.45565","lat":"31.20793","category":"47","category_name":"住宅区","address":"永嘉路396弄1-8号"},{"poiid":"B2094654DB65A1FA4198","title":"小棚屋酒吧","lon":"121.45589","lat":"31.20772","category":"172","category_name":"酒吧","address":"永嘉路385弄5号"},{"poiid":"B2094654DB6AA7FA4992","title":"上海市永嘉医院","lon":"121.45476","lat":"31.20681","category":"162","category_name":"医院","address":"徐汇区太原路110号"},{"poiid":"B2094757D464A5F9479B","title":"哈尔滨刘记饺子馆 永嘉路店","lon":"121.456988054","lat":"31.208580793","category":"82","category_name":"东北菜","address":"徐汇区永嘉路297号(近嘉善路)"},{"poiid":"B2094750DA6AAAFC479F","title":"奈良本寿司","lon":"121.45543","lat":"31.20401","category":"95","category_name":"日本料理","address":"徐汇区永嘉路557号"},{"poiid":"B2094753DB6EA2F8429E","title":"上海瑞金宾馆太原别墅","lon":"121.455098","lat":"31.206012","category":"214","category_name":"四星级宾馆","address":"上海徐汇区太原路160号"},{"poiid":"B2094654DA6DA6F84592","title":"中国中学操场","lon":"121.45523","lat":"31.20794","category":"55","category_name":"中学","address":"永嘉路398"},{"poiid":"B2094753D465A3F5419C","title":"鼎王无老锅","lon":"121.454528","lat":"31.207159","category":"247","category_name":"餐饮美食","address":"上海市 徐汇区衡山路2号"},{"poiid":"B2094757D06FA5FF469B","title":"乐弗涯亚洲餐厅","lon":"121.45746374","lat":"31.208731608","category":"110","category_name":"其他亚洲菜","address":"上海卢湾区永嘉路335号(近襄阳南路)"},{"poiid":"B209475CDA6AA3FC449B","title":"辉哥海鲜火锅（桃江路店）","lon":"121.45433","lat":"31.207509","category":"247","category_name":"餐饮美食","address":"上海市 桃江路近宝庆路"},{"poiid":"B2094757D06EAAFC449B","title":"串串香麻辣烫(襄阳路店)","lon":"121.45859","lat":"31.20867","category":"68","category_name":"快餐厅","address":"徐汇区襄阳南路311号(近永嘉路)"},{"poiid":"B2094655D36DA1F44793","title":"襄阳南路永嘉路","lon":"121.45791","lat":"31.20864","category":"38","category_name":"公交车站","address":""},{"poiid":"B2094654DB6AA7FB479E","title":"罗斯福顶级牛排馆","lon":"121.45432","lat":"31.20603","category":"94","category_name":"西餐厅","address":"徐汇区太原路160号太原别墅瑞金宾馆内(近永嘉路)"},{"poiid":"B2094753D76FAAFA449C","title":"上海滩国泰旗舰店","lon":"121.466011","lat":"31.216125","category":"249","category_name":"购物服务","address":"淮海中路868号"},{"poiid":"B209475CD564A7F84292","title":"上海滩新天地店","lon":"121.47463","lat":"31.22164","category":"119","category_name":"商场","address":"\"太仓路181弄新天地北里15号\r\n\""},{"poiid":"B209475CD564A7F8439E","title":"上海滩中信泰富店","lon":"121.45602","lat":"31.22851","category":"119","category_name":"商场","address":"\"南京西路1168号中信泰富广场，店铺号221.\r\n\""},{"poiid":"B2094654DA6DA6F94298","title":"大可堂普洱会所","lon":"121.45772","lat":"31.20758","category":"260","category_name":"其他","address":"徐汇区襄阳南路388弄25号(近永嘉路)"},{"poiid":"B2094750D665A0FA409D","title":"水稻咖啡","lon":"121.456","lat":"31.208","category":"260","category_name":"其他","address":"徐汇区永嘉路394号(近太原路)"},{"poiid":"B2094757D069A7F5479F","title":"襄阳会馆","lon":"121.45852","lat":"31.20484","category":"76","category_name":"上海菜","address":"徐汇区建国西路296号(近襄阳南路)"},{"poiid":"B2094654DA6DA6F8479B","title":"点石斋小宴","lon":"121.45729","lat":"31.20882","category":"76","category_name":"上海菜","address":"徐汇区永嘉路320号(近襄阳南路)"},{"poiid":"B2094750D16BA4FD449E","title":"板烧王","lon":"121.454582","lat":"31.20439","category":"247","category_name":"餐饮美食","address":"卢湾区徐家汇路618号日月光中心广场B2楼台湾美食馆BT20-23室(近瑞金二路)"},{"poiid":"B2094655D36CA0F94999","title":"建国西路","lon":"121.45565","lat":"31.20408","category":"38","category_name":"公交车站","address":"建国西路354弄"},{"poiid":"B2094757D06AA3FA489E","title":"小荧星艺校(尚街校区)","lon":"121.457245738","lat":"31.2069285447","category":"500","category_name":"未知分类","address":"上海卢湾区建国西路283号(近嘉善路)"},{"poiid":"B2094750DB64A6F84193","title":"复旦大学眼耳喉鼻科医院","lon":"121.456497","lat":"31.207393","category":"162","category_name":"医院","address":null},{"poiid":"B2094757D068A6FA4299","title":"巴黎时韵","lon":"121.45768","lat":"31.205799","category":"46","category_name":"楼宇","address":"巴黎时韵位于卢湾襄阳南路500号建国西路口"},{"poiid":"B2094757D069A6FB4192","title":"The Chalet","lon":"121.45457","lat":"31.20623","category":"500","category_name":"未知分类","address":"上海徐汇区永嘉路385弄(近太原路)  "},{"poiid":"B2094655D36DA1F44792","title":"襄阳南路建国西路","lon":"121.45804","lat":"31.20557","category":"38","category_name":"公交车站","address":"上海襄阳南路建国西路"},{"poiid":"B2094751DA6FA3FC469F","title":"捞王猪肚鸡","lon":"121.45716","lat":"31.20452","category":"86","category_name":"火锅店","address":"徐汇区肇嘉浜路268号2楼(近嘉善路地铁站2号出口)"},{"poiid":"B2094654DB69A7FD439F","title":"秋萍茶宴馆","lon":"121.4576585804","lat":"31.205616427492","category":"75","category_name":"浙江菜","address":"徐汇区襄阳南路500号(近建国西路)"},{"poiid":"B2094757D16DA6F8459F","title":"中国中学","lon":"121.456","lat":"31.20754","category":"55","category_name":"中学","address":"上海徐汇区永嘉路388号(近太原路)  "},{"poiid":"B2094654DA6DA4F5489C","title":"联业大厦","lon":"121.457","lat":"31.2063","category":"46","category_name":"楼宇","address":"联业大厦位于徐汇乌鲁木齐南路299号"},{"poiid":"B2094757D16CA6FE4499","title":"Venus Spring Massage","lon":"121.460971","lat":"31.207268","category":"500","category_name":"未知分类","address":"上海市,陕西南路550弄37号嘉善坊E栋(近绍兴路)"},{"poiid":"B2094654DB6BA5FB4298","title":"向阳小学","lon":"121.45718","lat":"31.20754","category":"56","category_name":"小学","address":"徐汇区襄阳南路388弄15号(近永嘉路)"},{"poiid":"B2094654DA6DA7F4429A","title":"金钟大厦","lon":"121.455","lat":"31.2058","category":"46","category_name":"楼宇","address":"沈河北中街123号"},{"poiid":"B2094750D76EA6FC439C","title":"游者","lon":"121.457","lat":"31.2087","category":"95","category_name":"日本料理","address":"徐汇区永嘉路335号(近襄阳路)"},{"poiid":"B2094654DA6DA4FB469C","title":"天平街道社区卫生服务中心","lon":"121.45476","lat":"31.20681","category":"162","category_name":"医院","address":"徐汇区太原路110号(近永嘉路)"},{"poiid":"B2094654DA6DA6F9419C","title":"阿根厨房","lon":"121.45791","lat":"31.20689","category":"76","category_name":"上海菜","address":"徐汇区襄阳南路414号(建国西路永嘉路间)"},{"poiid":"B2094757D069A5F44799","title":"Lola Club","lon":"121.455173279","lat":"31.2044100305","category":"500","category_name":"未知分类","address":"上海永嘉路570号"},{"poiid":"B2094757DB6EA6FE4898","title":"上海客堂间精品酒店","lon":"121.455813","lat":"31.207727","category":"213","category_name":"五星级宾馆","address":"上海市徐汇区永嘉路335号(近襄阳南路)"},{"poiid":"B2094757D06AA6FA459F","title":"宋芳茶馆 Song Fang Maison de The","lon":"121.45904294968","lat":"31.209497617878","category":"66","category_name":"茶艺馆","address":"永嘉路227号甲1-3楼近陕西南路"},{"poiid":"B2094753D66BAAFE4399","title":"D.O.C GASTRONOMIA ITALIANA","lon":"121.455818","lat":"31.206611","category":"500","category_name":"未知分类","address":"上海市 东平路5号-2,-3"},{"poiid":"B2094757D16AA1FA469F","title":"永康里","lon":"121.45614","lat":"31.20967","category":"76","category_name":"上海菜","address":"徐汇区永康路(近襄阳路)"},{"poiid":"B2094757D16AA2F54399","title":"瑞金宾馆太原别墅中餐厅","lon":"121.45543","lat":"31.20554","category":"76","category_name":"上海菜","address":"杨浦区靖宇南路16号(靖宇南路永吉路)"},{"poiid":"B2094654DA6DA6F8489E","title":"达汇花园","lon":"121.45573","lat":"31.206635","category":"47","category_name":"住宅区","address":"太原路105弄1-2号,125弄1-4号"},{"poiid":"B2094655D26BA7F54493","title":"锦岩小区","lon":"121.456","lat":"31.207531","category":"47","category_name":"住宅区","address":"永嘉路385弄"},{"poiid":"B2094757D66BABFE4898","title":"德兴坊西点 襄阳南路店","lon":"121.457790054","lat":"31.207215793","category":"67","category_name":"甜品店","address":"徐汇区襄阳南路293号(近永嘉路)"},{"poiid":"B2094757D16EA7FA469D","title":"乔家栅食府","lon":"121.457663373","lat":"31.2089027357","category":"68","category_name":"快餐厅","address":"徐汇区襄阳南路336号(近永嘉路)"},{"poiid":"B2094757D068A0F8469E","title":"龙头大厦","lon":"121.454","lat":"31.205","category":"46","category_name":"楼宇","address":"徐汇区肇嘉浜路736号(近高安路)"},{"poiid":"B2094654DA6DA6F9499D","title":"皇宫爆烤鸭","lon":"121.457991054","lat":"31.208769793","category":"68","category_name":"快餐厅","address":"徐汇区襄阳南路311号(近永嘉路)"},{"poiid":"B2094655D26BABFB449E","title":"锦岩小区(北门)","lon":"121.45599","lat":"31.20776","category":"47","category_name":"住宅区","address":""},{"poiid":"B2094655D26BAAFE4293","title":"正蕃小筑(南门)","lon":"121.45565","lat":"31.20793","category":"47","category_name":"住宅区","address":"永嘉路396弄1-8号"},{"poiid":"B2094654DB65A1FA4198","title":"小棚屋酒吧","lon":"121.45589","lat":"31.20772","category":"172","category_name":"酒吧","address":"永嘉路385弄5号"},{"poiid":"B2094654DB6AA7FA4992","title":"上海市永嘉医院","lon":"121.45476","lat":"31.20681","category":"162","category_name":"医院","address":"徐汇区太原路110号"},{"poiid":"B2094757D464A5F9479B","title":"哈尔滨刘记饺子馆 永嘉路店","lon":"121.456988054","lat":"31.208580793","category":"82","category_name":"东北菜","address":"徐汇区永嘉路297号(近嘉善路)"},{"poiid":"B2094750DA6AAAFC479F","title":"奈良本寿司","lon":"121.45543","lat":"31.20401","category":"95","category_name":"日本料理","address":"徐汇区永嘉路557号"},{"poiid":"B2094753DB6EA2F8429E","title":"上海瑞金宾馆太原别墅","lon":"121.455098","lat":"31.206012","category":"214","category_name":"四星级宾馆","address":"上海徐汇区太原路160号"},{"poiid":"B2094654DA6DA6F84592","title":"中国中学操场","lon":"121.45523","lat":"31.20794","category":"55","category_name":"中学","address":"永嘉路398"},{"poiid":"B2094753D465A3F5419C","title":"鼎王无老锅","lon":"121.454528","lat":"31.207159","category":"247","category_name":"餐饮美食","address":"上海市 徐汇区衡山路2号"},{"poiid":"B2094757D06FA5FF469B","title":"乐弗涯亚洲餐厅","lon":"121.45746374","lat":"31.208731608","category":"110","category_name":"其他亚洲菜","address":"上海卢湾区永嘉路335号(近襄阳南路)"},{"poiid":"B209475CDA6AA3FC449B","title":"辉哥海鲜火锅（桃江路店）","lon":"121.45433","lat":"31.207509","category":"247","category_name":"餐饮美食","address":"上海市 桃江路近宝庆路"},{"poiid":"B2094757D06EAAFC449B","title":"串串香麻辣烫(襄阳路店)","lon":"121.45859","lat":"31.20867","category":"68","category_name":"快餐厅","address":"徐汇区襄阳南路311号(近永嘉路)"},{"poiid":"B2094655D36DA1F44793","title":"襄阳南路永嘉路","lon":"121.45791","lat":"31.20864","category":"38","category_name":"公交车站","address":""},{"poiid":"B2094654DB6AA7FB479E","title":"罗斯福顶级牛排馆","lon":"121.45432","lat":"31.20603","category":"94","category_name":"西餐厅","address":"徐汇区太原路160号太原别墅瑞金宾馆内(近永嘉路)"},{"poiid":"B2094753D76FAAFA449C","title":"上海滩国泰旗舰店","lon":"121.466011","lat":"31.216125","category":"249","category_name":"购物服务","address":"淮海中路868号"},{"poiid":"B209475CD564A7F84292","title":"上海滩新天地店","lon":"121.47463","lat":"31.22164","category":"119","category_name":"商场","address":"\"太仓路181弄新天地北里15号\r\n\""},{"poiid":"B209475CD564A7F8439E","title":"上海滩中信泰富店","lon":"121.45602","lat":"31.22851","category":"119","category_name":"商场","address":"\"南京西路1168号中信泰富广场，店铺号221.\r\n\""},{"poiid":"B2094654DA6DA6F94298","title":"大可堂普洱会所","lon":"121.45772","lat":"31.20758","category":"260","category_name":"其他","address":"徐汇区襄阳南路388弄25号(近永嘉路)"},{"poiid":"B2094750D665A0FA409D","title":"水稻咖啡","lon":"121.456","lat":"31.208","category":"260","category_name":"其他","address":"徐汇区永嘉路394号(近太原路)"},{"poiid":"B2094757D069A7F5479F","title":"襄阳会馆","lon":"121.45852","lat":"31.20484","category":"76","category_name":"上海菜","address":"徐汇区建国西路296号(近襄阳南路)"},{"poiid":"B2094654DA6DA6F8479B","title":"点石斋小宴","lon":"121.45729","lat":"31.20882","category":"76","category_name":"上海菜","address":"徐汇区永嘉路320号(近襄阳南路)"},{"poiid":"B2094750D16BA4FD449E","title":"板烧王","lon":"121.454582","lat":"31.20439","category":"247","category_name":"餐饮美食","address":"卢湾区徐家汇路618号日月光中心广场B2楼台湾美食馆BT20-23室(近瑞金二路)"},{"poiid":"B2094655D36CA0F94999","title":"建国西路","lon":"121.45565","lat":"31.20408","category":"38","category_name":"公交车站","address":"建国西路354弄"},{"poiid":"B2094757D06AA3FA489E","title":"小荧星艺校(尚街校区)","lon":"121.457245738","lat":"31.2069285447","category":"500","category_name":"未知分类","address":"上海卢湾区建国西路283号(近嘉善路)"},{"poiid":"B2094750DB64A6F84193","title":"复旦大学眼耳喉鼻科医院","lon":"121.456497","lat":"31.207393","category":"162","category_name":"医院","address":null},{"poiid":"B2094757D068A6FA4299","title":"巴黎时韵","lon":"121.45768","lat":"31.205799","category":"46","category_name":"楼宇","address":"巴黎时韵位于卢湾襄阳南路500号建国西路口"},{"poiid":"B2094757D069A6FB4192","title":"The Chalet","lon":"121.45457","lat":"31.20623","category":"500","category_name":"未知分类","address":"上海徐汇区永嘉路385弄(近太原路)  "},{"poiid":"B2094655D36DA1F44792","title":"襄阳南路建国西路","lon":"121.45804","lat":"31.20557","category":"38","category_name":"公交车站","address":"上海襄阳南路建国西路"},{"poiid":"B2094751DA6FA3FC469F","title":"捞王猪肚鸡","lon":"121.45716","lat":"31.20452","category":"86","category_name":"火锅店","address":"徐汇区肇嘉浜路268号2楼(近嘉善路地铁站2号出口)"},{"poiid":"B2094654DB69A7FD439F","title":"秋萍茶宴馆","lon":"121.4576585804","lat":"31.205616427492","category":"75","category_name":"浙江菜","address":"徐汇区襄阳南路500号(近建国西路)"},{"poiid":"B2094757D16DA6F8459F","title":"中国中学","lon":"121.456","lat":"31.20754","category":"55","category_name":"中学","address":"上海徐汇区永嘉路388号(近太原路)  "},{"poiid":"B2094654DA6DA4F5489C","title":"联业大厦","lon":"121.457","lat":"31.2063","category":"46","category_name":"楼宇","address":"联业大厦位于徐汇乌鲁木齐南路299号"},{"poiid":"B2094757D16CA6FE4499","title":"Venus Spring Massage","lon":"121.460971","lat":"31.207268","category":"500","category_name":"未知分类","address":"上海市,陕西南路550弄37号嘉善坊E栋(近绍兴路)"},{"poiid":"B2094654DB6BA5FB4298","title":"向阳小学","lon":"121.45718","lat":"31.20754","category":"56","category_name":"小学","address":"徐汇区襄阳南路388弄15号(近永嘉路)"},{"poiid":"B2094654DA6DA7F4429A","title":"金钟大厦","lon":"121.455","lat":"31.2058","category":"46","category_name":"楼宇","address":"沈河北中街123号"},{"poiid":"B2094750D76EA6FC439C","title":"游者","lon":"121.457","lat":"31.2087","category":"95","category_name":"日本料理","address":"徐汇区永嘉路335号(近襄阳路)"},{"poiid":"B2094654DA6DA4FB469C","title":"天平街道社区卫生服务中心","lon":"121.45476","lat":"31.20681","category":"162","category_name":"医院","address":"徐汇区太原路110号(近永嘉路)"},{"poiid":"B2094654DA6DA6F9419C","title":"阿根厨房","lon":"121.45791","lat":"31.20689","category":"76","category_name":"上海菜","address":"徐汇区襄阳南路414号(建国西路永嘉路间)"},{"poiid":"B2094757D069A5F44799","title":"Lola Club","lon":"121.455173279","lat":"31.2044100305","category":"500","category_name":"未知分类","address":"上海永嘉路570号"},{"poiid":"B2094757DB6EA6FE4898","title":"上海客堂间精品酒店","lon":"121.455813","lat":"31.207727","category":"213","category_name":"五星级宾馆","address":"上海市徐汇区永嘉路335号(近襄阳南路)"},{"poiid":"B2094757D06AA6FA459F","title":"宋芳茶馆 Song Fang Maison de The","lon":"121.45904294968","lat":"31.209497617878","category":"66","category_name":"茶艺馆","address":"永嘉路227号甲1-3楼近陕西南路"},{"poiid":"B2094753D66BAAFE4399","title":"D.O.C GASTRONOMIA ITALIANA","lon":"121.455818","lat":"31.206611","category":"500","category_name":"未知分类","address":"上海市 东平路5号-2,-3"},{"poiid":"B2094757D16AA1FA469F","title":"永康里","lon":"121.45614","lat":"31.20967","category":"76","category_name":"上海菜","address":"徐汇区永康路(近襄阳路)"},{"poiid":"B2094757D16AA2F54399","title":"瑞金宾馆太原别墅中餐厅","lon":"121.45543","lat":"31.20554","category":"76","category_name":"上海菜","address":"杨浦区靖宇南路16号(靖宇南路永吉路)"},{"poiid":"B2094654DA6DA6F8489E","title":"达汇花园","lon":"121.45573","lat":"31.206635","category":"47","category_name":"住宅区","address":"太原路105弄1-2号,125弄1-4号"},{"poiid":"B2094655D26BA7F54493","title":"锦岩小区","lon":"121.456","lat":"31.207531","category":"47","category_name":"住宅区","address":"永嘉路385弄"},{"poiid":"B2094757D66BABFE4898","title":"德兴坊西点 襄阳南路店","lon":"121.457790054","lat":"31.207215793","category":"67","category_name":"甜品店","address":"徐汇区襄阳南路293号(近永嘉路)"},{"poiid":"B2094757D16EA7FA469D","title":"乔家栅食府","lon":"121.457663373","lat":"31.2089027357","category":"68","category_name":"快餐厅","address":"徐汇区襄阳南路336号(近永嘉路)"},{"poiid":"B2094757D068A0F8469E","title":"龙头大厦","lon":"121.454","lat":"31.205","category":"46","category_name":"楼宇","address":"徐汇区肇嘉浜路736号(近高安路)"},{"poiid":"B2094654DA6DA6F9499D","title":"皇宫爆烤鸭","lon":"121.457991054","lat":"31.208769793","category":"68","category_name":"快餐厅","address":"徐汇区襄阳南路311号(近永嘉路)"},{"poiid":"B2094655D26BABFB449E","title":"锦岩小区(北门)","lon":"121.45599","lat":"31.20776","category":"47","category_name":"住宅区","address":""},{"poiid":"B2094655D26BAAFE4293","title":"正蕃小筑(南门)","lon":"121.45565","lat":"31.20793","category":"47","category_name":"住宅区","address":"永嘉路396弄1-8号"},{"poiid":"B2094654DB65A1FA4198","title":"小棚屋酒吧","lon":"121.45589","lat":"31.20772","category":"172","category_name":"酒吧","address":"永嘉路385弄5号"},{"poiid":"B2094654DB6AA7FA4992","title":"上海市永嘉医院","lon":"121.45476","lat":"31.20681","category":"162","category_name":"医院","address":"徐汇区太原路110号"},{"poiid":"B2094757D464A5F9479B","title":"哈尔滨刘记饺子馆 永嘉路店","lon":"121.456988054","lat":"31.208580793","category":"82","category_name":"东北菜","address":"徐汇区永嘉路297号(近嘉善路)"},{"poiid":"B2094750DA6AAAFC479F","title":"奈良本寿司","lon":"121.45543","lat":"31.20401","category":"95","category_name":"日本料理","address":"徐汇区永嘉路557号"},{"poiid":"B2094753DB6EA2F8429E","title":"上海瑞金宾馆太原别墅","lon":"121.455098","lat":"31.206012","category":"214","category_name":"四星级宾馆","address":"上海徐汇区太原路160号"},{"poiid":"B2094654DA6DA6F84592","title":"中国中学操场","lon":"121.45523","lat":"31.20794","category":"55","category_name":"中学","address":"永嘉路398"},{"poiid":"B2094753D465A3F5419C","title":"鼎王无老锅","lon":"121.454528","lat":"31.207159","category":"247","category_name":"餐饮美食","address":"上海市 徐汇区衡山路2号"},{"poiid":"B2094757D06FA5FF469B","title":"乐弗涯亚洲餐厅","lon":"121.45746374","lat":"31.208731608","category":"110","category_name":"其他亚洲菜","address":"上海卢湾区永嘉路335号(近襄阳南路)"},{"poiid":"B209475CDA6AA3FC449B","title":"辉哥海鲜火锅（桃江路店）","lon":"121.45433","lat":"31.207509","category":"247","category_name":"餐饮美食","address":"上海市 桃江路近宝庆路"}]