[{"poiid":"B2094757D06FA2F9449C","title":"卢湾体育场","lon":"121.46271","lat":"31.2064","category":"220","category_name":"运动场所","address":"卢湾区肇嘉浜路128号卢湾体育馆内(近陕西南路)"},{"poiid":"B2094757D16DA1F5449C","title":"嘉善老市","lon":"121.46068573","lat":"31.207114807","category":"500","category_name":"未知分类","address":"上海市徐汇区永嘉路"},{"poiid":"B2094654DB6BA4FE459A","title":"卢湾区体育中心(建国西路)","lon":"121.4641","lat":"31.20682","category":"224","category_name":"综合体育馆","address":"建国西路135号"},{"poiid":"B2094753D76FAAFA449C","title":"上海滩国泰旗舰店","lon":"121.466011","lat":"31.216125","category":"249","category_name":"购物服务","address":"淮海中路868号"},{"poiid":"B209475CD564A7F84292","title":"上海滩新天地店","lon":"121.47463","lat":"31.22164","category":"119","category_name":"商场","address":"\"太仓路181弄新天地北里15号\r\n\""},{"poiid":"B209475CD564A7F8439E","title":"上海滩中信泰富店","lon":"121.45602","lat":"31.22851","category":"119","category_name":"商场","address":"\"南京西路1168号中信泰富广场，店铺号221.\r\n\""},{"poiid":"B2094654DA6EA1FA4898","title":"得和茶馆(建国西路店)","lon":"121.4638","lat":"31.20696","category":"260","category_name":"其他","address":"卢湾区建国西路135号卢湾体育馆2楼(近瑞金二路)"},{"poiid":"B2094757D06FA7FF499D","title":"Vienna Cafe","lon":"121.46324557","lat":"31.208931419","category":"260","category_name":"其他","address":"卢湾区绍兴路25弄2号(近陕西南路)"},{"poiid":"B2094752DB6EA5FB4493","title":"徹思叔叔现烘起司蛋糕","lon":"121.46351","lat":"31.208374","category":"247","category_name":"餐饮美食","address":"上海市 日月光店"},{"poiid":"B209475DD76DA2FF4792","title":"很高兴遇见你","lon":"121.460838","lat":"31.206756","category":"247","category_name":"餐饮美食","address":"上海市 建国西路221号2楼(陕西南路与嘉善路之间)"},{"poiid":"B2094757D068A6FE469D","title":"卢湾区青少年活动中心","lon":"121.46331762","lat":"31.20653461","category":"249","category_name":"购物服务","address":"上海卢湾区建国西路137号(近陕西南路)"},{"poiid":"B2094757D06FA4F44492","title":"K Thai","lon":"121.464097","lat":"31.206825","category":"99","category_name":"泰国／越南菜品餐厅","address":"卢湾区建国西路135号(近陕西南路)"},{"poiid":"B2094757D069A3FE439C","title":"Cafe Sambal","lon":"121.4594935","lat":"31.207575767","category":"110","category_name":"其他亚洲菜","address":"卢湾区陕西南路550弄37号嘉善市场(近绍兴路)"},{"poiid":"B2094654DA6EA1FA4793","title":"上海电视大学卢湾分校","lon":"121.46333","lat":"31.2076","category":"53","category_name":"成人教育","address":"卢湾区建国西路154号(近陕西南路)"},{"poiid":"B2094757D06FA5FE459A","title":"卢湾区图书馆","lon":"121.4621","lat":"31.20881","category":"181","category_name":"图书馆","address":"上海卢湾区陕西南路235号(近绍兴路)"},{"poiid":"B2094757D76EAAFE439B","title":"玛哪胜地 绍兴路店 MANNE et SANTE","lon":"121.462357054","lat":"31.208839793","category":"112","category_name":"糕饼店","address":"卢湾区绍兴路96号甲2楼(近陕西南路)"},{"poiid":"B209475CDA6DA1F9489B","title":"柴田西点","lon":"121.460445","lat":"31.206314","category":"67","category_name":"甜品店","address":"徐汇区嘉善路309号"},{"poiid":"B2094757D06BAAF84698","title":"东泰祥生煎馒头馆 陕西南路店","lon":"121.462313","lat":"31.205948","category":"68","category_name":"快餐厅","address":"卢湾区陕西南路309号(近建国西路)"},{"poiid":"B2094655D268A4FF449A","title":"上海市卢湾区业余大学","lon":"121.46333","lat":"31.2076","category":"53","category_name":"成人教育","address":"建国西路154号"},{"poiid":"B209475DD565A0FD4993","title":"很高兴遇见你","lon":"121.461494","lat":"31.205625","category":"247","category_name":"餐饮美食","address":"上海市 建国路221号"},{"poiid":"B2094752D265A6FE4798","title":"正豪大大雞排（日月光中心）","lon":"121.461313","lat":"31.209285","category":"247","category_name":"餐饮美食","address":null},{"poiid":"B2094654DA6DABFC4098","title":"中科大厦","lon":"121.46","lat":"31.2078","category":"46","category_name":"楼宇","address":"上海徐汇区岳阳路319号"},{"poiid":"B2094654DA6DAAFE4099","title":"华业大厦","lon":"121.462","lat":"31.2058","category":"46","category_name":"楼宇","address":"上海医学院路69号"},{"poiid":"B2094654DB64A6FB469F","title":"汉庭酒店(陕西南路店)","lon":"121.46183","lat":"31.20946","category":"216","category_name":"经济型连锁酒店","address":"卢湾区陕西南路233号(近永嘉路)"},{"poiid":"B2094753D269A0FF479B","title":"韩国叔叔的小厨","lon":"121.462599","lat":"31.208528","category":"500","category_name":"未知分类","address":"上海市 日月光地下B2"},{"poiid":"B2094655D26EA2F54293","title":"卢湾体育活动中心","lon":"121.46409","lat":"31.20682","category":"221","category_name":"健身中心","address":"卢湾区建国西路135号卢湾体育中心"},{"poiid":"B2094757D16CA5FE499E","title":"annion Kitchen","lon":"121.46055162","lat":"31.207221618","category":"96","category_name":"韩国料理","address":"卢湾区陕西南路550弄37号嘉善市场(近绍兴路)"},{"poiid":"B2094757D069A7FA479F","title":"Living Room","lon":"121.46334132","lat":"31.208530578","category":"110","category_name":"其他亚洲菜","address":"卢湾区泰康路248弄田子坊34号(近瑞金二路)"},{"poiid":"B2094757DA65A5FD499A","title":"一面行","lon":"121.462445","lat":"31.209391","category":"247","category_name":"餐饮美食","address":"卢湾区徐家汇路618号日月光广场B2美食广场F-35号商铺(近瑞金二路)"},{"poiid":"B2094750D26FA4FC4193","title":"le cafe des stagiaires","lon":"121.4624","lat":"31.20882","category":"113","category_name":"冷饮店","address":"卢湾区永康路52号(近襄阳路)"},{"poiid":"B2094757D065AAFA4698","title":"Melange oasis","lon":"121.46199368","lat":"31.208719011","category":"94","category_name":"西餐厅","address":"徐汇区嘉善路259弄37号D楼(近建国西路)"},{"poiid":"B2094654DA6EA1FA489A","title":"天才宝贝","lon":"121.46379","lat":"31.20695","category":"57","category_name":"幼儿园","address":""},{"poiid":"B2094757D065ABFE499C","title":"宝丽来画廊","lon":"121.46322273","lat":"31.208929846","category":"65","category_name":"咖啡厅","address":"上海市卢湾区绍兴路19号丙"},{"poiid":"B2094654DB69A0F4489F","title":"Takumi","lon":"121.46412667913","lat":"31.209843020577","category":"95","category_name":"日本料理","address":"卢湾区绍兴路21号(近瑞金二路)"},{"poiid":"B2094655D26EA3F94098","title":"汇景苑","lon":"121.46145","lat":"31.20473","category":"47","category_name":"住宅区","address":"陕西南路888号"},{"poiid":"B2094757D165ABF94998","title":"青少年科技探索馆","lon":"121.46277","lat":"31.20616","category":"179","category_name":"音乐厅","address":"卢湾区建国西路137号(近陕西南路)"},{"poiid":"B2094757DA6AA4FF4398","title":"田子坊23号","lon":"121.4612495317649","lat":"31.2093305480675","category":"47","category_name":"住宅区","address":"泰康路248弄23号"},{"poiid":"B2094752D46AA6FC499D","title":"巫山烤鱼（日月光店）","lon":"121.4629817","lat":"31.2072594","category":"247","category_name":"餐饮美食","address":null},{"poiid":"B2094752D76FA0FC4193","title":"Kafelaku  Coffee 猫屎咖啡","lon":"121.462687","lat":"31.209121","category":"247","category_name":"餐饮美食","address":"日月光中心广场"},{"poiid":"B2094752DB69A3FA4093","title":"徹恩叔叔烘焙工房","lon":"121.463114","lat":"31.208824","category":"247","category_name":"餐饮美食","address":"上海市 日月光"},{"poiid":"B2094654DA6EA1FA4899","title":"星之游泳馆","lon":"121.4638","lat":"31.20696","category":"231","category_name":"游泳馆","address":""},{"poiid":"B2094655D36CA3FB429D","title":"中心图书馆卢湾分馆","lon":"121.46192","lat":"31.20904","category":"181","category_name":"图书馆","address":"陕西南路235号"},{"poiid":"B2094654DA6DA6FA459B","title":"华泰大厦","lon":"121.463","lat":"31.2084","category":"46","category_name":"楼宇","address":"肇嘉浜路388号"},{"poiid":"B2094757D465ABFB4799","title":"圣马可咖啡馆","lon":"121.462578","lat":"31.208644","category":"94","category_name":"西餐厅","address":"卢湾区绍兴路35号(近陕西南路)"},{"poiid":"B2094655D26AA3FE419F","title":"民办启稚摇篮早教中心建国路店","lon":"121.46409","lat":"31.20682","category":"247","category_name":"餐饮美食","address":"卢湾区建国西路135号卢湾体育中心综合楼2楼(近陕西南路)"},{"poiid":"B2094757D469A5FE429B","title":"星期一便当 建国西路店","lon":"121.46452","lat":"31.20764","category":"68","category_name":"快餐厅","address":"卢湾区建国西路132号(近陕西南路)"},{"poiid":"B2094757D16FA1F8459D","title":"卢湾区社区学校/业余大学","lon":"121.46350097","lat":"31.207208633","category":"500","category_name":"未知分类","address":"上海建国西路154号"},{"poiid":"B2094757DB6CA2FC409A","title":"青松城大酒店","lon":"121.4603251990384","lat":"31.2060944483005","category":"247","category_name":"餐饮美食","address":"肇家浜路777号"},{"poiid":"B209475DD56DA2FB489E","title":"很高兴遇见你","lon":"121.461524","lat":"31.2059","category":"247","category_name":"餐饮美食","address":"上海市 上海市徐汇区建国西路221号"},{"poiid":"B2094654DA6EA1F4449D","title":"中国科学社暨明复图书馆旧址","lon":"121.46192","lat":"31.20903","category":"243","category_name":"纪念馆","address":"卢湾区陕西南路235号(近绍兴路)"},{"poiid":"B2094655D268A6F8459D","title":"汇景苑会所游泳馆","lon":"121.46118","lat":"31.20519","category":"231","category_name":"游泳馆","address":"陕西南路888弄1号楼裙房5层"},{"poiid":"B2094655D26FA7FB4392","title":"卢湾区图书馆(南门)","lon":"121.4621","lat":"31.20866","category":"181","category_name":"图书馆","address":""},{"poiid":"B2094654DB6BA4FE459B","title":"151会所","lon":"121.46229","lat":"31.20633","category":"248","category_name":"生活娱乐","address":"徐汇区建国西路151号(陕西南路口)"},{"poiid":"B2094757D06BA6FE499E","title":"步高苑","lon":"121.46265","lat":"31.20546","category":"252","category_name":"楼宇机构","address":"上海市卢湾区陕西南路327号"},{"poiid":"B2094757D16EA1FA4199","title":"3Q形象设计","lon":"121.46200673","lat":"31.205135765","category":"148","category_name":"美容美发店","address":"上海陕西南路327号"},{"poiid":"B2094654DA6EA1FB4299","title":"新嘉草网吧","lon":"121.46234","lat":"31.20499","category":"176","category_name":"网吧","address":"卢湾区陕西南路331号(近建国西路)"},{"poiid":"B2094655D268A6F8469A","title":"高雅苑","lon":"121.461239","lat":"31.206066","category":"47","category_name":"住宅区","address":"徐汇建国西路221、223号"},{"poiid":"B2094654DA6EA1FA479C","title":"上海市卢湾区业余大学(北门)","lon":"121.46368","lat":"31.20727","category":"678","category_name":"学校大门","address":"建国西路154号"},{"poiid":"B2094757D06EAAFC479F","title":"Nap Cafe","lon":"121.460264","lat":"31.208053","category":"260","category_name":"其他","address":"卢湾区陕西南路550弄嘉善坊37号208室(近建国西路)"},{"poiid":"B2094757D165A5FA429A","title":"嘉御庭","lon":"121.45976","lat":"31.206076","category":"500","category_name":"未知分类","address":"徐汇建国西路嘉善路口"},{"poiid":"B2094655D26AA1F44899","title":"上海建设审计进修学院","lon":"121.46367","lat":"31.20728","category":"247","category_name":"餐饮美食","address":"徐汇区建国西路154号1号楼115室"},{"poiid":"B2094654DB65A1FC449E","title":"布高苑俱乐部游泳馆","lon":"121.46291","lat":"31.20594","category":"231","category_name":"游泳馆","address":"陕西南路"},{"poiid":"B209475DD16BA7F44293","title":"很高兴遇见你","lon":"121.461334","lat":"31.205547","category":"500","category_name":"未知分类","address":"上海市 建国西路221号2楼"},{"poiid":"B2094655D26AA0FF499F","title":"卢湾区少体场羽毛球场","lon":"121.46409","lat":"31.20682","category":"247","category_name":"餐饮美食","address":"建国路135号4楼(近陕西南路)"},{"poiid":"B2094757D465A0F44399","title":"赛乐酒业 CELLAR DOOR WINES","lon":"121.460287054","lat":"31.205531793","category":"257","category_name":"中餐厅","address":"嘉善路508号Loft尚街近建国西路"},{"poiid":"B209475DD468A2F5409F","title":"Nice meeting you","lon":"121.461547","lat":"31.205955","category":"247","category_name":"餐饮美食","address":"上海市 徐汇区"},{"poiid":"B2094750D26CA0FB479F","title":"意式屋 谷乐滋","lon":"121.462976","lat":"31.207114","category":"247","category_name":"餐饮美食","address":"日月光"},{"poiid":"B2094750DB6CA5F84293","title":"上海摩休敦纳韩国年糕料理店","lon":"121.463139330931","lat":"31.20894054639045","category":"247","category_name":"餐饮美食","address":null},{"poiid":"B2094750D26AABFB4298","title":"日月光商场","lon":"121.462776","lat":"31.206624","category":"500","category_name":"未知分类","address":null},{"poiid":"B2094655D269A4FB449E","title":"名将桌球俱乐部","lon":"121.46409","lat":"31.20682","category":"247","category_name":"餐饮美食","address":"卢湾区建国西路135号卢湾体育馆综合楼3楼312(近陕西南路)"},{"poiid":"B2094655D268A4FA4499","title":"梧桐花园B座(东门)","lon":"121.46105","lat":"31.20571","category":"47","category_name":"住宅区","address":"建国西路253号"},{"poiid":"B2094654DB6BA4FE459E","title":"联兴大厦","lon":"121.46286","lat":"31.204752","category":"47","category_name":"住宅区","address":"陕西南路333弄5"},{"poiid":"B2094654DA6DA6FB489A","title":"梧桐花园B座(边门)","lon":"121.46047","lat":"31.20533","category":"47","category_name":"住宅区","address":"建国西路253"},{"poiid":"B2094757D16CA3FE459B","title":"魔都","lon":"121.46158073","lat":"31.208347833","category":"500","category_name":"未知分类","address":"上海魔都"},{"poiid":"B2094655D26CA1FE4898","title":"步高苑西门(陕西南路)","lon":"121.4623","lat":"31.20607","category":"47","category_name":"住宅区","address":"陕西南路307弄1-4号"},{"poiid":"B2094654DA6DA6F9469B","title":"徐汇区爵士英语进修学校","lon":"121.46141","lat":"31.20884","category":"53","category_name":"成人教育","address":"徐汇区陕西南路540号(近绍兴路)"},{"poiid":"B2094757D069A3FE419F","title":"凯德·新家坡美树馆(汇景苑)","lon":"121.46192543","lat":"31.204578864","category":"47","category_name":"住宅区","address":"上海徐汇区陕西南路888弄"},{"poiid":"B2094655D26DA6FB429E","title":"梧桐花园B座","lon":"121.46108","lat":"31.20554","category":"47","category_name":"住宅区","address":"建国西路253"},{"poiid":"B2094654DA6EA1FA4999","title":"上海市卢湾区少年儿童图书馆","lon":"121.46318","lat":"31.2066","category":"181","category_name":"图书馆","address":"建国西路137号"},{"poiid":"B2094655D26EA1FA429D","title":"汇景苑(3号门)","lon":"121.46199","lat":"31.20511","category":"47","category_name":"住宅区","address":"陕西南路888号"},{"poiid":"B2094655D268A4FC419A","title":"汇景苑(西门)","lon":"121.46053","lat":"31.20502","category":"47","category_name":"住宅区","address":""},{"poiid":"B2094757D064A5FE429D","title":"亚历兰达健身会所(卢湾店)","lon":"121.46167503","lat":"31.205926232","category":"500","category_name":"未知分类","address":"卢湾区陕西南路307弄步高苑内(近建国西路)"},{"poiid":"B2094757D068AAFF459A","title":"陕西南路建国西路","lon":"121.461979","lat":"31.207787","category":"260","category_name":"其他","address":"上海陕西南路271弄"},{"poiid":"B2094655D268A2FF409A","title":"世家小区","lon":"121.46069","lat":"31.209019","category":"47","category_name":"住宅区","address":"上海嘉善路169弄"},{"poiid":"B2094654DA6DA6F9499A","title":"嘉善公寓","lon":"121.46054","lat":"31.207699","category":"47","category_name":"住宅区","address":"嘉善路251弄1号"},{"poiid":"B2094757D065ABF84692","title":"艾维庭美容身心会馆(建国西路店)","lon":"121.463974064","lat":"31.2071134106","category":"148","category_name":"美容美发店","address":"上海卢湾区建国西路135号(近陕西南路)"},{"poiid":"B2094655D268A4FD469C","title":"建国西路211弄小区","lon":"121.46159","lat":"31.20586","category":"47","category_name":"住宅区","address":"建国西路211弄1-12号"},{"poiid":"B2094655D26AA0FF499E","title":"上海剑士剑道俱乐部","lon":"121.46409","lat":"31.20682","category":"247","category_name":"餐饮美食","address":"卢湾区建国西路135号上海青少年体育活动中心体育馆4楼室内篮球馆(近陕西南路)"},{"poiid":"B2094654DA6EA1FB4498","title":"瑞金二路街道文化活动中心","lon":"121.46205","lat":"31.20835","category":"248","category_name":"生活娱乐","address":"陕西南路245号"},{"poiid":"B2094655D265A4FE469A","title":"中国民主促进会旧址","lon":"121.46192","lat":"31.20904","category":"243","category_name":"纪念馆","address":"绍兴路108号"},{"poiid":"B2094655D268A4FC419E","title":"建国西路211弄小区(边门)","lon":"121.46183","lat":"31.20609","category":"47","category_name":"住宅区","address":"建国西路211弄小区1-12号"},{"poiid":"B2094655D26EABFE449C","title":"文元坊(爱麦新邨东)","lon":"121.46235","lat":"31.20914","category":"47","category_name":"住宅区","address":"寿宁路46弄27-32号"},{"poiid":"B2094654DA6EA1F4469B","title":"惠安坊","lon":"121.46267","lat":"31.209118","category":"47","category_name":"住宅区","address":"绍兴路88弄1-15号"},{"poiid":"B2094655D26FAAFD4998","title":"嘉善公寓(西门)","lon":"121.4602","lat":"31.20754","category":"47","category_name":"住宅区","address":""},{"poiid":"B2094655D26FA4F5459B","title":"建国西路211弄小区(北门)","lon":"121.46134","lat":"31.20609","category":"47","category_name":"住宅区","address":"建国西路211弄1-12号"},{"poiid":"B2094655D26FA4F54492","title":"年平花苑(东门)","lon":"121.45992","lat":"31.20754","category":"47","category_name":"住宅区","address":"嘉善路258弄"},{"poiid":"B2094655D268A2F84493","title":"爱麦新邨(南门)","lon":"121.46226","lat":"31.20874","category":"47","category_name":"住宅区","address":"绍兴路102弄1-12号"},{"poiid":"B2094655D268A1FA479C","title":"科普弄","lon":"121.46144","lat":"31.20662","category":"47","category_name":"住宅区","address":"建国西路212乙"},{"poiid":"B2094655D26CA4FA429F","title":"高雅苑（北一门）","lon":"121.46129","lat":"31.20607","category":"47","category_name":"住宅区","address":""},{"poiid":"B2094654DB65A2FD439C","title":"蒙缇公寓","lon":"121.46183","lat":"31.20946","category":"47","category_name":"住宅区","address":"陕西南路233号"},{"poiid":"B2094655D26CA4FA429E","title":"高雅苑（北门）","lon":"121.46104","lat":"31.20597","category":"47","category_name":"住宅区","address":""},{"poiid":"B2094655D26CA4FA429D","title":"科普弄（南门）","lon":"121.46159","lat":"31.20643","category":"47","category_name":"住宅区","address":"建国西路212乙"},{"poiid":"B2094655D26FA3F94299","title":"爱麦新邨","lon":"121.46226","lat":"31.20908","category":"47","category_name":"住宅区","address":"绍兴路102弄1-12号"},{"poiid":"B2094655D26CA1FE4998","title":"永嘉51街坊小区","lon":"121.46197","lat":"31.20778","category":"47","category_name":"住宅区","address":"陕西南路271弄1-137号"},{"poiid":"B2094655D268A2F4489F","title":"安宁邨(北门)","lon":"121.46218","lat":"31.20853","category":"47","category_name":"住宅区","address":"绍兴路47弄1-3号"},{"poiid":"B2094750DB6BA1F4459A","title":"10号线陕西南路","lon":"121.462921","lat":"31.208154","category":"500","category_name":"未知分类","address":null},{"poiid":"B2094757D064A6F94698","title":"三航大厦","lon":"121.462","lat":"31.2059","category":"252","category_name":"楼宇机构","address":"上海平江路139号"},{"poiid":"B2094751D16CAAFD459B","title":"上海戏剧学院莲花路校区","lon":"121.463944","lat":"31.206826","category":"253","category_name":"校园生活","address":"莲花路211号"},{"poiid":"B2094654DA6EA1FA469C","title":"卢湾区少体校","lon":"121.4641","lat":"31.20682","category":"253","category_name":"校园生活","address":"建国西路135号"},{"poiid":"B2094654DA6EA1FB419E","title":"贝娜妃莎美容会所(陕西南路)","lon":"121.46234","lat":"31.20562","category":"148","category_name":"美容美发店","address":"陕西南路317"},{"poiid":"B2094757D06AAAFE4492","title":"闪电骑士","lon":"121.46141","lat":"31.20577","category":"140","category_name":"体育用品店","address":"徐汇区建国西路221号(近嘉善路)"},{"poiid":"B2094753D26AA1FC4393","title":"上海卢湾区打浦桥","lon":"121.463314","lat":"31.206788","category":"500","category_name":"未知分类","address":"上海市 上海卢湾区打浦桥"},{"poiid":"B209475CD564A6FD449B","title":"Burdigala Wine Bar","lon":"121.46022","lat":"31.206634","category":"500","category_name":"未知分类","address":"上海市 嘉善路301号"},{"poiid":"B2094757D16CA5F44692","title":"畅安阁养生会馆(建国西路店)","lon":"121.46074","lat":"31.20506","category":"149","category_name":"洗浴推拿场所","address":"徐汇区建国西路253号(近嘉善路)"},{"poiid":"B2094655D26EA0F9469D","title":"李秋平篮球(建国西路店)","lon":"121.46409","lat":"31.20682","category":"220","category_name":"运动场所","address":"卢湾区建国西路135号卢湾体育馆"},{"poiid":"B2094655D26BA6FC449B","title":"Cloud's","lon":"121.46231","lat":"31.20674","category":"141","category_name":"服装鞋帽皮具店","address":"建国西路184"},{"poiid":"B2094655D26FA3FC4092","title":"步高苑俱乐部会所","lon":"121.46236","lat":"31.20541","category":"208","category_name":"休闲场所","address":"卢湾区陕西南路327号"},{"poiid":"B2094654DA6EA1FA4798","title":"Amour","lon":"121.46393","lat":"31.20753","category":"141","category_name":"服装鞋帽皮具店","address":""},{"poiid":"B2094654DB65A2FE429D","title":"卢湾区少年儿童业余体育学校","lon":"121.46241","lat":"31.20789","category":"253","category_name":"校园生活","address":"陕西南路271弄1-137号"},{"poiid":"B2094753D165A1FD409E","title":"寿司王子 日月光中心海兴广场店","lon":"121.462815","lat":"31.20684","category":"500","category_name":"未知分类","address":"上海市 卢湾区打浦桥"},{"poiid":"B209475CD168A0F84198","title":"hungry lung's kitchen","lon":"121.460983","lat":"31.208433","category":"500","category_name":"未知分类","address":"上海市 永康路144号"},{"poiid":"B2094757DB68A4FF4698","title":"日月光广场5Fponny kitchen","lon":"121.461525","lat":"31.209154","category":"500","category_name":"未知分类","address":"徐家汇路、建国西路"},{"poiid":"B2094757D064A1F9499D","title":"路易芬尼国际名媛SPA会所(卢湾店)","lon":"121.46259","lat":"31.20557","category":"500","category_name":"未知分类","address":"卢湾区陕西南路311号(建国西路陕西南路)"},{"poiid":"B2094752D36FA6F9409A","title":"宝珠奶酪日月光二店","lon":"121.462055","lat":"31.209314","category":"500","category_name":"未知分类","address":null},{"poiid":"B2094757D165A6FD4092","title":"卢湾区少体校篮球训练场","lon":"121.463871738","lat":"31.2068788026","category":"253","category_name":"校园生活","address":"上海卢湾区建国西路137号四楼"},{"poiid":"B2094757D66BA4F5489F","title":"阁乐葡 建国西路店 Globus","lon":"121.460272054","lat":"31.205599793","category":"260","category_name":"其他","address":"卢湾区建国西路283号LOFT5101-5103室(近嘉善路)"},{"poiid":"B2094750D669A3FE449A","title":"卢湾体育馆","lon":"121.45977403553","lat":"31.206036361433","category":"627","category_name":"一般地点标志","address":"赵家浜路嘉善路"},{"poiid":"B2094757D164A7F9409F","title":"回力　迪美","lon":"121.459879738","lat":"31.2079533255","category":"500","category_name":"未知分类","address":"上海迪美广场"},{"poiid":"B2094757D16DA0FF4593","title":"梦里","lon":"121.46152371","lat":"31.206577121","category":"500","category_name":"未知分类","address":"上海不详"},{"poiid":"B2094753D26EA3F9409B","title":"飞来戏剧","lon":"121.46126","lat":"31.209314","category":"249","category_name":"购物服务","address":"上海市 肇家浜路96号"},{"poiid":"B2094757D16BA1FD409D","title":"百芙丽护肤造型中心","lon":"121.46175073","lat":"31.204837759","category":"148","category_name":"美容美发店","address":"卢湾区陕西南路323号(近建国西路)"},{"poiid":"B2094757D169A6F9489D","title":"枫叶交响幼儿园","lon":"121.45987973","lat":"31.207953325","category":"253","category_name":"校园生活","address":"徐汇区太原路87号"},{"poiid":"B2094757D16BA2FC419F","title":"GRAND DESIGN","lon":"121.46067273","lat":"31.207208809","category":"500","category_name":"未知分类","address":"上海市徐汇区陕西南路550弄37号B308"},{"poiid":"B2094757D66DA6FB479F","title":"天琪福桑拿","lon":"121.462457738","lat":"31.2056127757","category":"148","category_name":"美容美发店","address":"上海肇嘉浜路 陕西南路"},{"poiid":"B2094654DA6DA6F9469E","title":"李栋伟名师辅导中心浦西分部","lon":"121.46172","lat":"31.20766","category":"190","category_name":"培训机构","address":"陕西南路558"},{"poiid":"B2094757D16BABF54492","title":"Jの「ヘヤ」","lon":"121.46303973","lat":"31.207511816","category":"500","category_name":"未知分类","address":"上海市绍兴路"},{"poiid":"B2094757D065A6F44892","title":"甘邨","lon":"121.45961663","lat":"31.207927424","category":"500","category_name":"未知分类","address":"嘉善路143弄"},{"poiid":"B2094757D169A6FB469D","title":"TITTIO 花店","lon":"121.46006773","lat":"31.20536577","category":"500","category_name":"未知分类","address":"上海徐汇区建国西路尚街Loft"},{"poiid":"B2094757D16CA2F84693","title":"酷芝PIZZA(建国店)","lon":"121.46424","lat":"31.20706","category":"500","category_name":"未知分类","address":"上海卢湾区建国西路148号(近陕西南路)  "},{"poiid":"B2094655D26CA1FE489C","title":"中国民主促进会旧址(南门)","lon":"121.4621","lat":"31.20866","category":"680","category_name":"楼宇机构","address":""},{"poiid":"B2094757D66DA7FE429B","title":"亚里兰大健身中心","lon":"121.46198573","lat":"31.204968361","category":"500","category_name":"未知分类","address":"上海卢湾体育馆旁"},{"poiid":"B2094757D164A7FD489D","title":"美漾美甲","lon":"121.46201473","lat":"31.205459772","category":"148","category_name":"美容美发店","address":"卢湾区复兴中路"},{"poiid":"B2094757D16AA5F5499D","title":"静静~Home","lon":"121.460487838","lat":"31.2071962094","category":"500","category_name":"未知分类","address":null},{"poiid":"B2094757D168A1FC4992","title":"POLAGRAPHY","lon":"121.463162738","lat":"31.2073883135","category":"260","category_name":"其他","address":"卢湾区绍兴路19号(近陕西南路)"},{"poiid":"B2094750DB6FA6F4439B","title":"韩国seoul baby studio","lon":"121.461952","lat":"31.205476","category":"248","category_name":"生活娱乐","address":"襄阳南路498号"},{"poiid":"B2094654DA6EA1FA4993","title":"高高食屋","lon":"121.46223","lat":"31.20671","category":"260","category_name":"其他","address":"卢湾区建国西路190号(近陕西南路)"},{"poiid":"B209475CD76CABFC4998","title":"lorraine nail","lon":"121.462778","lat":"31.209186","category":"248","category_name":"生活娱乐","address":"绍兴路88弄到底"},{"poiid":"B2094752D76BA6FA4692","title":"Muse2","lon":"121.463601","lat":"31.208119","category":"248","category_name":"生活娱乐","address":"淮海中路282号4楼"},{"poiid":"B2094654DA6EA1FA4692","title":"百汇医疗集团(中国与北亚地区)","lon":"121.4641","lat":"31.20682","category":"263","category_name":"公司","address":"建国西路135号"},{"poiid":"B2094757D66DA7F4439A","title":"森林洋馆 歌特童话主题咖啡店","lon":"121.46302263","lat":"31.207378513","category":"260","category_name":"其他","address":"卢湾区绍兴路15-1号(近陕西南路)"},{"poiid":"B2094757D66EA6FE479B","title":"天平街道敬老院","lon":"121.45956873","lat":"31.208053827","category":"615","category_name":"敬老院","address":"上海市徐汇区嘉善路232弄17号"},{"poiid":"B2094752D06EA1FF4998","title":"泰迪之家","lon":"121.461581","lat":"31.209348","category":"500","category_name":"未知分类","address":null},{"poiid":"B2094757D16FA2FB459A","title":"意莎发型(陕西南路店)","lon":"121.46242","lat":"31.20529","category":"260","category_name":"其他","address":"卢湾区陕西南路317号(近建国路)"},{"poiid":"B2094654DA6EA1FB439B","title":"步高里(西门)","lon":"121.46203","lat":"31.20731","category":"656","category_name":"大门","address":"陕西南路287弄1-61号"},{"poiid":"B2094655D26CA1FE4793","title":"步高里(南门)","lon":"121.46262","lat":"31.20683","category":"656","category_name":"大门","address":"建国西路172甲临"},{"poiid":"B2094654DA6EA1FB4092","title":"步高苑(北门)","lon":"121.46262","lat":"31.20651","category":"656","category_name":"大门","address":""},{"poiid":"B2094654DA6EA1FB419D","title":"步高苑(西门)","lon":"121.46238","lat":"31.20532","category":"656","category_name":"大门","address":""}]