[{"poiid":"B2094757D068A3FB409D","title":"嘉城-新航域","lon":"121.348728","lat":"31.264511","category":"47","category_name":"住宅区","address":"嘉定区海川路58弄"},{"poiid":"B2094757D06FA7FB489F","title":"沃尔玛(江桥店)","lon":"121.34640592","lat":"31.258225509","category":"118","category_name":"超级市场","address":"嘉定区江桥镇曹安路2200号(曹安公路华江公路)"},{"poiid":"B2094757D469A1F9459D","title":"上海大饭堂 江桥店","lon":"121.3475485","lat":"31.2631359","category":"76","category_name":"上海菜","address":"嘉定区嘉怡路233弄嘉尚坊内(近海蓝路)"},{"poiid":"B2094757D169A0FB439F","title":"嘉尚坊","lon":"121.347542615","lat":"31.2636626924","category":"500","category_name":"未知分类","address":"上海市江桥嘉怡路233栋"},{"poiid":"B2094757D069A6FF4898","title":"必胜客(曹安RBD店)","lon":"121.3422173","lat":"31.2604246","category":"94","category_name":"西餐厅","address":"嘉定区曹安公路2300弄3号"},{"poiid":"B2094655D268ABF8409D","title":"外环沪宁立交桥","lon":"121.35323","lat":"31.25253","category":"250","category_name":"公园户外","address":""},{"poiid":"B2094757D069AAFF469E","title":"香馥湾","lon":"121.34860102331345","lat":"31.264400999999985","category":"47","category_name":"住宅区","address":"嘉定区海川路77弄"},{"poiid":"B2094757D06FA7FB459B","title":"江桥二村","lon":"121.35330757127","lat":"31.258862246193","category":"252","category_name":"楼宇机构","address":"江桥二村位于嘉定曹安路,华江路口"},{"poiid":"B2094757D065A1FE479D","title":"嘉城爱琴海","lon":"121.34626492","lat":"31.267663705","category":"500","category_name":"未知分类","address":"上海市嘉定区海波路"},{"poiid":"B2094654D46BA5FD4093","title":"香槟河畔","lon":"121.34458","lat":"31.26248","category":"47","category_name":"住宅区","address":"上海市嘉定区嘉怡路157号"},{"poiid":"B2094757D068A0F44493","title":"自由港量贩式KTV(江桥店)","lon":"121.341781","lat":"31.260609","category":"170","category_name":"KTV","address":"上海嘉定区曹安路2300弄新世界休闲生活广场70号"},{"poiid":"B2094757D06FA1FC4592","title":"沪宁高速公路","lon":"121.342539","lat":"31.255774","category":"260","category_name":"其他","address":"沪宁高速 上海-南京"},{"poiid":"B2094757D068A6FE4492","title":"苔圣园 曹安路店","lon":"121.338572","lat":"31.261054","category":"76","category_name":"上海菜","address":"嘉定区江桥镇曹安公路2388号(近华江支路)"},{"poiid":"B2094655D36CA0FA459D","title":"嘉怡路海川路","lon":"121.34808","lat":"31.26471","category":"38","category_name":"公交车站","address":""},{"poiid":"B2094655D264A0F8439F","title":"天际蓝桥","lon":"121.33932","lat":"31.260338","category":"47","category_name":"住宅区","address":"嘉定区曹安路华江支路口"},{"poiid":"B2094757D06AABF44293","title":"嘉城 雅颂湾","lon":"121.343768925","lat":"31.2680257127","category":"47","category_name":"住宅区","address":"上海市嘉定区海波路"},{"poiid":"B2094757D168AAF8409E","title":"DQ冰雪皇后(嘉城店)","lon":"121.347740925","lat":"31.2645286403","category":"113","category_name":"冷饮店","address":"嘉定区嘉怡路233弄嘉尚坊商业中心30号(近江桥沃尔玛)"},{"poiid":"B2094757D568A7FF409D","title":"江桥万达广场商铺","lon":"121.3436506","lat":"31.25624778","category":"46","category_name":"楼宇","address":"华江路988号"},{"poiid":"B2094757D068A2F8409E","title":"嘉城桃花岛","lon":"121.34402912","lat":"31.263524269","category":"500","category_name":"未知分类","address":"上海嘉怡路279弄"},{"poiid":"B2094751D36AAAFE459E","title":"板门店自动烧烤","lon":"121.3476","lat":"31.26377","category":"96","category_name":"韩国料理","address":"嘉定区嘉怡路333弄嘉尚坊广场126号商铺(近海川路)"},{"poiid":"B2094757D16DA2FF459D","title":"老锦江饭店","lon":"121.34990192","lat":"31.266028671","category":"247","category_name":"餐饮美食","address":"上海茂名南路59号"},{"poiid":"B2094750D76DA3FE449D","title":"泰煌火锅(江桥店)","lon":"121.348","lat":"31.2638","category":"86","category_name":"火锅店","address":"嘉定区嘉怡路233弄嘉尚坊内"},{"poiid":"B2094655D36CA0FA459C","title":"嘉怡路海波路","lon":"121.34792","lat":"31.26669","category":"38","category_name":"公交车站","address":""},{"poiid":"B2094654D46BA6F54999","title":"恒嘉花园","lon":"121.35422","lat":"31.26169","category":"47","category_name":"住宅区","address":"绥德路曹南路"},{"poiid":"B2094757D068AAFF489C","title":"嘉城幸福港","lon":"121.35109837509","lat":"31.26865840165","category":"260","category_name":"其他","address":"上海海蓝路318弄"},{"poiid":"B2094757D06FA7FE4792","title":"永汇新苑","lon":"121.35094","lat":"31.278891","category":"47","category_name":"住宅区","address":"上海普陀区白丽路99弄"},{"poiid":"B2094655D36CA0F9419F","title":"江桥三村","lon":"121.34829043247","lat":"31.263830673614","category":"38","category_name":"公交车站","address":"临潭路490弄"},{"poiid":"B2094757D164A3FF4393","title":"星巴克Starbucks(淮海路巴黎春天店)","lon":"121.343921925","lat":"31.26161258","category":"247","category_name":"餐饮美食","address":"上海淮海中路陕西南路"},{"poiid":"B2094757D165A1FC409D","title":"厦门沃头蚝干粥店(嘉尚坊店)","lon":"121.346973259","lat":"31.2654628805","category":"111","category_name":"休闲餐饮场所","address":"嘉定区嘉怡路269号嘉尚坊内(曹安路嘉怡路)"},{"poiid":"B2094757D66DA5F9499F","title":"全家便利店(嘉尚坊店)","lon":"121.347230751","lat":"31.2651694174","category":"117","category_name":"便民商店/便利店","address":"上海嘉尚坊"},{"poiid":"B2094750D26CA2F5469B","title":"上海橙天嘉禾影城","lon":"121.34244841","lat":"31.26427798999999","category":"248","category_name":"生活娱乐","address":"嘉定区江桥镇嘉怡路303号嘉尚坊3楼"},{"poiid":"B2094757D064A6FE469E","title":"嘉城香滨河畔","lon":"121.345679925","lat":"31.263789625","category":"47","category_name":"住宅区","address":"上海市嘉定区嘉怡路279弄"},{"poiid":"B2094753D769ABF84598","title":"上海外滩","lon":"121.348396","lat":"31.261188","category":"500","category_name":"未知分类","address":"上海市 上海市外滩"},{"poiid":"B2094757D065A2FB4192","title":"中国工商银行上海江桥支行","lon":"121.347245675","lat":"31.2632130131","category":"500","category_name":"未知分类","address":"嘉定区江桥镇嘉怡路161-167号沃尔玛旁"},{"poiid":"B2094757D065ABFA4493","title":"嘉尚坊壹食壹品","lon":"121.347423725","lat":"31.2660787724","category":"500","category_name":"未知分类","address":"上海嘉怡路海川路路口"},{"poiid":"B2094752D36EA0F44592","title":"嘉禾影城嘉尚坊","lon":"121.347519","lat":"31.264511","category":"178","category_name":"电影院","address":"上海市嘉定区江桥镇嘉怡路"},{"poiid":"B2094757D069A7F94993","title":"雅颂湾","lon":"121.34863096","lat":"31.267636724","category":"500","category_name":"未知分类","address":"上海海波路118"},{"poiid":"B2094757D16DABFA479A","title":"厦门沃头蠔干粥","lon":"121.345578925","lat":"31.2664406799","category":"247","category_name":"餐饮美食","address":"上海嘉尚坊"},{"poiid":"B2094757D164AAFA489A","title":"coffee beanery","lon":"121.34721952","lat":"31.263187512","category":"500","category_name":"未知分类","address":"上海嘉怡路，嘉尚坊"},{"poiid":"B2094753D06FA0FD449F","title":"金仕堡健身会所(江桥店)","lon":"121.34762","lat":"31.26376","category":"221","category_name":"健身中心","address":"嘉定区嘉怡路233弄嘉尚坊3楼(近江桥沃尔玛)"},{"poiid":"B2094757D66DA2F4499E","title":"天津火車站","lon":"121.347203041","lat":"31.2647324279","category":"500","category_name":"未知分类","address":"上海天津站"},{"poiid":"B2094757DA6FA1FE4398","title":"优衣库（曹安公路店）","lon":"121.35896005479","lat":"31.258394376656","category":"249","category_name":"购物服务","address":"嘉定区曹安公路1688号1-2楼(近轻纺市场)"},{"poiid":"B2094757D16CA7FC499B","title":"福沁农家菜","lon":"121.34573709","lat":"31.263406017","category":"247","category_name":"餐饮美食","address":"上海江桥"},{"poiid":"B2094757D66AA5FD4692","title":"隆江大酒店","lon":"121.34796","lat":"31.26389","category":"76","category_name":"上海菜","address":"嘉定区江桥镇嘉怡路280号(近海川路)"},{"poiid":"B2094757D16FA3FB4799","title":"上海市提篮桥监狱","lon":"121.34730548","lat":"31.262860105","category":"608","category_name":"法院","address":"上海长阳路147号"},{"poiid":"B2094757D06AA5FF4192","title":"江桥一村","lon":"121.34586","lat":"31.257984","category":"500","category_name":"未知分类","address":"上海市曹安公路2167弄"},{"poiid":"B2094655D264A7F94192","title":"华江景城","lon":"121.352744","lat":"31.273247","category":"47","category_name":"住宅区","address":"上海市嘉定区海波路307号"},{"poiid":"B2094757D169A7FA4792","title":"Fly酒吧","lon":"121.351045925","lat":"31.2592795317","category":"247","category_name":"餐饮美食","address":"上海衡山路191"},{"poiid":"B2094752D764A2FD4898","title":"南翔医院","lon":"121.35391","lat":"31.268615","category":"162","category_name":"医院","address":"银翔路"},{"poiid":"B2094654D46BA4FC4793","title":"建华村","lon":"121.34875","lat":"31.261257","category":"47","category_name":"住宅区","address":"建华路1号"},{"poiid":"B2094757D064AAF9489D","title":"福门","lon":"121.34629152","lat":"31.26648798","category":"500","category_name":"未知分类","address":"上海幸福之家"},{"poiid":"B2094757D065A1F44599","title":"过门香","lon":"121.34387903","lat":"31.264453648","category":"247","category_name":"餐饮美食","address":"上海长宁区长宁路1018号龙之梦购物中心8楼"},{"poiid":"B2094750DA64A2FD4393","title":"麦当劳曹安DT店","lon":"121.340072","lat":"31.261966","category":"247","category_name":"餐饮美食","address":"曹安公路2370号"},{"poiid":"B2094757D66BABFE489D","title":"象山石浦渔友海鲜舫","lon":"121.34188","lat":"31.26055","category":"75","category_name":"浙江菜","address":"嘉定区曹安公路2300弄新世界休闲美食广场95-97号"},{"poiid":"B2094654D46BAAF4469E","title":"江桥二村居住小区(华江公路)","lon":"121.34483","lat":"31.25605","category":"47","category_name":"住宅区","address":""},{"poiid":"B2094655D36CA0FA4592","title":"嘉怡路江桥","lon":"121.34698","lat":"31.2595","category":"38","category_name":"公交车站","address":""},{"poiid":"B2094757D069ABF84692","title":"江南春大酒店","lon":"121.35399437","lat":"31.278096745","category":"217","category_name":"旅馆招待所","address":"普陀区白丽路1号桃浦二村永汇新苑1号门(近武威路)"},{"poiid":"B2094655D36CA0F94193","title":"江桥","lon":"121.34578","lat":"31.25926","category":"38","category_name":"公交车站","address":"上海曹安路秦家大院"},{"poiid":"B2094757D068AAFD4393","title":"a20高速公路","lon":"121.35552215","lat":"31.255931854","category":"260","category_name":"其他","address":"上海沪闵高架—漕宝—虹桥—淞虹路"},{"poiid":"B2094655D36DA2F5469D","title":"外环沪宁沪杭立交桥","lon":"121.36001","lat":"31.2676","category":"250","category_name":"公园户外","address":""},{"poiid":"B2094757D16AAAFA479D","title":"永琪","lon":"121.34613592","lat":"31.2626106","category":"500","category_name":"未知分类","address":"上海市嘉定区海蓝路"},{"poiid":"B2094751D364A1F8449A","title":"炫音KTV上海嘉尚坊店","lon":"121.342831","lat":"31.265083","category":"500","category_name":"未知分类","address":"嘉定区嘉怡路265号嘉尚坊4楼"},{"poiid":"B2094757D168A6FA479C","title":"嘉城爱琴海","lon":"121.34831875","lat":"31.261002567","category":"500","category_name":"未知分类","address":"上海海波路127弄"},{"poiid":"B2094757D06AA1F4449D","title":"雯婕大酒店","lon":"121.33933258","lat":"31.261556625","category":"217","category_name":"旅馆招待所","address":"上海曹安路2388号"},{"poiid":"B2094654DB69A4F9499F","title":"中国移动(江桥第一营业厅)","lon":"121.34559","lat":"31.25942","category":"151","category_name":"电讯营业厅","address":"嘉定区曹安公路2188号"},{"poiid":"B2094757D16CA1FC489E","title":"丰裕生煎(江桥店)","lon":"121.346486","lat":"31.258708","category":"68","category_name":"快餐厅","address":"嘉定区曹安路2155号(曹安公路华江公路)"},{"poiid":"B2094757D16CABF54692","title":"真建花苑","lon":"121.36312","lat":"31.262707","category":"47","category_name":"住宅区","address":"上海普陀区桃浦路1925弄"},{"poiid":"B2094757D06AA0FA4692","title":"嘉莲华美食广场","lon":"121.34843","lat":"31.25775","category":"68","category_name":"快餐厅","address":"嘉定区江桥镇曹安路2200号沃尔玛"},{"poiid":"B2094757D16FAAFE409E","title":"伊诺咖啡","lon":"121.34038","lat":"31.26136","category":"65","category_name":"咖啡厅","address":"嘉定区曹安路2388号"},{"poiid":"B2094654D46BA4FC4893","title":"嘉定区江桥镇外口教育东方学校","lon":"121.35551","lat":"31.26612","category":"253","category_name":"校园生活","address":"江桥镇建华村建新270"},{"poiid":"B2094757D16BA6FA4298","title":"嘉城售楼处","lon":"121.34651092","lat":"31.261780583","category":"263","category_name":"公司","address":"上海市嘉定区海蓝路"},{"poiid":"B2094757D76CA3F44493","title":"澳门豆捞坊 曹安公路店","lon":"121.34188","lat":"31.26055","category":"86","category_name":"火锅店","address":"嘉定区曹安公路2300弄新世界美食城81号"},{"poiid":"B2094757D164A1FC489D","title":"南翔公馆","lon":"121.3569443","lat":"31.265073622","category":"500","category_name":"未知分类","address":"上海德华路"},{"poiid":"B2094757D16DA4FC469A","title":"江桥人家","lon":"121.34167492","lat":"31.25970154","category":"76","category_name":"上海菜","address":"嘉定区曹安公路2300弄新世界美食生活广场101号(近江桥沃尔玛)"},{"poiid":"B2094757D164A5FF4893","title":"大师傅西点面包房(江桥店)","lon":"121.34663","lat":"31.25777","category":"112","category_name":"糕饼店","address":"嘉定区华江公路迪欧咖啡旁(曹安公路华江公路)"},{"poiid":"B2094654D46BA4FC4892","title":"建新浴室(绥德路)","lon":"121.35581","lat":"31.26292","category":"149","category_name":"洗浴推拿场所","address":""},{"poiid":"B2094750DB6CAAFC469A","title":"上海虹桥车站","lon":"121.35466","lat":"31.260588","category":"500","category_name":"未知分类","address":null},{"poiid":"B2094750DB64A1FD479F","title":"复旦大学附属中山医院","lon":"121.341003","lat":"31.262762","category":"162","category_name":"医院","address":null},{"poiid":"B2094757D169A4F9449E","title":"澳德巴克斯(曹安公路店)","lon":"121.34429892","lat":"31.261248572","category":"500","category_name":"未知分类","address":"上海嘉定区曹安公路2258号"},{"poiid":"B2094654D46BABF84999","title":"栅桥小区","lon":"121.35278","lat":"31.25657","category":"47","category_name":"住宅区","address":"上海丰江路188弄"},{"poiid":"B2094757D169ABFC469D","title":"一唇香迷踪蟹","lon":"121.339055925","lat":"31.2607815628","category":"71","category_name":"四川菜","address":"嘉定区华江支路360号(近江桥三村)"},{"poiid":"B2094655D36CA5FA4998","title":"曹安路外环线","lon":"121.35321","lat":"31.25671","category":"38","category_name":"公交车站","address":""},{"poiid":"B2094654D46BA4FC4498","title":"江桥医院","lon":"121.34299","lat":"31.26038","category":"162","category_name":"医院","address":"曹安公路2270"},{"poiid":"B2094757D169A4FD4892","title":"中国农业银行(上海江桥支行)","lon":"121.346186065","lat":"31.2576423078","category":"150","category_name":"银行","address":"上海市嘉定区江桥镇华江路18号"},{"poiid":"B2094757D16EA0FB4392","title":"永琪美容美发","lon":"121.34424692","lat":"31.260526557","category":"148","category_name":"美容美发店","address":"上海市嘉定区曹安公路"},{"poiid":"B2094654D46BAAFB4292","title":"上海市普陀区横港汽车修理厂","lon":"121.35218","lat":"31.25951","category":"159","category_name":"汽车维修","address":""},{"poiid":"B2094654D46BABF8489C","title":"安国医院","lon":"121.3521","lat":"31.25618","category":"162","category_name":"医院","address":"曹安路1991号"},{"poiid":"B2094757D66CA1FD469F","title":"圆缘园(新世界广场店)","lon":"121.343059925","lat":"31.2610965693","category":"500","category_name":"未知分类","address":"上海市嘉定区江桥镇靖远路"},{"poiid":"B2094757D66EA2FE489C","title":"第一食品","lon":"121.35098392","lat":"31.257156487","category":"500","category_name":"未知分类","address":"嘉定区嘉怡路233弄嘉尚坊"},{"poiid":"B2094654D46BABF8439C","title":"自然美(江桥小区西)","lon":"121.34778","lat":"31.25765","category":"148","category_name":"美容美发店","address":""},{"poiid":"B2094752DB6DA3F4459B","title":"SFC上影国际影城-江桥店","lon":"121.337296","lat":"31.262253","category":"500","category_name":"未知分类","address":"上海市 上海市曹安公路2300弄288号新世界生活广场7号楼4楼"},{"poiid":"B2094654D46BA4FC499C","title":"上海兴长活性炭有限公司","lon":"121.35137","lat":"31.27173","category":"263","category_name":"公司","address":""},{"poiid":"B2094757D66EAAFC489B","title":"建设银行上海江桥支行","lon":"121.346204225","lat":"31.2589141241","category":"500","category_name":"未知分类","address":"上海曹安路2099号"},{"poiid":"B2094752D76FAAF9489F","title":"香港不肯走素斋","lon":"121.339794","lat":"31.261752","category":"247","category_name":"餐饮美食","address":"曹安公路2386号"},{"poiid":"B2094757D165A7FA4392","title":"粥全潮汕砂鍋粥館","lon":"121.34374392","lat":"31.260940566","category":"500","category_name":"未知分类","address":"上海江橋新世界休閒美食廣場143號"},{"poiid":"B2094655D36DA2F54593","title":"曹安公路8号桥","lon":"121.35013","lat":"31.25769","category":"250","category_name":"公园户外","address":""},{"poiid":"B2094654D46BABF84199","title":"好德便利No.868","lon":"121.34713","lat":"31.25712","category":"117","category_name":"便民商店/便利店","address":"江桥镇"},{"poiid":"B2094757D764A5FB409A","title":"金色鱼蛙港","lon":"121.34188","lat":"31.26055","category":"77","category_name":"湖南菜","address":"嘉定区曹安公路2300弄新世界美食生活广场39号(近江桥沃尔玛超市)"},{"poiid":"B2094654D46BAAF44698","title":"江桥图书馆","lon":"121.34446","lat":"31.25603","category":"181","category_name":"图书馆","address":"华江公路43号"},{"poiid":"B2094654D46BA7F9489F","title":"真建花苑(边门)","lon":"121.3617","lat":"31.26387","category":"47","category_name":"住宅区","address":"桃浦路2055弄"},{"poiid":"B2094757D065A2FA429A","title":"老盛昌苏州汤包馆(桃浦店)","lon":"121.35799395","lat":"31.2740531374","category":"247","category_name":"餐饮美食","address":"上海普陀区雪松路绿杨路口"},{"poiid":"B2094752DA69A7FB419C","title":"南京路步行街","lon":"121.345372","lat":"31.256544","category":"500","category_name":"未知分类","address":"上海市 南京东路353号353广场"},{"poiid":"B2094654D46BA7FA4393","title":"百佛园","lon":"121.35684","lat":"31.25607","category":"243","category_name":"纪念馆","address":"嘉定区曹安公路1978号(近环西二大道)"},{"poiid":"B2094654D46BAAF44692","title":"聚星美容美发美体香熏连锁","lon":"121.34592","lat":"31.25748","category":"148","category_name":"美容美发店","address":"江桥镇"},{"poiid":"B2094654D46BA6F5409D","title":"申江花苑","lon":"121.33931","lat":"31.25679","category":"47","category_name":"住宅区","address":"申江花苑位于嘉定华江支路"},{"poiid":"B2094654D46BABF94392","title":"高潮大酒店","lon":"121.33805","lat":"31.26206","category":"76","category_name":"上海菜","address":"嘉定区曹安公路2398号(近华江支路)"},{"poiid":"B2094757D16FA3F9489C","title":"昕城银脚盆沐足会所","lon":"121.34114792","lat":"31.26117657","category":"148","category_name":"美容美发店","address":"上海嘉定区海蓝路"},{"poiid":"B2094757D465A7FC429C","title":"上岛咖啡 江桥店","lon":"121.3407275","lat":"31.260799","category":"260","category_name":"其他","address":"嘉定区曹安公路2367号(近华江支路)"},{"poiid":"B2094757D16FA5F44093","title":"740终点站江桥三村","lon":"121.34565292","lat":"31.257840501","category":"500","category_name":"未知分类","address":"上海华江之路"},{"poiid":"B2094654D46BABF9409A","title":"嘉定区江桥食品百货购物中心","lon":"121.35243","lat":"31.25621","category":"119","category_name":"商场","address":""},{"poiid":"B2094750D76EA1FA4092","title":"小倪烧烤","lon":"121.339","lat":"31.2647","category":"68","category_name":"快餐厅","address":"嘉定区华江支路665号(近中星海兰苑)"},{"poiid":"B2094655D36CA7FC499D","title":"华江支路","lon":"121.33889","lat":"31.26021","category":"38","category_name":"公交车站","address":""},{"poiid":"B2094654D46BABFF4893","title":"丰泽楼夜总会","lon":"121.34633","lat":"31.25879","category":"248","category_name":"生活娱乐","address":"江桥镇"},{"poiid":"B2094757D16CA5FA439A","title":"上海曹安花鸟市场","lon":"121.34275742","lat":"31.260266052","category":"249","category_name":"购物服务","address":"上海真光路2299号"},{"poiid":"B2094655D36CA5FB409E","title":"曹安路环西一大道","lon":"121.35405","lat":"31.25639","category":"38","category_name":"公交车站","address":""},{"poiid":"B2094757D66EAAFA4399","title":"全佳便利店(曹安公路店)","lon":"121.34649292","lat":"31.257729499","category":"249","category_name":"购物服务","address":"上海曹安公路2125号"},{"poiid":"B2094757D66BA2F54698","title":"蜜恋咖啡","lon":"121.342539","lat":"31.255774","category":"65","category_name":"咖啡厅","address":"嘉定区江桥镇鹤友路364号(近华江路)"},{"poiid":"B2094654DB6AA4F94198","title":"尊爵陶瓷","lon":"121.35074","lat":"31.25674","category":"123","category_name":"家具建材市场","address":"曹安公路1995号(8号桥)好美居建材市场F区2-3号门面"},{"poiid":"B2094654D46BABF84099","title":"华恒房产(江桥二村商业街)","lon":"121.34738","lat":"31.25776","category":"248","category_name":"生活娱乐","address":""},{"poiid":"B2094757D16DAAF44092","title":"江桥镇天际蓝桥","lon":"121.34121892","lat":"31.259357533","category":"252","category_name":"楼宇机构","address":"上海市嘉定区江桥镇华江支路328弄"},{"poiid":"B2094751D264A5F54792","title":"古猗庄园","lon":"121.359139","lat":"31.2607811","category":"500","category_name":"未知分类","address":"嘉定区南翔镇真南路3911号"},{"poiid":"B2094757D065A0FC4293","title":"江桥二村99弄","lon":"121.348159925","lat":"31.254704437","category":"252","category_name":"楼宇机构","address":"上海市嘉定区华江公路"},{"poiid":"B2094757D068AAFC479C","title":"肯德基 KFC (江桥店)","lon":"121.349821558","lat":"31.2526500167","category":"68","category_name":"快餐厅","address":"嘉定区华江路25号"},{"poiid":"B2094654D46BABF9419F","title":"嘉定区真新新村街道栅桥社区","lon":"121.35111","lat":"31.25497","category":"47","category_name":"住宅区","address":"丰江路188弄1-86号"},{"poiid":"B2094654D46BA7FA439D","title":"上海海鹤医院","lon":"121.35684","lat":"31.25607","category":"162","category_name":"医院","address":"嘉定区曹安路百寿园内(外环路口)"},{"poiid":"B2094757D069A0FC4492","title":"上海市行政管理学校","lon":"121.343931","lat":"31.256073","category":"500","category_name":"未知分类","address":"上海嘉定区鹤友路500号"},{"poiid":"B2094654D46BA6F4479A","title":"上海农村商业银行江桥支行","lon":"121.34495","lat":"31.25703","category":"150","category_name":"银行","address":"华江公路58"},{"poiid":"B2094655D26BA3F54692","title":"江桥镇D1地块","lon":"121.338","lat":"31.2614","category":"47","category_name":"住宅区","address":"上海市嘉定区高潮村路286号"},{"poiid":"B2094750D56BA6FA459A","title":"宁兴上尚湾","lon":"121.337117","lat":"31.268939","category":"47","category_name":"住宅区","address":"上海市嘉定区东至老横沥河、南至横沥河、西至临洮路、北至老横沥河"},{"poiid":"B2094757D06FA6F9409B","title":"肯德基","lon":"121.362805397","lat":"31.2639950759","category":"68","category_name":"快餐厅","address":"上海曹杨路"},{"poiid":"B2094751D56DA6F54399","title":"11号线曹杨路","lon":"121.361063","lat":"31.264533","category":"500","category_name":"未知分类","address":"曹杨路"},{"poiid":"B2094752D568A0FB449F","title":"中山医院","lon":"121.336409","lat":"31.264637","category":"162","category_name":"医院","address":"枫林路180号"},{"poiid":"B2094757D16BA1FE479D","title":"桃浦路定边路","lon":"121.36154395","lat":"31.263299932","category":"500","category_name":"未知分类","address":"上海桃浦路2055弄33号202室"},{"poiid":"B2094654D46BA7FA439C","title":"吴觉农纪念馆","lon":"121.35684","lat":"31.25607","category":"243","category_name":"纪念馆","address":"曹安公路1978"},{"poiid":"B2094654D46BA7FA439F","title":"四海壶具博物馆","lon":"121.35684","lat":"31.25608","category":"182","category_name":"博物馆","address":"嘉定区曹安公路1978号(近外环路)"},{"poiid":"B2094757D169A2FF4693","title":"沙县小吃","lon":"121.34145942","lat":"31.256991384","category":"247","category_name":"餐饮美食","address":"上海嘉定区靖远路500号"},{"poiid":"B2094751D06EAAF94393","title":"南翔小笼一条街","lon":"121.3549413","lat":"31.2557484","category":"500","category_name":"未知分类","address":null},{"poiid":"B2094654DB6AA4F9419E","title":"联家便民超市(上海市公路管理处市管公路管理署北)","lon":"121.3512","lat":"31.25444","category":"117","category_name":"便民商店/便利店","address":""},{"poiid":"B2094750D26CA4FB4393","title":"古猗新苑","lon":"121.3380511","lat":"31.2595538","category":"47","category_name":"住宅区","address":"南翔镇古猗园路155弄"},{"poiid":"B2094753D564A3F5499F","title":"浦东机场","lon":"121.351387","lat":"31.254777","category":"500","category_name":"未知分类","address":"上海市 浦东机场"},{"poiid":"B2094752D668A3FD479B","title":"嘉亭荟","lon":"121.343547","lat":"31.256044","category":"500","category_name":"未知分类","address":null},{"poiid":"B2094757D168AAF5409B","title":"东方证券股份有限公司","lon":"121.342803535","lat":"31.2536596754","category":"46","category_name":"楼宇","address":"上海市华江公路129弄3号楼"},{"poiid":"B2094654D46BA7FA439B","title":"上海市江桥批发市场","lon":"121.3594","lat":"31.25627","category":"123","category_name":"家具建材市场","address":"嘉定区曹安公路1936号"},{"poiid":"B2094654D46BAAF44699","title":"江桥镇文化广播电视服务公司","lon":"121.3445","lat":"31.25605","category":"252","category_name":"楼宇机构","address":""},{"poiid":"B2094752D66CA6F94899","title":"虹桥机场2号航站楼","lon":"121.336244","lat":"31.263938","category":"500","category_name":"未知分类","address":null},{"poiid":"B2094654D46BA6F54393","title":"上海市江桥中学","lon":"121.34408","lat":"31.2537","category":"55","category_name":"中学","address":"上海市嘉定区江桥镇虞姬墩路48号"},{"poiid":"B2094752D16DA0FD4499","title":"夏朵花园","lon":"121.33638","lat":"31.264618","category":"47","category_name":"住宅区","address":"复兴西路华山路"},{"poiid":"B2094750D268AAF8499E","title":"上海青松城大酒店","lon":"121.336418","lat":"31.26465","category":"500","category_name":"未知分类","address":null},{"poiid":"B2094757D66EA3FD499B","title":"广州车展BMW","lon":"121.352503925","lat":"31.2762568831","category":"500","category_name":"未知分类","address":"广州国际会议展览中心_BMW展台"},{"poiid":"B2094751DA65A3F9479A","title":"13号线金运路站","lon":"121.355362","lat":"31.256744","category":"251","category_name":"出行住宿","address":"13号线金运路站"},{"poiid":"B2094654DB65A0FA469C","title":"沪西医院","lon":"121.35772","lat":"31.25476","category":"162","category_name":"医院","address":"嘉定区曹安路1583号"},{"poiid":"B2094757D16CA7F44199","title":"江桥 恒嘉花园","lon":"121.36262685","lat":"31.2671639058","category":"500","category_name":"未知分类","address":"上海曹安路江桥恒嘉花园"},{"poiid":"B2094654D46BABFF469D","title":"上海星城石油有限公司","lon":"121.33818","lat":"31.26136","category":"263","category_name":"公司","address":"曹安公路2505号"},{"poiid":"B2094654D46BAAF4469A","title":"江桥邮政支局","lon":"121.34422","lat":"31.2558","category":"248","category_name":"生活娱乐","address":"嘉定区江桥镇华江公路45号"},{"poiid":"B2094757D164A7FB499E","title":"申泉纪念章厂","lon":"121.33857572","lat":"31.259440135","category":"607","category_name":"一般景点","address":"上海华江支路100号"},{"poiid":"B2094654D46BA7FF459E","title":"上海密特印制有限公司","lon":"121.36331","lat":"31.26681","category":"263","category_name":"公司","address":"绥德路887"},{"poiid":"B2094654D46BABFD479D","title":"复星大药房白丽店","lon":"121.35215","lat":"31.27892","category":"162","category_name":"医院","address":"桃浦镇"},{"poiid":"B2094757D66CA2FF4692","title":"江桥新苑","lon":"121.350219425","lat":"31.2515520717","category":"47","category_name":"住宅区","address":"上海曹安路2019弄"},{"poiid":"B2094654D46BA7FF459F","title":"上海证券印制有限公司","lon":"121.36331","lat":"31.2668","category":"263","category_name":"公司","address":"绥德路887"},{"poiid":"B2094654D46BA4FD419B","title":"上海华联超市物流有限公司","lon":"121.34592","lat":"31.27677","category":"248","category_name":"生活娱乐","address":"华联路18号"},{"poiid":"B2094655D26BA3F54098","title":"上海君和比亚迪4S店","lon":"121.34151","lat":"31.27606","category":"250","category_name":"公园户外","address":"上海普陀区金昌路2005号"},{"poiid":"B2094654D46BAAFF469D","title":"世纪华联桃浦店","lon":"121.3506","lat":"31.2792","category":"118","category_name":"超级市场","address":""},{"poiid":"B2094654D46BAAF54393","title":"上海市地方税务局嘉定区分局第三税务所","lon":"121.34027","lat":"31.25519","category":"250","category_name":"公园户外","address":"华江支路"},{"poiid":"B2094655D36DA2F5479B","title":"江桥二村通道","lon":"121.34658","lat":"31.25199","category":"250","category_name":"公园户外","address":""},{"poiid":"B2094654D46BAAF44892","title":"江桥镇社区文化活动中心筹建处","lon":"121.34315","lat":"31.25489","category":"248","category_name":"生活娱乐","address":""},{"poiid":"B2094757D16DABFC479D","title":"地铁8号线市光路","lon":"121.352189925","lat":"31.2773721062","category":"500","category_name":"未知分类","address":"上海八号线终点站 市光路"},{"poiid":"B2094654D46BA4FD4198","title":"上海宇培(集团)有限公司","lon":"121.34172","lat":"31.27635","category":"263","category_name":"公司","address":""},{"poiid":"B2094757D66CAAFE489F","title":"嘟嘟宠物店","lon":"121.351205925","lat":"31.279193944","category":"249","category_name":"购物服务","address":"普陀区白丽路103号(近雪松路)"},{"poiid":"B2094751DA6FA1FD439A","title":"虹桥机场","lon":"121.346778","lat":"31.251751","category":"627","category_name":"一般地点标志","address":null},{"poiid":"B2094757D16DA7FE4792","title":"嘉泰线","lon":"121.34008","lat":"31.255526","category":"500","category_name":"未知分类","address":"上海泰和路…嘉定北站"}]