[{"poiid":"B2094655D26DA2F9479F","title":"长城大厦","lon":"121.422","lat":"31.2446","category":"46","category_name":"楼宇","address":"浦东区浦东外高桥保税区基隆路555号"},{"poiid":"B2094757D06FA2FD4398","title":"新西宮","lon":"121.42290858","lat":"31.241210645","category":"119","category_name":"商场","address":"上海市普陀区武宁路"},{"poiid":"B2094757D069AAFA4599","title":"呷哺呷哺","lon":"121.421176586","lat":"31.2402606273","category":"86","category_name":"火锅店","address":"普陀区武宁路231号1楼"},{"poiid":"B2094757D06FA7FF449B","title":"内环武宁路高驾上匝道","lon":"121.419364","lat":"31.241994","category":"500","category_name":"未知分类","address":"上海武宁路中山北路"},{"poiid":"B2094757D06FA4F9419D","title":"武宁小城","lon":"121.42252","lat":"31.241087","category":"47","category_name":"住宅区","address":"内外联公寓位于静安长宁路江苏路"},{"poiid":"B2094757D06FAAF9479E","title":"中山北路陆家宅公交站","lon":"121.42206858","lat":"31.243401651","category":"38","category_name":"公交车站","address":"上海普陀区中山北路兰田路"},{"poiid":"B2094757D068A2F8469B","title":"物贸大厦","lon":"121.423205","lat":"31.2432929629","category":"46","category_name":"楼宇","address":"普陀区中山北路2550号(中山北路中山西路)"},{"poiid":"B2094654D56BA2F5479D","title":"中关村科技大厦","lon":"121.423","lat":"31.2469","category":"46","category_name":"楼宇","address":"沈河北站路与北京街的交汇处"},{"poiid":"B2094654DA6CA6FC429A","title":"万里路国际青年酒店上海武宁店","lon":"121.42192","lat":"31.24098","category":"250","category_name":"公园户外","address":"普陀区武宁路300弄武宁小城内50号(近凯旋北路)"},{"poiid":"B2094757D068A7FB459D","title":"陆家宅小区","lon":"121.422103","lat":"31.243777","category":"47","category_name":"住宅区","address":"上海中山北路2655至2627弄"},{"poiid":"B2094757D16AABFE4093","title":"西九龍總區警察總部","lon":"121.42319858","lat":"31.244588712","category":"500","category_name":"未知分类","address":"香港九龍亞皆老街190號"},{"poiid":"B2094757D66CA1FE419A","title":"家味螺蛳粉","lon":"121.41735","lat":"31.24024","category":"68","category_name":"快餐厅","address":"普陀区中山北路2652号(近武宁路)"},{"poiid":"B2094654DB65A3F9479B","title":"上海市武宁中学","lon":"121.42219","lat":"31.24199","category":"55","category_name":"中学","address":"普陀区凯旋北路469号"},{"poiid":"B2094655D26CA7FB499E","title":"江南新村普陀","lon":"121.42242044186","lat":"31.243128957387","category":"47","category_name":"住宅区","address":"中山南二路268-274号"},{"poiid":"B2094654DB69A4FD499F","title":"锦江之星(武宁店)","lon":"121.41953","lat":"31.24219","category":"216","category_name":"经济型连锁酒店","address":"上海普陀区中山北路2701号(近武宁路)  "},{"poiid":"B2094757D064A1FF4599","title":"上海兰田中学","lon":"121.42099","lat":"31.24442","category":"55","category_name":"中学","address":"普陀区中山北路2605弄50号(近兰田路)"},{"poiid":"B2094757D068A4FE439C","title":"曹杨六村","lon":"121.420243","lat":"31.244908","category":"47","category_name":"住宅区","address":"上海兰溪路21弄"},{"poiid":"B2094757D069A4F44892","title":"上海市测绘院","lon":"121.417523","lat":"31.242752","category":"500","category_name":"未知分类","address":"上海武宁路419号"},{"poiid":"B2094654DB69A5FC4298","title":"7天连锁酒店(武宁路店)","lon":"121.41849","lat":"31.24352","category":"216","category_name":"经济型连锁酒店","address":"普陀区武宁路492号(近中山北路)"},{"poiid":"B2094655D26AAAF4459D","title":"鱼下巴湘菜馆","lon":"121.41735","lat":"31.24024","category":"77","category_name":"湖南菜","address":"普陀区中山北路2646号(近武宁路)"},{"poiid":"B2094654D56AABF54392","title":"陆一小区","lon":"121.42026","lat":"31.243361","category":"47","category_name":"住宅区","address":"中山北路2655弄1-48"},{"poiid":"B2094654DB69A6FE459B","title":"武宁苑","lon":"121.41888","lat":"31.244137","category":"47","category_name":"住宅区","address":"上海市普陀区武宁路492号"},{"poiid":"B2094655D26AA5F4439E","title":"大众申银汽车服务","lon":"121.42402","lat":"31.24365","category":"247","category_name":"餐饮美食","address":"普陀区中山北路2500号(兰田路中山北路)"},{"poiid":"B2094757D065A6FC419F","title":"申银大众4S","lon":"121.420733586","lat":"31.2430936827","category":"500","category_name":"未知分类","address":"上海市普陀区武宁路"},{"poiid":"B2094757D569A3FE4192","title":"陆家宅幼儿园","lon":"121.419471","lat":"31.243125","category":"57","category_name":"幼儿园","address":"普陀区中山北路2655弄21号(近武宁路)"},{"poiid":"B2094655D265ABFD4599","title":"陆家宅夜排档","lon":"121.42113","lat":"31.24365","category":"247","category_name":"餐饮美食","address":"中山北路2655弄内"},{"poiid":"B2094757D16DA1FB429D","title":"中船第九设计研究院工程有限公司","lon":"121.419525","lat":"31.241183","category":"46","category_name":"楼宇","address":"上海武宁路303号"},{"poiid":"B2094654DB6BA0FB4698","title":"兰田商务中心","lon":"121.42109","lat":"31.24456","category":"46","category_name":"楼宇","address":""},{"poiid":"B2094757D06BA0FE489A","title":"普陀区温水游泳池","lon":"121.4214","lat":"31.24388","category":"220","category_name":"运动场所","address":"上海普陀区中山北路2605号弄156号(物贸大厦对面)  "},{"poiid":"B2094655D26AA2FE4093","title":"老章龙虾店","lon":"121.4221","lat":"31.24377","category":"68","category_name":"快餐厅","address":"普陀区中山北路2605弄35号陆家宅小区内"},{"poiid":"B2094655D26BA1F4419E","title":"陆家宅(中山北路武宁路)","lon":"121.42084","lat":"31.24259","category":"38","category_name":"公交车站","address":""},{"poiid":"B2094654D56AABF5439C","title":"海城公寓","lon":"121.42142","lat":"31.244141","category":"47","category_name":"住宅区","address":"中山北路2605弄46号"},{"poiid":"B2094655D26CAAFF489E","title":"良友金伴便利连锁No.381","lon":"121.41969","lat":"31.24281","category":"117","category_name":"便民商店/便利店","address":""},{"poiid":"B2094655D26DA7FC479B","title":"陆一小区(东门)","lon":"121.42114","lat":"31.24365","category":"47","category_name":"住宅区","address":"中山北路2655弄1-48"},{"poiid":"B2094757D568A0F9459F","title":"上海物资贸易中心大厦","lon":"121.4230548","lat":"31.243233","category":"46","category_name":"楼宇","address":"普陀中山北路2550号"},{"poiid":"B2094655D26BA7F9479A","title":"上海信息管理专修学院","lon":"121.42171","lat":"31.24426","category":"52","category_name":"高等院校","address":"普陀区梅岭北路400弄曹杨二村内(近曹杨路)"},{"poiid":"B2094654D56AABF5409C","title":"天赐苑","lon":"121.41936","lat":"31.246691","category":"47","category_name":"住宅区","address":"上海石泉路415弄"},{"poiid":"B2094655D26BABF4429C","title":"上海信息管理专修学院(南门)","lon":"121.42185","lat":"31.24404","category":"52","category_name":"高等院校","address":"中山北路2605弄35"},{"poiid":"B2094654D56AABF5409B","title":"绿叶小区","lon":"121.41916","lat":"31.242767","category":"47","category_name":"住宅区","address":"中山北路2701弄"},{"poiid":"B2094757D06AA0F54098","title":"喜士多","lon":"121.4209671","lat":"31.244615554","category":"500","category_name":"未知分类","address":"普陀区武宁路116号(东新路武宁路)"},{"poiid":"B2094655D26DA7FC4993","title":"陆家宅小区(北门)","lon":"121.42205","lat":"31.24396","category":"47","category_name":"住宅区","address":"中山北路2605弄1-2"},{"poiid":"B2094654DA6CA7F5489D","title":"养生坊瓦罐汤","lon":"121.419481054","lat":"31.241459793","category":"68","category_name":"快餐厅","address":"普陀区中山北路2668号联合大厦1楼(近武宁路)"},{"poiid":"B2094655D36DA7F84299","title":"中山北路陆家宅","lon":"121.42227","lat":"31.24318","category":"38","category_name":"公交车站","address":""},{"poiid":"B2094757D169A6FE439B","title":"岚益公寓","lon":"121.42006","lat":"31.245993","category":"47","category_name":"住宅区","address":"普陀区岚皋西路330弄25号"},{"poiid":"B2094654D56AABF5409E","title":"正宗兰州牛肉拉面(武宁路)","lon":"121.41859","lat":"31.2426","category":"90","category_name":"清真餐馆","address":"武宁路458"},{"poiid":"B2094655D26EA6F94898","title":"小小茶餐厅","lon":"121.421","lat":"31.24222","category":"66","category_name":"茶艺馆","address":"普陀区中山北路2650号"},{"poiid":"B2094757D66DA5F44199","title":"石泉路","lon":"121.420192386","lat":"31.2480075789","category":"500","category_name":"未知分类","address":"上海石泉路岚皋路"},{"poiid":"B2094655D26BA5FD4999","title":"石泉路街道图书馆","lon":"121.41996","lat":"31.24223","category":"181","category_name":"图书馆","address":"普陀区中山北路2701弄7号3楼(近武宁路)"},{"poiid":"B2094654D56AABF5439D","title":"上海市普陀区音舞培训中心","lon":"121.42117","lat":"31.24423","category":"190","category_name":"培训机构","address":"兰田商务中心"},{"poiid":"B209475CDA6CA7F9499C","title":"黄浦区外滩","lon":"121.419601","lat":"31.242237","category":"500","category_name":"未知分类","address":"上海市 黄浦区外滩"},{"poiid":"B2094757D16BA3F9419F","title":"蜀壹蜀贰","lon":"121.420254586","lat":"31.2410376425","category":"71","category_name":"四川菜","address":"普陀区武宁路350号联合大厦1楼(近中山北路)"},{"poiid":"B2094654D56BA2F44998","title":"华东电力设计院(武宁路)","lon":"121.41821","lat":"31.24205","category":"191","category_name":"科研机构","address":"武宁路409"},{"poiid":"B2094757D56CABFA439D","title":"家德东北饭庄","lon":"121.4176082","lat":"31.2404343","category":"82","category_name":"东北菜","address":"普陀区中山北路2911号中关村大厦1楼(近曹杨路)"},{"poiid":"B2094757D16AA4FF459C","title":"良友酒店","lon":"121.42015558","lat":"31.240841638","category":"76","category_name":"上海菜","address":"普陀区武宁路200弄29号(近东新路)"},{"poiid":"B2094753D46BA3FA489A","title":"拿渡麻辣香锅","lon":"121.418998","lat":"31.241003","category":"247","category_name":"餐饮美食","address":"上海市 月星环球港"},{"poiid":"B2094757D168A6FA4392","title":"和平新村公交站","lon":"121.42226058","lat":"31.245657732","category":"38","category_name":"公交车站","address":"上海普陀区中山北路(近东新支路)"},{"poiid":"B2094655D36CA1FD4593","title":"石泉路","lon":"121.4196","lat":"31.24731","category":"38","category_name":"公交车站","address":""},{"poiid":"B2094655D26CAAF94499","title":"岚皋西路342弄小区(东门)","lon":"121.41984","lat":"31.24632","category":"47","category_name":"住宅区","address":"岚皋西路342弄"},{"poiid":"B2094757D068A2F9479D","title":"人民广场112路车站","lon":"121.421669685","lat":"31.24191579","category":"38","category_name":"公交车站","address":"上海人民广场112路终点站"},{"poiid":"B2094655D26CAAF8479B","title":"岚益公寓(北门)","lon":"121.4202","lat":"31.24642","category":"47","category_name":"住宅区","address":"岚皋西路330弄"},{"poiid":"B2094655D26AAAFB4592","title":"蜀伊蜀傲精品川菜武宁路店","lon":"121.42042","lat":"31.24115","category":"71","category_name":"四川菜","address":"普陀区武宁路350号联合大厦1楼轻轨侧近中山北路;;"},{"poiid":"B2094757D068A4FC4092","title":"花溪园","lon":"121.416","lat":"31.2448","category":"47","category_name":"住宅区","address":"上海兰溪路90弄花溪园小区"},{"poiid":"B2094655D26DA7FC489F","title":"中宁大楼(北门)","lon":"121.42205","lat":"31.24279","category":"49","category_name":"无中心点楼宇大门","address":"中山北路2584弄"},{"poiid":"B2094654DA6CA7F5489B","title":"中国工商银行联合大厦支行","lon":"121.42024","lat":"31.24183","category":"150","category_name":"银行","address":"普陀区中山北路2700号近武宁路(光新路中山北路)"},{"poiid":"B2094757D16BABFB469B","title":"曹杨路1000号","lon":"121.42173758","lat":"31.244157703","category":"500","category_name":"未知分类","address":"上海市第五建筑有限公司"},{"poiid":"B2094655D26DA7FD409E","title":"兰田小区(西门)","lon":"121.42182","lat":"31.24573","category":"47","category_name":"住宅区","address":""},{"poiid":"B2094757D064A6FD479B","title":"指甲阿姨","lon":"121.423573","lat":"31.241884","category":"247","category_name":"餐饮美食","address":"普陀区东新路347号新西宫4楼4B48(近武宁路)"},{"poiid":"B2094757D16CA5FB4093","title":"上海市超高压输变电公司","lon":"121.42077415","lat":"31.242207677","category":"500","category_name":"未知分类","address":"上海武宁路600号"},{"poiid":"B209475CDB6AA4FF4392","title":"彼德西餐","lon":"121.422531","lat":"31.242366","category":"247","category_name":"餐饮美食","address":"上海市 月星环球港4楼"},{"poiid":"B2094654DA6CA6FC4498","title":"武宁小城商务楼","lon":"121.42177","lat":"31.24141","category":"46","category_name":"楼宇","address":"武宁路300弄10"},{"poiid":"B2094655D26DA4FC4993","title":"武宁苑(南门)","lon":"121.41859","lat":"31.24372","category":"48","category_name":"楼宇大门","address":"武宁路492弄51支弄"},{"poiid":"B2094655D26CABF4419E","title":"陆家宅东村","lon":"121.42276","lat":"31.24409","category":"47","category_name":"住宅区","address":"中山北路2525弄"},{"poiid":"B2094757D169A2FA479C","title":"中山北路2701弄","lon":"121.418738586","lat":"31.2424826708","category":"500","category_name":"未知分类","address":"上海市普陀区中山北路2701弄"},{"poiid":"B2094752DB6BA5FD449B","title":"沪西大剧院","lon":"121.417521","lat":"31.24294","category":"500","category_name":"未知分类","address":"上海市 武宁路205号"},{"poiid":"B2094655D264A6FE4192","title":"中山北路兰田新村","lon":"121.42201","lat":"31.24674","category":"47","category_name":"住宅区","address":"中山北路"},{"poiid":"B2094757D069A2FE469D","title":"避风塘茶楼(武宁路店)","lon":"121.420965131","lat":"31.2400459322","category":"260","category_name":"其他","address":"普陀区武宁路247号(近凯旋北路)"},{"poiid":"B2094654D56AABF5419C","title":"海兰饮食店","lon":"121.42132","lat":"31.24666","category":"257","category_name":"中餐厅","address":""},{"poiid":"B2094757D06AA0FE429B","title":"岚皋西路","lon":"121.42020274","lat":"31.2463407397","category":"500","category_name":"未知分类","address":"上海岚皋西路306弄3号"},{"poiid":"B2094757D66DA6FF4693","title":"联通大华营业厅","lon":"121.418394586","lat":"31.245457729","category":"150","category_name":"银行","address":"上海大华二路155号"},{"poiid":"B2094655D36DA7F8409C","title":"中宁路","lon":"121.41964","lat":"31.24731","category":"38","category_name":"公交车站","address":""},{"poiid":"B2094750D668AAF8429E","title":"Réel Kitchen","lon":"121.419349","lat":"31.24064","category":"247","category_name":"餐饮美食","address":"南京西路1601号越洋广场芮欧百货B2楼"},{"poiid":"B2094757D568A0FC419D","title":"香格里拉KTV","lon":"121.42321","lat":"31.24338694","category":"170","category_name":"KTV","address":"普陀区中山北路2550号(中山北路中山西路)"},{"poiid":"B2094655D26CABF44199","title":"五联新村","lon":"121.42295","lat":"31.24446","category":"47","category_name":"住宅区","address":"中山北路2525弄"},{"poiid":"B2094757D16DA2FA449E","title":"陆家宅小学","lon":"121.42259","lat":"31.24602","category":"56","category_name":"小学","address":"普陀区兰凤新村665号(近中山北路)"},{"poiid":"B2094751DB6CA7F8409D","title":"乐购","lon":"121.41952","lat":"31.241688","category":"249","category_name":"购物服务","address":"中山北路光新路"},{"poiid":"B2094757DA6FA3FF479F","title":"市北燃气普陀办事处","lon":"121.420286000001","lat":"31.2458450000001","category":"263","category_name":"公司","address":"普陀区凯旋北路398号"},{"poiid":"B2094655D264A0F54798","title":"岚皋西路285弄小区","lon":"121.42095","lat":"31.24721","category":"47","category_name":"住宅区","address":"岚皋西路285弄1-6号"},{"poiid":"B2094655D26BA0FA479C","title":"荣翔棋牌室","lon":"121.41928","lat":"31.24284","category":"175","category_name":"棋牌室","address":""},{"poiid":"B2094655D26CAAF9459C","title":"蓝凤新村(南门)","lon":"121.42311","lat":"31.24409","category":"47","category_name":"住宅区","address":"中山北路2525弄"},{"poiid":"B2094655D26CABFA4292","title":"陆家宅东村(南门)","lon":"121.42314","lat":"31.24411","category":"47","category_name":"住宅区","address":"中山北路2525弄"},{"poiid":"B2094757D164A1FB469C","title":"中国邮政储蓄银行武宁路支行","lon":"121.421676586","lat":"31.2425146714","category":"150","category_name":"银行","address":"上海东新路360号"},{"poiid":"B2094654D56AAAFD4093","title":"福建千里香馄饨王(岚皋西路)","lon":"121.42127","lat":"31.24686","category":"68","category_name":"快餐厅","address":"岚皋西路270号"},{"poiid":"B2094655D264A6FE4193","title":"中山北路兰田新村(西门)","lon":"121.42153","lat":"31.2468","category":"47","category_name":"住宅区","address":"中山北路"},{"poiid":"B2094655D26CABFA429D","title":"五联新村(南门)","lon":"121.42314","lat":"31.24409","category":"47","category_name":"住宅区","address":"中山北路2525弄"},{"poiid":"B2094654D56AAAFC469C","title":"兰田小区","lon":"121.42261","lat":"31.24608","category":"47","category_name":"住宅区","address":"中山北路60弄"},{"poiid":"B2094655D264A7FE459D","title":"中山北路2451弄小区","lon":"121.42406","lat":"31.24498","category":"47","category_name":"住宅区","address":"中山北路2451弄1-188号"},{"poiid":"B2094757D16EABFF429F","title":"Sindy's home","lon":"121.417175586","lat":"31.2438101968","category":"500","category_name":"未知分类","address":"上海市武宁路内环外中环内 某个小区"},{"poiid":"B2094655D26DA0F54899","title":"岚皋西路一四五弄小区","lon":"121.4218","lat":"31.24748","category":"47","category_name":"住宅区","address":"岚皋西路145弄"},{"poiid":"B2094655D26CABF4429F","title":"蓝凤新村","lon":"121.42332","lat":"31.244453","category":"47","category_name":"住宅区","address":"中山北路2525弄"},{"poiid":"B2094655D26DA7FD419E","title":"海城公寓(西门)","lon":"121.4211","lat":"31.24423","category":"656","category_name":"大门","address":"中山北路2605弄46"},{"poiid":"B2094654DA6CA7F54893","title":"上海新华书店普陀区店","lon":"121.42047","lat":"31.24125","category":"125","category_name":"书店","address":"武宁路350号联合大厦裙4层"},{"poiid":"B2094655D26BA0FE4999","title":"岚皋西路285弄小区(南门)","lon":"121.42116","lat":"31.24703","category":"47","category_name":"住宅区","address":"岚皋西路285弄1-6号"},{"poiid":"B2094757D469A5FE449D","title":"来伊份 武宁路店","lon":"121.4214","lat":"31.24038","category":"68","category_name":"快餐厅","address":"普陀区武宁路278号(近中山北路)"},{"poiid":"B2094654DA6CA7F5489F","title":"交通银行上海中山北路支行","lon":"121.4202","lat":"31.24152","category":"150","category_name":"银行","address":"武宁路360"},{"poiid":"B2094757D169A1FD449F","title":"巴士电车武宁场","lon":"121.42054479","lat":"31.240438241","category":"46","category_name":"楼宇","address":"上海武宁路251号"},{"poiid":"B2094654DB69ABFF429B","title":"农工商超市(岚皋店)","lon":"121.42187","lat":"31.24692","category":"118","category_name":"超级市场","address":"普陀区岚皋西路254号(近兰田菜场)"},{"poiid":"B2094757D16FA6FF479B","title":"民望餐厅","lon":"121.416954041","lat":"31.2434806824","category":"500","category_name":"未知分类","address":"上海武宁路507号电科大厦二楼"},{"poiid":"B2094753D26DA1FC429A","title":"普陀区中心医院","lon":"121.415744","lat":"31.244083","category":"162","category_name":"医院","address":"上海市 枣阳路130号"},{"poiid":"B2094654D56AAAFE429D","title":"盱眙龙虾(石泉路)","lon":"121.42005","lat":"31.24751","category":"257","category_name":"中餐厅","address":"石泉路356"},{"poiid":"B2094655D264A0FE4693","title":"喜士多武宁门市","lon":"121.4155","lat":"31.24399","category":"117","category_name":"便民商店/便利店","address":"武宁路503"},{"poiid":"B2094757D16CA0FA4593","title":"武宁路中宁路公交站","lon":"121.415541","lat":"31.244142","category":"38","category_name":"公交车站","address":"上海武宁路中宁路"},{"poiid":"B2094655D26DA3F9419E","title":"香港修身堂专业健康纤体机构","lon":"121.41876","lat":"31.24075","category":"148","category_name":"美容美发店","address":"普陀区中山北路2790号杰地大厦9楼(近武宁路)"},{"poiid":"B2094757D66EA3F8459C","title":"江苏省上海市交界","lon":"121.419871","lat":"31.241507","category":"500","category_name":"未知分类","address":"上海江苏省"},{"poiid":"B2094757D16FA0FD499F","title":"武宁新村94路公交站点","lon":"121.42088938","lat":"31.240473531","category":"38","category_name":"公交车站","address":"上海武宁路 近东新路"},{"poiid":"B2094655D26CAAF5499F","title":"海城公寓(南门)","lon":"121.42163","lat":"31.24395","category":"656","category_name":"大门","address":""},{"poiid":"B2094655D26DAAFB459F","title":"岚皋西路一四五弄小区(南门)","lon":"121.42178","lat":"31.2472","category":"47","category_name":"住宅区","address":"岚皋西路145弄"},{"poiid":"B2094757D06BA0FD449A","title":"石泉路中宁路公交站","lon":"121.417218","lat":"31.247137","category":"38","category_name":"公交车站","address":"上海石泉路中宁路"},{"poiid":"B2094757D065A5FB4493","title":"青'House","lon":"121.42127374","lat":"31.246629736","category":"500","category_name":"未知分类","address":null},{"poiid":"B2094757D16EA2F44099","title":"洛华庭","lon":"121.42064658","lat":"31.240812638","category":"500","category_name":"未知分类","address":"上海市普陀区武宁路"},{"poiid":"B2094757D069A2FA449C","title":"上水市北公司武宁营业站","lon":"121.417801","lat":"31.243431","category":"260","category_name":"其他","address":"上海武宁路500号"},{"poiid":"B2094757D069A0FE419A","title":"武宁路中山北路红绿灯","lon":"121.41623842","lat":"31.241898718","category":"500","category_name":"未知分类","address":"上海普陀区武宁路中山北路口"},{"poiid":"B2094655D265A0F94099","title":"全家","lon":"121.4184","lat":"31.24001","category":"117","category_name":"便民商店/便利店","address":"凯旋北路634临"},{"poiid":"B2094654DA6CA7F54292","title":"上海物贸中心有色金属交易市场","lon":"121.42313","lat":"31.24331","category":"263","category_name":"公司","address":"中山北路2550号物贸大厦"},{"poiid":"B2094757D06BA2FD469D","title":"武宁绿地石泉路出口","lon":"121.418779586","lat":"31.2411340444","category":"500","category_name":"未知分类","address":"上海武宁公园"},{"poiid":"B2094655D26BA5FE419E","title":"岚皋西路234弄小区","lon":"121.42259","lat":"31.24699","category":"47","category_name":"住宅区","address":"岚皋西路234弄2-4号"},{"poiid":"B2094655D26DA7FC4298","title":"交通银行上海物贸大厦支行","lon":"121.4232","lat":"31.24338","category":"150","category_name":"银行","address":"中山北路2550物贸大厦1层"},{"poiid":"B2094757D06FA1FD479E","title":"布丁酒店(中山北路店)","lon":"121.4181","lat":"31.240674","category":"216","category_name":"经济型连锁酒店","address":"普陀区中山北路1218号"},{"poiid":"B2094757D165A2FF449A","title":"老上海面馆","lon":"121.420882886","lat":"31.2404771315","category":"247","category_name":"餐饮美食","address":"上海武宁路350号联合大厦一楼"},{"poiid":"B2094654DB6BA5FC4399","title":"乐宁教育中心(武宁路)","lon":"121.42047","lat":"31.24124","category":"190","category_name":"培训机构","address":"武宁路350号联合大厦3层"},{"poiid":"B2094654D56BA2F44799","title":"中国电子科技集团公司第五十研究所","lon":"121.41698","lat":"31.24312","category":"191","category_name":"科研机构","address":"武宁路423"},{"poiid":"B2094655D264A2FD4192","title":"中山北路2451弄小区(南门)","lon":"121.42419","lat":"31.24468","category":"47","category_name":"住宅区","address":"中山北路2451弄1-188号"},{"poiid":"B2094757D16DA4F4429D","title":"LuLu's home","lon":"121.4213323","lat":"31.246966","category":"500","category_name":"未知分类","address":null},{"poiid":"B2094757D66CAAFD499D","title":"老凤祥银楼(武宁店)","lon":"121.41627","lat":"31.24378","category":"500","category_name":"未知分类","address":"普陀区武宁路查看地图"},{"poiid":"B2094757D169A0FD439A","title":"145弄","lon":"121.42188458","lat":"31.247454768","category":"47","category_name":"住宅区","address":"上海市普陀区中宁路"},{"poiid":"B2094654D56AABF5419A","title":"石泉路警察署第六警务区","lon":"121.42055","lat":"31.2468","category":"248","category_name":"生活娱乐","address":"岚皋西路299"},{"poiid":"B2094757D66DAAFD4293","title":"馨佳园二街坊","lon":"121.416843586","lat":"31.2414396504","category":"47","category_name":"住宅区","address":"上海宝山区韶山路418弄"},{"poiid":"B2094655D26CAAF84293","title":"绿叶小区(南门)","lon":"121.41995","lat":"31.24222","category":"656","category_name":"大门","address":"中山北路2701弄1-7号"},{"poiid":"B2094654DA6CA6FC4098","title":"上海航空工业(集团)公司","lon":"121.42047","lat":"31.24124","category":"263","category_name":"公司","address":"武宁路350号联合大厦29层"},{"poiid":"B2094757D168A6F94298","title":"西宫会计学校","lon":"121.420819586","lat":"31.2405280659","category":"253","category_name":"校园生活","address":"上海武宁路西宫内"},{"poiid":"B2094655D264A2F9409A","title":"岚皋西路95弄小区(南门)","lon":"121.42278","lat":"31.24742","category":"47","category_name":"住宅区","address":"岚皋西路95弄1-18号"},{"poiid":"B2094655D26DA7FC469F","title":"绿叶小区(西门)","lon":"121.41876","lat":"31.24242","category":"656","category_name":"大门","address":"武宁路450"},{"poiid":"B2094757D169AAF5489A","title":"第一佳盐酥鸡","lon":"121.41861926","lat":"31.239998592","category":"247","category_name":"餐饮美食","address":"上海曹杨路轻轨站对面"},{"poiid":"B2094654DA6CA6FC409A","title":"中国石油物资上海公司","lon":"121.42047","lat":"31.24124","category":"263","category_name":"公司","address":"武宁路350号联合大厦11-12层"},{"poiid":"B2094752D26AA4FF469E","title":"纽斯桑拿会所","lon":"121.424206","lat":"31.244463","category":"148","category_name":"美容美发店","address":"金汇南路258弄1号(近虹泉路)"},{"poiid":"B2094757D168A1F44892","title":"中国农业银行(陆家宅支行)","lon":"121.41989","lat":"31.24084","category":"150","category_name":"银行","address":"普陀区武宁路301号丁(武宁路中山北路)"},{"poiid":"B2094757D66FA1F8419B","title":"上海市房地產職業技術培訓學校","lon":"121.423243586","lat":"31.2418616586","category":"253","category_name":"校园生活","address":"上海武寧路200弄永定新村121號"},{"poiid":"B2094654DA6CA6FC4193","title":"武宁小城(南门)","lon":"121.42101","lat":"31.24077","category":"48","category_name":"楼宇大门","address":"武宁路300"},{"poiid":"B2094655D264A6FF429E","title":"岚皋西路234弄小区(东门)","lon":"121.4229","lat":"31.24716","category":"47","category_name":"住宅区","address":"岚皋西路234弄2-4号"},{"poiid":"B2094757D065A6F54499","title":"上海市闸北区税务局","lon":"121.4186263","lat":"31.2409816","category":"500","category_name":"未知分类","address":"上海中山北路198号申航大厦"},{"poiid":"B2094655D26EA3F44093","title":"天赐苑(南门)","lon":"121.41979","lat":"31.24645","category":"656","category_name":"大门","address":"岚皋西路339"},{"poiid":"B2094757D16FABFB4699","title":"上海高文风咀有限公司","lon":"121.42321558","lat":"31.242931679","category":"263","category_name":"公司","address":"上海延长西路156号"},{"poiid":"B2094757D66CA2F9489B","title":"上海市轻工业品进出口有限公司","lon":"121.41613929","lat":"31.244042071","category":"263","category_name":"公司","address":"上海市武宁路501号鸿运大厦16-18楼"},{"poiid":"B2094654D56BA2F4499C","title":"上海市旧机动车交易市场","lon":"121.41768","lat":"31.24116","category":"160","category_name":"二手车交易","address":"普陀区中山北路2907(武宁路曹杨路中间中山北路上)"},{"poiid":"B2094654D565A3F9489A","title":"中国农业银行普陀区陆家宅支行ATM取款机","lon":"121.41963","lat":"31.24111","category":"152","category_name":"ATM","address":"武宁路301丁"},{"poiid":"B2094757D568A5FB469A","title":"上海市房地产学校","lon":"121.4234478","lat":"31.2415625","category":"253","category_name":"校园生活","address":"永定新村121号"},{"poiid":"B2094757D06BABFE499F","title":"上海电器科学研究所食堂","lon":"121.415715186","lat":"31.2442198048","category":"500","category_name":"未知分类","address":"上海曹杨路800号"},{"poiid":"B2094654D565A3F9439F","title":"上海轻音信息科技有限公司","lon":"121.41876","lat":"31.24075","category":"263","category_name":"公司","address":"中山北路2790号杰地大厦408"},{"poiid":"B2094757D065A7FE439D","title":"泰世桃源古方按摩","lon":"121.4219638","lat":"31.24042269","category":"148","category_name":"美容美发店","address":"上海长寿路818弄56号"},{"poiid":"B2094654DB6BA0FB489E","title":"宁泉新苑(南门)","lon":"121.41735","lat":"31.2473","category":"48","category_name":"楼宇大门","address":"石泉路450弄"},{"poiid":"B2094757D06AAAFE439D","title":"中山北路2918号","lon":"121.41865358","lat":"31.239878619","category":"500","category_name":"未知分类","address":"上海市普陀区曹杨路"},{"poiid":"B2094757D66FA7FA4893","title":"南江风韵度假村","lon":"121.417798","lat":"31.240284","category":"500","category_name":"未知分类","address":"上海近郊崇明县向化镇南江村"},{"poiid":"B2094757D165A3F9459A","title":"大排档","lon":"121.422782","lat":"31.247427","category":"500","category_name":"未知分类","address":"上海岚皋西路"},{"poiid":"B2094757D169A5FA4393","title":"原宿造型","lon":"121.41969","lat":"31.24015","category":"148","category_name":"美容美发店","address":"上海普陀区凯旋北路602号杰地大厦  "},{"poiid":"B2094752D065AAF9429B","title":"七宝老街","lon":"121.424133","lat":"31.244308","category":"500","category_name":"未知分类","address":null},{"poiid":"B2094655D26DA7FF4498","title":"天赐苑(北门)","lon":"121.41881","lat":"31.2471","category":"656","category_name":"大门","address":"石泉路415弄"},{"poiid":"B2094757D068A3F8479B","title":"I JOY U桌游坊","lon":"121.42145","lat":"31.24037","category":"175","category_name":"棋牌室","address":"长宁区愚园路1000号"},{"poiid":"B2094654DB6BA6FD469E","title":"富锦棋牌","lon":"121.4184","lat":"31.24067","category":"175","category_name":"棋牌室","address":"中山北路2900号"}]