[{"poiid":"B2094757D06FA1F4469B","title":"杨思","lon":"121.497465","lat":"31.161996","category":"38","category_name":"公交车站","address":"杨思路502弄1-24号"},{"poiid":"B2094757DB69A0F9429D","title":"盈田盈粥庄 上南路店","lon":"121.49751","lat":"31.16178","category":"72","category_name":"广东菜","address":"浦东新区上南路3077-3079号(近杨思路)"},{"poiid":"B2094757D06FA2FF4899","title":"卜蜂莲花(上南路店)","lon":"121.50367","lat":"31.15501","category":"118","category_name":"超级市场","address":"浦东新区上南路3521号宝丰综合市场内(近高青路)"},{"poiid":"B2094757D06FA7F44799","title":"世华锦城","lon":"121.50006","lat":"31.161526","category":"47","category_name":"住宅区","address":"上南路3055-3075(单)号"},{"poiid":"B2094655D265A6FB499D","title":"维也纳国际酒店世博园店","lon":"121.49792","lat":"31.1625","category":"215","category_name":"三星级宾馆","address":"上海浦东新区上南路3039号(杨思路口)"},{"poiid":"B2094757D06FA4FB4298","title":"申江豪城","lon":"121.49998","lat":"31.164312","category":"47","category_name":"住宅区","address":"上海市浦东新区杨思路855弄"},{"poiid":"B2094757D068ABF9419A","title":"江南公社","lon":"121.49791","lat":"31.16104","category":"77","category_name":"湖南菜","address":"浦东新区上南路3089号(近杨思路)"},{"poiid":"B2094757D068A2FC469B","title":"家渔沪晓大酒店","lon":"121.50101","lat":"31.15665","category":"76","category_name":"上海菜","address":"浦东新区上南路3421号(近海阳路)"},{"poiid":"B2094757D06FA5F8409E","title":"金苹果花园","lon":"121.49952","lat":"31.155581","category":"47","category_name":"住宅区","address":"上海市浦东新区上南路3500弄"},{"poiid":"B2094654DB6CA0FD419D","title":"跃民海鲜楼 上南路店","lon":"121.50022278787","lat":"31.156763266041","category":"88","category_name":"海鲜酒楼","address":"浦东新区上南路3368号(海阳路口)"},{"poiid":"B2094655D268A3F4499C","title":"东方吉苑","lon":"121.50553","lat":"31.162231","category":"47","category_name":"住宅区","address":"板泉路1201弄1-102号"},{"poiid":"B2094757D06BA0FC4692","title":"蜀膳传·火锅传奇","lon":"121.49785","lat":"31.1612","category":"86","category_name":"火锅店","address":"浦东新区上南路3085号(近杨思路)"},{"poiid":"B2094757D16AA2FC4593","title":"东旺名苑","lon":"121.50302","lat":"31.156832","category":"47","category_name":"住宅区","address":"上海海阳路860弄"},{"poiid":"B2094757D068A1FD4092","title":"大富貴","lon":"121.49762918","lat":"31.161823612","category":"500","category_name":"未知分类","address":"上海上南路3073~3075號"},{"poiid":"B2094757D068A6F9409D","title":"东方悦居","lon":"121.50452","lat":"31.165247","category":"47","category_name":"住宅区","address":"上海市浦东新区杨思路1121弄"},{"poiid":"B2094757D068A6F9429B","title":"传奇桌球(上南店)","lon":"121.497726486","lat":"31.1616285071","category":"171","category_name":"台球厅","address":"上海浦东新区上南路3039号3楼(近杨思路)"},{"poiid":"B2094655D26BA7F8469B","title":"上南雅筑","lon":"121.50471","lat":"31.160622","category":"47","category_name":"住宅区","address":"上海市浦东新区上南路3339弄"},{"poiid":"B2094757D069A2FF429F","title":"吉利名苑","lon":"121.5072","lat":"31.159323","category":"47","category_name":"住宅区","address":"上海市浦东新区海阳路1125号"},{"poiid":"B2094757D06AA2F8409B","title":"麦炫KTV","lon":"121.498055108","lat":"31.1610408671","category":"170","category_name":"KTV","address":"浦东新区灵岩南路769弄41号201室(近杨思)"},{"poiid":"B2094757D068A6FD429D","title":"肯德基 KFC (莲花店)","lon":"121.50285","lat":"31.154613","category":"68","category_name":"快餐厅","address":"浦东新区上南路3521号宝丰综合市场内"},{"poiid":"B2094757D665A2F44193","title":"董大师金牌稻香蛙 杨思店","lon":"121.5029074","lat":"31.1607863","category":"71","category_name":"四川菜","address":"浦东新区板泉路1031号-1015号(近上南路)"},{"poiid":"B2094655D36CA7FA499E","title":"海阳路洪山路","lon":"121.50329","lat":"31.15915","category":"38","category_name":"公交车站","address":""},{"poiid":"B2094757D16CAAF5439F","title":"农家食府","lon":"121.49989","lat":"31.159924","category":"76","category_name":"上海菜","address":"浦东新区板泉路949号(近上南路)"},{"poiid":"B2094655D26BA7FF4593","title":"呈品汤坊","lon":"121.49754","lat":"31.16242","category":"72","category_name":"广东菜","address":"浦东新区上南路3039号1楼(近杨思路)"},{"poiid":"B2094750D269A1FD429B","title":"水泊良膳特色农家菜","lon":"121.502082","lat":"31.16056","category":"247","category_name":"餐饮美食","address":"浦东新区板泉路1003-1007号(近洪山路)"},{"poiid":"B2094654DA65A4FA419D","title":"联丰一期","lon":"121.50307","lat":"31.15954","category":"47","category_name":"住宅区","address":"上南路3339弄21-43号"},{"poiid":"B2094757D468A3FE419B","title":"香喷喷美食林","lon":"121.501493","lat":"31.160466","category":"68","category_name":"快餐厅","address":"浦东新区板泉路993号(近上南路)"},{"poiid":"B2094750DB6BA0FF4398","title":"恒大古玩城","lon":"121.50093703439325","lat":"31.159878737619124","category":"121","category_name":"旧货市场","address":"浦东新区板泉路718号"},{"poiid":"B2094757D065A4FC469C","title":"野生大鱼坊","lon":"121.49889","lat":"31.1627","category":"86","category_name":"火锅店","address":"浦东新区杨思路750号(近上南路)"},{"poiid":"B2094654DA65A4FA4199","title":"华丰佳园","lon":"121.50217","lat":"31.159954","category":"47","category_name":"住宅区","address":"上南路3333弄1-24号"},{"poiid":"B2094757D469A0F5419E","title":"阿拉金山寨","lon":"121.500762","lat":"31.160903","category":"88","category_name":"海鲜酒楼","address":"板泉路985号近上南路"},{"poiid":"B2094757D66BA3F5449F","title":"重庆鸡公煲 上南路店","lon":"121.499673","lat":"31.159845","category":"71","category_name":"四川菜","address":"浦东新区板泉路"},{"poiid":"B2094750D664A4FD419C","title":"大富贵酒楼(上南路店)","lon":"121.498","lat":"31.1616","category":"76","category_name":"上海菜","address":"浦东新区上南路3069-3073号(近杨思车站)"},{"poiid":"B2094757D16EA7FF469E","title":"日月新殿","lon":"121.504","lat":"31.1613","category":"500","category_name":"未知分类","address":"上海市浦东新区海阳路654弄"},{"poiid":"B2094654DB65A6F94798","title":"上南山水苑","lon":"121.50477","lat":"31.15894","category":"47","category_name":"住宅区","address":"上海市浦东新区上南路3345号"},{"poiid":"B2094757D06BAAF8419A","title":"源城锦苑","lon":"121.50514766817","lat":"31.155441094145","category":"47","category_name":"住宅区","address":"上海市浦东新区灵岩南路769弄"},{"poiid":"B2094654DB6CA0FD499B","title":"源城锦翠苑","lon":"121.50390175708","lat":"31.156903327341","category":"47","category_name":"住宅区","address":"灵岩南路499弄1-62号"},{"poiid":"B2094655D268A6FD439A","title":"华丰家园(北门)","lon":"121.50171","lat":"31.16021","category":"47","category_name":"住宅区","address":""},{"poiid":"B2094757D069AAFD469B","title":"香思海酒楼(杨思店)","lon":"121.501763","lat":"31.160566","category":"247","category_name":"餐饮美食","address":"上海市浦东新区板泉路1007号"},{"poiid":"B2094750D269A1FD4392","title":"杨思医院门诊部","lon":"121.499748","lat":"31.157644","category":"162","category_name":"医院","address":null},{"poiid":"B2094757D16CAAFE429C","title":"华丰家园","lon":"121.50221873","lat":"31.159273289","category":"47","category_name":"住宅区","address":"上海上南路3333弄"},{"poiid":"B2094750DA65A5FF4398","title":"金谊广场","lon":"121.503639","lat":"31.156888","category":"248","category_name":"生活娱乐","address":"永泰路"},{"poiid":"B2094757D16BA1FC489F","title":"上青茶叶市场","lon":"121.50166873","lat":"31.159342791","category":"500","category_name":"未知分类","address":"上海市浦东新区上南路"},{"poiid":"B2094654DA65A4FA4198","title":"华丰佳园(南门)","lon":"121.50238","lat":"31.15902","category":"47","category_name":"住宅区","address":"上南路3333弄1-24号"},{"poiid":"B2094654DB6DA0F5469F","title":"桃李家园","lon":"121.50695","lat":"31.16067","category":"47","category_name":"住宅区","address":"上南路3339弄62-118号"},{"poiid":"B2094654DB6DA0F5459F","title":"桃李家园西块","lon":"121.50469","lat":"31.16028","category":"47","category_name":"住宅区","address":"洪山路851弄1-22号"},{"poiid":"B2094757D16CA4F84592","title":"海阳路烧烤","lon":"121.50513","lat":"31.15797","category":"68","category_name":"快餐厅","address":"浦东新区海阳路(近782终点站)"},{"poiid":"B2094654DB6DA7FF489D","title":"香樟园1065弄小区","lon":"121.50621","lat":"31.15919","category":"47","category_name":"住宅区","address":"海阳路1-28号"},{"poiid":"B2094751D56EA3FC429A","title":"老昌盛苏州汤包馆(上南路店)","lon":"121.498","lat":"31.16179","category":"68","category_name":"快餐厅","address":"浦东新区上南路3055号(近杨思路)"},{"poiid":"B2094655D36CA2F5429A","title":"上南路杨思路","lon":"121.49746","lat":"31.16199","category":"38","category_name":"公交车站","address":""},{"poiid":"B2094757D06FA1F4469B","title":"杨思","lon":"121.497465","lat":"31.161996","category":"38","category_name":"公交车站","address":"杨思路502弄1-24号"},{"poiid":"B2094757DB69A0F9429D","title":"盈田盈粥庄 上南路店","lon":"121.49751","lat":"31.16178","category":"72","category_name":"广东菜","address":"浦东新区上南路3077-3079号(近杨思路)"},{"poiid":"B2094757D06FA2FF4899","title":"卜蜂莲花(上南路店)","lon":"121.50367","lat":"31.15501","category":"118","category_name":"超级市场","address":"浦东新区上南路3521号宝丰综合市场内(近高青路)"},{"poiid":"B2094757D06FA7F44799","title":"世华锦城","lon":"121.50006","lat":"31.161526","category":"47","category_name":"住宅区","address":"上南路3055-3075(单)号"},{"poiid":"B2094655D265A6FB499D","title":"维也纳国际酒店世博园店","lon":"121.49792","lat":"31.1625","category":"215","category_name":"三星级宾馆","address":"上海浦东新区上南路3039号(杨思路口)"},{"poiid":"B2094757D06FA4FB4298","title":"申江豪城","lon":"121.49998","lat":"31.164312","category":"47","category_name":"住宅区","address":"上海市浦东新区杨思路855弄"},{"poiid":"B2094757D068ABF9419A","title":"江南公社","lon":"121.49791","lat":"31.16104","category":"77","category_name":"湖南菜","address":"浦东新区上南路3089号(近杨思路)"},{"poiid":"B2094757D068A2FC469B","title":"家渔沪晓大酒店","lon":"121.50101","lat":"31.15665","category":"76","category_name":"上海菜","address":"浦东新区上南路3421号(近海阳路)"},{"poiid":"B2094757D06FA5F8409E","title":"金苹果花园","lon":"121.49952","lat":"31.155581","category":"47","category_name":"住宅区","address":"上海市浦东新区上南路3500弄"},{"poiid":"B2094654DB6CA0FD419D","title":"跃民海鲜楼 上南路店","lon":"121.50022278787","lat":"31.156763266041","category":"88","category_name":"海鲜酒楼","address":"浦东新区上南路3368号(海阳路口)"},{"poiid":"B2094655D268A3F4499C","title":"东方吉苑","lon":"121.50553","lat":"31.162231","category":"47","category_name":"住宅区","address":"板泉路1201弄1-102号"},{"poiid":"B2094757D06BA0FC4692","title":"蜀膳传·火锅传奇","lon":"121.49785","lat":"31.1612","category":"86","category_name":"火锅店","address":"浦东新区上南路3085号(近杨思路)"},{"poiid":"B2094757D16AA2FC4593","title":"东旺名苑","lon":"121.50302","lat":"31.156832","category":"47","category_name":"住宅区","address":"上海海阳路860弄"},{"poiid":"B2094757D068A1FD4092","title":"大富貴","lon":"121.49762918","lat":"31.161823612","category":"500","category_name":"未知分类","address":"上海上南路3073~3075號"},{"poiid":"B2094757D068A6F9409D","title":"东方悦居","lon":"121.50452","lat":"31.165247","category":"47","category_name":"住宅区","address":"上海市浦东新区杨思路1121弄"},{"poiid":"B2094757D068A6F9429B","title":"传奇桌球(上南店)","lon":"121.497726486","lat":"31.1616285071","category":"171","category_name":"台球厅","address":"上海浦东新区上南路3039号3楼(近杨思路)"},{"poiid":"B2094655D26BA7F8469B","title":"上南雅筑","lon":"121.50471","lat":"31.160622","category":"47","category_name":"住宅区","address":"上海市浦东新区上南路3339弄"},{"poiid":"B2094757D069A2FF429F","title":"吉利名苑","lon":"121.5072","lat":"31.159323","category":"47","category_name":"住宅区","address":"上海市浦东新区海阳路1125号"},{"poiid":"B2094757D06AA2F8409B","title":"麦炫KTV","lon":"121.498055108","lat":"31.1610408671","category":"170","category_name":"KTV","address":"浦东新区灵岩南路769弄41号201室(近杨思)"},{"poiid":"B2094757D068A6FD429D","title":"肯德基 KFC (莲花店)","lon":"121.50285","lat":"31.154613","category":"68","category_name":"快餐厅","address":"浦东新区上南路3521号宝丰综合市场内"},{"poiid":"B2094757D665A2F44193","title":"董大师金牌稻香蛙 杨思店","lon":"121.5029074","lat":"31.1607863","category":"71","category_name":"四川菜","address":"浦东新区板泉路1031号-1015号(近上南路)"},{"poiid":"B2094655D36CA7FA499E","title":"海阳路洪山路","lon":"121.50329","lat":"31.15915","category":"38","category_name":"公交车站","address":""},{"poiid":"B2094757D16CAAF5439F","title":"农家食府","lon":"121.49989","lat":"31.159924","category":"76","category_name":"上海菜","address":"浦东新区板泉路949号(近上南路)"},{"poiid":"B2094655D26BA7FF4593","title":"呈品汤坊","lon":"121.49754","lat":"31.16242","category":"72","category_name":"广东菜","address":"浦东新区上南路3039号1楼(近杨思路)"},{"poiid":"B2094750D269A1FD429B","title":"水泊良膳特色农家菜","lon":"121.502082","lat":"31.16056","category":"247","category_name":"餐饮美食","address":"浦东新区板泉路1003-1007号(近洪山路)"},{"poiid":"B2094654DA65A4FA419D","title":"联丰一期","lon":"121.50307","lat":"31.15954","category":"47","category_name":"住宅区","address":"上南路3339弄21-43号"},{"poiid":"B2094757D468A3FE419B","title":"香喷喷美食林","lon":"121.501493","lat":"31.160466","category":"68","category_name":"快餐厅","address":"浦东新区板泉路993号(近上南路)"},{"poiid":"B2094750DB6BA0FF4398","title":"恒大古玩城","lon":"121.50093703439325","lat":"31.159878737619124","category":"121","category_name":"旧货市场","address":"浦东新区板泉路718号"},{"poiid":"B2094757D065A4FC469C","title":"野生大鱼坊","lon":"121.49889","lat":"31.1627","category":"86","category_name":"火锅店","address":"浦东新区杨思路750号(近上南路)"},{"poiid":"B2094654DA65A4FA4199","title":"华丰佳园","lon":"121.50217","lat":"31.159954","category":"47","category_name":"住宅区","address":"上南路3333弄1-24号"},{"poiid":"B2094757D469A0F5419E","title":"阿拉金山寨","lon":"121.500762","lat":"31.160903","category":"88","category_name":"海鲜酒楼","address":"板泉路985号近上南路"},{"poiid":"B2094757D66BA3F5449F","title":"重庆鸡公煲 上南路店","lon":"121.499673","lat":"31.159845","category":"71","category_name":"四川菜","address":"浦东新区板泉路"},{"poiid":"B2094750D664A4FD419C","title":"大富贵酒楼(上南路店)","lon":"121.498","lat":"31.1616","category":"76","category_name":"上海菜","address":"浦东新区上南路3069-3073号(近杨思车站)"},{"poiid":"B2094757D16EA7FF469E","title":"日月新殿","lon":"121.504","lat":"31.1613","category":"500","category_name":"未知分类","address":"上海市浦东新区海阳路654弄"},{"poiid":"B2094654DB65A6F94798","title":"上南山水苑","lon":"121.50477","lat":"31.15894","category":"47","category_name":"住宅区","address":"上海市浦东新区上南路3345号"},{"poiid":"B2094757D06BAAF8419A","title":"源城锦苑","lon":"121.50514766817","lat":"31.155441094145","category":"47","category_name":"住宅区","address":"上海市浦东新区灵岩南路769弄"},{"poiid":"B2094654DB6CA0FD499B","title":"源城锦翠苑","lon":"121.50390175708","lat":"31.156903327341","category":"47","category_name":"住宅区","address":"灵岩南路499弄1-62号"},{"poiid":"B2094655D268A6FD439A","title":"华丰家园(北门)","lon":"121.50171","lat":"31.16021","category":"47","category_name":"住宅区","address":""},{"poiid":"B2094757D069AAFD469B","title":"香思海酒楼(杨思店)","lon":"121.501763","lat":"31.160566","category":"247","category_name":"餐饮美食","address":"上海市浦东新区板泉路1007号"},{"poiid":"B2094750D269A1FD4392","title":"杨思医院门诊部","lon":"121.499748","lat":"31.157644","category":"162","category_name":"医院","address":null},{"poiid":"B2094757D16CAAFE429C","title":"华丰家园","lon":"121.50221873","lat":"31.159273289","category":"47","category_name":"住宅区","address":"上海上南路3333弄"},{"poiid":"B2094750DA65A5FF4398","title":"金谊广场","lon":"121.503639","lat":"31.156888","category":"248","category_name":"生活娱乐","address":"永泰路"},{"poiid":"B2094757D16BA1FC489F","title":"上青茶叶市场","lon":"121.50166873","lat":"31.159342791","category":"500","category_name":"未知分类","address":"上海市浦东新区上南路"},{"poiid":"B2094654DA65A4FA4198","title":"华丰佳园(南门)","lon":"121.50238","lat":"31.15902","category":"47","category_name":"住宅区","address":"上南路3333弄1-24号"},{"poiid":"B2094654DB6DA0F5469F","title":"桃李家园","lon":"121.50695","lat":"31.16067","category":"47","category_name":"住宅区","address":"上南路3339弄62-118号"},{"poiid":"B2094654DB6DA0F5459F","title":"桃李家园西块","lon":"121.50469","lat":"31.16028","category":"47","category_name":"住宅区","address":"洪山路851弄1-22号"},{"poiid":"B2094757D16CA4F84592","title":"海阳路烧烤","lon":"121.50513","lat":"31.15797","category":"68","category_name":"快餐厅","address":"浦东新区海阳路(近782终点站)"},{"poiid":"B2094654DB6DA7FF489D","title":"香樟园1065弄小区","lon":"121.50621","lat":"31.15919","category":"47","category_name":"住宅区","address":"海阳路1-28号"},{"poiid":"B2094751D56EA3FC429A","title":"老昌盛苏州汤包馆(上南路店)","lon":"121.498","lat":"31.16179","category":"68","category_name":"快餐厅","address":"浦东新区上南路3055号(近杨思路)"},{"poiid":"B2094655D36CA2F5429A","title":"上南路杨思路","lon":"121.49746","lat":"31.16199","category":"38","category_name":"公交车站","address":""},{"poiid":"B2094757D06FA1F4469B","title":"杨思","lon":"121.497465","lat":"31.161996","category":"38","category_name":"公交车站","address":"杨思路502弄1-24号"},{"poiid":"B2094757DB69A0F9429D","title":"盈田盈粥庄 上南路店","lon":"121.49751","lat":"31.16178","category":"72","category_name":"广东菜","address":"浦东新区上南路3077-3079号(近杨思路)"},{"poiid":"B2094757D06FA2FF4899","title":"卜蜂莲花(上南路店)","lon":"121.50367","lat":"31.15501","category":"118","category_name":"超级市场","address":"浦东新区上南路3521号宝丰综合市场内(近高青路)"},{"poiid":"B2094757D06FA7F44799","title":"世华锦城","lon":"121.50006","lat":"31.161526","category":"47","category_name":"住宅区","address":"上南路3055-3075(单)号"},{"poiid":"B2094655D265A6FB499D","title":"维也纳国际酒店世博园店","lon":"121.49792","lat":"31.1625","category":"215","category_name":"三星级宾馆","address":"上海浦东新区上南路3039号(杨思路口)"},{"poiid":"B2094757D06FA4FB4298","title":"申江豪城","lon":"121.49998","lat":"31.164312","category":"47","category_name":"住宅区","address":"上海市浦东新区杨思路855弄"},{"poiid":"B2094757D068ABF9419A","title":"江南公社","lon":"121.49791","lat":"31.16104","category":"77","category_name":"湖南菜","address":"浦东新区上南路3089号(近杨思路)"},{"poiid":"B2094757D068A2FC469B","title":"家渔沪晓大酒店","lon":"121.50101","lat":"31.15665","category":"76","category_name":"上海菜","address":"浦东新区上南路3421号(近海阳路)"},{"poiid":"B2094757D06FA5F8409E","title":"金苹果花园","lon":"121.49952","lat":"31.155581","category":"47","category_name":"住宅区","address":"上海市浦东新区上南路3500弄"},{"poiid":"B2094654DB6CA0FD419D","title":"跃民海鲜楼 上南路店","lon":"121.50022278787","lat":"31.156763266041","category":"88","category_name":"海鲜酒楼","address":"浦东新区上南路3368号(海阳路口)"},{"poiid":"B2094655D268A3F4499C","title":"东方吉苑","lon":"121.50553","lat":"31.162231","category":"47","category_name":"住宅区","address":"板泉路1201弄1-102号"},{"poiid":"B2094757D06BA0FC4692","title":"蜀膳传·火锅传奇","lon":"121.49785","lat":"31.1612","category":"86","category_name":"火锅店","address":"浦东新区上南路3085号(近杨思路)"},{"poiid":"B2094757D16AA2FC4593","title":"东旺名苑","lon":"121.50302","lat":"31.156832","category":"47","category_name":"住宅区","address":"上海海阳路860弄"},{"poiid":"B2094757D068A1FD4092","title":"大富貴","lon":"121.49762918","lat":"31.161823612","category":"500","category_name":"未知分类","address":"上海上南路3073~3075號"},{"poiid":"B2094757D068A6F9409D","title":"东方悦居","lon":"121.50452","lat":"31.165247","category":"47","category_name":"住宅区","address":"上海市浦东新区杨思路1121弄"},{"poiid":"B2094757D068A6F9429B","title":"传奇桌球(上南店)","lon":"121.497726486","lat":"31.1616285071","category":"171","category_name":"台球厅","address":"上海浦东新区上南路3039号3楼(近杨思路)"},{"poiid":"B2094655D26BA7F8469B","title":"上南雅筑","lon":"121.50471","lat":"31.160622","category":"47","category_name":"住宅区","address":"上海市浦东新区上南路3339弄"},{"poiid":"B2094757D069A2FF429F","title":"吉利名苑","lon":"121.5072","lat":"31.159323","category":"47","category_name":"住宅区","address":"上海市浦东新区海阳路1125号"},{"poiid":"B2094757D06AA2F8409B","title":"麦炫KTV","lon":"121.498055108","lat":"31.1610408671","category":"170","category_name":"KTV","address":"浦东新区灵岩南路769弄41号201室(近杨思)"},{"poiid":"B2094757D068A6FD429D","title":"肯德基 KFC (莲花店)","lon":"121.50285","lat":"31.154613","category":"68","category_name":"快餐厅","address":"浦东新区上南路3521号宝丰综合市场内"},{"poiid":"B2094757D665A2F44193","title":"董大师金牌稻香蛙 杨思店","lon":"121.5029074","lat":"31.1607863","category":"71","category_name":"四川菜","address":"浦东新区板泉路1031号-1015号(近上南路)"},{"poiid":"B2094655D36CA7FA499E","title":"海阳路洪山路","lon":"121.50329","lat":"31.15915","category":"38","category_name":"公交车站","address":""},{"poiid":"B2094757D16CAAF5439F","title":"农家食府","lon":"121.49989","lat":"31.159924","category":"76","category_name":"上海菜","address":"浦东新区板泉路949号(近上南路)"},{"poiid":"B2094655D26BA7FF4593","title":"呈品汤坊","lon":"121.49754","lat":"31.16242","category":"72","category_name":"广东菜","address":"浦东新区上南路3039号1楼(近杨思路)"},{"poiid":"B2094750D269A1FD429B","title":"水泊良膳特色农家菜","lon":"121.502082","lat":"31.16056","category":"247","category_name":"餐饮美食","address":"浦东新区板泉路1003-1007号(近洪山路)"},{"poiid":"B2094654DA65A4FA419D","title":"联丰一期","lon":"121.50307","lat":"31.15954","category":"47","category_name":"住宅区","address":"上南路3339弄21-43号"},{"poiid":"B2094757D468A3FE419B","title":"香喷喷美食林","lon":"121.501493","lat":"31.160466","category":"68","category_name":"快餐厅","address":"浦东新区板泉路993号(近上南路)"},{"poiid":"B2094750DB6BA0FF4398","title":"恒大古玩城","lon":"121.50093703439325","lat":"31.159878737619124","category":"121","category_name":"旧货市场","address":"浦东新区板泉路718号"},{"poiid":"B2094757D065A4FC469C","title":"野生大鱼坊","lon":"121.49889","lat":"31.1627","category":"86","category_name":"火锅店","address":"浦东新区杨思路750号(近上南路)"},{"poiid":"B2094654DA65A4FA4199","title":"华丰佳园","lon":"121.50217","lat":"31.159954","category":"47","category_name":"住宅区","address":"上南路3333弄1-24号"},{"poiid":"B2094757D469A0F5419E","title":"阿拉金山寨","lon":"121.500762","lat":"31.160903","category":"88","category_name":"海鲜酒楼","address":"板泉路985号近上南路"},{"poiid":"B2094757D66BA3F5449F","title":"重庆鸡公煲 上南路店","lon":"121.499673","lat":"31.159845","category":"71","category_name":"四川菜","address":"浦东新区板泉路"},{"poiid":"B2094750D664A4FD419C","title":"大富贵酒楼(上南路店)","lon":"121.498","lat":"31.1616","category":"76","category_name":"上海菜","address":"浦东新区上南路3069-3073号(近杨思车站)"},{"poiid":"B2094757D16EA7FF469E","title":"日月新殿","lon":"121.504","lat":"31.1613","category":"500","category_name":"未知分类","address":"上海市浦东新区海阳路654弄"},{"poiid":"B2094654DB65A6F94798","title":"上南山水苑","lon":"121.50477","lat":"31.15894","category":"47","category_name":"住宅区","address":"上海市浦东新区上南路3345号"},{"poiid":"B2094757D06BAAF8419A","title":"源城锦苑","lon":"121.50514766817","lat":"31.155441094145","category":"47","category_name":"住宅区","address":"上海市浦东新区灵岩南路769弄"},{"poiid":"B2094654DB6CA0FD499B","title":"源城锦翠苑","lon":"121.50390175708","lat":"31.156903327341","category":"47","category_name":"住宅区","address":"灵岩南路499弄1-62号"},{"poiid":"B2094655D268A6FD439A","title":"华丰家园(北门)","lon":"121.50171","lat":"31.16021","category":"47","category_name":"住宅区","address":""},{"poiid":"B2094757D069AAFD469B","title":"香思海酒楼(杨思店)","lon":"121.501763","lat":"31.160566","category":"247","category_name":"餐饮美食","address":"上海市浦东新区板泉路1007号"},{"poiid":"B2094750D269A1FD4392","title":"杨思医院门诊部","lon":"121.499748","lat":"31.157644","category":"162","category_name":"医院","address":null},{"poiid":"B2094757D16CAAFE429C","title":"华丰家园","lon":"121.50221873","lat":"31.159273289","category":"47","category_name":"住宅区","address":"上海上南路3333弄"},{"poiid":"B2094750DA65A5FF4398","title":"金谊广场","lon":"121.503639","lat":"31.156888","category":"248","category_name":"生活娱乐","address":"永泰路"},{"poiid":"B2094757D16BA1FC489F","title":"上青茶叶市场","lon":"121.50166873","lat":"31.159342791","category":"500","category_name":"未知分类","address":"上海市浦东新区上南路"},{"poiid":"B2094654DA65A4FA4198","title":"华丰佳园(南门)","lon":"121.50238","lat":"31.15902","category":"47","category_name":"住宅区","address":"上南路3333弄1-24号"},{"poiid":"B2094654DB6DA0F5469F","title":"桃李家园","lon":"121.50695","lat":"31.16067","category":"47","category_name":"住宅区","address":"上南路3339弄62-118号"},{"poiid":"B2094654DB6DA0F5459F","title":"桃李家园西块","lon":"121.50469","lat":"31.16028","category":"47","category_name":"住宅区","address":"洪山路851弄1-22号"},{"poiid":"B2094757D16CA4F84592","title":"海阳路烧烤","lon":"121.50513","lat":"31.15797","category":"68","category_name":"快餐厅","address":"浦东新区海阳路(近782终点站)"},{"poiid":"B2094654DB6DA7FF489D","title":"香樟园1065弄小区","lon":"121.50621","lat":"31.15919","category":"47","category_name":"住宅区","address":"海阳路1-28号"},{"poiid":"B2094751D56EA3FC429A","title":"老昌盛苏州汤包馆(上南路店)","lon":"121.498","lat":"31.16179","category":"68","category_name":"快餐厅","address":"浦东新区上南路3055号(近杨思路)"},{"poiid":"B2094655D36CA2F5429A","title":"上南路杨思路","lon":"121.49746","lat":"31.16199","category":"38","category_name":"公交车站","address":""},{"poiid":"B2094757D06FA1F4469B","title":"杨思","lon":"121.497465","lat":"31.161996","category":"38","category_name":"公交车站","address":"杨思路502弄1-24号"},{"poiid":"B2094757DB69A0F9429D","title":"盈田盈粥庄 上南路店","lon":"121.49751","lat":"31.16178","category":"72","category_name":"广东菜","address":"浦东新区上南路3077-3079号(近杨思路)"},{"poiid":"B2094757D06FA2FF4899","title":"卜蜂莲花(上南路店)","lon":"121.50367","lat":"31.15501","category":"118","category_name":"超级市场","address":"浦东新区上南路3521号宝丰综合市场内(近高青路)"},{"poiid":"B2094757D06FA7F44799","title":"世华锦城","lon":"121.50006","lat":"31.161526","category":"47","category_name":"住宅区","address":"上南路3055-3075(单)号"},{"poiid":"B2094655D265A6FB499D","title":"维也纳国际酒店世博园店","lon":"121.49792","lat":"31.1625","category":"215","category_name":"三星级宾馆","address":"上海浦东新区上南路3039号(杨思路口)"},{"poiid":"B2094757D06FA4FB4298","title":"申江豪城","lon":"121.49998","lat":"31.164312","category":"47","category_name":"住宅区","address":"上海市浦东新区杨思路855弄"},{"poiid":"B2094757D068ABF9419A","title":"江南公社","lon":"121.49791","lat":"31.16104","category":"77","category_name":"湖南菜","address":"浦东新区上南路3089号(近杨思路)"},{"poiid":"B2094757D068A2FC469B","title":"家渔沪晓大酒店","lon":"121.50101","lat":"31.15665","category":"76","category_name":"上海菜","address":"浦东新区上南路3421号(近海阳路)"},{"poiid":"B2094757D06FA5F8409E","title":"金苹果花园","lon":"121.49952","lat":"31.155581","category":"47","category_name":"住宅区","address":"上海市浦东新区上南路3500弄"},{"poiid":"B2094654DB6CA0FD419D","title":"跃民海鲜楼 上南路店","lon":"121.50022278787","lat":"31.156763266041","category":"88","category_name":"海鲜酒楼","address":"浦东新区上南路3368号(海阳路口)"},{"poiid":"B2094655D268A3F4499C","title":"东方吉苑","lon":"121.50553","lat":"31.162231","category":"47","category_name":"住宅区","address":"板泉路1201弄1-102号"},{"poiid":"B2094757D06BA0FC4692","title":"蜀膳传·火锅传奇","lon":"121.49785","lat":"31.1612","category":"86","category_name":"火锅店","address":"浦东新区上南路3085号(近杨思路)"},{"poiid":"B2094757D16AA2FC4593","title":"东旺名苑","lon":"121.50302","lat":"31.156832","category":"47","category_name":"住宅区","address":"上海海阳路860弄"},{"poiid":"B2094757D068A1FD4092","title":"大富貴","lon":"121.49762918","lat":"31.161823612","category":"500","category_name":"未知分类","address":"上海上南路3073~3075號"},{"poiid":"B2094757D068A6F9409D","title":"东方悦居","lon":"121.50452","lat":"31.165247","category":"47","category_name":"住宅区","address":"上海市浦东新区杨思路1121弄"},{"poiid":"B2094757D068A6F9429B","title":"传奇桌球(上南店)","lon":"121.497726486","lat":"31.1616285071","category":"171","category_name":"台球厅","address":"上海浦东新区上南路3039号3楼(近杨思路)"},{"poiid":"B2094655D26BA7F8469B","title":"上南雅筑","lon":"121.50471","lat":"31.160622","category":"47","category_name":"住宅区","address":"上海市浦东新区上南路3339弄"},{"poiid":"B2094757D069A2FF429F","title":"吉利名苑","lon":"121.5072","lat":"31.159323","category":"47","category_name":"住宅区","address":"上海市浦东新区海阳路1125号"},{"poiid":"B2094757D06AA2F8409B","title":"麦炫KTV","lon":"121.498055108","lat":"31.1610408671","category":"170","category_name":"KTV","address":"浦东新区灵岩南路769弄41号201室(近杨思)"},{"poiid":"B2094757D068A6FD429D","title":"肯德基 KFC (莲花店)","lon":"121.50285","lat":"31.154613","category":"68","category_name":"快餐厅","address":"浦东新区上南路3521号宝丰综合市场内"},{"poiid":"B2094757D665A2F44193","title":"董大师金牌稻香蛙 杨思店","lon":"121.5029074","lat":"31.1607863","category":"71","category_name":"四川菜","address":"浦东新区板泉路1031号-1015号(近上南路)"},{"poiid":"B2094655D36CA7FA499E","title":"海阳路洪山路","lon":"121.50329","lat":"31.15915","category":"38","category_name":"公交车站","address":""},{"poiid":"B2094757D16CAAF5439F","title":"农家食府","lon":"121.49989","lat":"31.159924","category":"76","category_name":"上海菜","address":"浦东新区板泉路949号(近上南路)"},{"poiid":"B2094655D26BA7FF4593","title":"呈品汤坊","lon":"121.49754","lat":"31.16242","category":"72","category_name":"广东菜","address":"浦东新区上南路3039号1楼(近杨思路)"},{"poiid":"B2094750D269A1FD429B","title":"水泊良膳特色农家菜","lon":"121.502082","lat":"31.16056","category":"247","category_name":"餐饮美食","address":"浦东新区板泉路1003-1007号(近洪山路)"},{"poiid":"B2094654DA65A4FA419D","title":"联丰一期","lon":"121.50307","lat":"31.15954","category":"47","category_name":"住宅区","address":"上南路3339弄21-43号"},{"poiid":"B2094757D468A3FE419B","title":"香喷喷美食林","lon":"121.501493","lat":"31.160466","category":"68","category_name":"快餐厅","address":"浦东新区板泉路993号(近上南路)"},{"poiid":"B2094750DB6BA0FF4398","title":"恒大古玩城","lon":"121.50093703439325","lat":"31.159878737619124","category":"121","category_name":"旧货市场","address":"浦东新区板泉路718号"},{"poiid":"B2094757D065A4FC469C","title":"野生大鱼坊","lon":"121.49889","lat":"31.1627","category":"86","category_name":"火锅店","address":"浦东新区杨思路750号(近上南路)"},{"poiid":"B2094654DA65A4FA4199","title":"华丰佳园","lon":"121.50217","lat":"31.159954","category":"47","category_name":"住宅区","address":"上南路3333弄1-24号"},{"poiid":"B2094757D469A0F5419E","title":"阿拉金山寨","lon":"121.500762","lat":"31.160903","category":"88","category_name":"海鲜酒楼","address":"板泉路985号近上南路"},{"poiid":"B2094757D66BA3F5449F","title":"重庆鸡公煲 上南路店","lon":"121.499673","lat":"31.159845","category":"71","category_name":"四川菜","address":"浦东新区板泉路"},{"poiid":"B2094750D664A4FD419C","title":"大富贵酒楼(上南路店)","lon":"121.498","lat":"31.1616","category":"76","category_name":"上海菜","address":"浦东新区上南路3069-3073号(近杨思车站)"},{"poiid":"B2094757D16EA7FF469E","title":"日月新殿","lon":"121.504","lat":"31.1613","category":"500","category_name":"未知分类","address":"上海市浦东新区海阳路654弄"},{"poiid":"B2094654DB65A6F94798","title":"上南山水苑","lon":"121.50477","lat":"31.15894","category":"47","category_name":"住宅区","address":"上海市浦东新区上南路3345号"},{"poiid":"B2094757D06BAAF8419A","title":"源城锦苑","lon":"121.50514766817","lat":"31.155441094145","category":"47","category_name":"住宅区","address":"上海市浦东新区灵岩南路769弄"},{"poiid":"B2094654DB6CA0FD499B","title":"源城锦翠苑","lon":"121.50390175708","lat":"31.156903327341","category":"47","category_name":"住宅区","address":"灵岩南路499弄1-62号"},{"poiid":"B2094655D268A6FD439A","title":"华丰家园(北门)","lon":"121.50171","lat":"31.16021","category":"47","category_name":"住宅区","address":""},{"poiid":"B2094757D069AAFD469B","title":"香思海酒楼(杨思店)","lon":"121.501763","lat":"31.160566","category":"247","category_name":"餐饮美食","address":"上海市浦东新区板泉路1007号"},{"poiid":"B2094750D269A1FD4392","title":"杨思医院门诊部","lon":"121.499748","lat":"31.157644","category":"162","category_name":"医院","address":null},{"poiid":"B2094757D16CAAFE429C","title":"华丰家园","lon":"121.50221873","lat":"31.159273289","category":"47","category_name":"住宅区","address":"上海上南路3333弄"},{"poiid":"B2094750DA65A5FF4398","title":"金谊广场","lon":"121.503639","lat":"31.156888","category":"248","category_name":"生活娱乐","address":"永泰路"},{"poiid":"B2094757D16BA1FC489F","title":"上青茶叶市场","lon":"121.50166873","lat":"31.159342791","category":"500","category_name":"未知分类","address":"上海市浦东新区上南路"},{"poiid":"B2094654DA65A4FA4198","title":"华丰佳园(南门)","lon":"121.50238","lat":"31.15902","category":"47","category_name":"住宅区","address":"上南路3333弄1-24号"},{"poiid":"B2094654DB6DA0F5469F","title":"桃李家园","lon":"121.50695","lat":"31.16067","category":"47","category_name":"住宅区","address":"上南路3339弄62-118号"},{"poiid":"B2094654DB6DA0F5459F","title":"桃李家园西块","lon":"121.50469","lat":"31.16028","category":"47","category_name":"住宅区","address":"洪山路851弄1-22号"},{"poiid":"B2094757D16CA4F84592","title":"海阳路烧烤","lon":"121.50513","lat":"31.15797","category":"68","category_name":"快餐厅","address":"浦东新区海阳路(近782终点站)"},{"poiid":"B2094654DB6DA7FF489D","title":"香樟园1065弄小区","lon":"121.50621","lat":"31.15919","category":"47","category_name":"住宅区","address":"海阳路1-28号"},{"poiid":"B2094751D56EA3FC429A","title":"老昌盛苏州汤包馆(上南路店)","lon":"121.498","lat":"31.16179","category":"68","category_name":"快餐厅","address":"浦东新区上南路3055号(近杨思路)"},{"poiid":"B2094655D36CA2F5429A","title":"上南路杨思路","lon":"121.49746","lat":"31.16199","category":"38","category_name":"公交车站","address":""}]