[{"poiid":"B2094654DB6BA4FD4592","title":"上海音乐学院","lon":"121.45487","lat":"31.21309","category":"671","category_name":"高校中心点","address":"徐汇区汾阳路20号(近复兴中路)"},{"poiid":"B2094654DA6EA2FA459D","title":"博多新记 复兴店","lon":"121.4576526721","lat":"31.21277515026","category":"72","category_name":"广东菜","address":"徐汇区复兴中路1252弄15号2楼(近襄阳南路)"},{"poiid":"B2094654DB65A5F8479D","title":"贺绿汀音乐厅","lon":"121.45461","lat":"31.21331","category":"179","category_name":"音乐厅","address":"徐汇区汾阳路20号上海音乐学院内(近淮海中路)"},{"poiid":"B2094753D76FAAFA449C","title":"上海滩国泰旗舰店","lon":"121.466011","lat":"31.216125","category":"249","category_name":"购物服务","address":"淮海中路868号"},{"poiid":"B209475CD564A7F84292","title":"上海滩新天地店","lon":"121.47463","lat":"31.22164","category":"119","category_name":"商场","address":"\"太仓路181弄新天地北里15号\r\n\""},{"poiid":"B209475CD564A7F8439E","title":"上海滩中信泰富店","lon":"121.45602","lat":"31.22851","category":"119","category_name":"商场","address":"\"南京西路1168号中信泰富广场，店铺号221.\r\n\""},{"poiid":"B2094757D464A7F44199","title":"博多新记 襄阳南路店","lon":"121.456851054","lat":"31.213952793","category":"72","category_name":"广东菜","address":"徐汇区襄阳南路150号(近南昌路)"},{"poiid":"B2094757D06FAAFA459D","title":"上海市口腔病防治院(复兴中路分院)","lon":"121.4582","lat":"31.2126","category":"162","category_name":"医院","address":"徐汇区复兴中路1258号(近襄阳南路)"},{"poiid":"B2094750D76FA3FB4698","title":"滩悦(淮海路店)","lon":"121.457","lat":"31.2143","category":"76","category_name":"上海菜","address":"卢湾区襄阳南路102号3楼(近南昌路)"},{"poiid":"B2094757D06FA5FE4898","title":"老地方面馆","lon":"121.45791","lat":"31.21153","category":"68","category_name":"快餐厅","address":"徐汇区襄阳南路233号(近永康路)"},{"poiid":"B2094757D068A1F8429A","title":"熠盛粤味","lon":"121.457178","lat":"31.210503","category":"72","category_name":"广东菜","address":"徐汇区永康路132号(近襄阳南路)"},{"poiid":"B2094757D06EAAFA429F","title":"It's Café (Espresso Club)","lon":"121.458087","lat":"31.21099","category":"65","category_name":"咖啡厅","address":"上海徐汇区永康路64号"},{"poiid":"B2094757D068A5FA449F","title":"嘉豪淮海国际豪生酒店","lon":"121.45631","lat":"31.21455","category":"217","category_name":"旅馆招待所","address":"上海市徐汇区汾阳路1号(近淮海中路)"},{"poiid":"B2094757D16AAAFD459A","title":"上海汾陽花園酒店","lon":"121.455160738","lat":"31.212530923","category":"217","category_name":"旅馆招待所","address":"上海汾陽45號"},{"poiid":"B2094750D768A6FA4899","title":"林记小馆(襄阳南路店)","lon":"121.457","lat":"31.2143","category":"72","category_name":"广东菜","address":"徐汇区襄阳南路102号(近淮海路)"},{"poiid":"B2094654DA6DA6F8439A","title":"上海市第二中学","lon":"121.45536","lat":"31.21034","category":"55","category_name":"中学","address":"徐汇区永康路200号(近太原路)"},{"poiid":"B2094752D269A5FA4293","title":"半岛小厨","lon":"121.457703","lat":"31.212662","category":"247","category_name":"餐饮美食","address":"徐汇区复兴中路1251号2楼(襄阳南路口)"},{"poiid":"B2094752DB6BA5FA429D","title":"Madison","lon":"121.455942","lat":"31.21461","category":"500","category_name":"未知分类","address":"上海市 汾陽路3號2號樓1樓"},{"poiid":"B2094757D66CA1FB449B","title":"88club","lon":"121.45549011","lat":"31.214376449","category":"500","category_name":"未知分类","address":"上海徐汇区富民路"},{"poiid":"B2094757D068A6F8449D","title":"邮电医院南部","lon":"121.45559842","lat":"31.211518436","category":"162","category_name":"医院","address":"徐汇区复兴中路1315号(近汾阳路)"},{"poiid":"B2094757D468A4FE439C","title":"埃哇餐厅 汾阳路店 AURA","lon":"121.454274","lat":"31.2113792","category":"94","category_name":"西餐厅","address":"徐汇区汾阳路64弄4号(近复兴中路)"},{"poiid":"B2094757DA6FA3FE439F","title":"恋恋仙草(永康店)","lon":"121.457996","lat":"31.2109670000002","category":"113","category_name":"冷饮店","address":"徐汇区永康路70号(襄阳南路口)"},{"poiid":"B2094757DB69A7FB4199","title":"爱乐阿米奇 ELLO AMICI'S","lon":"121.456828","lat":"31.214321","category":"94","category_name":"西餐厅","address":"徐汇区襄阳南路102号(南昌路口)"},{"poiid":"B2094757D06FA3F5419B","title":"店里咖啡馆 Green Room","lon":"121.4578085","lat":"31.212752","category":"65","category_name":"咖啡厅","address":"上海市复兴中路1262弄2号(近襄阳南路)"},{"poiid":"B2094753D26AAAF44893","title":"大咀茶餐厅","lon":"121.45771","lat":"31.214161","category":"500","category_name":"未知分类","address":"上海市 陕西南路117号5楼"},{"poiid":"B2094757D16CA3F84298","title":"汾阳路","lon":"121.456418738","lat":"31.2133589406","category":"260","category_name":"其他","address":"上海汾阳路"},{"poiid":"B2094757D468A4FE499B","title":"阿斯曼","lon":"121.456708054","lat":"31.212441793","category":"84","category_name":"西北菜","address":"复兴中路1251号近襄阳南路"},{"poiid":"B2094757D065A3F94398","title":"茜茜莉亚音乐咖啡","lon":"121.4542747","lat":"31.211379","category":"65","category_name":"咖啡厅","address":"徐汇区汾阳路64弄2号(近复兴中路)"},{"poiid":"B2094757D764A5F4449F","title":"IT'S COFFEE","lon":"121.458087","lat":"31.21099","category":"260","category_name":"其他","address":"徐汇区永康路64号(近复兴中路)"},{"poiid":"B2094655D265A7FF429F","title":"上海音乐学院(南门)","lon":"121.45434","lat":"31.21193","category":"52","category_name":"高等院校","address":"复兴中路1330"},{"poiid":"B2094757D568A0F4459D","title":"汾阳花园酒店","lon":"121.45546767","lat":"31.21291558","category":"214","category_name":"四星级宾馆","address":"上海徐汇区汾阳路45号(近复兴中路)"},{"poiid":"B2094654DA6DA6FD459F","title":"花子","lon":"121.45753735595","lat":"31.211939687057","category":"95","category_name":"日本料理","address":"徐汇区襄阳南路207-3号(近复兴中路)"},{"poiid":"B2094757D769A4F8479B","title":"奥芙莉 襄阳南路店 Awfully Chocolate","lon":"121.456886054","lat":"31.212959793","category":"67","category_name":"甜品店","address":"徐汇区襄阳南路174号(近复兴中路)"},{"poiid":"B209475DD26CA5F8449B","title":"鼎泰丰环贸店","lon":"121.456192","lat":"31.214679","category":"500","category_name":"未知分类","address":"上海市 淮海中路环贸Iapm广场3楼"},{"poiid":"B2094757DA65A6FC4299","title":"1933老場坊","lon":"121.457631","lat":"31.21133","category":"248","category_name":"生活娱乐","address":"上海市虹口區漂陽路611號1933老場坊"},{"poiid":"B2094750DA6AABFC429C","title":"上海国际F1赛车场","lon":"121.454673","lat":"31.214015","category":"500","category_name":"未知分类","address":null},{"poiid":"B2094757D068A5FA489A","title":"位育初级中学","lon":"121.45677509","lat":"31.211933819","category":"55","category_name":"中学","address":"徐汇区复兴中路1261号(近襄阳南路)"},{"poiid":"B2094654DA6DA6FF469A","title":"明园世纪城","lon":"121.45858","lat":"31.211952","category":"47","category_name":"住宅区","address":"上海市徐汇区复兴中路1199号"},{"poiid":"B2094752DA6AA7F9439A","title":"锅德港式海鲜肥牛火锅","lon":"121.456055","lat":"31.214506","category":"247","category_name":"餐饮美食","address":"上海市 汾阳路3号2-3楼"},{"poiid":"B2094757D06FA7FA4998","title":"Memo bar & restaurant","lon":"121.4543","lat":"31.21143","category":"94","category_name":"西餐厅","address":"嘉善路259弄旁嘉善老市内（建国西路和永嘉路之间）"},{"poiid":"B2094757D16AA3FA409B","title":"台北永康","lon":"121.45818773","lat":"31.210877887","category":"500","category_name":"未知分类","address":"上海永康路66号"},{"poiid":"B2094750D76DA4F9449E","title":"阿斯曼新疆风味餐厅(复兴中路店)","lon":"121.458","lat":"31.2126","category":"90","category_name":"清真餐馆","address":"徐汇区复兴中路1251号"},{"poiid":"B2094757D06AA1FB479C","title":"陋室汤包","lon":"121.45783","lat":"31.21405","category":"68","category_name":"快餐厅","address":"卢湾区南昌路601号(近襄阳南路)"},{"poiid":"B2094753D36CA7F5409C","title":"鳍处松户日本料理","lon":"121.456052","lat":"31.214748","category":"95","category_name":"日本料理","address":"徐汇区汾阳路3号2幢4F"},{"poiid":"B2094655D26EA6F94498","title":"台园圆圆香云吞 徐汇店","lon":"121.456165054","lat":"31.212394793","category":"68","category_name":"快餐厅","address":"徐汇区复兴中路1268号(近襄阳南路)"},{"poiid":"B2094655D26AA2FD419C","title":"田仓米粉 南昌路店","lon":"121.457200054","lat":"31.214274793","category":"87","category_name":"特色／地方风味餐厅","address":"徐汇区南昌路621号(襄阳路口)"},{"poiid":"B2094750D76BA7F5419A","title":"Madsion餐厅","lon":"121.45586460845948","lat":"31.21466878490339","category":"256","category_name":"外国餐厅","address":"徐汇区汾阳路3号2号楼一楼"},{"poiid":"B2094757D068A1F84792","title":"现代电子城","lon":"121.45725822","lat":"31.212201762","category":"249","category_name":"购物服务","address":"徐汇区襄阳南路218号(近复兴中路)"},{"poiid":"B2094757D568AAFE4892","title":"上海音乐学院餐厅","lon":"121.4545131","lat":"31.21272194","category":"68","category_name":"快餐厅","address":"徐汇区汾阳路20号上海音乐学院内(近复兴中路)"},{"poiid":"B2094757DB6CA3FC4699","title":"上海汾阳花园酒店","lon":"121.455148","lat":"31.212659","category":"213","category_name":"五星级宾馆","address":"上海市徐汇区汾阳路45号(近复兴中路)"},{"poiid":"B2094752D668A4FD489A","title":"查餐厅","lon":"121.455439","lat":"31.211717","category":"247","category_name":"餐饮美食","address":"思南路"},{"poiid":"B2094757D56DA6F54093","title":"上海音乐学院","lon":"121.454287","lat":"31.213444","category":"52","category_name":"高等院校","address":"汾阳路20号"},{"poiid":"B2094757D065AAF44692","title":"金唐小厨","lon":"121.457861738","lat":"31.2134869434","category":"72","category_name":"广东菜","address":"徐汇区复兴中路1251号(近襄阳南路)"},{"poiid":"B2094757D06BAAFB469F","title":"重庆鸡公煲(复兴中路店)","lon":"121.45855","lat":"31.2126","category":"71","category_name":"四川菜","address":"卢湾区复兴中路1250号(复兴中路嘉善路)"},{"poiid":"B2094757D169A0F94898","title":"SBC 英方图书馆","lon":"121.458349638","lat":"31.2126543256","category":"181","category_name":"图书馆","address":"上海复兴中路1195号"},{"poiid":"B2094757D16FA6F44099","title":"上海音乐学院 北楼","lon":"121.45405058","lat":"31.213074095","category":"500","category_name":"未知分类","address":"上海汾阳路二十号 新教学楼"},{"poiid":"B2094655D26EA4FD4099","title":"音符餐厅","lon":"121.45589","lat":"31.21457","category":"257","category_name":"中餐厅","address":"徐汇区汾阳路1号嘉豪淮海国际豪生酒店2楼(近淮海中路)"},{"poiid":"B2094753D66FABFD469E","title":"梦苑咖啡影吧","lon":"121.457076","lat":"31.211774","category":"65","category_name":"咖啡厅","address":"徐汇区襄阳南路222号"},{"poiid":"B2094751D465A3F5449A","title":"hoF","lon":"121.455483","lat":"31.211434","category":"249","category_name":"购物服务","address":"思南路淮海中路"},{"poiid":"B2094757D16BABF8469A","title":"El Gato Verde","lon":"121.454563586","lat":"31.2111980588","category":"94","category_name":"西餐厅","address":"徐汇区汾阳路74号(近复兴中路)"},{"poiid":"B2094654DA6DA6FD459C","title":"巨星发艺(襄阳南路)","lon":"121.45758","lat":"31.21166","category":"148","category_name":"美容美发店","address":"襄阳南路207-4"},{"poiid":"B2094752D364AAFC459A","title":"Costa汾阳路","lon":"121.455585","lat":"31.214076","category":"247","category_name":"餐饮美食","address":null},{"poiid":"B2094757D068A6FE4192","title":"好盏香港餐厅","lon":"121.457499","lat":"31.212483","category":"72","category_name":"广东菜","address":"徐汇区复兴中路1251号"},{"poiid":"B2094654DA6DA6F84199","title":"安盛商务楼","lon":"121.4543","lat":"31.21079","category":"46","category_name":"楼宇","address":"汾阳路77号"},{"poiid":"B2094757D464A6FE4692","title":"旺好旺特色兰州拉面","lon":"121.456991054","lat":"31.214065793","category":"247","category_name":"餐饮美食","address":"徐汇区襄阳南路(南昌路口)"},{"poiid":"B209475CD46AA5FD4599","title":"么么甜品","lon":"121.456237","lat":"31.212278","category":"247","category_name":"餐饮美食","address":"上海市 复兴中路1277号"},{"poiid":"B2094654DB64AAFE479F","title":"大众小厨襄阳店","lon":"121.45755","lat":"31.21185","category":"257","category_name":"中餐厅","address":"徐汇区襄阳南路207号(近复兴中路)"},{"poiid":"B2094757D165AAFA479A","title":"摩仑比萨屋","lon":"121.45698","lat":"31.21013","category":"68","category_name":"快餐厅","address":"徐汇区永康路130号(近襄阳南路)"},{"poiid":"B2094654DA6EA2FA459C","title":"莉莎广福和小厨","lon":"121.45835","lat":"31.21299","category":"68","category_name":"快餐厅","address":"徐汇区襄阳南路198号(近复兴中路)"},{"poiid":"B2094757D064A4F94199","title":"永康路38弄","lon":"121.45685573","lat":"31.210449478","category":"46","category_name":"楼宇","address":"上海徐汇区永康路38弄"},{"poiid":"B2094654DB6BA4FD449C","title":"金记餐厅南昌路","lon":"121.45745","lat":"31.21425","category":"76","category_name":"上海菜","address":"卢湾区南昌路605号(近陕西南路地铁站)"},{"poiid":"B2094757D66DA5F5499F","title":"桂林米粉复兴中路","lon":"121.45722713","lat":"31.212704726","category":"68","category_name":"快餐厅","address":"徐汇区复兴中路1251号(近襄阳南路)"},{"poiid":"B2094654DA6DA4F4499C","title":"杰天阁随意小吃","lon":"121.4542","lat":"31.21141","category":"76","category_name":"上海菜","address":"徐汇区汾阳路64弄1号"},{"poiid":"B2094757D66BA6FB499C","title":"妯娌老鸭粉丝汤 复兴中路店","lon":"121.45727","lat":"31.2124","category":"68","category_name":"快餐厅","address":"徐汇区复兴中路1251号(近襄阳南路)"},{"poiid":"B2094757D66EA1FC429C","title":"昊天面馆","lon":"121.456511738","lat":"31.2123559193","category":"76","category_name":"上海菜","address":"徐汇区复兴中路1267号(近襄阳南路)"},{"poiid":"B2094654DB6BA5FB4093","title":"巴比馒头 汾阳路店 Babi Food","lon":"121.454144054","lat":"31.211533793","category":"68","category_name":"快餐厅","address":"徐汇区汾阳路57号(近复兴路)"},{"poiid":"B2094757D16DABFD4593","title":"复兴中路锅贴小摊","lon":"121.45786","lat":"31.2123","category":"68","category_name":"快餐厅","address":"徐汇区复兴中路(近襄阳南路)"},{"poiid":"B2094654DB6BA5FB419C","title":"大拇哥馒头专卖店(永康路)","lon":"121.45726","lat":"31.21058","category":"68","category_name":"快餐厅","address":"徐汇区永康路91弄(近襄阳南路)"},{"poiid":"B2094757D66DABFE459F","title":"淞滨路(吴淞)地铁站","lon":"121.457146938","lat":"31.2126635258","category":"36","category_name":"地铁站","address":"上海轨道交通三号线淞滨路站"},{"poiid":"B2094654DB6BA5FB409B","title":"现代大厦A楼(襄阳南路)","lon":"121.45714","lat":"31.2121","category":"46","category_name":"楼宇","address":"襄阳南路218"},{"poiid":"B2094757D068A4F8409F","title":"柏斯琴行(汾阳路店)","lon":"121.454502218","lat":"31.2121623067","category":"260","category_name":"其他","address":"徐汇区汾阳路30号(近复兴西路)"},{"poiid":"B2094757D06AA1FC4293","title":"小绿猫墨西哥风味卷饼店","lon":"121.454086","lat":"31.211154","category":"247","category_name":"餐饮美食","address":"上海市徐汇区汾阳路74号"},{"poiid":"B2094757D66CA1FB499E","title":"lopa coffee","lon":"121.457465738","lat":"31.2106753835","category":"65","category_name":"咖啡厅","address":"徐汇区永康路83号(近襄阳南路)"},{"poiid":"B2094655D265A7FB4798","title":"悟茶茶馆","lon":"121.45489","lat":"31.21179","category":"66","category_name":"茶艺馆","address":"复兴中路1315-2临"},{"poiid":"B2094757D165A7FC4892","title":"上海音乐学院 北楼报告厅","lon":"121.454496638","lat":"31.2131364359","category":"500","category_name":"未知分类","address":"上海汾阳路20号"},{"poiid":"B2094654DA6DA6FF4499","title":"位育中学(复兴中路)","lon":"121.4568","lat":"31.21198","category":"55","category_name":"中学","address":"复兴中路1261"},{"poiid":"B2094757D16FA7FA4099","title":"东平路","lon":"121.45811773","lat":"31.210841887","category":"500","category_name":"未知分类","address":"上海徐汇区东平路"},{"poiid":"B2094654DA6DA6FE4793","title":"现代大厦B楼","lon":"121.45728","lat":"31.21187","category":"46","category_name":"楼宇","address":"襄阳南路228、232"},{"poiid":"B2094753D76AA1F5489D","title":"锅德港式海鲜肥牛火锅(淮海中路店)","lon":"121.455767","lat":"31.214233","category":"86","category_name":"火锅店","address":"上海市徐汇区汾阳路3号2号楼2-3楼(近淮海中路)"},{"poiid":"B2094654DB6BA4FD4598","title":"上海交响音乐进修学校","lon":"121.45779","lat":"31.21295","category":"53","category_name":"成人教育","address":"徐汇区复兴中路1260号(近襄阳南路)"},{"poiid":"B2094654DB6BA4FD459E","title":"艾维庭(襄阳南路)","lon":"121.45727","lat":"31.21328","category":"148","category_name":"美容美发店","address":"徐汇区襄阳南路175号(近复兴中路南昌路)"},{"poiid":"B2094752D06CA6F8419E","title":"Cafe del Volcan","lon":"121.457832","lat":"31.210936","category":"247","category_name":"餐饮美食","address":"上海市徐汇区永康路80号"},{"poiid":"B2094654DA6DA6F84499","title":"东方红 Sunrise","lon":"121.45605","lat":"31.2102","category":"68","category_name":"快餐厅","address":"永康路111号近襄阳南路"},{"poiid":"B2094654DA6EA2FA479E","title":"环中商厦","lon":"121.45729","lat":"31.21321","category":"46","category_name":"楼宇","address":"襄阳南路175"},{"poiid":"B2094655D268A7F84999","title":"汾阳路9弄小区","lon":"121.45641","lat":"31.21359","category":"47","category_name":"住宅区","address":"汾阳路9弄1-11号"},{"poiid":"B2094753D765A4FA429C","title":"上海新天地","lon":"121.456001","lat":"31.214399","category":"500","category_name":"未知分类","address":"上海市 上海新天地"},{"poiid":"B2094654DB6BA4FD4599","title":"罗森襄阳南路店","lon":"121.45741","lat":"31.21273","category":"117","category_name":"便民商店/便利店","address":"徐汇区复兴中路1272号(近襄阳南路)"},{"poiid":"B2094752DB6CA2FB4199","title":"Pastis French Bistrot","lon":"121.457237","lat":"31.210645","category":"247","category_name":"餐饮美食","address":"徐汇区永康路111号"},{"poiid":"B2094751DA6BA2FE439B","title":"田子访","lon":"121.4542829","lat":"31.211264","category":"247","category_name":"餐饮美食","address":null},{"poiid":"B2094752D76AA2F9439A","title":"ALICE CREPES(日月光广场)","lon":"121.458441","lat":"31.211112","category":"500","category_name":"未知分类","address":"徐家汇路618号日月光广场B2-B-02A"},{"poiid":"B2094757DB6CABFC449A","title":"上海帝国理工大学中英皇家国际学院","lon":"121.455296","lat":"31.214148","category":"253","category_name":"校园生活","address":"复兴中路1195号"},{"poiid":"B2094654DA6DA6FF459F","title":"玛莎","lon":"121.45577","lat":"31.21206","category":"141","category_name":"服装鞋帽皮具店","address":"复兴中路1303"},{"poiid":"B2094753D76BA6F84192","title":"银平（汾阳路店）","lon":"121.456146","lat":"31.214311","category":"500","category_name":"未知分类","address":"上海市 汾阳路3号2幢3楼(近淮海中路)"},{"poiid":"B2094757D06AA2FA479C","title":"96路公交车站","lon":"121.45673244","lat":"31.210033259","category":"38","category_name":"公交车站","address":"上海永嘉路襄阳路"},{"poiid":"B2094750D565AAFD459E","title":"上海邮电医院","lon":"121.456108","lat":"31.213815","category":"162","category_name":"医院","address":null},{"poiid":"B2094750DA6FAAFF469D","title":"The rooster","lon":"121.458427","lat":"31.211067","category":"247","category_name":"餐饮美食","address":"徐汇区永康路51号(近陕西南路)"},{"poiid":"B2094654DB65A4FB4098","title":"上音小区","lon":"121.45383","lat":"31.212023","category":"47","category_name":"住宅区","address":"复兴中路1340弄1-2号"},{"poiid":"B209475CDA65ABFB4193","title":"iapm","lon":"121.457237","lat":"31.214105","category":"500","category_name":"未知分类","address":"上海市 陕西南路"},{"poiid":"B2094654DA6EA2FB419F","title":"襄阳南里","lon":"121.45706","lat":"31.21322","category":"65","category_name":"咖啡厅","address":"襄阳南路174"},{"poiid":"B2094757D469A7FC479F","title":"东北满族水饺","lon":"121.457706","lat":"31.212741","category":"247","category_name":"餐饮美食","address":"徐汇区复兴中路1252弄甲弄口(近襄阳南路)"},{"poiid":"B209475CD064AAFB409F","title":"AURA 汾阳路","lon":"121.45427","lat":"31.21137","category":"94","category_name":"西餐厅","address":"汾阳路64弄4号(近复兴中路)"},{"poiid":"B2094654DA6EA2FB4992","title":"华东师范大学淮海路校区图书馆","lon":"121.45569","lat":"31.21418","category":"181","category_name":"图书馆","address":"汾阳路3"},{"poiid":"B2094750DA69A3F8479F","title":"上海理工大学","lon":"121.456878","lat":"31.210582","category":"253","category_name":"校园生活","address":null},{"poiid":"B2094752D36EAAFA489B","title":"阿娘面馆","lon":"121.455424","lat":"31.211701","category":"247","category_name":"餐饮美食","address":"司南路36号"},{"poiid":"B2094757D66FA2F94899","title":"熠盛粥香","lon":"121.45655873","lat":"31.210353876","category":"247","category_name":"餐饮美食","address":"上海市徐汇区永康路133號"},{"poiid":"B2094757D169ABF94993","title":"南昌路麻辣烫","lon":"121.457407","lat":"31.214236","category":"247","category_name":"餐饮美食","address":"上海南昌路607号"},{"poiid":"B2094654DA6EA2FA469A","title":"新华书店(复兴中路)","lon":"121.45808","lat":"31.21291","category":"125","category_name":"书店","address":"复兴中路1254"},{"poiid":"B2094757D66CA5FE4199","title":"襄一幼儿园","lon":"121.457578","lat":"31.211665","category":"57","category_name":"幼儿园","address":"上海襄阳南路207号"},{"poiid":"B2094757D165A2F44699","title":"上海音乐学院学术厅","lon":"121.45461945","lat":"31.213130829","category":"500","category_name":"未知分类","address":"上海汾阳路20号"},{"poiid":"B2094654DB64A6F8489B","title":"华东师范大学(淮海路校区)(边门)","lon":"121.45614","lat":"31.21392","category":"52","category_name":"高等院校","address":"汾阳路3号"},{"poiid":"B2094654DA6EA2FB499C","title":"华东师范大学继续教育学院","lon":"121.45589","lat":"31.21418","category":"52","category_name":"高等院校","address":"汾阳路3号6层"},{"poiid":"B2094752DA6AA5FC419B","title":"上海文化广场","lon":"121.45714","lat":"31.21464","category":"500","category_name":"未知分类","address":"上海市 永嘉路"},{"poiid":"B2094757D66EA0FB449F","title":"h3","lon":"121.45706748","lat":"31.213174436","category":"500","category_name":"未知分类","address":"上海市徐汇区襄阳南路174号3楼"},{"poiid":"B2094654DA6EA2FB499F","title":"华东师范大学上海会展学院","lon":"121.45588","lat":"31.21418","category":"52","category_name":"高等院校","address":"汾阳路3"},{"poiid":"B2094757D064AAFF4292","title":"中国邮政复兴中路邮政所","lon":"121.458617","lat":"31.213082","category":"252","category_name":"楼宇机构","address":"上海徐汇区复兴中路1246号近陕西南路"},{"poiid":"B2094655D268A7F8499E","title":"汾阳路9弄小区(西门)","lon":"121.45552","lat":"31.21369","category":"47","category_name":"住宅区","address":"汾阳路9弄1-11号"},{"poiid":"B2094654DA6DA6FF4599","title":"天平街道桃源村小区","lon":"121.45625","lat":"31.21143","category":"47","category_name":"住宅区","address":"复兴中路1295弄1-75号"},{"poiid":"B2094757D069A3FD449B","title":"上海市商贸旅游学校","lon":"121.45610973","lat":"31.21234377","category":"54","category_name":"职业技术学校","address":"上海浦东南路1548号"},{"poiid":"B2094753D16FABFA449E","title":"IDEA(襄阳路店)","lon":"121.45706","lat":"31.21322","category":"148","category_name":"美容美发店","address":"徐汇区襄阳南路174号3楼"},{"poiid":"B2094757D16BA5FE429C","title":"同福私家风味面屋","lon":"121.45795173","lat":"31.213381941","category":"247","category_name":"餐饮美食","address":"上海市徐汇区复兴中路1252弄8号"},{"poiid":"B2094757D169A0FC4192","title":"湖南路派出所","lon":"121.458473558","lat":"31.2113844086","category":"609","category_name":"警察局","address":"上海襄阳南路203号"},{"poiid":"B2094654DA6DA6FF459E","title":"桃源村卫生服务站","lon":"121.45626","lat":"31.21143","category":"162","category_name":"医院","address":"复兴中路1295弄13号"},{"poiid":"B2094655D26FAAFD499E","title":"天平街道桃源村小区(北门)","lon":"121.4559","lat":"31.21209","category":"47","category_name":"住宅区","address":"复兴中路1295弄1-75号"},{"poiid":"B2094654DB6BA4FD459D","title":"怡德里小区南门(现代电子城西)","lon":"121.45635","lat":"31.21245","category":"47","category_name":"住宅区","address":"复兴中路1294弄1-23号"},{"poiid":"B2094655D26FA4FB4898","title":"复兴中路1248弄小区(南门)","lon":"121.45859","lat":"31.21303","category":"47","category_name":"住宅区","address":"复兴中路1248弄1-21号"},{"poiid":"B2094757D568A0FF479B","title":"一伍一拾(襄阳南路)","lon":"121.456825000002","lat":"31.2142069999999","category":"118","category_name":"超级市场","address":"中国上海市徐汇区襄阳南路100"},{"poiid":"B2094655D26CA4FA4699","title":"长寿里（西门）","lon":"121.45768","lat":"31.211","category":"47","category_name":"住宅区","address":"襄阳南路239弄1-4号"},{"poiid":"B2094655D26FAAFA429E","title":"长寿里","lon":"121.45787","lat":"31.21109","category":"47","category_name":"住宅区","address":"襄阳南路239弄1-4号"},{"poiid":"B2094654DA6DA6FD449C","title":"徐汇区复兴菜市场","lon":"121.45803","lat":"31.21267","category":"117","category_name":"便民商店/便利店","address":"复兴中路1239号"},{"poiid":"B2094757D66EA1FF4793","title":"时光机","lon":"121.45826863","lat":"31.210837625","category":"141","category_name":"服装鞋帽皮具店","address":"上海徐汇区永康路68号"},{"poiid":"B2094654DA6DA6F84498","title":"久益时尚专业发艺","lon":"121.45722","lat":"31.21057","category":"148","category_name":"美容美发店","address":"永康路91弄1-1室"},{"poiid":"B2094654DA6DA6F8449A","title":"吉森专业造型JAson工作室大来店","lon":"121.45703","lat":"31.21066","category":"148","category_name":"美容美发店","address":"徐汇区永康路120号(近襄阳南路)"},{"poiid":"B2094753DA6BA7FC489C","title":"hungry lungs kitchen","lon":"121.456993","lat":"31.210493","category":"500","category_name":"未知分类","address":"上海市 Yongkang Road, No144"},{"poiid":"B2094654DA6DA6FE4893","title":"富君国际专利祛眼袋机构","lon":"121.45715","lat":"31.2121","category":"148","category_name":"美容美发店","address":"襄阳南路218号现代大厦A楼15B层08室"},{"poiid":"B2094654DA6EA2FA459E","title":"起点造型上海久益连锁复兴店","lon":"121.45859","lat":"31.21306","category":"148","category_name":"美容美发店","address":"复兴中路1246甲"},{"poiid":"B2094757D069AAFA429D","title":"1980wine shop","lon":"121.456046","lat":"31.210232","category":"172","category_name":"酒吧","address":"上海永康路184号"},{"poiid":"B2094654DA6DA6FF459D","title":"玲珑坊(复兴中路)","lon":"121.45563","lat":"31.21202","category":"141","category_name":"服装鞋帽皮具店","address":""},{"poiid":"B2094757D06AA1FB4792","title":"明园文化艺术中心","lon":"121.45866394","lat":"31.212945938","category":"500","category_name":"未知分类","address":"上海复兴中路1199号"},{"poiid":"B2094757DB68A7F9439B","title":"上海音乐学院研究生部","lon":"121.454265","lat":"31.213508","category":"253","category_name":"校园生活","address":"徐汇区汾阳路20号"},{"poiid":"B2094757D065ABF44698","title":"明圆世纪城","lon":"121.45837777","lat":"31.21100543","category":"500","category_name":"未知分类","address":"上海复兴中路1199号405室"},{"poiid":"B2094757D66FA0F8499D","title":"史蒂芬造型(襄阳店)","lon":"121.456958738","lat":"31.2145219654","category":"148","category_name":"美容美发店","address":"徐汇区襄阳南路92号(近淮海路)"},{"poiid":"B2094751D26AA5FD499E","title":"衡伊秀美甲","lon":"121.457305","lat":"31.210943","category":"249","category_name":"购物服务","address":"徐汇区襄阳南路262号(近复兴中路)"},{"poiid":"B2094654DA6DA6FF499C","title":"博诚电脑","lon":"121.45707","lat":"31.21228","category":"138","category_name":"家电电子卖场","address":"现代电子城4层408柜"},{"poiid":"B2094757D164A7F8429E","title":"新汾阳公寓","lon":"121.45455","lat":"31.210863","category":"252","category_name":"楼宇机构","address":"新汾阳公寓位于徐汇汾阳路77号"},{"poiid":"B2094757D16BA3FC409F","title":"复兴中路1290号","lon":"121.456199938","lat":"31.2123638194","category":"500","category_name":"未知分类","address":"上海复兴中路1290号"},{"poiid":"B2094757D46FABFC4992","title":"永康路咖啡馆","lon":"121.456404","lat":"31.210381","category":"260","category_name":"其他","address":"徐汇区永康路144号(衡山路复兴中路)"},{"poiid":"B2094654DA6DA6FF459B","title":"1293WEAR","lon":"121.45598","lat":"31.21211","category":"141","category_name":"服装鞋帽皮具店","address":"天平路"},{"poiid":"B2094750D56EA0FF4098","title":"徐汇区，襄阳南路永康路","lon":"121.456687","lat":"31.210126","category":"500","category_name":"未知分类","address":null},{"poiid":"B2094654DA6DA6F8439B","title":"明古轩(永康路)","lon":"121.45604","lat":"31.21023","category":"123","category_name":"家具建材市场","address":"永康路184"},{"poiid":"B2094750D269A3F84993","title":"3322 Cafe","lon":"121.457087","lat":"31.210696","category":"260","category_name":"其他","address":"徐汇区永康路111号(近位育中学)"},{"poiid":"B2094757D069A5FF4693","title":"96路复兴中路汾阳路站","lon":"121.45493214","lat":"31.210934269","category":"500","category_name":"未知分类","address":"上海复兴中路1300号"},{"poiid":"B2094757D66CA7FF469D","title":"上海市气功研究所","lon":"121.456248138","lat":"31.2105878816","category":"500","category_name":"未知分类","address":"上海市宛平南路650号"},{"poiid":"B2094757D66EA5F94193","title":"Pure &amp; Simple","lon":"121.45723173","lat":"31.213020933","category":"500","category_name":"未知分类","address":"上海市徐汇区襄阳南路174号3楼"},{"poiid":"B2094757D66DA5F9469D","title":"kangaroo bar","lon":"121.458263738","lat":"31.2131439361","category":"500","category_name":"未知分类","address":"上海永嘉路35号"},{"poiid":"B2094757D66EA1FA4392","title":"上海爱乐","lon":"121.455225","lat":"31.213186","category":"500","category_name":"未知分类","address":"上海徐汇区汾阳路21号"},{"poiid":"B2094751D568A2FC479E","title":"永康路嘉善路","lon":"121.456232","lat":"31.212489","category":"248","category_name":"生活娱乐","address":null},{"poiid":"B2094757D169A3F84699","title":"Richemont","lon":"121.45458984","lat":"31.210504531","category":"500","category_name":"未知分类","address":"上海市淮海中路1325号艾美高大厦5楼"},{"poiid":"B2094752D66AA4FD4098","title":"永华电影城二号厅","lon":"121.457718","lat":"31.211851","category":"248","category_name":"生活娱乐","address":"上海徐汇区虹桥路1号港汇中心六楼"},{"poiid":"B2094654DA6DA4F4499B","title":"兆林提琴","lon":"121.45407","lat":"31.21113","category":"255","category_name":"专卖店","address":"徐汇区汾阳路76"},{"poiid":"B2094654DA6EA2FB429F","title":"南香茗茶(复兴中路)","lon":"121.45696","lat":"31.2126","category":"255","category_name":"专卖店","address":""},{"poiid":"B2094757D16AA3FA4892","title":"新乐路44弄","lon":"121.456505221","lat":"31.214494161","category":"500","category_name":"未知分类","address":"上海新乐路44弄"},{"poiid":"B2094757D16AA7F84898","title":"永康路 182号","lon":"121.456114","lat":"31.210276","category":"500","category_name":"未知分类","address":"上海永康路182号"},{"poiid":"B2094757D16CABFA4299","title":"张家弄居委会","lon":"121.45781673","lat":"31.213406941","category":"500","category_name":"未知分类","address":"上海复兴中路1252弄5号"},{"poiid":"B2094757D169A7FA449F","title":"怡琴坊","lon":"121.454455","lat":"31.211509","category":"500","category_name":"未知分类","address":"上海汾阳路55号"},{"poiid":"B2094757D66FA2FC4499","title":"昨日再现冰淇淋店","lon":"121.45722","lat":"31.21017","category":"500","category_name":"未知分类","address":"上海徐汇区永康路189号(近襄阳南路)  "},{"poiid":"B2094757D06AA5F8479D","title":"悟空悟茶","lon":"121.45509","lat":"31.21139","category":"500","category_name":"未知分类","address":"上海徐汇区复兴中路1315号(近汾阳路)  "},{"poiid":"B2094757D16FA4F9459B","title":"宝宝家","lon":"121.45665943","lat":"31.212441121","category":"500","category_name":"未知分类","address":null},{"poiid":"B2094757D165A2FE499A","title":"夜来啡香","lon":"121.458110738","lat":"31.2108558873","category":"500","category_name":"未知分类","address":"上海永康路64号22"},{"poiid":"B2094757D164A1F94492","title":"复襄居委会","lon":"121.45573973","lat":"31.213719948","category":"500","category_name":"未知分类","address":"上海汾阳路9弄10号"},{"poiid":"B2094757D16EA6FC4399","title":"尚秀造型","lon":"121.45811718","lat":"31.210804466","category":"148","category_name":"美容美发店","address":"上海淮海中路1251号"},{"poiid":"B2094654DA6DA6FF439E","title":"上海博华国际展览有限公司","lon":"121.45715","lat":"31.2121","category":"263","category_name":"公司","address":"襄阳南路218号现代大厦A楼7层08-09室、10层07-08室"},{"poiid":"B2094757D66FA0FF4693","title":"国际贸易大厦外服","lon":"121.45830993","lat":"31.211544702","category":"252","category_name":"楼宇机构","address":"上海延安西路2200号316室"},{"poiid":"B2094654DA6DA6F8419A","title":"上海市电信有限公司南区电信局线路中心","lon":"121.4547","lat":"31.21119","category":"263","category_name":"公司","address":"汾阳路61"},{"poiid":"B2094655D268A2FF409F","title":"中国电信汾阳分局","lon":"121.45471","lat":"31.21119","category":"263","category_name":"公司","address":"汾阳路61"},{"poiid":"B2094654DA6DA6FF4199","title":"上海骁笑商贸有限公司(玫琳凯经销商)","lon":"121.45715","lat":"31.2121","category":"263","category_name":"公司","address":"襄阳南路218号现代大厦A楼13层06室"},{"poiid":"B2094654DA6DA6F84093","title":"上海市电信有限公司客户响应中心(汾阳路)","lon":"121.4547","lat":"31.2112","category":"263","category_name":"公司","address":"汾阳路61"},{"poiid":"B2094654DA6DA4F4499D","title":"卡拉斯音像","lon":"121.45412","lat":"31.21162","category":"127","category_name":"音像店","address":"徐汇区汾阳路64弄3号(近复兴路)"},{"poiid":"B2094757D16AA5FF469C","title":"火车票代售 （复兴中路）","lon":"121.45482635","lat":"31.212825775","category":"251","category_name":"出行住宿","address":"上海复兴中路1330号近汾阳路音乐学院"}]