[{"poiid":"B2094757D06FA3F44998","title":"上海西站","lon":"121.40277849","lat":"31.262381053","category":"22","category_name":"火车站","address":"普陀区曹杨路桃浦路口"},{"poiid":"B2094757D06FA0F8419E","title":"宏泉丽笙酒店","lon":"121.39765003","lat":"31.260702703","category":"213","category_name":"五星级宾馆","address":"上海普陀区桃浦路210号(近大渡河路)"},{"poiid":"B2094757D068A3FA419B","title":"中环国际酒店","lon":"121.4046749","lat":"31.266224741","category":"217","category_name":"旅馆招待所","address":"上海市普陀区富平路800号(近真金路)。"},{"poiid":"B2094757D06FA2FF429A","title":"星河世纪城","lon":"121.400814","lat":"31.265736","category":"47","category_name":"住宅区","address":"上海桃浦路300弄"},{"poiid":"B2094757D66EA7FB4498","title":"长征饭店","lon":"121.40305895","lat":"31.261562898","category":"76","category_name":"上海菜","address":"普陀区曹杨路2175号(近三源路)"},{"poiid":"B2094757D06EAAFE439E","title":"上海西站地铁站","lon":"121.4035539","lat":"31.262408391","category":"36","category_name":"地铁站","address":"上海轨道交通 十一号线 轨交上海西站站 11"},{"poiid":"B2094750D664ABFE4292","title":"重庆德庄火锅(曹杨路店)","lon":"121.405","lat":"31.2599","category":"86","category_name":"火锅店","address":"普陀区曹杨路2212号仙乐都生活广场2楼(三源路路口)"},{"poiid":"B2094757D06AABFF4799","title":"巴黎贝甜(曹杨路店)","lon":"121.40394395","lat":"31.2600498699","category":"67","category_name":"甜品店","address":"普陀区曹杨路2212号(近三源路)"},{"poiid":"B2094655D26EA2F5409B","title":"上海宏泉丽笙酒店(南门)","lon":"121.39762","lat":"31.26059","category":"656","category_name":"大门","address":"上海市桃浦路210号（近大渡河路）"},{"poiid":"B2094757D06FA2FE419E","title":"农行信用卡客户服务中心","lon":"121.404226991","lat":"31.2599336131","category":"46","category_name":"楼宇","address":"上海市普陀区曹杨路2211号"},{"poiid":"B2094655D36CA2F4469E","title":"上海火车站西站","lon":"121.40105","lat":"31.26152","category":"38","category_name":"公交车站","address":""},{"poiid":"B2094757D06FA5FB4698","title":"万里雅筑","lon":"121.40412","lat":"31.265236","category":"47","category_name":"住宅区","address":"上海市普陀区富平路889弄"},{"poiid":"B2094757D06FAAF8429F","title":"宏泉丽笙酒店西餐厅","lon":"121.39795","lat":"31.26042","category":"94","category_name":"西餐厅","address":"普陀区桃浦路210号上海宏泉丽笙酒店1楼(近上海西站)"},{"poiid":"B2094654D464AAFF4192","title":"曹杨五月天","lon":"121.408","lat":"31.26059","category":"47","category_name":"住宅区","address":"上海三源路41弄"},{"poiid":"B2094654D464AAFE499D","title":"恒力锦沧花园","lon":"121.40666","lat":"31.259937","category":"47","category_name":"住宅区","address":"上海市曹杨路2170弄"},{"poiid":"B2094757D069A0F5429D","title":"顺煊靓汤海鲜","lon":"121.40796","lat":"31.259","category":"72","category_name":"广东菜","address":"普陀区潮州路508号(近曹杨路)"},{"poiid":"B2094757D06AA7FA499A","title":"金明大酒店","lon":"121.405516043","lat":"31.257940521","category":"217","category_name":"旅馆招待所","address":"上海普陀区曹杨路2088号(近芝川路))"},{"poiid":"B2094757D66DA5FE409A","title":"11号线上海西站","lon":"121.40131495","lat":"31.2627929223","category":"500","category_name":"未知分类","address":"地铁11号线上海西站"},{"poiid":"B2094757D06BAAFB4298","title":"芝川路曹杨路","lon":"121.40447295","lat":"31.258223835","category":"500","category_name":"未知分类","address":"上海市普陀区"},{"poiid":"B2094757D66EA5FF4492","title":"农行培训中心","lon":"121.40480295","lat":"31.2587208446","category":"253","category_name":"校园生活","address":"上海曹杨路1329号"},{"poiid":"B2094654D464AAFE459E","title":"巴黎之春","lon":"121.40643","lat":"31.265034","category":"47","category_name":"住宅区","address":"富平路737弄1-36号"},{"poiid":"B2094654D464AAFE4593","title":"进华中学","lon":"121.40894","lat":"31.26481","category":"55","category_name":"中学","address":"上海市普陀区富平路657弄91号"},{"poiid":"B2094654D464AAFF459A","title":"曹杨新苑","lon":"121.405","lat":"31.261202","category":"47","category_name":"住宅区","address":"曹杨新苑(曹杨五月天)位于普陀曹杨路2288号"},{"poiid":"B2094757D06BA1FD4393","title":"车站新村","lon":"121.40018795","lat":"31.260032869","category":"252","category_name":"楼宇机构","address":"上海市普陀区桃浦路"},{"poiid":"B2094654D464AAFE469B","title":"万里真金苑","lon":"121.40636","lat":"31.267735","category":"47","category_name":"住宅区","address":"真金路250弄1-63号"},{"poiid":"B2094654DB69A0FB439A","title":"金明大酒店餐厅","lon":"121.40477233122","lat":"31.259109861248","category":"76","category_name":"上海菜","address":"普陀区曹杨路2088号(近潮州路)"},{"poiid":"B2094757D06AA0FC4699","title":"金纺苑","lon":"121.40601","lat":"31.25915","category":"500","category_name":"未知分类","address":"上海市普陀区曹杨路2168弄"},{"poiid":"B2094757D068A3F5489E","title":"曹杨花苑","lon":"121.40144","lat":"31.258196","category":"47","category_name":"住宅区","address":"上海市普陀区芝川路138弄"},{"poiid":"B2094654D464AAFA479D","title":"曹杨家园","lon":"121.40366","lat":"31.258814","category":"47","category_name":"住宅区","address":"上海市普陀区曹杨路1559号"},{"poiid":"B2094655D36CA5FA449C","title":"曹杨路芝川路","lon":"121.40418","lat":"31.26055","category":"38","category_name":"公交车站","address":""},{"poiid":"B2094655D36CA5FA459A","title":"曹杨路陆家港","lon":"121.40418","lat":"31.26068","category":"38","category_name":"公交车站","address":""},{"poiid":"B2094750DA68AAFA4893","title":"春季海港城","lon":"121.3974","lat":"31.26045","category":"72","category_name":"广东菜","address":"普陀区桃浦路266号(近家乐福真北店)"},{"poiid":"B2094654D464AAF9429F","title":"真北新村","lon":"121.39898","lat":"31.25612","category":"47","category_name":"住宅区","address":"大渡河路1927弄"},{"poiid":"B2094757D66AA6F44198","title":"鸿运家常菜","lon":"121.403227054","lat":"31.258998793","category":"76","category_name":"上海菜","address":"普陀区芝川路146号(近真北支路)"},{"poiid":"B2094757D76AA1FE419F","title":"重庆周氏麻辣烫 芝川路店","lon":"121.404194","lat":"31.258205","category":"68","category_name":"快餐厅","address":"普陀区芝川路38号(近曹杨路)"},{"poiid":"B2094654D464AAFF409D","title":"好德No.688","lon":"121.40592","lat":"31.26038","category":"117","category_name":"便民商店/便利店","address":"三源路97"},{"poiid":"B2094750DA6DA1FB459D","title":"华山医院","lon":"121.403671","lat":"31.259826","category":"162","category_name":"医院","address":null},{"poiid":"B2094654DB6AABFF4892","title":"光明便利","lon":"121.40421","lat":"31.26176","category":"117","category_name":"便民商店/便利店","address":"曺杨路2400"},{"poiid":"B2094654D465A3FC439A","title":"水塘小区","lon":"121.406","lat":"31.2564","category":"47","category_name":"住宅区","address":"铜川路175弄1-61号"},{"poiid":"B2094654D464AAFA469F","title":"上海市曹杨第九中学","lon":"121.40328","lat":"31.26034","category":"55","category_name":"中学","address":""},{"poiid":"B2094655D26DABF8499E","title":"火车头公寓","lon":"121.40468","lat":"31.26206","category":"47","category_name":"住宅区","address":""},{"poiid":"B2094654D464AAFF429C","title":"曹杨雅苑","lon":"121.40579","lat":"31.26118","category":"47","category_name":"住宅区","address":"三源路66弄"},{"poiid":"B2094757D068ABFF469C","title":"01終點站","lon":"121.40337","lat":"31.262072","category":"38","category_name":"公交车站","address":"上海西站"},{"poiid":"B2094757D165A1FE4993","title":"重庆鸡公煲 芝川路店","lon":"121.403753054","lat":"31.259234793","category":"71","category_name":"四川菜","address":"普陀区芝川路80号(近曹杨路)"},{"poiid":"B2094655D26BABF9459F","title":"车站新村(南二门)","lon":"121.40362","lat":"31.26017","category":"47","category_name":"住宅区","address":""},{"poiid":"B2094654D464AAFA4493","title":"好德No.308","lon":"121.40317","lat":"31.26162","category":"117","category_name":"便民商店/便利店","address":"曹杨路2351"},{"poiid":"B2094654DB69A5FF4999","title":"文峰美容美发(曹杨路店)","lon":"121.40493","lat":"31.25865","category":"148","category_name":"美容美发店","address":"普陀区曹杨路2136号(曹杨路潮州路)"},{"poiid":"B2094757D06BA2FE4199","title":"三源路66弄","lon":"121.406522","lat":"31.260992","category":"500","category_name":"未知分类","address":"上海曹杨五月天"},{"poiid":"B2094655D26EA2F9429F","title":"曹杨雅苑(南门)","lon":"121.40649","lat":"31.26098","category":"47","category_name":"住宅区","address":"三源路66弄"},{"poiid":"B2094655D26DA5FD4799","title":"火车头公寓(南门)","lon":"121.40469","lat":"31.26191","category":"47","category_name":"住宅区","address":""},{"poiid":"B2094654D464AAFA4392","title":"车站新村小区","lon":"121.40168","lat":"31.26056","category":"47","category_name":"住宅区","address":"桃浦路95"},{"poiid":"B2094757D568ABFF4699","title":"宝贝丽造型护肤中心","lon":"121.40509413","lat":"31.25891683","category":"148","category_name":"美容美发店","address":"曹杨路2156"},{"poiid":"B2094654D464AAF84198","title":"上海第四十四机动车安全检测站","lon":"121.39799","lat":"31.26289","category":"250","category_name":"公园户外","address":"普陀区兰溪路1888号(近桃浦路)"},{"poiid":"B2094750DB6FA0F9449F","title":"初花日本料理","lon":"121.401657","lat":"31.259561","category":"247","category_name":"餐饮美食","address":"长宁路古北路"},{"poiid":"B2094757D064A0FD4993","title":"01公交車","lon":"121.403556","lat":"31.262407","category":"38","category_name":"公交车站","address":"上海西站-南泉新村"},{"poiid":"B2094655D265A2FE469F","title":"中国农业银行信用卡客户服务中心","lon":"121.40429","lat":"31.25965","category":"150","category_name":"银行","address":"曹杨路2211"},{"poiid":"B2094757D164A4FE4992","title":"三源路口东北烧烤","lon":"121.40467795","lat":"31.2599408679","category":"500","category_name":"未知分类","address":"上海市普陀区曹杨路三源路"},{"poiid":"B2094655D36CA0FB4693","title":"基础公司","lon":"121.40555","lat":"31.26302","category":"38","category_name":"公交车站","address":""},{"poiid":"B2094655D26CA2F4469D","title":"快客(车站新村小区北)","lon":"121.40181","lat":"31.26143","category":"117","category_name":"便民商店/便利店","address":"车站新村1号"},{"poiid":"B2094757D065A1F5449B","title":"上海市司法学校(原普陀区少体校)","lon":"121.40151505","lat":"31.260911686","category":"253","category_name":"校园生活","address":"上海三源路175号"},{"poiid":"B2094655D26FA7FC4793","title":"曹杨五月天(北门)","lon":"121.40729","lat":"31.26096","category":"47","category_name":"住宅区","address":"三源路41弄"},{"poiid":"B2094757D66AABFD4298","title":"徽公馆 三源路店","lon":"121.4075","lat":"31.26129","category":"260","category_name":"其他","address":"普陀区三源路36号(近曹杨路)"},{"poiid":"B2094654D464AAFA4693","title":"中国农业银行上海市分行培训学校","lon":"121.40412","lat":"31.25927","category":"190","category_name":"培训机构","address":"曹杨路2175"},{"poiid":"B2094757D16BA5F9449C","title":"李宅","lon":"121.40603795","lat":"31.260767883","category":"500","category_name":"未知分类","address":null},{"poiid":"B2094654D464AAF9459E","title":"华氏大药房西部芝川路店","lon":"121.4044","lat":"31.25796","category":"162","category_name":"医院","address":"芝川路29"},{"poiid":"B2094757D56CABFA489A","title":"凯司令西点房 真金路店","lon":"121.4052524","lat":"31.2658336","category":"67","category_name":"甜品店","address":"普陀区真金路151-153号(近富平路)"},{"poiid":"B2094654D464AAF9489B","title":"芝川新苑","lon":"121.40267","lat":"31.258255","category":"47","category_name":"住宅区","address":"芝川路100弄"},{"poiid":"B2094757D16AA5FC4492","title":"兰州拉面","lon":"121.40374495","lat":"31.257905829","category":"247","category_name":"餐饮美食","address":"上海市普陀区芝川路(近曹杨路)"},{"poiid":"B2094655D265A7F44593","title":"小李烧烤","lon":"121.40412","lat":"31.26523","category":"68","category_name":"快餐厅","address":"普陀区富平路889弄万里雅筑旁(近水泉路)"},{"poiid":"B2094655D26FA0FB489C","title":"如家酒店(上海西站店)","lon":"121.40133","lat":"31.2628","category":"216","category_name":"经济型连锁酒店","address":"桃浦路86弄30号"},{"poiid":"B2094757D169A3F5449F","title":"东北虎烧烤","lon":"121.40473","lat":"31.25776","category":"247","category_name":"餐饮美食","address":"上海普陀区曹杨路芝川路  "},{"poiid":"B2094655D264AAFC4398","title":"雅然曹杨店","lon":"121.40454","lat":"31.25869","category":"149","category_name":"洗浴推拿场所","address":"曹杨路2147"},{"poiid":"B209475CD66EAAF4469A","title":"上海火车站","lon":"121.401969","lat":"31.263381","category":"500","category_name":"未知分类","address":"上海市 上海市火车站"},{"poiid":"B2094655D26BA6FE439E","title":"优雅曹杨","lon":"121.40129","lat":"31.25945","category":"47","category_name":"住宅区","address":""},{"poiid":"B2094757D06FA0F9499C","title":"Vivi的小木屋","lon":"121.40326566","lat":"31.262067363","category":"500","category_name":"未知分类","address":"上海市 (Vivi Suen's home)"},{"poiid":"B2094655D26BA7FA4093","title":"月记商务楼","lon":"121.40898","lat":"31.25977","category":"46","category_name":"楼宇","address":"潮州路508号"},{"poiid":"B2094757D065A1FC4199","title":"豪大大鸡排","lon":"121.400849","lat":"31.261066","category":"247","category_name":"餐饮美食","address":"上海普陀区桃浦路115号"},{"poiid":"B2094654DB6AABFF489E","title":"恒力锦沧花园(西门)","lon":"121.405","lat":"31.25928","category":"656","category_name":"大门","address":"曹杨路2170弄"},{"poiid":"B2094654DB6AABF84093","title":"车站新村(二号门)","lon":"121.40043","lat":"31.26094","category":"47","category_name":"住宅区","address":""},{"poiid":"B2094655D265A4F44298","title":"优雅曹杨(南门)","lon":"121.40123","lat":"31.2591","category":"47","category_name":"住宅区","address":""},{"poiid":"B2094757D16EA2F5409E","title":"曹杨路陆家巷","lon":"121.40391915","lat":"31.2587866125","category":"500","category_name":"未知分类","address":"上海曹杨路芝川路"},{"poiid":"B2094654D464AAFA4999","title":"绿翡翠家园","lon":"121.40497","lat":"31.255423","category":"47","category_name":"住宅区","address":"上海普陀区曹杨路2001弄"},{"poiid":"B2094757D568A5F9419E","title":"桃浦路烧烤摊","lon":"121.4001","lat":"31.26030694","category":"269","category_name":"烧烤","address":"普陀区桃浦路165号门口(近嘉发公寓)"},{"poiid":"B2094655D26CA7FF4892","title":"上海宏泉丽笙酒店(东门)","lon":"121.3982","lat":"31.26152","category":"656","category_name":"大门","address":"上海市桃浦路210号（近大渡河路）"},{"poiid":"B2094654DB6AABFF489F","title":"曹杨新苑(西门)","lon":"121.40449","lat":"31.26084","category":"656","category_name":"大门","address":"曹杨路2288弄"},{"poiid":"B2094757D66CA1F84298","title":"永琪美容美发(金明店)","lon":"121.40545","lat":"31.25852","category":"148","category_name":"美容美发店","address":"普陀区曹杨路2150号(近上海西站)"},{"poiid":"B2094757D66DA1FE429F","title":"佰瑞福养生堂","lon":"121.40533295","lat":"31.2583578376","category":"500","category_name":"未知分类","address":"普陀区三源路80号(近曹杨路)"},{"poiid":"B2094655D26AA6F84399","title":"上岛咖啡真如店","lon":"121.39712","lat":"31.26064","category":"260","category_name":"其他","address":"普陀区桃浦路226号总部大厦2楼(近大渡河路)"},{"poiid":"B2094655D26CA2FB489D","title":"曹杨新苑(东门)","lon":"121.4052","lat":"31.26055","category":"656","category_name":"大门","address":""},{"poiid":"B2094757D16BA0FE419F","title":"曹杨苑","lon":"121.40232","lat":"31.258879","category":"252","category_name":"楼宇机构","address":"上海市普陀区桃浦路"},{"poiid":"B2094757D66DA7F5489A","title":"小南国SPA","lon":"121.405739","lat":"31.267537","category":"247","category_name":"餐饮美食","address":"上海真金路250号"},{"poiid":"B2094752D26CA6F4479D","title":"鸿道面馆","lon":"121.39964","lat":"31.2605","category":"68","category_name":"快餐厅","address":"普陀区曹杨路2212号仙乐都生活广场1楼(近三源路)"},{"poiid":"B2094757D16EA6FB489A","title":"进华中学羽毛球馆","lon":"121.40832695","lat":"31.265703977","category":"500","category_name":"未知分类","address":"普陀区富平路657弄91号进华中学内"},{"poiid":"B2094655D26CA0F44098","title":"聚为商务中心","lon":"121.40041","lat":"31.25685","category":"46","category_name":"楼宇","address":"普陀区芝川路217号(近兰溪路)"},{"poiid":"B2094757D66CA0FF429A","title":"宅犬","lon":"121.40809395","lat":"31.2604678779","category":"500","category_name":"未知分类","address":null},{"poiid":"B2094757D164A1FD4799","title":"我的小被窝^(oo)^","lon":"121.40226265","lat":"31.2631791297","category":"500","category_name":"未知分类","address":"上海一天中最美好的最舒服的地方"},{"poiid":"B2094654D464AAFF499E","title":"交通大众公司长途汽车站","lon":"121.39916","lat":"31.26151","category":"35","category_name":"长途汽车站","address":"真如镇"},{"poiid":"B2094654D464AAFF4092","title":"恒力锦沧花园(北门)","lon":"121.40615","lat":"31.26044","category":"656","category_name":"大门","address":"三源路93"},{"poiid":"B2094654D464AAFF469F","title":"铁路上海站桃浦路售票处","lon":"121.40351","lat":"31.26242","category":"29","category_name":"火车票代售点","address":"普陀区桃浦路22号(近大渡河路)"},{"poiid":"B2094757D16CA4FB499E","title":"上南一村","lon":"121.40285625","lat":"31.263012093","category":"252","category_name":"楼宇机构","address":"上海浦东南路洪山路"},{"poiid":"B2094654DB65A4FB409E","title":"中央绿地","lon":"121.40781","lat":"31.26554","category":"196","category_name":"公园","address":""},{"poiid":"B2094654D464AAFE499C","title":"金纺苑(西门)","lon":"121.40509","lat":"31.25904","category":"656","category_name":"大门","address":"曹杨路2168弄1-21号"},{"poiid":"B2094757D66DA4F5499D","title":"粤港足疗城","lon":"121.40527","lat":"31.25774","category":"149","category_name":"洗浴推拿场所","address":"普陀区曹杨路2097号2楼(近潮州路)"},{"poiid":"B2094757D16FA3F84593","title":"交通路真华路","lon":"121.409199","lat":"31.26223","category":"500","category_name":"未知分类","address":"上海交通路真华路"},{"poiid":"B2094757D069A1F8419F","title":"日本福岛第一核电站","lon":"121.40621073","lat":"31.264431453","category":"500","category_name":"未知分类","address":"上海日本"},{"poiid":"B2094757D66CA6FA4192","title":"清涧八街坊","lon":"121.40542265579","lat":"31.266734357522","category":"252","category_name":"楼宇机构","address":"上海市普陀区桃浦路"},{"poiid":"B2094757D168A3FF4599","title":"第四十四机动车检验站","lon":"121.400195","lat":"31.261614","category":"500","category_name":"未知分类","address":"上海桃浦东路"},{"poiid":"B2094654D464AAF9449F","title":"易得鲜小厨","lon":"121.40369","lat":"31.25775","category":"260","category_name":"其他","address":"普陀区芝川路57号(近曹杨路)"},{"poiid":"B2094757D16AA4F8419D","title":"大胡子","lon":"121.401236","lat":"31.261711","category":"500","category_name":"未知分类","address":"上海国定路大胡子川菜馆"},{"poiid":"B2094757D66DA6F54398","title":"嘉发公寓","lon":"121.4001","lat":"31.260305","category":"252","category_name":"楼宇机构","address":"上海市普陀区桃浦路171号"},{"poiid":"B2094757D16BA0FA4592","title":"内江路397号","lon":"121.4009726","lat":"31.260470528","category":"500","category_name":"未知分类","address":"上海内江"},{"poiid":"B2094751D569AAF4479F","title":"南汇中心医院","lon":"121.410385","lat":"31.262283","category":"162","category_name":"医院","address":null},{"poiid":"B2094757D568A2FA4898","title":"上海怡乐速8酒店","lon":"121.3994969","lat":"31.26132306","category":"216","category_name":"经济型连锁酒店","address":"桃浦路168号"},{"poiid":"B2094654DB6AABF8419C","title":"曹杨家园(东门)","lon":"121.40449","lat":"31.25906","category":"656","category_name":"大门","address":"曹杨路2155弄"},{"poiid":"B2094757D66DAAFB449A","title":"天汇广场","lon":"121.411052","lat":"31.263653","category":"500","category_name":"未知分类","address":"曹杨路2021号(靠近芝川路)"},{"poiid":"B2094654D464AAF94392","title":"上海喜福来朝阳食品贸易行","lon":"121.4032","lat":"31.25761","category":"263","category_name":"公司","address":"普陀区芝川路87号(近曹杨路)"},{"poiid":"B2094757D164A5FD4199","title":"壹和设计","lon":"121.40695095","lat":"31.263714939","category":"148","category_name":"美容美发店","address":"上海市普陀区富平路"},{"poiid":"B2094655D26CA0FE419E","title":"真华路36弄小区","lon":"121.41045","lat":"31.26238","category":"47","category_name":"住宅区","address":"真华路36弄1幢2-5号"},{"poiid":"B2094752D76FA0FF499E","title":"东方明珠","lon":"121.408345","lat":"31.263323","category":"252","category_name":"楼宇机构","address":null},{"poiid":"B2094655D36CA6FE4892","title":"富平路真华路","lon":"121.40924","lat":"31.26617","category":"38","category_name":"公交车站","address":""},{"poiid":"B2094655D26CA0FE419F","title":"真华路36弄小区(西门)","lon":"121.4102","lat":"31.26243","category":"47","category_name":"住宅区","address":"真华路36弄1幢2-5号"},{"poiid":"B2094655D26CA7FE4192","title":"达安·春之声花园西区","lon":"121.40134","lat":"31.2676","category":"47","category_name":"住宅区","address":""},{"poiid":"B2094654D464AAFA4998","title":"曹杨路闽申菜场","lon":"121.4055","lat":"31.2558","category":"117","category_name":"便民商店/便利店","address":""},{"poiid":"B2094750D768ABFC459B","title":"进华食堂","lon":"121.409","lat":"31.2646","category":"68","category_name":"快餐厅","address":"普陀区富平路657弄91号进华中学内(近真华路)"},{"poiid":"B2094757D569A3FD4892","title":"曹杨苑二期","lon":"121.41013519533","lat":"31.265512391254","category":"47","category_name":"住宅区","address":"上海市普陀区三源路168弄"},{"poiid":"B2094655D265A2FE409D","title":"长江实业办公楼","lon":"121.40907","lat":"31.25472","category":"46","category_name":"楼宇","address":"曹杨路1560"},{"poiid":"B2094654D464AAFA469D","title":"车站新村小区(南门)","lon":"121.40243","lat":"31.25958","category":"656","category_name":"大门","address":""},{"poiid":"B2094757D66FA2FE4298","title":"商业学校一楼食堂","lon":"121.40178895","lat":"31.2636979396","category":"500","category_name":"未知分类","address":"上海共和新路"},{"poiid":"B2094655D265A3FE429F","title":"真华路39弄小区(南门)","lon":"121.41085","lat":"31.26199","category":"47","category_name":"住宅区","address":""},{"poiid":"B2094654DB6AABF8419F","title":"上海房屋设备有限公司","lon":"121.40101","lat":"31.259","category":"263","category_name":"公司","address":"三源路200号"},{"poiid":"B2094655D26FA0F44199","title":"绿翡翠家园(南门)","lon":"121.40525","lat":"31.25522","category":"47","category_name":"住宅区","address":"曹杨路2001弄"},{"poiid":"B2094655D26EA2F44499","title":"真如镇社区文化活动中心","lon":"121.40071","lat":"31.25632","category":"188","category_name":"文化宫","address":"兰溪路968"},{"poiid":"B2094655D26CA0F44893","title":"良友金伴No.376","lon":"121.39809","lat":"31.26016","category":"117","category_name":"便民商店/便利店","address":""},{"poiid":"B2094654D464AAFE4293","title":"克丽缇娜专业美容护肤中心(水泉路)","lon":"121.40244","lat":"31.26658","category":"148","category_name":"美容美发店","address":"水泉路28号(富平路口)"},{"poiid":"B2094655D26DAAF4479F","title":"曹杨苑(北二门)","lon":"121.40269","lat":"31.25936","category":"656","category_name":"大门","address":""},{"poiid":"B2094757D66DA5F94692","title":"苏宁电器(大渡河路店)","lon":"121.39929395","lat":"31.259071851","category":"138","category_name":"家电电子卖场","address":"上海市普陀区大渡河路2109号(近桃浦路)"},{"poiid":"B2094655D265A2FE4092","title":"普陀真如副中心","lon":"121.40794","lat":"31.25377","category":"46","category_name":"楼宇","address":""},{"poiid":"B2094655D36CA6FE499B","title":"富平路","lon":"121.40794","lat":"31.26622","category":"38","category_name":"公交车站","address":""},{"poiid":"B2094654D464AAF9479B","title":"曹杨家园(南门)","lon":"121.40381","lat":"31.25811","category":"656","category_name":"大门","address":""},{"poiid":"B2094654D464AAFA4198","title":"中亚公寓","lon":"121.39745","lat":"31.259758","category":"47","category_name":"住宅区","address":"上海市普陀区大渡河路2095弄"},{"poiid":"B2094655D264A0F4409E","title":"星河世纪城一期","lon":"121.402246","lat":"31.266513","category":"47","category_name":"住宅区","address":"上海市普陀区桃浦路368号"},{"poiid":"B2094757D16BA1F4409D","title":"107路万里城终点站","lon":"121.408277","lat":"31.266171","category":"38","category_name":"公交车站","address":"上海普陀区金真路(近富平路)"},{"poiid":"B2094757D06FA5FF469C","title":"真如派出所","lon":"121.40528684","lat":"31.254486792","category":"609","category_name":"警察局","address":"上海市普陀区兰溪路990号"},{"poiid":"B2094655D26FA0F8469A","title":"金纺苑(北一门)","lon":"121.40664","lat":"31.25859","category":"656","category_name":"大门","address":""},{"poiid":"B2094655D26CA7FF459B","title":"好德No.733","lon":"121.40322","lat":"31.26657","category":"117","category_name":"便民商店/便利店","address":"富平路888号"},{"poiid":"B2094654D464AAFE4393","title":"RASA国际养身会馆万里馆","lon":"121.40325","lat":"31.26609","category":"148","category_name":"美容美发店","address":"富平路901"},{"poiid":"B2094655D26FA7F8479C","title":"金纺苑(北二门)","lon":"121.40612","lat":"31.25851","category":"656","category_name":"大门","address":""},{"poiid":"B2094654D464AAFA419A","title":"真北新邨一街坊(南门)","lon":"121.39904","lat":"31.25697","category":"47","category_name":"住宅区","address":"大渡河路2031弄"},{"poiid":"B2094757D56EA2FA429A","title":"真如地铁站","lon":"121.4011529","lat":"31.25438153","category":"36","category_name":"地铁站","address":"曹杨路"},{"poiid":"B2094757D16DA1F9499A","title":"宝贝丽专业造型美容","lon":"121.400253296","lat":"31.2575492859","category":"148","category_name":"美容美发店","address":"上海曹杨路2156号（近芝川路）"},{"poiid":"B2094654DB69A6FD489E","title":"真如第三小学","lon":"121.39896","lat":"31.25702","category":"56","category_name":"小学","address":"上海普陀区桃浦路221弄37号(近大渡河路)  "},{"poiid":"B2094655D36CA0F84293","title":"交通路杨家桥","lon":"121.39854","lat":"31.26426","category":"38","category_name":"公交车站","address":""},{"poiid":"B2094757D16BA4F44898","title":"爱宝贝母婴SAP游泳馆","lon":"121.39794595","lat":"31.2605098787","category":"500","category_name":"未知分类","address":"上海市普陀区真北路"},{"poiid":"B2094654D464AAF94292","title":"真北新邨三街坊(北门)","lon":"121.39901","lat":"31.25662","category":"47","category_name":"住宅区","address":""},{"poiid":"B2094655D265A2FE4093","title":"普陀真如副中心(西二门)","lon":"121.40677","lat":"31.25372","category":"46","category_name":"楼宇","address":"曹杨路1560号"},{"poiid":"B2094654DB6AABF8419B","title":"车站新村小区(北门)","lon":"121.40148","lat":"31.26133","category":"656","category_name":"大门","address":""},{"poiid":"B2094757D169A5FE4692","title":"上海市普陀区中心医院住院部","lon":"121.39916285","lat":"31.2624381155","category":"260","category_name":"其他","address":"上海市普陀区"},{"poiid":"B2094757D168A2FE4799","title":"107 869 762终点站","lon":"121.40361895","lat":"31.2658829813","category":"500","category_name":"未知分类","address":"上海市普陀区真金路富平路口"},{"poiid":"B2094655D26CA0F4499A","title":"嘉发公寓(北门)","lon":"121.39993","lat":"31.26071","category":"48","category_name":"楼宇大门","address":"桃浦路165弄1"},{"poiid":"B2094654DB6AABFF489A","title":"万里雅筑(北门)","lon":"121.40388","lat":"31.26608","category":"48","category_name":"楼宇大门","address":"富平路889弄"},{"poiid":"B2094757D16FA1FE4492","title":"天目湖风景区","lon":"121.40499308","lat":"31.266298907","category":"500","category_name":"未知分类","address":"常州溧阳"},{"poiid":"B2094654D464AAFB429A","title":"上海市三官堂禽蛋批发市场","lon":"121.40361","lat":"31.25423","category":"117","category_name":"便民商店/便利店","address":"普陀区区固川路101号(近上海西站)"},{"poiid":"B2094752D765A6FE459D","title":"竹寿司","lon":"121.402038","lat":"31.267237","category":"247","category_name":"餐饮美食","address":"水泉路44号（近富平路）"},{"poiid":"B2094655D26FA7FD449E","title":"中亚公寓(北门)","lon":"121.39733","lat":"31.26","category":"47","category_name":"住宅区","address":""},{"poiid":"B2094655D26CA7FF459A","title":"真金路251弄小区","lon":"121.40414","lat":"31.26781","category":"47","category_name":"住宅区","address":"真金路251弄1-46号"},{"poiid":"B2094757D569A3FE469F","title":"宏泉丽笙酒店红酒廊","lon":"121.3982081","lat":"31.26152194","category":"260","category_name":"其他","address":"普陀区桃浦路210号宏泉丽笙酒店27楼(近大渡河路)"},{"poiid":"B2094655D26CA2FB489F","title":"万泉苑","lon":"121.41103","lat":"31.265005","category":"47","category_name":"住宅区","address":"香泉路85弄32-109号"},{"poiid":"B2094655D26FA7FD4992","title":"万里真金苑(西门)","lon":"121.40559","lat":"31.26768","category":"47","category_name":"住宅区","address":"真金路250弄1-63号"},{"poiid":"B2094757D16FA6FB4099","title":"兰溪路芝川路路口","lon":"121.39978295","lat":"31.256276797","category":"500","category_name":"未知分类","address":"上海兰溪路"},{"poiid":"B2094655D26CA7FF4598","title":"达安·春之声花园西区(东门)","lon":"121.40203","lat":"31.26758","category":"47","category_name":"住宅区","address":""},{"poiid":"B2094757D06BA6F9479C","title":"苏河一号","lon":"121.40319395","lat":"31.2657759793","category":"500","category_name":"未知分类","address":"上海市恒丰路638号"},{"poiid":"B2094655D26DAAF9409C","title":"曹杨苑(北一门)","lon":"121.40158","lat":"31.25891","category":"656","category_name":"大门","address":"三源路168弄"},{"poiid":"B2094655D26CA7FE419D","title":"真金路251弄小区(东门)","lon":"121.40483","lat":"31.2677","category":"47","category_name":"住宅区","address":"真金路251弄1-46号"},{"poiid":"B2094757D16AA5F44498","title":"交通路3193弄","lon":"121.41137495","lat":"31.261781903","category":"252","category_name":"楼宇机构","address":"上海市普陀区交通路"},{"poiid":"B2094757D064A3FF4293","title":"真光一街坊","lon":"121.397819","lat":"31.25842","category":"500","category_name":"未知分类","address":"上海真北路2087弄52支弄"},{"poiid":"B2094655D26FA7F54799","title":"巴黎之春(西门)","lon":"121.40545","lat":"31.26488","category":"656","category_name":"大门","address":""},{"poiid":"B2094757D568ABF4439B","title":"中国工商银行(桃浦路)","lon":"121.39753282","lat":"31.26058702","category":"150","category_name":"银行","address":"中国上海市普陀区G204"},{"poiid":"B2094757D168A0FC429D","title":"工商银行上海西站","lon":"121.397623","lat":"31.260598","category":"500","category_name":"未知分类","address":"上海桃浦路210号"},{"poiid":"B2094655D26FA7FC4792","title":"巴黎之春(北门)","lon":"121.40655","lat":"31.26601","category":"656","category_name":"大门","address":"富平路737弄1-36号"},{"poiid":"B2094654DB6AABFF4793","title":"车杰汽车维修连锁富平店","lon":"121.40263","lat":"31.26608","category":"159","category_name":"汽车维修","address":"普陀区富平路947号(近水泉路)"},{"poiid":"B2094757D069A7FB429C","title":"奥特曼中国联盟","lon":"121.40009265","lat":"31.2563153986","category":"500","category_name":"未知分类","address":"上海长宁区虹桥路1060弄"},{"poiid":"B2094655D264AAFB409E","title":"鑫海冻品批发","lon":"121.40613","lat":"31.25379","category":"117","category_name":"便民商店/便利店","address":"曹杨路1605号"},{"poiid":"B2094655D26AA7F8479F","title":"优倍宠物诊所","lon":"121.40274","lat":"31.26648","category":"668","category_name":"诊所","address":"普陀区富平路900号(万里雅筑小区对面)"},{"poiid":"B2094757D069A0FF4199","title":"真金路富平路","lon":"121.40527007","lat":"31.2664254","category":"260","category_name":"其他","address":"上海普陀区真金路富平路"},{"poiid":"B2094757D065A5FF419F","title":"世博21路（公交869路）","lon":"121.40528869","lat":"31.266956329","category":"500","category_name":"未知分类","address":"上海南浦大桥—真金路富平路"},{"poiid":"B2094654D464AAF8419B","title":"上海星海汽车修理厂","lon":"121.39799","lat":"31.26289","category":"159","category_name":"汽车维修","address":"兰溪路1888"},{"poiid":"B2094655D26CA2F4489F","title":"中原地产万里分行","lon":"121.40255","lat":"31.26648","category":"248","category_name":"生活娱乐","address":"富平路912"},{"poiid":"B2094654D464AAF8429B","title":"上海宏泉酒店管理有限公司","lon":"121.39713","lat":"31.26064","category":"263","category_name":"公司","address":"桃浦路226号405-406"},{"poiid":"B2094757D16CAAF94699","title":"华联超市NO.366","lon":"121.404762","lat":"31.26735","category":"249","category_name":"购物服务","address":"上海真金路225号"},{"poiid":"B2094757D069A7F54299","title":"洋洋显达乡村俱乐部","lon":"121.40822","lat":"31.26583","category":"260","category_name":"其他","address":"普陀区富平路99号(近交通路)"},{"poiid":"B2094757D66EA2FD409A","title":"上海东虹建筑安装有限公司","lon":"121.39872836","lat":"31.256150717","category":"263","category_name":"公司","address":"上海普陀区大渡河路2087弄5号(近桃浦路)"},{"poiid":"B2094655D26DABFF4892","title":"真北一街坊(北门)","lon":"121.39774","lat":"31.26013","category":"656","category_name":"大门","address":"桃浦路221弄"},{"poiid":"B2094654D465A4FF4493","title":"达安·春之声花园(南门)","lon":"121.40356","lat":"31.26652","category":"656","category_name":"大门","address":""},{"poiid":"B2094655D26DA4F4409E","title":"香泉小区(南门)","lon":"121.41143","lat":"31.2619","category":"656","category_name":"大门","address":""},{"poiid":"B2094757D16BA0FC4193","title":"万里城中心花园网球场","lon":"121.41032","lat":"31.26574","category":"260","category_name":"其他","address":"普陀区真华路万里城中心花园内(富平路真华路)"},{"poiid":"B2094655D26CA7FE4298","title":"万里名轩(南门)","lon":"121.40848","lat":"31.26638","category":"656","category_name":"大门","address":""},{"poiid":"B2094655D26FA7FC479D","title":"达安·春之声花园(西门)","lon":"121.40251","lat":"31.2676","category":"656","category_name":"大门","address":"水泉路88弄"}]