[{"poiid":"B2094757D06FA3FD449D","title":"同济大学(沪西校区)","lon":"121.39089202","lat":"31.269561767","category":"671","category_name":"高校中心点","address":"普陀区真南路500号(近真北路)"},{"poiid":"B2094757D06FA3FB4592","title":"利群医院","lon":"121.38526081","lat":"31.260695438","category":"162","category_name":"医院","address":"普陀区桃浦路910号(近利群医院)"},{"poiid":"B2094757D06FA6FF479C","title":"上海信息技术学校","lon":"121.37930942","lat":"31.271189307","category":"52","category_name":"高等院校","address":"上海真南路1008号"},{"poiid":"B2094757D06FAAF9429B","title":"曹杨职业技术学校","lon":"121.384861254","lat":"31.2628673316","category":"52","category_name":"高等院校","address":"上海普陀区清涧路240号(近高陵路)"},{"poiid":"B2094757D06EAAFD449E","title":"李子园地铁站","lon":"121.38968953","lat":"31.269055936","category":"36","category_name":"地铁站","address":"上海轨道交通 十一号线 轨交李子园站 11"},{"poiid":"B2094757D068A0F5459B","title":"真南路李子园","lon":"121.38638795","lat":"31.2723731053","category":"500","category_name":"未知分类","address":"上海普陀区真南路822弄"},{"poiid":"B2094757D06FA2FB409F","title":"中鼎豪园","lon":"121.38978","lat":"31.263821","category":"47","category_name":"住宅区","address":"上海市普陀区清涧路68弄"},{"poiid":"B2094757D064A3F9489A","title":"佰金瀚宫","lon":"121.393459165","lat":"31.2690212227","category":"47","category_name":"住宅区","address":"上海普陀区真北路2980号(真南路口)"},{"poiid":"B2094757D069A0F9409E","title":"真南路真北路口","lon":"121.393213044","lat":"31.2690784635","category":"500","category_name":"未知分类","address":"上海真南路真北路口"},{"poiid":"B2094757D069A1F54493","title":"一汽大众华星众捷","lon":"121.38895971","lat":"31.2686372739","category":"500","category_name":"未知分类","address":"上海真南路589号"},{"poiid":"B2094757D065A0FF4193","title":"李子园花苑","lon":"121.38638","lat":"31.271622","category":"47","category_name":"住宅区","address":"上海普陀区真南路710弄"},{"poiid":"B2094654D465A3F4419B","title":"同济大学第一教学楼","lon":"121.38958","lat":"31.2709","category":"52","category_name":"高等院校","address":"上海普陀区真南路500号同济大学沪西校区"},{"poiid":"B2094757D06AA0FA439B","title":"东风本田陆达4s店","lon":"121.382792","lat":"31.269466","category":"500","category_name":"未知分类","address":"上海真南路829号"},{"poiid":"B2094757D068A6F5459A","title":"清涧新村第三小区","lon":"121.385987042","lat":"31.2621984083","category":"47","category_name":"住宅区","address":"上海清涧路187弄"},{"poiid":"B2094757D069A2F8439A","title":"东风标致4S店","lon":"121.38271152","lat":"31.269237465","category":"158","category_name":"汽车销售","address":"上海真南路"},{"poiid":"B2094750D56AA0FE459F","title":"恒盛鼎城圣都汇","lon":"121.38742","lat":"31.27816","category":"47","category_name":"住宅区","address":"普陀区武威东路888号"},{"poiid":"B2094757D064A7F9409E","title":"李园大酒店","lon":"121.3919392","lat":"31.2689156","category":"76","category_name":"上海菜","address":"普陀区真南路451号(同济大学沪西校区对面)"},{"poiid":"B2094654D465A3F44099","title":"生乐公寓A区","lon":"121.38723","lat":"31.27341","category":"47","category_name":"住宅区","address":"上海普陀区真南路500号同济大学沪西校区"},{"poiid":"B2094751D36AA7F4419D","title":"客家小厨(真南路店)","lon":"121.38715","lat":"31.26919","category":"72","category_name":"广东菜","address":"普陀区真南路667号(近李子园)"},{"poiid":"B2094757D06FAAF4449C","title":"清涧六街坊","lon":"121.389451","lat":"31.266068","category":"252","category_name":"楼宇机构","address":"上海市普陀区桃浦路1023弄"},{"poiid":"B2094654DB6AABF94293","title":"李子园花苑(南门)","lon":"121.38639","lat":"31.27003","category":"47","category_name":"住宅区","address":"真南路710弄744弄"},{"poiid":"B2094654D465A3F44598","title":"申环商务楼","lon":"121.38665","lat":"31.26994","category":"46","category_name":"楼宇","address":"真南路704-708号"},{"poiid":"B2094654D465A3F8459B","title":"上海九洲医院","lon":"121.38681","lat":"31.26932","category":"162","category_name":"医院","address":"普陀区真南路685号(近祁连山路)"},{"poiid":"B2094655D26EA2F5409A","title":"南李苑小区","lon":"121.38194","lat":"31.26891","category":"47","category_name":"住宅区","address":"真南路843弄、895弄"},{"poiid":"B2094654D465A3F5409B","title":"三千里花苑","lon":"121.38623","lat":"31.27504","category":"47","category_name":"住宅区","address":"上海真南路822弄188支弄"},{"poiid":"B2094654D465A3F8459A","title":"快客No.6822","lon":"121.38697","lat":"31.26933","category":"117","category_name":"便民商店/便利店","address":"真南路671"},{"poiid":"B2094654DB6AA3FC499A","title":"九州泌尿外科医院","lon":"121.38681","lat":"31.26932","category":"162","category_name":"医院","address":"上海市普陀区真南路685号"},{"poiid":"B2094654DB6AABF94092","title":"清涧小区清竹坊","lon":"121.38932","lat":"31.26117","category":"47","category_name":"住宅区","address":"清涧路39弄1-105号"},{"poiid":"B2094654D465A3FB4898","title":"同济大学图书馆沪西分馆","lon":"121.3914","lat":"31.2704","category":"181","category_name":"图书馆","address":""},{"poiid":"B2094654D465A3F4499B","title":"汤博斯","lon":"121.38658","lat":"31.26996","category":"68","category_name":"快餐厅","address":"普陀区真南路(常和路真南路)"},{"poiid":"B2094655D26EABFB459B","title":"农工商超市(真南店)","lon":"121.38664","lat":"31.26994","category":"118","category_name":"超级市场","address":"普陀区真南路704-708号"},{"poiid":"B2094655D26BA5FF449A","title":"耀光国际大厦","lon":"121.383","lat":"31.2719","category":"46","category_name":"楼宇","address":"祁连山南路2888弄1号2号"},{"poiid":"B2094654D465A3FB4298","title":"清涧新村第二小区","lon":"121.38259","lat":"31.261492","category":"47","category_name":"住宅区","address":"上海普陀区桃浦路1028弄"},{"poiid":"B2094654D465A3FF489A","title":"校外农家菜馆","lon":"121.39131","lat":"31.26812","category":"257","category_name":"中餐厅","address":""},{"poiid":"B2094654D46BA6F9429D","title":"国际包装印刷城","lon":"121.3853818159","lat":"31.275776057594","category":"255","category_name":"专卖店","address":"普陀区真南路1051弄"},{"poiid":"B2094654D465A3F4429D","title":"上海诚信学院","lon":"121.39097","lat":"31.26963","category":"671","category_name":"高校中心点","address":"普陀区同济大学沪西校区行政办公楼"},{"poiid":"B2094757D16FA0F84892","title":"937路真南路二号桥站","lon":"121.38410881","lat":"31.269494848","category":"38","category_name":"公交车站","address":"上海普陀区真南路822弄前"},{"poiid":"B2094655D36DA7FE499C","title":"真南路二号桥","lon":"121.38473","lat":"31.26999","category":"38","category_name":"公交车站","address":""},{"poiid":"B2094655D36DA7FF409E","title":"真南路真北路","lon":"121.3918","lat":"31.26891","category":"38","category_name":"公交车站","address":""},{"poiid":"B2094757D66EABFF4998","title":"真南路","lon":"121.38253395","lat":"31.269860057","category":"500","category_name":"未知分类","address":"上海市普陀区真南路"},{"poiid":"B2094757D065ABFB4892","title":"绅晖丰田4S店","lon":"121.384403","lat":"31.270535","category":"500","category_name":"未知分类","address":"上海真南路818号"},{"poiid":"B2094655D26CA1FA459B","title":"上海华星亚特汽车销售有限公司","lon":"121.38757","lat":"31.26901","category":"159","category_name":"汽车维修","address":"普陀区真南路589号华星物资内"},{"poiid":"B2094757D065A2FB489A","title":"吉祥馄饨　 如意店","lon":"121.391448","lat":"31.269121","category":"87","category_name":"特色／地方风味餐厅","address":"普陀区真南路484号(近同济大学)"},{"poiid":"B2094654D465A3F44192","title":"天佑楼","lon":"121.38986","lat":"31.2699","category":"52","category_name":"高等院校","address":""},{"poiid":"B2094654D465A3FF4998","title":"兴华川菜馆","lon":"121.3913","lat":"31.26763","category":"71","category_name":"四川菜","address":"普陀区交通路真南路口(近同济大学沪西校区)"},{"poiid":"B2094757DA69A1FB499A","title":"上海华星MG4S店","lon":"121.38904","lat":"31.26876","category":"639","category_name":"汽车交通类公司","address":"普陀区真南路589号"},{"poiid":"B2094757D065A6F5439A","title":"李子园商务区","lon":"121.39045995","lat":"31.267540013","category":"500","category_name":"未知分类","address":"上海市普陀区真南路"},{"poiid":"B2094654DB6AABF84898","title":"如意麻辣烫","lon":"121.39131","lat":"31.26847","category":"68","category_name":"快餐厅","address":"普陀区真南路501号(同济大学对面)"},{"poiid":"B2094654DB69AAFB489D","title":"上海华星大众4S店","lon":"121.38904","lat":"31.26876","category":"163","category_name":"4S店","address":"上海市普陀区真南路589号"},{"poiid":"B209475CD164ABFD449E","title":"星月环球港","lon":"121.389701","lat":"31.268764","category":"500","category_name":"未知分类","address":"上海市 普陀区金沙江路"},{"poiid":"B2094757D06FA3FD449D","title":"同济大学(沪西校区)","lon":"121.39089202","lat":"31.269561767","category":"671","category_name":"高校中心点","address":"普陀区真南路500号(近真北路)"},{"poiid":"B2094757D06FA3FB4592","title":"利群医院","lon":"121.38526081","lat":"31.260695438","category":"162","category_name":"医院","address":"普陀区桃浦路910号(近利群医院)"},{"poiid":"B2094757D06FA6FF479C","title":"上海信息技术学校","lon":"121.37930942","lat":"31.271189307","category":"52","category_name":"高等院校","address":"上海真南路1008号"},{"poiid":"B2094757D06FAAF9429B","title":"曹杨职业技术学校","lon":"121.384861254","lat":"31.2628673316","category":"52","category_name":"高等院校","address":"上海普陀区清涧路240号(近高陵路)"},{"poiid":"B2094757D06EAAFD449E","title":"李子园地铁站","lon":"121.38968953","lat":"31.269055936","category":"36","category_name":"地铁站","address":"上海轨道交通 十一号线 轨交李子园站 11"},{"poiid":"B2094757D068A0F5459B","title":"真南路李子园","lon":"121.38638795","lat":"31.2723731053","category":"500","category_name":"未知分类","address":"上海普陀区真南路822弄"},{"poiid":"B2094757D06FA2FB409F","title":"中鼎豪园","lon":"121.38978","lat":"31.263821","category":"47","category_name":"住宅区","address":"上海市普陀区清涧路68弄"},{"poiid":"B2094757D064A3F9489A","title":"佰金瀚宫","lon":"121.393459165","lat":"31.2690212227","category":"47","category_name":"住宅区","address":"上海普陀区真北路2980号(真南路口)"},{"poiid":"B2094757D069A0F9409E","title":"真南路真北路口","lon":"121.393213044","lat":"31.2690784635","category":"500","category_name":"未知分类","address":"上海真南路真北路口"},{"poiid":"B2094757D069A1F54493","title":"一汽大众华星众捷","lon":"121.38895971","lat":"31.2686372739","category":"500","category_name":"未知分类","address":"上海真南路589号"},{"poiid":"B2094757D065A0FF4193","title":"李子园花苑","lon":"121.38638","lat":"31.271622","category":"47","category_name":"住宅区","address":"上海普陀区真南路710弄"},{"poiid":"B2094654D465A3F4419B","title":"同济大学第一教学楼","lon":"121.38958","lat":"31.2709","category":"52","category_name":"高等院校","address":"上海普陀区真南路500号同济大学沪西校区"},{"poiid":"B2094757D06AA0FA439B","title":"东风本田陆达4s店","lon":"121.382792","lat":"31.269466","category":"500","category_name":"未知分类","address":"上海真南路829号"},{"poiid":"B2094757D068A6F5459A","title":"清涧新村第三小区","lon":"121.385987042","lat":"31.2621984083","category":"47","category_name":"住宅区","address":"上海清涧路187弄"},{"poiid":"B2094757D069A2F8439A","title":"东风标致4S店","lon":"121.38271152","lat":"31.269237465","category":"158","category_name":"汽车销售","address":"上海真南路"},{"poiid":"B2094750D56AA0FE459F","title":"恒盛鼎城圣都汇","lon":"121.38742","lat":"31.27816","category":"47","category_name":"住宅区","address":"普陀区武威东路888号"},{"poiid":"B2094757D064A7F9409E","title":"李园大酒店","lon":"121.3919392","lat":"31.2689156","category":"76","category_name":"上海菜","address":"普陀区真南路451号(同济大学沪西校区对面)"},{"poiid":"B2094654D465A3F44099","title":"生乐公寓A区","lon":"121.38723","lat":"31.27341","category":"47","category_name":"住宅区","address":"上海普陀区真南路500号同济大学沪西校区"},{"poiid":"B2094751D36AA7F4419D","title":"客家小厨(真南路店)","lon":"121.38715","lat":"31.26919","category":"72","category_name":"广东菜","address":"普陀区真南路667号(近李子园)"},{"poiid":"B2094757D06FAAF4449C","title":"清涧六街坊","lon":"121.389451","lat":"31.266068","category":"252","category_name":"楼宇机构","address":"上海市普陀区桃浦路1023弄"},{"poiid":"B2094654DB6AABF94293","title":"李子园花苑(南门)","lon":"121.38639","lat":"31.27003","category":"47","category_name":"住宅区","address":"真南路710弄744弄"},{"poiid":"B2094654D465A3F44598","title":"申环商务楼","lon":"121.38665","lat":"31.26994","category":"46","category_name":"楼宇","address":"真南路704-708号"},{"poiid":"B2094654D465A3F8459B","title":"上海九洲医院","lon":"121.38681","lat":"31.26932","category":"162","category_name":"医院","address":"普陀区真南路685号(近祁连山路)"},{"poiid":"B2094655D26EA2F5409A","title":"南李苑小区","lon":"121.38194","lat":"31.26891","category":"47","category_name":"住宅区","address":"真南路843弄、895弄"},{"poiid":"B2094654D465A3F5409B","title":"三千里花苑","lon":"121.38623","lat":"31.27504","category":"47","category_name":"住宅区","address":"上海真南路822弄188支弄"},{"poiid":"B2094654D465A3F8459A","title":"快客No.6822","lon":"121.38697","lat":"31.26933","category":"117","category_name":"便民商店/便利店","address":"真南路671"},{"poiid":"B2094654DB6AA3FC499A","title":"九州泌尿外科医院","lon":"121.38681","lat":"31.26932","category":"162","category_name":"医院","address":"上海市普陀区真南路685号"},{"poiid":"B2094654DB6AABF94092","title":"清涧小区清竹坊","lon":"121.38932","lat":"31.26117","category":"47","category_name":"住宅区","address":"清涧路39弄1-105号"},{"poiid":"B2094654D465A3FB4898","title":"同济大学图书馆沪西分馆","lon":"121.3914","lat":"31.2704","category":"181","category_name":"图书馆","address":""},{"poiid":"B2094654D465A3F4499B","title":"汤博斯","lon":"121.38658","lat":"31.26996","category":"68","category_name":"快餐厅","address":"普陀区真南路(常和路真南路)"},{"poiid":"B2094655D26EABFB459B","title":"农工商超市(真南店)","lon":"121.38664","lat":"31.26994","category":"118","category_name":"超级市场","address":"普陀区真南路704-708号"},{"poiid":"B2094655D26BA5FF449A","title":"耀光国际大厦","lon":"121.383","lat":"31.2719","category":"46","category_name":"楼宇","address":"祁连山南路2888弄1号2号"},{"poiid":"B2094654D465A3FB4298","title":"清涧新村第二小区","lon":"121.38259","lat":"31.261492","category":"47","category_name":"住宅区","address":"上海普陀区桃浦路1028弄"},{"poiid":"B2094654D465A3FF489A","title":"校外农家菜馆","lon":"121.39131","lat":"31.26812","category":"257","category_name":"中餐厅","address":""},{"poiid":"B2094654D46BA6F9429D","title":"国际包装印刷城","lon":"121.3853818159","lat":"31.275776057594","category":"255","category_name":"专卖店","address":"普陀区真南路1051弄"},{"poiid":"B2094654D465A3F4429D","title":"上海诚信学院","lon":"121.39097","lat":"31.26963","category":"671","category_name":"高校中心点","address":"普陀区同济大学沪西校区行政办公楼"},{"poiid":"B2094757D16FA0F84892","title":"937路真南路二号桥站","lon":"121.38410881","lat":"31.269494848","category":"38","category_name":"公交车站","address":"上海普陀区真南路822弄前"},{"poiid":"B2094655D36DA7FE499C","title":"真南路二号桥","lon":"121.38473","lat":"31.26999","category":"38","category_name":"公交车站","address":""},{"poiid":"B2094655D36DA7FF409E","title":"真南路真北路","lon":"121.3918","lat":"31.26891","category":"38","category_name":"公交车站","address":""},{"poiid":"B2094757D66EABFF4998","title":"真南路","lon":"121.38253395","lat":"31.269860057","category":"500","category_name":"未知分类","address":"上海市普陀区真南路"},{"poiid":"B2094757D065ABFB4892","title":"绅晖丰田4S店","lon":"121.384403","lat":"31.270535","category":"500","category_name":"未知分类","address":"上海真南路818号"},{"poiid":"B2094655D26CA1FA459B","title":"上海华星亚特汽车销售有限公司","lon":"121.38757","lat":"31.26901","category":"159","category_name":"汽车维修","address":"普陀区真南路589号华星物资内"},{"poiid":"B2094757D065A2FB489A","title":"吉祥馄饨　 如意店","lon":"121.391448","lat":"31.269121","category":"87","category_name":"特色／地方风味餐厅","address":"普陀区真南路484号(近同济大学)"},{"poiid":"B2094654D465A3F44192","title":"天佑楼","lon":"121.38986","lat":"31.2699","category":"52","category_name":"高等院校","address":""},{"poiid":"B2094654D465A3FF4998","title":"兴华川菜馆","lon":"121.3913","lat":"31.26763","category":"71","category_name":"四川菜","address":"普陀区交通路真南路口(近同济大学沪西校区)"},{"poiid":"B2094757DA69A1FB499A","title":"上海华星MG4S店","lon":"121.38904","lat":"31.26876","category":"639","category_name":"汽车交通类公司","address":"普陀区真南路589号"},{"poiid":"B2094757D065A6F5439A","title":"李子园商务区","lon":"121.39045995","lat":"31.267540013","category":"500","category_name":"未知分类","address":"上海市普陀区真南路"},{"poiid":"B2094654DB6AABF84898","title":"如意麻辣烫","lon":"121.39131","lat":"31.26847","category":"68","category_name":"快餐厅","address":"普陀区真南路501号(同济大学对面)"},{"poiid":"B2094654DB69AAFB489D","title":"上海华星大众4S店","lon":"121.38904","lat":"31.26876","category":"163","category_name":"4S店","address":"上海市普陀区真南路589号"},{"poiid":"B209475CD164ABFD449E","title":"星月环球港","lon":"121.389701","lat":"31.268764","category":"500","category_name":"未知分类","address":"上海市 普陀区金沙江路"},{"poiid":"B2094757D06FA3FD449D","title":"同济大学(沪西校区)","lon":"121.39089202","lat":"31.269561767","category":"671","category_name":"高校中心点","address":"普陀区真南路500号(近真北路)"},{"poiid":"B2094757D06FA3FB4592","title":"利群医院","lon":"121.38526081","lat":"31.260695438","category":"162","category_name":"医院","address":"普陀区桃浦路910号(近利群医院)"},{"poiid":"B2094757D06FA6FF479C","title":"上海信息技术学校","lon":"121.37930942","lat":"31.271189307","category":"52","category_name":"高等院校","address":"上海真南路1008号"},{"poiid":"B2094757D06FAAF9429B","title":"曹杨职业技术学校","lon":"121.384861254","lat":"31.2628673316","category":"52","category_name":"高等院校","address":"上海普陀区清涧路240号(近高陵路)"},{"poiid":"B2094757D06EAAFD449E","title":"李子园地铁站","lon":"121.38968953","lat":"31.269055936","category":"36","category_name":"地铁站","address":"上海轨道交通 十一号线 轨交李子园站 11"},{"poiid":"B2094757D068A0F5459B","title":"真南路李子园","lon":"121.38638795","lat":"31.2723731053","category":"500","category_name":"未知分类","address":"上海普陀区真南路822弄"},{"poiid":"B2094757D06FA2FB409F","title":"中鼎豪园","lon":"121.38978","lat":"31.263821","category":"47","category_name":"住宅区","address":"上海市普陀区清涧路68弄"},{"poiid":"B2094757D064A3F9489A","title":"佰金瀚宫","lon":"121.393459165","lat":"31.2690212227","category":"47","category_name":"住宅区","address":"上海普陀区真北路2980号(真南路口)"},{"poiid":"B2094757D069A0F9409E","title":"真南路真北路口","lon":"121.393213044","lat":"31.2690784635","category":"500","category_name":"未知分类","address":"上海真南路真北路口"},{"poiid":"B2094757D069A1F54493","title":"一汽大众华星众捷","lon":"121.38895971","lat":"31.2686372739","category":"500","category_name":"未知分类","address":"上海真南路589号"},{"poiid":"B2094757D065A0FF4193","title":"李子园花苑","lon":"121.38638","lat":"31.271622","category":"47","category_name":"住宅区","address":"上海普陀区真南路710弄"},{"poiid":"B2094654D465A3F4419B","title":"同济大学第一教学楼","lon":"121.38958","lat":"31.2709","category":"52","category_name":"高等院校","address":"上海普陀区真南路500号同济大学沪西校区"},{"poiid":"B2094757D06AA0FA439B","title":"东风本田陆达4s店","lon":"121.382792","lat":"31.269466","category":"500","category_name":"未知分类","address":"上海真南路829号"},{"poiid":"B2094757D068A6F5459A","title":"清涧新村第三小区","lon":"121.385987042","lat":"31.2621984083","category":"47","category_name":"住宅区","address":"上海清涧路187弄"},{"poiid":"B2094757D069A2F8439A","title":"东风标致4S店","lon":"121.38271152","lat":"31.269237465","category":"158","category_name":"汽车销售","address":"上海真南路"},{"poiid":"B2094750D56AA0FE459F","title":"恒盛鼎城圣都汇","lon":"121.38742","lat":"31.27816","category":"47","category_name":"住宅区","address":"普陀区武威东路888号"},{"poiid":"B2094757D064A7F9409E","title":"李园大酒店","lon":"121.3919392","lat":"31.2689156","category":"76","category_name":"上海菜","address":"普陀区真南路451号(同济大学沪西校区对面)"},{"poiid":"B2094654D465A3F44099","title":"生乐公寓A区","lon":"121.38723","lat":"31.27341","category":"47","category_name":"住宅区","address":"上海普陀区真南路500号同济大学沪西校区"},{"poiid":"B2094751D36AA7F4419D","title":"客家小厨(真南路店)","lon":"121.38715","lat":"31.26919","category":"72","category_name":"广东菜","address":"普陀区真南路667号(近李子园)"},{"poiid":"B2094757D06FAAF4449C","title":"清涧六街坊","lon":"121.389451","lat":"31.266068","category":"252","category_name":"楼宇机构","address":"上海市普陀区桃浦路1023弄"},{"poiid":"B2094654DB6AABF94293","title":"李子园花苑(南门)","lon":"121.38639","lat":"31.27003","category":"47","category_name":"住宅区","address":"真南路710弄744弄"},{"poiid":"B2094654D465A3F44598","title":"申环商务楼","lon":"121.38665","lat":"31.26994","category":"46","category_name":"楼宇","address":"真南路704-708号"},{"poiid":"B2094654D465A3F8459B","title":"上海九洲医院","lon":"121.38681","lat":"31.26932","category":"162","category_name":"医院","address":"普陀区真南路685号(近祁连山路)"},{"poiid":"B2094655D26EA2F5409A","title":"南李苑小区","lon":"121.38194","lat":"31.26891","category":"47","category_name":"住宅区","address":"真南路843弄、895弄"},{"poiid":"B2094654D465A3F5409B","title":"三千里花苑","lon":"121.38623","lat":"31.27504","category":"47","category_name":"住宅区","address":"上海真南路822弄188支弄"},{"poiid":"B2094654D465A3F8459A","title":"快客No.6822","lon":"121.38697","lat":"31.26933","category":"117","category_name":"便民商店/便利店","address":"真南路671"},{"poiid":"B2094654DB6AA3FC499A","title":"九州泌尿外科医院","lon":"121.38681","lat":"31.26932","category":"162","category_name":"医院","address":"上海市普陀区真南路685号"},{"poiid":"B2094654DB6AABF94092","title":"清涧小区清竹坊","lon":"121.38932","lat":"31.26117","category":"47","category_name":"住宅区","address":"清涧路39弄1-105号"},{"poiid":"B2094654D465A3FB4898","title":"同济大学图书馆沪西分馆","lon":"121.3914","lat":"31.2704","category":"181","category_name":"图书馆","address":""},{"poiid":"B2094654D465A3F4499B","title":"汤博斯","lon":"121.38658","lat":"31.26996","category":"68","category_name":"快餐厅","address":"普陀区真南路(常和路真南路)"},{"poiid":"B2094655D26EABFB459B","title":"农工商超市(真南店)","lon":"121.38664","lat":"31.26994","category":"118","category_name":"超级市场","address":"普陀区真南路704-708号"},{"poiid":"B2094655D26BA5FF449A","title":"耀光国际大厦","lon":"121.383","lat":"31.2719","category":"46","category_name":"楼宇","address":"祁连山南路2888弄1号2号"},{"poiid":"B2094654D465A3FB4298","title":"清涧新村第二小区","lon":"121.38259","lat":"31.261492","category":"47","category_name":"住宅区","address":"上海普陀区桃浦路1028弄"},{"poiid":"B2094654D465A3FF489A","title":"校外农家菜馆","lon":"121.39131","lat":"31.26812","category":"257","category_name":"中餐厅","address":""},{"poiid":"B2094654D46BA6F9429D","title":"国际包装印刷城","lon":"121.3853818159","lat":"31.275776057594","category":"255","category_name":"专卖店","address":"普陀区真南路1051弄"},{"poiid":"B2094654D465A3F4429D","title":"上海诚信学院","lon":"121.39097","lat":"31.26963","category":"671","category_name":"高校中心点","address":"普陀区同济大学沪西校区行政办公楼"},{"poiid":"B2094757D16FA0F84892","title":"937路真南路二号桥站","lon":"121.38410881","lat":"31.269494848","category":"38","category_name":"公交车站","address":"上海普陀区真南路822弄前"},{"poiid":"B2094655D36DA7FE499C","title":"真南路二号桥","lon":"121.38473","lat":"31.26999","category":"38","category_name":"公交车站","address":""},{"poiid":"B2094655D36DA7FF409E","title":"真南路真北路","lon":"121.3918","lat":"31.26891","category":"38","category_name":"公交车站","address":""},{"poiid":"B2094757D66EABFF4998","title":"真南路","lon":"121.38253395","lat":"31.269860057","category":"500","category_name":"未知分类","address":"上海市普陀区真南路"},{"poiid":"B2094757D065ABFB4892","title":"绅晖丰田4S店","lon":"121.384403","lat":"31.270535","category":"500","category_name":"未知分类","address":"上海真南路818号"},{"poiid":"B2094655D26CA1FA459B","title":"上海华星亚特汽车销售有限公司","lon":"121.38757","lat":"31.26901","category":"159","category_name":"汽车维修","address":"普陀区真南路589号华星物资内"},{"poiid":"B2094757D065A2FB489A","title":"吉祥馄饨　 如意店","lon":"121.391448","lat":"31.269121","category":"87","category_name":"特色／地方风味餐厅","address":"普陀区真南路484号(近同济大学)"},{"poiid":"B2094654D465A3F44192","title":"天佑楼","lon":"121.38986","lat":"31.2699","category":"52","category_name":"高等院校","address":""},{"poiid":"B2094654D465A3FF4998","title":"兴华川菜馆","lon":"121.3913","lat":"31.26763","category":"71","category_name":"四川菜","address":"普陀区交通路真南路口(近同济大学沪西校区)"},{"poiid":"B2094757DA69A1FB499A","title":"上海华星MG4S店","lon":"121.38904","lat":"31.26876","category":"639","category_name":"汽车交通类公司","address":"普陀区真南路589号"},{"poiid":"B2094757D065A6F5439A","title":"李子园商务区","lon":"121.39045995","lat":"31.267540013","category":"500","category_name":"未知分类","address":"上海市普陀区真南路"},{"poiid":"B2094654DB6AABF84898","title":"如意麻辣烫","lon":"121.39131","lat":"31.26847","category":"68","category_name":"快餐厅","address":"普陀区真南路501号(同济大学对面)"},{"poiid":"B2094654DB69AAFB489D","title":"上海华星大众4S店","lon":"121.38904","lat":"31.26876","category":"163","category_name":"4S店","address":"上海市普陀区真南路589号"},{"poiid":"B209475CD164ABFD449E","title":"星月环球港","lon":"121.389701","lat":"31.268764","category":"500","category_name":"未知分类","address":"上海市 普陀区金沙江路"},{"poiid":"B2094757D06FA3FD449D","title":"同济大学(沪西校区)","lon":"121.39089202","lat":"31.269561767","category":"671","category_name":"高校中心点","address":"普陀区真南路500号(近真北路)"},{"poiid":"B2094757D06FA3FB4592","title":"利群医院","lon":"121.38526081","lat":"31.260695438","category":"162","category_name":"医院","address":"普陀区桃浦路910号(近利群医院)"},{"poiid":"B2094757D06FA6FF479C","title":"上海信息技术学校","lon":"121.37930942","lat":"31.271189307","category":"52","category_name":"高等院校","address":"上海真南路1008号"},{"poiid":"B2094757D06FAAF9429B","title":"曹杨职业技术学校","lon":"121.384861254","lat":"31.2628673316","category":"52","category_name":"高等院校","address":"上海普陀区清涧路240号(近高陵路)"},{"poiid":"B2094757D06EAAFD449E","title":"李子园地铁站","lon":"121.38968953","lat":"31.269055936","category":"36","category_name":"地铁站","address":"上海轨道交通 十一号线 轨交李子园站 11"},{"poiid":"B2094757D068A0F5459B","title":"真南路李子园","lon":"121.38638795","lat":"31.2723731053","category":"500","category_name":"未知分类","address":"上海普陀区真南路822弄"},{"poiid":"B2094757D06FA2FB409F","title":"中鼎豪园","lon":"121.38978","lat":"31.263821","category":"47","category_name":"住宅区","address":"上海市普陀区清涧路68弄"},{"poiid":"B2094757D064A3F9489A","title":"佰金瀚宫","lon":"121.393459165","lat":"31.2690212227","category":"47","category_name":"住宅区","address":"上海普陀区真北路2980号(真南路口)"},{"poiid":"B2094757D069A0F9409E","title":"真南路真北路口","lon":"121.393213044","lat":"31.2690784635","category":"500","category_name":"未知分类","address":"上海真南路真北路口"},{"poiid":"B2094757D069A1F54493","title":"一汽大众华星众捷","lon":"121.38895971","lat":"31.2686372739","category":"500","category_name":"未知分类","address":"上海真南路589号"},{"poiid":"B2094757D065A0FF4193","title":"李子园花苑","lon":"121.38638","lat":"31.271622","category":"47","category_name":"住宅区","address":"上海普陀区真南路710弄"},{"poiid":"B2094654D465A3F4419B","title":"同济大学第一教学楼","lon":"121.38958","lat":"31.2709","category":"52","category_name":"高等院校","address":"上海普陀区真南路500号同济大学沪西校区"},{"poiid":"B2094757D06AA0FA439B","title":"东风本田陆达4s店","lon":"121.382792","lat":"31.269466","category":"500","category_name":"未知分类","address":"上海真南路829号"},{"poiid":"B2094757D068A6F5459A","title":"清涧新村第三小区","lon":"121.385987042","lat":"31.2621984083","category":"47","category_name":"住宅区","address":"上海清涧路187弄"},{"poiid":"B2094757D069A2F8439A","title":"东风标致4S店","lon":"121.38271152","lat":"31.269237465","category":"158","category_name":"汽车销售","address":"上海真南路"},{"poiid":"B2094750D56AA0FE459F","title":"恒盛鼎城圣都汇","lon":"121.38742","lat":"31.27816","category":"47","category_name":"住宅区","address":"普陀区武威东路888号"},{"poiid":"B2094757D064A7F9409E","title":"李园大酒店","lon":"121.3919392","lat":"31.2689156","category":"76","category_name":"上海菜","address":"普陀区真南路451号(同济大学沪西校区对面)"},{"poiid":"B2094654D465A3F44099","title":"生乐公寓A区","lon":"121.38723","lat":"31.27341","category":"47","category_name":"住宅区","address":"上海普陀区真南路500号同济大学沪西校区"},{"poiid":"B2094751D36AA7F4419D","title":"客家小厨(真南路店)","lon":"121.38715","lat":"31.26919","category":"72","category_name":"广东菜","address":"普陀区真南路667号(近李子园)"},{"poiid":"B2094757D06FAAF4449C","title":"清涧六街坊","lon":"121.389451","lat":"31.266068","category":"252","category_name":"楼宇机构","address":"上海市普陀区桃浦路1023弄"},{"poiid":"B2094654DB6AABF94293","title":"李子园花苑(南门)","lon":"121.38639","lat":"31.27003","category":"47","category_name":"住宅区","address":"真南路710弄744弄"},{"poiid":"B2094654D465A3F44598","title":"申环商务楼","lon":"121.38665","lat":"31.26994","category":"46","category_name":"楼宇","address":"真南路704-708号"},{"poiid":"B2094654D465A3F8459B","title":"上海九洲医院","lon":"121.38681","lat":"31.26932","category":"162","category_name":"医院","address":"普陀区真南路685号(近祁连山路)"},{"poiid":"B2094655D26EA2F5409A","title":"南李苑小区","lon":"121.38194","lat":"31.26891","category":"47","category_name":"住宅区","address":"真南路843弄、895弄"},{"poiid":"B2094654D465A3F5409B","title":"三千里花苑","lon":"121.38623","lat":"31.27504","category":"47","category_name":"住宅区","address":"上海真南路822弄188支弄"},{"poiid":"B2094654D465A3F8459A","title":"快客No.6822","lon":"121.38697","lat":"31.26933","category":"117","category_name":"便民商店/便利店","address":"真南路671"},{"poiid":"B2094654DB6AA3FC499A","title":"九州泌尿外科医院","lon":"121.38681","lat":"31.26932","category":"162","category_name":"医院","address":"上海市普陀区真南路685号"},{"poiid":"B2094654DB6AABF94092","title":"清涧小区清竹坊","lon":"121.38932","lat":"31.26117","category":"47","category_name":"住宅区","address":"清涧路39弄1-105号"},{"poiid":"B2094654D465A3FB4898","title":"同济大学图书馆沪西分馆","lon":"121.3914","lat":"31.2704","category":"181","category_name":"图书馆","address":""},{"poiid":"B2094654D465A3F4499B","title":"汤博斯","lon":"121.38658","lat":"31.26996","category":"68","category_name":"快餐厅","address":"普陀区真南路(常和路真南路)"},{"poiid":"B2094655D26EABFB459B","title":"农工商超市(真南店)","lon":"121.38664","lat":"31.26994","category":"118","category_name":"超级市场","address":"普陀区真南路704-708号"},{"poiid":"B2094655D26BA5FF449A","title":"耀光国际大厦","lon":"121.383","lat":"31.2719","category":"46","category_name":"楼宇","address":"祁连山南路2888弄1号2号"},{"poiid":"B2094654D465A3FB4298","title":"清涧新村第二小区","lon":"121.38259","lat":"31.261492","category":"47","category_name":"住宅区","address":"上海普陀区桃浦路1028弄"},{"poiid":"B2094654D465A3FF489A","title":"校外农家菜馆","lon":"121.39131","lat":"31.26812","category":"257","category_name":"中餐厅","address":""},{"poiid":"B2094654D46BA6F9429D","title":"国际包装印刷城","lon":"121.3853818159","lat":"31.275776057594","category":"255","category_name":"专卖店","address":"普陀区真南路1051弄"},{"poiid":"B2094654D465A3F4429D","title":"上海诚信学院","lon":"121.39097","lat":"31.26963","category":"671","category_name":"高校中心点","address":"普陀区同济大学沪西校区行政办公楼"},{"poiid":"B2094757D16FA0F84892","title":"937路真南路二号桥站","lon":"121.38410881","lat":"31.269494848","category":"38","category_name":"公交车站","address":"上海普陀区真南路822弄前"},{"poiid":"B2094655D36DA7FE499C","title":"真南路二号桥","lon":"121.38473","lat":"31.26999","category":"38","category_name":"公交车站","address":""},{"poiid":"B2094655D36DA7FF409E","title":"真南路真北路","lon":"121.3918","lat":"31.26891","category":"38","category_name":"公交车站","address":""},{"poiid":"B2094757D66EABFF4998","title":"真南路","lon":"121.38253395","lat":"31.269860057","category":"500","category_name":"未知分类","address":"上海市普陀区真南路"},{"poiid":"B2094757D065ABFB4892","title":"绅晖丰田4S店","lon":"121.384403","lat":"31.270535","category":"500","category_name":"未知分类","address":"上海真南路818号"},{"poiid":"B2094655D26CA1FA459B","title":"上海华星亚特汽车销售有限公司","lon":"121.38757","lat":"31.26901","category":"159","category_name":"汽车维修","address":"普陀区真南路589号华星物资内"},{"poiid":"B2094757D065A2FB489A","title":"吉祥馄饨　 如意店","lon":"121.391448","lat":"31.269121","category":"87","category_name":"特色／地方风味餐厅","address":"普陀区真南路484号(近同济大学)"},{"poiid":"B2094654D465A3F44192","title":"天佑楼","lon":"121.38986","lat":"31.2699","category":"52","category_name":"高等院校","address":""},{"poiid":"B2094654D465A3FF4998","title":"兴华川菜馆","lon":"121.3913","lat":"31.26763","category":"71","category_name":"四川菜","address":"普陀区交通路真南路口(近同济大学沪西校区)"},{"poiid":"B2094757DA69A1FB499A","title":"上海华星MG4S店","lon":"121.38904","lat":"31.26876","category":"639","category_name":"汽车交通类公司","address":"普陀区真南路589号"},{"poiid":"B2094757D065A6F5439A","title":"李子园商务区","lon":"121.39045995","lat":"31.267540013","category":"500","category_name":"未知分类","address":"上海市普陀区真南路"},{"poiid":"B2094654DB6AABF84898","title":"如意麻辣烫","lon":"121.39131","lat":"31.26847","category":"68","category_name":"快餐厅","address":"普陀区真南路501号(同济大学对面)"},{"poiid":"B2094654DB69AAFB489D","title":"上海华星大众4S店","lon":"121.38904","lat":"31.26876","category":"163","category_name":"4S店","address":"上海市普陀区真南路589号"},{"poiid":"B209475CD164ABFD449E","title":"星月环球港","lon":"121.389701","lat":"31.268764","category":"500","category_name":"未知分类","address":"上海市 普陀区金沙江路"}]