[{"poiid":"B2094654DB6CA2FC4992","title":"大华医院","lon":"121.43475","lat":"31.13261","category":"162","category_name":"医院","address":"徐汇区老沪闵路901号(老沪闵路罗秀路)"},{"poiid":"B2094757D06AAAFD479B","title":"天都火锅(虹梅店)","lon":"121.423830657","lat":"31.1236830363","category":"247","category_name":"餐饮美食","address":"上海虹梅南路1008号(莘朱路口)"},{"poiid":"B2094655D36DA7FA4899","title":"朱行","lon":"121.42371","lat":"31.1238","category":"38","category_name":"公交车站","address":""},{"poiid":"B2094757D068A0FB449A","title":"老沪闵路罗秀路","lon":"121.435804","lat":"31.132418","category":"500","category_name":"未知分类","address":"上海老沪闵路罗秀路"},{"poiid":"B2094757D06FA4F9419A","title":"梅陇十一村","lon":"121.42716","lat":"31.132442","category":"47","category_name":"住宅区","address":"上海上中西路天等路"},{"poiid":"B2094757D06FA2FB429E","title":"兴荣苑","lon":"121.43176","lat":"31.130054","category":"47","category_name":"住宅区","address":"上海市徐汇区罗秀路955弄"},{"poiid":"B2094757D065ABF4479E","title":"老沪闵路 朱梅路","lon":"121.436587","lat":"31.122507","category":"500","category_name":"未知分类","address":"上海老沪闵路,朱梅路"},{"poiid":"B2094654DB6CA2FC489E","title":"和平小区(罗秀路)","lon":"121.43076","lat":"31.13226","category":"47","category_name":"住宅区","address":"上海徐汇区罗秀路930弄(近天等路)"},{"poiid":"B2094757D06AA2F44592","title":"普乐三村","lon":"121.432746","lat":"31.123842","category":"252","category_name":"楼宇机构","address":"上海虹梅南路1555弄"},{"poiid":"B2094654DB6CA2FF4099","title":"老北京涮肉馆(罗秀路)","lon":"121.43386","lat":"31.13128","category":"86","category_name":"火锅店","address":"罗秀路847-849"},{"poiid":"B2094757D16FA2FD4998","title":"舒乐小区","lon":"121.43507","lat":"31.130444","category":"47","category_name":"住宅区","address":"上海老沪闵路1039弄"},{"poiid":"B2094654DB6CA2F5429C","title":"上海电力建设物资公司码头","lon":"121.43209","lat":"31.1264","category":"34","category_name":"港口码头","address":""},{"poiid":"B2094757D069A3F8409F","title":"振鼎鸡(罗秀路店)","lon":"121.43531899","lat":"31.130709827","category":"68","category_name":"快餐厅","address":"徐汇区罗秀路776号(近老沪闵路)"},{"poiid":"B2094757D064A6FF489B","title":"上海澳联玻璃有限公司","lon":"121.430289","lat":"31.126195","category":"46","category_name":"楼宇","address":"上海闵行区莘朱东路335号"},{"poiid":"B2094757D469A5F9479D","title":"兄弟连特色海鲜烧烤","lon":"121.43312","lat":"31.13133","category":"68","category_name":"快餐厅","address":"徐汇区罗秀路875号(近老沪闵路)"},{"poiid":"B2094757D069A6FC4299","title":"依依食府","lon":"121.433845","lat":"31.131212","category":"76","category_name":"上海菜","address":"徐汇区罗秀路853号(老沪闵路口)"},{"poiid":"B2094654DB69A5FD4298","title":"锦江之星(虹梅南路店)","lon":"121.42374","lat":"31.12445","category":"216","category_name":"经济型连锁酒店","address":"闵行区虹梅南路990号(近莘朱路)"},{"poiid":"B2094654DB6CA2F5429F","title":"山鹰码头","lon":"121.43395","lat":"31.12703","category":"34","category_name":"港口码头","address":"莘朱东路118号"},{"poiid":"B2094757D569A1F5479B","title":"都市宜家苑","lon":"121.43343833128","lat":"31.120746833073","category":"47","category_name":"住宅区","address":"上海市闵行区虹梅南路1661弄"},{"poiid":"B2094757D06AABFF4592","title":"天雅村酒店(梅陇店)","lon":"121.426893","lat":"31.13003","category":"76","category_name":"上海菜","address":"徐汇区罗秀路1111号(龙州路罗秀路)"},{"poiid":"B2094654DB6CA2FE429E","title":"天秀苑","lon":"121.43015","lat":"31.130064","category":"47","category_name":"住宅区","address":"上海市徐汇区罗秀路985弄"},{"poiid":"B2094757D069AAFB4992","title":"杨甲烧烤(罗秀路店)","lon":"121.43396","lat":"31.13099","category":"68","category_name":"快餐厅","address":"徐汇区罗秀路859号(近天等路)"},{"poiid":"B2094757D068A5F5409A","title":"文章酒楼(罗香路店)","lon":"121.435329185","lat":"31.134500201","category":"76","category_name":"上海菜","address":"上海徐汇区罗香路240号(近龙临路)"},{"poiid":"B2094757D069A1FF4492","title":"罗秀路","lon":"121.436782","lat":"31.1317771","category":"47","category_name":"住宅区","address":"上海徐汇区罗秀路"},{"poiid":"B2094654DB6CA2F5419F","title":"上海送变电工程公司","lon":"121.43354","lat":"31.12718","category":"263","category_name":"公司","address":"莘朱东路150"},{"poiid":"B2094757D068A7FC499A","title":"多样屋(天等路总部)","lon":"121.428948403","lat":"31.1338527134","category":"46","category_name":"楼宇","address":"徐汇区天等路188号(上中西路口)"},{"poiid":"B2094757D06AA1F84098","title":"上岛咖啡(虹梅南路店)","lon":"121.42386","lat":"31.12402","category":"260","category_name":"其他","address":"闵行区虹梅南路988(近莘朱路)"},{"poiid":"B2094757D16DA2FA4999","title":"贝壳熊牌加油站","lon":"121.431558357","lat":"31.1286019349","category":"154","category_name":"加油加气站","address":null},{"poiid":"B2094757D069A4F44999","title":"新招鲜罗秀路店","lon":"121.434994857","lat":"31.1303269694","category":"500","category_name":"未知分类","address":"上海罗秀路老沪闵路"},{"poiid":"B2094757D06BAAFF489C","title":"舒城苑","lon":"121.43513","lat":"31.12995","category":"252","category_name":"楼宇机构","address":"上海市徐汇区罗秀路725号"},{"poiid":"B2094757D66AA5FD489D","title":"新招鲜本地鸡窝 罗秀店","lon":"121.435343","lat":"31.13159","category":"86","category_name":"火锅店","address":"徐汇区罗秀路776号(老沪闵路口)"},{"poiid":"B2094757D16AA0FF419D","title":"豆捞坊仲盛店","lon":"121.42823325","lat":"31.124173396","category":"500","category_name":"未知分类","address":"上海莘庄百盛"},{"poiid":"B2094757D064A7FB4398","title":"中石油龙州加油站","lon":"121.43158485","lat":"31.129576954","category":"154","category_name":"加油加气站","address":"上海市徐汇区龙州路"},{"poiid":"B2094757D16BA6FE4793","title":"凌云路街道办事处","lon":"121.431375957","lat":"31.1293146491","category":"500","category_name":"未知分类","address":"上海虹梅南路"},{"poiid":"B2094757D164A7F94892","title":"顶顶烧烤","lon":"121.43417785","lat":"31.131133985","category":"247","category_name":"餐饮美食","address":"徐汇区罗绣路843号(近老沪闵路)"},{"poiid":"B2094757D169A1FA409F","title":"优麦时尚量贩式歌城","lon":"121.423388","lat":"31.123964","category":"170","category_name":"KTV","address":"上海闵行区虹梅南路1005号(苏宁电器3楼)"},{"poiid":"B2094757D469A7FB4999","title":"清真精品牛肉面王","lon":"121.431247","lat":"31.131154","category":"90","category_name":"清真餐馆","address":"徐汇区罗秀路908号(近天等路)"},{"poiid":"B2094757D16DABFE419F","title":"兄弟连烧烤","lon":"121.43465885","lat":"31.129588954","category":"247","category_name":"餐饮美食","address":"上海罗秀路菜场近老沪闵路"},{"poiid":"B2094655D265A7F54393","title":"徐汇凌云开业园区","lon":"121.43476","lat":"31.12983","category":"45","category_name":"产业园区","address":"老沪闵路1055弄38"},{"poiid":"B2094757D16CA1FE469C","title":"莲花南路外环路S20","lon":"121.431793","lat":"31.12104","category":"500","category_name":"未知分类","address":"上海莲花南路外环路S20"},{"poiid":"B2094655D26BA1FB4199","title":"罗秀路天等路","lon":"121.43054","lat":"31.13093","category":"38","category_name":"公交车站","address":""},{"poiid":"B2094654DB6CA2FA409C","title":"光明乳业长桥配送站","lon":"121.43714","lat":"31.12733","category":"117","category_name":"便民商店/便利店","address":""},{"poiid":"B2094655D36CA5F4469B","title":"北杨村","lon":"121.43744","lat":"31.12524","category":"38","category_name":"公交车站","address":""},{"poiid":"B2094654DB6CA2FF4199","title":"舒乐公寓","lon":"121.43489","lat":"31.131275","category":"47","category_name":"住宅区","address":"罗秀路717弄1-3号"},{"poiid":"B2094757D06AA1F4439C","title":"凌云路嘉川路","lon":"121.429863857","lat":"31.1289769424","category":"500","category_name":"未知分类","address":"上海凌云路嘉川路口"},{"poiid":"B2094655D265A3FA4893","title":"上海市实验学校附属小学","lon":"121.42889","lat":"31.13158","category":"56","category_name":"小学","address":"徐汇区天等路75号(上中西路天等路)"},{"poiid":"B2094654DB6CA2FE4699","title":"金色年华发型美容","lon":"121.43181","lat":"31.13095","category":"148","category_name":"美容美发店","address":"罗秀路947-1"},{"poiid":"B2094654DB6CA2FD4193","title":"家乐苑","lon":"121.43154","lat":"31.135004","category":"47","category_name":"住宅区","address":"上海上中西路55弄"},{"poiid":"B2094655D264A7FC439D","title":"克莉丝汀 罗秀路店","lon":"121.430118054","lat":"31.130624793","category":"112","category_name":"糕饼店","address":"徐汇区罗秀路957号(近天等路)"},{"poiid":"B2094757D66EA1FC4299","title":"德利厨房","lon":"121.43557685","lat":"31.128235179","category":"249","category_name":"购物服务","address":"上海漕溪路"},{"poiid":"B2094654DB6CA2FC4992","title":"大华医院","lon":"121.43475","lat":"31.13261","category":"162","category_name":"医院","address":"徐汇区老沪闵路901号(老沪闵路罗秀路)"},{"poiid":"B2094757D06AAAFD479B","title":"天都火锅(虹梅店)","lon":"121.423830657","lat":"31.1236830363","category":"247","category_name":"餐饮美食","address":"上海虹梅南路1008号(莘朱路口)"},{"poiid":"B2094655D36DA7FA4899","title":"朱行","lon":"121.42371","lat":"31.1238","category":"38","category_name":"公交车站","address":""},{"poiid":"B2094757D068A0FB449A","title":"老沪闵路罗秀路","lon":"121.435804","lat":"31.132418","category":"500","category_name":"未知分类","address":"上海老沪闵路罗秀路"},{"poiid":"B2094757D06FA4F9419A","title":"梅陇十一村","lon":"121.42716","lat":"31.132442","category":"47","category_name":"住宅区","address":"上海上中西路天等路"},{"poiid":"B2094757D06FA2FB429E","title":"兴荣苑","lon":"121.43176","lat":"31.130054","category":"47","category_name":"住宅区","address":"上海市徐汇区罗秀路955弄"},{"poiid":"B2094757D065ABF4479E","title":"老沪闵路 朱梅路","lon":"121.436587","lat":"31.122507","category":"500","category_name":"未知分类","address":"上海老沪闵路,朱梅路"},{"poiid":"B2094654DB6CA2FC489E","title":"和平小区(罗秀路)","lon":"121.43076","lat":"31.13226","category":"47","category_name":"住宅区","address":"上海徐汇区罗秀路930弄(近天等路)"},{"poiid":"B2094757D06AA2F44592","title":"普乐三村","lon":"121.432746","lat":"31.123842","category":"252","category_name":"楼宇机构","address":"上海虹梅南路1555弄"},{"poiid":"B2094654DB6CA2FF4099","title":"老北京涮肉馆(罗秀路)","lon":"121.43386","lat":"31.13128","category":"86","category_name":"火锅店","address":"罗秀路847-849"},{"poiid":"B2094757D16FA2FD4998","title":"舒乐小区","lon":"121.43507","lat":"31.130444","category":"47","category_name":"住宅区","address":"上海老沪闵路1039弄"},{"poiid":"B2094654DB6CA2F5429C","title":"上海电力建设物资公司码头","lon":"121.43209","lat":"31.1264","category":"34","category_name":"港口码头","address":""},{"poiid":"B2094757D069A3F8409F","title":"振鼎鸡(罗秀路店)","lon":"121.43531899","lat":"31.130709827","category":"68","category_name":"快餐厅","address":"徐汇区罗秀路776号(近老沪闵路)"},{"poiid":"B2094757D064A6FF489B","title":"上海澳联玻璃有限公司","lon":"121.430289","lat":"31.126195","category":"46","category_name":"楼宇","address":"上海闵行区莘朱东路335号"},{"poiid":"B2094757D469A5F9479D","title":"兄弟连特色海鲜烧烤","lon":"121.43312","lat":"31.13133","category":"68","category_name":"快餐厅","address":"徐汇区罗秀路875号(近老沪闵路)"},{"poiid":"B2094757D069A6FC4299","title":"依依食府","lon":"121.433845","lat":"31.131212","category":"76","category_name":"上海菜","address":"徐汇区罗秀路853号(老沪闵路口)"},{"poiid":"B2094654DB69A5FD4298","title":"锦江之星(虹梅南路店)","lon":"121.42374","lat":"31.12445","category":"216","category_name":"经济型连锁酒店","address":"闵行区虹梅南路990号(近莘朱路)"},{"poiid":"B2094654DB6CA2F5429F","title":"山鹰码头","lon":"121.43395","lat":"31.12703","category":"34","category_name":"港口码头","address":"莘朱东路118号"},{"poiid":"B2094757D569A1F5479B","title":"都市宜家苑","lon":"121.43343833128","lat":"31.120746833073","category":"47","category_name":"住宅区","address":"上海市闵行区虹梅南路1661弄"},{"poiid":"B2094757D06AABFF4592","title":"天雅村酒店(梅陇店)","lon":"121.426893","lat":"31.13003","category":"76","category_name":"上海菜","address":"徐汇区罗秀路1111号(龙州路罗秀路)"},{"poiid":"B2094654DB6CA2FE429E","title":"天秀苑","lon":"121.43015","lat":"31.130064","category":"47","category_name":"住宅区","address":"上海市徐汇区罗秀路985弄"},{"poiid":"B2094757D069AAFB4992","title":"杨甲烧烤(罗秀路店)","lon":"121.43396","lat":"31.13099","category":"68","category_name":"快餐厅","address":"徐汇区罗秀路859号(近天等路)"},{"poiid":"B2094757D068A5F5409A","title":"文章酒楼(罗香路店)","lon":"121.435329185","lat":"31.134500201","category":"76","category_name":"上海菜","address":"上海徐汇区罗香路240号(近龙临路)"},{"poiid":"B2094757D069A1FF4492","title":"罗秀路","lon":"121.436782","lat":"31.1317771","category":"47","category_name":"住宅区","address":"上海徐汇区罗秀路"},{"poiid":"B2094654DB6CA2F5419F","title":"上海送变电工程公司","lon":"121.43354","lat":"31.12718","category":"263","category_name":"公司","address":"莘朱东路150"},{"poiid":"B2094757D068A7FC499A","title":"多样屋(天等路总部)","lon":"121.428948403","lat":"31.1338527134","category":"46","category_name":"楼宇","address":"徐汇区天等路188号(上中西路口)"},{"poiid":"B2094757D06AA1F84098","title":"上岛咖啡(虹梅南路店)","lon":"121.42386","lat":"31.12402","category":"260","category_name":"其他","address":"闵行区虹梅南路988(近莘朱路)"},{"poiid":"B2094757D16DA2FA4999","title":"贝壳熊牌加油站","lon":"121.431558357","lat":"31.1286019349","category":"154","category_name":"加油加气站","address":null},{"poiid":"B2094757D069A4F44999","title":"新招鲜罗秀路店","lon":"121.434994857","lat":"31.1303269694","category":"500","category_name":"未知分类","address":"上海罗秀路老沪闵路"},{"poiid":"B2094757D06BAAFF489C","title":"舒城苑","lon":"121.43513","lat":"31.12995","category":"252","category_name":"楼宇机构","address":"上海市徐汇区罗秀路725号"},{"poiid":"B2094757D66AA5FD489D","title":"新招鲜本地鸡窝 罗秀店","lon":"121.435343","lat":"31.13159","category":"86","category_name":"火锅店","address":"徐汇区罗秀路776号(老沪闵路口)"},{"poiid":"B2094757D16AA0FF419D","title":"豆捞坊仲盛店","lon":"121.42823325","lat":"31.124173396","category":"500","category_name":"未知分类","address":"上海莘庄百盛"},{"poiid":"B2094757D064A7FB4398","title":"中石油龙州加油站","lon":"121.43158485","lat":"31.129576954","category":"154","category_name":"加油加气站","address":"上海市徐汇区龙州路"},{"poiid":"B2094757D16BA6FE4793","title":"凌云路街道办事处","lon":"121.431375957","lat":"31.1293146491","category":"500","category_name":"未知分类","address":"上海虹梅南路"},{"poiid":"B2094757D164A7F94892","title":"顶顶烧烤","lon":"121.43417785","lat":"31.131133985","category":"247","category_name":"餐饮美食","address":"徐汇区罗绣路843号(近老沪闵路)"},{"poiid":"B2094757D169A1FA409F","title":"优麦时尚量贩式歌城","lon":"121.423388","lat":"31.123964","category":"170","category_name":"KTV","address":"上海闵行区虹梅南路1005号(苏宁电器3楼)"},{"poiid":"B2094757D469A7FB4999","title":"清真精品牛肉面王","lon":"121.431247","lat":"31.131154","category":"90","category_name":"清真餐馆","address":"徐汇区罗秀路908号(近天等路)"},{"poiid":"B2094757D16DABFE419F","title":"兄弟连烧烤","lon":"121.43465885","lat":"31.129588954","category":"247","category_name":"餐饮美食","address":"上海罗秀路菜场近老沪闵路"},{"poiid":"B2094655D265A7F54393","title":"徐汇凌云开业园区","lon":"121.43476","lat":"31.12983","category":"45","category_name":"产业园区","address":"老沪闵路1055弄38"},{"poiid":"B2094757D16CA1FE469C","title":"莲花南路外环路S20","lon":"121.431793","lat":"31.12104","category":"500","category_name":"未知分类","address":"上海莲花南路外环路S20"},{"poiid":"B2094655D26BA1FB4199","title":"罗秀路天等路","lon":"121.43054","lat":"31.13093","category":"38","category_name":"公交车站","address":""},{"poiid":"B2094654DB6CA2FA409C","title":"光明乳业长桥配送站","lon":"121.43714","lat":"31.12733","category":"117","category_name":"便民商店/便利店","address":""},{"poiid":"B2094655D36CA5F4469B","title":"北杨村","lon":"121.43744","lat":"31.12524","category":"38","category_name":"公交车站","address":""},{"poiid":"B2094654DB6CA2FF4199","title":"舒乐公寓","lon":"121.43489","lat":"31.131275","category":"47","category_name":"住宅区","address":"罗秀路717弄1-3号"},{"poiid":"B2094757D06AA1F4439C","title":"凌云路嘉川路","lon":"121.429863857","lat":"31.1289769424","category":"500","category_name":"未知分类","address":"上海凌云路嘉川路口"},{"poiid":"B2094655D265A3FA4893","title":"上海市实验学校附属小学","lon":"121.42889","lat":"31.13158","category":"56","category_name":"小学","address":"徐汇区天等路75号(上中西路天等路)"},{"poiid":"B2094654DB6CA2FE4699","title":"金色年华发型美容","lon":"121.43181","lat":"31.13095","category":"148","category_name":"美容美发店","address":"罗秀路947-1"},{"poiid":"B2094654DB6CA2FD4193","title":"家乐苑","lon":"121.43154","lat":"31.135004","category":"47","category_name":"住宅区","address":"上海上中西路55弄"},{"poiid":"B2094655D264A7FC439D","title":"克莉丝汀 罗秀路店","lon":"121.430118054","lat":"31.130624793","category":"112","category_name":"糕饼店","address":"徐汇区罗秀路957号(近天等路)"},{"poiid":"B2094757D66EA1FC4299","title":"德利厨房","lon":"121.43557685","lat":"31.128235179","category":"249","category_name":"购物服务","address":"上海漕溪路"},{"poiid":"B2094654DB6CA2FC4992","title":"大华医院","lon":"121.43475","lat":"31.13261","category":"162","category_name":"医院","address":"徐汇区老沪闵路901号(老沪闵路罗秀路)"},{"poiid":"B2094757D06AAAFD479B","title":"天都火锅(虹梅店)","lon":"121.423830657","lat":"31.1236830363","category":"247","category_name":"餐饮美食","address":"上海虹梅南路1008号(莘朱路口)"},{"poiid":"B2094655D36DA7FA4899","title":"朱行","lon":"121.42371","lat":"31.1238","category":"38","category_name":"公交车站","address":""},{"poiid":"B2094757D068A0FB449A","title":"老沪闵路罗秀路","lon":"121.435804","lat":"31.132418","category":"500","category_name":"未知分类","address":"上海老沪闵路罗秀路"},{"poiid":"B2094757D06FA4F9419A","title":"梅陇十一村","lon":"121.42716","lat":"31.132442","category":"47","category_name":"住宅区","address":"上海上中西路天等路"},{"poiid":"B2094757D06FA2FB429E","title":"兴荣苑","lon":"121.43176","lat":"31.130054","category":"47","category_name":"住宅区","address":"上海市徐汇区罗秀路955弄"},{"poiid":"B2094757D065ABF4479E","title":"老沪闵路 朱梅路","lon":"121.436587","lat":"31.122507","category":"500","category_name":"未知分类","address":"上海老沪闵路,朱梅路"},{"poiid":"B2094654DB6CA2FC489E","title":"和平小区(罗秀路)","lon":"121.43076","lat":"31.13226","category":"47","category_name":"住宅区","address":"上海徐汇区罗秀路930弄(近天等路)"},{"poiid":"B2094757D06AA2F44592","title":"普乐三村","lon":"121.432746","lat":"31.123842","category":"252","category_name":"楼宇机构","address":"上海虹梅南路1555弄"},{"poiid":"B2094654DB6CA2FF4099","title":"老北京涮肉馆(罗秀路)","lon":"121.43386","lat":"31.13128","category":"86","category_name":"火锅店","address":"罗秀路847-849"},{"poiid":"B2094757D16FA2FD4998","title":"舒乐小区","lon":"121.43507","lat":"31.130444","category":"47","category_name":"住宅区","address":"上海老沪闵路1039弄"},{"poiid":"B2094654DB6CA2F5429C","title":"上海电力建设物资公司码头","lon":"121.43209","lat":"31.1264","category":"34","category_name":"港口码头","address":""},{"poiid":"B2094757D069A3F8409F","title":"振鼎鸡(罗秀路店)","lon":"121.43531899","lat":"31.130709827","category":"68","category_name":"快餐厅","address":"徐汇区罗秀路776号(近老沪闵路)"},{"poiid":"B2094757D064A6FF489B","title":"上海澳联玻璃有限公司","lon":"121.430289","lat":"31.126195","category":"46","category_name":"楼宇","address":"上海闵行区莘朱东路335号"},{"poiid":"B2094757D469A5F9479D","title":"兄弟连特色海鲜烧烤","lon":"121.43312","lat":"31.13133","category":"68","category_name":"快餐厅","address":"徐汇区罗秀路875号(近老沪闵路)"},{"poiid":"B2094757D069A6FC4299","title":"依依食府","lon":"121.433845","lat":"31.131212","category":"76","category_name":"上海菜","address":"徐汇区罗秀路853号(老沪闵路口)"},{"poiid":"B2094654DB69A5FD4298","title":"锦江之星(虹梅南路店)","lon":"121.42374","lat":"31.12445","category":"216","category_name":"经济型连锁酒店","address":"闵行区虹梅南路990号(近莘朱路)"},{"poiid":"B2094654DB6CA2F5429F","title":"山鹰码头","lon":"121.43395","lat":"31.12703","category":"34","category_name":"港口码头","address":"莘朱东路118号"},{"poiid":"B2094757D569A1F5479B","title":"都市宜家苑","lon":"121.43343833128","lat":"31.120746833073","category":"47","category_name":"住宅区","address":"上海市闵行区虹梅南路1661弄"},{"poiid":"B2094757D06AABFF4592","title":"天雅村酒店(梅陇店)","lon":"121.426893","lat":"31.13003","category":"76","category_name":"上海菜","address":"徐汇区罗秀路1111号(龙州路罗秀路)"},{"poiid":"B2094654DB6CA2FE429E","title":"天秀苑","lon":"121.43015","lat":"31.130064","category":"47","category_name":"住宅区","address":"上海市徐汇区罗秀路985弄"},{"poiid":"B2094757D069AAFB4992","title":"杨甲烧烤(罗秀路店)","lon":"121.43396","lat":"31.13099","category":"68","category_name":"快餐厅","address":"徐汇区罗秀路859号(近天等路)"},{"poiid":"B2094757D068A5F5409A","title":"文章酒楼(罗香路店)","lon":"121.435329185","lat":"31.134500201","category":"76","category_name":"上海菜","address":"上海徐汇区罗香路240号(近龙临路)"},{"poiid":"B2094757D069A1FF4492","title":"罗秀路","lon":"121.436782","lat":"31.1317771","category":"47","category_name":"住宅区","address":"上海徐汇区罗秀路"},{"poiid":"B2094654DB6CA2F5419F","title":"上海送变电工程公司","lon":"121.43354","lat":"31.12718","category":"263","category_name":"公司","address":"莘朱东路150"},{"poiid":"B2094757D068A7FC499A","title":"多样屋(天等路总部)","lon":"121.428948403","lat":"31.1338527134","category":"46","category_name":"楼宇","address":"徐汇区天等路188号(上中西路口)"},{"poiid":"B2094757D06AA1F84098","title":"上岛咖啡(虹梅南路店)","lon":"121.42386","lat":"31.12402","category":"260","category_name":"其他","address":"闵行区虹梅南路988(近莘朱路)"},{"poiid":"B2094757D16DA2FA4999","title":"贝壳熊牌加油站","lon":"121.431558357","lat":"31.1286019349","category":"154","category_name":"加油加气站","address":null},{"poiid":"B2094757D069A4F44999","title":"新招鲜罗秀路店","lon":"121.434994857","lat":"31.1303269694","category":"500","category_name":"未知分类","address":"上海罗秀路老沪闵路"},{"poiid":"B2094757D06BAAFF489C","title":"舒城苑","lon":"121.43513","lat":"31.12995","category":"252","category_name":"楼宇机构","address":"上海市徐汇区罗秀路725号"},{"poiid":"B2094757D66AA5FD489D","title":"新招鲜本地鸡窝 罗秀店","lon":"121.435343","lat":"31.13159","category":"86","category_name":"火锅店","address":"徐汇区罗秀路776号(老沪闵路口)"},{"poiid":"B2094757D16AA0FF419D","title":"豆捞坊仲盛店","lon":"121.42823325","lat":"31.124173396","category":"500","category_name":"未知分类","address":"上海莘庄百盛"},{"poiid":"B2094757D064A7FB4398","title":"中石油龙州加油站","lon":"121.43158485","lat":"31.129576954","category":"154","category_name":"加油加气站","address":"上海市徐汇区龙州路"},{"poiid":"B2094757D16BA6FE4793","title":"凌云路街道办事处","lon":"121.431375957","lat":"31.1293146491","category":"500","category_name":"未知分类","address":"上海虹梅南路"},{"poiid":"B2094757D164A7F94892","title":"顶顶烧烤","lon":"121.43417785","lat":"31.131133985","category":"247","category_name":"餐饮美食","address":"徐汇区罗绣路843号(近老沪闵路)"},{"poiid":"B2094757D169A1FA409F","title":"优麦时尚量贩式歌城","lon":"121.423388","lat":"31.123964","category":"170","category_name":"KTV","address":"上海闵行区虹梅南路1005号(苏宁电器3楼)"},{"poiid":"B2094757D469A7FB4999","title":"清真精品牛肉面王","lon":"121.431247","lat":"31.131154","category":"90","category_name":"清真餐馆","address":"徐汇区罗秀路908号(近天等路)"},{"poiid":"B2094757D16DABFE419F","title":"兄弟连烧烤","lon":"121.43465885","lat":"31.129588954","category":"247","category_name":"餐饮美食","address":"上海罗秀路菜场近老沪闵路"},{"poiid":"B2094655D265A7F54393","title":"徐汇凌云开业园区","lon":"121.43476","lat":"31.12983","category":"45","category_name":"产业园区","address":"老沪闵路1055弄38"},{"poiid":"B2094757D16CA1FE469C","title":"莲花南路外环路S20","lon":"121.431793","lat":"31.12104","category":"500","category_name":"未知分类","address":"上海莲花南路外环路S20"},{"poiid":"B2094655D26BA1FB4199","title":"罗秀路天等路","lon":"121.43054","lat":"31.13093","category":"38","category_name":"公交车站","address":""},{"poiid":"B2094654DB6CA2FA409C","title":"光明乳业长桥配送站","lon":"121.43714","lat":"31.12733","category":"117","category_name":"便民商店/便利店","address":""},{"poiid":"B2094655D36CA5F4469B","title":"北杨村","lon":"121.43744","lat":"31.12524","category":"38","category_name":"公交车站","address":""},{"poiid":"B2094654DB6CA2FF4199","title":"舒乐公寓","lon":"121.43489","lat":"31.131275","category":"47","category_name":"住宅区","address":"罗秀路717弄1-3号"},{"poiid":"B2094757D06AA1F4439C","title":"凌云路嘉川路","lon":"121.429863857","lat":"31.1289769424","category":"500","category_name":"未知分类","address":"上海凌云路嘉川路口"},{"poiid":"B2094655D265A3FA4893","title":"上海市实验学校附属小学","lon":"121.42889","lat":"31.13158","category":"56","category_name":"小学","address":"徐汇区天等路75号(上中西路天等路)"},{"poiid":"B2094654DB6CA2FE4699","title":"金色年华发型美容","lon":"121.43181","lat":"31.13095","category":"148","category_name":"美容美发店","address":"罗秀路947-1"},{"poiid":"B2094654DB6CA2FD4193","title":"家乐苑","lon":"121.43154","lat":"31.135004","category":"47","category_name":"住宅区","address":"上海上中西路55弄"},{"poiid":"B2094655D264A7FC439D","title":"克莉丝汀 罗秀路店","lon":"121.430118054","lat":"31.130624793","category":"112","category_name":"糕饼店","address":"徐汇区罗秀路957号(近天等路)"},{"poiid":"B2094757D66EA1FC4299","title":"德利厨房","lon":"121.43557685","lat":"31.128235179","category":"249","category_name":"购物服务","address":"上海漕溪路"},{"poiid":"B2094654DB6CA2FC4992","title":"大华医院","lon":"121.43475","lat":"31.13261","category":"162","category_name":"医院","address":"徐汇区老沪闵路901号(老沪闵路罗秀路)"},{"poiid":"B2094757D06AAAFD479B","title":"天都火锅(虹梅店)","lon":"121.423830657","lat":"31.1236830363","category":"247","category_name":"餐饮美食","address":"上海虹梅南路1008号(莘朱路口)"},{"poiid":"B2094655D36DA7FA4899","title":"朱行","lon":"121.42371","lat":"31.1238","category":"38","category_name":"公交车站","address":""},{"poiid":"B2094757D068A0FB449A","title":"老沪闵路罗秀路","lon":"121.435804","lat":"31.132418","category":"500","category_name":"未知分类","address":"上海老沪闵路罗秀路"},{"poiid":"B2094757D06FA4F9419A","title":"梅陇十一村","lon":"121.42716","lat":"31.132442","category":"47","category_name":"住宅区","address":"上海上中西路天等路"},{"poiid":"B2094757D06FA2FB429E","title":"兴荣苑","lon":"121.43176","lat":"31.130054","category":"47","category_name":"住宅区","address":"上海市徐汇区罗秀路955弄"},{"poiid":"B2094757D065ABF4479E","title":"老沪闵路 朱梅路","lon":"121.436587","lat":"31.122507","category":"500","category_name":"未知分类","address":"上海老沪闵路,朱梅路"},{"poiid":"B2094654DB6CA2FC489E","title":"和平小区(罗秀路)","lon":"121.43076","lat":"31.13226","category":"47","category_name":"住宅区","address":"上海徐汇区罗秀路930弄(近天等路)"},{"poiid":"B2094757D06AA2F44592","title":"普乐三村","lon":"121.432746","lat":"31.123842","category":"252","category_name":"楼宇机构","address":"上海虹梅南路1555弄"},{"poiid":"B2094654DB6CA2FF4099","title":"老北京涮肉馆(罗秀路)","lon":"121.43386","lat":"31.13128","category":"86","category_name":"火锅店","address":"罗秀路847-849"},{"poiid":"B2094757D16FA2FD4998","title":"舒乐小区","lon":"121.43507","lat":"31.130444","category":"47","category_name":"住宅区","address":"上海老沪闵路1039弄"},{"poiid":"B2094654DB6CA2F5429C","title":"上海电力建设物资公司码头","lon":"121.43209","lat":"31.1264","category":"34","category_name":"港口码头","address":""},{"poiid":"B2094757D069A3F8409F","title":"振鼎鸡(罗秀路店)","lon":"121.43531899","lat":"31.130709827","category":"68","category_name":"快餐厅","address":"徐汇区罗秀路776号(近老沪闵路)"},{"poiid":"B2094757D064A6FF489B","title":"上海澳联玻璃有限公司","lon":"121.430289","lat":"31.126195","category":"46","category_name":"楼宇","address":"上海闵行区莘朱东路335号"},{"poiid":"B2094757D469A5F9479D","title":"兄弟连特色海鲜烧烤","lon":"121.43312","lat":"31.13133","category":"68","category_name":"快餐厅","address":"徐汇区罗秀路875号(近老沪闵路)"},{"poiid":"B2094757D069A6FC4299","title":"依依食府","lon":"121.433845","lat":"31.131212","category":"76","category_name":"上海菜","address":"徐汇区罗秀路853号(老沪闵路口)"},{"poiid":"B2094654DB69A5FD4298","title":"锦江之星(虹梅南路店)","lon":"121.42374","lat":"31.12445","category":"216","category_name":"经济型连锁酒店","address":"闵行区虹梅南路990号(近莘朱路)"},{"poiid":"B2094654DB6CA2F5429F","title":"山鹰码头","lon":"121.43395","lat":"31.12703","category":"34","category_name":"港口码头","address":"莘朱东路118号"},{"poiid":"B2094757D569A1F5479B","title":"都市宜家苑","lon":"121.43343833128","lat":"31.120746833073","category":"47","category_name":"住宅区","address":"上海市闵行区虹梅南路1661弄"},{"poiid":"B2094757D06AABFF4592","title":"天雅村酒店(梅陇店)","lon":"121.426893","lat":"31.13003","category":"76","category_name":"上海菜","address":"徐汇区罗秀路1111号(龙州路罗秀路)"},{"poiid":"B2094654DB6CA2FE429E","title":"天秀苑","lon":"121.43015","lat":"31.130064","category":"47","category_name":"住宅区","address":"上海市徐汇区罗秀路985弄"},{"poiid":"B2094757D069AAFB4992","title":"杨甲烧烤(罗秀路店)","lon":"121.43396","lat":"31.13099","category":"68","category_name":"快餐厅","address":"徐汇区罗秀路859号(近天等路)"},{"poiid":"B2094757D068A5F5409A","title":"文章酒楼(罗香路店)","lon":"121.435329185","lat":"31.134500201","category":"76","category_name":"上海菜","address":"上海徐汇区罗香路240号(近龙临路)"},{"poiid":"B2094757D069A1FF4492","title":"罗秀路","lon":"121.436782","lat":"31.1317771","category":"47","category_name":"住宅区","address":"上海徐汇区罗秀路"},{"poiid":"B2094654DB6CA2F5419F","title":"上海送变电工程公司","lon":"121.43354","lat":"31.12718","category":"263","category_name":"公司","address":"莘朱东路150"},{"poiid":"B2094757D068A7FC499A","title":"多样屋(天等路总部)","lon":"121.428948403","lat":"31.1338527134","category":"46","category_name":"楼宇","address":"徐汇区天等路188号(上中西路口)"},{"poiid":"B2094757D06AA1F84098","title":"上岛咖啡(虹梅南路店)","lon":"121.42386","lat":"31.12402","category":"260","category_name":"其他","address":"闵行区虹梅南路988(近莘朱路)"},{"poiid":"B2094757D16DA2FA4999","title":"贝壳熊牌加油站","lon":"121.431558357","lat":"31.1286019349","category":"154","category_name":"加油加气站","address":null},{"poiid":"B2094757D069A4F44999","title":"新招鲜罗秀路店","lon":"121.434994857","lat":"31.1303269694","category":"500","category_name":"未知分类","address":"上海罗秀路老沪闵路"},{"poiid":"B2094757D06BAAFF489C","title":"舒城苑","lon":"121.43513","lat":"31.12995","category":"252","category_name":"楼宇机构","address":"上海市徐汇区罗秀路725号"},{"poiid":"B2094757D66AA5FD489D","title":"新招鲜本地鸡窝 罗秀店","lon":"121.435343","lat":"31.13159","category":"86","category_name":"火锅店","address":"徐汇区罗秀路776号(老沪闵路口)"},{"poiid":"B2094757D16AA0FF419D","title":"豆捞坊仲盛店","lon":"121.42823325","lat":"31.124173396","category":"500","category_name":"未知分类","address":"上海莘庄百盛"},{"poiid":"B2094757D064A7FB4398","title":"中石油龙州加油站","lon":"121.43158485","lat":"31.129576954","category":"154","category_name":"加油加气站","address":"上海市徐汇区龙州路"},{"poiid":"B2094757D16BA6FE4793","title":"凌云路街道办事处","lon":"121.431375957","lat":"31.1293146491","category":"500","category_name":"未知分类","address":"上海虹梅南路"},{"poiid":"B2094757D164A7F94892","title":"顶顶烧烤","lon":"121.43417785","lat":"31.131133985","category":"247","category_name":"餐饮美食","address":"徐汇区罗绣路843号(近老沪闵路)"},{"poiid":"B2094757D169A1FA409F","title":"优麦时尚量贩式歌城","lon":"121.423388","lat":"31.123964","category":"170","category_name":"KTV","address":"上海闵行区虹梅南路1005号(苏宁电器3楼)"},{"poiid":"B2094757D469A7FB4999","title":"清真精品牛肉面王","lon":"121.431247","lat":"31.131154","category":"90","category_name":"清真餐馆","address":"徐汇区罗秀路908号(近天等路)"},{"poiid":"B2094757D16DABFE419F","title":"兄弟连烧烤","lon":"121.43465885","lat":"31.129588954","category":"247","category_name":"餐饮美食","address":"上海罗秀路菜场近老沪闵路"},{"poiid":"B2094655D265A7F54393","title":"徐汇凌云开业园区","lon":"121.43476","lat":"31.12983","category":"45","category_name":"产业园区","address":"老沪闵路1055弄38"},{"poiid":"B2094757D16CA1FE469C","title":"莲花南路外环路S20","lon":"121.431793","lat":"31.12104","category":"500","category_name":"未知分类","address":"上海莲花南路外环路S20"},{"poiid":"B2094655D26BA1FB4199","title":"罗秀路天等路","lon":"121.43054","lat":"31.13093","category":"38","category_name":"公交车站","address":""},{"poiid":"B2094654DB6CA2FA409C","title":"光明乳业长桥配送站","lon":"121.43714","lat":"31.12733","category":"117","category_name":"便民商店/便利店","address":""},{"poiid":"B2094655D36CA5F4469B","title":"北杨村","lon":"121.43744","lat":"31.12524","category":"38","category_name":"公交车站","address":""},{"poiid":"B2094654DB6CA2FF4199","title":"舒乐公寓","lon":"121.43489","lat":"31.131275","category":"47","category_name":"住宅区","address":"罗秀路717弄1-3号"},{"poiid":"B2094757D06AA1F4439C","title":"凌云路嘉川路","lon":"121.429863857","lat":"31.1289769424","category":"500","category_name":"未知分类","address":"上海凌云路嘉川路口"},{"poiid":"B2094655D265A3FA4893","title":"上海市实验学校附属小学","lon":"121.42889","lat":"31.13158","category":"56","category_name":"小学","address":"徐汇区天等路75号(上中西路天等路)"},{"poiid":"B2094654DB6CA2FE4699","title":"金色年华发型美容","lon":"121.43181","lat":"31.13095","category":"148","category_name":"美容美发店","address":"罗秀路947-1"},{"poiid":"B2094654DB6CA2FD4193","title":"家乐苑","lon":"121.43154","lat":"31.135004","category":"47","category_name":"住宅区","address":"上海上中西路55弄"},{"poiid":"B2094655D264A7FC439D","title":"克莉丝汀 罗秀路店","lon":"121.430118054","lat":"31.130624793","category":"112","category_name":"糕饼店","address":"徐汇区罗秀路957号(近天等路)"},{"poiid":"B2094757D66EA1FC4299","title":"德利厨房","lon":"121.43557685","lat":"31.128235179","category":"249","category_name":"购物服务","address":"上海漕溪路"}]