[{"poiid":"B2094757D06EAAF44298","title":"盈田盈粥庄","lon":"121.56662","lat":"31.24416","category":"72","category_name":"广东菜","address":"浦东新区德平路777号(近羽山路)"},{"poiid":"B2094757D068A7F8499A","title":"浦东新区房产交易中心","lon":"121.56503497","lat":"31.246380438","category":"500","category_name":"未知分类","address":"上海张杨路德平路"},{"poiid":"B2094757D06FA3FA479C","title":"名人苑","lon":"121.56677011772149","lat":"31.24642229889824","category":"196","category_name":"公园","address":"浦东新区张杨路2988号(近居家桥路)"},{"poiid":"B2094757D06FA4FF469E","title":"罗曼园高级婚礼会馆(浦东店)","lon":"121.56599539442539","lat":"31.245736684141356","category":"184","category_name":"美术馆","address":"浦东新区张杨路2948号查看地图"},{"poiid":"B2094757D06FA2FC4292","title":"德平路地铁站","lon":"121.56418327","lat":"31.245292273","category":"36","category_name":"地铁站","address":"上海轨道交通 六号线 轨交德平路站 6"},{"poiid":"B2094757D165A5FD429E","title":"在路上(杨浦大桥上)","lon":"121.561273575","lat":"31.2427963548","category":"500","category_name":"未知分类","address":"上海杨浦大桥"},{"poiid":"B2094757D069A3FE409E","title":"肯德基 博山东路店 KFC","lon":"121.560610054","lat":"31.247954793","category":"68","category_name":"快餐厅","address":"浦东新区博山东路50号(博山东路万德路)"},{"poiid":"B2094654DA69A2FC469B","title":"浦东邮政大厦","lon":"121.5649","lat":"31.24658","category":"46","category_name":"楼宇","address":"浦东区丁香路716号"},{"poiid":"B2094757D06BAAFD4692","title":"浦东新区房地产交易中心","lon":"121.56492237","lat":"31.246139233","category":"500","category_name":"未知分类","address":"上海张扬路2899号(邮政大厦)一楼近德平路口"},{"poiid":"B2094757D068A5FE479A","title":"罗山新村","lon":"121.564161","lat":"31.245353","category":"47","category_name":"住宅区","address":"上海浦东新区德平路(近博山路)"},{"poiid":"B2094757D068A3F54493","title":"永达汽车浦东贸易","lon":"121.562179565","lat":"31.2447547913","category":"158","category_name":"汽车销售","address":"浦东新区张杨路2761号(罗山路张杨路)"},{"poiid":"B2094655D265A7FE409C","title":"东豫郎热气涮羊肉烧烤德平店","lon":"121.56671","lat":"31.2445","category":"87","category_name":"特色／地方风味餐厅","address":"浦东新区羽山路1969号107(近德平路)"},{"poiid":"B2094757D068A1FF4998","title":"新招鲜本地鸡窝 德平店","lon":"121.566250054","lat":"31.243976793","category":"86","category_name":"火锅店","address":"浦东新区羽山路1969号(加油站对面)"},{"poiid":"B2094757D068ABFD479D","title":"85度C(博山店)","lon":"121.560709","lat":"31.247539","category":"67","category_name":"甜品店","address":"浦东新区博山东路78号1楼"},{"poiid":"B2094757D06FA1FB479D","title":"羽山台球俱乐部","lon":"121.56801","lat":"31.24438","category":"171","category_name":"台球厅","address":"浦东新区羽山路1969号2楼(近德平路)"},{"poiid":"B2094655D26FA5FF4499","title":"上泰花苑","lon":"121.56345","lat":"31.24615","category":"47","category_name":"住宅区","address":"上海市浦东新区张扬路2855弄(德平路口)"},{"poiid":"B2094655D265A7FA459F","title":"食知味","lon":"121.56696","lat":"31.24464","category":"257","category_name":"中餐厅","address":"浦东新区羽山路1923号(近德平路)"},{"poiid":"B2094757D069ABFF459A","title":"万德路博山东路","lon":"121.560571","lat":"31.247934","category":"500","category_name":"未知分类","address":"上海万德路博山东路"},{"poiid":"B2094655D26AA0FA439E","title":"地铁德平路站","lon":"121.56416","lat":"31.24535","category":"36","category_name":"地铁站","address":""},{"poiid":"B2094655D36DA7FD4993","title":"张杨路罗山路","lon":"121.56016","lat":"31.24327","category":"38","category_name":"公交车站","address":""},{"poiid":"B2094757D064A3FE419D","title":"浦东新区疾病预防控制中心","lon":"121.5677146","lat":"31.248057852","category":"500","category_name":"未知分类","address":"上海张杨路3039号"},{"poiid":"B2094757D16DA0FF4799","title":"广东生滚粥","lon":"121.56559","lat":"31.24512","category":"247","category_name":"餐饮美食","address":"上海浦东新区德平路777号(羽山路)  "},{"poiid":"B2094654DA69A1F9479A","title":"仁和花苑","lon":"121.56505","lat":"31.24483","category":"47","category_name":"住宅区","address":"德平路730弄1-30号"},{"poiid":"B2094654DA69A1F9469D","title":"罗曼园花园餐厅","lon":"121.56253279952","lat":"31.246184763258","category":"257","category_name":"中餐厅","address":"德平路741号近张杨路"},{"poiid":"B2094655D36DA7FD4998","title":"张杨路德平路","lon":"121.56481","lat":"31.24558","category":"38","category_name":"公交车站","address":""},{"poiid":"B2094655D36DA6FD4199","title":"德平路","lon":"121.56416","lat":"31.24535","category":"38","category_name":"公交车站","address":""},{"poiid":"B2094654DA69A1F94992","title":"香山新村西北街坊","lon":"121.5671","lat":"31.242519","category":"47","category_name":"住宅区","address":"德平路1671弄1066弄"},{"poiid":"B2094655D36DA7FD499B","title":"张杨路","lon":"121.56471","lat":"31.24617","category":"38","category_name":"公交车站","address":""},{"poiid":"B2094757D064A3FE409C","title":"广洋华景苑","lon":"121.56556152265","lat":"31.247537457799","category":"47","category_name":"住宅区","address":"上海市闸北区场中路3300弄"},{"poiid":"B2094655D265A7FD4892","title":"三江购物","lon":"121.56454","lat":"31.24514","category":"119","category_name":"商场","address":""},{"poiid":"B2094757D469A2FF4992","title":"小巧面馆","lon":"121.565160054","lat":"31.246708793","category":"68","category_name":"快餐厅","address":"浦东新区德平路758号(张杨路灵山路之间)"},{"poiid":"B2094654DB65AAFB4998","title":"名人苑游泳馆","lon":"121.56708","lat":"31.24662","category":"231","category_name":"游泳馆","address":"浦东新区张扬路2988号"},{"poiid":"B2094757D16DABFD469A","title":"培正逗点金桥总部","lon":"121.5653513","lat":"31.245944761","category":"500","category_name":"未知分类","address":"上海云山路886号3楼"},{"poiid":"B2094757D069A2F4499C","title":"传奇火锅 羽山路店","lon":"121.566389054","lat":"31.244000793","category":"86","category_name":"火锅店","address":"浦东新区羽山路1969号(近德平路)"},{"poiid":"B2094757D06AA7FB479E","title":"JEANS日系SALON","lon":"121.567934","lat":"31.242228","category":"148","category_name":"美容美发店","address":"上海浦东新区灵山路1738号2楼(近德平路)"},{"poiid":"B2094655D26EA7FE469A","title":"天虹苑","lon":"121.56728","lat":"31.242554","category":"47","category_name":"住宅区","address":"德平路1060弄"},{"poiid":"B2094757D065AAFD479E","title":"浦东德平路","lon":"121.564862","lat":"31.2459226","category":"500","category_name":"未知分类","address":"上海德平路"},{"poiid":"B2094654DA69A1F9479C","title":"艾山新村","lon":"121.56529","lat":"31.244177","category":"47","category_name":"住宅区","address":"上海德平路764弄"},{"poiid":"B2094654DA69A1F94799","title":"九龄大药房","lon":"121.56547","lat":"31.24477","category":"162","category_name":"医院","address":"浦东新区德平路748号(近张杨路)"},{"poiid":"B2094757D064A7F84792","title":"东周线","lon":"121.563544","lat":"31.24542","category":"38","category_name":"公交车站","address":"上海周浦医院至东高路张扬北路"},{"poiid":"B2094655D36DA0F54192","title":"羽山路德平路","lon":"121.56722","lat":"31.24442","category":"38","category_name":"公交车站","address":""},{"poiid":"B2094757DA6FA3FC439F","title":"自由港量贩式KTV(博山店)","lon":"121.560709","lat":"31.2475390000002","category":"170","category_name":"KTV","address":"浦东新区博山东路78号博达百货3楼(近万德路)"},{"poiid":"B2094757D66CA2FE489E","title":"豪大大鸡排","lon":"121.56453697","lat":"31.246284436","category":"247","category_name":"餐饮美食","address":"上海市浦东新区德平路264号"},{"poiid":"B2094654DA69A2FD4892","title":"快客No.6367","lon":"121.56425","lat":"31.24635","category":"117","category_name":"便民商店/便利店","address":"德平路262"},{"poiid":"B2094654DA69A1F94793","title":"艾山新村(东门)","lon":"121.56571","lat":"31.24466","category":"47","category_name":"住宅区","address":"德平路764弄"},{"poiid":"B2094654DB6BAAFD4398","title":"仁和花苑(北门)","lon":"121.56341","lat":"31.24448","category":"47","category_name":"住宅区","address":"德平路730弄1-30号"},{"poiid":"B2094654DA69A1F94898","title":"快客No.6641","lon":"121.56584","lat":"31.24444","category":"117","category_name":"便民商店/便利店","address":"德平路768"},{"poiid":"B2094757D569A0F84992","title":"古池专业时尚沙龙","lon":"121.5637991","lat":"31.24561306","category":"148","category_name":"美容美发店","address":"张杨路2853-1"},{"poiid":"B2094757D66FA3F5499F","title":"浦东房产交易中心","lon":"121.564945775","lat":"31.2460810317","category":"500","category_name":"未知分类","address":"上海张杨路德平路"},{"poiid":"B2094654DA69A1F9489E","title":"上海东辰口腔门诊部","lon":"121.56596","lat":"31.2443","category":"162","category_name":"医院","address":"德平路770临-1"},{"poiid":"B2094757D06EAAF44298","title":"盈田盈粥庄","lon":"121.56662","lat":"31.24416","category":"72","category_name":"广东菜","address":"浦东新区德平路777号(近羽山路)"},{"poiid":"B2094757D068A7F8499A","title":"浦东新区房产交易中心","lon":"121.56503497","lat":"31.246380438","category":"500","category_name":"未知分类","address":"上海张杨路德平路"},{"poiid":"B2094757D06FA3FA479C","title":"名人苑","lon":"121.56677011772149","lat":"31.24642229889824","category":"196","category_name":"公园","address":"浦东新区张杨路2988号(近居家桥路)"},{"poiid":"B2094757D06FA4FF469E","title":"罗曼园高级婚礼会馆(浦东店)","lon":"121.56599539442539","lat":"31.245736684141356","category":"184","category_name":"美术馆","address":"浦东新区张杨路2948号查看地图"},{"poiid":"B2094757D06FA2FC4292","title":"德平路地铁站","lon":"121.56418327","lat":"31.245292273","category":"36","category_name":"地铁站","address":"上海轨道交通 六号线 轨交德平路站 6"},{"poiid":"B2094757D165A5FD429E","title":"在路上(杨浦大桥上)","lon":"121.561273575","lat":"31.2427963548","category":"500","category_name":"未知分类","address":"上海杨浦大桥"},{"poiid":"B2094757D069A3FE409E","title":"肯德基 博山东路店 KFC","lon":"121.560610054","lat":"31.247954793","category":"68","category_name":"快餐厅","address":"浦东新区博山东路50号(博山东路万德路)"},{"poiid":"B2094654DA69A2FC469B","title":"浦东邮政大厦","lon":"121.5649","lat":"31.24658","category":"46","category_name":"楼宇","address":"浦东区丁香路716号"},{"poiid":"B2094757D06BAAFD4692","title":"浦东新区房地产交易中心","lon":"121.56492237","lat":"31.246139233","category":"500","category_name":"未知分类","address":"上海张扬路2899号(邮政大厦)一楼近德平路口"},{"poiid":"B2094757D068A5FE479A","title":"罗山新村","lon":"121.564161","lat":"31.245353","category":"47","category_name":"住宅区","address":"上海浦东新区德平路(近博山路)"},{"poiid":"B2094757D068A3F54493","title":"永达汽车浦东贸易","lon":"121.562179565","lat":"31.2447547913","category":"158","category_name":"汽车销售","address":"浦东新区张杨路2761号(罗山路张杨路)"},{"poiid":"B2094655D265A7FE409C","title":"东豫郎热气涮羊肉烧烤德平店","lon":"121.56671","lat":"31.2445","category":"87","category_name":"特色／地方风味餐厅","address":"浦东新区羽山路1969号107(近德平路)"},{"poiid":"B2094757D068A1FF4998","title":"新招鲜本地鸡窝 德平店","lon":"121.566250054","lat":"31.243976793","category":"86","category_name":"火锅店","address":"浦东新区羽山路1969号(加油站对面)"},{"poiid":"B2094757D068ABFD479D","title":"85度C(博山店)","lon":"121.560709","lat":"31.247539","category":"67","category_name":"甜品店","address":"浦东新区博山东路78号1楼"},{"poiid":"B2094757D06FA1FB479D","title":"羽山台球俱乐部","lon":"121.56801","lat":"31.24438","category":"171","category_name":"台球厅","address":"浦东新区羽山路1969号2楼(近德平路)"},{"poiid":"B2094655D26FA5FF4499","title":"上泰花苑","lon":"121.56345","lat":"31.24615","category":"47","category_name":"住宅区","address":"上海市浦东新区张扬路2855弄(德平路口)"},{"poiid":"B2094655D265A7FA459F","title":"食知味","lon":"121.56696","lat":"31.24464","category":"257","category_name":"中餐厅","address":"浦东新区羽山路1923号(近德平路)"},{"poiid":"B2094757D069ABFF459A","title":"万德路博山东路","lon":"121.560571","lat":"31.247934","category":"500","category_name":"未知分类","address":"上海万德路博山东路"},{"poiid":"B2094655D26AA0FA439E","title":"地铁德平路站","lon":"121.56416","lat":"31.24535","category":"36","category_name":"地铁站","address":""},{"poiid":"B2094655D36DA7FD4993","title":"张杨路罗山路","lon":"121.56016","lat":"31.24327","category":"38","category_name":"公交车站","address":""},{"poiid":"B2094757D064A3FE419D","title":"浦东新区疾病预防控制中心","lon":"121.5677146","lat":"31.248057852","category":"500","category_name":"未知分类","address":"上海张杨路3039号"},{"poiid":"B2094757D16DA0FF4799","title":"广东生滚粥","lon":"121.56559","lat":"31.24512","category":"247","category_name":"餐饮美食","address":"上海浦东新区德平路777号(羽山路)  "},{"poiid":"B2094654DA69A1F9479A","title":"仁和花苑","lon":"121.56505","lat":"31.24483","category":"47","category_name":"住宅区","address":"德平路730弄1-30号"},{"poiid":"B2094654DA69A1F9469D","title":"罗曼园花园餐厅","lon":"121.56253279952","lat":"31.246184763258","category":"257","category_name":"中餐厅","address":"德平路741号近张杨路"},{"poiid":"B2094655D36DA7FD4998","title":"张杨路德平路","lon":"121.56481","lat":"31.24558","category":"38","category_name":"公交车站","address":""},{"poiid":"B2094655D36DA6FD4199","title":"德平路","lon":"121.56416","lat":"31.24535","category":"38","category_name":"公交车站","address":""},{"poiid":"B2094654DA69A1F94992","title":"香山新村西北街坊","lon":"121.5671","lat":"31.242519","category":"47","category_name":"住宅区","address":"德平路1671弄1066弄"},{"poiid":"B2094655D36DA7FD499B","title":"张杨路","lon":"121.56471","lat":"31.24617","category":"38","category_name":"公交车站","address":""},{"poiid":"B2094757D064A3FE409C","title":"广洋华景苑","lon":"121.56556152265","lat":"31.247537457799","category":"47","category_name":"住宅区","address":"上海市闸北区场中路3300弄"},{"poiid":"B2094655D265A7FD4892","title":"三江购物","lon":"121.56454","lat":"31.24514","category":"119","category_name":"商场","address":""},{"poiid":"B2094757D469A2FF4992","title":"小巧面馆","lon":"121.565160054","lat":"31.246708793","category":"68","category_name":"快餐厅","address":"浦东新区德平路758号(张杨路灵山路之间)"},{"poiid":"B2094654DB65AAFB4998","title":"名人苑游泳馆","lon":"121.56708","lat":"31.24662","category":"231","category_name":"游泳馆","address":"浦东新区张扬路2988号"},{"poiid":"B2094757D16DABFD469A","title":"培正逗点金桥总部","lon":"121.5653513","lat":"31.245944761","category":"500","category_name":"未知分类","address":"上海云山路886号3楼"},{"poiid":"B2094757D069A2F4499C","title":"传奇火锅 羽山路店","lon":"121.566389054","lat":"31.244000793","category":"86","category_name":"火锅店","address":"浦东新区羽山路1969号(近德平路)"},{"poiid":"B2094757D06AA7FB479E","title":"JEANS日系SALON","lon":"121.567934","lat":"31.242228","category":"148","category_name":"美容美发店","address":"上海浦东新区灵山路1738号2楼(近德平路)"},{"poiid":"B2094655D26EA7FE469A","title":"天虹苑","lon":"121.56728","lat":"31.242554","category":"47","category_name":"住宅区","address":"德平路1060弄"},{"poiid":"B2094757D065AAFD479E","title":"浦东德平路","lon":"121.564862","lat":"31.2459226","category":"500","category_name":"未知分类","address":"上海德平路"},{"poiid":"B2094654DA69A1F9479C","title":"艾山新村","lon":"121.56529","lat":"31.244177","category":"47","category_name":"住宅区","address":"上海德平路764弄"},{"poiid":"B2094654DA69A1F94799","title":"九龄大药房","lon":"121.56547","lat":"31.24477","category":"162","category_name":"医院","address":"浦东新区德平路748号(近张杨路)"},{"poiid":"B2094757D064A7F84792","title":"东周线","lon":"121.563544","lat":"31.24542","category":"38","category_name":"公交车站","address":"上海周浦医院至东高路张扬北路"},{"poiid":"B2094655D36DA0F54192","title":"羽山路德平路","lon":"121.56722","lat":"31.24442","category":"38","category_name":"公交车站","address":""},{"poiid":"B2094757DA6FA3FC439F","title":"自由港量贩式KTV(博山店)","lon":"121.560709","lat":"31.2475390000002","category":"170","category_name":"KTV","address":"浦东新区博山东路78号博达百货3楼(近万德路)"},{"poiid":"B2094757D66CA2FE489E","title":"豪大大鸡排","lon":"121.56453697","lat":"31.246284436","category":"247","category_name":"餐饮美食","address":"上海市浦东新区德平路264号"},{"poiid":"B2094654DA69A2FD4892","title":"快客No.6367","lon":"121.56425","lat":"31.24635","category":"117","category_name":"便民商店/便利店","address":"德平路262"},{"poiid":"B2094654DA69A1F94793","title":"艾山新村(东门)","lon":"121.56571","lat":"31.24466","category":"47","category_name":"住宅区","address":"德平路764弄"},{"poiid":"B2094654DB6BAAFD4398","title":"仁和花苑(北门)","lon":"121.56341","lat":"31.24448","category":"47","category_name":"住宅区","address":"德平路730弄1-30号"},{"poiid":"B2094654DA69A1F94898","title":"快客No.6641","lon":"121.56584","lat":"31.24444","category":"117","category_name":"便民商店/便利店","address":"德平路768"},{"poiid":"B2094757D569A0F84992","title":"古池专业时尚沙龙","lon":"121.5637991","lat":"31.24561306","category":"148","category_name":"美容美发店","address":"张杨路2853-1"},{"poiid":"B2094757D66FA3F5499F","title":"浦东房产交易中心","lon":"121.564945775","lat":"31.2460810317","category":"500","category_name":"未知分类","address":"上海张杨路德平路"},{"poiid":"B2094654DA69A1F9489E","title":"上海东辰口腔门诊部","lon":"121.56596","lat":"31.2443","category":"162","category_name":"医院","address":"德平路770临-1"},{"poiid":"B2094757D06EAAF44298","title":"盈田盈粥庄","lon":"121.56662","lat":"31.24416","category":"72","category_name":"广东菜","address":"浦东新区德平路777号(近羽山路)"},{"poiid":"B2094757D068A7F8499A","title":"浦东新区房产交易中心","lon":"121.56503497","lat":"31.246380438","category":"500","category_name":"未知分类","address":"上海张杨路德平路"},{"poiid":"B2094757D06FA3FA479C","title":"名人苑","lon":"121.56677011772149","lat":"31.24642229889824","category":"196","category_name":"公园","address":"浦东新区张杨路2988号(近居家桥路)"},{"poiid":"B2094757D06FA4FF469E","title":"罗曼园高级婚礼会馆(浦东店)","lon":"121.56599539442539","lat":"31.245736684141356","category":"184","category_name":"美术馆","address":"浦东新区张杨路2948号查看地图"},{"poiid":"B2094757D06FA2FC4292","title":"德平路地铁站","lon":"121.56418327","lat":"31.245292273","category":"36","category_name":"地铁站","address":"上海轨道交通 六号线 轨交德平路站 6"},{"poiid":"B2094757D165A5FD429E","title":"在路上(杨浦大桥上)","lon":"121.561273575","lat":"31.2427963548","category":"500","category_name":"未知分类","address":"上海杨浦大桥"},{"poiid":"B2094757D069A3FE409E","title":"肯德基 博山东路店 KFC","lon":"121.560610054","lat":"31.247954793","category":"68","category_name":"快餐厅","address":"浦东新区博山东路50号(博山东路万德路)"},{"poiid":"B2094654DA69A2FC469B","title":"浦东邮政大厦","lon":"121.5649","lat":"31.24658","category":"46","category_name":"楼宇","address":"浦东区丁香路716号"},{"poiid":"B2094757D06BAAFD4692","title":"浦东新区房地产交易中心","lon":"121.56492237","lat":"31.246139233","category":"500","category_name":"未知分类","address":"上海张扬路2899号(邮政大厦)一楼近德平路口"},{"poiid":"B2094757D068A5FE479A","title":"罗山新村","lon":"121.564161","lat":"31.245353","category":"47","category_name":"住宅区","address":"上海浦东新区德平路(近博山路)"},{"poiid":"B2094757D068A3F54493","title":"永达汽车浦东贸易","lon":"121.562179565","lat":"31.2447547913","category":"158","category_name":"汽车销售","address":"浦东新区张杨路2761号(罗山路张杨路)"},{"poiid":"B2094655D265A7FE409C","title":"东豫郎热气涮羊肉烧烤德平店","lon":"121.56671","lat":"31.2445","category":"87","category_name":"特色／地方风味餐厅","address":"浦东新区羽山路1969号107(近德平路)"},{"poiid":"B2094757D068A1FF4998","title":"新招鲜本地鸡窝 德平店","lon":"121.566250054","lat":"31.243976793","category":"86","category_name":"火锅店","address":"浦东新区羽山路1969号(加油站对面)"},{"poiid":"B2094757D068ABFD479D","title":"85度C(博山店)","lon":"121.560709","lat":"31.247539","category":"67","category_name":"甜品店","address":"浦东新区博山东路78号1楼"},{"poiid":"B2094757D06FA1FB479D","title":"羽山台球俱乐部","lon":"121.56801","lat":"31.24438","category":"171","category_name":"台球厅","address":"浦东新区羽山路1969号2楼(近德平路)"},{"poiid":"B2094655D26FA5FF4499","title":"上泰花苑","lon":"121.56345","lat":"31.24615","category":"47","category_name":"住宅区","address":"上海市浦东新区张扬路2855弄(德平路口)"},{"poiid":"B2094655D265A7FA459F","title":"食知味","lon":"121.56696","lat":"31.24464","category":"257","category_name":"中餐厅","address":"浦东新区羽山路1923号(近德平路)"},{"poiid":"B2094757D069ABFF459A","title":"万德路博山东路","lon":"121.560571","lat":"31.247934","category":"500","category_name":"未知分类","address":"上海万德路博山东路"},{"poiid":"B2094655D26AA0FA439E","title":"地铁德平路站","lon":"121.56416","lat":"31.24535","category":"36","category_name":"地铁站","address":""},{"poiid":"B2094655D36DA7FD4993","title":"张杨路罗山路","lon":"121.56016","lat":"31.24327","category":"38","category_name":"公交车站","address":""},{"poiid":"B2094757D064A3FE419D","title":"浦东新区疾病预防控制中心","lon":"121.5677146","lat":"31.248057852","category":"500","category_name":"未知分类","address":"上海张杨路3039号"},{"poiid":"B2094757D16DA0FF4799","title":"广东生滚粥","lon":"121.56559","lat":"31.24512","category":"247","category_name":"餐饮美食","address":"上海浦东新区德平路777号(羽山路)  "},{"poiid":"B2094654DA69A1F9479A","title":"仁和花苑","lon":"121.56505","lat":"31.24483","category":"47","category_name":"住宅区","address":"德平路730弄1-30号"},{"poiid":"B2094654DA69A1F9469D","title":"罗曼园花园餐厅","lon":"121.56253279952","lat":"31.246184763258","category":"257","category_name":"中餐厅","address":"德平路741号近张杨路"},{"poiid":"B2094655D36DA7FD4998","title":"张杨路德平路","lon":"121.56481","lat":"31.24558","category":"38","category_name":"公交车站","address":""},{"poiid":"B2094655D36DA6FD4199","title":"德平路","lon":"121.56416","lat":"31.24535","category":"38","category_name":"公交车站","address":""},{"poiid":"B2094654DA69A1F94992","title":"香山新村西北街坊","lon":"121.5671","lat":"31.242519","category":"47","category_name":"住宅区","address":"德平路1671弄1066弄"},{"poiid":"B2094655D36DA7FD499B","title":"张杨路","lon":"121.56471","lat":"31.24617","category":"38","category_name":"公交车站","address":""},{"poiid":"B2094757D064A3FE409C","title":"广洋华景苑","lon":"121.56556152265","lat":"31.247537457799","category":"47","category_name":"住宅区","address":"上海市闸北区场中路3300弄"},{"poiid":"B2094655D265A7FD4892","title":"三江购物","lon":"121.56454","lat":"31.24514","category":"119","category_name":"商场","address":""},{"poiid":"B2094757D469A2FF4992","title":"小巧面馆","lon":"121.565160054","lat":"31.246708793","category":"68","category_name":"快餐厅","address":"浦东新区德平路758号(张杨路灵山路之间)"},{"poiid":"B2094654DB65AAFB4998","title":"名人苑游泳馆","lon":"121.56708","lat":"31.24662","category":"231","category_name":"游泳馆","address":"浦东新区张扬路2988号"},{"poiid":"B2094757D16DABFD469A","title":"培正逗点金桥总部","lon":"121.5653513","lat":"31.245944761","category":"500","category_name":"未知分类","address":"上海云山路886号3楼"},{"poiid":"B2094757D069A2F4499C","title":"传奇火锅 羽山路店","lon":"121.566389054","lat":"31.244000793","category":"86","category_name":"火锅店","address":"浦东新区羽山路1969号(近德平路)"},{"poiid":"B2094757D06AA7FB479E","title":"JEANS日系SALON","lon":"121.567934","lat":"31.242228","category":"148","category_name":"美容美发店","address":"上海浦东新区灵山路1738号2楼(近德平路)"},{"poiid":"B2094655D26EA7FE469A","title":"天虹苑","lon":"121.56728","lat":"31.242554","category":"47","category_name":"住宅区","address":"德平路1060弄"},{"poiid":"B2094757D065AAFD479E","title":"浦东德平路","lon":"121.564862","lat":"31.2459226","category":"500","category_name":"未知分类","address":"上海德平路"},{"poiid":"B2094654DA69A1F9479C","title":"艾山新村","lon":"121.56529","lat":"31.244177","category":"47","category_name":"住宅区","address":"上海德平路764弄"},{"poiid":"B2094654DA69A1F94799","title":"九龄大药房","lon":"121.56547","lat":"31.24477","category":"162","category_name":"医院","address":"浦东新区德平路748号(近张杨路)"},{"poiid":"B2094757D064A7F84792","title":"东周线","lon":"121.563544","lat":"31.24542","category":"38","category_name":"公交车站","address":"上海周浦医院至东高路张扬北路"},{"poiid":"B2094655D36DA0F54192","title":"羽山路德平路","lon":"121.56722","lat":"31.24442","category":"38","category_name":"公交车站","address":""},{"poiid":"B2094757DA6FA3FC439F","title":"自由港量贩式KTV(博山店)","lon":"121.560709","lat":"31.2475390000002","category":"170","category_name":"KTV","address":"浦东新区博山东路78号博达百货3楼(近万德路)"},{"poiid":"B2094757D66CA2FE489E","title":"豪大大鸡排","lon":"121.56453697","lat":"31.246284436","category":"247","category_name":"餐饮美食","address":"上海市浦东新区德平路264号"},{"poiid":"B2094654DA69A2FD4892","title":"快客No.6367","lon":"121.56425","lat":"31.24635","category":"117","category_name":"便民商店/便利店","address":"德平路262"},{"poiid":"B2094654DA69A1F94793","title":"艾山新村(东门)","lon":"121.56571","lat":"31.24466","category":"47","category_name":"住宅区","address":"德平路764弄"},{"poiid":"B2094654DB6BAAFD4398","title":"仁和花苑(北门)","lon":"121.56341","lat":"31.24448","category":"47","category_name":"住宅区","address":"德平路730弄1-30号"},{"poiid":"B2094654DA69A1F94898","title":"快客No.6641","lon":"121.56584","lat":"31.24444","category":"117","category_name":"便民商店/便利店","address":"德平路768"},{"poiid":"B2094757D569A0F84992","title":"古池专业时尚沙龙","lon":"121.5637991","lat":"31.24561306","category":"148","category_name":"美容美发店","address":"张杨路2853-1"},{"poiid":"B2094757D66FA3F5499F","title":"浦东房产交易中心","lon":"121.564945775","lat":"31.2460810317","category":"500","category_name":"未知分类","address":"上海张杨路德平路"},{"poiid":"B2094654DA69A1F9489E","title":"上海东辰口腔门诊部","lon":"121.56596","lat":"31.2443","category":"162","category_name":"医院","address":"德平路770临-1"},{"poiid":"B2094757D06EAAF44298","title":"盈田盈粥庄","lon":"121.56662","lat":"31.24416","category":"72","category_name":"广东菜","address":"浦东新区德平路777号(近羽山路)"},{"poiid":"B2094757D068A7F8499A","title":"浦东新区房产交易中心","lon":"121.56503497","lat":"31.246380438","category":"500","category_name":"未知分类","address":"上海张杨路德平路"},{"poiid":"B2094757D06FA3FA479C","title":"名人苑","lon":"121.56677011772149","lat":"31.24642229889824","category":"196","category_name":"公园","address":"浦东新区张杨路2988号(近居家桥路)"},{"poiid":"B2094757D06FA4FF469E","title":"罗曼园高级婚礼会馆(浦东店)","lon":"121.56599539442539","lat":"31.245736684141356","category":"184","category_name":"美术馆","address":"浦东新区张杨路2948号查看地图"},{"poiid":"B2094757D06FA2FC4292","title":"德平路地铁站","lon":"121.56418327","lat":"31.245292273","category":"36","category_name":"地铁站","address":"上海轨道交通 六号线 轨交德平路站 6"},{"poiid":"B2094757D165A5FD429E","title":"在路上(杨浦大桥上)","lon":"121.561273575","lat":"31.2427963548","category":"500","category_name":"未知分类","address":"上海杨浦大桥"},{"poiid":"B2094757D069A3FE409E","title":"肯德基 博山东路店 KFC","lon":"121.560610054","lat":"31.247954793","category":"68","category_name":"快餐厅","address":"浦东新区博山东路50号(博山东路万德路)"},{"poiid":"B2094654DA69A2FC469B","title":"浦东邮政大厦","lon":"121.5649","lat":"31.24658","category":"46","category_name":"楼宇","address":"浦东区丁香路716号"},{"poiid":"B2094757D06BAAFD4692","title":"浦东新区房地产交易中心","lon":"121.56492237","lat":"31.246139233","category":"500","category_name":"未知分类","address":"上海张扬路2899号(邮政大厦)一楼近德平路口"},{"poiid":"B2094757D068A5FE479A","title":"罗山新村","lon":"121.564161","lat":"31.245353","category":"47","category_name":"住宅区","address":"上海浦东新区德平路(近博山路)"},{"poiid":"B2094757D068A3F54493","title":"永达汽车浦东贸易","lon":"121.562179565","lat":"31.2447547913","category":"158","category_name":"汽车销售","address":"浦东新区张杨路2761号(罗山路张杨路)"},{"poiid":"B2094655D265A7FE409C","title":"东豫郎热气涮羊肉烧烤德平店","lon":"121.56671","lat":"31.2445","category":"87","category_name":"特色／地方风味餐厅","address":"浦东新区羽山路1969号107(近德平路)"},{"poiid":"B2094757D068A1FF4998","title":"新招鲜本地鸡窝 德平店","lon":"121.566250054","lat":"31.243976793","category":"86","category_name":"火锅店","address":"浦东新区羽山路1969号(加油站对面)"},{"poiid":"B2094757D068ABFD479D","title":"85度C(博山店)","lon":"121.560709","lat":"31.247539","category":"67","category_name":"甜品店","address":"浦东新区博山东路78号1楼"},{"poiid":"B2094757D06FA1FB479D","title":"羽山台球俱乐部","lon":"121.56801","lat":"31.24438","category":"171","category_name":"台球厅","address":"浦东新区羽山路1969号2楼(近德平路)"},{"poiid":"B2094655D26FA5FF4499","title":"上泰花苑","lon":"121.56345","lat":"31.24615","category":"47","category_name":"住宅区","address":"上海市浦东新区张扬路2855弄(德平路口)"},{"poiid":"B2094655D265A7FA459F","title":"食知味","lon":"121.56696","lat":"31.24464","category":"257","category_name":"中餐厅","address":"浦东新区羽山路1923号(近德平路)"},{"poiid":"B2094757D069ABFF459A","title":"万德路博山东路","lon":"121.560571","lat":"31.247934","category":"500","category_name":"未知分类","address":"上海万德路博山东路"},{"poiid":"B2094655D26AA0FA439E","title":"地铁德平路站","lon":"121.56416","lat":"31.24535","category":"36","category_name":"地铁站","address":""},{"poiid":"B2094655D36DA7FD4993","title":"张杨路罗山路","lon":"121.56016","lat":"31.24327","category":"38","category_name":"公交车站","address":""},{"poiid":"B2094757D064A3FE419D","title":"浦东新区疾病预防控制中心","lon":"121.5677146","lat":"31.248057852","category":"500","category_name":"未知分类","address":"上海张杨路3039号"},{"poiid":"B2094757D16DA0FF4799","title":"广东生滚粥","lon":"121.56559","lat":"31.24512","category":"247","category_name":"餐饮美食","address":"上海浦东新区德平路777号(羽山路)  "},{"poiid":"B2094654DA69A1F9479A","title":"仁和花苑","lon":"121.56505","lat":"31.24483","category":"47","category_name":"住宅区","address":"德平路730弄1-30号"},{"poiid":"B2094654DA69A1F9469D","title":"罗曼园花园餐厅","lon":"121.56253279952","lat":"31.246184763258","category":"257","category_name":"中餐厅","address":"德平路741号近张杨路"},{"poiid":"B2094655D36DA7FD4998","title":"张杨路德平路","lon":"121.56481","lat":"31.24558","category":"38","category_name":"公交车站","address":""},{"poiid":"B2094655D36DA6FD4199","title":"德平路","lon":"121.56416","lat":"31.24535","category":"38","category_name":"公交车站","address":""},{"poiid":"B2094654DA69A1F94992","title":"香山新村西北街坊","lon":"121.5671","lat":"31.242519","category":"47","category_name":"住宅区","address":"德平路1671弄1066弄"},{"poiid":"B2094655D36DA7FD499B","title":"张杨路","lon":"121.56471","lat":"31.24617","category":"38","category_name":"公交车站","address":""},{"poiid":"B2094757D064A3FE409C","title":"广洋华景苑","lon":"121.56556152265","lat":"31.247537457799","category":"47","category_name":"住宅区","address":"上海市闸北区场中路3300弄"},{"poiid":"B2094655D265A7FD4892","title":"三江购物","lon":"121.56454","lat":"31.24514","category":"119","category_name":"商场","address":""},{"poiid":"B2094757D469A2FF4992","title":"小巧面馆","lon":"121.565160054","lat":"31.246708793","category":"68","category_name":"快餐厅","address":"浦东新区德平路758号(张杨路灵山路之间)"},{"poiid":"B2094654DB65AAFB4998","title":"名人苑游泳馆","lon":"121.56708","lat":"31.24662","category":"231","category_name":"游泳馆","address":"浦东新区张扬路2988号"},{"poiid":"B2094757D16DABFD469A","title":"培正逗点金桥总部","lon":"121.5653513","lat":"31.245944761","category":"500","category_name":"未知分类","address":"上海云山路886号3楼"},{"poiid":"B2094757D069A2F4499C","title":"传奇火锅 羽山路店","lon":"121.566389054","lat":"31.244000793","category":"86","category_name":"火锅店","address":"浦东新区羽山路1969号(近德平路)"},{"poiid":"B2094757D06AA7FB479E","title":"JEANS日系SALON","lon":"121.567934","lat":"31.242228","category":"148","category_name":"美容美发店","address":"上海浦东新区灵山路1738号2楼(近德平路)"},{"poiid":"B2094655D26EA7FE469A","title":"天虹苑","lon":"121.56728","lat":"31.242554","category":"47","category_name":"住宅区","address":"德平路1060弄"},{"poiid":"B2094757D065AAFD479E","title":"浦东德平路","lon":"121.564862","lat":"31.2459226","category":"500","category_name":"未知分类","address":"上海德平路"},{"poiid":"B2094654DA69A1F9479C","title":"艾山新村","lon":"121.56529","lat":"31.244177","category":"47","category_name":"住宅区","address":"上海德平路764弄"},{"poiid":"B2094654DA69A1F94799","title":"九龄大药房","lon":"121.56547","lat":"31.24477","category":"162","category_name":"医院","address":"浦东新区德平路748号(近张杨路)"},{"poiid":"B2094757D064A7F84792","title":"东周线","lon":"121.563544","lat":"31.24542","category":"38","category_name":"公交车站","address":"上海周浦医院至东高路张扬北路"},{"poiid":"B2094655D36DA0F54192","title":"羽山路德平路","lon":"121.56722","lat":"31.24442","category":"38","category_name":"公交车站","address":""},{"poiid":"B2094757DA6FA3FC439F","title":"自由港量贩式KTV(博山店)","lon":"121.560709","lat":"31.2475390000002","category":"170","category_name":"KTV","address":"浦东新区博山东路78号博达百货3楼(近万德路)"},{"poiid":"B2094757D66CA2FE489E","title":"豪大大鸡排","lon":"121.56453697","lat":"31.246284436","category":"247","category_name":"餐饮美食","address":"上海市浦东新区德平路264号"},{"poiid":"B2094654DA69A2FD4892","title":"快客No.6367","lon":"121.56425","lat":"31.24635","category":"117","category_name":"便民商店/便利店","address":"德平路262"},{"poiid":"B2094654DA69A1F94793","title":"艾山新村(东门)","lon":"121.56571","lat":"31.24466","category":"47","category_name":"住宅区","address":"德平路764弄"},{"poiid":"B2094654DB6BAAFD4398","title":"仁和花苑(北门)","lon":"121.56341","lat":"31.24448","category":"47","category_name":"住宅区","address":"德平路730弄1-30号"},{"poiid":"B2094654DA69A1F94898","title":"快客No.6641","lon":"121.56584","lat":"31.24444","category":"117","category_name":"便民商店/便利店","address":"德平路768"},{"poiid":"B2094757D569A0F84992","title":"古池专业时尚沙龙","lon":"121.5637991","lat":"31.24561306","category":"148","category_name":"美容美发店","address":"张杨路2853-1"},{"poiid":"B2094757D66FA3F5499F","title":"浦东房产交易中心","lon":"121.564945775","lat":"31.2460810317","category":"500","category_name":"未知分类","address":"上海张杨路德平路"},{"poiid":"B2094654DA69A1F9489E","title":"上海东辰口腔门诊部","lon":"121.56596","lat":"31.2443","category":"162","category_name":"医院","address":"德平路770临-1"}]