[{"poiid":"B2094654D56CA7F94399","title":"甜爱咖啡馆","lon":"121.48408","lat":"31.26783","category":"260","category_name":"其他","address":"虹口区甜爱路129号(甜爱路甜爱支路)"},{"poiid":"B2094654D56CA7FC4298","title":"万寿斋","lon":"121.48483604535","lat":"31.266169526803","category":"68","category_name":"快餐厅","address":"虹口区山阴路123号(四达路吉祥路间)"},{"poiid":"B2094655D26BA2F84293","title":"甜爱路","lon":"121.48344","lat":"31.26536","category":"116","category_name":"特色商业街","address":""},{"poiid":"B2094750D66EA5F94192","title":"觅糖记","lon":"121.483413","lat":"31.265596","category":"67","category_name":"甜品店","address":"虹口区甜爱路11号(近四川北路)"},{"poiid":"B2094757D46DABFA419F","title":"哈根达斯 四川北路店 Haagen-Dazs","lon":"121.483787","lat":"31.264406","category":"113","category_name":"冷饮店","address":"虹口区四川北路1661号凯鸿商场1楼(近东宝兴路)"},{"poiid":"B2094757D06FA2F44092","title":"甜爱路心型邮筒","lon":"121.483449795","lat":"31.2644705499","category":"260","category_name":"其他","address":"上海甜爱路3号对面"},{"poiid":"B2094654DB6AAAF9419A","title":"必胜客东泰餐厅","lon":"121.48393","lat":"31.26451","category":"68","category_name":"快餐厅","address":"四川北路2002弄17号东泰休闲广场1-2层"},{"poiid":"B2094757D06FA3F9489E","title":"飞龙生煎","lon":"121.484089067","lat":"31.2644533438","category":"68","category_name":"快餐厅","address":"虹口区四川北路2002号东泰休闲广场1楼(近山阴路)"},{"poiid":"B2094757D06FA1FC469F","title":"生仕鱼林港(四川北路店)","lon":"121.48429","lat":"31.26422","category":"86","category_name":"火锅店","address":"虹口区四川北路2002号东泰休闲广场17号2楼(近山阴路)"},{"poiid":"B2094654D56CA7FA4192","title":"东泰休闲广场","lon":"121.48425","lat":"31.26416","category":"119","category_name":"商场","address":"虹口区四川北路2002号东泰休闲广场内(近山阴路)"},{"poiid":"B2094757D06FA4FD449A","title":"山阴路","lon":"121.48394016","lat":"31.26469785","category":"500","category_name":"未知分类","address":"上海市虹口区山阴路"},{"poiid":"B2094757D06BA5F84699","title":"复地新都国际","lon":"121.48436466224","lat":"31.264570145955","category":"47","category_name":"住宅区","address":"吴中区临湖镇腾飞路588号(腾飞路与东山大道交汇处向西1500米)"},{"poiid":"B2094757D065A6FC4093","title":"光头生煎","lon":"121.4845941","lat":"31.266254335","category":"68","category_name":"快餐厅","address":"虹口区山阴路141号(近吉祥路)"},{"poiid":"B2094757D068A1F5429B","title":"光头面馆 山阴路店","lon":"121.48487","lat":"31.266139","category":"68","category_name":"快餐厅","address":"虹口区山阴路139号(近吉祥路)"},{"poiid":"B2094655D26EA3F84393","title":"味千拉面四川北路店","lon":"121.48346","lat":"31.2648","category":"95","category_name":"日本料理","address":"虹口区四川北路2058号(近甜爱路)"},{"poiid":"B2094753D26EA2FA409C","title":"虹口足球场","lon":"121.484102","lat":"31.265335","category":"220","category_name":"运动场所","address":"上海市 东江湾路100号"},{"poiid":"B2094654DB69A0F5419B","title":"鲁迅故居","lon":"121.48435","lat":"31.26613","category":"243","category_name":"纪念馆","address":"虹口区山阴路132弄(大陆新村)9号"},{"poiid":"B2094757D069A2F84693","title":"巴黎贝甜(欧阳店)","lon":"121.48845857","lat":"31.266445989","category":"67","category_name":"甜品店","address":"虹口区欧阳路198号(近吉祥路)"},{"poiid":"B2094757D068A2F5479C","title":"南馨园酒店","lon":"121.48543489","lat":"31.268350135","category":"72","category_name":"广东菜","address":"虹口区山阴路277号(近鲁迅公园)"},{"poiid":"B2094757D16AABFB449F","title":"溧阳路","lon":"121.486091","lat":"31.263604","category":"500","category_name":"未知分类","address":"上海溧阳路四川北路"},{"poiid":"B2094757D068A7FA489C","title":"予约时尚(山阴路店)","lon":"121.48487469","lat":"31.264853465","category":"148","category_name":"美容美发店","address":"虹口区山阴路51号(近东泰休闲广场)"},{"poiid":"B2094757D068A6F5489E","title":"鸭王(虹口店)","lon":"121.4843","lat":"31.26422","category":"260","category_name":"其他","address":"虹口区四川北路2002弄17号东泰休闲广场3楼(近山阴路)"},{"poiid":"B2094654D56CA7FC429A","title":"东照里","lon":"121.48529","lat":"31.265934","category":"47","category_name":"住宅区","address":"山阴路133弄1-113号"},{"poiid":"B2094757D469A7FF489B","title":"虹口糕团","lon":"121.48353","lat":"31.26454","category":"87","category_name":"特色／地方风味餐厅","address":"虹口区四川北路2305号-2(近虹口足球场站)"},{"poiid":"B2094655D26BA2F8439A","title":"甜爱路四川北路","lon":"121.48337","lat":"31.26492","category":"38","category_name":"公交车站","address":""},{"poiid":"B2094757D06BA7FB469C","title":"虹口区第三中心小学","lon":"121.48555","lat":"31.2654","category":"253","category_name":"校园生活","address":"虹口区山阴路103号(吉祥路山阴路)"},{"poiid":"B2094757D069A2F54398","title":"ART OF MEDITERRANEAN","lon":"121.4866609","lat":"31.266087731","category":"184","category_name":"美术馆","address":"上海虹口区欧阳路196号法兰桥创意园4号楼B座区底座"},{"poiid":"B2094654DB6AAAF8479D","title":"瞿秋白故居","lon":"121.48529","lat":"31.26593","category":"243","category_name":"纪念馆","address":"山阴路133弄12号"},{"poiid":"B2094753D565A2F5439D","title":"串趣-成都串串香","lon":"121.484336","lat":"31.267522","category":"247","category_name":"餐饮美食","address":"上海市 虹口区东江湾路444号虹口足球场106室"},{"poiid":"B2094757D66BA0F4449A","title":"复茂小龙虾 四川北路店","lon":"121.483972054","lat":"31.264285793","category":"68","category_name":"快餐厅","address":"虹口区四川北路2002弄东泰休闲广场1楼(近山阴路)"},{"poiid":"B209475CD16EABFD489F","title":"城隍庙","lon":"121.485801","lat":"31.265775","category":"500","category_name":"未知分类","address":"上海市 黄埔"},{"poiid":"B2094757D06AA0FB4992","title":"重庆鸡公煲 东泰广场店","lon":"121.483622054","lat":"31.263378793","category":"71","category_name":"四川菜","address":"虹口区四川北路2005号(东泰广场对面)"},{"poiid":"B2094757D468A4F8449A","title":"海尚香","lon":"121.488248","lat":"31.267171","category":"76","category_name":"上海菜","address":"虹口区欧阳路196号法兰桥创意园(近四平路)"},{"poiid":"B2094654D56CA7FC409D","title":"兴业坊","lon":"121.48522","lat":"31.266668","category":"47","category_name":"住宅区","address":"山阴路165弄1-87号"},{"poiid":"B2094757D568A6F4449B","title":"瞿秋白寓所旧址","lon":"121.4852981","lat":"31.26593694","category":"250","category_name":"公园户外","address":"虹口区山阴路133弄12号(吉祥路山阴路)"},{"poiid":"B2094655D36CA2FB4793","title":"山阴路吉祥路","lon":"121.48469","lat":"31.26597","category":"38","category_name":"公交车站","address":""},{"poiid":"B2094654D56CA5FD449A","title":"鑫成大楼","lon":"121.486","lat":"31.267","category":"46","category_name":"楼宇","address":"宝山路746号"},{"poiid":"B2094655D264A5F4469D","title":"百味鱼","lon":"121.48485","lat":"31.26495","category":"71","category_name":"四川菜","address":"虹口区山阴路63号(近四川北路)"},{"poiid":"B2094654D56CA7FC4192","title":"东照里(西门)","lon":"121.48489","lat":"31.26604","category":"47","category_name":"住宅区","address":"山阴路133弄1-113号"},{"poiid":"B2094757D06BA1FD4892","title":"金象大厦","lon":"121.485","lat":"31.2673","category":"252","category_name":"楼宇机构","address":"上海市虹口区华昌路9号"},{"poiid":"B2094655D26CA1FD4592","title":"良友金伴便利连锁No.141","lon":"121.48491","lat":"31.26648","category":"117","category_name":"便民商店/便利店","address":"山阴路155"},{"poiid":"B2094750D564A3F4429F","title":"中梁海伦国际","lon":"121.485882","lat":"31.267202","category":"47","category_name":"住宅区","address":"宝山路748号"},{"poiid":"B2094757D16CA0FC4193","title":"小扁头老鸭粉丝汤","lon":"121.48416","lat":"31.26715","category":"68","category_name":"快餐厅","address":"虹口区山阴路274弄9号(近鲁迅公园)"},{"poiid":"B2094757D064A4FA4693","title":"复兴初级中学","lon":"121.48348","lat":"31.26472","category":"55","category_name":"中学","address":"上海虹口区四川北路2066号  "},{"poiid":"B2094655D269AAF4429D","title":"如家快捷酒店欧阳路店","lon":"121.48817","lat":"31.26579","category":"247","category_name":"餐饮美食","address":"上海市虹口区吉祥路69号(近欧阳路)"},{"poiid":"B2094654DB6AAAF9419E","title":"巴必隆烤肉东泰店","lon":"121.48426","lat":"31.26415","category":"94","category_name":"西餐厅","address":"虹口区四川北路2002弄17号东泰休闲广场205铺(近山阴路)"},{"poiid":"B2094654D56CA7FC409C","title":"兴业坊(西门)","lon":"121.48493","lat":"31.26658","category":"47","category_name":"住宅区","address":"山阴路165弄1-87号"},{"poiid":"B2094654D56CA7FA419A","title":"胡记火锅","lon":"121.48440816216","lat":"31.264882036247","category":"86","category_name":"火锅店","address":"虹口区山阴路18-20号(近四川北路)"},{"poiid":"B2094757D06BA2FD4699","title":"四平路溧阳路口","lon":"121.487234603","lat":"31.2656203219","category":"38","category_name":"公交车站","address":"上海四平路溧阳路口"},{"poiid":"B2094654D56CA0F44698","title":"金叶商楼","lon":"121.48673","lat":"31.267","category":"46","category_name":"楼宇","address":"宝安路272"},{"poiid":"B2094654D56CA7F94399","title":"甜爱咖啡馆","lon":"121.48408","lat":"31.26783","category":"260","category_name":"其他","address":"虹口区甜爱路129号(甜爱路甜爱支路)"},{"poiid":"B2094654D56CA7FC4298","title":"万寿斋","lon":"121.48483604535","lat":"31.266169526803","category":"68","category_name":"快餐厅","address":"虹口区山阴路123号(四达路吉祥路间)"},{"poiid":"B2094655D26BA2F84293","title":"甜爱路","lon":"121.48344","lat":"31.26536","category":"116","category_name":"特色商业街","address":""},{"poiid":"B2094750D66EA5F94192","title":"觅糖记","lon":"121.483413","lat":"31.265596","category":"67","category_name":"甜品店","address":"虹口区甜爱路11号(近四川北路)"},{"poiid":"B2094757D46DABFA419F","title":"哈根达斯 四川北路店 Haagen-Dazs","lon":"121.483787","lat":"31.264406","category":"113","category_name":"冷饮店","address":"虹口区四川北路1661号凯鸿商场1楼(近东宝兴路)"},{"poiid":"B2094757D06FA2F44092","title":"甜爱路心型邮筒","lon":"121.483449795","lat":"31.2644705499","category":"260","category_name":"其他","address":"上海甜爱路3号对面"},{"poiid":"B2094654DB6AAAF9419A","title":"必胜客东泰餐厅","lon":"121.48393","lat":"31.26451","category":"68","category_name":"快餐厅","address":"四川北路2002弄17号东泰休闲广场1-2层"},{"poiid":"B2094757D06FA3F9489E","title":"飞龙生煎","lon":"121.484089067","lat":"31.2644533438","category":"68","category_name":"快餐厅","address":"虹口区四川北路2002号东泰休闲广场1楼(近山阴路)"},{"poiid":"B2094757D06FA1FC469F","title":"生仕鱼林港(四川北路店)","lon":"121.48429","lat":"31.26422","category":"86","category_name":"火锅店","address":"虹口区四川北路2002号东泰休闲广场17号2楼(近山阴路)"},{"poiid":"B2094654D56CA7FA4192","title":"东泰休闲广场","lon":"121.48425","lat":"31.26416","category":"119","category_name":"商场","address":"虹口区四川北路2002号东泰休闲广场内(近山阴路)"},{"poiid":"B2094757D06FA4FD449A","title":"山阴路","lon":"121.48394016","lat":"31.26469785","category":"500","category_name":"未知分类","address":"上海市虹口区山阴路"},{"poiid":"B2094757D06BA5F84699","title":"复地新都国际","lon":"121.48436466224","lat":"31.264570145955","category":"47","category_name":"住宅区","address":"吴中区临湖镇腾飞路588号(腾飞路与东山大道交汇处向西1500米)"},{"poiid":"B2094757D065A6FC4093","title":"光头生煎","lon":"121.4845941","lat":"31.266254335","category":"68","category_name":"快餐厅","address":"虹口区山阴路141号(近吉祥路)"},{"poiid":"B2094757D068A1F5429B","title":"光头面馆 山阴路店","lon":"121.48487","lat":"31.266139","category":"68","category_name":"快餐厅","address":"虹口区山阴路139号(近吉祥路)"},{"poiid":"B2094655D26EA3F84393","title":"味千拉面四川北路店","lon":"121.48346","lat":"31.2648","category":"95","category_name":"日本料理","address":"虹口区四川北路2058号(近甜爱路)"},{"poiid":"B2094753D26EA2FA409C","title":"虹口足球场","lon":"121.484102","lat":"31.265335","category":"220","category_name":"运动场所","address":"上海市 东江湾路100号"},{"poiid":"B2094654DB69A0F5419B","title":"鲁迅故居","lon":"121.48435","lat":"31.26613","category":"243","category_name":"纪念馆","address":"虹口区山阴路132弄(大陆新村)9号"},{"poiid":"B2094757D069A2F84693","title":"巴黎贝甜(欧阳店)","lon":"121.48845857","lat":"31.266445989","category":"67","category_name":"甜品店","address":"虹口区欧阳路198号(近吉祥路)"},{"poiid":"B2094757D068A2F5479C","title":"南馨园酒店","lon":"121.48543489","lat":"31.268350135","category":"72","category_name":"广东菜","address":"虹口区山阴路277号(近鲁迅公园)"},{"poiid":"B2094757D16AABFB449F","title":"溧阳路","lon":"121.486091","lat":"31.263604","category":"500","category_name":"未知分类","address":"上海溧阳路四川北路"},{"poiid":"B2094757D068A7FA489C","title":"予约时尚(山阴路店)","lon":"121.48487469","lat":"31.264853465","category":"148","category_name":"美容美发店","address":"虹口区山阴路51号(近东泰休闲广场)"},{"poiid":"B2094757D068A6F5489E","title":"鸭王(虹口店)","lon":"121.4843","lat":"31.26422","category":"260","category_name":"其他","address":"虹口区四川北路2002弄17号东泰休闲广场3楼(近山阴路)"},{"poiid":"B2094654D56CA7FC429A","title":"东照里","lon":"121.48529","lat":"31.265934","category":"47","category_name":"住宅区","address":"山阴路133弄1-113号"},{"poiid":"B2094757D469A7FF489B","title":"虹口糕团","lon":"121.48353","lat":"31.26454","category":"87","category_name":"特色／地方风味餐厅","address":"虹口区四川北路2305号-2(近虹口足球场站)"},{"poiid":"B2094655D26BA2F8439A","title":"甜爱路四川北路","lon":"121.48337","lat":"31.26492","category":"38","category_name":"公交车站","address":""},{"poiid":"B2094757D06BA7FB469C","title":"虹口区第三中心小学","lon":"121.48555","lat":"31.2654","category":"253","category_name":"校园生活","address":"虹口区山阴路103号(吉祥路山阴路)"},{"poiid":"B2094757D069A2F54398","title":"ART OF MEDITERRANEAN","lon":"121.4866609","lat":"31.266087731","category":"184","category_name":"美术馆","address":"上海虹口区欧阳路196号法兰桥创意园4号楼B座区底座"},{"poiid":"B2094654DB6AAAF8479D","title":"瞿秋白故居","lon":"121.48529","lat":"31.26593","category":"243","category_name":"纪念馆","address":"山阴路133弄12号"},{"poiid":"B2094753D565A2F5439D","title":"串趣-成都串串香","lon":"121.484336","lat":"31.267522","category":"247","category_name":"餐饮美食","address":"上海市 虹口区东江湾路444号虹口足球场106室"},{"poiid":"B2094757D66BA0F4449A","title":"复茂小龙虾 四川北路店","lon":"121.483972054","lat":"31.264285793","category":"68","category_name":"快餐厅","address":"虹口区四川北路2002弄东泰休闲广场1楼(近山阴路)"},{"poiid":"B209475CD16EABFD489F","title":"城隍庙","lon":"121.485801","lat":"31.265775","category":"500","category_name":"未知分类","address":"上海市 黄埔"},{"poiid":"B2094757D06AA0FB4992","title":"重庆鸡公煲 东泰广场店","lon":"121.483622054","lat":"31.263378793","category":"71","category_name":"四川菜","address":"虹口区四川北路2005号(东泰广场对面)"},{"poiid":"B2094757D468A4F8449A","title":"海尚香","lon":"121.488248","lat":"31.267171","category":"76","category_name":"上海菜","address":"虹口区欧阳路196号法兰桥创意园(近四平路)"},{"poiid":"B2094654D56CA7FC409D","title":"兴业坊","lon":"121.48522","lat":"31.266668","category":"47","category_name":"住宅区","address":"山阴路165弄1-87号"},{"poiid":"B2094757D568A6F4449B","title":"瞿秋白寓所旧址","lon":"121.4852981","lat":"31.26593694","category":"250","category_name":"公园户外","address":"虹口区山阴路133弄12号(吉祥路山阴路)"},{"poiid":"B2094655D36CA2FB4793","title":"山阴路吉祥路","lon":"121.48469","lat":"31.26597","category":"38","category_name":"公交车站","address":""},{"poiid":"B2094654D56CA5FD449A","title":"鑫成大楼","lon":"121.486","lat":"31.267","category":"46","category_name":"楼宇","address":"宝山路746号"},{"poiid":"B2094655D264A5F4469D","title":"百味鱼","lon":"121.48485","lat":"31.26495","category":"71","category_name":"四川菜","address":"虹口区山阴路63号(近四川北路)"},{"poiid":"B2094654D56CA7FC4192","title":"东照里(西门)","lon":"121.48489","lat":"31.26604","category":"47","category_name":"住宅区","address":"山阴路133弄1-113号"},{"poiid":"B2094757D06BA1FD4892","title":"金象大厦","lon":"121.485","lat":"31.2673","category":"252","category_name":"楼宇机构","address":"上海市虹口区华昌路9号"},{"poiid":"B2094655D26CA1FD4592","title":"良友金伴便利连锁No.141","lon":"121.48491","lat":"31.26648","category":"117","category_name":"便民商店/便利店","address":"山阴路155"},{"poiid":"B2094750D564A3F4429F","title":"中梁海伦国际","lon":"121.485882","lat":"31.267202","category":"47","category_name":"住宅区","address":"宝山路748号"},{"poiid":"B2094757D16CA0FC4193","title":"小扁头老鸭粉丝汤","lon":"121.48416","lat":"31.26715","category":"68","category_name":"快餐厅","address":"虹口区山阴路274弄9号(近鲁迅公园)"},{"poiid":"B2094757D064A4FA4693","title":"复兴初级中学","lon":"121.48348","lat":"31.26472","category":"55","category_name":"中学","address":"上海虹口区四川北路2066号  "},{"poiid":"B2094655D269AAF4429D","title":"如家快捷酒店欧阳路店","lon":"121.48817","lat":"31.26579","category":"247","category_name":"餐饮美食","address":"上海市虹口区吉祥路69号(近欧阳路)"},{"poiid":"B2094654DB6AAAF9419E","title":"巴必隆烤肉东泰店","lon":"121.48426","lat":"31.26415","category":"94","category_name":"西餐厅","address":"虹口区四川北路2002弄17号东泰休闲广场205铺(近山阴路)"},{"poiid":"B2094654D56CA7FC409C","title":"兴业坊(西门)","lon":"121.48493","lat":"31.26658","category":"47","category_name":"住宅区","address":"山阴路165弄1-87号"},{"poiid":"B2094654D56CA7FA419A","title":"胡记火锅","lon":"121.48440816216","lat":"31.264882036247","category":"86","category_name":"火锅店","address":"虹口区山阴路18-20号(近四川北路)"},{"poiid":"B2094757D06BA2FD4699","title":"四平路溧阳路口","lon":"121.487234603","lat":"31.2656203219","category":"38","category_name":"公交车站","address":"上海四平路溧阳路口"},{"poiid":"B2094654D56CA0F44698","title":"金叶商楼","lon":"121.48673","lat":"31.267","category":"46","category_name":"楼宇","address":"宝安路272"},{"poiid":"B2094654D56CA7F94399","title":"甜爱咖啡馆","lon":"121.48408","lat":"31.26783","category":"260","category_name":"其他","address":"虹口区甜爱路129号(甜爱路甜爱支路)"},{"poiid":"B2094654D56CA7FC4298","title":"万寿斋","lon":"121.48483604535","lat":"31.266169526803","category":"68","category_name":"快餐厅","address":"虹口区山阴路123号(四达路吉祥路间)"},{"poiid":"B2094655D26BA2F84293","title":"甜爱路","lon":"121.48344","lat":"31.26536","category":"116","category_name":"特色商业街","address":""},{"poiid":"B2094750D66EA5F94192","title":"觅糖记","lon":"121.483413","lat":"31.265596","category":"67","category_name":"甜品店","address":"虹口区甜爱路11号(近四川北路)"},{"poiid":"B2094757D46DABFA419F","title":"哈根达斯 四川北路店 Haagen-Dazs","lon":"121.483787","lat":"31.264406","category":"113","category_name":"冷饮店","address":"虹口区四川北路1661号凯鸿商场1楼(近东宝兴路)"},{"poiid":"B2094757D06FA2F44092","title":"甜爱路心型邮筒","lon":"121.483449795","lat":"31.2644705499","category":"260","category_name":"其他","address":"上海甜爱路3号对面"},{"poiid":"B2094654DB6AAAF9419A","title":"必胜客东泰餐厅","lon":"121.48393","lat":"31.26451","category":"68","category_name":"快餐厅","address":"四川北路2002弄17号东泰休闲广场1-2层"},{"poiid":"B2094757D06FA3F9489E","title":"飞龙生煎","lon":"121.484089067","lat":"31.2644533438","category":"68","category_name":"快餐厅","address":"虹口区四川北路2002号东泰休闲广场1楼(近山阴路)"},{"poiid":"B2094757D06FA1FC469F","title":"生仕鱼林港(四川北路店)","lon":"121.48429","lat":"31.26422","category":"86","category_name":"火锅店","address":"虹口区四川北路2002号东泰休闲广场17号2楼(近山阴路)"},{"poiid":"B2094654D56CA7FA4192","title":"东泰休闲广场","lon":"121.48425","lat":"31.26416","category":"119","category_name":"商场","address":"虹口区四川北路2002号东泰休闲广场内(近山阴路)"},{"poiid":"B2094757D06FA4FD449A","title":"山阴路","lon":"121.48394016","lat":"31.26469785","category":"500","category_name":"未知分类","address":"上海市虹口区山阴路"},{"poiid":"B2094757D06BA5F84699","title":"复地新都国际","lon":"121.48436466224","lat":"31.264570145955","category":"47","category_name":"住宅区","address":"吴中区临湖镇腾飞路588号(腾飞路与东山大道交汇处向西1500米)"},{"poiid":"B2094757D065A6FC4093","title":"光头生煎","lon":"121.4845941","lat":"31.266254335","category":"68","category_name":"快餐厅","address":"虹口区山阴路141号(近吉祥路)"},{"poiid":"B2094757D068A1F5429B","title":"光头面馆 山阴路店","lon":"121.48487","lat":"31.266139","category":"68","category_name":"快餐厅","address":"虹口区山阴路139号(近吉祥路)"},{"poiid":"B2094655D26EA3F84393","title":"味千拉面四川北路店","lon":"121.48346","lat":"31.2648","category":"95","category_name":"日本料理","address":"虹口区四川北路2058号(近甜爱路)"},{"poiid":"B2094753D26EA2FA409C","title":"虹口足球场","lon":"121.484102","lat":"31.265335","category":"220","category_name":"运动场所","address":"上海市 东江湾路100号"},{"poiid":"B2094654DB69A0F5419B","title":"鲁迅故居","lon":"121.48435","lat":"31.26613","category":"243","category_name":"纪念馆","address":"虹口区山阴路132弄(大陆新村)9号"},{"poiid":"B2094757D069A2F84693","title":"巴黎贝甜(欧阳店)","lon":"121.48845857","lat":"31.266445989","category":"67","category_name":"甜品店","address":"虹口区欧阳路198号(近吉祥路)"},{"poiid":"B2094757D068A2F5479C","title":"南馨园酒店","lon":"121.48543489","lat":"31.268350135","category":"72","category_name":"广东菜","address":"虹口区山阴路277号(近鲁迅公园)"},{"poiid":"B2094757D16AABFB449F","title":"溧阳路","lon":"121.486091","lat":"31.263604","category":"500","category_name":"未知分类","address":"上海溧阳路四川北路"},{"poiid":"B2094757D068A7FA489C","title":"予约时尚(山阴路店)","lon":"121.48487469","lat":"31.264853465","category":"148","category_name":"美容美发店","address":"虹口区山阴路51号(近东泰休闲广场)"},{"poiid":"B2094757D068A6F5489E","title":"鸭王(虹口店)","lon":"121.4843","lat":"31.26422","category":"260","category_name":"其他","address":"虹口区四川北路2002弄17号东泰休闲广场3楼(近山阴路)"},{"poiid":"B2094654D56CA7FC429A","title":"东照里","lon":"121.48529","lat":"31.265934","category":"47","category_name":"住宅区","address":"山阴路133弄1-113号"},{"poiid":"B2094757D469A7FF489B","title":"虹口糕团","lon":"121.48353","lat":"31.26454","category":"87","category_name":"特色／地方风味餐厅","address":"虹口区四川北路2305号-2(近虹口足球场站)"},{"poiid":"B2094655D26BA2F8439A","title":"甜爱路四川北路","lon":"121.48337","lat":"31.26492","category":"38","category_name":"公交车站","address":""},{"poiid":"B2094757D06BA7FB469C","title":"虹口区第三中心小学","lon":"121.48555","lat":"31.2654","category":"253","category_name":"校园生活","address":"虹口区山阴路103号(吉祥路山阴路)"},{"poiid":"B2094757D069A2F54398","title":"ART OF MEDITERRANEAN","lon":"121.4866609","lat":"31.266087731","category":"184","category_name":"美术馆","address":"上海虹口区欧阳路196号法兰桥创意园4号楼B座区底座"},{"poiid":"B2094654DB6AAAF8479D","title":"瞿秋白故居","lon":"121.48529","lat":"31.26593","category":"243","category_name":"纪念馆","address":"山阴路133弄12号"},{"poiid":"B2094753D565A2F5439D","title":"串趣-成都串串香","lon":"121.484336","lat":"31.267522","category":"247","category_name":"餐饮美食","address":"上海市 虹口区东江湾路444号虹口足球场106室"},{"poiid":"B2094757D66BA0F4449A","title":"复茂小龙虾 四川北路店","lon":"121.483972054","lat":"31.264285793","category":"68","category_name":"快餐厅","address":"虹口区四川北路2002弄东泰休闲广场1楼(近山阴路)"},{"poiid":"B209475CD16EABFD489F","title":"城隍庙","lon":"121.485801","lat":"31.265775","category":"500","category_name":"未知分类","address":"上海市 黄埔"},{"poiid":"B2094757D06AA0FB4992","title":"重庆鸡公煲 东泰广场店","lon":"121.483622054","lat":"31.263378793","category":"71","category_name":"四川菜","address":"虹口区四川北路2005号(东泰广场对面)"},{"poiid":"B2094757D468A4F8449A","title":"海尚香","lon":"121.488248","lat":"31.267171","category":"76","category_name":"上海菜","address":"虹口区欧阳路196号法兰桥创意园(近四平路)"},{"poiid":"B2094654D56CA7FC409D","title":"兴业坊","lon":"121.48522","lat":"31.266668","category":"47","category_name":"住宅区","address":"山阴路165弄1-87号"},{"poiid":"B2094757D568A6F4449B","title":"瞿秋白寓所旧址","lon":"121.4852981","lat":"31.26593694","category":"250","category_name":"公园户外","address":"虹口区山阴路133弄12号(吉祥路山阴路)"},{"poiid":"B2094655D36CA2FB4793","title":"山阴路吉祥路","lon":"121.48469","lat":"31.26597","category":"38","category_name":"公交车站","address":""},{"poiid":"B2094654D56CA5FD449A","title":"鑫成大楼","lon":"121.486","lat":"31.267","category":"46","category_name":"楼宇","address":"宝山路746号"},{"poiid":"B2094655D264A5F4469D","title":"百味鱼","lon":"121.48485","lat":"31.26495","category":"71","category_name":"四川菜","address":"虹口区山阴路63号(近四川北路)"},{"poiid":"B2094654D56CA7FC4192","title":"东照里(西门)","lon":"121.48489","lat":"31.26604","category":"47","category_name":"住宅区","address":"山阴路133弄1-113号"},{"poiid":"B2094757D06BA1FD4892","title":"金象大厦","lon":"121.485","lat":"31.2673","category":"252","category_name":"楼宇机构","address":"上海市虹口区华昌路9号"},{"poiid":"B2094655D26CA1FD4592","title":"良友金伴便利连锁No.141","lon":"121.48491","lat":"31.26648","category":"117","category_name":"便民商店/便利店","address":"山阴路155"},{"poiid":"B2094750D564A3F4429F","title":"中梁海伦国际","lon":"121.485882","lat":"31.267202","category":"47","category_name":"住宅区","address":"宝山路748号"},{"poiid":"B2094757D16CA0FC4193","title":"小扁头老鸭粉丝汤","lon":"121.48416","lat":"31.26715","category":"68","category_name":"快餐厅","address":"虹口区山阴路274弄9号(近鲁迅公园)"},{"poiid":"B2094757D064A4FA4693","title":"复兴初级中学","lon":"121.48348","lat":"31.26472","category":"55","category_name":"中学","address":"上海虹口区四川北路2066号  "},{"poiid":"B2094655D269AAF4429D","title":"如家快捷酒店欧阳路店","lon":"121.48817","lat":"31.26579","category":"247","category_name":"餐饮美食","address":"上海市虹口区吉祥路69号(近欧阳路)"},{"poiid":"B2094654DB6AAAF9419E","title":"巴必隆烤肉东泰店","lon":"121.48426","lat":"31.26415","category":"94","category_name":"西餐厅","address":"虹口区四川北路2002弄17号东泰休闲广场205铺(近山阴路)"},{"poiid":"B2094654D56CA7FC409C","title":"兴业坊(西门)","lon":"121.48493","lat":"31.26658","category":"47","category_name":"住宅区","address":"山阴路165弄1-87号"},{"poiid":"B2094654D56CA7FA419A","title":"胡记火锅","lon":"121.48440816216","lat":"31.264882036247","category":"86","category_name":"火锅店","address":"虹口区山阴路18-20号(近四川北路)"},{"poiid":"B2094757D06BA2FD4699","title":"四平路溧阳路口","lon":"121.487234603","lat":"31.2656203219","category":"38","category_name":"公交车站","address":"上海四平路溧阳路口"},{"poiid":"B2094654D56CA0F44698","title":"金叶商楼","lon":"121.48673","lat":"31.267","category":"46","category_name":"楼宇","address":"宝安路272"},{"poiid":"B2094654D56CA7F94399","title":"甜爱咖啡馆","lon":"121.48408","lat":"31.26783","category":"260","category_name":"其他","address":"虹口区甜爱路129号(甜爱路甜爱支路)"},{"poiid":"B2094654D56CA7FC4298","title":"万寿斋","lon":"121.48483604535","lat":"31.266169526803","category":"68","category_name":"快餐厅","address":"虹口区山阴路123号(四达路吉祥路间)"},{"poiid":"B2094655D26BA2F84293","title":"甜爱路","lon":"121.48344","lat":"31.26536","category":"116","category_name":"特色商业街","address":""},{"poiid":"B2094750D66EA5F94192","title":"觅糖记","lon":"121.483413","lat":"31.265596","category":"67","category_name":"甜品店","address":"虹口区甜爱路11号(近四川北路)"},{"poiid":"B2094757D46DABFA419F","title":"哈根达斯 四川北路店 Haagen-Dazs","lon":"121.483787","lat":"31.264406","category":"113","category_name":"冷饮店","address":"虹口区四川北路1661号凯鸿商场1楼(近东宝兴路)"},{"poiid":"B2094757D06FA2F44092","title":"甜爱路心型邮筒","lon":"121.483449795","lat":"31.2644705499","category":"260","category_name":"其他","address":"上海甜爱路3号对面"},{"poiid":"B2094654DB6AAAF9419A","title":"必胜客东泰餐厅","lon":"121.48393","lat":"31.26451","category":"68","category_name":"快餐厅","address":"四川北路2002弄17号东泰休闲广场1-2层"},{"poiid":"B2094757D06FA3F9489E","title":"飞龙生煎","lon":"121.484089067","lat":"31.2644533438","category":"68","category_name":"快餐厅","address":"虹口区四川北路2002号东泰休闲广场1楼(近山阴路)"},{"poiid":"B2094757D06FA1FC469F","title":"生仕鱼林港(四川北路店)","lon":"121.48429","lat":"31.26422","category":"86","category_name":"火锅店","address":"虹口区四川北路2002号东泰休闲广场17号2楼(近山阴路)"},{"poiid":"B2094654D56CA7FA4192","title":"东泰休闲广场","lon":"121.48425","lat":"31.26416","category":"119","category_name":"商场","address":"虹口区四川北路2002号东泰休闲广场内(近山阴路)"},{"poiid":"B2094757D06FA4FD449A","title":"山阴路","lon":"121.48394016","lat":"31.26469785","category":"500","category_name":"未知分类","address":"上海市虹口区山阴路"},{"poiid":"B2094757D06BA5F84699","title":"复地新都国际","lon":"121.48436466224","lat":"31.264570145955","category":"47","category_name":"住宅区","address":"吴中区临湖镇腾飞路588号(腾飞路与东山大道交汇处向西1500米)"},{"poiid":"B2094757D065A6FC4093","title":"光头生煎","lon":"121.4845941","lat":"31.266254335","category":"68","category_name":"快餐厅","address":"虹口区山阴路141号(近吉祥路)"},{"poiid":"B2094757D068A1F5429B","title":"光头面馆 山阴路店","lon":"121.48487","lat":"31.266139","category":"68","category_name":"快餐厅","address":"虹口区山阴路139号(近吉祥路)"},{"poiid":"B2094655D26EA3F84393","title":"味千拉面四川北路店","lon":"121.48346","lat":"31.2648","category":"95","category_name":"日本料理","address":"虹口区四川北路2058号(近甜爱路)"},{"poiid":"B2094753D26EA2FA409C","title":"虹口足球场","lon":"121.484102","lat":"31.265335","category":"220","category_name":"运动场所","address":"上海市 东江湾路100号"},{"poiid":"B2094654DB69A0F5419B","title":"鲁迅故居","lon":"121.48435","lat":"31.26613","category":"243","category_name":"纪念馆","address":"虹口区山阴路132弄(大陆新村)9号"},{"poiid":"B2094757D069A2F84693","title":"巴黎贝甜(欧阳店)","lon":"121.48845857","lat":"31.266445989","category":"67","category_name":"甜品店","address":"虹口区欧阳路198号(近吉祥路)"},{"poiid":"B2094757D068A2F5479C","title":"南馨园酒店","lon":"121.48543489","lat":"31.268350135","category":"72","category_name":"广东菜","address":"虹口区山阴路277号(近鲁迅公园)"},{"poiid":"B2094757D16AABFB449F","title":"溧阳路","lon":"121.486091","lat":"31.263604","category":"500","category_name":"未知分类","address":"上海溧阳路四川北路"},{"poiid":"B2094757D068A7FA489C","title":"予约时尚(山阴路店)","lon":"121.48487469","lat":"31.264853465","category":"148","category_name":"美容美发店","address":"虹口区山阴路51号(近东泰休闲广场)"},{"poiid":"B2094757D068A6F5489E","title":"鸭王(虹口店)","lon":"121.4843","lat":"31.26422","category":"260","category_name":"其他","address":"虹口区四川北路2002弄17号东泰休闲广场3楼(近山阴路)"},{"poiid":"B2094654D56CA7FC429A","title":"东照里","lon":"121.48529","lat":"31.265934","category":"47","category_name":"住宅区","address":"山阴路133弄1-113号"},{"poiid":"B2094757D469A7FF489B","title":"虹口糕团","lon":"121.48353","lat":"31.26454","category":"87","category_name":"特色／地方风味餐厅","address":"虹口区四川北路2305号-2(近虹口足球场站)"},{"poiid":"B2094655D26BA2F8439A","title":"甜爱路四川北路","lon":"121.48337","lat":"31.26492","category":"38","category_name":"公交车站","address":""},{"poiid":"B2094757D06BA7FB469C","title":"虹口区第三中心小学","lon":"121.48555","lat":"31.2654","category":"253","category_name":"校园生活","address":"虹口区山阴路103号(吉祥路山阴路)"},{"poiid":"B2094757D069A2F54398","title":"ART OF MEDITERRANEAN","lon":"121.4866609","lat":"31.266087731","category":"184","category_name":"美术馆","address":"上海虹口区欧阳路196号法兰桥创意园4号楼B座区底座"},{"poiid":"B2094654DB6AAAF8479D","title":"瞿秋白故居","lon":"121.48529","lat":"31.26593","category":"243","category_name":"纪念馆","address":"山阴路133弄12号"},{"poiid":"B2094753D565A2F5439D","title":"串趣-成都串串香","lon":"121.484336","lat":"31.267522","category":"247","category_name":"餐饮美食","address":"上海市 虹口区东江湾路444号虹口足球场106室"},{"poiid":"B2094757D66BA0F4449A","title":"复茂小龙虾 四川北路店","lon":"121.483972054","lat":"31.264285793","category":"68","category_name":"快餐厅","address":"虹口区四川北路2002弄东泰休闲广场1楼(近山阴路)"},{"poiid":"B209475CD16EABFD489F","title":"城隍庙","lon":"121.485801","lat":"31.265775","category":"500","category_name":"未知分类","address":"上海市 黄埔"},{"poiid":"B2094757D06AA0FB4992","title":"重庆鸡公煲 东泰广场店","lon":"121.483622054","lat":"31.263378793","category":"71","category_name":"四川菜","address":"虹口区四川北路2005号(东泰广场对面)"},{"poiid":"B2094757D468A4F8449A","title":"海尚香","lon":"121.488248","lat":"31.267171","category":"76","category_name":"上海菜","address":"虹口区欧阳路196号法兰桥创意园(近四平路)"},{"poiid":"B2094654D56CA7FC409D","title":"兴业坊","lon":"121.48522","lat":"31.266668","category":"47","category_name":"住宅区","address":"山阴路165弄1-87号"},{"poiid":"B2094757D568A6F4449B","title":"瞿秋白寓所旧址","lon":"121.4852981","lat":"31.26593694","category":"250","category_name":"公园户外","address":"虹口区山阴路133弄12号(吉祥路山阴路)"},{"poiid":"B2094655D36CA2FB4793","title":"山阴路吉祥路","lon":"121.48469","lat":"31.26597","category":"38","category_name":"公交车站","address":""},{"poiid":"B2094654D56CA5FD449A","title":"鑫成大楼","lon":"121.486","lat":"31.267","category":"46","category_name":"楼宇","address":"宝山路746号"},{"poiid":"B2094655D264A5F4469D","title":"百味鱼","lon":"121.48485","lat":"31.26495","category":"71","category_name":"四川菜","address":"虹口区山阴路63号(近四川北路)"},{"poiid":"B2094654D56CA7FC4192","title":"东照里(西门)","lon":"121.48489","lat":"31.26604","category":"47","category_name":"住宅区","address":"山阴路133弄1-113号"},{"poiid":"B2094757D06BA1FD4892","title":"金象大厦","lon":"121.485","lat":"31.2673","category":"252","category_name":"楼宇机构","address":"上海市虹口区华昌路9号"},{"poiid":"B2094655D26CA1FD4592","title":"良友金伴便利连锁No.141","lon":"121.48491","lat":"31.26648","category":"117","category_name":"便民商店/便利店","address":"山阴路155"},{"poiid":"B2094750D564A3F4429F","title":"中梁海伦国际","lon":"121.485882","lat":"31.267202","category":"47","category_name":"住宅区","address":"宝山路748号"},{"poiid":"B2094757D16CA0FC4193","title":"小扁头老鸭粉丝汤","lon":"121.48416","lat":"31.26715","category":"68","category_name":"快餐厅","address":"虹口区山阴路274弄9号(近鲁迅公园)"},{"poiid":"B2094757D064A4FA4693","title":"复兴初级中学","lon":"121.48348","lat":"31.26472","category":"55","category_name":"中学","address":"上海虹口区四川北路2066号  "},{"poiid":"B2094655D269AAF4429D","title":"如家快捷酒店欧阳路店","lon":"121.48817","lat":"31.26579","category":"247","category_name":"餐饮美食","address":"上海市虹口区吉祥路69号(近欧阳路)"},{"poiid":"B2094654DB6AAAF9419E","title":"巴必隆烤肉东泰店","lon":"121.48426","lat":"31.26415","category":"94","category_name":"西餐厅","address":"虹口区四川北路2002弄17号东泰休闲广场205铺(近山阴路)"},{"poiid":"B2094654D56CA7FC409C","title":"兴业坊(西门)","lon":"121.48493","lat":"31.26658","category":"47","category_name":"住宅区","address":"山阴路165弄1-87号"},{"poiid":"B2094654D56CA7FA419A","title":"胡记火锅","lon":"121.48440816216","lat":"31.264882036247","category":"86","category_name":"火锅店","address":"虹口区山阴路18-20号(近四川北路)"},{"poiid":"B2094757D06BA2FD4699","title":"四平路溧阳路口","lon":"121.487234603","lat":"31.2656203219","category":"38","category_name":"公交车站","address":"上海四平路溧阳路口"},{"poiid":"B2094654D56CA0F44698","title":"金叶商楼","lon":"121.48673","lat":"31.267","category":"46","category_name":"楼宇","address":"宝安路272"}]