[{"poiid":"B2094757D06FA3FD4598","title":"衡山路","lon":"121.44432","lat":"31.20163","category":"260","category_name":"其他","address":"徐汇区衡山路(衡山路吴兴路)"},{"poiid":"B2094757D06FA3F54592","title":"Glo London","lon":"121.44812058","lat":"31.209113018","category":"94","category_name":"西餐厅","address":"徐汇区乌鲁木齐南路1号甲(近东平路)"},{"poiid":"B2094654DA6DA7F9479B","title":"基督教国际礼拜堂","lon":"121.44808","lat":"31.20635","category":"245","category_name":"教堂","address":"徐汇区衡山路53号(近乌鲁木齐路)"},{"poiid":"B2094753D76FAAFA449C","title":"上海滩国泰旗舰店","lon":"121.466011","lat":"31.216125","category":"249","category_name":"购物服务","address":"淮海中路868号"},{"poiid":"B209475CD564A7F8439E","title":"上海滩中信泰富店","lon":"121.45602","lat":"31.22851","category":"119","category_name":"商场","address":"\"南京西路1168号中信泰富广场，店铺号221.\r\n\""},{"poiid":"B2094757D66DA4FD4499","title":"菲芘酒吧","lon":"121.447201886","lat":"31.2057479523","category":"174","category_name":"迪厅","address":"上海衡山路10号甲一层"},{"poiid":"B2094750D768A7F9479D","title":"ShanghaiBrewery","lon":"121.449","lat":"31.2086","category":"269","category_name":"烧烤","address":"东平路15号(近衡山路)"},{"poiid":"B2094655D26AABFE469C","title":"SOHOCLUB","lon":"121.44773","lat":"31.20662","category":"247","category_name":"餐饮美食","address":"徐汇区衡山路10号"},{"poiid":"B2094757D568AAF94199","title":"Shari","lon":"121.44823703","lat":"31.20476101","category":"95","category_name":"日本料理","address":"徐汇区永嘉路630号(近乌鲁木齐南路)"},{"poiid":"B2094757DB6FA2FB499A","title":"衡山路十二号豪华精选酒店","lon":"121.44645321431","lat":"31.20471978314","category":"215","category_name":"三星级宾馆","address":"徐汇区衡山路12号"},{"poiid":"B2094757D06EAAFF4899","title":"星巴克 衡山路店 Starbucks Cafe","lon":"121.446764054","lat":"31.206216793","category":"260","category_name":"其他","address":"徐汇区衡山路4号领馆广场内(近乌鲁木齐南路)"},{"poiid":"B2094757D06EAAFC4292","title":"菲比","lon":"121.44647479","lat":"31.204945495","category":"172","category_name":"酒吧","address":"徐汇区衡山路10号欧登大厦1楼(近乌鲁木齐南路)"},{"poiid":"B2094757D069A1FB499E","title":"ZAPATA'S","lon":"121.44930898","lat":"31.208128978","category":"500","category_name":"未知分类","address":"上海衡山路5号近东平路"},{"poiid":"B2094757D665AAF8409F","title":"西界酒吧 West Side","lon":"121.447479054","lat":"31.205316793","category":"260","category_name":"其他","address":"徐汇区衡山路237号(近高安路)"},{"poiid":"B2094757D06AA2FB4299","title":"MT3","lon":"121.44685058","lat":"31.205462946","category":"500","category_name":"未知分类","address":"上海衡山路10号"},{"poiid":"B2094757D06FA0FF4399","title":"欧登保龄球馆","lon":"121.44951","lat":"31.20788","category":"171","category_name":"台球厅","address":"徐汇区衡山路10号甲欧登大厦3楼(近乌鲁木齐南路)"},{"poiid":"B2094750D268A4FE499B","title":"momo牧场","lon":"121.448776","lat":"31.208055","category":"500","category_name":"未知分类","address":null},{"poiid":"B2094757D06EAAF54392","title":"衡山路地铁站","lon":"121.44659716","lat":"31.204602285","category":"36","category_name":"地铁站","address":"上海轨道交通 一号线 轨交衡山路站 1"},{"poiid":"B2094757D06FAAF9499C","title":"一哥海鲜火锅","lon":"121.446774586","lat":"31.2056789509","category":"86","category_name":"火锅店","address":"徐汇区衡山路10号(近高安路)"},{"poiid":"B2094654DA6DA7F94592","title":"欧登","lon":"121.44657","lat":"31.20556","category":"46","category_name":"楼宇","address":"上海衡山路10号甲"},{"poiid":"B2094757D068A3FA409D","title":"衡山路乌鲁木齐南路","lon":"121.4482784","lat":"31.2070633","category":"500","category_name":"未知分类","address":"上海衡山路乌鲁木齐南路"},{"poiid":"B2094757D068A1F94798","title":"图安蟹味馆","lon":"121.445137232","lat":"31.2068752777","category":"257","category_name":"中餐厅","address":"徐汇区高安路1号上海图书馆后花园(近淮海中路)"},{"poiid":"B2094654DB64A6F9499A","title":"美国领事馆","lon":"121.44721","lat":"31.2088","category":"252","category_name":"楼宇机构","address":"乌鲁木齐中路"},{"poiid":"B2094757D068A3FD4392","title":"俏江南(徐汇店)","lon":"121.44857","lat":"31.20908","category":"71","category_name":"四川菜","address":"徐汇区桃江路28号-1(近衡山路)"},{"poiid":"B2094757DA65A4F9449A","title":"Pizza Marzano","lon":"121.4464178961901","lat":"31.20727251752392","category":"247","category_name":"餐饮美食","address":"永嘉庭"},{"poiid":"B2094757D064A0FC4799","title":"拉妃酒吧","lon":"121.448665586","lat":"31.2074949864","category":"179","category_name":"音乐厅","address":"上海衡山路10号"},{"poiid":"B2094757D469A1F44492","title":"苏荷CD3 SOHO CLUB","lon":"121.448456054","lat":"31.206970793","category":"172","category_name":"酒吧","address":"徐汇区衡山路4号(乌鲁木齐路口)"},{"poiid":"B2094654DB69A7FD439E","title":"品川","lon":"121.44807","lat":"31.20909","category":"71","category_name":"四川菜","address":"徐汇区桃江路47号(近乌鲁木齐南路)"},{"poiid":"B2094757D069A4F44493","title":"Club Phebe","lon":"121.44689243","lat":"31.205410175","category":"500","category_name":"未知分类","address":"上海衡山路乌鲁木齐路"},{"poiid":"B2094757D068A4F44393","title":"Madison","lon":"121.448763528","lat":"31.2088393742","category":"94","category_name":"西餐厅","address":"徐汇区汾阳路3号2号楼1楼(近淮海中路)"},{"poiid":"B2094757D068A4FF459E","title":"巴犀烧烤屋","lon":"121.44698","lat":"31.20507","category":"94","category_name":"西餐厅","address":"徐汇区衡山路4号领馆广场内(近乌鲁木齐南路)"},{"poiid":"B2094750DA65A7F5429B","title":"彭于晏妈妈的小城故事店里面","lon":"121.447845","lat":"31.208089","category":"247","category_name":"餐饮美食","address":null},{"poiid":"B2094655D26EA1FD429D","title":"一千零一夜 1001 Nights Restaurant","lon":"121.446904988","lat":"31.207006173934","category":"247","category_name":"餐饮美食","address":"徐汇区衡山路4号领馆广场内(近乌鲁木齐南路)"},{"poiid":"B2094655D26EAAF84199","title":"唐韵茶坊 徐汇店","lon":"121.44775275124","lat":"31.205628558528","category":"66","category_name":"茶艺馆","address":"徐汇区衡山路199号(高安路乌鲁木齐路间)"},{"poiid":"B2094757D068ABFE439C","title":"鸿艺会会所(淮海中路店)","lon":"121.44689","lat":"31.2094","category":"221","category_name":"健身中心","address":"徐汇区淮海中路1500号(近乌鲁木齐中路)"},{"poiid":"B2094757DA69A2FB4893","title":"上海真爱酒吧Truelove","lon":"121.44662487568","lat":"31.205536497467","category":"172","category_name":"酒吧","address":"徐汇区衡山路10号(近高安路)"},{"poiid":"B2094757D068A0F4409A","title":"Azul Tapas lounge","lon":"121.44865","lat":"31.20865","category":"94","category_name":"西餐厅","address":"徐汇区东平路18-2号(近衡山路)"},{"poiid":"B2094654DA6DA7F9459C","title":"MT Club(衡山路店)","lon":"121.44657","lat":"31.20556","category":"248","category_name":"生活娱乐","address":"上海徐汇区衡山路10号欧登保龄球甲2楼"},{"poiid":"B2094757D069A0F44998","title":"Bulldog Shanghai(英国斗牛犬)","lon":"121.44805362","lat":"31.208418656","category":"172","category_name":"酒吧","address":"徐汇区乌鲁木齐南路1号(衡山路美领馆对面)"},{"poiid":"B2094654DA6DA7F9469E","title":"Starbucks Coffee(衡山路)","lon":"121.44757","lat":"31.20641","category":"65","category_name":"咖啡厅","address":"天平路"},{"poiid":"B2094757D464ABF9439C","title":"棒约翰比萨 衡山店 Papa John's Pizza","lon":"121.44805620007","lat":"31.207111525182","category":"94","category_name":"西餐厅","address":"徐汇区衡山路4号(近乌鲁木齐南路)"},{"poiid":"B2094750D06CA7FD409A","title":"SomeWhere秘境咖啡馆","lon":"121.44684","lat":"31.20488","category":"260","category_name":"其他","address":"徐汇区衡山路235号1楼(近高安路)"},{"poiid":"B2094654DB6AA7FB4498","title":"市图书馆","lon":"121.44555","lat":"31.2068","category":"181","category_name":"图书馆","address":"徐汇区淮海中路1555号"},{"poiid":"B2094751D36DA6FF4099","title":"悦海壹号","lon":"121.44688","lat":"31.20476","category":"76","category_name":"上海菜","address":"徐汇区衡山路237号高安公馆2楼(近永嘉路)"},{"poiid":"B2094757D065A7FF4293","title":"高安公馆","lon":"121.44793176","lat":"31.205789923","category":"500","category_name":"未知分类","address":"徐汇区衡山路237号(近永嘉路)"},{"poiid":"B2094654DA6DA4FA499E","title":"东平大楼","lon":"121.44892","lat":"31.20856","category":"46","category_name":"楼宇","address":"闸北区江场西路38号(近共和新路)"},{"poiid":"B2094750DA6EA6FC429D","title":"欧登保龄球","lon":"121.4468","lat":"31.205379","category":"220","category_name":"运动场所","address":"衡山路10号"},{"poiid":"B2094757D069A1FC499F","title":"乐加尔松音","lon":"121.44813362","lat":"31.207068655","category":"76","category_name":"上海菜","address":"徐汇区衡山路4号领馆广场2楼(近乌鲁木齐南路)"},{"poiid":"B2094757D76DA0FD4499","title":"和平官邸 东平路店","lon":"121.448434","lat":"31.208901","category":"76","category_name":"上海菜","address":"徐汇区东平路16号(近衡山路)"},{"poiid":"B2094757D568A6FC409C","title":"MT3酒吧衡山路店","lon":"121.4479519","lat":"31.20690889","category":"172","category_name":"酒吧","address":"衡山路10号甲"},{"poiid":"B2094757D06FA3FD4598","title":"衡山路","lon":"121.44432","lat":"31.20163","category":"260","category_name":"其他","address":"徐汇区衡山路(衡山路吴兴路)"},{"poiid":"B2094757D06FA3F54592","title":"Glo London","lon":"121.44812058","lat":"31.209113018","category":"94","category_name":"西餐厅","address":"徐汇区乌鲁木齐南路1号甲(近东平路)"},{"poiid":"B2094654DA6DA7F9479B","title":"基督教国际礼拜堂","lon":"121.44808","lat":"31.20635","category":"245","category_name":"教堂","address":"徐汇区衡山路53号(近乌鲁木齐路)"},{"poiid":"B2094753D76FAAFA449C","title":"上海滩国泰旗舰店","lon":"121.466011","lat":"31.216125","category":"249","category_name":"购物服务","address":"淮海中路868号"},{"poiid":"B209475CD564A7F8439E","title":"上海滩中信泰富店","lon":"121.45602","lat":"31.22851","category":"119","category_name":"商场","address":"\"南京西路1168号中信泰富广场，店铺号221.\r\n\""},{"poiid":"B2094757D66DA4FD4499","title":"菲芘酒吧","lon":"121.447201886","lat":"31.2057479523","category":"174","category_name":"迪厅","address":"上海衡山路10号甲一层"},{"poiid":"B2094750D768A7F9479D","title":"ShanghaiBrewery","lon":"121.449","lat":"31.2086","category":"269","category_name":"烧烤","address":"东平路15号(近衡山路)"},{"poiid":"B2094655D26AABFE469C","title":"SOHOCLUB","lon":"121.44773","lat":"31.20662","category":"247","category_name":"餐饮美食","address":"徐汇区衡山路10号"},{"poiid":"B2094757D568AAF94199","title":"Shari","lon":"121.44823703","lat":"31.20476101","category":"95","category_name":"日本料理","address":"徐汇区永嘉路630号(近乌鲁木齐南路)"},{"poiid":"B2094757DB6FA2FB499A","title":"衡山路十二号豪华精选酒店","lon":"121.44645321431","lat":"31.20471978314","category":"215","category_name":"三星级宾馆","address":"徐汇区衡山路12号"},{"poiid":"B2094757D06EAAFF4899","title":"星巴克 衡山路店 Starbucks Cafe","lon":"121.446764054","lat":"31.206216793","category":"260","category_name":"其他","address":"徐汇区衡山路4号领馆广场内(近乌鲁木齐南路)"},{"poiid":"B2094757D06EAAFC4292","title":"菲比","lon":"121.44647479","lat":"31.204945495","category":"172","category_name":"酒吧","address":"徐汇区衡山路10号欧登大厦1楼(近乌鲁木齐南路)"},{"poiid":"B2094757D069A1FB499E","title":"ZAPATA'S","lon":"121.44930898","lat":"31.208128978","category":"500","category_name":"未知分类","address":"上海衡山路5号近东平路"},{"poiid":"B2094757D665AAF8409F","title":"西界酒吧 West Side","lon":"121.447479054","lat":"31.205316793","category":"260","category_name":"其他","address":"徐汇区衡山路237号(近高安路)"},{"poiid":"B2094757D06AA2FB4299","title":"MT3","lon":"121.44685058","lat":"31.205462946","category":"500","category_name":"未知分类","address":"上海衡山路10号"},{"poiid":"B2094757D06FA0FF4399","title":"欧登保龄球馆","lon":"121.44951","lat":"31.20788","category":"171","category_name":"台球厅","address":"徐汇区衡山路10号甲欧登大厦3楼(近乌鲁木齐南路)"},{"poiid":"B2094750D268A4FE499B","title":"momo牧场","lon":"121.448776","lat":"31.208055","category":"500","category_name":"未知分类","address":null},{"poiid":"B2094757D06EAAF54392","title":"衡山路地铁站","lon":"121.44659716","lat":"31.204602285","category":"36","category_name":"地铁站","address":"上海轨道交通 一号线 轨交衡山路站 1"},{"poiid":"B2094757D06FAAF9499C","title":"一哥海鲜火锅","lon":"121.446774586","lat":"31.2056789509","category":"86","category_name":"火锅店","address":"徐汇区衡山路10号(近高安路)"},{"poiid":"B2094654DA6DA7F94592","title":"欧登","lon":"121.44657","lat":"31.20556","category":"46","category_name":"楼宇","address":"上海衡山路10号甲"},{"poiid":"B2094757D068A3FA409D","title":"衡山路乌鲁木齐南路","lon":"121.4482784","lat":"31.2070633","category":"500","category_name":"未知分类","address":"上海衡山路乌鲁木齐南路"},{"poiid":"B2094757D068A1F94798","title":"图安蟹味馆","lon":"121.445137232","lat":"31.2068752777","category":"257","category_name":"中餐厅","address":"徐汇区高安路1号上海图书馆后花园(近淮海中路)"},{"poiid":"B2094654DB64A6F9499A","title":"美国领事馆","lon":"121.44721","lat":"31.2088","category":"252","category_name":"楼宇机构","address":"乌鲁木齐中路"},{"poiid":"B2094757D068A3FD4392","title":"俏江南(徐汇店)","lon":"121.44857","lat":"31.20908","category":"71","category_name":"四川菜","address":"徐汇区桃江路28号-1(近衡山路)"},{"poiid":"B2094757DA65A4F9449A","title":"Pizza Marzano","lon":"121.4464178961901","lat":"31.20727251752392","category":"247","category_name":"餐饮美食","address":"永嘉庭"},{"poiid":"B2094757D064A0FC4799","title":"拉妃酒吧","lon":"121.448665586","lat":"31.2074949864","category":"179","category_name":"音乐厅","address":"上海衡山路10号"},{"poiid":"B2094757D469A1F44492","title":"苏荷CD3 SOHO CLUB","lon":"121.448456054","lat":"31.206970793","category":"172","category_name":"酒吧","address":"徐汇区衡山路4号(乌鲁木齐路口)"},{"poiid":"B2094654DB69A7FD439E","title":"品川","lon":"121.44807","lat":"31.20909","category":"71","category_name":"四川菜","address":"徐汇区桃江路47号(近乌鲁木齐南路)"},{"poiid":"B2094757D069A4F44493","title":"Club Phebe","lon":"121.44689243","lat":"31.205410175","category":"500","category_name":"未知分类","address":"上海衡山路乌鲁木齐路"},{"poiid":"B2094757D068A4F44393","title":"Madison","lon":"121.448763528","lat":"31.2088393742","category":"94","category_name":"西餐厅","address":"徐汇区汾阳路3号2号楼1楼(近淮海中路)"},{"poiid":"B2094757D068A4FF459E","title":"巴犀烧烤屋","lon":"121.44698","lat":"31.20507","category":"94","category_name":"西餐厅","address":"徐汇区衡山路4号领馆广场内(近乌鲁木齐南路)"},{"poiid":"B2094750DA65A7F5429B","title":"彭于晏妈妈的小城故事店里面","lon":"121.447845","lat":"31.208089","category":"247","category_name":"餐饮美食","address":null},{"poiid":"B2094655D26EA1FD429D","title":"一千零一夜 1001 Nights Restaurant","lon":"121.446904988","lat":"31.207006173934","category":"247","category_name":"餐饮美食","address":"徐汇区衡山路4号领馆广场内(近乌鲁木齐南路)"},{"poiid":"B2094655D26EAAF84199","title":"唐韵茶坊 徐汇店","lon":"121.44775275124","lat":"31.205628558528","category":"66","category_name":"茶艺馆","address":"徐汇区衡山路199号(高安路乌鲁木齐路间)"},{"poiid":"B2094757D068ABFE439C","title":"鸿艺会会所(淮海中路店)","lon":"121.44689","lat":"31.2094","category":"221","category_name":"健身中心","address":"徐汇区淮海中路1500号(近乌鲁木齐中路)"},{"poiid":"B2094757DA69A2FB4893","title":"上海真爱酒吧Truelove","lon":"121.44662487568","lat":"31.205536497467","category":"172","category_name":"酒吧","address":"徐汇区衡山路10号(近高安路)"},{"poiid":"B2094757D068A0F4409A","title":"Azul Tapas lounge","lon":"121.44865","lat":"31.20865","category":"94","category_name":"西餐厅","address":"徐汇区东平路18-2号(近衡山路)"},{"poiid":"B2094654DA6DA7F9459C","title":"MT Club(衡山路店)","lon":"121.44657","lat":"31.20556","category":"248","category_name":"生活娱乐","address":"上海徐汇区衡山路10号欧登保龄球甲2楼"},{"poiid":"B2094757D069A0F44998","title":"Bulldog Shanghai(英国斗牛犬)","lon":"121.44805362","lat":"31.208418656","category":"172","category_name":"酒吧","address":"徐汇区乌鲁木齐南路1号(衡山路美领馆对面)"},{"poiid":"B2094654DA6DA7F9469E","title":"Starbucks Coffee(衡山路)","lon":"121.44757","lat":"31.20641","category":"65","category_name":"咖啡厅","address":"天平路"},{"poiid":"B2094757D464ABF9439C","title":"棒约翰比萨 衡山店 Papa John's Pizza","lon":"121.44805620007","lat":"31.207111525182","category":"94","category_name":"西餐厅","address":"徐汇区衡山路4号(近乌鲁木齐南路)"},{"poiid":"B2094750D06CA7FD409A","title":"SomeWhere秘境咖啡馆","lon":"121.44684","lat":"31.20488","category":"260","category_name":"其他","address":"徐汇区衡山路235号1楼(近高安路)"},{"poiid":"B2094654DB6AA7FB4498","title":"市图书馆","lon":"121.44555","lat":"31.2068","category":"181","category_name":"图书馆","address":"徐汇区淮海中路1555号"},{"poiid":"B2094751D36DA6FF4099","title":"悦海壹号","lon":"121.44688","lat":"31.20476","category":"76","category_name":"上海菜","address":"徐汇区衡山路237号高安公馆2楼(近永嘉路)"},{"poiid":"B2094757D065A7FF4293","title":"高安公馆","lon":"121.44793176","lat":"31.205789923","category":"500","category_name":"未知分类","address":"徐汇区衡山路237号(近永嘉路)"},{"poiid":"B2094654DA6DA4FA499E","title":"东平大楼","lon":"121.44892","lat":"31.20856","category":"46","category_name":"楼宇","address":"闸北区江场西路38号(近共和新路)"},{"poiid":"B2094750DA6EA6FC429D","title":"欧登保龄球","lon":"121.4468","lat":"31.205379","category":"220","category_name":"运动场所","address":"衡山路10号"},{"poiid":"B2094757D069A1FC499F","title":"乐加尔松音","lon":"121.44813362","lat":"31.207068655","category":"76","category_name":"上海菜","address":"徐汇区衡山路4号领馆广场2楼(近乌鲁木齐南路)"},{"poiid":"B2094757D76DA0FD4499","title":"和平官邸 东平路店","lon":"121.448434","lat":"31.208901","category":"76","category_name":"上海菜","address":"徐汇区东平路16号(近衡山路)"},{"poiid":"B2094757D568A6FC409C","title":"MT3酒吧衡山路店","lon":"121.4479519","lat":"31.20690889","category":"172","category_name":"酒吧","address":"衡山路10号甲"},{"poiid":"B2094757D06FA3FD4598","title":"衡山路","lon":"121.44432","lat":"31.20163","category":"260","category_name":"其他","address":"徐汇区衡山路(衡山路吴兴路)"},{"poiid":"B2094757D06FA3F54592","title":"Glo London","lon":"121.44812058","lat":"31.209113018","category":"94","category_name":"西餐厅","address":"徐汇区乌鲁木齐南路1号甲(近东平路)"},{"poiid":"B2094654DA6DA7F9479B","title":"基督教国际礼拜堂","lon":"121.44808","lat":"31.20635","category":"245","category_name":"教堂","address":"徐汇区衡山路53号(近乌鲁木齐路)"},{"poiid":"B2094753D76FAAFA449C","title":"上海滩国泰旗舰店","lon":"121.466011","lat":"31.216125","category":"249","category_name":"购物服务","address":"淮海中路868号"},{"poiid":"B209475CD564A7F8439E","title":"上海滩中信泰富店","lon":"121.45602","lat":"31.22851","category":"119","category_name":"商场","address":"\"南京西路1168号中信泰富广场，店铺号221.\r\n\""},{"poiid":"B2094757D66DA4FD4499","title":"菲芘酒吧","lon":"121.447201886","lat":"31.2057479523","category":"174","category_name":"迪厅","address":"上海衡山路10号甲一层"},{"poiid":"B2094750D768A7F9479D","title":"ShanghaiBrewery","lon":"121.449","lat":"31.2086","category":"269","category_name":"烧烤","address":"东平路15号(近衡山路)"},{"poiid":"B2094655D26AABFE469C","title":"SOHOCLUB","lon":"121.44773","lat":"31.20662","category":"247","category_name":"餐饮美食","address":"徐汇区衡山路10号"},{"poiid":"B2094757D568AAF94199","title":"Shari","lon":"121.44823703","lat":"31.20476101","category":"95","category_name":"日本料理","address":"徐汇区永嘉路630号(近乌鲁木齐南路)"},{"poiid":"B2094757DB6FA2FB499A","title":"衡山路十二号豪华精选酒店","lon":"121.44645321431","lat":"31.20471978314","category":"215","category_name":"三星级宾馆","address":"徐汇区衡山路12号"},{"poiid":"B2094757D06EAAFF4899","title":"星巴克 衡山路店 Starbucks Cafe","lon":"121.446764054","lat":"31.206216793","category":"260","category_name":"其他","address":"徐汇区衡山路4号领馆广场内(近乌鲁木齐南路)"},{"poiid":"B2094757D06EAAFC4292","title":"菲比","lon":"121.44647479","lat":"31.204945495","category":"172","category_name":"酒吧","address":"徐汇区衡山路10号欧登大厦1楼(近乌鲁木齐南路)"},{"poiid":"B2094757D069A1FB499E","title":"ZAPATA'S","lon":"121.44930898","lat":"31.208128978","category":"500","category_name":"未知分类","address":"上海衡山路5号近东平路"},{"poiid":"B2094757D665AAF8409F","title":"西界酒吧 West Side","lon":"121.447479054","lat":"31.205316793","category":"260","category_name":"其他","address":"徐汇区衡山路237号(近高安路)"},{"poiid":"B2094757D06AA2FB4299","title":"MT3","lon":"121.44685058","lat":"31.205462946","category":"500","category_name":"未知分类","address":"上海衡山路10号"},{"poiid":"B2094757D06FA0FF4399","title":"欧登保龄球馆","lon":"121.44951","lat":"31.20788","category":"171","category_name":"台球厅","address":"徐汇区衡山路10号甲欧登大厦3楼(近乌鲁木齐南路)"},{"poiid":"B2094750D268A4FE499B","title":"momo牧场","lon":"121.448776","lat":"31.208055","category":"500","category_name":"未知分类","address":null},{"poiid":"B2094757D06EAAF54392","title":"衡山路地铁站","lon":"121.44659716","lat":"31.204602285","category":"36","category_name":"地铁站","address":"上海轨道交通 一号线 轨交衡山路站 1"},{"poiid":"B2094757D06FAAF9499C","title":"一哥海鲜火锅","lon":"121.446774586","lat":"31.2056789509","category":"86","category_name":"火锅店","address":"徐汇区衡山路10号(近高安路)"},{"poiid":"B2094654DA6DA7F94592","title":"欧登","lon":"121.44657","lat":"31.20556","category":"46","category_name":"楼宇","address":"上海衡山路10号甲"},{"poiid":"B2094757D068A3FA409D","title":"衡山路乌鲁木齐南路","lon":"121.4482784","lat":"31.2070633","category":"500","category_name":"未知分类","address":"上海衡山路乌鲁木齐南路"},{"poiid":"B2094757D068A1F94798","title":"图安蟹味馆","lon":"121.445137232","lat":"31.2068752777","category":"257","category_name":"中餐厅","address":"徐汇区高安路1号上海图书馆后花园(近淮海中路)"},{"poiid":"B2094654DB64A6F9499A","title":"美国领事馆","lon":"121.44721","lat":"31.2088","category":"252","category_name":"楼宇机构","address":"乌鲁木齐中路"},{"poiid":"B2094757D068A3FD4392","title":"俏江南(徐汇店)","lon":"121.44857","lat":"31.20908","category":"71","category_name":"四川菜","address":"徐汇区桃江路28号-1(近衡山路)"},{"poiid":"B2094757DA65A4F9449A","title":"Pizza Marzano","lon":"121.4464178961901","lat":"31.20727251752392","category":"247","category_name":"餐饮美食","address":"永嘉庭"},{"poiid":"B2094757D064A0FC4799","title":"拉妃酒吧","lon":"121.448665586","lat":"31.2074949864","category":"179","category_name":"音乐厅","address":"上海衡山路10号"},{"poiid":"B2094757D469A1F44492","title":"苏荷CD3 SOHO CLUB","lon":"121.448456054","lat":"31.206970793","category":"172","category_name":"酒吧","address":"徐汇区衡山路4号(乌鲁木齐路口)"},{"poiid":"B2094654DB69A7FD439E","title":"品川","lon":"121.44807","lat":"31.20909","category":"71","category_name":"四川菜","address":"徐汇区桃江路47号(近乌鲁木齐南路)"},{"poiid":"B2094757D069A4F44493","title":"Club Phebe","lon":"121.44689243","lat":"31.205410175","category":"500","category_name":"未知分类","address":"上海衡山路乌鲁木齐路"},{"poiid":"B2094757D068A4F44393","title":"Madison","lon":"121.448763528","lat":"31.2088393742","category":"94","category_name":"西餐厅","address":"徐汇区汾阳路3号2号楼1楼(近淮海中路)"},{"poiid":"B2094757D068A4FF459E","title":"巴犀烧烤屋","lon":"121.44698","lat":"31.20507","category":"94","category_name":"西餐厅","address":"徐汇区衡山路4号领馆广场内(近乌鲁木齐南路)"},{"poiid":"B2094750DA65A7F5429B","title":"彭于晏妈妈的小城故事店里面","lon":"121.447845","lat":"31.208089","category":"247","category_name":"餐饮美食","address":null},{"poiid":"B2094655D26EA1FD429D","title":"一千零一夜 1001 Nights Restaurant","lon":"121.446904988","lat":"31.207006173934","category":"247","category_name":"餐饮美食","address":"徐汇区衡山路4号领馆广场内(近乌鲁木齐南路)"},{"poiid":"B2094655D26EAAF84199","title":"唐韵茶坊 徐汇店","lon":"121.44775275124","lat":"31.205628558528","category":"66","category_name":"茶艺馆","address":"徐汇区衡山路199号(高安路乌鲁木齐路间)"},{"poiid":"B2094757D068ABFE439C","title":"鸿艺会会所(淮海中路店)","lon":"121.44689","lat":"31.2094","category":"221","category_name":"健身中心","address":"徐汇区淮海中路1500号(近乌鲁木齐中路)"},{"poiid":"B2094757DA69A2FB4893","title":"上海真爱酒吧Truelove","lon":"121.44662487568","lat":"31.205536497467","category":"172","category_name":"酒吧","address":"徐汇区衡山路10号(近高安路)"},{"poiid":"B2094757D068A0F4409A","title":"Azul Tapas lounge","lon":"121.44865","lat":"31.20865","category":"94","category_name":"西餐厅","address":"徐汇区东平路18-2号(近衡山路)"},{"poiid":"B2094654DA6DA7F9459C","title":"MT Club(衡山路店)","lon":"121.44657","lat":"31.20556","category":"248","category_name":"生活娱乐","address":"上海徐汇区衡山路10号欧登保龄球甲2楼"},{"poiid":"B2094757D069A0F44998","title":"Bulldog Shanghai(英国斗牛犬)","lon":"121.44805362","lat":"31.208418656","category":"172","category_name":"酒吧","address":"徐汇区乌鲁木齐南路1号(衡山路美领馆对面)"},{"poiid":"B2094654DA6DA7F9469E","title":"Starbucks Coffee(衡山路)","lon":"121.44757","lat":"31.20641","category":"65","category_name":"咖啡厅","address":"天平路"},{"poiid":"B2094757D464ABF9439C","title":"棒约翰比萨 衡山店 Papa John's Pizza","lon":"121.44805620007","lat":"31.207111525182","category":"94","category_name":"西餐厅","address":"徐汇区衡山路4号(近乌鲁木齐南路)"},{"poiid":"B2094750D06CA7FD409A","title":"SomeWhere秘境咖啡馆","lon":"121.44684","lat":"31.20488","category":"260","category_name":"其他","address":"徐汇区衡山路235号1楼(近高安路)"},{"poiid":"B2094654DB6AA7FB4498","title":"市图书馆","lon":"121.44555","lat":"31.2068","category":"181","category_name":"图书馆","address":"徐汇区淮海中路1555号"},{"poiid":"B2094751D36DA6FF4099","title":"悦海壹号","lon":"121.44688","lat":"31.20476","category":"76","category_name":"上海菜","address":"徐汇区衡山路237号高安公馆2楼(近永嘉路)"},{"poiid":"B2094757D065A7FF4293","title":"高安公馆","lon":"121.44793176","lat":"31.205789923","category":"500","category_name":"未知分类","address":"徐汇区衡山路237号(近永嘉路)"},{"poiid":"B2094654DA6DA4FA499E","title":"东平大楼","lon":"121.44892","lat":"31.20856","category":"46","category_name":"楼宇","address":"闸北区江场西路38号(近共和新路)"},{"poiid":"B2094750DA6EA6FC429D","title":"欧登保龄球","lon":"121.4468","lat":"31.205379","category":"220","category_name":"运动场所","address":"衡山路10号"},{"poiid":"B2094757D069A1FC499F","title":"乐加尔松音","lon":"121.44813362","lat":"31.207068655","category":"76","category_name":"上海菜","address":"徐汇区衡山路4号领馆广场2楼(近乌鲁木齐南路)"},{"poiid":"B2094757D76DA0FD4499","title":"和平官邸 东平路店","lon":"121.448434","lat":"31.208901","category":"76","category_name":"上海菜","address":"徐汇区东平路16号(近衡山路)"},{"poiid":"B2094757D568A6FC409C","title":"MT3酒吧衡山路店","lon":"121.4479519","lat":"31.20690889","category":"172","category_name":"酒吧","address":"衡山路10号甲"},{"poiid":"B2094757D06FA3FD4598","title":"衡山路","lon":"121.44432","lat":"31.20163","category":"260","category_name":"其他","address":"徐汇区衡山路(衡山路吴兴路)"},{"poiid":"B2094757D06FA3F54592","title":"Glo London","lon":"121.44812058","lat":"31.209113018","category":"94","category_name":"西餐厅","address":"徐汇区乌鲁木齐南路1号甲(近东平路)"},{"poiid":"B2094654DA6DA7F9479B","title":"基督教国际礼拜堂","lon":"121.44808","lat":"31.20635","category":"245","category_name":"教堂","address":"徐汇区衡山路53号(近乌鲁木齐路)"},{"poiid":"B2094753D76FAAFA449C","title":"上海滩国泰旗舰店","lon":"121.466011","lat":"31.216125","category":"249","category_name":"购物服务","address":"淮海中路868号"},{"poiid":"B209475CD564A7F8439E","title":"上海滩中信泰富店","lon":"121.45602","lat":"31.22851","category":"119","category_name":"商场","address":"\"南京西路1168号中信泰富广场，店铺号221.\r\n\""},{"poiid":"B2094757D66DA4FD4499","title":"菲芘酒吧","lon":"121.447201886","lat":"31.2057479523","category":"174","category_name":"迪厅","address":"上海衡山路10号甲一层"},{"poiid":"B2094750D768A7F9479D","title":"ShanghaiBrewery","lon":"121.449","lat":"31.2086","category":"269","category_name":"烧烤","address":"东平路15号(近衡山路)"},{"poiid":"B2094655D26AABFE469C","title":"SOHOCLUB","lon":"121.44773","lat":"31.20662","category":"247","category_name":"餐饮美食","address":"徐汇区衡山路10号"},{"poiid":"B2094757D568AAF94199","title":"Shari","lon":"121.44823703","lat":"31.20476101","category":"95","category_name":"日本料理","address":"徐汇区永嘉路630号(近乌鲁木齐南路)"},{"poiid":"B2094757DB6FA2FB499A","title":"衡山路十二号豪华精选酒店","lon":"121.44645321431","lat":"31.20471978314","category":"215","category_name":"三星级宾馆","address":"徐汇区衡山路12号"},{"poiid":"B2094757D06EAAFF4899","title":"星巴克 衡山路店 Starbucks Cafe","lon":"121.446764054","lat":"31.206216793","category":"260","category_name":"其他","address":"徐汇区衡山路4号领馆广场内(近乌鲁木齐南路)"},{"poiid":"B2094757D06EAAFC4292","title":"菲比","lon":"121.44647479","lat":"31.204945495","category":"172","category_name":"酒吧","address":"徐汇区衡山路10号欧登大厦1楼(近乌鲁木齐南路)"},{"poiid":"B2094757D069A1FB499E","title":"ZAPATA'S","lon":"121.44930898","lat":"31.208128978","category":"500","category_name":"未知分类","address":"上海衡山路5号近东平路"},{"poiid":"B2094757D665AAF8409F","title":"西界酒吧 West Side","lon":"121.447479054","lat":"31.205316793","category":"260","category_name":"其他","address":"徐汇区衡山路237号(近高安路)"},{"poiid":"B2094757D06AA2FB4299","title":"MT3","lon":"121.44685058","lat":"31.205462946","category":"500","category_name":"未知分类","address":"上海衡山路10号"},{"poiid":"B2094757D06FA0FF4399","title":"欧登保龄球馆","lon":"121.44951","lat":"31.20788","category":"171","category_name":"台球厅","address":"徐汇区衡山路10号甲欧登大厦3楼(近乌鲁木齐南路)"},{"poiid":"B2094750D268A4FE499B","title":"momo牧场","lon":"121.448776","lat":"31.208055","category":"500","category_name":"未知分类","address":null},{"poiid":"B2094757D06EAAF54392","title":"衡山路地铁站","lon":"121.44659716","lat":"31.204602285","category":"36","category_name":"地铁站","address":"上海轨道交通 一号线 轨交衡山路站 1"},{"poiid":"B2094757D06FAAF9499C","title":"一哥海鲜火锅","lon":"121.446774586","lat":"31.2056789509","category":"86","category_name":"火锅店","address":"徐汇区衡山路10号(近高安路)"},{"poiid":"B2094654DA6DA7F94592","title":"欧登","lon":"121.44657","lat":"31.20556","category":"46","category_name":"楼宇","address":"上海衡山路10号甲"},{"poiid":"B2094757D068A3FA409D","title":"衡山路乌鲁木齐南路","lon":"121.4482784","lat":"31.2070633","category":"500","category_name":"未知分类","address":"上海衡山路乌鲁木齐南路"},{"poiid":"B2094757D068A1F94798","title":"图安蟹味馆","lon":"121.445137232","lat":"31.2068752777","category":"257","category_name":"中餐厅","address":"徐汇区高安路1号上海图书馆后花园(近淮海中路)"},{"poiid":"B2094654DB64A6F9499A","title":"美国领事馆","lon":"121.44721","lat":"31.2088","category":"252","category_name":"楼宇机构","address":"乌鲁木齐中路"},{"poiid":"B2094757D068A3FD4392","title":"俏江南(徐汇店)","lon":"121.44857","lat":"31.20908","category":"71","category_name":"四川菜","address":"徐汇区桃江路28号-1(近衡山路)"},{"poiid":"B2094757DA65A4F9449A","title":"Pizza Marzano","lon":"121.4464178961901","lat":"31.20727251752392","category":"247","category_name":"餐饮美食","address":"永嘉庭"},{"poiid":"B2094757D064A0FC4799","title":"拉妃酒吧","lon":"121.448665586","lat":"31.2074949864","category":"179","category_name":"音乐厅","address":"上海衡山路10号"},{"poiid":"B2094757D469A1F44492","title":"苏荷CD3 SOHO CLUB","lon":"121.448456054","lat":"31.206970793","category":"172","category_name":"酒吧","address":"徐汇区衡山路4号(乌鲁木齐路口)"},{"poiid":"B2094654DB69A7FD439E","title":"品川","lon":"121.44807","lat":"31.20909","category":"71","category_name":"四川菜","address":"徐汇区桃江路47号(近乌鲁木齐南路)"},{"poiid":"B2094757D069A4F44493","title":"Club Phebe","lon":"121.44689243","lat":"31.205410175","category":"500","category_name":"未知分类","address":"上海衡山路乌鲁木齐路"},{"poiid":"B2094757D068A4F44393","title":"Madison","lon":"121.448763528","lat":"31.2088393742","category":"94","category_name":"西餐厅","address":"徐汇区汾阳路3号2号楼1楼(近淮海中路)"},{"poiid":"B2094757D068A4FF459E","title":"巴犀烧烤屋","lon":"121.44698","lat":"31.20507","category":"94","category_name":"西餐厅","address":"徐汇区衡山路4号领馆广场内(近乌鲁木齐南路)"},{"poiid":"B2094750DA65A7F5429B","title":"彭于晏妈妈的小城故事店里面","lon":"121.447845","lat":"31.208089","category":"247","category_name":"餐饮美食","address":null},{"poiid":"B2094655D26EA1FD429D","title":"一千零一夜 1001 Nights Restaurant","lon":"121.446904988","lat":"31.207006173934","category":"247","category_name":"餐饮美食","address":"徐汇区衡山路4号领馆广场内(近乌鲁木齐南路)"},{"poiid":"B2094655D26EAAF84199","title":"唐韵茶坊 徐汇店","lon":"121.44775275124","lat":"31.205628558528","category":"66","category_name":"茶艺馆","address":"徐汇区衡山路199号(高安路乌鲁木齐路间)"},{"poiid":"B2094757D068ABFE439C","title":"鸿艺会会所(淮海中路店)","lon":"121.44689","lat":"31.2094","category":"221","category_name":"健身中心","address":"徐汇区淮海中路1500号(近乌鲁木齐中路)"},{"poiid":"B2094757DA69A2FB4893","title":"上海真爱酒吧Truelove","lon":"121.44662487568","lat":"31.205536497467","category":"172","category_name":"酒吧","address":"徐汇区衡山路10号(近高安路)"},{"poiid":"B2094757D068A0F4409A","title":"Azul Tapas lounge","lon":"121.44865","lat":"31.20865","category":"94","category_name":"西餐厅","address":"徐汇区东平路18-2号(近衡山路)"},{"poiid":"B2094654DA6DA7F9459C","title":"MT Club(衡山路店)","lon":"121.44657","lat":"31.20556","category":"248","category_name":"生活娱乐","address":"上海徐汇区衡山路10号欧登保龄球甲2楼"},{"poiid":"B2094757D069A0F44998","title":"Bulldog Shanghai(英国斗牛犬)","lon":"121.44805362","lat":"31.208418656","category":"172","category_name":"酒吧","address":"徐汇区乌鲁木齐南路1号(衡山路美领馆对面)"},{"poiid":"B2094654DA6DA7F9469E","title":"Starbucks Coffee(衡山路)","lon":"121.44757","lat":"31.20641","category":"65","category_name":"咖啡厅","address":"天平路"},{"poiid":"B2094757D464ABF9439C","title":"棒约翰比萨 衡山店 Papa John's Pizza","lon":"121.44805620007","lat":"31.207111525182","category":"94","category_name":"西餐厅","address":"徐汇区衡山路4号(近乌鲁木齐南路)"},{"poiid":"B2094750D06CA7FD409A","title":"SomeWhere秘境咖啡馆","lon":"121.44684","lat":"31.20488","category":"260","category_name":"其他","address":"徐汇区衡山路235号1楼(近高安路)"},{"poiid":"B2094654DB6AA7FB4498","title":"市图书馆","lon":"121.44555","lat":"31.2068","category":"181","category_name":"图书馆","address":"徐汇区淮海中路1555号"},{"poiid":"B2094751D36DA6FF4099","title":"悦海壹号","lon":"121.44688","lat":"31.20476","category":"76","category_name":"上海菜","address":"徐汇区衡山路237号高安公馆2楼(近永嘉路)"},{"poiid":"B2094757D065A7FF4293","title":"高安公馆","lon":"121.44793176","lat":"31.205789923","category":"500","category_name":"未知分类","address":"徐汇区衡山路237号(近永嘉路)"},{"poiid":"B2094654DA6DA4FA499E","title":"东平大楼","lon":"121.44892","lat":"31.20856","category":"46","category_name":"楼宇","address":"闸北区江场西路38号(近共和新路)"},{"poiid":"B2094750DA6EA6FC429D","title":"欧登保龄球","lon":"121.4468","lat":"31.205379","category":"220","category_name":"运动场所","address":"衡山路10号"},{"poiid":"B2094757D069A1FC499F","title":"乐加尔松音","lon":"121.44813362","lat":"31.207068655","category":"76","category_name":"上海菜","address":"徐汇区衡山路4号领馆广场2楼(近乌鲁木齐南路)"},{"poiid":"B2094757D76DA0FD4499","title":"和平官邸 东平路店","lon":"121.448434","lat":"31.208901","category":"76","category_name":"上海菜","address":"徐汇区东平路16号(近衡山路)"},{"poiid":"B2094757D568A6FC409C","title":"MT3酒吧衡山路店","lon":"121.4479519","lat":"31.20690889","category":"172","category_name":"酒吧","address":"衡山路10号甲"}]