[{"poiid":"B2094654D568A2F84298","title":"上海理工大学(军工路)","lon":"121.55195","lat":"31.29042","category":"671","category_name":"高校中心点","address":"杨浦区军工路516号"},{"poiid":"B2094757D06FA5F4479B","title":"白洋淀足球场","lon":"121.5528030307579","lat":"31.28180025940597","category":"220","category_name":"运动场所","address":"杨浦区周家嘴路4214弄22号(靠近爱国路)"},{"poiid":"B2094654D568A2FF499A","title":"沪江大学","lon":"121.55358","lat":"31.28951","category":"52","category_name":"高等院校","address":"海安路"},{"poiid":"B2094757D06FA1FF4792","title":"卜蜂莲花(周家嘴路店)","lon":"121.55321","lat":"31.28439","category":"118","category_name":"超级市场","address":"杨浦区周家嘴路4295号(近军工路)"},{"poiid":"B2094757D06FA6FC409C","title":"上海海洋大学(军工路校区)","lon":"121.55672","lat":"31.28648","category":"52","category_name":"高等院校","address":"上海杨浦区军工路334号(近易初莲花)  "},{"poiid":"B2094757D06FA5F5459C","title":"水上威尼斯(内江路会所)","lon":"121.54531","lat":"31.28204","category":"149","category_name":"洗浴推拿场所","address":"上海杨浦区内江路365号1-2楼(近周家嘴路)"},{"poiid":"B2094757D06FAAFF4798","title":"肯德基 KFC (周家嘴店)","lon":"121.554073","lat":"31.285973","category":"68","category_name":"快餐厅","address":"杨浦区周家嘴路4295号(近军工路)"},{"poiid":"B2094757D068A2F44398","title":"白洋淀羽毛球馆","lon":"121.5524","lat":"31.28138","category":"220","category_name":"运动场所","address":"杨浦区周家嘴路4214弄22号白洋淀足球场内(近内江路)"},{"poiid":"B2094757D06FA5FB4598","title":"中轩丽苑","lon":"121.55443399","lat":"31.278625913","category":"47","category_name":"住宅区","address":"上海平凉路2625弄"},{"poiid":"B2094757D16EA2F84398","title":"上海理工大学北校区操场","lon":"121.55577533","lat":"31.288551683","category":"500","category_name":"未知分类","address":"上海市杨浦区军工路"},{"poiid":"B2094655D36DA7F9499D","title":"周家嘴路内江路","lon":"121.5468","lat":"31.28135","category":"38","category_name":"公交车站","address":"上海内江路"},{"poiid":"B2094655D26CA6FB419E","title":"上海名流星域汽车服务有限公司","lon":"121.54619","lat":"31.28005","category":"159","category_name":"汽车维修","address":"杨浦区内江路301号(内江路内江支路)"},{"poiid":"B2094757D16DA1F9479E","title":"上海理工大学新体育馆","lon":"121.551655","lat":"31.289982","category":"253","category_name":"校园生活","address":"上海军工路580号"},{"poiid":"B2094757D06AA1FB429B","title":"上海体育学院附属中学","lon":"121.551468","lat":"31.283566","category":"253","category_name":"校园生活","address":"上海杨浦区周家嘴路4220号"},{"poiid":"B2094654DB6BA2FB4898","title":"广远新村小区","lon":"121.54889","lat":"31.28804","category":"47","category_name":"住宅区","address":"上海控江路121弄附近"},{"poiid":"B2094654D568A2F84093","title":"时运苑","lon":"121.55441","lat":"31.288563","category":"47","category_name":"住宅区","address":"上海市杨浦区军工路"},{"poiid":"B2094757D06BA3F4479B","title":"杨浦区精神卫生中心","lon":"121.552021831","lat":"31.2821974532","category":"162","category_name":"医院","address":"上海市杨浦区周家嘴路4214弄16号"},{"poiid":"B2094655D26BA6FC499F","title":"上海市机动车物损事故保险理赔服务中心上汽交运分中心","lon":"121.54611","lat":"31.28014","category":"250","category_name":"公园户外","address":"内江路307"},{"poiid":"B2094757D06FABF4449D","title":"内江公园","lon":"121.54479091","lat":"31.286776312","category":"196","category_name":"公园","address":"上海杨浦区控江路261号(内江路口)"},{"poiid":"B2094757D06FA6F8469E","title":"安居花苑","lon":"121.54992","lat":"31.27841","category":"47","category_name":"住宅区","address":"上海市杨浦区内江路168号(长阳路内江路口)"},{"poiid":"B2094757D068A6FD4998","title":"益民小区","lon":"121.55239","lat":"31.277092","category":"47","category_name":"住宅区","address":"上海平凉路2545弄"},{"poiid":"B2094655D36DA7F9499F","title":"周家嘴路军工路","lon":"121.55425","lat":"31.28593","category":"38","category_name":"公交车站","address":"上海周家嘴路军工路"},{"poiid":"B2094757D069ABFA4598","title":"蒋氏一族特色烧烤","lon":"121.544207054","lat":"31.284887793","category":"68","category_name":"快餐厅","address":"杨浦区内江路471号(近控江路)"},{"poiid":"B2094654D568A3FC469A","title":"杨浦站","lon":"121.55007","lat":"31.2843","category":"22","category_name":"火车站","address":"周家嘴路4041"},{"poiid":"B2094654D568A3FE409C","title":"白洋淀绿苑","lon":"121.55189","lat":"31.281256","category":"47","category_name":"住宅区","address":"上海周家嘴路4214弄"},{"poiid":"B2094757D065A3FE4398","title":"建设新苑","lon":"121.55087","lat":"31.278669","category":"47","category_name":"住宅区","address":"上海市杨浦区爱国路301弄"},{"poiid":"B2094757D66CA4FA479D","title":"上海理工大学二公寓二号楼","lon":"121.553457103","lat":"31.2852857329","category":"500","category_name":"未知分类","address":"上海理工大学"},{"poiid":"B2094655D26BA1F8499B","title":"民主新村","lon":"121.54949","lat":"31.283","category":"38","category_name":"公交车站","address":""},{"poiid":"B2094654D568A3FC4092","title":"控江路121弄129弄小区","lon":"121.54635","lat":"31.28739","category":"47","category_name":"住宅区","address":"控江路129弄1-18号"},{"poiid":"B2094757D065A2FE439E","title":"周家嘴路爱国路","lon":"121.550064","lat":"31.283618","category":"500","category_name":"未知分类","address":"上海33路周家嘴路爱国路"},{"poiid":"B2094654D568A3FE4798","title":"定海社区卫生服务中心","lon":"121.55294","lat":"31.27844","category":"162","category_name":"医院","address":"爱国路77号"},{"poiid":"B2094655D26DABFB4193","title":"内江路小学","lon":"121.54928","lat":"31.28192","category":"56","category_name":"小学","address":"杨浦区民主二村277号"},{"poiid":"B2094655D26CA6FE419F","title":"快客No.6065","lon":"121.55168","lat":"31.28145","category":"117","category_name":"便民商店/便利店","address":"周家嘴路4214弄26号"},{"poiid":"B2094655D26CA6F8419F","title":"周家嘴路沈家桥小区","lon":"121.55409","lat":"31.28524","category":"47","category_name":"住宅区","address":"周家嘴路1-15号、4430-4460号"},{"poiid":"B2094655D26BA4FB499C","title":"青青白洋淀-田园","lon":"121.551619","lat":"31.281302","category":"47","category_name":"住宅区","address":"青青白洋淀-田园位于杨浦周家嘴路4214弄26号"},{"poiid":"B2094654D568A3FE409D","title":"白洋淀绿苑(北门)","lon":"121.55191","lat":"31.28157","category":"47","category_name":"住宅区","address":"周家嘴路4214弄"},{"poiid":"B2094654D568A3FE4192","title":"白洋淀足球场(西门)","lon":"121.55215","lat":"31.28184","category":"230","category_name":"足球场","address":"周家嘴路4214弄22号"},{"poiid":"B2094655D26AA6F9469C","title":"定海路街道图书馆","lon":"121.55179","lat":"31.28149","category":"247","category_name":"餐饮美食","address":"杨浦区周家嘴路4214弄26号4楼(近内江路)"},{"poiid":"B2094757D16CA6F4429B","title":"欣’s home","lon":"121.5518614","lat":"31.284236344","category":"500","category_name":"未知分类","address":"上海控江路59弄18号"},{"poiid":"B2094757D069A4FC4998","title":"吉祥馄饨(控江路店)","lon":"121.55038","lat":"31.28928","category":"68","category_name":"快餐厅","address":"杨浦区控江路51号(近上海理工大学)"},{"poiid":"B2094757D16AA7FF4798","title":"上海理工大学综合楼C区","lon":"121.552987203","lat":"31.2893248174","category":"500","category_name":"未知分类","address":"上海市杨浦区军工路516号上海理工大学"},{"poiid":"B2094654D568A3FD4993","title":"东方国际集团","lon":"121.55189","lat":"31.28413","category":"263","category_name":"公司","address":"周家嘴路4222"},{"poiid":"B2094654D568A3FF4192","title":"樟树缘公寓","lon":"121.55685","lat":"31.281164","category":"47","category_name":"住宅区","address":"上海市杨浦区军工路89号"},{"poiid":"B2094757D069A3FF419F","title":"民主二村","lon":"121.54781","lat":"31.281164","category":"47","category_name":"住宅区","address":"民主二村560-569号"},{"poiid":"B2094757D06BA1FC419E","title":"恬乐酒家","lon":"121.54936366531","lat":"31.289596636997","category":"76","category_name":"上海菜","address":"杨浦区控江路57号(近军工路)"},{"poiid":"B2094757D169A5FC4998","title":"荣章羊肉馆","lon":"121.54597731631","lat":"31.281642523982","category":"86","category_name":"火锅店","address":"杨浦区内江路398号(近控江路)"},{"poiid":"B2094757D16AAAF94399","title":"沈家桥小区","lon":"121.55409","lat":"31.285246","category":"47","category_name":"住宅区","address":"上海杨浦区沈家桥"},{"poiid":"B2094655D26EA4F54798","title":"小四川美食苑(周家嘴店)","lon":"121.55425","lat":"31.28568","category":"71","category_name":"四川菜","address":"周家嘴路4370号近农业银行近军工路"},{"poiid":"B2094757D065A1F84799","title":"图们路排档","lon":"121.54856","lat":"31.28908","category":"68","category_name":"快餐厅","address":"杨浦区图们路(近控江路)"},{"poiid":"B2094757D065A5FB4193","title":"猪圈","lon":"121.5502753","lat":"31.28180936","category":"500","category_name":"未知分类","address":"上海民主二村483号"},{"poiid":"B2094654D568A2F84298","title":"上海理工大学(军工路)","lon":"121.55195","lat":"31.29042","category":"671","category_name":"高校中心点","address":"杨浦区军工路516号"},{"poiid":"B2094757D06FA5F4479B","title":"白洋淀足球场","lon":"121.5528030307579","lat":"31.28180025940597","category":"220","category_name":"运动场所","address":"杨浦区周家嘴路4214弄22号(靠近爱国路)"},{"poiid":"B2094654D568A2FF499A","title":"沪江大学","lon":"121.55358","lat":"31.28951","category":"52","category_name":"高等院校","address":"海安路"},{"poiid":"B2094757D06FA1FF4792","title":"卜蜂莲花(周家嘴路店)","lon":"121.55321","lat":"31.28439","category":"118","category_name":"超级市场","address":"杨浦区周家嘴路4295号(近军工路)"},{"poiid":"B2094757D06FA6FC409C","title":"上海海洋大学(军工路校区)","lon":"121.55672","lat":"31.28648","category":"52","category_name":"高等院校","address":"上海杨浦区军工路334号(近易初莲花)  "},{"poiid":"B2094757D06FA5F5459C","title":"水上威尼斯(内江路会所)","lon":"121.54531","lat":"31.28204","category":"149","category_name":"洗浴推拿场所","address":"上海杨浦区内江路365号1-2楼(近周家嘴路)"},{"poiid":"B2094757D06FAAFF4798","title":"肯德基 KFC (周家嘴店)","lon":"121.554073","lat":"31.285973","category":"68","category_name":"快餐厅","address":"杨浦区周家嘴路4295号(近军工路)"},{"poiid":"B2094757D068A2F44398","title":"白洋淀羽毛球馆","lon":"121.5524","lat":"31.28138","category":"220","category_name":"运动场所","address":"杨浦区周家嘴路4214弄22号白洋淀足球场内(近内江路)"},{"poiid":"B2094757D06FA5FB4598","title":"中轩丽苑","lon":"121.55443399","lat":"31.278625913","category":"47","category_name":"住宅区","address":"上海平凉路2625弄"},{"poiid":"B2094757D16EA2F84398","title":"上海理工大学北校区操场","lon":"121.55577533","lat":"31.288551683","category":"500","category_name":"未知分类","address":"上海市杨浦区军工路"},{"poiid":"B2094655D36DA7F9499D","title":"周家嘴路内江路","lon":"121.5468","lat":"31.28135","category":"38","category_name":"公交车站","address":"上海内江路"},{"poiid":"B2094655D26CA6FB419E","title":"上海名流星域汽车服务有限公司","lon":"121.54619","lat":"31.28005","category":"159","category_name":"汽车维修","address":"杨浦区内江路301号(内江路内江支路)"},{"poiid":"B2094757D16DA1F9479E","title":"上海理工大学新体育馆","lon":"121.551655","lat":"31.289982","category":"253","category_name":"校园生活","address":"上海军工路580号"},{"poiid":"B2094757D06AA1FB429B","title":"上海体育学院附属中学","lon":"121.551468","lat":"31.283566","category":"253","category_name":"校园生活","address":"上海杨浦区周家嘴路4220号"},{"poiid":"B2094654DB6BA2FB4898","title":"广远新村小区","lon":"121.54889","lat":"31.28804","category":"47","category_name":"住宅区","address":"上海控江路121弄附近"},{"poiid":"B2094654D568A2F84093","title":"时运苑","lon":"121.55441","lat":"31.288563","category":"47","category_name":"住宅区","address":"上海市杨浦区军工路"},{"poiid":"B2094757D06BA3F4479B","title":"杨浦区精神卫生中心","lon":"121.552021831","lat":"31.2821974532","category":"162","category_name":"医院","address":"上海市杨浦区周家嘴路4214弄16号"},{"poiid":"B2094655D26BA6FC499F","title":"上海市机动车物损事故保险理赔服务中心上汽交运分中心","lon":"121.54611","lat":"31.28014","category":"250","category_name":"公园户外","address":"内江路307"},{"poiid":"B2094757D06FABF4449D","title":"内江公园","lon":"121.54479091","lat":"31.286776312","category":"196","category_name":"公园","address":"上海杨浦区控江路261号(内江路口)"},{"poiid":"B2094757D06FA6F8469E","title":"安居花苑","lon":"121.54992","lat":"31.27841","category":"47","category_name":"住宅区","address":"上海市杨浦区内江路168号(长阳路内江路口)"},{"poiid":"B2094757D068A6FD4998","title":"益民小区","lon":"121.55239","lat":"31.277092","category":"47","category_name":"住宅区","address":"上海平凉路2545弄"},{"poiid":"B2094655D36DA7F9499F","title":"周家嘴路军工路","lon":"121.55425","lat":"31.28593","category":"38","category_name":"公交车站","address":"上海周家嘴路军工路"},{"poiid":"B2094757D069ABFA4598","title":"蒋氏一族特色烧烤","lon":"121.544207054","lat":"31.284887793","category":"68","category_name":"快餐厅","address":"杨浦区内江路471号(近控江路)"},{"poiid":"B2094654D568A3FC469A","title":"杨浦站","lon":"121.55007","lat":"31.2843","category":"22","category_name":"火车站","address":"周家嘴路4041"},{"poiid":"B2094654D568A3FE409C","title":"白洋淀绿苑","lon":"121.55189","lat":"31.281256","category":"47","category_name":"住宅区","address":"上海周家嘴路4214弄"},{"poiid":"B2094757D065A3FE4398","title":"建设新苑","lon":"121.55087","lat":"31.278669","category":"47","category_name":"住宅区","address":"上海市杨浦区爱国路301弄"},{"poiid":"B2094757D66CA4FA479D","title":"上海理工大学二公寓二号楼","lon":"121.553457103","lat":"31.2852857329","category":"500","category_name":"未知分类","address":"上海理工大学"},{"poiid":"B2094655D26BA1F8499B","title":"民主新村","lon":"121.54949","lat":"31.283","category":"38","category_name":"公交车站","address":""},{"poiid":"B2094654D568A3FC4092","title":"控江路121弄129弄小区","lon":"121.54635","lat":"31.28739","category":"47","category_name":"住宅区","address":"控江路129弄1-18号"},{"poiid":"B2094757D065A2FE439E","title":"周家嘴路爱国路","lon":"121.550064","lat":"31.283618","category":"500","category_name":"未知分类","address":"上海33路周家嘴路爱国路"},{"poiid":"B2094654D568A3FE4798","title":"定海社区卫生服务中心","lon":"121.55294","lat":"31.27844","category":"162","category_name":"医院","address":"爱国路77号"},{"poiid":"B2094655D26DABFB4193","title":"内江路小学","lon":"121.54928","lat":"31.28192","category":"56","category_name":"小学","address":"杨浦区民主二村277号"},{"poiid":"B2094655D26CA6FE419F","title":"快客No.6065","lon":"121.55168","lat":"31.28145","category":"117","category_name":"便民商店/便利店","address":"周家嘴路4214弄26号"},{"poiid":"B2094655D26CA6F8419F","title":"周家嘴路沈家桥小区","lon":"121.55409","lat":"31.28524","category":"47","category_name":"住宅区","address":"周家嘴路1-15号、4430-4460号"},{"poiid":"B2094655D26BA4FB499C","title":"青青白洋淀-田园","lon":"121.551619","lat":"31.281302","category":"47","category_name":"住宅区","address":"青青白洋淀-田园位于杨浦周家嘴路4214弄26号"},{"poiid":"B2094654D568A3FE409D","title":"白洋淀绿苑(北门)","lon":"121.55191","lat":"31.28157","category":"47","category_name":"住宅区","address":"周家嘴路4214弄"},{"poiid":"B2094654D568A3FE4192","title":"白洋淀足球场(西门)","lon":"121.55215","lat":"31.28184","category":"230","category_name":"足球场","address":"周家嘴路4214弄22号"},{"poiid":"B2094655D26AA6F9469C","title":"定海路街道图书馆","lon":"121.55179","lat":"31.28149","category":"247","category_name":"餐饮美食","address":"杨浦区周家嘴路4214弄26号4楼(近内江路)"},{"poiid":"B2094757D16CA6F4429B","title":"欣’s home","lon":"121.5518614","lat":"31.284236344","category":"500","category_name":"未知分类","address":"上海控江路59弄18号"},{"poiid":"B2094757D069A4FC4998","title":"吉祥馄饨(控江路店)","lon":"121.55038","lat":"31.28928","category":"68","category_name":"快餐厅","address":"杨浦区控江路51号(近上海理工大学)"},{"poiid":"B2094757D16AA7FF4798","title":"上海理工大学综合楼C区","lon":"121.552987203","lat":"31.2893248174","category":"500","category_name":"未知分类","address":"上海市杨浦区军工路516号上海理工大学"},{"poiid":"B2094654D568A3FD4993","title":"东方国际集团","lon":"121.55189","lat":"31.28413","category":"263","category_name":"公司","address":"周家嘴路4222"},{"poiid":"B2094654D568A3FF4192","title":"樟树缘公寓","lon":"121.55685","lat":"31.281164","category":"47","category_name":"住宅区","address":"上海市杨浦区军工路89号"},{"poiid":"B2094757D069A3FF419F","title":"民主二村","lon":"121.54781","lat":"31.281164","category":"47","category_name":"住宅区","address":"民主二村560-569号"},{"poiid":"B2094757D06BA1FC419E","title":"恬乐酒家","lon":"121.54936366531","lat":"31.289596636997","category":"76","category_name":"上海菜","address":"杨浦区控江路57号(近军工路)"},{"poiid":"B2094757D169A5FC4998","title":"荣章羊肉馆","lon":"121.54597731631","lat":"31.281642523982","category":"86","category_name":"火锅店","address":"杨浦区内江路398号(近控江路)"},{"poiid":"B2094757D16AAAF94399","title":"沈家桥小区","lon":"121.55409","lat":"31.285246","category":"47","category_name":"住宅区","address":"上海杨浦区沈家桥"},{"poiid":"B2094655D26EA4F54798","title":"小四川美食苑(周家嘴店)","lon":"121.55425","lat":"31.28568","category":"71","category_name":"四川菜","address":"周家嘴路4370号近农业银行近军工路"},{"poiid":"B2094757D065A1F84799","title":"图们路排档","lon":"121.54856","lat":"31.28908","category":"68","category_name":"快餐厅","address":"杨浦区图们路(近控江路)"},{"poiid":"B2094757D065A5FB4193","title":"猪圈","lon":"121.5502753","lat":"31.28180936","category":"500","category_name":"未知分类","address":"上海民主二村483号"},{"poiid":"B2094654D568A2F84298","title":"上海理工大学(军工路)","lon":"121.55195","lat":"31.29042","category":"671","category_name":"高校中心点","address":"杨浦区军工路516号"},{"poiid":"B2094757D06FA5F4479B","title":"白洋淀足球场","lon":"121.5528030307579","lat":"31.28180025940597","category":"220","category_name":"运动场所","address":"杨浦区周家嘴路4214弄22号(靠近爱国路)"},{"poiid":"B2094654D568A2FF499A","title":"沪江大学","lon":"121.55358","lat":"31.28951","category":"52","category_name":"高等院校","address":"海安路"},{"poiid":"B2094757D06FA1FF4792","title":"卜蜂莲花(周家嘴路店)","lon":"121.55321","lat":"31.28439","category":"118","category_name":"超级市场","address":"杨浦区周家嘴路4295号(近军工路)"},{"poiid":"B2094757D06FA6FC409C","title":"上海海洋大学(军工路校区)","lon":"121.55672","lat":"31.28648","category":"52","category_name":"高等院校","address":"上海杨浦区军工路334号(近易初莲花)  "},{"poiid":"B2094757D06FA5F5459C","title":"水上威尼斯(内江路会所)","lon":"121.54531","lat":"31.28204","category":"149","category_name":"洗浴推拿场所","address":"上海杨浦区内江路365号1-2楼(近周家嘴路)"},{"poiid":"B2094757D06FAAFF4798","title":"肯德基 KFC (周家嘴店)","lon":"121.554073","lat":"31.285973","category":"68","category_name":"快餐厅","address":"杨浦区周家嘴路4295号(近军工路)"},{"poiid":"B2094757D068A2F44398","title":"白洋淀羽毛球馆","lon":"121.5524","lat":"31.28138","category":"220","category_name":"运动场所","address":"杨浦区周家嘴路4214弄22号白洋淀足球场内(近内江路)"},{"poiid":"B2094757D06FA5FB4598","title":"中轩丽苑","lon":"121.55443399","lat":"31.278625913","category":"47","category_name":"住宅区","address":"上海平凉路2625弄"},{"poiid":"B2094757D16EA2F84398","title":"上海理工大学北校区操场","lon":"121.55577533","lat":"31.288551683","category":"500","category_name":"未知分类","address":"上海市杨浦区军工路"},{"poiid":"B2094655D36DA7F9499D","title":"周家嘴路内江路","lon":"121.5468","lat":"31.28135","category":"38","category_name":"公交车站","address":"上海内江路"},{"poiid":"B2094655D26CA6FB419E","title":"上海名流星域汽车服务有限公司","lon":"121.54619","lat":"31.28005","category":"159","category_name":"汽车维修","address":"杨浦区内江路301号(内江路内江支路)"},{"poiid":"B2094757D16DA1F9479E","title":"上海理工大学新体育馆","lon":"121.551655","lat":"31.289982","category":"253","category_name":"校园生活","address":"上海军工路580号"},{"poiid":"B2094757D06AA1FB429B","title":"上海体育学院附属中学","lon":"121.551468","lat":"31.283566","category":"253","category_name":"校园生活","address":"上海杨浦区周家嘴路4220号"},{"poiid":"B2094654DB6BA2FB4898","title":"广远新村小区","lon":"121.54889","lat":"31.28804","category":"47","category_name":"住宅区","address":"上海控江路121弄附近"},{"poiid":"B2094654D568A2F84093","title":"时运苑","lon":"121.55441","lat":"31.288563","category":"47","category_name":"住宅区","address":"上海市杨浦区军工路"},{"poiid":"B2094757D06BA3F4479B","title":"杨浦区精神卫生中心","lon":"121.552021831","lat":"31.2821974532","category":"162","category_name":"医院","address":"上海市杨浦区周家嘴路4214弄16号"},{"poiid":"B2094655D26BA6FC499F","title":"上海市机动车物损事故保险理赔服务中心上汽交运分中心","lon":"121.54611","lat":"31.28014","category":"250","category_name":"公园户外","address":"内江路307"},{"poiid":"B2094757D06FABF4449D","title":"内江公园","lon":"121.54479091","lat":"31.286776312","category":"196","category_name":"公园","address":"上海杨浦区控江路261号(内江路口)"},{"poiid":"B2094757D06FA6F8469E","title":"安居花苑","lon":"121.54992","lat":"31.27841","category":"47","category_name":"住宅区","address":"上海市杨浦区内江路168号(长阳路内江路口)"},{"poiid":"B2094757D068A6FD4998","title":"益民小区","lon":"121.55239","lat":"31.277092","category":"47","category_name":"住宅区","address":"上海平凉路2545弄"},{"poiid":"B2094655D36DA7F9499F","title":"周家嘴路军工路","lon":"121.55425","lat":"31.28593","category":"38","category_name":"公交车站","address":"上海周家嘴路军工路"},{"poiid":"B2094757D069ABFA4598","title":"蒋氏一族特色烧烤","lon":"121.544207054","lat":"31.284887793","category":"68","category_name":"快餐厅","address":"杨浦区内江路471号(近控江路)"},{"poiid":"B2094654D568A3FC469A","title":"杨浦站","lon":"121.55007","lat":"31.2843","category":"22","category_name":"火车站","address":"周家嘴路4041"},{"poiid":"B2094654D568A3FE409C","title":"白洋淀绿苑","lon":"121.55189","lat":"31.281256","category":"47","category_name":"住宅区","address":"上海周家嘴路4214弄"},{"poiid":"B2094757D065A3FE4398","title":"建设新苑","lon":"121.55087","lat":"31.278669","category":"47","category_name":"住宅区","address":"上海市杨浦区爱国路301弄"},{"poiid":"B2094757D66CA4FA479D","title":"上海理工大学二公寓二号楼","lon":"121.553457103","lat":"31.2852857329","category":"500","category_name":"未知分类","address":"上海理工大学"},{"poiid":"B2094655D26BA1F8499B","title":"民主新村","lon":"121.54949","lat":"31.283","category":"38","category_name":"公交车站","address":""},{"poiid":"B2094654D568A3FC4092","title":"控江路121弄129弄小区","lon":"121.54635","lat":"31.28739","category":"47","category_name":"住宅区","address":"控江路129弄1-18号"},{"poiid":"B2094757D065A2FE439E","title":"周家嘴路爱国路","lon":"121.550064","lat":"31.283618","category":"500","category_name":"未知分类","address":"上海33路周家嘴路爱国路"},{"poiid":"B2094654D568A3FE4798","title":"定海社区卫生服务中心","lon":"121.55294","lat":"31.27844","category":"162","category_name":"医院","address":"爱国路77号"},{"poiid":"B2094655D26DABFB4193","title":"内江路小学","lon":"121.54928","lat":"31.28192","category":"56","category_name":"小学","address":"杨浦区民主二村277号"},{"poiid":"B2094655D26CA6FE419F","title":"快客No.6065","lon":"121.55168","lat":"31.28145","category":"117","category_name":"便民商店/便利店","address":"周家嘴路4214弄26号"},{"poiid":"B2094655D26CA6F8419F","title":"周家嘴路沈家桥小区","lon":"121.55409","lat":"31.28524","category":"47","category_name":"住宅区","address":"周家嘴路1-15号、4430-4460号"},{"poiid":"B2094655D26BA4FB499C","title":"青青白洋淀-田园","lon":"121.551619","lat":"31.281302","category":"47","category_name":"住宅区","address":"青青白洋淀-田园位于杨浦周家嘴路4214弄26号"},{"poiid":"B2094654D568A3FE409D","title":"白洋淀绿苑(北门)","lon":"121.55191","lat":"31.28157","category":"47","category_name":"住宅区","address":"周家嘴路4214弄"},{"poiid":"B2094654D568A3FE4192","title":"白洋淀足球场(西门)","lon":"121.55215","lat":"31.28184","category":"230","category_name":"足球场","address":"周家嘴路4214弄22号"},{"poiid":"B2094655D26AA6F9469C","title":"定海路街道图书馆","lon":"121.55179","lat":"31.28149","category":"247","category_name":"餐饮美食","address":"杨浦区周家嘴路4214弄26号4楼(近内江路)"},{"poiid":"B2094757D16CA6F4429B","title":"欣’s home","lon":"121.5518614","lat":"31.284236344","category":"500","category_name":"未知分类","address":"上海控江路59弄18号"},{"poiid":"B2094757D069A4FC4998","title":"吉祥馄饨(控江路店)","lon":"121.55038","lat":"31.28928","category":"68","category_name":"快餐厅","address":"杨浦区控江路51号(近上海理工大学)"},{"poiid":"B2094757D16AA7FF4798","title":"上海理工大学综合楼C区","lon":"121.552987203","lat":"31.2893248174","category":"500","category_name":"未知分类","address":"上海市杨浦区军工路516号上海理工大学"},{"poiid":"B2094654D568A3FD4993","title":"东方国际集团","lon":"121.55189","lat":"31.28413","category":"263","category_name":"公司","address":"周家嘴路4222"},{"poiid":"B2094654D568A3FF4192","title":"樟树缘公寓","lon":"121.55685","lat":"31.281164","category":"47","category_name":"住宅区","address":"上海市杨浦区军工路89号"},{"poiid":"B2094757D069A3FF419F","title":"民主二村","lon":"121.54781","lat":"31.281164","category":"47","category_name":"住宅区","address":"民主二村560-569号"},{"poiid":"B2094757D06BA1FC419E","title":"恬乐酒家","lon":"121.54936366531","lat":"31.289596636997","category":"76","category_name":"上海菜","address":"杨浦区控江路57号(近军工路)"},{"poiid":"B2094757D169A5FC4998","title":"荣章羊肉馆","lon":"121.54597731631","lat":"31.281642523982","category":"86","category_name":"火锅店","address":"杨浦区内江路398号(近控江路)"},{"poiid":"B2094757D16AAAF94399","title":"沈家桥小区","lon":"121.55409","lat":"31.285246","category":"47","category_name":"住宅区","address":"上海杨浦区沈家桥"},{"poiid":"B2094655D26EA4F54798","title":"小四川美食苑(周家嘴店)","lon":"121.55425","lat":"31.28568","category":"71","category_name":"四川菜","address":"周家嘴路4370号近农业银行近军工路"},{"poiid":"B2094757D065A1F84799","title":"图们路排档","lon":"121.54856","lat":"31.28908","category":"68","category_name":"快餐厅","address":"杨浦区图们路(近控江路)"},{"poiid":"B2094757D065A5FB4193","title":"猪圈","lon":"121.5502753","lat":"31.28180936","category":"500","category_name":"未知分类","address":"上海民主二村483号"},{"poiid":"B2094654D568A2F84298","title":"上海理工大学(军工路)","lon":"121.55195","lat":"31.29042","category":"671","category_name":"高校中心点","address":"杨浦区军工路516号"},{"poiid":"B2094757D06FA5F4479B","title":"白洋淀足球场","lon":"121.5528030307579","lat":"31.28180025940597","category":"220","category_name":"运动场所","address":"杨浦区周家嘴路4214弄22号(靠近爱国路)"},{"poiid":"B2094654D568A2FF499A","title":"沪江大学","lon":"121.55358","lat":"31.28951","category":"52","category_name":"高等院校","address":"海安路"},{"poiid":"B2094757D06FA1FF4792","title":"卜蜂莲花(周家嘴路店)","lon":"121.55321","lat":"31.28439","category":"118","category_name":"超级市场","address":"杨浦区周家嘴路4295号(近军工路)"},{"poiid":"B2094757D06FA6FC409C","title":"上海海洋大学(军工路校区)","lon":"121.55672","lat":"31.28648","category":"52","category_name":"高等院校","address":"上海杨浦区军工路334号(近易初莲花)  "},{"poiid":"B2094757D06FA5F5459C","title":"水上威尼斯(内江路会所)","lon":"121.54531","lat":"31.28204","category":"149","category_name":"洗浴推拿场所","address":"上海杨浦区内江路365号1-2楼(近周家嘴路)"},{"poiid":"B2094757D06FAAFF4798","title":"肯德基 KFC (周家嘴店)","lon":"121.554073","lat":"31.285973","category":"68","category_name":"快餐厅","address":"杨浦区周家嘴路4295号(近军工路)"},{"poiid":"B2094757D068A2F44398","title":"白洋淀羽毛球馆","lon":"121.5524","lat":"31.28138","category":"220","category_name":"运动场所","address":"杨浦区周家嘴路4214弄22号白洋淀足球场内(近内江路)"},{"poiid":"B2094757D06FA5FB4598","title":"中轩丽苑","lon":"121.55443399","lat":"31.278625913","category":"47","category_name":"住宅区","address":"上海平凉路2625弄"},{"poiid":"B2094757D16EA2F84398","title":"上海理工大学北校区操场","lon":"121.55577533","lat":"31.288551683","category":"500","category_name":"未知分类","address":"上海市杨浦区军工路"},{"poiid":"B2094655D36DA7F9499D","title":"周家嘴路内江路","lon":"121.5468","lat":"31.28135","category":"38","category_name":"公交车站","address":"上海内江路"},{"poiid":"B2094655D26CA6FB419E","title":"上海名流星域汽车服务有限公司","lon":"121.54619","lat":"31.28005","category":"159","category_name":"汽车维修","address":"杨浦区内江路301号(内江路内江支路)"},{"poiid":"B2094757D16DA1F9479E","title":"上海理工大学新体育馆","lon":"121.551655","lat":"31.289982","category":"253","category_name":"校园生活","address":"上海军工路580号"},{"poiid":"B2094757D06AA1FB429B","title":"上海体育学院附属中学","lon":"121.551468","lat":"31.283566","category":"253","category_name":"校园生活","address":"上海杨浦区周家嘴路4220号"},{"poiid":"B2094654DB6BA2FB4898","title":"广远新村小区","lon":"121.54889","lat":"31.28804","category":"47","category_name":"住宅区","address":"上海控江路121弄附近"},{"poiid":"B2094654D568A2F84093","title":"时运苑","lon":"121.55441","lat":"31.288563","category":"47","category_name":"住宅区","address":"上海市杨浦区军工路"},{"poiid":"B2094757D06BA3F4479B","title":"杨浦区精神卫生中心","lon":"121.552021831","lat":"31.2821974532","category":"162","category_name":"医院","address":"上海市杨浦区周家嘴路4214弄16号"},{"poiid":"B2094655D26BA6FC499F","title":"上海市机动车物损事故保险理赔服务中心上汽交运分中心","lon":"121.54611","lat":"31.28014","category":"250","category_name":"公园户外","address":"内江路307"},{"poiid":"B2094757D06FABF4449D","title":"内江公园","lon":"121.54479091","lat":"31.286776312","category":"196","category_name":"公园","address":"上海杨浦区控江路261号(内江路口)"},{"poiid":"B2094757D06FA6F8469E","title":"安居花苑","lon":"121.54992","lat":"31.27841","category":"47","category_name":"住宅区","address":"上海市杨浦区内江路168号(长阳路内江路口)"},{"poiid":"B2094757D068A6FD4998","title":"益民小区","lon":"121.55239","lat":"31.277092","category":"47","category_name":"住宅区","address":"上海平凉路2545弄"},{"poiid":"B2094655D36DA7F9499F","title":"周家嘴路军工路","lon":"121.55425","lat":"31.28593","category":"38","category_name":"公交车站","address":"上海周家嘴路军工路"},{"poiid":"B2094757D069ABFA4598","title":"蒋氏一族特色烧烤","lon":"121.544207054","lat":"31.284887793","category":"68","category_name":"快餐厅","address":"杨浦区内江路471号(近控江路)"},{"poiid":"B2094654D568A3FC469A","title":"杨浦站","lon":"121.55007","lat":"31.2843","category":"22","category_name":"火车站","address":"周家嘴路4041"},{"poiid":"B2094654D568A3FE409C","title":"白洋淀绿苑","lon":"121.55189","lat":"31.281256","category":"47","category_name":"住宅区","address":"上海周家嘴路4214弄"},{"poiid":"B2094757D065A3FE4398","title":"建设新苑","lon":"121.55087","lat":"31.278669","category":"47","category_name":"住宅区","address":"上海市杨浦区爱国路301弄"},{"poiid":"B2094757D66CA4FA479D","title":"上海理工大学二公寓二号楼","lon":"121.553457103","lat":"31.2852857329","category":"500","category_name":"未知分类","address":"上海理工大学"},{"poiid":"B2094655D26BA1F8499B","title":"民主新村","lon":"121.54949","lat":"31.283","category":"38","category_name":"公交车站","address":""},{"poiid":"B2094654D568A3FC4092","title":"控江路121弄129弄小区","lon":"121.54635","lat":"31.28739","category":"47","category_name":"住宅区","address":"控江路129弄1-18号"},{"poiid":"B2094757D065A2FE439E","title":"周家嘴路爱国路","lon":"121.550064","lat":"31.283618","category":"500","category_name":"未知分类","address":"上海33路周家嘴路爱国路"},{"poiid":"B2094654D568A3FE4798","title":"定海社区卫生服务中心","lon":"121.55294","lat":"31.27844","category":"162","category_name":"医院","address":"爱国路77号"},{"poiid":"B2094655D26DABFB4193","title":"内江路小学","lon":"121.54928","lat":"31.28192","category":"56","category_name":"小学","address":"杨浦区民主二村277号"},{"poiid":"B2094655D26CA6FE419F","title":"快客No.6065","lon":"121.55168","lat":"31.28145","category":"117","category_name":"便民商店/便利店","address":"周家嘴路4214弄26号"},{"poiid":"B2094655D26CA6F8419F","title":"周家嘴路沈家桥小区","lon":"121.55409","lat":"31.28524","category":"47","category_name":"住宅区","address":"周家嘴路1-15号、4430-4460号"},{"poiid":"B2094655D26BA4FB499C","title":"青青白洋淀-田园","lon":"121.551619","lat":"31.281302","category":"47","category_name":"住宅区","address":"青青白洋淀-田园位于杨浦周家嘴路4214弄26号"},{"poiid":"B2094654D568A3FE409D","title":"白洋淀绿苑(北门)","lon":"121.55191","lat":"31.28157","category":"47","category_name":"住宅区","address":"周家嘴路4214弄"},{"poiid":"B2094654D568A3FE4192","title":"白洋淀足球场(西门)","lon":"121.55215","lat":"31.28184","category":"230","category_name":"足球场","address":"周家嘴路4214弄22号"},{"poiid":"B2094655D26AA6F9469C","title":"定海路街道图书馆","lon":"121.55179","lat":"31.28149","category":"247","category_name":"餐饮美食","address":"杨浦区周家嘴路4214弄26号4楼(近内江路)"},{"poiid":"B2094757D16CA6F4429B","title":"欣’s home","lon":"121.5518614","lat":"31.284236344","category":"500","category_name":"未知分类","address":"上海控江路59弄18号"},{"poiid":"B2094757D069A4FC4998","title":"吉祥馄饨(控江路店)","lon":"121.55038","lat":"31.28928","category":"68","category_name":"快餐厅","address":"杨浦区控江路51号(近上海理工大学)"},{"poiid":"B2094757D16AA7FF4798","title":"上海理工大学综合楼C区","lon":"121.552987203","lat":"31.2893248174","category":"500","category_name":"未知分类","address":"上海市杨浦区军工路516号上海理工大学"},{"poiid":"B2094654D568A3FD4993","title":"东方国际集团","lon":"121.55189","lat":"31.28413","category":"263","category_name":"公司","address":"周家嘴路4222"},{"poiid":"B2094654D568A3FF4192","title":"樟树缘公寓","lon":"121.55685","lat":"31.281164","category":"47","category_name":"住宅区","address":"上海市杨浦区军工路89号"},{"poiid":"B2094757D069A3FF419F","title":"民主二村","lon":"121.54781","lat":"31.281164","category":"47","category_name":"住宅区","address":"民主二村560-569号"},{"poiid":"B2094757D06BA1FC419E","title":"恬乐酒家","lon":"121.54936366531","lat":"31.289596636997","category":"76","category_name":"上海菜","address":"杨浦区控江路57号(近军工路)"},{"poiid":"B2094757D169A5FC4998","title":"荣章羊肉馆","lon":"121.54597731631","lat":"31.281642523982","category":"86","category_name":"火锅店","address":"杨浦区内江路398号(近控江路)"},{"poiid":"B2094757D16AAAF94399","title":"沈家桥小区","lon":"121.55409","lat":"31.285246","category":"47","category_name":"住宅区","address":"上海杨浦区沈家桥"},{"poiid":"B2094655D26EA4F54798","title":"小四川美食苑(周家嘴店)","lon":"121.55425","lat":"31.28568","category":"71","category_name":"四川菜","address":"周家嘴路4370号近农业银行近军工路"},{"poiid":"B2094757D065A1F84799","title":"图们路排档","lon":"121.54856","lat":"31.28908","category":"68","category_name":"快餐厅","address":"杨浦区图们路(近控江路)"},{"poiid":"B2094757D065A5FB4193","title":"猪圈","lon":"121.5502753","lat":"31.28180936","category":"500","category_name":"未知分类","address":"上海民主二村483号"}]