[{"poiid":"B2094654D56FA4F94499","title":"上海理工大学出版印刷学院(水丰路)","lon":"121.54316","lat":"31.28289","category":"52","category_name":"高等院校","address":"杨浦区水丰路100"},{"poiid":"B2094757D06FA6FF479D","title":"老北京铜锅(内江路店)","lon":"121.54395931","lat":"31.284936407","category":"80","category_name":"北京菜","address":"上海杨浦区内江路469号(近海城路口)"},{"poiid":"B2094757D06FA0FE4292","title":"欧洲豪庭·韵都城(长白路)","lon":"121.545433745","lat":"31.2892559194","category":"47","category_name":"住宅区","address":"上海市杨浦区控江路128弄"},{"poiid":"B2094757D06FA5F5459C","title":"水上威尼斯(内江路会所)","lon":"121.54531","lat":"31.28204","category":"149","category_name":"洗浴推拿场所","address":"上海杨浦区内江路365号1-2楼(近周家嘴路)"},{"poiid":"B2094655D36CA1F54198","title":"控江路内江路","lon":"121.54199","lat":"31.28586","category":"38","category_name":"公交车站","address":""},{"poiid":"B2094655D26CA6FC479C","title":"上海出版印刷高等专科学校","lon":"121.54317","lat":"31.28289","category":"671","category_name":"高校中心点","address":"杨浦区内江路397号"},{"poiid":"B2094655D36DA7F9499D","title":"周家嘴路内江路","lon":"121.5468","lat":"31.28135","category":"38","category_name":"公交车站","address":"上海内江路"},{"poiid":"B2094655D26CA6FB419E","title":"上海名流星域汽车服务有限公司","lon":"121.54619","lat":"31.28005","category":"159","category_name":"汽车维修","address":"杨浦区内江路301号(内江路内江支路)"},{"poiid":"B2094654D56FA4F9449B","title":"上海理工大学水丰路校区","lon":"121.54316","lat":"31.28289","category":"52","category_name":"高等院校","address":"水丰路100"},{"poiid":"B2094757D069ABFA4598","title":"蒋氏一族特色烧烤","lon":"121.544207054","lat":"31.284887793","category":"68","category_name":"快餐厅","address":"杨浦区内江路471号(近控江路)"},{"poiid":"B2094757D06FABF4449D","title":"内江公园","lon":"121.54479091","lat":"31.286776312","category":"196","category_name":"公园","address":"上海杨浦区控江路261号(内江路口)"},{"poiid":"B2094655D26BA6FC499F","title":"上海市机动车物损事故保险理赔服务中心上汽交运分中心","lon":"121.54611","lat":"31.28014","category":"250","category_name":"公园户外","address":"内江路307"},{"poiid":"B2094654DB6BA2FB4898","title":"广远新村小区","lon":"121.54889","lat":"31.28804","category":"47","category_name":"住宅区","address":"上海控江路121弄附近"},{"poiid":"B2094654D568A3FC4092","title":"控江路121弄129弄小区","lon":"121.54635","lat":"31.28739","category":"47","category_name":"住宅区","address":"控江路129弄1-18号"},{"poiid":"B2094655D26FA0FA419B","title":"控江绿苑(边门)","lon":"121.54611","lat":"31.28494","category":"47","category_name":"住宅区","address":"控江路129弄"},{"poiid":"B2094757D06BA7FC4698","title":"城隍庙特色小吃 内江路店","lon":"121.543868054","lat":"31.286406793","category":"68","category_name":"快餐厅","address":"杨浦区内江路498号(近控江路)"},{"poiid":"B2094654D56FAAF54699","title":"韵都城","lon":"121.54703","lat":"31.28971","category":"47","category_name":"住宅区","address":"长白路37"},{"poiid":"B2094757D06AA1FB429B","title":"上海体育学院附属中学","lon":"121.551468","lat":"31.283566","category":"253","category_name":"校园生活","address":"上海杨浦区周家嘴路4220号"},{"poiid":"B2094757D76DABFE469F","title":"豪大大台湾大鸡排 内江店","lon":"121.54479","lat":"31.28339","category":"68","category_name":"快餐厅","address":"杨浦区内江路391弄16号(近周家嘴路)"},{"poiid":"B2094655D26FA6FB499D","title":"上海东亚学院","lon":"121.54446","lat":"31.28492","category":"52","category_name":"高等院校","address":"内江路462"},{"poiid":"B2094757D46CA7FB459F","title":"钱家老北京涮锅","lon":"121.54399","lat":"31.28486","category":"86","category_name":"火锅店","address":"杨浦区内江路469号(近控江路)"},{"poiid":"B2094654D568A3FC439C","title":"控江绿苑(北门)","lon":"121.54584","lat":"31.28524","category":"47","category_name":"住宅区","address":"控江路129弄边门"},{"poiid":"B2094757D169A5FC4998","title":"荣章羊肉馆","lon":"121.54597731631","lat":"31.281642523982","category":"86","category_name":"火锅店","address":"杨浦区内江路398号(近控江路)"},{"poiid":"B2094654D56FA4FA459F","title":"上海理工大学出版印刷学院(东门)","lon":"121.5445","lat":"31.28366","category":"52","category_name":"高等院校","address":"杨浦区内江路397"},{"poiid":"B2094752D165A6FE4693","title":"上海理工大学","lon":"121.547424","lat":"31.283325","category":"500","category_name":"未知分类","address":null},{"poiid":"B2094654D56FA4FA439A","title":"纯子屋酒家","lon":"121.54574964126","lat":"31.282234844863","category":"76","category_name":"上海菜","address":"杨浦区内江路443号(海城路内江路)"},{"poiid":"B2094757D66EABFB439C","title":"苏乡园烧鸡公","lon":"121.544096103","lat":"31.2852017312","category":"86","category_name":"火锅店","address":"杨浦区内江路469号(近控江路)"},{"poiid":"B2094757D069AAF8449B","title":"上海理工大学出版印刷高等专科学院学生食堂","lon":"121.54267","lat":"31.28193","category":"68","category_name":"快餐厅","address":"杨浦区水丰路100号(舒兰路水丰路)"},{"poiid":"B2094757D06BA5FD489D","title":"婆家","lon":"121.5452477","lat":"31.284913625","category":"247","category_name":"餐饮美食","address":"上海周家嘴路内江路"},{"poiid":"B2094757D069A5FD4392","title":"控江路121弄小区","lon":"121.54634094","lat":"31.287403106","category":"500","category_name":"未知分类","address":"上海控江路121弄（内江公园东侧，近内江路和敦化路）"},{"poiid":"B2094757D16DA2FA4198","title":"内江路第二小学","lon":"121.54455","lat":"31.28443","category":"56","category_name":"小学","address":"杨浦区内江路455号(近控江路)"},{"poiid":"B2094757D16EA7FC499A","title":"内江路391弄","lon":"121.5474038","lat":"31.283558096","category":"252","category_name":"楼宇机构","address":"上海内江路391弄"},{"poiid":"B2094654D56FA4FA4293","title":"内江二村(东门)","lon":"121.54405","lat":"31.2847","category":"47","category_name":"住宅区","address":"延吉新村"},{"poiid":"B2094654D568A3FC429C","title":"重庆鸡公煲内江店","lon":"121.54422","lat":"31.28534","category":"257","category_name":"中餐厅","address":"杨浦区内江路(原长白电影院对面)"},{"poiid":"B2094654D568A3FC439F","title":"风帆初级职业学校","lon":"121.54534","lat":"31.28549","category":"54","category_name":"职业技术学校","address":"内江路476弄18号"},{"poiid":"B209475DD564AAF94793","title":"上海野生动物园","lon":"121.545631","lat":"31.286571","category":"250","category_name":"公园户外","address":"上海市浦东新区南六公路178号"},{"poiid":"B2094750DA6EA1FB4698","title":"金逸国际影城(虹口龙之梦店)","lon":"121.546096","lat":"31.287822","category":"178","category_name":"电影院","address":"虹口西江湾路"},{"poiid":"B2094654DB65A5FD479D","title":"上海东亚学院(西门)","lon":"121.54431","lat":"31.28488","category":"52","category_name":"高等院校","address":"内江路462"},{"poiid":"B2094757D069A5FB419C","title":"内江一村小区","lon":"121.542186308","lat":"31.2840197606","category":"47","category_name":"住宅区","address":"上海市杨浦区控江路水丰路"},{"poiid":"B2094654DB65A3FD4593","title":"第二工业大学","lon":"121.5444","lat":"31.28488","category":"52","category_name":"高等院校","address":"杨浦区内江路462"},{"poiid":"B2094654D568A3FC4198","title":"克莉丝汀 内江路店","lon":"121.544033054","lat":"31.285528793","category":"112","category_name":"糕饼店","address":"杨浦区内江路498号(近控江路)"},{"poiid":"B2094654DB65A3F44792","title":"华东政法学院","lon":"121.54439","lat":"31.28488","category":"671","category_name":"高校中心点","address":"杨浦区内江路462"},{"poiid":"B2094655D26EA6F4429C","title":"上海印刷博物馆","lon":"121.54443","lat":"31.28354","category":"182","category_name":"博物馆","address":"杨浦区内江路397号"},{"poiid":"B2094655D26DABFD4698","title":"内江路374弄小区(西门)","lon":"121.54502","lat":"31.2834","category":"47","category_name":"住宅区","address":"内江路374弄1-8号"},{"poiid":"B2094654D568A3FC469A","title":"杨浦站","lon":"121.55007","lat":"31.2843","category":"22","category_name":"火车站","address":"周家嘴路4041"},{"poiid":"B2094757D065A3FB4093","title":"小区","lon":"121.54655079","lat":"31.283375597","category":"500","category_name":"未知分类","address":"上海内江路374弄"},{"poiid":"B2094655D264ABF4499C","title":"便民集市","lon":"121.5462","lat":"31.28552","category":"123","category_name":"家具建材市场","address":"海城路1临"},{"poiid":"B2094655D26BA1F8499B","title":"民主新村","lon":"121.54949","lat":"31.283","category":"38","category_name":"公交车站","address":""},{"poiid":"B2094654D56FA4FA449D","title":"格兰森林麻辣烫","lon":"121.54432","lat":"31.28403","category":"257","category_name":"中餐厅","address":"杨浦区内江路391弄17号(上海出版印刷高等专科学校后门旁)"},{"poiid":"B2094757D66CA5FE449E","title":"杨浦区财贸职工中等专业学校","lon":"121.544020103","lat":"31.2856287401","category":"55","category_name":"中学","address":"上海市杨浦区内江路(近海城路)"},{"poiid":"B2094654D56FA4F94499","title":"上海理工大学出版印刷学院(水丰路)","lon":"121.54316","lat":"31.28289","category":"52","category_name":"高等院校","address":"杨浦区水丰路100"},{"poiid":"B2094757D06FA6FF479D","title":"老北京铜锅(内江路店)","lon":"121.54395931","lat":"31.284936407","category":"80","category_name":"北京菜","address":"上海杨浦区内江路469号(近海城路口)"},{"poiid":"B2094757D06FA0FE4292","title":"欧洲豪庭·韵都城(长白路)","lon":"121.545433745","lat":"31.2892559194","category":"47","category_name":"住宅区","address":"上海市杨浦区控江路128弄"},{"poiid":"B2094757D06FA5F5459C","title":"水上威尼斯(内江路会所)","lon":"121.54531","lat":"31.28204","category":"149","category_name":"洗浴推拿场所","address":"上海杨浦区内江路365号1-2楼(近周家嘴路)"},{"poiid":"B2094655D36CA1F54198","title":"控江路内江路","lon":"121.54199","lat":"31.28586","category":"38","category_name":"公交车站","address":""},{"poiid":"B2094655D26CA6FC479C","title":"上海出版印刷高等专科学校","lon":"121.54317","lat":"31.28289","category":"671","category_name":"高校中心点","address":"杨浦区内江路397号"},{"poiid":"B2094655D36DA7F9499D","title":"周家嘴路内江路","lon":"121.5468","lat":"31.28135","category":"38","category_name":"公交车站","address":"上海内江路"},{"poiid":"B2094655D26CA6FB419E","title":"上海名流星域汽车服务有限公司","lon":"121.54619","lat":"31.28005","category":"159","category_name":"汽车维修","address":"杨浦区内江路301号(内江路内江支路)"},{"poiid":"B2094654D56FA4F9449B","title":"上海理工大学水丰路校区","lon":"121.54316","lat":"31.28289","category":"52","category_name":"高等院校","address":"水丰路100"},{"poiid":"B2094757D069ABFA4598","title":"蒋氏一族特色烧烤","lon":"121.544207054","lat":"31.284887793","category":"68","category_name":"快餐厅","address":"杨浦区内江路471号(近控江路)"},{"poiid":"B2094757D06FABF4449D","title":"内江公园","lon":"121.54479091","lat":"31.286776312","category":"196","category_name":"公园","address":"上海杨浦区控江路261号(内江路口)"},{"poiid":"B2094655D26BA6FC499F","title":"上海市机动车物损事故保险理赔服务中心上汽交运分中心","lon":"121.54611","lat":"31.28014","category":"250","category_name":"公园户外","address":"内江路307"},{"poiid":"B2094654DB6BA2FB4898","title":"广远新村小区","lon":"121.54889","lat":"31.28804","category":"47","category_name":"住宅区","address":"上海控江路121弄附近"},{"poiid":"B2094654D568A3FC4092","title":"控江路121弄129弄小区","lon":"121.54635","lat":"31.28739","category":"47","category_name":"住宅区","address":"控江路129弄1-18号"},{"poiid":"B2094655D26FA0FA419B","title":"控江绿苑(边门)","lon":"121.54611","lat":"31.28494","category":"47","category_name":"住宅区","address":"控江路129弄"},{"poiid":"B2094757D06BA7FC4698","title":"城隍庙特色小吃 内江路店","lon":"121.543868054","lat":"31.286406793","category":"68","category_name":"快餐厅","address":"杨浦区内江路498号(近控江路)"},{"poiid":"B2094654D56FAAF54699","title":"韵都城","lon":"121.54703","lat":"31.28971","category":"47","category_name":"住宅区","address":"长白路37"},{"poiid":"B2094757D06AA1FB429B","title":"上海体育学院附属中学","lon":"121.551468","lat":"31.283566","category":"253","category_name":"校园生活","address":"上海杨浦区周家嘴路4220号"},{"poiid":"B2094757D76DABFE469F","title":"豪大大台湾大鸡排 内江店","lon":"121.54479","lat":"31.28339","category":"68","category_name":"快餐厅","address":"杨浦区内江路391弄16号(近周家嘴路)"},{"poiid":"B2094655D26FA6FB499D","title":"上海东亚学院","lon":"121.54446","lat":"31.28492","category":"52","category_name":"高等院校","address":"内江路462"},{"poiid":"B2094757D46CA7FB459F","title":"钱家老北京涮锅","lon":"121.54399","lat":"31.28486","category":"86","category_name":"火锅店","address":"杨浦区内江路469号(近控江路)"},{"poiid":"B2094654D568A3FC439C","title":"控江绿苑(北门)","lon":"121.54584","lat":"31.28524","category":"47","category_name":"住宅区","address":"控江路129弄边门"},{"poiid":"B2094757D169A5FC4998","title":"荣章羊肉馆","lon":"121.54597731631","lat":"31.281642523982","category":"86","category_name":"火锅店","address":"杨浦区内江路398号(近控江路)"},{"poiid":"B2094654D56FA4FA459F","title":"上海理工大学出版印刷学院(东门)","lon":"121.5445","lat":"31.28366","category":"52","category_name":"高等院校","address":"杨浦区内江路397"},{"poiid":"B2094752D165A6FE4693","title":"上海理工大学","lon":"121.547424","lat":"31.283325","category":"500","category_name":"未知分类","address":null},{"poiid":"B2094654D56FA4FA439A","title":"纯子屋酒家","lon":"121.54574964126","lat":"31.282234844863","category":"76","category_name":"上海菜","address":"杨浦区内江路443号(海城路内江路)"},{"poiid":"B2094757D66EABFB439C","title":"苏乡园烧鸡公","lon":"121.544096103","lat":"31.2852017312","category":"86","category_name":"火锅店","address":"杨浦区内江路469号(近控江路)"},{"poiid":"B2094757D069AAF8449B","title":"上海理工大学出版印刷高等专科学院学生食堂","lon":"121.54267","lat":"31.28193","category":"68","category_name":"快餐厅","address":"杨浦区水丰路100号(舒兰路水丰路)"},{"poiid":"B2094757D06BA5FD489D","title":"婆家","lon":"121.5452477","lat":"31.284913625","category":"247","category_name":"餐饮美食","address":"上海周家嘴路内江路"},{"poiid":"B2094757D069A5FD4392","title":"控江路121弄小区","lon":"121.54634094","lat":"31.287403106","category":"500","category_name":"未知分类","address":"上海控江路121弄（内江公园东侧，近内江路和敦化路）"},{"poiid":"B2094757D16DA2FA4198","title":"内江路第二小学","lon":"121.54455","lat":"31.28443","category":"56","category_name":"小学","address":"杨浦区内江路455号(近控江路)"},{"poiid":"B2094757D16EA7FC499A","title":"内江路391弄","lon":"121.5474038","lat":"31.283558096","category":"252","category_name":"楼宇机构","address":"上海内江路391弄"},{"poiid":"B2094654D56FA4FA4293","title":"内江二村(东门)","lon":"121.54405","lat":"31.2847","category":"47","category_name":"住宅区","address":"延吉新村"},{"poiid":"B2094654D568A3FC429C","title":"重庆鸡公煲内江店","lon":"121.54422","lat":"31.28534","category":"257","category_name":"中餐厅","address":"杨浦区内江路(原长白电影院对面)"},{"poiid":"B2094654D568A3FC439F","title":"风帆初级职业学校","lon":"121.54534","lat":"31.28549","category":"54","category_name":"职业技术学校","address":"内江路476弄18号"},{"poiid":"B209475DD564AAF94793","title":"上海野生动物园","lon":"121.545631","lat":"31.286571","category":"250","category_name":"公园户外","address":"上海市浦东新区南六公路178号"},{"poiid":"B2094750DA6EA1FB4698","title":"金逸国际影城(虹口龙之梦店)","lon":"121.546096","lat":"31.287822","category":"178","category_name":"电影院","address":"虹口西江湾路"},{"poiid":"B2094654DB65A5FD479D","title":"上海东亚学院(西门)","lon":"121.54431","lat":"31.28488","category":"52","category_name":"高等院校","address":"内江路462"},{"poiid":"B2094757D069A5FB419C","title":"内江一村小区","lon":"121.542186308","lat":"31.2840197606","category":"47","category_name":"住宅区","address":"上海市杨浦区控江路水丰路"},{"poiid":"B2094654DB65A3FD4593","title":"第二工业大学","lon":"121.5444","lat":"31.28488","category":"52","category_name":"高等院校","address":"杨浦区内江路462"},{"poiid":"B2094654D568A3FC4198","title":"克莉丝汀 内江路店","lon":"121.544033054","lat":"31.285528793","category":"112","category_name":"糕饼店","address":"杨浦区内江路498号(近控江路)"},{"poiid":"B2094654DB65A3F44792","title":"华东政法学院","lon":"121.54439","lat":"31.28488","category":"671","category_name":"高校中心点","address":"杨浦区内江路462"},{"poiid":"B2094655D26EA6F4429C","title":"上海印刷博物馆","lon":"121.54443","lat":"31.28354","category":"182","category_name":"博物馆","address":"杨浦区内江路397号"},{"poiid":"B2094655D26DABFD4698","title":"内江路374弄小区(西门)","lon":"121.54502","lat":"31.2834","category":"47","category_name":"住宅区","address":"内江路374弄1-8号"},{"poiid":"B2094654D568A3FC469A","title":"杨浦站","lon":"121.55007","lat":"31.2843","category":"22","category_name":"火车站","address":"周家嘴路4041"},{"poiid":"B2094757D065A3FB4093","title":"小区","lon":"121.54655079","lat":"31.283375597","category":"500","category_name":"未知分类","address":"上海内江路374弄"},{"poiid":"B2094655D264ABF4499C","title":"便民集市","lon":"121.5462","lat":"31.28552","category":"123","category_name":"家具建材市场","address":"海城路1临"},{"poiid":"B2094655D26BA1F8499B","title":"民主新村","lon":"121.54949","lat":"31.283","category":"38","category_name":"公交车站","address":""},{"poiid":"B2094654D56FA4FA449D","title":"格兰森林麻辣烫","lon":"121.54432","lat":"31.28403","category":"257","category_name":"中餐厅","address":"杨浦区内江路391弄17号(上海出版印刷高等专科学校后门旁)"},{"poiid":"B2094757D66CA5FE449E","title":"杨浦区财贸职工中等专业学校","lon":"121.544020103","lat":"31.2856287401","category":"55","category_name":"中学","address":"上海市杨浦区内江路(近海城路)"},{"poiid":"B2094654D56FA4F94499","title":"上海理工大学出版印刷学院(水丰路)","lon":"121.54316","lat":"31.28289","category":"52","category_name":"高等院校","address":"杨浦区水丰路100"},{"poiid":"B2094757D06FA6FF479D","title":"老北京铜锅(内江路店)","lon":"121.54395931","lat":"31.284936407","category":"80","category_name":"北京菜","address":"上海杨浦区内江路469号(近海城路口)"},{"poiid":"B2094757D06FA0FE4292","title":"欧洲豪庭·韵都城(长白路)","lon":"121.545433745","lat":"31.2892559194","category":"47","category_name":"住宅区","address":"上海市杨浦区控江路128弄"},{"poiid":"B2094757D06FA5F5459C","title":"水上威尼斯(内江路会所)","lon":"121.54531","lat":"31.28204","category":"149","category_name":"洗浴推拿场所","address":"上海杨浦区内江路365号1-2楼(近周家嘴路)"},{"poiid":"B2094655D36CA1F54198","title":"控江路内江路","lon":"121.54199","lat":"31.28586","category":"38","category_name":"公交车站","address":""},{"poiid":"B2094655D26CA6FC479C","title":"上海出版印刷高等专科学校","lon":"121.54317","lat":"31.28289","category":"671","category_name":"高校中心点","address":"杨浦区内江路397号"},{"poiid":"B2094655D36DA7F9499D","title":"周家嘴路内江路","lon":"121.5468","lat":"31.28135","category":"38","category_name":"公交车站","address":"上海内江路"},{"poiid":"B2094655D26CA6FB419E","title":"上海名流星域汽车服务有限公司","lon":"121.54619","lat":"31.28005","category":"159","category_name":"汽车维修","address":"杨浦区内江路301号(内江路内江支路)"},{"poiid":"B2094654D56FA4F9449B","title":"上海理工大学水丰路校区","lon":"121.54316","lat":"31.28289","category":"52","category_name":"高等院校","address":"水丰路100"},{"poiid":"B2094757D069ABFA4598","title":"蒋氏一族特色烧烤","lon":"121.544207054","lat":"31.284887793","category":"68","category_name":"快餐厅","address":"杨浦区内江路471号(近控江路)"},{"poiid":"B2094757D06FABF4449D","title":"内江公园","lon":"121.54479091","lat":"31.286776312","category":"196","category_name":"公园","address":"上海杨浦区控江路261号(内江路口)"},{"poiid":"B2094655D26BA6FC499F","title":"上海市机动车物损事故保险理赔服务中心上汽交运分中心","lon":"121.54611","lat":"31.28014","category":"250","category_name":"公园户外","address":"内江路307"},{"poiid":"B2094654DB6BA2FB4898","title":"广远新村小区","lon":"121.54889","lat":"31.28804","category":"47","category_name":"住宅区","address":"上海控江路121弄附近"},{"poiid":"B2094654D568A3FC4092","title":"控江路121弄129弄小区","lon":"121.54635","lat":"31.28739","category":"47","category_name":"住宅区","address":"控江路129弄1-18号"},{"poiid":"B2094655D26FA0FA419B","title":"控江绿苑(边门)","lon":"121.54611","lat":"31.28494","category":"47","category_name":"住宅区","address":"控江路129弄"},{"poiid":"B2094757D06BA7FC4698","title":"城隍庙特色小吃 内江路店","lon":"121.543868054","lat":"31.286406793","category":"68","category_name":"快餐厅","address":"杨浦区内江路498号(近控江路)"},{"poiid":"B2094654D56FAAF54699","title":"韵都城","lon":"121.54703","lat":"31.28971","category":"47","category_name":"住宅区","address":"长白路37"},{"poiid":"B2094757D06AA1FB429B","title":"上海体育学院附属中学","lon":"121.551468","lat":"31.283566","category":"253","category_name":"校园生活","address":"上海杨浦区周家嘴路4220号"},{"poiid":"B2094757D76DABFE469F","title":"豪大大台湾大鸡排 内江店","lon":"121.54479","lat":"31.28339","category":"68","category_name":"快餐厅","address":"杨浦区内江路391弄16号(近周家嘴路)"},{"poiid":"B2094655D26FA6FB499D","title":"上海东亚学院","lon":"121.54446","lat":"31.28492","category":"52","category_name":"高等院校","address":"内江路462"},{"poiid":"B2094757D46CA7FB459F","title":"钱家老北京涮锅","lon":"121.54399","lat":"31.28486","category":"86","category_name":"火锅店","address":"杨浦区内江路469号(近控江路)"},{"poiid":"B2094654D568A3FC439C","title":"控江绿苑(北门)","lon":"121.54584","lat":"31.28524","category":"47","category_name":"住宅区","address":"控江路129弄边门"},{"poiid":"B2094757D169A5FC4998","title":"荣章羊肉馆","lon":"121.54597731631","lat":"31.281642523982","category":"86","category_name":"火锅店","address":"杨浦区内江路398号(近控江路)"},{"poiid":"B2094654D56FA4FA459F","title":"上海理工大学出版印刷学院(东门)","lon":"121.5445","lat":"31.28366","category":"52","category_name":"高等院校","address":"杨浦区内江路397"},{"poiid":"B2094752D165A6FE4693","title":"上海理工大学","lon":"121.547424","lat":"31.283325","category":"500","category_name":"未知分类","address":null},{"poiid":"B2094654D56FA4FA439A","title":"纯子屋酒家","lon":"121.54574964126","lat":"31.282234844863","category":"76","category_name":"上海菜","address":"杨浦区内江路443号(海城路内江路)"},{"poiid":"B2094757D66EABFB439C","title":"苏乡园烧鸡公","lon":"121.544096103","lat":"31.2852017312","category":"86","category_name":"火锅店","address":"杨浦区内江路469号(近控江路)"},{"poiid":"B2094757D069AAF8449B","title":"上海理工大学出版印刷高等专科学院学生食堂","lon":"121.54267","lat":"31.28193","category":"68","category_name":"快餐厅","address":"杨浦区水丰路100号(舒兰路水丰路)"},{"poiid":"B2094757D06BA5FD489D","title":"婆家","lon":"121.5452477","lat":"31.284913625","category":"247","category_name":"餐饮美食","address":"上海周家嘴路内江路"},{"poiid":"B2094757D069A5FD4392","title":"控江路121弄小区","lon":"121.54634094","lat":"31.287403106","category":"500","category_name":"未知分类","address":"上海控江路121弄（内江公园东侧，近内江路和敦化路）"},{"poiid":"B2094757D16DA2FA4198","title":"内江路第二小学","lon":"121.54455","lat":"31.28443","category":"56","category_name":"小学","address":"杨浦区内江路455号(近控江路)"},{"poiid":"B2094757D16EA7FC499A","title":"内江路391弄","lon":"121.5474038","lat":"31.283558096","category":"252","category_name":"楼宇机构","address":"上海内江路391弄"},{"poiid":"B2094654D56FA4FA4293","title":"内江二村(东门)","lon":"121.54405","lat":"31.2847","category":"47","category_name":"住宅区","address":"延吉新村"},{"poiid":"B2094654D568A3FC429C","title":"重庆鸡公煲内江店","lon":"121.54422","lat":"31.28534","category":"257","category_name":"中餐厅","address":"杨浦区内江路(原长白电影院对面)"},{"poiid":"B2094654D568A3FC439F","title":"风帆初级职业学校","lon":"121.54534","lat":"31.28549","category":"54","category_name":"职业技术学校","address":"内江路476弄18号"},{"poiid":"B209475DD564AAF94793","title":"上海野生动物园","lon":"121.545631","lat":"31.286571","category":"250","category_name":"公园户外","address":"上海市浦东新区南六公路178号"},{"poiid":"B2094750DA6EA1FB4698","title":"金逸国际影城(虹口龙之梦店)","lon":"121.546096","lat":"31.287822","category":"178","category_name":"电影院","address":"虹口西江湾路"},{"poiid":"B2094654DB65A5FD479D","title":"上海东亚学院(西门)","lon":"121.54431","lat":"31.28488","category":"52","category_name":"高等院校","address":"内江路462"},{"poiid":"B2094757D069A5FB419C","title":"内江一村小区","lon":"121.542186308","lat":"31.2840197606","category":"47","category_name":"住宅区","address":"上海市杨浦区控江路水丰路"},{"poiid":"B2094654DB65A3FD4593","title":"第二工业大学","lon":"121.5444","lat":"31.28488","category":"52","category_name":"高等院校","address":"杨浦区内江路462"},{"poiid":"B2094654D568A3FC4198","title":"克莉丝汀 内江路店","lon":"121.544033054","lat":"31.285528793","category":"112","category_name":"糕饼店","address":"杨浦区内江路498号(近控江路)"},{"poiid":"B2094654DB65A3F44792","title":"华东政法学院","lon":"121.54439","lat":"31.28488","category":"671","category_name":"高校中心点","address":"杨浦区内江路462"},{"poiid":"B2094655D26EA6F4429C","title":"上海印刷博物馆","lon":"121.54443","lat":"31.28354","category":"182","category_name":"博物馆","address":"杨浦区内江路397号"},{"poiid":"B2094655D26DABFD4698","title":"内江路374弄小区(西门)","lon":"121.54502","lat":"31.2834","category":"47","category_name":"住宅区","address":"内江路374弄1-8号"},{"poiid":"B2094654D568A3FC469A","title":"杨浦站","lon":"121.55007","lat":"31.2843","category":"22","category_name":"火车站","address":"周家嘴路4041"},{"poiid":"B2094757D065A3FB4093","title":"小区","lon":"121.54655079","lat":"31.283375597","category":"500","category_name":"未知分类","address":"上海内江路374弄"},{"poiid":"B2094655D264ABF4499C","title":"便民集市","lon":"121.5462","lat":"31.28552","category":"123","category_name":"家具建材市场","address":"海城路1临"},{"poiid":"B2094655D26BA1F8499B","title":"民主新村","lon":"121.54949","lat":"31.283","category":"38","category_name":"公交车站","address":""},{"poiid":"B2094654D56FA4FA449D","title":"格兰森林麻辣烫","lon":"121.54432","lat":"31.28403","category":"257","category_name":"中餐厅","address":"杨浦区内江路391弄17号(上海出版印刷高等专科学校后门旁)"},{"poiid":"B2094757D66CA5FE449E","title":"杨浦区财贸职工中等专业学校","lon":"121.544020103","lat":"31.2856287401","category":"55","category_name":"中学","address":"上海市杨浦区内江路(近海城路)"},{"poiid":"B2094654D56FA4F94499","title":"上海理工大学出版印刷学院(水丰路)","lon":"121.54316","lat":"31.28289","category":"52","category_name":"高等院校","address":"杨浦区水丰路100"},{"poiid":"B2094757D06FA6FF479D","title":"老北京铜锅(内江路店)","lon":"121.54395931","lat":"31.284936407","category":"80","category_name":"北京菜","address":"上海杨浦区内江路469号(近海城路口)"},{"poiid":"B2094757D06FA0FE4292","title":"欧洲豪庭·韵都城(长白路)","lon":"121.545433745","lat":"31.2892559194","category":"47","category_name":"住宅区","address":"上海市杨浦区控江路128弄"},{"poiid":"B2094757D06FA5F5459C","title":"水上威尼斯(内江路会所)","lon":"121.54531","lat":"31.28204","category":"149","category_name":"洗浴推拿场所","address":"上海杨浦区内江路365号1-2楼(近周家嘴路)"},{"poiid":"B2094655D36CA1F54198","title":"控江路内江路","lon":"121.54199","lat":"31.28586","category":"38","category_name":"公交车站","address":""},{"poiid":"B2094655D26CA6FC479C","title":"上海出版印刷高等专科学校","lon":"121.54317","lat":"31.28289","category":"671","category_name":"高校中心点","address":"杨浦区内江路397号"},{"poiid":"B2094655D36DA7F9499D","title":"周家嘴路内江路","lon":"121.5468","lat":"31.28135","category":"38","category_name":"公交车站","address":"上海内江路"},{"poiid":"B2094655D26CA6FB419E","title":"上海名流星域汽车服务有限公司","lon":"121.54619","lat":"31.28005","category":"159","category_name":"汽车维修","address":"杨浦区内江路301号(内江路内江支路)"},{"poiid":"B2094654D56FA4F9449B","title":"上海理工大学水丰路校区","lon":"121.54316","lat":"31.28289","category":"52","category_name":"高等院校","address":"水丰路100"},{"poiid":"B2094757D069ABFA4598","title":"蒋氏一族特色烧烤","lon":"121.544207054","lat":"31.284887793","category":"68","category_name":"快餐厅","address":"杨浦区内江路471号(近控江路)"},{"poiid":"B2094757D06FABF4449D","title":"内江公园","lon":"121.54479091","lat":"31.286776312","category":"196","category_name":"公园","address":"上海杨浦区控江路261号(内江路口)"},{"poiid":"B2094655D26BA6FC499F","title":"上海市机动车物损事故保险理赔服务中心上汽交运分中心","lon":"121.54611","lat":"31.28014","category":"250","category_name":"公园户外","address":"内江路307"},{"poiid":"B2094654DB6BA2FB4898","title":"广远新村小区","lon":"121.54889","lat":"31.28804","category":"47","category_name":"住宅区","address":"上海控江路121弄附近"},{"poiid":"B2094654D568A3FC4092","title":"控江路121弄129弄小区","lon":"121.54635","lat":"31.28739","category":"47","category_name":"住宅区","address":"控江路129弄1-18号"},{"poiid":"B2094655D26FA0FA419B","title":"控江绿苑(边门)","lon":"121.54611","lat":"31.28494","category":"47","category_name":"住宅区","address":"控江路129弄"},{"poiid":"B2094757D06BA7FC4698","title":"城隍庙特色小吃 内江路店","lon":"121.543868054","lat":"31.286406793","category":"68","category_name":"快餐厅","address":"杨浦区内江路498号(近控江路)"},{"poiid":"B2094654D56FAAF54699","title":"韵都城","lon":"121.54703","lat":"31.28971","category":"47","category_name":"住宅区","address":"长白路37"},{"poiid":"B2094757D06AA1FB429B","title":"上海体育学院附属中学","lon":"121.551468","lat":"31.283566","category":"253","category_name":"校园生活","address":"上海杨浦区周家嘴路4220号"},{"poiid":"B2094757D76DABFE469F","title":"豪大大台湾大鸡排 内江店","lon":"121.54479","lat":"31.28339","category":"68","category_name":"快餐厅","address":"杨浦区内江路391弄16号(近周家嘴路)"},{"poiid":"B2094655D26FA6FB499D","title":"上海东亚学院","lon":"121.54446","lat":"31.28492","category":"52","category_name":"高等院校","address":"内江路462"},{"poiid":"B2094757D46CA7FB459F","title":"钱家老北京涮锅","lon":"121.54399","lat":"31.28486","category":"86","category_name":"火锅店","address":"杨浦区内江路469号(近控江路)"},{"poiid":"B2094654D568A3FC439C","title":"控江绿苑(北门)","lon":"121.54584","lat":"31.28524","category":"47","category_name":"住宅区","address":"控江路129弄边门"},{"poiid":"B2094757D169A5FC4998","title":"荣章羊肉馆","lon":"121.54597731631","lat":"31.281642523982","category":"86","category_name":"火锅店","address":"杨浦区内江路398号(近控江路)"},{"poiid":"B2094654D56FA4FA459F","title":"上海理工大学出版印刷学院(东门)","lon":"121.5445","lat":"31.28366","category":"52","category_name":"高等院校","address":"杨浦区内江路397"},{"poiid":"B2094752D165A6FE4693","title":"上海理工大学","lon":"121.547424","lat":"31.283325","category":"500","category_name":"未知分类","address":null},{"poiid":"B2094654D56FA4FA439A","title":"纯子屋酒家","lon":"121.54574964126","lat":"31.282234844863","category":"76","category_name":"上海菜","address":"杨浦区内江路443号(海城路内江路)"},{"poiid":"B2094757D66EABFB439C","title":"苏乡园烧鸡公","lon":"121.544096103","lat":"31.2852017312","category":"86","category_name":"火锅店","address":"杨浦区内江路469号(近控江路)"},{"poiid":"B2094757D069AAF8449B","title":"上海理工大学出版印刷高等专科学院学生食堂","lon":"121.54267","lat":"31.28193","category":"68","category_name":"快餐厅","address":"杨浦区水丰路100号(舒兰路水丰路)"},{"poiid":"B2094757D06BA5FD489D","title":"婆家","lon":"121.5452477","lat":"31.284913625","category":"247","category_name":"餐饮美食","address":"上海周家嘴路内江路"},{"poiid":"B2094757D069A5FD4392","title":"控江路121弄小区","lon":"121.54634094","lat":"31.287403106","category":"500","category_name":"未知分类","address":"上海控江路121弄（内江公园东侧，近内江路和敦化路）"},{"poiid":"B2094757D16DA2FA4198","title":"内江路第二小学","lon":"121.54455","lat":"31.28443","category":"56","category_name":"小学","address":"杨浦区内江路455号(近控江路)"},{"poiid":"B2094757D16EA7FC499A","title":"内江路391弄","lon":"121.5474038","lat":"31.283558096","category":"252","category_name":"楼宇机构","address":"上海内江路391弄"},{"poiid":"B2094654D56FA4FA4293","title":"内江二村(东门)","lon":"121.54405","lat":"31.2847","category":"47","category_name":"住宅区","address":"延吉新村"},{"poiid":"B2094654D568A3FC429C","title":"重庆鸡公煲内江店","lon":"121.54422","lat":"31.28534","category":"257","category_name":"中餐厅","address":"杨浦区内江路(原长白电影院对面)"},{"poiid":"B2094654D568A3FC439F","title":"风帆初级职业学校","lon":"121.54534","lat":"31.28549","category":"54","category_name":"职业技术学校","address":"内江路476弄18号"},{"poiid":"B209475DD564AAF94793","title":"上海野生动物园","lon":"121.545631","lat":"31.286571","category":"250","category_name":"公园户外","address":"上海市浦东新区南六公路178号"},{"poiid":"B2094750DA6EA1FB4698","title":"金逸国际影城(虹口龙之梦店)","lon":"121.546096","lat":"31.287822","category":"178","category_name":"电影院","address":"虹口西江湾路"},{"poiid":"B2094654DB65A5FD479D","title":"上海东亚学院(西门)","lon":"121.54431","lat":"31.28488","category":"52","category_name":"高等院校","address":"内江路462"},{"poiid":"B2094757D069A5FB419C","title":"内江一村小区","lon":"121.542186308","lat":"31.2840197606","category":"47","category_name":"住宅区","address":"上海市杨浦区控江路水丰路"},{"poiid":"B2094654DB65A3FD4593","title":"第二工业大学","lon":"121.5444","lat":"31.28488","category":"52","category_name":"高等院校","address":"杨浦区内江路462"},{"poiid":"B2094654D568A3FC4198","title":"克莉丝汀 内江路店","lon":"121.544033054","lat":"31.285528793","category":"112","category_name":"糕饼店","address":"杨浦区内江路498号(近控江路)"},{"poiid":"B2094654DB65A3F44792","title":"华东政法学院","lon":"121.54439","lat":"31.28488","category":"671","category_name":"高校中心点","address":"杨浦区内江路462"},{"poiid":"B2094655D26EA6F4429C","title":"上海印刷博物馆","lon":"121.54443","lat":"31.28354","category":"182","category_name":"博物馆","address":"杨浦区内江路397号"},{"poiid":"B2094655D26DABFD4698","title":"内江路374弄小区(西门)","lon":"121.54502","lat":"31.2834","category":"47","category_name":"住宅区","address":"内江路374弄1-8号"},{"poiid":"B2094654D568A3FC469A","title":"杨浦站","lon":"121.55007","lat":"31.2843","category":"22","category_name":"火车站","address":"周家嘴路4041"},{"poiid":"B2094757D065A3FB4093","title":"小区","lon":"121.54655079","lat":"31.283375597","category":"500","category_name":"未知分类","address":"上海内江路374弄"},{"poiid":"B2094655D264ABF4499C","title":"便民集市","lon":"121.5462","lat":"31.28552","category":"123","category_name":"家具建材市场","address":"海城路1临"},{"poiid":"B2094655D26BA1F8499B","title":"民主新村","lon":"121.54949","lat":"31.283","category":"38","category_name":"公交车站","address":""},{"poiid":"B2094654D56FA4FA449D","title":"格兰森林麻辣烫","lon":"121.54432","lat":"31.28403","category":"257","category_name":"中餐厅","address":"杨浦区内江路391弄17号(上海出版印刷高等专科学校后门旁)"},{"poiid":"B2094757D66CA5FE449E","title":"杨浦区财贸职工中等专业学校","lon":"121.544020103","lat":"31.2856287401","category":"55","category_name":"中学","address":"上海市杨浦区内江路(近海城路)"}]