[{"poiid":"B2094655D26FA6FA4892","title":"杨浦公园","lon":"121.53639","lat":"31.28066","category":"196","category_name":"公园","address":"杨浦区双阳路369号(近控江路)"},{"poiid":"B2094654D56FA4F94499","title":"上海理工大学出版印刷学院(水丰路)","lon":"121.54316","lat":"31.28289","category":"52","category_name":"高等院校","address":"杨浦区水丰路100"},{"poiid":"B2094757D06FA2FD429E","title":"泰晤士咖啡餐厅(控江二店)","lon":"121.5384","lat":"31.28361","category":"94","category_name":"西餐厅","address":"上海杨浦区控江路766号(近隆昌路)  "},{"poiid":"B2094757D06FA4F9479F","title":"杨浦体育馆羽毛球场","lon":"121.54092","lat":"31.27954","category":"220","category_name":"运动场所","address":"杨浦区隆昌路640号杨浦体育场内(周家嘴路口)"},{"poiid":"B2094655D36CA1F54198","title":"控江路内江路","lon":"121.54199","lat":"31.28586","category":"38","category_name":"公交车站","address":""},{"poiid":"B2094757D06FA4FE419E","title":"杨浦区卫生学校","lon":"121.54077","lat":"31.28134","category":"260","category_name":"其他","address":"杨浦区舒兰路51号(隆昌路舒兰路)"},{"poiid":"B2094655D26CA6FC479C","title":"上海出版印刷高等专科学校","lon":"121.54317","lat":"31.28289","category":"671","category_name":"高校中心点","address":"杨浦区内江路397号"},{"poiid":"B2094757D068A2F4479F","title":"舒兰游泳娱乐中心","lon":"121.5399","lat":"31.28057","category":"220","category_name":"运动场所","address":"上海杨浦区舒兰路50号(隆昌路口)"},{"poiid":"B2094757D06FABF54899","title":"延吉一村","lon":"121.53708648","lat":"31.284992218","category":"47","category_name":"住宅区","address":"上海延吉一村"},{"poiid":"B2094757D068A1FD469D","title":"幸福村","lon":"121.5417173292","lat":"31.281767450987","category":"500","category_name":"未知分类","address":"上海四平路幸福村"},{"poiid":"B2094654D56FA4F9449B","title":"上海理工大学水丰路校区","lon":"121.54316","lat":"31.28289","category":"52","category_name":"高等院校","address":"水丰路100"},{"poiid":"B2094655D36CA1F5419B","title":"控江路隆昌路","lon":"121.5377","lat":"31.28345","category":"38","category_name":"公交车站","address":""},{"poiid":"B2094654D56FA4FA4792","title":"杨浦体育馆","lon":"121.54109","lat":"31.27877","category":"224","category_name":"综合体育馆","address":"隆昌路640号"},{"poiid":"B2094757D069A7FF449E","title":"延吉二村小区","lon":"121.537477503","lat":"31.2860367486","category":"47","category_name":"住宅区","address":"上海市杨浦区延吉东路隆昌路"},{"poiid":"B2094757D069ABF4469B","title":"园外缘","lon":"121.53728244931","lat":"31.28303183978","category":"76","category_name":"上海菜","address":"上海杨浦区隆昌路701号(近控江路)  "},{"poiid":"B2094757D068A0F44792","title":"杨浦公园游乐场","lon":"121.53638714","lat":"31.280663141","category":"195","category_name":"游乐场","address":"上海杨浦区隆昌路681号(近控江路)"},{"poiid":"B2094654D56FA4F8429C","title":"上海理工大学附属中学","lon":"121.53884","lat":"31.28604","category":"55","category_name":"中学","address":"杨浦区水丰路247号(近延吉中路)"},{"poiid":"B2094757D06AA3FE409F","title":"小四川酒楼","lon":"121.5397644","lat":"31.28716278","category":"247","category_name":"餐饮美食","address":"上海延吉东路557号"},{"poiid":"B2094655D26AA7FF409D","title":"仁和宠物医院隆昌路分院","lon":"121.53987","lat":"31.27907","category":"162","category_name":"医院","address":"杨浦区隆昌路669号(辽源东路路口)"},{"poiid":"B2094757D069AAF8449B","title":"上海理工大学出版印刷高等专科学院学生食堂","lon":"121.54267","lat":"31.28193","category":"68","category_name":"快餐厅","address":"杨浦区水丰路100号(舒兰路水丰路)"},{"poiid":"B2094654DB64A6F8479D","title":"上海市卫生学校市东校区","lon":"121.5401","lat":"31.28158","category":"54","category_name":"职业技术学校","address":"舒兰路51"},{"poiid":"B2094655D26AA0F54199","title":"舒兰温水游泳馆","lon":"121.54009","lat":"31.28095","category":"247","category_name":"餐饮美食","address":"杨浦区舒兰路50号(隆昌路口)"},{"poiid":"B2094757D06BA3FF4098","title":"控江路645弄","lon":"121.541365103","lat":"31.2831586885","category":"500","category_name":"未知分类","address":"上海市杨浦区控江路645弄"},{"poiid":"B2094757D16DA2F54398","title":"控江路水丰路","lon":"121.540333103","lat":"31.2847567219","category":"500","category_name":"未知分类","address":"上海控江路水丰路"},{"poiid":"B2094757D069A5FB419C","title":"内江一村小区","lon":"121.542186308","lat":"31.2840197606","category":"47","category_name":"住宅区","address":"上海市杨浦区控江路水丰路"},{"poiid":"B2094757D06BA6FC499F","title":"舒兰小区","lon":"121.54088","lat":"31.282063","category":"47","category_name":"住宅区","address":"上海舒兰路61弄"},{"poiid":"B2094655D26AA3FC439C","title":"东仁驾校隆昌路店","lon":"121.53845","lat":"31.28169","category":"247","category_name":"餐饮美食","address":"杨浦区隆昌路690号(近控江路)"},{"poiid":"B2094654D56FA4FC419C","title":"上海版专周家嘴路学生宿舍","lon":"121.53914","lat":"31.27791","category":"47","category_name":"住宅区","address":"周家嘴路3531"},{"poiid":"B2094654D56FA4F94098","title":"杨浦科技馆","lon":"121.53871","lat":"31.28174","category":"186","category_name":"科技馆","address":"隆昌路690"},{"poiid":"B2094654D56FA4FD409A","title":"鹿谷酒家","lon":"121.53731006165","lat":"31.283442543791","category":"76","category_name":"上海菜","address":"杨浦区隆昌路777号杨浦区老干部活动中心5楼(近延吉中路)"},{"poiid":"B2094654D56FA5F5499E","title":"杨浦公园花卉市场","lon":"121.53705","lat":"31.28254","category":"117","category_name":"便民商店/便利店","address":"隆昌路701"},{"poiid":"B2094655D36DA0F84493","title":"延吉路水丰路","lon":"121.53847","lat":"31.28629","category":"38","category_name":"公交车站","address":""},{"poiid":"B2094757D064A4F5499C","title":"隆昌路控江路站(公交28,145,577,813,868,934,桥五)","lon":"121.537476202","lat":"31.2829277053","category":"38","category_name":"公交车站","address":"上海市杨浦区隆昌路控江路"},{"poiid":"B2094654D56FA4F8429D","title":"天池拉面","lon":"121.53919","lat":"31.28658","category":"68","category_name":"快餐厅","address":"杨浦区延吉东路557弄1号(水丰路口)"},{"poiid":"B2094655D26CA7F4479B","title":"隆昌路696弄","lon":"121.53908","lat":"31.28223","category":"47","category_name":"住宅区","address":"隆昌路696弄"},{"poiid":"B2094655D36CA1FF4593","title":"隆昌路","lon":"121.53683","lat":"31.28306","category":"38","category_name":"公交车站","address":""},{"poiid":"B2094757D465A0F54493","title":"小四川美食苑 延吉店","lon":"121.53937885078","lat":"31.286806287604","category":"71","category_name":"四川菜","address":"杨浦区延吉东路557号(近水丰路)"},{"poiid":"B2094655D36CA1FF469B","title":"隆昌路控江路","lon":"121.53738","lat":"31.28276","category":"38","category_name":"公交车站","address":""},{"poiid":"B2094655D26FA0F8409E","title":"上海市卫生学校市东校区(南门)","lon":"121.54018","lat":"31.28138","category":"678","category_name":"学校大门","address":"舒兰路51"},{"poiid":"B2094654D56FA4F8499C","title":"隆昌路700弄小区","lon":"121.53841","lat":"31.28292","category":"47","category_name":"住宅区","address":"隆昌路700弄1-7号"},{"poiid":"B2094655D265ABFC429E","title":"富贵人家","lon":"121.538","lat":"31.2814","category":"47","category_name":"住宅区","address":"上海市杨浦区周家嘴路3118弄52-54号"},{"poiid":"B2094654D56FA4F8459B","title":"延吉经济园区印刷科技工业园","lon":"121.53917","lat":"31.28386","category":"45","category_name":"产业园区","address":"控江路665号10号楼"},{"poiid":"B2094655D26CA6FF419F","title":"隆昌路700弄小区(西门)","lon":"121.5379","lat":"31.28254","category":"47","category_name":"住宅区","address":"隆昌路700弄1-7号"},{"poiid":"B2094757D06AA5F94099","title":"杨浦少体校综合训练馆","lon":"121.540742","lat":"31.278633","category":"253","category_name":"校园生活","address":"杨浦区隆昌路640号杨浦体育场内(近舒兰路)"},{"poiid":"B2094655D26CA7F44798","title":"隆昌路696弄小区(西门)","lon":"121.53832","lat":"31.2819","category":"47","category_name":"住宅区","address":"隆昌路696弄"},{"poiid":"B2094655D264A1FE419E","title":"益海公寓","lon":"121.54114","lat":"31.28175","category":"47","category_name":"住宅区","address":"益海公寓位于杨浦舒兰路61弄"},{"poiid":"B2094757D06BA4FB489D","title":"杨浦区青少年科技站","lon":"121.539838","lat":"31.281485","category":"190","category_name":"培训机构","address":"上海杨浦区舒兰路"},{"poiid":"B2094757D16BA6FD4898","title":"延吉第二初级中学(内江中学)","lon":"121.542470103","lat":"31.2840157064","category":"55","category_name":"中学","address":"上海市杨浦区内江路周家嘴路"},{"poiid":"B2094655D26CA5FE439F","title":"水丰路125弄小区(上海出版印刷高等专科学校西南)","lon":"121.54176","lat":"31.28256","category":"47","category_name":"住宅区","address":"水丰路125弄1-3号"},{"poiid":"B2094655D26CA7F4459B","title":"控江路687号、697号小区控江路","lon":"121.53775","lat":"31.28279","category":"47","category_name":"住宅区","address":"控江路687号、697号"},{"poiid":"B2094655D26FA6FA4892","title":"杨浦公园","lon":"121.53639","lat":"31.28066","category":"196","category_name":"公园","address":"杨浦区双阳路369号(近控江路)"},{"poiid":"B2094654D56FA4F94499","title":"上海理工大学出版印刷学院(水丰路)","lon":"121.54316","lat":"31.28289","category":"52","category_name":"高等院校","address":"杨浦区水丰路100"},{"poiid":"B2094757D06FA2FD429E","title":"泰晤士咖啡餐厅(控江二店)","lon":"121.5384","lat":"31.28361","category":"94","category_name":"西餐厅","address":"上海杨浦区控江路766号(近隆昌路)  "},{"poiid":"B2094757D06FA4F9479F","title":"杨浦体育馆羽毛球场","lon":"121.54092","lat":"31.27954","category":"220","category_name":"运动场所","address":"杨浦区隆昌路640号杨浦体育场内(周家嘴路口)"},{"poiid":"B2094655D36CA1F54198","title":"控江路内江路","lon":"121.54199","lat":"31.28586","category":"38","category_name":"公交车站","address":""},{"poiid":"B2094757D06FA4FE419E","title":"杨浦区卫生学校","lon":"121.54077","lat":"31.28134","category":"260","category_name":"其他","address":"杨浦区舒兰路51号(隆昌路舒兰路)"},{"poiid":"B2094655D26CA6FC479C","title":"上海出版印刷高等专科学校","lon":"121.54317","lat":"31.28289","category":"671","category_name":"高校中心点","address":"杨浦区内江路397号"},{"poiid":"B2094757D068A2F4479F","title":"舒兰游泳娱乐中心","lon":"121.5399","lat":"31.28057","category":"220","category_name":"运动场所","address":"上海杨浦区舒兰路50号(隆昌路口)"},{"poiid":"B2094757D06FABF54899","title":"延吉一村","lon":"121.53708648","lat":"31.284992218","category":"47","category_name":"住宅区","address":"上海延吉一村"},{"poiid":"B2094757D068A1FD469D","title":"幸福村","lon":"121.5417173292","lat":"31.281767450987","category":"500","category_name":"未知分类","address":"上海四平路幸福村"},{"poiid":"B2094654D56FA4F9449B","title":"上海理工大学水丰路校区","lon":"121.54316","lat":"31.28289","category":"52","category_name":"高等院校","address":"水丰路100"},{"poiid":"B2094655D36CA1F5419B","title":"控江路隆昌路","lon":"121.5377","lat":"31.28345","category":"38","category_name":"公交车站","address":""},{"poiid":"B2094654D56FA4FA4792","title":"杨浦体育馆","lon":"121.54109","lat":"31.27877","category":"224","category_name":"综合体育馆","address":"隆昌路640号"},{"poiid":"B2094757D069A7FF449E","title":"延吉二村小区","lon":"121.537477503","lat":"31.2860367486","category":"47","category_name":"住宅区","address":"上海市杨浦区延吉东路隆昌路"},{"poiid":"B2094757D069ABF4469B","title":"园外缘","lon":"121.53728244931","lat":"31.28303183978","category":"76","category_name":"上海菜","address":"上海杨浦区隆昌路701号(近控江路)  "},{"poiid":"B2094757D068A0F44792","title":"杨浦公园游乐场","lon":"121.53638714","lat":"31.280663141","category":"195","category_name":"游乐场","address":"上海杨浦区隆昌路681号(近控江路)"},{"poiid":"B2094654D56FA4F8429C","title":"上海理工大学附属中学","lon":"121.53884","lat":"31.28604","category":"55","category_name":"中学","address":"杨浦区水丰路247号(近延吉中路)"},{"poiid":"B2094757D06AA3FE409F","title":"小四川酒楼","lon":"121.5397644","lat":"31.28716278","category":"247","category_name":"餐饮美食","address":"上海延吉东路557号"},{"poiid":"B2094655D26AA7FF409D","title":"仁和宠物医院隆昌路分院","lon":"121.53987","lat":"31.27907","category":"162","category_name":"医院","address":"杨浦区隆昌路669号(辽源东路路口)"},{"poiid":"B2094757D069AAF8449B","title":"上海理工大学出版印刷高等专科学院学生食堂","lon":"121.54267","lat":"31.28193","category":"68","category_name":"快餐厅","address":"杨浦区水丰路100号(舒兰路水丰路)"},{"poiid":"B2094654DB64A6F8479D","title":"上海市卫生学校市东校区","lon":"121.5401","lat":"31.28158","category":"54","category_name":"职业技术学校","address":"舒兰路51"},{"poiid":"B2094655D26AA0F54199","title":"舒兰温水游泳馆","lon":"121.54009","lat":"31.28095","category":"247","category_name":"餐饮美食","address":"杨浦区舒兰路50号(隆昌路口)"},{"poiid":"B2094757D06BA3FF4098","title":"控江路645弄","lon":"121.541365103","lat":"31.2831586885","category":"500","category_name":"未知分类","address":"上海市杨浦区控江路645弄"},{"poiid":"B2094757D16DA2F54398","title":"控江路水丰路","lon":"121.540333103","lat":"31.2847567219","category":"500","category_name":"未知分类","address":"上海控江路水丰路"},{"poiid":"B2094757D069A5FB419C","title":"内江一村小区","lon":"121.542186308","lat":"31.2840197606","category":"47","category_name":"住宅区","address":"上海市杨浦区控江路水丰路"},{"poiid":"B2094757D06BA6FC499F","title":"舒兰小区","lon":"121.54088","lat":"31.282063","category":"47","category_name":"住宅区","address":"上海舒兰路61弄"},{"poiid":"B2094655D26AA3FC439C","title":"东仁驾校隆昌路店","lon":"121.53845","lat":"31.28169","category":"247","category_name":"餐饮美食","address":"杨浦区隆昌路690号(近控江路)"},{"poiid":"B2094654D56FA4FC419C","title":"上海版专周家嘴路学生宿舍","lon":"121.53914","lat":"31.27791","category":"47","category_name":"住宅区","address":"周家嘴路3531"},{"poiid":"B2094654D56FA4F94098","title":"杨浦科技馆","lon":"121.53871","lat":"31.28174","category":"186","category_name":"科技馆","address":"隆昌路690"},{"poiid":"B2094654D56FA4FD409A","title":"鹿谷酒家","lon":"121.53731006165","lat":"31.283442543791","category":"76","category_name":"上海菜","address":"杨浦区隆昌路777号杨浦区老干部活动中心5楼(近延吉中路)"},{"poiid":"B2094654D56FA5F5499E","title":"杨浦公园花卉市场","lon":"121.53705","lat":"31.28254","category":"117","category_name":"便民商店/便利店","address":"隆昌路701"},{"poiid":"B2094655D36DA0F84493","title":"延吉路水丰路","lon":"121.53847","lat":"31.28629","category":"38","category_name":"公交车站","address":""},{"poiid":"B2094757D064A4F5499C","title":"隆昌路控江路站(公交28,145,577,813,868,934,桥五)","lon":"121.537476202","lat":"31.2829277053","category":"38","category_name":"公交车站","address":"上海市杨浦区隆昌路控江路"},{"poiid":"B2094654D56FA4F8429D","title":"天池拉面","lon":"121.53919","lat":"31.28658","category":"68","category_name":"快餐厅","address":"杨浦区延吉东路557弄1号(水丰路口)"},{"poiid":"B2094655D26CA7F4479B","title":"隆昌路696弄","lon":"121.53908","lat":"31.28223","category":"47","category_name":"住宅区","address":"隆昌路696弄"},{"poiid":"B2094655D36CA1FF4593","title":"隆昌路","lon":"121.53683","lat":"31.28306","category":"38","category_name":"公交车站","address":""},{"poiid":"B2094757D465A0F54493","title":"小四川美食苑 延吉店","lon":"121.53937885078","lat":"31.286806287604","category":"71","category_name":"四川菜","address":"杨浦区延吉东路557号(近水丰路)"},{"poiid":"B2094655D36CA1FF469B","title":"隆昌路控江路","lon":"121.53738","lat":"31.28276","category":"38","category_name":"公交车站","address":""},{"poiid":"B2094655D26FA0F8409E","title":"上海市卫生学校市东校区(南门)","lon":"121.54018","lat":"31.28138","category":"678","category_name":"学校大门","address":"舒兰路51"},{"poiid":"B2094654D56FA4F8499C","title":"隆昌路700弄小区","lon":"121.53841","lat":"31.28292","category":"47","category_name":"住宅区","address":"隆昌路700弄1-7号"},{"poiid":"B2094655D265ABFC429E","title":"富贵人家","lon":"121.538","lat":"31.2814","category":"47","category_name":"住宅区","address":"上海市杨浦区周家嘴路3118弄52-54号"},{"poiid":"B2094654D56FA4F8459B","title":"延吉经济园区印刷科技工业园","lon":"121.53917","lat":"31.28386","category":"45","category_name":"产业园区","address":"控江路665号10号楼"},{"poiid":"B2094655D26CA6FF419F","title":"隆昌路700弄小区(西门)","lon":"121.5379","lat":"31.28254","category":"47","category_name":"住宅区","address":"隆昌路700弄1-7号"},{"poiid":"B2094757D06AA5F94099","title":"杨浦少体校综合训练馆","lon":"121.540742","lat":"31.278633","category":"253","category_name":"校园生活","address":"杨浦区隆昌路640号杨浦体育场内(近舒兰路)"},{"poiid":"B2094655D26CA7F44798","title":"隆昌路696弄小区(西门)","lon":"121.53832","lat":"31.2819","category":"47","category_name":"住宅区","address":"隆昌路696弄"},{"poiid":"B2094655D264A1FE419E","title":"益海公寓","lon":"121.54114","lat":"31.28175","category":"47","category_name":"住宅区","address":"益海公寓位于杨浦舒兰路61弄"},{"poiid":"B2094757D06BA4FB489D","title":"杨浦区青少年科技站","lon":"121.539838","lat":"31.281485","category":"190","category_name":"培训机构","address":"上海杨浦区舒兰路"},{"poiid":"B2094757D16BA6FD4898","title":"延吉第二初级中学(内江中学)","lon":"121.542470103","lat":"31.2840157064","category":"55","category_name":"中学","address":"上海市杨浦区内江路周家嘴路"},{"poiid":"B2094655D26CA5FE439F","title":"水丰路125弄小区(上海出版印刷高等专科学校西南)","lon":"121.54176","lat":"31.28256","category":"47","category_name":"住宅区","address":"水丰路125弄1-3号"},{"poiid":"B2094655D26CA7F4459B","title":"控江路687号、697号小区控江路","lon":"121.53775","lat":"31.28279","category":"47","category_name":"住宅区","address":"控江路687号、697号"},{"poiid":"B2094655D26FA6FA4892","title":"杨浦公园","lon":"121.53639","lat":"31.28066","category":"196","category_name":"公园","address":"杨浦区双阳路369号(近控江路)"},{"poiid":"B2094654D56FA4F94499","title":"上海理工大学出版印刷学院(水丰路)","lon":"121.54316","lat":"31.28289","category":"52","category_name":"高等院校","address":"杨浦区水丰路100"},{"poiid":"B2094757D06FA2FD429E","title":"泰晤士咖啡餐厅(控江二店)","lon":"121.5384","lat":"31.28361","category":"94","category_name":"西餐厅","address":"上海杨浦区控江路766号(近隆昌路)  "},{"poiid":"B2094757D06FA4F9479F","title":"杨浦体育馆羽毛球场","lon":"121.54092","lat":"31.27954","category":"220","category_name":"运动场所","address":"杨浦区隆昌路640号杨浦体育场内(周家嘴路口)"},{"poiid":"B2094655D36CA1F54198","title":"控江路内江路","lon":"121.54199","lat":"31.28586","category":"38","category_name":"公交车站","address":""},{"poiid":"B2094757D06FA4FE419E","title":"杨浦区卫生学校","lon":"121.54077","lat":"31.28134","category":"260","category_name":"其他","address":"杨浦区舒兰路51号(隆昌路舒兰路)"},{"poiid":"B2094655D26CA6FC479C","title":"上海出版印刷高等专科学校","lon":"121.54317","lat":"31.28289","category":"671","category_name":"高校中心点","address":"杨浦区内江路397号"},{"poiid":"B2094757D068A2F4479F","title":"舒兰游泳娱乐中心","lon":"121.5399","lat":"31.28057","category":"220","category_name":"运动场所","address":"上海杨浦区舒兰路50号(隆昌路口)"},{"poiid":"B2094757D06FABF54899","title":"延吉一村","lon":"121.53708648","lat":"31.284992218","category":"47","category_name":"住宅区","address":"上海延吉一村"},{"poiid":"B2094757D068A1FD469D","title":"幸福村","lon":"121.5417173292","lat":"31.281767450987","category":"500","category_name":"未知分类","address":"上海四平路幸福村"},{"poiid":"B2094654D56FA4F9449B","title":"上海理工大学水丰路校区","lon":"121.54316","lat":"31.28289","category":"52","category_name":"高等院校","address":"水丰路100"},{"poiid":"B2094655D36CA1F5419B","title":"控江路隆昌路","lon":"121.5377","lat":"31.28345","category":"38","category_name":"公交车站","address":""},{"poiid":"B2094654D56FA4FA4792","title":"杨浦体育馆","lon":"121.54109","lat":"31.27877","category":"224","category_name":"综合体育馆","address":"隆昌路640号"},{"poiid":"B2094757D069A7FF449E","title":"延吉二村小区","lon":"121.537477503","lat":"31.2860367486","category":"47","category_name":"住宅区","address":"上海市杨浦区延吉东路隆昌路"},{"poiid":"B2094757D069ABF4469B","title":"园外缘","lon":"121.53728244931","lat":"31.28303183978","category":"76","category_name":"上海菜","address":"上海杨浦区隆昌路701号(近控江路)  "},{"poiid":"B2094757D068A0F44792","title":"杨浦公园游乐场","lon":"121.53638714","lat":"31.280663141","category":"195","category_name":"游乐场","address":"上海杨浦区隆昌路681号(近控江路)"},{"poiid":"B2094654D56FA4F8429C","title":"上海理工大学附属中学","lon":"121.53884","lat":"31.28604","category":"55","category_name":"中学","address":"杨浦区水丰路247号(近延吉中路)"},{"poiid":"B2094757D06AA3FE409F","title":"小四川酒楼","lon":"121.5397644","lat":"31.28716278","category":"247","category_name":"餐饮美食","address":"上海延吉东路557号"},{"poiid":"B2094655D26AA7FF409D","title":"仁和宠物医院隆昌路分院","lon":"121.53987","lat":"31.27907","category":"162","category_name":"医院","address":"杨浦区隆昌路669号(辽源东路路口)"},{"poiid":"B2094757D069AAF8449B","title":"上海理工大学出版印刷高等专科学院学生食堂","lon":"121.54267","lat":"31.28193","category":"68","category_name":"快餐厅","address":"杨浦区水丰路100号(舒兰路水丰路)"},{"poiid":"B2094654DB64A6F8479D","title":"上海市卫生学校市东校区","lon":"121.5401","lat":"31.28158","category":"54","category_name":"职业技术学校","address":"舒兰路51"},{"poiid":"B2094655D26AA0F54199","title":"舒兰温水游泳馆","lon":"121.54009","lat":"31.28095","category":"247","category_name":"餐饮美食","address":"杨浦区舒兰路50号(隆昌路口)"},{"poiid":"B2094757D06BA3FF4098","title":"控江路645弄","lon":"121.541365103","lat":"31.2831586885","category":"500","category_name":"未知分类","address":"上海市杨浦区控江路645弄"},{"poiid":"B2094757D16DA2F54398","title":"控江路水丰路","lon":"121.540333103","lat":"31.2847567219","category":"500","category_name":"未知分类","address":"上海控江路水丰路"},{"poiid":"B2094757D069A5FB419C","title":"内江一村小区","lon":"121.542186308","lat":"31.2840197606","category":"47","category_name":"住宅区","address":"上海市杨浦区控江路水丰路"},{"poiid":"B2094757D06BA6FC499F","title":"舒兰小区","lon":"121.54088","lat":"31.282063","category":"47","category_name":"住宅区","address":"上海舒兰路61弄"},{"poiid":"B2094655D26AA3FC439C","title":"东仁驾校隆昌路店","lon":"121.53845","lat":"31.28169","category":"247","category_name":"餐饮美食","address":"杨浦区隆昌路690号(近控江路)"},{"poiid":"B2094654D56FA4FC419C","title":"上海版专周家嘴路学生宿舍","lon":"121.53914","lat":"31.27791","category":"47","category_name":"住宅区","address":"周家嘴路3531"},{"poiid":"B2094654D56FA4F94098","title":"杨浦科技馆","lon":"121.53871","lat":"31.28174","category":"186","category_name":"科技馆","address":"隆昌路690"},{"poiid":"B2094654D56FA4FD409A","title":"鹿谷酒家","lon":"121.53731006165","lat":"31.283442543791","category":"76","category_name":"上海菜","address":"杨浦区隆昌路777号杨浦区老干部活动中心5楼(近延吉中路)"},{"poiid":"B2094654D56FA5F5499E","title":"杨浦公园花卉市场","lon":"121.53705","lat":"31.28254","category":"117","category_name":"便民商店/便利店","address":"隆昌路701"},{"poiid":"B2094655D36DA0F84493","title":"延吉路水丰路","lon":"121.53847","lat":"31.28629","category":"38","category_name":"公交车站","address":""},{"poiid":"B2094757D064A4F5499C","title":"隆昌路控江路站(公交28,145,577,813,868,934,桥五)","lon":"121.537476202","lat":"31.2829277053","category":"38","category_name":"公交车站","address":"上海市杨浦区隆昌路控江路"},{"poiid":"B2094654D56FA4F8429D","title":"天池拉面","lon":"121.53919","lat":"31.28658","category":"68","category_name":"快餐厅","address":"杨浦区延吉东路557弄1号(水丰路口)"},{"poiid":"B2094655D26CA7F4479B","title":"隆昌路696弄","lon":"121.53908","lat":"31.28223","category":"47","category_name":"住宅区","address":"隆昌路696弄"},{"poiid":"B2094655D36CA1FF4593","title":"隆昌路","lon":"121.53683","lat":"31.28306","category":"38","category_name":"公交车站","address":""},{"poiid":"B2094757D465A0F54493","title":"小四川美食苑 延吉店","lon":"121.53937885078","lat":"31.286806287604","category":"71","category_name":"四川菜","address":"杨浦区延吉东路557号(近水丰路)"},{"poiid":"B2094655D36CA1FF469B","title":"隆昌路控江路","lon":"121.53738","lat":"31.28276","category":"38","category_name":"公交车站","address":""},{"poiid":"B2094655D26FA0F8409E","title":"上海市卫生学校市东校区(南门)","lon":"121.54018","lat":"31.28138","category":"678","category_name":"学校大门","address":"舒兰路51"},{"poiid":"B2094654D56FA4F8499C","title":"隆昌路700弄小区","lon":"121.53841","lat":"31.28292","category":"47","category_name":"住宅区","address":"隆昌路700弄1-7号"},{"poiid":"B2094655D265ABFC429E","title":"富贵人家","lon":"121.538","lat":"31.2814","category":"47","category_name":"住宅区","address":"上海市杨浦区周家嘴路3118弄52-54号"},{"poiid":"B2094654D56FA4F8459B","title":"延吉经济园区印刷科技工业园","lon":"121.53917","lat":"31.28386","category":"45","category_name":"产业园区","address":"控江路665号10号楼"},{"poiid":"B2094655D26CA6FF419F","title":"隆昌路700弄小区(西门)","lon":"121.5379","lat":"31.28254","category":"47","category_name":"住宅区","address":"隆昌路700弄1-7号"},{"poiid":"B2094757D06AA5F94099","title":"杨浦少体校综合训练馆","lon":"121.540742","lat":"31.278633","category":"253","category_name":"校园生活","address":"杨浦区隆昌路640号杨浦体育场内(近舒兰路)"},{"poiid":"B2094655D26CA7F44798","title":"隆昌路696弄小区(西门)","lon":"121.53832","lat":"31.2819","category":"47","category_name":"住宅区","address":"隆昌路696弄"},{"poiid":"B2094655D264A1FE419E","title":"益海公寓","lon":"121.54114","lat":"31.28175","category":"47","category_name":"住宅区","address":"益海公寓位于杨浦舒兰路61弄"},{"poiid":"B2094757D06BA4FB489D","title":"杨浦区青少年科技站","lon":"121.539838","lat":"31.281485","category":"190","category_name":"培训机构","address":"上海杨浦区舒兰路"},{"poiid":"B2094757D16BA6FD4898","title":"延吉第二初级中学(内江中学)","lon":"121.542470103","lat":"31.2840157064","category":"55","category_name":"中学","address":"上海市杨浦区内江路周家嘴路"},{"poiid":"B2094655D26CA5FE439F","title":"水丰路125弄小区(上海出版印刷高等专科学校西南)","lon":"121.54176","lat":"31.28256","category":"47","category_name":"住宅区","address":"水丰路125弄1-3号"},{"poiid":"B2094655D26CA7F4459B","title":"控江路687号、697号小区控江路","lon":"121.53775","lat":"31.28279","category":"47","category_name":"住宅区","address":"控江路687号、697号"},{"poiid":"B2094655D26FA6FA4892","title":"杨浦公园","lon":"121.53639","lat":"31.28066","category":"196","category_name":"公园","address":"杨浦区双阳路369号(近控江路)"},{"poiid":"B2094654D56FA4F94499","title":"上海理工大学出版印刷学院(水丰路)","lon":"121.54316","lat":"31.28289","category":"52","category_name":"高等院校","address":"杨浦区水丰路100"},{"poiid":"B2094757D06FA2FD429E","title":"泰晤士咖啡餐厅(控江二店)","lon":"121.5384","lat":"31.28361","category":"94","category_name":"西餐厅","address":"上海杨浦区控江路766号(近隆昌路)  "},{"poiid":"B2094757D06FA4F9479F","title":"杨浦体育馆羽毛球场","lon":"121.54092","lat":"31.27954","category":"220","category_name":"运动场所","address":"杨浦区隆昌路640号杨浦体育场内(周家嘴路口)"},{"poiid":"B2094655D36CA1F54198","title":"控江路内江路","lon":"121.54199","lat":"31.28586","category":"38","category_name":"公交车站","address":""},{"poiid":"B2094757D06FA4FE419E","title":"杨浦区卫生学校","lon":"121.54077","lat":"31.28134","category":"260","category_name":"其他","address":"杨浦区舒兰路51号(隆昌路舒兰路)"},{"poiid":"B2094655D26CA6FC479C","title":"上海出版印刷高等专科学校","lon":"121.54317","lat":"31.28289","category":"671","category_name":"高校中心点","address":"杨浦区内江路397号"},{"poiid":"B2094757D068A2F4479F","title":"舒兰游泳娱乐中心","lon":"121.5399","lat":"31.28057","category":"220","category_name":"运动场所","address":"上海杨浦区舒兰路50号(隆昌路口)"},{"poiid":"B2094757D06FABF54899","title":"延吉一村","lon":"121.53708648","lat":"31.284992218","category":"47","category_name":"住宅区","address":"上海延吉一村"},{"poiid":"B2094757D068A1FD469D","title":"幸福村","lon":"121.5417173292","lat":"31.281767450987","category":"500","category_name":"未知分类","address":"上海四平路幸福村"},{"poiid":"B2094654D56FA4F9449B","title":"上海理工大学水丰路校区","lon":"121.54316","lat":"31.28289","category":"52","category_name":"高等院校","address":"水丰路100"},{"poiid":"B2094655D36CA1F5419B","title":"控江路隆昌路","lon":"121.5377","lat":"31.28345","category":"38","category_name":"公交车站","address":""},{"poiid":"B2094654D56FA4FA4792","title":"杨浦体育馆","lon":"121.54109","lat":"31.27877","category":"224","category_name":"综合体育馆","address":"隆昌路640号"},{"poiid":"B2094757D069A7FF449E","title":"延吉二村小区","lon":"121.537477503","lat":"31.2860367486","category":"47","category_name":"住宅区","address":"上海市杨浦区延吉东路隆昌路"},{"poiid":"B2094757D069ABF4469B","title":"园外缘","lon":"121.53728244931","lat":"31.28303183978","category":"76","category_name":"上海菜","address":"上海杨浦区隆昌路701号(近控江路)  "},{"poiid":"B2094757D068A0F44792","title":"杨浦公园游乐场","lon":"121.53638714","lat":"31.280663141","category":"195","category_name":"游乐场","address":"上海杨浦区隆昌路681号(近控江路)"},{"poiid":"B2094654D56FA4F8429C","title":"上海理工大学附属中学","lon":"121.53884","lat":"31.28604","category":"55","category_name":"中学","address":"杨浦区水丰路247号(近延吉中路)"},{"poiid":"B2094757D06AA3FE409F","title":"小四川酒楼","lon":"121.5397644","lat":"31.28716278","category":"247","category_name":"餐饮美食","address":"上海延吉东路557号"},{"poiid":"B2094655D26AA7FF409D","title":"仁和宠物医院隆昌路分院","lon":"121.53987","lat":"31.27907","category":"162","category_name":"医院","address":"杨浦区隆昌路669号(辽源东路路口)"},{"poiid":"B2094757D069AAF8449B","title":"上海理工大学出版印刷高等专科学院学生食堂","lon":"121.54267","lat":"31.28193","category":"68","category_name":"快餐厅","address":"杨浦区水丰路100号(舒兰路水丰路)"},{"poiid":"B2094654DB64A6F8479D","title":"上海市卫生学校市东校区","lon":"121.5401","lat":"31.28158","category":"54","category_name":"职业技术学校","address":"舒兰路51"},{"poiid":"B2094655D26AA0F54199","title":"舒兰温水游泳馆","lon":"121.54009","lat":"31.28095","category":"247","category_name":"餐饮美食","address":"杨浦区舒兰路50号(隆昌路口)"},{"poiid":"B2094757D06BA3FF4098","title":"控江路645弄","lon":"121.541365103","lat":"31.2831586885","category":"500","category_name":"未知分类","address":"上海市杨浦区控江路645弄"},{"poiid":"B2094757D16DA2F54398","title":"控江路水丰路","lon":"121.540333103","lat":"31.2847567219","category":"500","category_name":"未知分类","address":"上海控江路水丰路"},{"poiid":"B2094757D069A5FB419C","title":"内江一村小区","lon":"121.542186308","lat":"31.2840197606","category":"47","category_name":"住宅区","address":"上海市杨浦区控江路水丰路"},{"poiid":"B2094757D06BA6FC499F","title":"舒兰小区","lon":"121.54088","lat":"31.282063","category":"47","category_name":"住宅区","address":"上海舒兰路61弄"},{"poiid":"B2094655D26AA3FC439C","title":"东仁驾校隆昌路店","lon":"121.53845","lat":"31.28169","category":"247","category_name":"餐饮美食","address":"杨浦区隆昌路690号(近控江路)"},{"poiid":"B2094654D56FA4FC419C","title":"上海版专周家嘴路学生宿舍","lon":"121.53914","lat":"31.27791","category":"47","category_name":"住宅区","address":"周家嘴路3531"},{"poiid":"B2094654D56FA4F94098","title":"杨浦科技馆","lon":"121.53871","lat":"31.28174","category":"186","category_name":"科技馆","address":"隆昌路690"},{"poiid":"B2094654D56FA4FD409A","title":"鹿谷酒家","lon":"121.53731006165","lat":"31.283442543791","category":"76","category_name":"上海菜","address":"杨浦区隆昌路777号杨浦区老干部活动中心5楼(近延吉中路)"},{"poiid":"B2094654D56FA5F5499E","title":"杨浦公园花卉市场","lon":"121.53705","lat":"31.28254","category":"117","category_name":"便民商店/便利店","address":"隆昌路701"},{"poiid":"B2094655D36DA0F84493","title":"延吉路水丰路","lon":"121.53847","lat":"31.28629","category":"38","category_name":"公交车站","address":""},{"poiid":"B2094757D064A4F5499C","title":"隆昌路控江路站(公交28,145,577,813,868,934,桥五)","lon":"121.537476202","lat":"31.2829277053","category":"38","category_name":"公交车站","address":"上海市杨浦区隆昌路控江路"},{"poiid":"B2094654D56FA4F8429D","title":"天池拉面","lon":"121.53919","lat":"31.28658","category":"68","category_name":"快餐厅","address":"杨浦区延吉东路557弄1号(水丰路口)"},{"poiid":"B2094655D26CA7F4479B","title":"隆昌路696弄","lon":"121.53908","lat":"31.28223","category":"47","category_name":"住宅区","address":"隆昌路696弄"},{"poiid":"B2094655D36CA1FF4593","title":"隆昌路","lon":"121.53683","lat":"31.28306","category":"38","category_name":"公交车站","address":""},{"poiid":"B2094757D465A0F54493","title":"小四川美食苑 延吉店","lon":"121.53937885078","lat":"31.286806287604","category":"71","category_name":"四川菜","address":"杨浦区延吉东路557号(近水丰路)"},{"poiid":"B2094655D36CA1FF469B","title":"隆昌路控江路","lon":"121.53738","lat":"31.28276","category":"38","category_name":"公交车站","address":""},{"poiid":"B2094655D26FA0F8409E","title":"上海市卫生学校市东校区(南门)","lon":"121.54018","lat":"31.28138","category":"678","category_name":"学校大门","address":"舒兰路51"},{"poiid":"B2094654D56FA4F8499C","title":"隆昌路700弄小区","lon":"121.53841","lat":"31.28292","category":"47","category_name":"住宅区","address":"隆昌路700弄1-7号"},{"poiid":"B2094655D265ABFC429E","title":"富贵人家","lon":"121.538","lat":"31.2814","category":"47","category_name":"住宅区","address":"上海市杨浦区周家嘴路3118弄52-54号"},{"poiid":"B2094654D56FA4F8459B","title":"延吉经济园区印刷科技工业园","lon":"121.53917","lat":"31.28386","category":"45","category_name":"产业园区","address":"控江路665号10号楼"},{"poiid":"B2094655D26CA6FF419F","title":"隆昌路700弄小区(西门)","lon":"121.5379","lat":"31.28254","category":"47","category_name":"住宅区","address":"隆昌路700弄1-7号"},{"poiid":"B2094757D06AA5F94099","title":"杨浦少体校综合训练馆","lon":"121.540742","lat":"31.278633","category":"253","category_name":"校园生活","address":"杨浦区隆昌路640号杨浦体育场内(近舒兰路)"},{"poiid":"B2094655D26CA7F44798","title":"隆昌路696弄小区(西门)","lon":"121.53832","lat":"31.2819","category":"47","category_name":"住宅区","address":"隆昌路696弄"},{"poiid":"B2094655D264A1FE419E","title":"益海公寓","lon":"121.54114","lat":"31.28175","category":"47","category_name":"住宅区","address":"益海公寓位于杨浦舒兰路61弄"},{"poiid":"B2094757D06BA4FB489D","title":"杨浦区青少年科技站","lon":"121.539838","lat":"31.281485","category":"190","category_name":"培训机构","address":"上海杨浦区舒兰路"},{"poiid":"B2094757D16BA6FD4898","title":"延吉第二初级中学(内江中学)","lon":"121.542470103","lat":"31.2840157064","category":"55","category_name":"中学","address":"上海市杨浦区内江路周家嘴路"},{"poiid":"B2094655D26CA5FE439F","title":"水丰路125弄小区(上海出版印刷高等专科学校西南)","lon":"121.54176","lat":"31.28256","category":"47","category_name":"住宅区","address":"水丰路125弄1-3号"},{"poiid":"B2094655D26CA7F4459B","title":"控江路687号、697号小区控江路","lon":"121.53775","lat":"31.28279","category":"47","category_name":"住宅区","address":"控江路687号、697号"}]