[{"poiid":"B2094757D06FA3FF4298","title":"上海兴荣温德姆至尊豪廷酒店","lon":"121.55508","lat":"31.25322","category":"213","category_name":"五星级宾馆","address":"浦东新区浦东大道2288号(万德路口)"},{"poiid":"B2094655D26BA2F5479C","title":"浦东大道德平路","lon":"121.55705","lat":"31.25607","category":"38","category_name":"公交车站","address":""},{"poiid":"B2094757D068ABFD409B","title":"上海双拥大厦","lon":"121.564009619","lat":"31.26092478","category":"46","category_name":"楼宇","address":"浦东新区浦东大道2601号(近居家桥路)"},{"poiid":"B2094757D06FA7FC469B","title":"浦东大道","lon":"121.56493549","lat":"31.255178412","category":"260","category_name":"其他","address":"上海市浦东大道"},{"poiid":"B2094757D068A0FD419C","title":"德平路公交站(近浦东大道)","lon":"121.556913","lat":"31.254067","category":"38","category_name":"公交车站","address":"上海德平路浦东大道"},{"poiid":"B2094654DB64A4FD429E","title":"爱康国宾上海浦东分院","lon":"121.56272","lat":"31.25877","category":"162","category_name":"医院","address":"浦东大道2554号三楼"},{"poiid":"B2094757D06FA0F8449F","title":"龙珠广场","lon":"121.557","lat":"31.2563","category":"46","category_name":"楼宇","address":"卫清西路139_149号等"},{"poiid":"B2094757D064AAFE409A","title":"上海振华外经职业技术学校","lon":"121.56191233","lat":"31.253369374","category":"253","category_name":"校园生活","address":"上海龙居路栖山路"},{"poiid":"B2094757D06FAAF4499D","title":"浦东大道居家桥路车站","lon":"121.560845","lat":"31.258352","category":"38","category_name":"公交车站","address":"上海浦东大道居家桥路公交车站"},{"poiid":"B2094655D26FA0FB4098","title":"金樟花苑","lon":"121.56441","lat":"31.25869","category":"47","category_name":"住宅区","address":"栖山路1555弄1-34号"},{"poiid":"B2094655D26FA6F5429E","title":"金茂花园","lon":"121.558914","lat":"31.259183","category":"47","category_name":"住宅区","address":"浦东上海市浦东大道2515"},{"poiid":"B2094654D568A4F54393","title":"上海申诚医院","lon":"121.55902","lat":"31.25675","category":"162","category_name":"医院","address":"浦东新区浦东大道2516号(近杨浦大桥)"},{"poiid":"B2094654DA69A3F4489C","title":"阳光世界","lon":"121.555","lat":"31.2539","category":"46","category_name":"楼宇","address":"虹口区海宁路,吴淞路口"},{"poiid":"B2094757D069A6F4409D","title":"鼎丰人家(德平店)","lon":"121.55825","lat":"31.25268","category":"76","category_name":"上海菜","address":"浦东新区德平路44号(栖山路口)"},{"poiid":"B2094757D06BA7FC4793","title":"明缘渔港","lon":"121.566578","lat":"31.256883","category":"260","category_name":"其他","address":"浦东新区云山路600号(近栖山路)"},{"poiid":"B2094654D568ABFC469B","title":"长信阁小吃馆","lon":"121.56084","lat":"31.25498","category":"68","category_name":"快餐厅","address":"浦东新区栖山路1297号(近龙居路)"},{"poiid":"B2094757D069ABFE439B","title":"小绍兴(德平店)","lon":"121.55628","lat":"31.25447","category":"68","category_name":"快餐厅","address":"浦东新区德平路8号(近浦东大道)"},{"poiid":"B2094654D568A4F4489F","title":"罗山一村(边门)","lon":"121.55851","lat":"31.25447","category":"47","category_name":"住宅区","address":"龙居路30弄1-32号"},{"poiid":"B2094752DB6EABFE449B","title":"奧灶面","lon":"121.560756","lat":"31.255268","category":"247","category_name":"餐饮美食","address":"上海市 上海市浦东新区博山东路"},{"poiid":"B2094757D16EA1FC429A","title":"金湘阁 栖山路店","lon":"121.56345518195","lat":"31.257146416632","category":"77","category_name":"湖南菜","address":"浦东新区栖山路1497号(近居家桥路)"},{"poiid":"B2094757DA6AA4FE499A","title":"金桥商业广场","lon":"121.560472","lat":"31.250646","category":"500","category_name":"未知分类","address":"金桥路"},{"poiid":"B2094654D568A7FF499F","title":"苏宁电器(浦东大道)","lon":"121.56298","lat":"31.25892","category":"138","category_name":"家电电子卖场","address":"浦东新区浦东大道2554号(近居家桥路)"},{"poiid":"B2094655D26CA5FA4599","title":"罗山小商品街","lon":"121.56155","lat":"31.25559","category":"116","category_name":"特色商业街","address":""},{"poiid":"B2094654DB6BA1F84793","title":"龙居花苑北区","lon":"121.5607","lat":"31.25551","category":"47","category_name":"住宅区","address":"栖山路1299弄1-6号"},{"poiid":"B2094757D06AABFD489B","title":"莫泰168(杨浦大桥店)","lon":"121.55553","lat":"31.25391","category":"500","category_name":"未知分类","address":"上海市浦东大道2330号(近罗山路)"},{"poiid":"B2094655D264A0F94198","title":"通联公寓","lon":"121.5592","lat":"31.255882","category":"47","category_name":"住宅区","address":"上海市浦东新区龙居路29弄"},{"poiid":"B2094654DB6BA1F8489A","title":"可的栖山路店","lon":"121.56071","lat":"31.2549","category":"117","category_name":"便民商店/便利店","address":"栖山路1285"},{"poiid":"B2094655D26BA2F5479E","title":"浦东大道居家桥路","lon":"121.56168","lat":"31.25906","category":"38","category_name":"公交车站","address":"上海浦东新区浦东大道居家桥路口"},{"poiid":"B2094655D26FA7FC409D","title":"龙居花苑北区(南门)","lon":"121.56101","lat":"31.25517","category":"47","category_name":"住宅区","address":"栖山路1299弄1-6号"},{"poiid":"B2094757D06BA3FB479F","title":"永乐生活电器(德平店)","lon":"121.56052","lat":"31.25746","category":"138","category_name":"家电电子卖场","address":"浦东新区浦东大道2525号(近居家桥路)"},{"poiid":"B2094750DA6DA2F9449A","title":"新竹园中学","lon":"121.56076","lat":"31.254384","category":"55","category_name":"中学","address":"龙居路118号"},{"poiid":"B2094654D568ABFC429C","title":"罗山菜市场","lon":"121.56187","lat":"31.25578","category":"117","category_name":"便民商店/便利店","address":"栖山路1385"},{"poiid":"B2094757D06BABFF4098","title":"25路平凉路眉州路站","lon":"121.55865273","lat":"31.255037713","category":"38","category_name":"公交车站","address":"上海杨浦区平凉路眉州路"},{"poiid":"B2094655D26FA0FA429B","title":"龙居花苑","lon":"121.56111","lat":"31.25464","category":"47","category_name":"住宅区","address":"上海浦东新区栖山路1299弄1-4号"},{"poiid":"B2094654DB6BA1F84792","title":"联华栖山路店","lon":"121.56202","lat":"31.25588","category":"118","category_name":"超级市场","address":"栖山路1389"},{"poiid":"B2094654D568A4FA4593","title":"上安大厦","lon":"121.558","lat":"31.2559","category":"47","category_name":"住宅区","address":"上安大厦位于浦东浦东大道2188号"},{"poiid":"B2094757D16AABF84299","title":"浦东大道串串小摊麻辣烫","lon":"121.56171","lat":"31.25838","category":"68","category_name":"快餐厅","address":"浦东新区浦东大道永琪门口(近居家桥路)"},{"poiid":"B2094654D568ABFC459D","title":"龙居花苑(北门)","lon":"121.56124","lat":"31.25476","category":"47","category_name":"住宅区","address":"栖山路1300弄1-2号"},{"poiid":"B2094655D26CA5FB409F","title":"栖山家园","lon":"121.56509","lat":"31.256105","category":"47","category_name":"住宅区","address":"栖山路1460弄1-40号"},{"poiid":"B2094654D568ABFC4792","title":"上海市振华综合高级中学","lon":"121.56195","lat":"31.25412","category":"55","category_name":"中学","address":"龙居路87"},{"poiid":"B2094757D16EAAF5419F","title":"上海国医馆","lon":"121.55742","lat":"31.256083","category":"162","category_name":"医院","address":"浦东新区浦东大道2188号1-2楼(近歇浦路)"},{"poiid":"B2094757D16EAAFC439E","title":"新疆喀什友好餐厅","lon":"121.55730780725","lat":"31.253826338597","category":"90","category_name":"清真餐馆","address":"浦东新区德平路42号(近浦东大道)"},{"poiid":"B2094654D568A4FA439C","title":"祥和大厦","lon":"121.558","lat":"31.2561","category":"46","category_name":"楼宇","address":"浦东大道2238号"},{"poiid":"B2094655D26FA4FE419F","title":"罗山一村边门栖山路","lon":"121.55926","lat":"31.25399","category":"47","category_name":"住宅区","address":"龙居路30弄1-32号"},{"poiid":"B2094751D464AAF84799","title":"湘潭大学","lon":"121.5611023","lat":"31.2587193","category":"671","category_name":"高校中心点","address":"湖南省湘潭市雨湖区"},{"poiid":"B2094757D064A4FA429F","title":"浦东大道龙居路","lon":"121.55989433","lat":"31.255253918","category":"500","category_name":"未知分类","address":"上海浦东大道2446号2楼"},{"poiid":"B2094753D464ABF8459F","title":"四川香天下火锅【陆家嘴店】","lon":"121.557916","lat":"31.256331","category":"247","category_name":"餐饮美食","address":"浦东大道1108号"},{"poiid":"B2094654DA69A3F4419D","title":"鼎隆大厦","lon":"121.55774503852","lat":"31.254479515684","category":"46","category_name":"楼宇","address":"栖山路465弄16"},{"poiid":"B2094655D26FA0FA4193","title":"昕泰苑","lon":"121.56295","lat":"31.257984","category":"47","category_name":"住宅区","address":"上海市浦东新区居家桥路199弄"},{"poiid":"B2094655D26BA2F4459C","title":"栖山路龙居路","lon":"121.55921","lat":"31.25365","category":"38","category_name":"公交车站","address":""},{"poiid":"B2094757D06FA3FF4298","title":"上海兴荣温德姆至尊豪廷酒店","lon":"121.55508","lat":"31.25322","category":"213","category_name":"五星级宾馆","address":"浦东新区浦东大道2288号(万德路口)"},{"poiid":"B2094655D26BA2F5479C","title":"浦东大道德平路","lon":"121.55705","lat":"31.25607","category":"38","category_name":"公交车站","address":""},{"poiid":"B2094757D068ABFD409B","title":"上海双拥大厦","lon":"121.564009619","lat":"31.26092478","category":"46","category_name":"楼宇","address":"浦东新区浦东大道2601号(近居家桥路)"},{"poiid":"B2094757D06FA7FC469B","title":"浦东大道","lon":"121.56493549","lat":"31.255178412","category":"260","category_name":"其他","address":"上海市浦东大道"},{"poiid":"B2094757D068A0FD419C","title":"德平路公交站(近浦东大道)","lon":"121.556913","lat":"31.254067","category":"38","category_name":"公交车站","address":"上海德平路浦东大道"},{"poiid":"B2094654DB64A4FD429E","title":"爱康国宾上海浦东分院","lon":"121.56272","lat":"31.25877","category":"162","category_name":"医院","address":"浦东大道2554号三楼"},{"poiid":"B2094757D06FA0F8449F","title":"龙珠广场","lon":"121.557","lat":"31.2563","category":"46","category_name":"楼宇","address":"卫清西路139_149号等"},{"poiid":"B2094757D064AAFE409A","title":"上海振华外经职业技术学校","lon":"121.56191233","lat":"31.253369374","category":"253","category_name":"校园生活","address":"上海龙居路栖山路"},{"poiid":"B2094757D06FAAF4499D","title":"浦东大道居家桥路车站","lon":"121.560845","lat":"31.258352","category":"38","category_name":"公交车站","address":"上海浦东大道居家桥路公交车站"},{"poiid":"B2094655D26FA0FB4098","title":"金樟花苑","lon":"121.56441","lat":"31.25869","category":"47","category_name":"住宅区","address":"栖山路1555弄1-34号"},{"poiid":"B2094655D26FA6F5429E","title":"金茂花园","lon":"121.558914","lat":"31.259183","category":"47","category_name":"住宅区","address":"浦东上海市浦东大道2515"},{"poiid":"B2094654D568A4F54393","title":"上海申诚医院","lon":"121.55902","lat":"31.25675","category":"162","category_name":"医院","address":"浦东新区浦东大道2516号(近杨浦大桥)"},{"poiid":"B2094654DA69A3F4489C","title":"阳光世界","lon":"121.555","lat":"31.2539","category":"46","category_name":"楼宇","address":"虹口区海宁路,吴淞路口"},{"poiid":"B2094757D069A6F4409D","title":"鼎丰人家(德平店)","lon":"121.55825","lat":"31.25268","category":"76","category_name":"上海菜","address":"浦东新区德平路44号(栖山路口)"},{"poiid":"B2094757D06BA7FC4793","title":"明缘渔港","lon":"121.566578","lat":"31.256883","category":"260","category_name":"其他","address":"浦东新区云山路600号(近栖山路)"},{"poiid":"B2094654D568ABFC469B","title":"长信阁小吃馆","lon":"121.56084","lat":"31.25498","category":"68","category_name":"快餐厅","address":"浦东新区栖山路1297号(近龙居路)"},{"poiid":"B2094757D069ABFE439B","title":"小绍兴(德平店)","lon":"121.55628","lat":"31.25447","category":"68","category_name":"快餐厅","address":"浦东新区德平路8号(近浦东大道)"},{"poiid":"B2094654D568A4F4489F","title":"罗山一村(边门)","lon":"121.55851","lat":"31.25447","category":"47","category_name":"住宅区","address":"龙居路30弄1-32号"},{"poiid":"B2094752DB6EABFE449B","title":"奧灶面","lon":"121.560756","lat":"31.255268","category":"247","category_name":"餐饮美食","address":"上海市 上海市浦东新区博山东路"},{"poiid":"B2094757D16EA1FC429A","title":"金湘阁 栖山路店","lon":"121.56345518195","lat":"31.257146416632","category":"77","category_name":"湖南菜","address":"浦东新区栖山路1497号(近居家桥路)"},{"poiid":"B2094757DA6AA4FE499A","title":"金桥商业广场","lon":"121.560472","lat":"31.250646","category":"500","category_name":"未知分类","address":"金桥路"},{"poiid":"B2094654D568A7FF499F","title":"苏宁电器(浦东大道)","lon":"121.56298","lat":"31.25892","category":"138","category_name":"家电电子卖场","address":"浦东新区浦东大道2554号(近居家桥路)"},{"poiid":"B2094655D26CA5FA4599","title":"罗山小商品街","lon":"121.56155","lat":"31.25559","category":"116","category_name":"特色商业街","address":""},{"poiid":"B2094654DB6BA1F84793","title":"龙居花苑北区","lon":"121.5607","lat":"31.25551","category":"47","category_name":"住宅区","address":"栖山路1299弄1-6号"},{"poiid":"B2094757D06AABFD489B","title":"莫泰168(杨浦大桥店)","lon":"121.55553","lat":"31.25391","category":"500","category_name":"未知分类","address":"上海市浦东大道2330号(近罗山路)"},{"poiid":"B2094655D264A0F94198","title":"通联公寓","lon":"121.5592","lat":"31.255882","category":"47","category_name":"住宅区","address":"上海市浦东新区龙居路29弄"},{"poiid":"B2094654DB6BA1F8489A","title":"可的栖山路店","lon":"121.56071","lat":"31.2549","category":"117","category_name":"便民商店/便利店","address":"栖山路1285"},{"poiid":"B2094655D26BA2F5479E","title":"浦东大道居家桥路","lon":"121.56168","lat":"31.25906","category":"38","category_name":"公交车站","address":"上海浦东新区浦东大道居家桥路口"},{"poiid":"B2094655D26FA7FC409D","title":"龙居花苑北区(南门)","lon":"121.56101","lat":"31.25517","category":"47","category_name":"住宅区","address":"栖山路1299弄1-6号"},{"poiid":"B2094757D06BA3FB479F","title":"永乐生活电器(德平店)","lon":"121.56052","lat":"31.25746","category":"138","category_name":"家电电子卖场","address":"浦东新区浦东大道2525号(近居家桥路)"},{"poiid":"B2094750DA6DA2F9449A","title":"新竹园中学","lon":"121.56076","lat":"31.254384","category":"55","category_name":"中学","address":"龙居路118号"},{"poiid":"B2094654D568ABFC429C","title":"罗山菜市场","lon":"121.56187","lat":"31.25578","category":"117","category_name":"便民商店/便利店","address":"栖山路1385"},{"poiid":"B2094757D06BABFF4098","title":"25路平凉路眉州路站","lon":"121.55865273","lat":"31.255037713","category":"38","category_name":"公交车站","address":"上海杨浦区平凉路眉州路"},{"poiid":"B2094655D26FA0FA429B","title":"龙居花苑","lon":"121.56111","lat":"31.25464","category":"47","category_name":"住宅区","address":"上海浦东新区栖山路1299弄1-4号"},{"poiid":"B2094654DB6BA1F84792","title":"联华栖山路店","lon":"121.56202","lat":"31.25588","category":"118","category_name":"超级市场","address":"栖山路1389"},{"poiid":"B2094654D568A4FA4593","title":"上安大厦","lon":"121.558","lat":"31.2559","category":"47","category_name":"住宅区","address":"上安大厦位于浦东浦东大道2188号"},{"poiid":"B2094757D16AABF84299","title":"浦东大道串串小摊麻辣烫","lon":"121.56171","lat":"31.25838","category":"68","category_name":"快餐厅","address":"浦东新区浦东大道永琪门口(近居家桥路)"},{"poiid":"B2094654D568ABFC459D","title":"龙居花苑(北门)","lon":"121.56124","lat":"31.25476","category":"47","category_name":"住宅区","address":"栖山路1300弄1-2号"},{"poiid":"B2094655D26CA5FB409F","title":"栖山家园","lon":"121.56509","lat":"31.256105","category":"47","category_name":"住宅区","address":"栖山路1460弄1-40号"},{"poiid":"B2094654D568ABFC4792","title":"上海市振华综合高级中学","lon":"121.56195","lat":"31.25412","category":"55","category_name":"中学","address":"龙居路87"},{"poiid":"B2094757D16EAAF5419F","title":"上海国医馆","lon":"121.55742","lat":"31.256083","category":"162","category_name":"医院","address":"浦东新区浦东大道2188号1-2楼(近歇浦路)"},{"poiid":"B2094757D16EAAFC439E","title":"新疆喀什友好餐厅","lon":"121.55730780725","lat":"31.253826338597","category":"90","category_name":"清真餐馆","address":"浦东新区德平路42号(近浦东大道)"},{"poiid":"B2094654D568A4FA439C","title":"祥和大厦","lon":"121.558","lat":"31.2561","category":"46","category_name":"楼宇","address":"浦东大道2238号"},{"poiid":"B2094655D26FA4FE419F","title":"罗山一村边门栖山路","lon":"121.55926","lat":"31.25399","category":"47","category_name":"住宅区","address":"龙居路30弄1-32号"},{"poiid":"B2094751D464AAF84799","title":"湘潭大学","lon":"121.5611023","lat":"31.2587193","category":"671","category_name":"高校中心点","address":"湖南省湘潭市雨湖区"},{"poiid":"B2094757D064A4FA429F","title":"浦东大道龙居路","lon":"121.55989433","lat":"31.255253918","category":"500","category_name":"未知分类","address":"上海浦东大道2446号2楼"},{"poiid":"B2094753D464ABF8459F","title":"四川香天下火锅【陆家嘴店】","lon":"121.557916","lat":"31.256331","category":"247","category_name":"餐饮美食","address":"浦东大道1108号"},{"poiid":"B2094654DA69A3F4419D","title":"鼎隆大厦","lon":"121.55774503852","lat":"31.254479515684","category":"46","category_name":"楼宇","address":"栖山路465弄16"},{"poiid":"B2094655D26FA0FA4193","title":"昕泰苑","lon":"121.56295","lat":"31.257984","category":"47","category_name":"住宅区","address":"上海市浦东新区居家桥路199弄"},{"poiid":"B2094655D26BA2F4459C","title":"栖山路龙居路","lon":"121.55921","lat":"31.25365","category":"38","category_name":"公交车站","address":""},{"poiid":"B2094757D06FA3FF4298","title":"上海兴荣温德姆至尊豪廷酒店","lon":"121.55508","lat":"31.25322","category":"213","category_name":"五星级宾馆","address":"浦东新区浦东大道2288号(万德路口)"},{"poiid":"B2094655D26BA2F5479C","title":"浦东大道德平路","lon":"121.55705","lat":"31.25607","category":"38","category_name":"公交车站","address":""},{"poiid":"B2094757D068ABFD409B","title":"上海双拥大厦","lon":"121.564009619","lat":"31.26092478","category":"46","category_name":"楼宇","address":"浦东新区浦东大道2601号(近居家桥路)"},{"poiid":"B2094757D06FA7FC469B","title":"浦东大道","lon":"121.56493549","lat":"31.255178412","category":"260","category_name":"其他","address":"上海市浦东大道"},{"poiid":"B2094757D068A0FD419C","title":"德平路公交站(近浦东大道)","lon":"121.556913","lat":"31.254067","category":"38","category_name":"公交车站","address":"上海德平路浦东大道"},{"poiid":"B2094654DB64A4FD429E","title":"爱康国宾上海浦东分院","lon":"121.56272","lat":"31.25877","category":"162","category_name":"医院","address":"浦东大道2554号三楼"},{"poiid":"B2094757D06FA0F8449F","title":"龙珠广场","lon":"121.557","lat":"31.2563","category":"46","category_name":"楼宇","address":"卫清西路139_149号等"},{"poiid":"B2094757D064AAFE409A","title":"上海振华外经职业技术学校","lon":"121.56191233","lat":"31.253369374","category":"253","category_name":"校园生活","address":"上海龙居路栖山路"},{"poiid":"B2094757D06FAAF4499D","title":"浦东大道居家桥路车站","lon":"121.560845","lat":"31.258352","category":"38","category_name":"公交车站","address":"上海浦东大道居家桥路公交车站"},{"poiid":"B2094655D26FA0FB4098","title":"金樟花苑","lon":"121.56441","lat":"31.25869","category":"47","category_name":"住宅区","address":"栖山路1555弄1-34号"},{"poiid":"B2094655D26FA6F5429E","title":"金茂花园","lon":"121.558914","lat":"31.259183","category":"47","category_name":"住宅区","address":"浦东上海市浦东大道2515"},{"poiid":"B2094654D568A4F54393","title":"上海申诚医院","lon":"121.55902","lat":"31.25675","category":"162","category_name":"医院","address":"浦东新区浦东大道2516号(近杨浦大桥)"},{"poiid":"B2094654DA69A3F4489C","title":"阳光世界","lon":"121.555","lat":"31.2539","category":"46","category_name":"楼宇","address":"虹口区海宁路,吴淞路口"},{"poiid":"B2094757D069A6F4409D","title":"鼎丰人家(德平店)","lon":"121.55825","lat":"31.25268","category":"76","category_name":"上海菜","address":"浦东新区德平路44号(栖山路口)"},{"poiid":"B2094757D06BA7FC4793","title":"明缘渔港","lon":"121.566578","lat":"31.256883","category":"260","category_name":"其他","address":"浦东新区云山路600号(近栖山路)"},{"poiid":"B2094654D568ABFC469B","title":"长信阁小吃馆","lon":"121.56084","lat":"31.25498","category":"68","category_name":"快餐厅","address":"浦东新区栖山路1297号(近龙居路)"},{"poiid":"B2094757D069ABFE439B","title":"小绍兴(德平店)","lon":"121.55628","lat":"31.25447","category":"68","category_name":"快餐厅","address":"浦东新区德平路8号(近浦东大道)"},{"poiid":"B2094654D568A4F4489F","title":"罗山一村(边门)","lon":"121.55851","lat":"31.25447","category":"47","category_name":"住宅区","address":"龙居路30弄1-32号"},{"poiid":"B2094752DB6EABFE449B","title":"奧灶面","lon":"121.560756","lat":"31.255268","category":"247","category_name":"餐饮美食","address":"上海市 上海市浦东新区博山东路"},{"poiid":"B2094757D16EA1FC429A","title":"金湘阁 栖山路店","lon":"121.56345518195","lat":"31.257146416632","category":"77","category_name":"湖南菜","address":"浦东新区栖山路1497号(近居家桥路)"},{"poiid":"B2094757DA6AA4FE499A","title":"金桥商业广场","lon":"121.560472","lat":"31.250646","category":"500","category_name":"未知分类","address":"金桥路"},{"poiid":"B2094654D568A7FF499F","title":"苏宁电器(浦东大道)","lon":"121.56298","lat":"31.25892","category":"138","category_name":"家电电子卖场","address":"浦东新区浦东大道2554号(近居家桥路)"},{"poiid":"B2094655D26CA5FA4599","title":"罗山小商品街","lon":"121.56155","lat":"31.25559","category":"116","category_name":"特色商业街","address":""},{"poiid":"B2094654DB6BA1F84793","title":"龙居花苑北区","lon":"121.5607","lat":"31.25551","category":"47","category_name":"住宅区","address":"栖山路1299弄1-6号"},{"poiid":"B2094757D06AABFD489B","title":"莫泰168(杨浦大桥店)","lon":"121.55553","lat":"31.25391","category":"500","category_name":"未知分类","address":"上海市浦东大道2330号(近罗山路)"},{"poiid":"B2094655D264A0F94198","title":"通联公寓","lon":"121.5592","lat":"31.255882","category":"47","category_name":"住宅区","address":"上海市浦东新区龙居路29弄"},{"poiid":"B2094654DB6BA1F8489A","title":"可的栖山路店","lon":"121.56071","lat":"31.2549","category":"117","category_name":"便民商店/便利店","address":"栖山路1285"},{"poiid":"B2094655D26BA2F5479E","title":"浦东大道居家桥路","lon":"121.56168","lat":"31.25906","category":"38","category_name":"公交车站","address":"上海浦东新区浦东大道居家桥路口"},{"poiid":"B2094655D26FA7FC409D","title":"龙居花苑北区(南门)","lon":"121.56101","lat":"31.25517","category":"47","category_name":"住宅区","address":"栖山路1299弄1-6号"},{"poiid":"B2094757D06BA3FB479F","title":"永乐生活电器(德平店)","lon":"121.56052","lat":"31.25746","category":"138","category_name":"家电电子卖场","address":"浦东新区浦东大道2525号(近居家桥路)"},{"poiid":"B2094750DA6DA2F9449A","title":"新竹园中学","lon":"121.56076","lat":"31.254384","category":"55","category_name":"中学","address":"龙居路118号"},{"poiid":"B2094654D568ABFC429C","title":"罗山菜市场","lon":"121.56187","lat":"31.25578","category":"117","category_name":"便民商店/便利店","address":"栖山路1385"},{"poiid":"B2094757D06BABFF4098","title":"25路平凉路眉州路站","lon":"121.55865273","lat":"31.255037713","category":"38","category_name":"公交车站","address":"上海杨浦区平凉路眉州路"},{"poiid":"B2094655D26FA0FA429B","title":"龙居花苑","lon":"121.56111","lat":"31.25464","category":"47","category_name":"住宅区","address":"上海浦东新区栖山路1299弄1-4号"},{"poiid":"B2094654DB6BA1F84792","title":"联华栖山路店","lon":"121.56202","lat":"31.25588","category":"118","category_name":"超级市场","address":"栖山路1389"},{"poiid":"B2094654D568A4FA4593","title":"上安大厦","lon":"121.558","lat":"31.2559","category":"47","category_name":"住宅区","address":"上安大厦位于浦东浦东大道2188号"},{"poiid":"B2094757D16AABF84299","title":"浦东大道串串小摊麻辣烫","lon":"121.56171","lat":"31.25838","category":"68","category_name":"快餐厅","address":"浦东新区浦东大道永琪门口(近居家桥路)"},{"poiid":"B2094654D568ABFC459D","title":"龙居花苑(北门)","lon":"121.56124","lat":"31.25476","category":"47","category_name":"住宅区","address":"栖山路1300弄1-2号"},{"poiid":"B2094655D26CA5FB409F","title":"栖山家园","lon":"121.56509","lat":"31.256105","category":"47","category_name":"住宅区","address":"栖山路1460弄1-40号"},{"poiid":"B2094654D568ABFC4792","title":"上海市振华综合高级中学","lon":"121.56195","lat":"31.25412","category":"55","category_name":"中学","address":"龙居路87"},{"poiid":"B2094757D16EAAF5419F","title":"上海国医馆","lon":"121.55742","lat":"31.256083","category":"162","category_name":"医院","address":"浦东新区浦东大道2188号1-2楼(近歇浦路)"},{"poiid":"B2094757D16EAAFC439E","title":"新疆喀什友好餐厅","lon":"121.55730780725","lat":"31.253826338597","category":"90","category_name":"清真餐馆","address":"浦东新区德平路42号(近浦东大道)"},{"poiid":"B2094654D568A4FA439C","title":"祥和大厦","lon":"121.558","lat":"31.2561","category":"46","category_name":"楼宇","address":"浦东大道2238号"},{"poiid":"B2094655D26FA4FE419F","title":"罗山一村边门栖山路","lon":"121.55926","lat":"31.25399","category":"47","category_name":"住宅区","address":"龙居路30弄1-32号"},{"poiid":"B2094751D464AAF84799","title":"湘潭大学","lon":"121.5611023","lat":"31.2587193","category":"671","category_name":"高校中心点","address":"湖南省湘潭市雨湖区"},{"poiid":"B2094757D064A4FA429F","title":"浦东大道龙居路","lon":"121.55989433","lat":"31.255253918","category":"500","category_name":"未知分类","address":"上海浦东大道2446号2楼"},{"poiid":"B2094753D464ABF8459F","title":"四川香天下火锅【陆家嘴店】","lon":"121.557916","lat":"31.256331","category":"247","category_name":"餐饮美食","address":"浦东大道1108号"},{"poiid":"B2094654DA69A3F4419D","title":"鼎隆大厦","lon":"121.55774503852","lat":"31.254479515684","category":"46","category_name":"楼宇","address":"栖山路465弄16"},{"poiid":"B2094655D26FA0FA4193","title":"昕泰苑","lon":"121.56295","lat":"31.257984","category":"47","category_name":"住宅区","address":"上海市浦东新区居家桥路199弄"},{"poiid":"B2094655D26BA2F4459C","title":"栖山路龙居路","lon":"121.55921","lat":"31.25365","category":"38","category_name":"公交车站","address":""},{"poiid":"B2094757D06FA3FF4298","title":"上海兴荣温德姆至尊豪廷酒店","lon":"121.55508","lat":"31.25322","category":"213","category_name":"五星级宾馆","address":"浦东新区浦东大道2288号(万德路口)"},{"poiid":"B2094655D26BA2F5479C","title":"浦东大道德平路","lon":"121.55705","lat":"31.25607","category":"38","category_name":"公交车站","address":""},{"poiid":"B2094757D068ABFD409B","title":"上海双拥大厦","lon":"121.564009619","lat":"31.26092478","category":"46","category_name":"楼宇","address":"浦东新区浦东大道2601号(近居家桥路)"},{"poiid":"B2094757D06FA7FC469B","title":"浦东大道","lon":"121.56493549","lat":"31.255178412","category":"260","category_name":"其他","address":"上海市浦东大道"},{"poiid":"B2094757D068A0FD419C","title":"德平路公交站(近浦东大道)","lon":"121.556913","lat":"31.254067","category":"38","category_name":"公交车站","address":"上海德平路浦东大道"},{"poiid":"B2094654DB64A4FD429E","title":"爱康国宾上海浦东分院","lon":"121.56272","lat":"31.25877","category":"162","category_name":"医院","address":"浦东大道2554号三楼"},{"poiid":"B2094757D06FA0F8449F","title":"龙珠广场","lon":"121.557","lat":"31.2563","category":"46","category_name":"楼宇","address":"卫清西路139_149号等"},{"poiid":"B2094757D064AAFE409A","title":"上海振华外经职业技术学校","lon":"121.56191233","lat":"31.253369374","category":"253","category_name":"校园生活","address":"上海龙居路栖山路"},{"poiid":"B2094757D06FAAF4499D","title":"浦东大道居家桥路车站","lon":"121.560845","lat":"31.258352","category":"38","category_name":"公交车站","address":"上海浦东大道居家桥路公交车站"},{"poiid":"B2094655D26FA0FB4098","title":"金樟花苑","lon":"121.56441","lat":"31.25869","category":"47","category_name":"住宅区","address":"栖山路1555弄1-34号"},{"poiid":"B2094655D26FA6F5429E","title":"金茂花园","lon":"121.558914","lat":"31.259183","category":"47","category_name":"住宅区","address":"浦东上海市浦东大道2515"},{"poiid":"B2094654D568A4F54393","title":"上海申诚医院","lon":"121.55902","lat":"31.25675","category":"162","category_name":"医院","address":"浦东新区浦东大道2516号(近杨浦大桥)"},{"poiid":"B2094654DA69A3F4489C","title":"阳光世界","lon":"121.555","lat":"31.2539","category":"46","category_name":"楼宇","address":"虹口区海宁路,吴淞路口"},{"poiid":"B2094757D069A6F4409D","title":"鼎丰人家(德平店)","lon":"121.55825","lat":"31.25268","category":"76","category_name":"上海菜","address":"浦东新区德平路44号(栖山路口)"},{"poiid":"B2094757D06BA7FC4793","title":"明缘渔港","lon":"121.566578","lat":"31.256883","category":"260","category_name":"其他","address":"浦东新区云山路600号(近栖山路)"},{"poiid":"B2094654D568ABFC469B","title":"长信阁小吃馆","lon":"121.56084","lat":"31.25498","category":"68","category_name":"快餐厅","address":"浦东新区栖山路1297号(近龙居路)"},{"poiid":"B2094757D069ABFE439B","title":"小绍兴(德平店)","lon":"121.55628","lat":"31.25447","category":"68","category_name":"快餐厅","address":"浦东新区德平路8号(近浦东大道)"},{"poiid":"B2094654D568A4F4489F","title":"罗山一村(边门)","lon":"121.55851","lat":"31.25447","category":"47","category_name":"住宅区","address":"龙居路30弄1-32号"},{"poiid":"B2094752DB6EABFE449B","title":"奧灶面","lon":"121.560756","lat":"31.255268","category":"247","category_name":"餐饮美食","address":"上海市 上海市浦东新区博山东路"},{"poiid":"B2094757D16EA1FC429A","title":"金湘阁 栖山路店","lon":"121.56345518195","lat":"31.257146416632","category":"77","category_name":"湖南菜","address":"浦东新区栖山路1497号(近居家桥路)"},{"poiid":"B2094757DA6AA4FE499A","title":"金桥商业广场","lon":"121.560472","lat":"31.250646","category":"500","category_name":"未知分类","address":"金桥路"},{"poiid":"B2094654D568A7FF499F","title":"苏宁电器(浦东大道)","lon":"121.56298","lat":"31.25892","category":"138","category_name":"家电电子卖场","address":"浦东新区浦东大道2554号(近居家桥路)"},{"poiid":"B2094655D26CA5FA4599","title":"罗山小商品街","lon":"121.56155","lat":"31.25559","category":"116","category_name":"特色商业街","address":""},{"poiid":"B2094654DB6BA1F84793","title":"龙居花苑北区","lon":"121.5607","lat":"31.25551","category":"47","category_name":"住宅区","address":"栖山路1299弄1-6号"},{"poiid":"B2094757D06AABFD489B","title":"莫泰168(杨浦大桥店)","lon":"121.55553","lat":"31.25391","category":"500","category_name":"未知分类","address":"上海市浦东大道2330号(近罗山路)"},{"poiid":"B2094655D264A0F94198","title":"通联公寓","lon":"121.5592","lat":"31.255882","category":"47","category_name":"住宅区","address":"上海市浦东新区龙居路29弄"},{"poiid":"B2094654DB6BA1F8489A","title":"可的栖山路店","lon":"121.56071","lat":"31.2549","category":"117","category_name":"便民商店/便利店","address":"栖山路1285"},{"poiid":"B2094655D26BA2F5479E","title":"浦东大道居家桥路","lon":"121.56168","lat":"31.25906","category":"38","category_name":"公交车站","address":"上海浦东新区浦东大道居家桥路口"},{"poiid":"B2094655D26FA7FC409D","title":"龙居花苑北区(南门)","lon":"121.56101","lat":"31.25517","category":"47","category_name":"住宅区","address":"栖山路1299弄1-6号"},{"poiid":"B2094757D06BA3FB479F","title":"永乐生活电器(德平店)","lon":"121.56052","lat":"31.25746","category":"138","category_name":"家电电子卖场","address":"浦东新区浦东大道2525号(近居家桥路)"},{"poiid":"B2094750DA6DA2F9449A","title":"新竹园中学","lon":"121.56076","lat":"31.254384","category":"55","category_name":"中学","address":"龙居路118号"},{"poiid":"B2094654D568ABFC429C","title":"罗山菜市场","lon":"121.56187","lat":"31.25578","category":"117","category_name":"便民商店/便利店","address":"栖山路1385"},{"poiid":"B2094757D06BABFF4098","title":"25路平凉路眉州路站","lon":"121.55865273","lat":"31.255037713","category":"38","category_name":"公交车站","address":"上海杨浦区平凉路眉州路"},{"poiid":"B2094655D26FA0FA429B","title":"龙居花苑","lon":"121.56111","lat":"31.25464","category":"47","category_name":"住宅区","address":"上海浦东新区栖山路1299弄1-4号"},{"poiid":"B2094654DB6BA1F84792","title":"联华栖山路店","lon":"121.56202","lat":"31.25588","category":"118","category_name":"超级市场","address":"栖山路1389"},{"poiid":"B2094654D568A4FA4593","title":"上安大厦","lon":"121.558","lat":"31.2559","category":"47","category_name":"住宅区","address":"上安大厦位于浦东浦东大道2188号"},{"poiid":"B2094757D16AABF84299","title":"浦东大道串串小摊麻辣烫","lon":"121.56171","lat":"31.25838","category":"68","category_name":"快餐厅","address":"浦东新区浦东大道永琪门口(近居家桥路)"},{"poiid":"B2094654D568ABFC459D","title":"龙居花苑(北门)","lon":"121.56124","lat":"31.25476","category":"47","category_name":"住宅区","address":"栖山路1300弄1-2号"},{"poiid":"B2094655D26CA5FB409F","title":"栖山家园","lon":"121.56509","lat":"31.256105","category":"47","category_name":"住宅区","address":"栖山路1460弄1-40号"},{"poiid":"B2094654D568ABFC4792","title":"上海市振华综合高级中学","lon":"121.56195","lat":"31.25412","category":"55","category_name":"中学","address":"龙居路87"},{"poiid":"B2094757D16EAAF5419F","title":"上海国医馆","lon":"121.55742","lat":"31.256083","category":"162","category_name":"医院","address":"浦东新区浦东大道2188号1-2楼(近歇浦路)"},{"poiid":"B2094757D16EAAFC439E","title":"新疆喀什友好餐厅","lon":"121.55730780725","lat":"31.253826338597","category":"90","category_name":"清真餐馆","address":"浦东新区德平路42号(近浦东大道)"},{"poiid":"B2094654D568A4FA439C","title":"祥和大厦","lon":"121.558","lat":"31.2561","category":"46","category_name":"楼宇","address":"浦东大道2238号"},{"poiid":"B2094655D26FA4FE419F","title":"罗山一村边门栖山路","lon":"121.55926","lat":"31.25399","category":"47","category_name":"住宅区","address":"龙居路30弄1-32号"},{"poiid":"B2094751D464AAF84799","title":"湘潭大学","lon":"121.5611023","lat":"31.2587193","category":"671","category_name":"高校中心点","address":"湖南省湘潭市雨湖区"},{"poiid":"B2094757D064A4FA429F","title":"浦东大道龙居路","lon":"121.55989433","lat":"31.255253918","category":"500","category_name":"未知分类","address":"上海浦东大道2446号2楼"},{"poiid":"B2094753D464ABF8459F","title":"四川香天下火锅【陆家嘴店】","lon":"121.557916","lat":"31.256331","category":"247","category_name":"餐饮美食","address":"浦东大道1108号"},{"poiid":"B2094654DA69A3F4419D","title":"鼎隆大厦","lon":"121.55774503852","lat":"31.254479515684","category":"46","category_name":"楼宇","address":"栖山路465弄16"},{"poiid":"B2094655D26FA0FA4193","title":"昕泰苑","lon":"121.56295","lat":"31.257984","category":"47","category_name":"住宅区","address":"上海市浦东新区居家桥路199弄"},{"poiid":"B2094655D26BA2F4459C","title":"栖山路龙居路","lon":"121.55921","lat":"31.25365","category":"38","category_name":"公交车站","address":""}]