[{"poiid":"B2094757D06FA3F8429C","title":"淮海路","lon":"121.46398412","lat":"31.222631868","category":"260","category_name":"其他","address":"上海淮海路"},{"poiid":"B2094757D06FA0FD4999","title":"上海大剧院-大剧场(Shanghai Grand Theatre - Lyric Theatre)","lon":"121.46956921","lat":"31.225844356","category":"260","category_name":"其他","address":"黄浦区人民大道300号大剧院内(近黄陂南路)"},{"poiid":"B2094757D06FA7F94199","title":"市政大厦","lon":"121.472011","lat":"31.226881","category":"46","category_name":"楼宇","address":"上海市黄浦区大沽路100号"},{"poiid":"B2094753D76FAAFA449C","title":"上海滩国泰旗舰店","lon":"121.466011","lat":"31.216125","category":"249","category_name":"购物服务","address":"淮海中路868号"},{"poiid":"B209475CD564A7F84292","title":"上海滩新天地店","lon":"121.47463","lat":"31.22164","category":"119","category_name":"商场","address":"\"太仓路181弄新天地北里15号\r\n\""},{"poiid":"B209475CD564A7F8439E","title":"上海滩中信泰富店","lon":"121.45602","lat":"31.22851","category":"119","category_name":"商场","address":"\"南京西路1168号中信泰富广场，店铺号221.\r\n\""},{"poiid":"B2094757D068A3F54292","title":"二百永新大厦","lon":"121.472368","lat":"31.226048","category":"46","category_name":"楼宇","address":"上海淮海中路887号"},{"poiid":"B2094654DB6BA4FD489F","title":"新华联大厦","lon":"121.471","lat":"31.2248","category":"46","category_name":"楼宇","address":"越秀区广州沿江中路298号"},{"poiid":"B2094757D56CA1FE429D","title":"星巴克 力宝广场店 Starbucks Cafe","lon":"121.47456367878","lat":"31.223538465013","category":"247","category_name":"餐饮美食","address":"淮海中路222号力宝广场1楼近嵩山路"},{"poiid":"B2094757D06FAAF5489B","title":"东泰祥生煎馒头馆 重庆北路店","lon":"121.47016","lat":"31.226474","category":"68","category_name":"快餐厅","address":"黄浦区重庆北路188号(近大沽路)"},{"poiid":"B2094757D068A2F5449F","title":"世纪巴士大厦","lon":"121.47163462","lat":"31.222440357","category":"46","category_name":"楼宇","address":"上海淮海中路398号"},{"poiid":"B2094751DA6DA0FA479B","title":"猫屎咖啡(新天地店)","lon":"121.4691613","lat":"31.2232952","category":"247","category_name":"餐饮美食","address":"太仓路200号"},{"poiid":"B2094655D268ABFF409F","title":"延安东路立交桥","lon":"121.469","lat":"31.22467","category":"250","category_name":"公园户外","address":""},{"poiid":"B2094752D069A4FB489A","title":"鸿星荟","lon":"121.468619","lat":"31.225721","category":"247","category_name":"餐饮美食","address":"淮海中路300号K11购物艺术中心"},{"poiid":"B2094752D16CAAF94893","title":"ABC Cooking Studio（K11店）","lon":"121.469221","lat":"31.225111","category":"247","category_name":"餐饮美食","address":null},{"poiid":"B2094757DB6CA5F84593","title":"Element Fresh","lon":"121.470734","lat":"31.223412","category":"247","category_name":"餐饮美食","address":"Xin tian Di"},{"poiid":"B2094751D564ABF44592","title":"圣诞集市","lon":"121.470834","lat":"31.225767","category":"248","category_name":"生活娱乐","address":"卢湾区新天地太平湖广场"},{"poiid":"B209475CD76EA0F54692","title":"环贸iapm","lon":"121.469993","lat":"31.223688","category":"500","category_name":"未知分类","address":"上海市 卢湾区淮海中路999号"},{"poiid":"B2094757DB6FA4FA439A","title":"揽香","lon":"121.469027","lat":"31.224747","category":"247","category_name":"餐饮美食","address":"卢湾区中环广场"},{"poiid":"B2094757D068A4F9409E","title":"上海市黄浦区人民法院","lon":"121.47189331","lat":"31.225976944","category":"608","category_name":"法院","address":"上海市延安东路1234号"},{"poiid":"B2094757D069A2FD429E","title":"电信世界","lon":"121.47264099","lat":"31.226232528","category":"151","category_name":"电讯营业厅","address":"上海黄浦区延安东路1200号"},{"poiid":"B2094752D06EA5F44092","title":"Pizza Marzano（披萨马上诺）","lon":"121.46927","lat":"31.225073","category":"247","category_name":"餐饮美食","address":null},{"poiid":"B2094757D068A6F5479A","title":"Nolita","lon":"121.46507","lat":"31.22554","category":"94","category_name":"西餐厅","address":"静安区大沽路422号"},{"poiid":"B2094655D36CA6F54598","title":"淡水路","lon":"121.47198","lat":"31.22328","category":"38","category_name":"公交车站","address":""},{"poiid":"B2094752D16DAAFE4898","title":"合点寿司","lon":"121.469321","lat":"31.225022","category":"247","category_name":"餐饮美食","address":"淮海中路300号K11购物艺术中心302号铺(近黄陂南路)"},{"poiid":"B2094752D06FA3FC4999","title":"淮海中路300号K11购物艺术中心301-307号铺(近黄陂南路地铁站)","lon":"121.470142","lat":"31.226922","category":"247","category_name":"餐饮美食","address":"淮海中路300号K11购物艺术中心301-307号铺(近黄陂南路地铁站)"},{"poiid":"B2094757D068A4F9429C","title":"徐其修凉茶","lon":"121.47148973","lat":"31.222897143","category":"113","category_name":"冷饮店","address":"卢湾区兴安路98弄10号(近雁荡路)"},{"poiid":"B2094752D46AA2F8479C","title":"中国农业银行卢湾瑞金二路支行","lon":"121.471698","lat":"31.225296","category":"150","category_name":"银行","address":"上海市卢湾区淮海中路701-721号"},{"poiid":"B2094655D26EABFB4099","title":"上海电信世界大厦","lon":"121.47264","lat":"31.22622","category":"46","category_name":"楼宇","address":"延安东路1200"},{"poiid":"B2094654DA68A3FB4199","title":"黄浦政法大楼","lon":"121.47194","lat":"31.22642","category":"68","category_name":"快餐厅","address":"黄浦区大沽路123号2楼(近重庆北路)"},{"poiid":"B2094757D069AAF4419C","title":"8号线大世界站","lon":"121.47294373","lat":"31.224576179","category":"500","category_name":"未知分类","address":"上海市黄浦区成都北路"},{"poiid":"B2094752D66AA5F54793","title":"Small Spice","lon":"121.470896","lat":"31.223251","category":"247","category_name":"餐饮美食","address":"淡水路250号"},{"poiid":"B2094655D36DA0F8409D","title":"延安东路重庆北路","lon":"121.471","lat":"31.22491","category":"38","category_name":"公交车站","address":""},{"poiid":"B2094654DB65A1F54893","title":"金鹿大楼东楼(巨鹿路)","lon":"121.46926","lat":"31.2236","category":"46","category_name":"楼宇","address":"巨鹿路1号"},{"poiid":"B2094757DB68A4FC419D","title":"金裕苑","lon":"121.4715975523","lat":"31.223963185598","category":"47","category_name":"住宅区","address":"卢湾区淡水路66弄2-6号(近金陵西路)"},{"poiid":"B2094654DA6EABFC459B","title":"延中公园","lon":"121.47138","lat":"31.22321","category":"196","category_name":"公园","address":"延安路黄陂路口"},{"poiid":"B2094654DB6BABFE4699","title":"重庆鸡公煲 重庆北路","lon":"121.470468054","lat":"31.226113793","category":"247","category_name":"餐饮美食","address":"黄浦区重庆北路188号(近大沽路)"},{"poiid":"B2094757D568A5FF469F","title":"如家快捷酒店(上海人民广场店)","lon":"121.4699547","lat":"31.22698215","category":"216","category_name":"经济型连锁酒店","address":"上海市黄浦区重庆北路208号(近威海路)"},{"poiid":"B2094750D16BA4F84399","title":"米多寿司","lon":"121.470146","lat":"31.226119","category":"95","category_name":"日本料理","address":"黄浦区重庆北路151号(近大沽路)"},{"poiid":"B2094757D165A6FE459D","title":"广场公园","lon":"121.47233373","lat":"31.224058168","category":"196","category_name":"公园","address":"黄浦区延安东路至延安中路(西藏南路至茂名南路)"},{"poiid":"B2094757D464A0F9499F","title":"百乐餐厅","lon":"121.47151639465","lat":"31.226478273305","category":"77","category_name":"湖南菜","address":"黄浦区大沽路199号(重庆北路口)"},{"poiid":"B2094757D069A0F4439B","title":"780浦西终点站","lon":"121.47106933","lat":"31.224872589","category":"38","category_name":"公交车站","address":"上海重庆北路延安东路"},{"poiid":"B2094757D66DA4F8499B","title":"黄浦政法大楼机关餐厅","lon":"121.47265","lat":"31.2256","category":"68","category_name":"快餐厅","address":"黄浦区延安东路1234号政法大楼2楼(黄陂北路延安东路)"},{"poiid":"B2094654DA68A3FB409D","title":"宏泰公寓","lon":"121.47105","lat":"31.226851","category":"47","category_name":"住宅区","address":"宏泰公寓位于黄浦大沽路186弄"},{"poiid":"B209475CD16FA2F5419D","title":"查厘士","lon":"121.471008","lat":"31.222307","category":"247","category_name":"餐饮美食","address":"上海市 上海市淮海中路438号4楼"},{"poiid":"B2094757D16AA0F84092","title":"成都北路延安东路公交站","lon":"121.468385938","lat":"31.2245998801","category":"38","category_name":"公交车站","address":"上海成都北路延安东路"},{"poiid":"B2094757D064ABFE419A","title":"卢湾区瑞金二路派出所","lon":"121.46855807","lat":"31.224189838","category":"609","category_name":"警察局","address":"上海卢湾区巨鹿路9号"},{"poiid":"B2094757D168A4F9409D","title":"老成都北路大沽路","lon":"121.468626338","lat":"31.224545779","category":"500","category_name":"未知分类","address":"上海老成都北路大沽路"},{"poiid":"B2094753D76EA3FD4699","title":"K歌之王","lon":"121.472053","lat":"31.223363","category":"247","category_name":"餐饮美食","address":"上海市 金陵东路569号5楼"},{"poiid":"B2094757D66CA2FE4792","title":"112路人民广场终点站","lon":"121.472603938","lat":"31.2255514004","category":"500","category_name":"未知分类","address":"上海市黄浦区武胜路近延安东路"},{"poiid":"B2094757D06FA3F8429C","title":"淮海路","lon":"121.46398412","lat":"31.222631868","category":"260","category_name":"其他","address":"上海淮海路"},{"poiid":"B2094757D06FA0FD4999","title":"上海大剧院-大剧场(Shanghai Grand Theatre - Lyric Theatre)","lon":"121.46956921","lat":"31.225844356","category":"260","category_name":"其他","address":"黄浦区人民大道300号大剧院内(近黄陂南路)"},{"poiid":"B2094757D06FA7F94199","title":"市政大厦","lon":"121.472011","lat":"31.226881","category":"46","category_name":"楼宇","address":"上海市黄浦区大沽路100号"},{"poiid":"B2094753D76FAAFA449C","title":"上海滩国泰旗舰店","lon":"121.466011","lat":"31.216125","category":"249","category_name":"购物服务","address":"淮海中路868号"},{"poiid":"B209475CD564A7F84292","title":"上海滩新天地店","lon":"121.47463","lat":"31.22164","category":"119","category_name":"商场","address":"\"太仓路181弄新天地北里15号\r\n\""},{"poiid":"B209475CD564A7F8439E","title":"上海滩中信泰富店","lon":"121.45602","lat":"31.22851","category":"119","category_name":"商场","address":"\"南京西路1168号中信泰富广场，店铺号221.\r\n\""},{"poiid":"B2094757D068A3F54292","title":"二百永新大厦","lon":"121.472368","lat":"31.226048","category":"46","category_name":"楼宇","address":"上海淮海中路887号"},{"poiid":"B2094654DB6BA4FD489F","title":"新华联大厦","lon":"121.471","lat":"31.2248","category":"46","category_name":"楼宇","address":"越秀区广州沿江中路298号"},{"poiid":"B2094757D56CA1FE429D","title":"星巴克 力宝广场店 Starbucks Cafe","lon":"121.47456367878","lat":"31.223538465013","category":"247","category_name":"餐饮美食","address":"淮海中路222号力宝广场1楼近嵩山路"},{"poiid":"B2094757D06FAAF5489B","title":"东泰祥生煎馒头馆 重庆北路店","lon":"121.47016","lat":"31.226474","category":"68","category_name":"快餐厅","address":"黄浦区重庆北路188号(近大沽路)"},{"poiid":"B2094757D068A2F5449F","title":"世纪巴士大厦","lon":"121.47163462","lat":"31.222440357","category":"46","category_name":"楼宇","address":"上海淮海中路398号"},{"poiid":"B2094751DA6DA0FA479B","title":"猫屎咖啡(新天地店)","lon":"121.4691613","lat":"31.2232952","category":"247","category_name":"餐饮美食","address":"太仓路200号"},{"poiid":"B2094655D268ABFF409F","title":"延安东路立交桥","lon":"121.469","lat":"31.22467","category":"250","category_name":"公园户外","address":""},{"poiid":"B2094752D069A4FB489A","title":"鸿星荟","lon":"121.468619","lat":"31.225721","category":"247","category_name":"餐饮美食","address":"淮海中路300号K11购物艺术中心"},{"poiid":"B2094752D16CAAF94893","title":"ABC Cooking Studio（K11店）","lon":"121.469221","lat":"31.225111","category":"247","category_name":"餐饮美食","address":null},{"poiid":"B2094757DB6CA5F84593","title":"Element Fresh","lon":"121.470734","lat":"31.223412","category":"247","category_name":"餐饮美食","address":"Xin tian Di"},{"poiid":"B2094751D564ABF44592","title":"圣诞集市","lon":"121.470834","lat":"31.225767","category":"248","category_name":"生活娱乐","address":"卢湾区新天地太平湖广场"},{"poiid":"B209475CD76EA0F54692","title":"环贸iapm","lon":"121.469993","lat":"31.223688","category":"500","category_name":"未知分类","address":"上海市 卢湾区淮海中路999号"},{"poiid":"B2094757DB6FA4FA439A","title":"揽香","lon":"121.469027","lat":"31.224747","category":"247","category_name":"餐饮美食","address":"卢湾区中环广场"},{"poiid":"B2094757D068A4F9409E","title":"上海市黄浦区人民法院","lon":"121.47189331","lat":"31.225976944","category":"608","category_name":"法院","address":"上海市延安东路1234号"},{"poiid":"B2094757D069A2FD429E","title":"电信世界","lon":"121.47264099","lat":"31.226232528","category":"151","category_name":"电讯营业厅","address":"上海黄浦区延安东路1200号"},{"poiid":"B2094752D06EA5F44092","title":"Pizza Marzano（披萨马上诺）","lon":"121.46927","lat":"31.225073","category":"247","category_name":"餐饮美食","address":null},{"poiid":"B2094757D068A6F5479A","title":"Nolita","lon":"121.46507","lat":"31.22554","category":"94","category_name":"西餐厅","address":"静安区大沽路422号"},{"poiid":"B2094655D36CA6F54598","title":"淡水路","lon":"121.47198","lat":"31.22328","category":"38","category_name":"公交车站","address":""},{"poiid":"B2094752D16DAAFE4898","title":"合点寿司","lon":"121.469321","lat":"31.225022","category":"247","category_name":"餐饮美食","address":"淮海中路300号K11购物艺术中心302号铺(近黄陂南路)"},{"poiid":"B2094752D06FA3FC4999","title":"淮海中路300号K11购物艺术中心301-307号铺(近黄陂南路地铁站)","lon":"121.470142","lat":"31.226922","category":"247","category_name":"餐饮美食","address":"淮海中路300号K11购物艺术中心301-307号铺(近黄陂南路地铁站)"},{"poiid":"B2094757D068A4F9429C","title":"徐其修凉茶","lon":"121.47148973","lat":"31.222897143","category":"113","category_name":"冷饮店","address":"卢湾区兴安路98弄10号(近雁荡路)"},{"poiid":"B2094752D46AA2F8479C","title":"中国农业银行卢湾瑞金二路支行","lon":"121.471698","lat":"31.225296","category":"150","category_name":"银行","address":"上海市卢湾区淮海中路701-721号"},{"poiid":"B2094655D26EABFB4099","title":"上海电信世界大厦","lon":"121.47264","lat":"31.22622","category":"46","category_name":"楼宇","address":"延安东路1200"},{"poiid":"B2094654DA68A3FB4199","title":"黄浦政法大楼","lon":"121.47194","lat":"31.22642","category":"68","category_name":"快餐厅","address":"黄浦区大沽路123号2楼(近重庆北路)"},{"poiid":"B2094757D069AAF4419C","title":"8号线大世界站","lon":"121.47294373","lat":"31.224576179","category":"500","category_name":"未知分类","address":"上海市黄浦区成都北路"},{"poiid":"B2094752D66AA5F54793","title":"Small Spice","lon":"121.470896","lat":"31.223251","category":"247","category_name":"餐饮美食","address":"淡水路250号"},{"poiid":"B2094655D36DA0F8409D","title":"延安东路重庆北路","lon":"121.471","lat":"31.22491","category":"38","category_name":"公交车站","address":""},{"poiid":"B2094654DB65A1F54893","title":"金鹿大楼东楼(巨鹿路)","lon":"121.46926","lat":"31.2236","category":"46","category_name":"楼宇","address":"巨鹿路1号"},{"poiid":"B2094757DB68A4FC419D","title":"金裕苑","lon":"121.4715975523","lat":"31.223963185598","category":"47","category_name":"住宅区","address":"卢湾区淡水路66弄2-6号(近金陵西路)"},{"poiid":"B2094654DA6EABFC459B","title":"延中公园","lon":"121.47138","lat":"31.22321","category":"196","category_name":"公园","address":"延安路黄陂路口"},{"poiid":"B2094654DB6BABFE4699","title":"重庆鸡公煲 重庆北路","lon":"121.470468054","lat":"31.226113793","category":"247","category_name":"餐饮美食","address":"黄浦区重庆北路188号(近大沽路)"},{"poiid":"B2094757D568A5FF469F","title":"如家快捷酒店(上海人民广场店)","lon":"121.4699547","lat":"31.22698215","category":"216","category_name":"经济型连锁酒店","address":"上海市黄浦区重庆北路208号(近威海路)"},{"poiid":"B2094750D16BA4F84399","title":"米多寿司","lon":"121.470146","lat":"31.226119","category":"95","category_name":"日本料理","address":"黄浦区重庆北路151号(近大沽路)"},{"poiid":"B2094757D165A6FE459D","title":"广场公园","lon":"121.47233373","lat":"31.224058168","category":"196","category_name":"公园","address":"黄浦区延安东路至延安中路(西藏南路至茂名南路)"},{"poiid":"B2094757D464A0F9499F","title":"百乐餐厅","lon":"121.47151639465","lat":"31.226478273305","category":"77","category_name":"湖南菜","address":"黄浦区大沽路199号(重庆北路口)"},{"poiid":"B2094757D069A0F4439B","title":"780浦西终点站","lon":"121.47106933","lat":"31.224872589","category":"38","category_name":"公交车站","address":"上海重庆北路延安东路"},{"poiid":"B2094757D66DA4F8499B","title":"黄浦政法大楼机关餐厅","lon":"121.47265","lat":"31.2256","category":"68","category_name":"快餐厅","address":"黄浦区延安东路1234号政法大楼2楼(黄陂北路延安东路)"},{"poiid":"B2094654DA68A3FB409D","title":"宏泰公寓","lon":"121.47105","lat":"31.226851","category":"47","category_name":"住宅区","address":"宏泰公寓位于黄浦大沽路186弄"},{"poiid":"B209475CD16FA2F5419D","title":"查厘士","lon":"121.471008","lat":"31.222307","category":"247","category_name":"餐饮美食","address":"上海市 上海市淮海中路438号4楼"},{"poiid":"B2094757D16AA0F84092","title":"成都北路延安东路公交站","lon":"121.468385938","lat":"31.2245998801","category":"38","category_name":"公交车站","address":"上海成都北路延安东路"},{"poiid":"B2094757D064ABFE419A","title":"卢湾区瑞金二路派出所","lon":"121.46855807","lat":"31.224189838","category":"609","category_name":"警察局","address":"上海卢湾区巨鹿路9号"},{"poiid":"B2094757D168A4F9409D","title":"老成都北路大沽路","lon":"121.468626338","lat":"31.224545779","category":"500","category_name":"未知分类","address":"上海老成都北路大沽路"},{"poiid":"B2094753D76EA3FD4699","title":"K歌之王","lon":"121.472053","lat":"31.223363","category":"247","category_name":"餐饮美食","address":"上海市 金陵东路569号5楼"},{"poiid":"B2094757D66CA2FE4792","title":"112路人民广场终点站","lon":"121.472603938","lat":"31.2255514004","category":"500","category_name":"未知分类","address":"上海市黄浦区武胜路近延安东路"},{"poiid":"B2094757D06FA3F8429C","title":"淮海路","lon":"121.46398412","lat":"31.222631868","category":"260","category_name":"其他","address":"上海淮海路"},{"poiid":"B2094757D06FA0FD4999","title":"上海大剧院-大剧场(Shanghai Grand Theatre - Lyric Theatre)","lon":"121.46956921","lat":"31.225844356","category":"260","category_name":"其他","address":"黄浦区人民大道300号大剧院内(近黄陂南路)"},{"poiid":"B2094757D06FA7F94199","title":"市政大厦","lon":"121.472011","lat":"31.226881","category":"46","category_name":"楼宇","address":"上海市黄浦区大沽路100号"},{"poiid":"B2094753D76FAAFA449C","title":"上海滩国泰旗舰店","lon":"121.466011","lat":"31.216125","category":"249","category_name":"购物服务","address":"淮海中路868号"},{"poiid":"B209475CD564A7F84292","title":"上海滩新天地店","lon":"121.47463","lat":"31.22164","category":"119","category_name":"商场","address":"\"太仓路181弄新天地北里15号\r\n\""},{"poiid":"B209475CD564A7F8439E","title":"上海滩中信泰富店","lon":"121.45602","lat":"31.22851","category":"119","category_name":"商场","address":"\"南京西路1168号中信泰富广场，店铺号221.\r\n\""},{"poiid":"B2094757D068A3F54292","title":"二百永新大厦","lon":"121.472368","lat":"31.226048","category":"46","category_name":"楼宇","address":"上海淮海中路887号"},{"poiid":"B2094654DB6BA4FD489F","title":"新华联大厦","lon":"121.471","lat":"31.2248","category":"46","category_name":"楼宇","address":"越秀区广州沿江中路298号"},{"poiid":"B2094757D56CA1FE429D","title":"星巴克 力宝广场店 Starbucks Cafe","lon":"121.47456367878","lat":"31.223538465013","category":"247","category_name":"餐饮美食","address":"淮海中路222号力宝广场1楼近嵩山路"},{"poiid":"B2094757D06FAAF5489B","title":"东泰祥生煎馒头馆 重庆北路店","lon":"121.47016","lat":"31.226474","category":"68","category_name":"快餐厅","address":"黄浦区重庆北路188号(近大沽路)"},{"poiid":"B2094757D068A2F5449F","title":"世纪巴士大厦","lon":"121.47163462","lat":"31.222440357","category":"46","category_name":"楼宇","address":"上海淮海中路398号"},{"poiid":"B2094751DA6DA0FA479B","title":"猫屎咖啡(新天地店)","lon":"121.4691613","lat":"31.2232952","category":"247","category_name":"餐饮美食","address":"太仓路200号"},{"poiid":"B2094655D268ABFF409F","title":"延安东路立交桥","lon":"121.469","lat":"31.22467","category":"250","category_name":"公园户外","address":""},{"poiid":"B2094752D069A4FB489A","title":"鸿星荟","lon":"121.468619","lat":"31.225721","category":"247","category_name":"餐饮美食","address":"淮海中路300号K11购物艺术中心"},{"poiid":"B2094752D16CAAF94893","title":"ABC Cooking Studio（K11店）","lon":"121.469221","lat":"31.225111","category":"247","category_name":"餐饮美食","address":null},{"poiid":"B2094757DB6CA5F84593","title":"Element Fresh","lon":"121.470734","lat":"31.223412","category":"247","category_name":"餐饮美食","address":"Xin tian Di"},{"poiid":"B2094751D564ABF44592","title":"圣诞集市","lon":"121.470834","lat":"31.225767","category":"248","category_name":"生活娱乐","address":"卢湾区新天地太平湖广场"},{"poiid":"B209475CD76EA0F54692","title":"环贸iapm","lon":"121.469993","lat":"31.223688","category":"500","category_name":"未知分类","address":"上海市 卢湾区淮海中路999号"},{"poiid":"B2094757DB6FA4FA439A","title":"揽香","lon":"121.469027","lat":"31.224747","category":"247","category_name":"餐饮美食","address":"卢湾区中环广场"},{"poiid":"B2094757D068A4F9409E","title":"上海市黄浦区人民法院","lon":"121.47189331","lat":"31.225976944","category":"608","category_name":"法院","address":"上海市延安东路1234号"},{"poiid":"B2094757D069A2FD429E","title":"电信世界","lon":"121.47264099","lat":"31.226232528","category":"151","category_name":"电讯营业厅","address":"上海黄浦区延安东路1200号"},{"poiid":"B2094752D06EA5F44092","title":"Pizza Marzano（披萨马上诺）","lon":"121.46927","lat":"31.225073","category":"247","category_name":"餐饮美食","address":null},{"poiid":"B2094757D068A6F5479A","title":"Nolita","lon":"121.46507","lat":"31.22554","category":"94","category_name":"西餐厅","address":"静安区大沽路422号"},{"poiid":"B2094655D36CA6F54598","title":"淡水路","lon":"121.47198","lat":"31.22328","category":"38","category_name":"公交车站","address":""},{"poiid":"B2094752D16DAAFE4898","title":"合点寿司","lon":"121.469321","lat":"31.225022","category":"247","category_name":"餐饮美食","address":"淮海中路300号K11购物艺术中心302号铺(近黄陂南路)"},{"poiid":"B2094752D06FA3FC4999","title":"淮海中路300号K11购物艺术中心301-307号铺(近黄陂南路地铁站)","lon":"121.470142","lat":"31.226922","category":"247","category_name":"餐饮美食","address":"淮海中路300号K11购物艺术中心301-307号铺(近黄陂南路地铁站)"},{"poiid":"B2094757D068A4F9429C","title":"徐其修凉茶","lon":"121.47148973","lat":"31.222897143","category":"113","category_name":"冷饮店","address":"卢湾区兴安路98弄10号(近雁荡路)"},{"poiid":"B2094752D46AA2F8479C","title":"中国农业银行卢湾瑞金二路支行","lon":"121.471698","lat":"31.225296","category":"150","category_name":"银行","address":"上海市卢湾区淮海中路701-721号"},{"poiid":"B2094655D26EABFB4099","title":"上海电信世界大厦","lon":"121.47264","lat":"31.22622","category":"46","category_name":"楼宇","address":"延安东路1200"},{"poiid":"B2094654DA68A3FB4199","title":"黄浦政法大楼","lon":"121.47194","lat":"31.22642","category":"68","category_name":"快餐厅","address":"黄浦区大沽路123号2楼(近重庆北路)"},{"poiid":"B2094757D069AAF4419C","title":"8号线大世界站","lon":"121.47294373","lat":"31.224576179","category":"500","category_name":"未知分类","address":"上海市黄浦区成都北路"},{"poiid":"B2094752D66AA5F54793","title":"Small Spice","lon":"121.470896","lat":"31.223251","category":"247","category_name":"餐饮美食","address":"淡水路250号"},{"poiid":"B2094655D36DA0F8409D","title":"延安东路重庆北路","lon":"121.471","lat":"31.22491","category":"38","category_name":"公交车站","address":""},{"poiid":"B2094654DB65A1F54893","title":"金鹿大楼东楼(巨鹿路)","lon":"121.46926","lat":"31.2236","category":"46","category_name":"楼宇","address":"巨鹿路1号"},{"poiid":"B2094757DB68A4FC419D","title":"金裕苑","lon":"121.4715975523","lat":"31.223963185598","category":"47","category_name":"住宅区","address":"卢湾区淡水路66弄2-6号(近金陵西路)"},{"poiid":"B2094654DA6EABFC459B","title":"延中公园","lon":"121.47138","lat":"31.22321","category":"196","category_name":"公园","address":"延安路黄陂路口"},{"poiid":"B2094654DB6BABFE4699","title":"重庆鸡公煲 重庆北路","lon":"121.470468054","lat":"31.226113793","category":"247","category_name":"餐饮美食","address":"黄浦区重庆北路188号(近大沽路)"},{"poiid":"B2094757D568A5FF469F","title":"如家快捷酒店(上海人民广场店)","lon":"121.4699547","lat":"31.22698215","category":"216","category_name":"经济型连锁酒店","address":"上海市黄浦区重庆北路208号(近威海路)"},{"poiid":"B2094750D16BA4F84399","title":"米多寿司","lon":"121.470146","lat":"31.226119","category":"95","category_name":"日本料理","address":"黄浦区重庆北路151号(近大沽路)"},{"poiid":"B2094757D165A6FE459D","title":"广场公园","lon":"121.47233373","lat":"31.224058168","category":"196","category_name":"公园","address":"黄浦区延安东路至延安中路(西藏南路至茂名南路)"},{"poiid":"B2094757D464A0F9499F","title":"百乐餐厅","lon":"121.47151639465","lat":"31.226478273305","category":"77","category_name":"湖南菜","address":"黄浦区大沽路199号(重庆北路口)"},{"poiid":"B2094757D069A0F4439B","title":"780浦西终点站","lon":"121.47106933","lat":"31.224872589","category":"38","category_name":"公交车站","address":"上海重庆北路延安东路"},{"poiid":"B2094757D66DA4F8499B","title":"黄浦政法大楼机关餐厅","lon":"121.47265","lat":"31.2256","category":"68","category_name":"快餐厅","address":"黄浦区延安东路1234号政法大楼2楼(黄陂北路延安东路)"},{"poiid":"B2094654DA68A3FB409D","title":"宏泰公寓","lon":"121.47105","lat":"31.226851","category":"47","category_name":"住宅区","address":"宏泰公寓位于黄浦大沽路186弄"},{"poiid":"B209475CD16FA2F5419D","title":"查厘士","lon":"121.471008","lat":"31.222307","category":"247","category_name":"餐饮美食","address":"上海市 上海市淮海中路438号4楼"},{"poiid":"B2094757D16AA0F84092","title":"成都北路延安东路公交站","lon":"121.468385938","lat":"31.2245998801","category":"38","category_name":"公交车站","address":"上海成都北路延安东路"},{"poiid":"B2094757D064ABFE419A","title":"卢湾区瑞金二路派出所","lon":"121.46855807","lat":"31.224189838","category":"609","category_name":"警察局","address":"上海卢湾区巨鹿路9号"},{"poiid":"B2094757D168A4F9409D","title":"老成都北路大沽路","lon":"121.468626338","lat":"31.224545779","category":"500","category_name":"未知分类","address":"上海老成都北路大沽路"},{"poiid":"B2094753D76EA3FD4699","title":"K歌之王","lon":"121.472053","lat":"31.223363","category":"247","category_name":"餐饮美食","address":"上海市 金陵东路569号5楼"},{"poiid":"B2094757D66CA2FE4792","title":"112路人民广场终点站","lon":"121.472603938","lat":"31.2255514004","category":"500","category_name":"未知分类","address":"上海市黄浦区武胜路近延安东路"},{"poiid":"B2094757D06FA3F8429C","title":"淮海路","lon":"121.46398412","lat":"31.222631868","category":"260","category_name":"其他","address":"上海淮海路"},{"poiid":"B2094757D06FA0FD4999","title":"上海大剧院-大剧场(Shanghai Grand Theatre - Lyric Theatre)","lon":"121.46956921","lat":"31.225844356","category":"260","category_name":"其他","address":"黄浦区人民大道300号大剧院内(近黄陂南路)"},{"poiid":"B2094757D06FA7F94199","title":"市政大厦","lon":"121.472011","lat":"31.226881","category":"46","category_name":"楼宇","address":"上海市黄浦区大沽路100号"},{"poiid":"B2094753D76FAAFA449C","title":"上海滩国泰旗舰店","lon":"121.466011","lat":"31.216125","category":"249","category_name":"购物服务","address":"淮海中路868号"},{"poiid":"B209475CD564A7F84292","title":"上海滩新天地店","lon":"121.47463","lat":"31.22164","category":"119","category_name":"商场","address":"\"太仓路181弄新天地北里15号\r\n\""},{"poiid":"B209475CD564A7F8439E","title":"上海滩中信泰富店","lon":"121.45602","lat":"31.22851","category":"119","category_name":"商场","address":"\"南京西路1168号中信泰富广场，店铺号221.\r\n\""},{"poiid":"B2094757D068A3F54292","title":"二百永新大厦","lon":"121.472368","lat":"31.226048","category":"46","category_name":"楼宇","address":"上海淮海中路887号"},{"poiid":"B2094654DB6BA4FD489F","title":"新华联大厦","lon":"121.471","lat":"31.2248","category":"46","category_name":"楼宇","address":"越秀区广州沿江中路298号"},{"poiid":"B2094757D56CA1FE429D","title":"星巴克 力宝广场店 Starbucks Cafe","lon":"121.47456367878","lat":"31.223538465013","category":"247","category_name":"餐饮美食","address":"淮海中路222号力宝广场1楼近嵩山路"},{"poiid":"B2094757D06FAAF5489B","title":"东泰祥生煎馒头馆 重庆北路店","lon":"121.47016","lat":"31.226474","category":"68","category_name":"快餐厅","address":"黄浦区重庆北路188号(近大沽路)"},{"poiid":"B2094757D068A2F5449F","title":"世纪巴士大厦","lon":"121.47163462","lat":"31.222440357","category":"46","category_name":"楼宇","address":"上海淮海中路398号"},{"poiid":"B2094751DA6DA0FA479B","title":"猫屎咖啡(新天地店)","lon":"121.4691613","lat":"31.2232952","category":"247","category_name":"餐饮美食","address":"太仓路200号"},{"poiid":"B2094655D268ABFF409F","title":"延安东路立交桥","lon":"121.469","lat":"31.22467","category":"250","category_name":"公园户外","address":""},{"poiid":"B2094752D069A4FB489A","title":"鸿星荟","lon":"121.468619","lat":"31.225721","category":"247","category_name":"餐饮美食","address":"淮海中路300号K11购物艺术中心"},{"poiid":"B2094752D16CAAF94893","title":"ABC Cooking Studio（K11店）","lon":"121.469221","lat":"31.225111","category":"247","category_name":"餐饮美食","address":null},{"poiid":"B2094757DB6CA5F84593","title":"Element Fresh","lon":"121.470734","lat":"31.223412","category":"247","category_name":"餐饮美食","address":"Xin tian Di"},{"poiid":"B2094751D564ABF44592","title":"圣诞集市","lon":"121.470834","lat":"31.225767","category":"248","category_name":"生活娱乐","address":"卢湾区新天地太平湖广场"},{"poiid":"B209475CD76EA0F54692","title":"环贸iapm","lon":"121.469993","lat":"31.223688","category":"500","category_name":"未知分类","address":"上海市 卢湾区淮海中路999号"},{"poiid":"B2094757DB6FA4FA439A","title":"揽香","lon":"121.469027","lat":"31.224747","category":"247","category_name":"餐饮美食","address":"卢湾区中环广场"},{"poiid":"B2094757D068A4F9409E","title":"上海市黄浦区人民法院","lon":"121.47189331","lat":"31.225976944","category":"608","category_name":"法院","address":"上海市延安东路1234号"},{"poiid":"B2094757D069A2FD429E","title":"电信世界","lon":"121.47264099","lat":"31.226232528","category":"151","category_name":"电讯营业厅","address":"上海黄浦区延安东路1200号"},{"poiid":"B2094752D06EA5F44092","title":"Pizza Marzano（披萨马上诺）","lon":"121.46927","lat":"31.225073","category":"247","category_name":"餐饮美食","address":null},{"poiid":"B2094757D068A6F5479A","title":"Nolita","lon":"121.46507","lat":"31.22554","category":"94","category_name":"西餐厅","address":"静安区大沽路422号"},{"poiid":"B2094655D36CA6F54598","title":"淡水路","lon":"121.47198","lat":"31.22328","category":"38","category_name":"公交车站","address":""},{"poiid":"B2094752D16DAAFE4898","title":"合点寿司","lon":"121.469321","lat":"31.225022","category":"247","category_name":"餐饮美食","address":"淮海中路300号K11购物艺术中心302号铺(近黄陂南路)"},{"poiid":"B2094752D06FA3FC4999","title":"淮海中路300号K11购物艺术中心301-307号铺(近黄陂南路地铁站)","lon":"121.470142","lat":"31.226922","category":"247","category_name":"餐饮美食","address":"淮海中路300号K11购物艺术中心301-307号铺(近黄陂南路地铁站)"},{"poiid":"B2094757D068A4F9429C","title":"徐其修凉茶","lon":"121.47148973","lat":"31.222897143","category":"113","category_name":"冷饮店","address":"卢湾区兴安路98弄10号(近雁荡路)"},{"poiid":"B2094752D46AA2F8479C","title":"中国农业银行卢湾瑞金二路支行","lon":"121.471698","lat":"31.225296","category":"150","category_name":"银行","address":"上海市卢湾区淮海中路701-721号"},{"poiid":"B2094655D26EABFB4099","title":"上海电信世界大厦","lon":"121.47264","lat":"31.22622","category":"46","category_name":"楼宇","address":"延安东路1200"},{"poiid":"B2094654DA68A3FB4199","title":"黄浦政法大楼","lon":"121.47194","lat":"31.22642","category":"68","category_name":"快餐厅","address":"黄浦区大沽路123号2楼(近重庆北路)"},{"poiid":"B2094757D069AAF4419C","title":"8号线大世界站","lon":"121.47294373","lat":"31.224576179","category":"500","category_name":"未知分类","address":"上海市黄浦区成都北路"},{"poiid":"B2094752D66AA5F54793","title":"Small Spice","lon":"121.470896","lat":"31.223251","category":"247","category_name":"餐饮美食","address":"淡水路250号"},{"poiid":"B2094655D36DA0F8409D","title":"延安东路重庆北路","lon":"121.471","lat":"31.22491","category":"38","category_name":"公交车站","address":""},{"poiid":"B2094654DB65A1F54893","title":"金鹿大楼东楼(巨鹿路)","lon":"121.46926","lat":"31.2236","category":"46","category_name":"楼宇","address":"巨鹿路1号"},{"poiid":"B2094757DB68A4FC419D","title":"金裕苑","lon":"121.4715975523","lat":"31.223963185598","category":"47","category_name":"住宅区","address":"卢湾区淡水路66弄2-6号(近金陵西路)"},{"poiid":"B2094654DA6EABFC459B","title":"延中公园","lon":"121.47138","lat":"31.22321","category":"196","category_name":"公园","address":"延安路黄陂路口"},{"poiid":"B2094654DB6BABFE4699","title":"重庆鸡公煲 重庆北路","lon":"121.470468054","lat":"31.226113793","category":"247","category_name":"餐饮美食","address":"黄浦区重庆北路188号(近大沽路)"},{"poiid":"B2094757D568A5FF469F","title":"如家快捷酒店(上海人民广场店)","lon":"121.4699547","lat":"31.22698215","category":"216","category_name":"经济型连锁酒店","address":"上海市黄浦区重庆北路208号(近威海路)"},{"poiid":"B2094750D16BA4F84399","title":"米多寿司","lon":"121.470146","lat":"31.226119","category":"95","category_name":"日本料理","address":"黄浦区重庆北路151号(近大沽路)"},{"poiid":"B2094757D165A6FE459D","title":"广场公园","lon":"121.47233373","lat":"31.224058168","category":"196","category_name":"公园","address":"黄浦区延安东路至延安中路(西藏南路至茂名南路)"},{"poiid":"B2094757D464A0F9499F","title":"百乐餐厅","lon":"121.47151639465","lat":"31.226478273305","category":"77","category_name":"湖南菜","address":"黄浦区大沽路199号(重庆北路口)"},{"poiid":"B2094757D069A0F4439B","title":"780浦西终点站","lon":"121.47106933","lat":"31.224872589","category":"38","category_name":"公交车站","address":"上海重庆北路延安东路"},{"poiid":"B2094757D66DA4F8499B","title":"黄浦政法大楼机关餐厅","lon":"121.47265","lat":"31.2256","category":"68","category_name":"快餐厅","address":"黄浦区延安东路1234号政法大楼2楼(黄陂北路延安东路)"},{"poiid":"B2094654DA68A3FB409D","title":"宏泰公寓","lon":"121.47105","lat":"31.226851","category":"47","category_name":"住宅区","address":"宏泰公寓位于黄浦大沽路186弄"},{"poiid":"B209475CD16FA2F5419D","title":"查厘士","lon":"121.471008","lat":"31.222307","category":"247","category_name":"餐饮美食","address":"上海市 上海市淮海中路438号4楼"},{"poiid":"B2094757D16AA0F84092","title":"成都北路延安东路公交站","lon":"121.468385938","lat":"31.2245998801","category":"38","category_name":"公交车站","address":"上海成都北路延安东路"},{"poiid":"B2094757D064ABFE419A","title":"卢湾区瑞金二路派出所","lon":"121.46855807","lat":"31.224189838","category":"609","category_name":"警察局","address":"上海卢湾区巨鹿路9号"},{"poiid":"B2094757D168A4F9409D","title":"老成都北路大沽路","lon":"121.468626338","lat":"31.224545779","category":"500","category_name":"未知分类","address":"上海老成都北路大沽路"},{"poiid":"B2094753D76EA3FD4699","title":"K歌之王","lon":"121.472053","lat":"31.223363","category":"247","category_name":"餐饮美食","address":"上海市 金陵东路569号5楼"},{"poiid":"B2094757D66CA2FE4792","title":"112路人民广场终点站","lon":"121.472603938","lat":"31.2255514004","category":"500","category_name":"未知分类","address":"上海市黄浦区武胜路近延安东路"}]