[{"poiid":"B2094757D068A1F44793","title":"松江平高世贸中心","lon":"121.23529618071325","lat":"31.00663743923123","category":"119","category_name":"商场","address":"松江中山中路71号"},{"poiid":"B2094757D06FA7FF409B","title":"上海歌城(松江店)","lon":"121.23375701","lat":"31.006780779","category":"170","category_name":"KTV","address":"松江区中山中路188号(中山东路袜子弄)"},{"poiid":"B2094757D06AA7FF489B","title":"上海松江假日酒店","lon":"121.235974117","lat":"31.0058816693","category":"217","category_name":"旅馆招待所","address":"松江区中山中路83号平高世贸中心(近谷阳路)"},{"poiid":"B2094654DB64A6FE4999","title":"避风塘松江店","lon":"121.23462","lat":"31.00723","category":"66","category_name":"茶艺馆","address":"松江区中山中路150号2、3楼"},{"poiid":"B2094757D068A6FD459C","title":"PANKOO釜山料理(松江平高店)","lon":"121.23541902","lat":"31.006209294","category":"96","category_name":"韩国料理","address":"上海市松江区中山中路71号5楼平高世贸中心5楼"},{"poiid":"B2094655D26EAAF54392","title":"麦当劳(松江·中山中路)","lon":"121.23389","lat":"31.00696","category":"68","category_name":"快餐厅","address":"松江区中山中路168-188号"},{"poiid":"B2094757D06BA5FB4499","title":"小南国(松江店)","lon":"121.236183219","lat":"31.0092310628","category":"500","category_name":"未知分类","address":"上海市松江区松江长桥街平高"},{"poiid":"B2094654DB6EA3F54292","title":"樟馨家园","lon":"121.23857","lat":"31.011311","category":"47","category_name":"住宅区","address":"上海市松江区松乐路88弄"},{"poiid":"B2094751DA69A7F4459D","title":"星巴克","lon":"121.235518","lat":"31.005691","category":"247","category_name":"餐饮美食","address":"上海松江松汇中路568号乐颂坊1楼"},{"poiid":"B2094655D268A5F94598","title":"乐都大厦","lon":"121.2334","lat":"31.01309","category":"46","category_name":"楼宇","address":"乐都路251号"},{"poiid":"B2094757D069AAFA4098","title":"健康煮 中山中路店","lon":"121.2317063","lat":"31.0066983","category":"86","category_name":"火锅店","address":"松江区中山中路73号平高国际世贸中心4楼"},{"poiid":"B2094750DA6EA2FC449F","title":"炫音KTV上海平高店","lon":"121.235061","lat":"31.008541","category":"500","category_name":"未知分类","address":"松江区中山中路71号平高世贸中心4楼A号座(近沃尔玛购物广场)"},{"poiid":"B2094757D66CA3F94492","title":"松临日本料理松江店","lon":"121.235353467","lat":"31.005958971","category":"95","category_name":"日本料理","address":"松江区中山中路71号平高世贸中心7楼(中山中路谷阳北路)"},{"poiid":"B2094757D06AA0FE489F","title":"田季干锅","lon":"121.23554602","lat":"31.0062322936","category":"71","category_name":"四川菜","address":"松江区中山中路83号平高世贸中心B1楼"},{"poiid":"B2094757D66FA6FE439B","title":"DQ&lt;松江平高店&gt;","lon":"121.235201467","lat":"31.0084459256","category":"113","category_name":"冷饮店","address":"上海松江平高贸易中心"},{"poiid":"B2094757D069A4FD4092","title":"凤凰小区","lon":"121.23508","lat":"31.012119","category":"47","category_name":"住宅区","address":"上海松江区谷阳北路"},{"poiid":"B2094757D464A0F9499C","title":"鲁山人","lon":"121.23868008277","lat":"31.007122656877","category":"95","category_name":"日本料理","address":"松江区普照路71号(中山东路中山中路)"},{"poiid":"B2094655D264A2F54698","title":"月夏香樟林","lon":"121.23857","lat":"31.01131","category":"47","category_name":"住宅区","address":"上海市松江区松乐路88弄"},{"poiid":"B2094654DB69A6FC4899","title":"月夏新天地","lon":"121.23793","lat":"31.01029","category":"47","category_name":"住宅区","address":"松江区松乐路128号"},{"poiid":"B2094757D068ABF4489A","title":"松江商城","lon":"121.233948467","lat":"31.0068829913","category":"119","category_name":"商场","address":"松江区中山中路168-188号(近庙前街)"},{"poiid":"B2094750D56DA3FB4793","title":"小杨生煎松江店","lon":"121.234092","lat":"31.008314","category":"247","category_name":"餐饮美食","address":null},{"poiid":"B2094655D268A2F4439E","title":"菜花泾绿地","lon":"121.23661","lat":"31.01033","category":"196","category_name":"公园","address":""},{"poiid":"B2094752D36CA6FC499E","title":"猫屎咖啡","lon":"121.235596","lat":"31.00531","category":"247","category_name":"餐饮美食","address":"鹿都生活广场"},{"poiid":"B2094655D268A6F9469A","title":"烤友社","lon":"121.236150054","lat":"31.007009793","category":"96","category_name":"韩国料理","address":"松江区谷阳南路52号(近中山中路)"},{"poiid":"B2094757D66BA5FE4492","title":"元祖 中山中路店 Ganso","lon":"121.236446054","lat":"31.008000793","category":"67","category_name":"甜品店","address":"松江区中山中路99号肯德基附近"},{"poiid":"B2094757D165A6F8449E","title":"呀咪咖喱屋","lon":"121.235324467","lat":"31.0059899717","category":"247","category_name":"餐饮美食","address":"松汇中路568号A座A131-132"},{"poiid":"B2094750D56EA4FF429F","title":"精悦蓉香锅牛蛙","lon":"121.235794","lat":"31.006372","category":"247","category_name":"餐饮美食","address":null},{"poiid":"B2094750DA6CA3FD4299","title":"black &magic","lon":"121.235366","lat":"31.005924","category":"247","category_name":"餐饮美食","address":"乐颂坊"},{"poiid":"B2094753D36EA1F44592","title":"首尔焖鲜汇(乐颂坊店)","lon":"121.239766","lat":"31.006933","category":"86","category_name":"火锅店","address":"松汇中路568号乐颂坊B座303单元(近普照路)"},{"poiid":"B2094757D165AAFF4693","title":"乐都路","lon":"121.23887486","lat":"31.013645639","category":"500","category_name":"未知分类","address":"上海乐都路"},{"poiid":"B2094654DB6EA3F54593","title":"上海市松江区机关幼儿园","lon":"121.23872","lat":"31.00952","category":"57","category_name":"幼儿园","address":"景德路40"},{"poiid":"B2094654DB6EA3F54293","title":"良友金伴(樟馨家园东)","lon":"121.23915","lat":"31.01027","category":"117","category_name":"便民商店/便利店","address":"松乐路60"},{"poiid":"B2094655D36DA7F84599","title":"中山二路谷阳北路","lon":"121.23492","lat":"31.01008","category":"38","category_name":"公交车站","address":""},{"poiid":"B2094757DB64A4FB4099","title":"呷哺呷哺（平高世贸中心店）","lon":"121.235","lat":"31.0066","category":"68","category_name":"快餐厅","address":"松江区中山中路73号B1楼BF-04号"},{"poiid":"B2094655D36CA7F54999","title":"谷阳北路中山二路","lon":"121.23629","lat":"31.00971","category":"38","category_name":"公交车站","address":""},{"poiid":"B2094654DB6DAAFF479E","title":"康惠饮食店","lon":"121.23609","lat":"31.00981","category":"68","category_name":"快餐厅","address":"松江区谷阳北路155号(近中山二路)"},{"poiid":"B2094757D168A7FE499E","title":"味千拉面(平高世贸店)","lon":"121.23533046","lat":"31.006783989","category":"247","category_name":"餐饮美食","address":"松江区上海平高世贸中心B1"},{"poiid":"B2094655D26FABF5499F","title":"小忠羊肉庄","lon":"121.23796","lat":"31.01413","category":"86","category_name":"火锅店","address":"松江区乐都路102弄13号"},{"poiid":"B2094654DB6DABF44998","title":"好德NO.447","lon":"121.23596","lat":"31.00989","category":"117","category_name":"便民商店/便利店","address":"谷阳北路169号"},{"poiid":"B2094757DB64A4FA479D","title":"炫麦KTV（平高世贸中心店）","lon":"121.235","lat":"31.0066","category":"170","category_name":"KTV","address":"上海松江区中山中路71号 平高世贸中心四层"},{"poiid":"B2094654DB6EA3F54093","title":"福建沙县特色小吃(谷阳北路)","lon":"121.23649","lat":"31.01133","category":"68","category_name":"快餐厅","address":""},{"poiid":"B2094654DB6EA3F54099","title":"谷北小区","lon":"121.23733","lat":"31.012812","category":"47","category_name":"住宅区","address":"谷阳北路98号"},{"poiid":"B2094752D269AAF8429A","title":"渔寿司","lon":"121.235446","lat":"31.005822","category":"247","category_name":"餐饮美食","address":"上海市松江区中山中路150号2楼"},{"poiid":"B2094654DB6EA3F5419F","title":"岳阳派出所","lon":"121.23651","lat":"31.01086","category":"609","category_name":"警察局","address":"谷阳北路42号"},{"poiid":"B2094757D16CA7FA4092","title":"萨利亚","lon":"121.234223017","lat":"31.0071469971","category":"249","category_name":"购物服务","address":"上海松江区松汇路鹿都商业广场"},{"poiid":"B2094654DB6EA2FC429F","title":"松荣 松江店","lon":"121.23871060014","lat":"31.006320293222","category":"95","category_name":"日本料理","address":"松江区普照路81号(中山东路中山中路)"},{"poiid":"B2094654DB6DAAFC4993","title":"克莉丝汀 中山中路店","lon":"121.23703","lat":"31.00706","category":"112","category_name":"糕饼店","address":"松江区中山中路88号(谷阳北路谷阳南路)"},{"poiid":"B2094751D46BA6F8459A","title":"乐颂坊商业广场","lon":"121.235503","lat":"31.005955","category":"119","category_name":"商场","address":"松江区松汇中路568号"},{"poiid":"B2094655D268A7FA4499","title":"黑鱼弄小区(东大门)","lon":"121.23586","lat":"31.00946","category":"47","category_name":"住宅区","address":""},{"poiid":"B2094757D168A3FC4299","title":"松临日本料理·铁板烧","lon":"121.239858467","lat":"31.0066479861","category":"247","category_name":"餐饮美食","address":"上海松江中山中路77号平高世贸中心7F"},{"poiid":"B2094757D068A1F44793","title":"松江平高世贸中心","lon":"121.23529618071325","lat":"31.00663743923123","category":"119","category_name":"商场","address":"松江中山中路71号"},{"poiid":"B2094757D06FA7FF409B","title":"上海歌城(松江店)","lon":"121.23375701","lat":"31.006780779","category":"170","category_name":"KTV","address":"松江区中山中路188号(中山东路袜子弄)"},{"poiid":"B2094757D06AA7FF489B","title":"上海松江假日酒店","lon":"121.235974117","lat":"31.0058816693","category":"217","category_name":"旅馆招待所","address":"松江区中山中路83号平高世贸中心(近谷阳路)"},{"poiid":"B2094654DB64A6FE4999","title":"避风塘松江店","lon":"121.23462","lat":"31.00723","category":"66","category_name":"茶艺馆","address":"松江区中山中路150号2、3楼"},{"poiid":"B2094757D068A6FD459C","title":"PANKOO釜山料理(松江平高店)","lon":"121.23541902","lat":"31.006209294","category":"96","category_name":"韩国料理","address":"上海市松江区中山中路71号5楼平高世贸中心5楼"},{"poiid":"B2094655D26EAAF54392","title":"麦当劳(松江·中山中路)","lon":"121.23389","lat":"31.00696","category":"68","category_name":"快餐厅","address":"松江区中山中路168-188号"},{"poiid":"B2094757D06BA5FB4499","title":"小南国(松江店)","lon":"121.236183219","lat":"31.0092310628","category":"500","category_name":"未知分类","address":"上海市松江区松江长桥街平高"},{"poiid":"B2094654DB6EA3F54292","title":"樟馨家园","lon":"121.23857","lat":"31.011311","category":"47","category_name":"住宅区","address":"上海市松江区松乐路88弄"},{"poiid":"B2094751DA69A7F4459D","title":"星巴克","lon":"121.235518","lat":"31.005691","category":"247","category_name":"餐饮美食","address":"上海松江松汇中路568号乐颂坊1楼"},{"poiid":"B2094655D268A5F94598","title":"乐都大厦","lon":"121.2334","lat":"31.01309","category":"46","category_name":"楼宇","address":"乐都路251号"},{"poiid":"B2094757D069AAFA4098","title":"健康煮 中山中路店","lon":"121.2317063","lat":"31.0066983","category":"86","category_name":"火锅店","address":"松江区中山中路73号平高国际世贸中心4楼"},{"poiid":"B2094750DA6EA2FC449F","title":"炫音KTV上海平高店","lon":"121.235061","lat":"31.008541","category":"500","category_name":"未知分类","address":"松江区中山中路71号平高世贸中心4楼A号座(近沃尔玛购物广场)"},{"poiid":"B2094757D66CA3F94492","title":"松临日本料理松江店","lon":"121.235353467","lat":"31.005958971","category":"95","category_name":"日本料理","address":"松江区中山中路71号平高世贸中心7楼(中山中路谷阳北路)"},{"poiid":"B2094757D06AA0FE489F","title":"田季干锅","lon":"121.23554602","lat":"31.0062322936","category":"71","category_name":"四川菜","address":"松江区中山中路83号平高世贸中心B1楼"},{"poiid":"B2094757D66FA6FE439B","title":"DQ&lt;松江平高店&gt;","lon":"121.235201467","lat":"31.0084459256","category":"113","category_name":"冷饮店","address":"上海松江平高贸易中心"},{"poiid":"B2094757D069A4FD4092","title":"凤凰小区","lon":"121.23508","lat":"31.012119","category":"47","category_name":"住宅区","address":"上海松江区谷阳北路"},{"poiid":"B2094757D464A0F9499C","title":"鲁山人","lon":"121.23868008277","lat":"31.007122656877","category":"95","category_name":"日本料理","address":"松江区普照路71号(中山东路中山中路)"},{"poiid":"B2094655D264A2F54698","title":"月夏香樟林","lon":"121.23857","lat":"31.01131","category":"47","category_name":"住宅区","address":"上海市松江区松乐路88弄"},{"poiid":"B2094654DB69A6FC4899","title":"月夏新天地","lon":"121.23793","lat":"31.01029","category":"47","category_name":"住宅区","address":"松江区松乐路128号"},{"poiid":"B2094757D068ABF4489A","title":"松江商城","lon":"121.233948467","lat":"31.0068829913","category":"119","category_name":"商场","address":"松江区中山中路168-188号(近庙前街)"},{"poiid":"B2094750D56DA3FB4793","title":"小杨生煎松江店","lon":"121.234092","lat":"31.008314","category":"247","category_name":"餐饮美食","address":null},{"poiid":"B2094655D268A2F4439E","title":"菜花泾绿地","lon":"121.23661","lat":"31.01033","category":"196","category_name":"公园","address":""},{"poiid":"B2094752D36CA6FC499E","title":"猫屎咖啡","lon":"121.235596","lat":"31.00531","category":"247","category_name":"餐饮美食","address":"鹿都生活广场"},{"poiid":"B2094655D268A6F9469A","title":"烤友社","lon":"121.236150054","lat":"31.007009793","category":"96","category_name":"韩国料理","address":"松江区谷阳南路52号(近中山中路)"},{"poiid":"B2094757D66BA5FE4492","title":"元祖 中山中路店 Ganso","lon":"121.236446054","lat":"31.008000793","category":"67","category_name":"甜品店","address":"松江区中山中路99号肯德基附近"},{"poiid":"B2094757D165A6F8449E","title":"呀咪咖喱屋","lon":"121.235324467","lat":"31.0059899717","category":"247","category_name":"餐饮美食","address":"松汇中路568号A座A131-132"},{"poiid":"B2094750D56EA4FF429F","title":"精悦蓉香锅牛蛙","lon":"121.235794","lat":"31.006372","category":"247","category_name":"餐饮美食","address":null},{"poiid":"B2094750DA6CA3FD4299","title":"black &magic","lon":"121.235366","lat":"31.005924","category":"247","category_name":"餐饮美食","address":"乐颂坊"},{"poiid":"B2094753D36EA1F44592","title":"首尔焖鲜汇(乐颂坊店)","lon":"121.239766","lat":"31.006933","category":"86","category_name":"火锅店","address":"松汇中路568号乐颂坊B座303单元(近普照路)"},{"poiid":"B2094757D165AAFF4693","title":"乐都路","lon":"121.23887486","lat":"31.013645639","category":"500","category_name":"未知分类","address":"上海乐都路"},{"poiid":"B2094654DB6EA3F54593","title":"上海市松江区机关幼儿园","lon":"121.23872","lat":"31.00952","category":"57","category_name":"幼儿园","address":"景德路40"},{"poiid":"B2094654DB6EA3F54293","title":"良友金伴(樟馨家园东)","lon":"121.23915","lat":"31.01027","category":"117","category_name":"便民商店/便利店","address":"松乐路60"},{"poiid":"B2094655D36DA7F84599","title":"中山二路谷阳北路","lon":"121.23492","lat":"31.01008","category":"38","category_name":"公交车站","address":""},{"poiid":"B2094757DB64A4FB4099","title":"呷哺呷哺（平高世贸中心店）","lon":"121.235","lat":"31.0066","category":"68","category_name":"快餐厅","address":"松江区中山中路73号B1楼BF-04号"},{"poiid":"B2094655D36CA7F54999","title":"谷阳北路中山二路","lon":"121.23629","lat":"31.00971","category":"38","category_name":"公交车站","address":""},{"poiid":"B2094654DB6DAAFF479E","title":"康惠饮食店","lon":"121.23609","lat":"31.00981","category":"68","category_name":"快餐厅","address":"松江区谷阳北路155号(近中山二路)"},{"poiid":"B2094757D168A7FE499E","title":"味千拉面(平高世贸店)","lon":"121.23533046","lat":"31.006783989","category":"247","category_name":"餐饮美食","address":"松江区上海平高世贸中心B1"},{"poiid":"B2094655D26FABF5499F","title":"小忠羊肉庄","lon":"121.23796","lat":"31.01413","category":"86","category_name":"火锅店","address":"松江区乐都路102弄13号"},{"poiid":"B2094654DB6DABF44998","title":"好德NO.447","lon":"121.23596","lat":"31.00989","category":"117","category_name":"便民商店/便利店","address":"谷阳北路169号"},{"poiid":"B2094757DB64A4FA479D","title":"炫麦KTV（平高世贸中心店）","lon":"121.235","lat":"31.0066","category":"170","category_name":"KTV","address":"上海松江区中山中路71号 平高世贸中心四层"},{"poiid":"B2094654DB6EA3F54093","title":"福建沙县特色小吃(谷阳北路)","lon":"121.23649","lat":"31.01133","category":"68","category_name":"快餐厅","address":""},{"poiid":"B2094654DB6EA3F54099","title":"谷北小区","lon":"121.23733","lat":"31.012812","category":"47","category_name":"住宅区","address":"谷阳北路98号"},{"poiid":"B2094752D269AAF8429A","title":"渔寿司","lon":"121.235446","lat":"31.005822","category":"247","category_name":"餐饮美食","address":"上海市松江区中山中路150号2楼"},{"poiid":"B2094654DB6EA3F5419F","title":"岳阳派出所","lon":"121.23651","lat":"31.01086","category":"609","category_name":"警察局","address":"谷阳北路42号"},{"poiid":"B2094757D16CA7FA4092","title":"萨利亚","lon":"121.234223017","lat":"31.0071469971","category":"249","category_name":"购物服务","address":"上海松江区松汇路鹿都商业广场"},{"poiid":"B2094654DB6EA2FC429F","title":"松荣 松江店","lon":"121.23871060014","lat":"31.006320293222","category":"95","category_name":"日本料理","address":"松江区普照路81号(中山东路中山中路)"},{"poiid":"B2094654DB6DAAFC4993","title":"克莉丝汀 中山中路店","lon":"121.23703","lat":"31.00706","category":"112","category_name":"糕饼店","address":"松江区中山中路88号(谷阳北路谷阳南路)"},{"poiid":"B2094751D46BA6F8459A","title":"乐颂坊商业广场","lon":"121.235503","lat":"31.005955","category":"119","category_name":"商场","address":"松江区松汇中路568号"},{"poiid":"B2094655D268A7FA4499","title":"黑鱼弄小区(东大门)","lon":"121.23586","lat":"31.00946","category":"47","category_name":"住宅区","address":""},{"poiid":"B2094757D168A3FC4299","title":"松临日本料理·铁板烧","lon":"121.239858467","lat":"31.0066479861","category":"247","category_name":"餐饮美食","address":"上海松江中山中路77号平高世贸中心7F"},{"poiid":"B2094757D068A1F44793","title":"松江平高世贸中心","lon":"121.23529618071325","lat":"31.00663743923123","category":"119","category_name":"商场","address":"松江中山中路71号"},{"poiid":"B2094757D06FA7FF409B","title":"上海歌城(松江店)","lon":"121.23375701","lat":"31.006780779","category":"170","category_name":"KTV","address":"松江区中山中路188号(中山东路袜子弄)"},{"poiid":"B2094757D06AA7FF489B","title":"上海松江假日酒店","lon":"121.235974117","lat":"31.0058816693","category":"217","category_name":"旅馆招待所","address":"松江区中山中路83号平高世贸中心(近谷阳路)"},{"poiid":"B2094654DB64A6FE4999","title":"避风塘松江店","lon":"121.23462","lat":"31.00723","category":"66","category_name":"茶艺馆","address":"松江区中山中路150号2、3楼"},{"poiid":"B2094757D068A6FD459C","title":"PANKOO釜山料理(松江平高店)","lon":"121.23541902","lat":"31.006209294","category":"96","category_name":"韩国料理","address":"上海市松江区中山中路71号5楼平高世贸中心5楼"},{"poiid":"B2094655D26EAAF54392","title":"麦当劳(松江·中山中路)","lon":"121.23389","lat":"31.00696","category":"68","category_name":"快餐厅","address":"松江区中山中路168-188号"},{"poiid":"B2094757D06BA5FB4499","title":"小南国(松江店)","lon":"121.236183219","lat":"31.0092310628","category":"500","category_name":"未知分类","address":"上海市松江区松江长桥街平高"},{"poiid":"B2094654DB6EA3F54292","title":"樟馨家园","lon":"121.23857","lat":"31.011311","category":"47","category_name":"住宅区","address":"上海市松江区松乐路88弄"},{"poiid":"B2094751DA69A7F4459D","title":"星巴克","lon":"121.235518","lat":"31.005691","category":"247","category_name":"餐饮美食","address":"上海松江松汇中路568号乐颂坊1楼"},{"poiid":"B2094655D268A5F94598","title":"乐都大厦","lon":"121.2334","lat":"31.01309","category":"46","category_name":"楼宇","address":"乐都路251号"},{"poiid":"B2094757D069AAFA4098","title":"健康煮 中山中路店","lon":"121.2317063","lat":"31.0066983","category":"86","category_name":"火锅店","address":"松江区中山中路73号平高国际世贸中心4楼"},{"poiid":"B2094750DA6EA2FC449F","title":"炫音KTV上海平高店","lon":"121.235061","lat":"31.008541","category":"500","category_name":"未知分类","address":"松江区中山中路71号平高世贸中心4楼A号座(近沃尔玛购物广场)"},{"poiid":"B2094757D66CA3F94492","title":"松临日本料理松江店","lon":"121.235353467","lat":"31.005958971","category":"95","category_name":"日本料理","address":"松江区中山中路71号平高世贸中心7楼(中山中路谷阳北路)"},{"poiid":"B2094757D06AA0FE489F","title":"田季干锅","lon":"121.23554602","lat":"31.0062322936","category":"71","category_name":"四川菜","address":"松江区中山中路83号平高世贸中心B1楼"},{"poiid":"B2094757D66FA6FE439B","title":"DQ&lt;松江平高店&gt;","lon":"121.235201467","lat":"31.0084459256","category":"113","category_name":"冷饮店","address":"上海松江平高贸易中心"},{"poiid":"B2094757D069A4FD4092","title":"凤凰小区","lon":"121.23508","lat":"31.012119","category":"47","category_name":"住宅区","address":"上海松江区谷阳北路"},{"poiid":"B2094757D464A0F9499C","title":"鲁山人","lon":"121.23868008277","lat":"31.007122656877","category":"95","category_name":"日本料理","address":"松江区普照路71号(中山东路中山中路)"},{"poiid":"B2094655D264A2F54698","title":"月夏香樟林","lon":"121.23857","lat":"31.01131","category":"47","category_name":"住宅区","address":"上海市松江区松乐路88弄"},{"poiid":"B2094654DB69A6FC4899","title":"月夏新天地","lon":"121.23793","lat":"31.01029","category":"47","category_name":"住宅区","address":"松江区松乐路128号"},{"poiid":"B2094757D068ABF4489A","title":"松江商城","lon":"121.233948467","lat":"31.0068829913","category":"119","category_name":"商场","address":"松江区中山中路168-188号(近庙前街)"},{"poiid":"B2094750D56DA3FB4793","title":"小杨生煎松江店","lon":"121.234092","lat":"31.008314","category":"247","category_name":"餐饮美食","address":null},{"poiid":"B2094655D268A2F4439E","title":"菜花泾绿地","lon":"121.23661","lat":"31.01033","category":"196","category_name":"公园","address":""},{"poiid":"B2094752D36CA6FC499E","title":"猫屎咖啡","lon":"121.235596","lat":"31.00531","category":"247","category_name":"餐饮美食","address":"鹿都生活广场"},{"poiid":"B2094655D268A6F9469A","title":"烤友社","lon":"121.236150054","lat":"31.007009793","category":"96","category_name":"韩国料理","address":"松江区谷阳南路52号(近中山中路)"},{"poiid":"B2094757D66BA5FE4492","title":"元祖 中山中路店 Ganso","lon":"121.236446054","lat":"31.008000793","category":"67","category_name":"甜品店","address":"松江区中山中路99号肯德基附近"},{"poiid":"B2094757D165A6F8449E","title":"呀咪咖喱屋","lon":"121.235324467","lat":"31.0059899717","category":"247","category_name":"餐饮美食","address":"松汇中路568号A座A131-132"},{"poiid":"B2094750D56EA4FF429F","title":"精悦蓉香锅牛蛙","lon":"121.235794","lat":"31.006372","category":"247","category_name":"餐饮美食","address":null},{"poiid":"B2094750DA6CA3FD4299","title":"black &magic","lon":"121.235366","lat":"31.005924","category":"247","category_name":"餐饮美食","address":"乐颂坊"},{"poiid":"B2094753D36EA1F44592","title":"首尔焖鲜汇(乐颂坊店)","lon":"121.239766","lat":"31.006933","category":"86","category_name":"火锅店","address":"松汇中路568号乐颂坊B座303单元(近普照路)"},{"poiid":"B2094757D165AAFF4693","title":"乐都路","lon":"121.23887486","lat":"31.013645639","category":"500","category_name":"未知分类","address":"上海乐都路"},{"poiid":"B2094654DB6EA3F54593","title":"上海市松江区机关幼儿园","lon":"121.23872","lat":"31.00952","category":"57","category_name":"幼儿园","address":"景德路40"},{"poiid":"B2094654DB6EA3F54293","title":"良友金伴(樟馨家园东)","lon":"121.23915","lat":"31.01027","category":"117","category_name":"便民商店/便利店","address":"松乐路60"},{"poiid":"B2094655D36DA7F84599","title":"中山二路谷阳北路","lon":"121.23492","lat":"31.01008","category":"38","category_name":"公交车站","address":""},{"poiid":"B2094757DB64A4FB4099","title":"呷哺呷哺（平高世贸中心店）","lon":"121.235","lat":"31.0066","category":"68","category_name":"快餐厅","address":"松江区中山中路73号B1楼BF-04号"},{"poiid":"B2094655D36CA7F54999","title":"谷阳北路中山二路","lon":"121.23629","lat":"31.00971","category":"38","category_name":"公交车站","address":""},{"poiid":"B2094654DB6DAAFF479E","title":"康惠饮食店","lon":"121.23609","lat":"31.00981","category":"68","category_name":"快餐厅","address":"松江区谷阳北路155号(近中山二路)"},{"poiid":"B2094757D168A7FE499E","title":"味千拉面(平高世贸店)","lon":"121.23533046","lat":"31.006783989","category":"247","category_name":"餐饮美食","address":"松江区上海平高世贸中心B1"},{"poiid":"B2094655D26FABF5499F","title":"小忠羊肉庄","lon":"121.23796","lat":"31.01413","category":"86","category_name":"火锅店","address":"松江区乐都路102弄13号"},{"poiid":"B2094654DB6DABF44998","title":"好德NO.447","lon":"121.23596","lat":"31.00989","category":"117","category_name":"便民商店/便利店","address":"谷阳北路169号"},{"poiid":"B2094757DB64A4FA479D","title":"炫麦KTV（平高世贸中心店）","lon":"121.235","lat":"31.0066","category":"170","category_name":"KTV","address":"上海松江区中山中路71号 平高世贸中心四层"},{"poiid":"B2094654DB6EA3F54093","title":"福建沙县特色小吃(谷阳北路)","lon":"121.23649","lat":"31.01133","category":"68","category_name":"快餐厅","address":""},{"poiid":"B2094654DB6EA3F54099","title":"谷北小区","lon":"121.23733","lat":"31.012812","category":"47","category_name":"住宅区","address":"谷阳北路98号"},{"poiid":"B2094752D269AAF8429A","title":"渔寿司","lon":"121.235446","lat":"31.005822","category":"247","category_name":"餐饮美食","address":"上海市松江区中山中路150号2楼"},{"poiid":"B2094654DB6EA3F5419F","title":"岳阳派出所","lon":"121.23651","lat":"31.01086","category":"609","category_name":"警察局","address":"谷阳北路42号"},{"poiid":"B2094757D16CA7FA4092","title":"萨利亚","lon":"121.234223017","lat":"31.0071469971","category":"249","category_name":"购物服务","address":"上海松江区松汇路鹿都商业广场"},{"poiid":"B2094654DB6EA2FC429F","title":"松荣 松江店","lon":"121.23871060014","lat":"31.006320293222","category":"95","category_name":"日本料理","address":"松江区普照路81号(中山东路中山中路)"},{"poiid":"B2094654DB6DAAFC4993","title":"克莉丝汀 中山中路店","lon":"121.23703","lat":"31.00706","category":"112","category_name":"糕饼店","address":"松江区中山中路88号(谷阳北路谷阳南路)"},{"poiid":"B2094751D46BA6F8459A","title":"乐颂坊商业广场","lon":"121.235503","lat":"31.005955","category":"119","category_name":"商场","address":"松江区松汇中路568号"},{"poiid":"B2094655D268A7FA4499","title":"黑鱼弄小区(东大门)","lon":"121.23586","lat":"31.00946","category":"47","category_name":"住宅区","address":""},{"poiid":"B2094757D168A3FC4299","title":"松临日本料理·铁板烧","lon":"121.239858467","lat":"31.0066479861","category":"247","category_name":"餐饮美食","address":"上海松江中山中路77号平高世贸中心7F"},{"poiid":"B2094757D068A1F44793","title":"松江平高世贸中心","lon":"121.23529618071325","lat":"31.00663743923123","category":"119","category_name":"商场","address":"松江中山中路71号"},{"poiid":"B2094757D06FA7FF409B","title":"上海歌城(松江店)","lon":"121.23375701","lat":"31.006780779","category":"170","category_name":"KTV","address":"松江区中山中路188号(中山东路袜子弄)"},{"poiid":"B2094757D06AA7FF489B","title":"上海松江假日酒店","lon":"121.235974117","lat":"31.0058816693","category":"217","category_name":"旅馆招待所","address":"松江区中山中路83号平高世贸中心(近谷阳路)"},{"poiid":"B2094654DB64A6FE4999","title":"避风塘松江店","lon":"121.23462","lat":"31.00723","category":"66","category_name":"茶艺馆","address":"松江区中山中路150号2、3楼"},{"poiid":"B2094757D068A6FD459C","title":"PANKOO釜山料理(松江平高店)","lon":"121.23541902","lat":"31.006209294","category":"96","category_name":"韩国料理","address":"上海市松江区中山中路71号5楼平高世贸中心5楼"},{"poiid":"B2094655D26EAAF54392","title":"麦当劳(松江·中山中路)","lon":"121.23389","lat":"31.00696","category":"68","category_name":"快餐厅","address":"松江区中山中路168-188号"},{"poiid":"B2094757D06BA5FB4499","title":"小南国(松江店)","lon":"121.236183219","lat":"31.0092310628","category":"500","category_name":"未知分类","address":"上海市松江区松江长桥街平高"},{"poiid":"B2094654DB6EA3F54292","title":"樟馨家园","lon":"121.23857","lat":"31.011311","category":"47","category_name":"住宅区","address":"上海市松江区松乐路88弄"},{"poiid":"B2094751DA69A7F4459D","title":"星巴克","lon":"121.235518","lat":"31.005691","category":"247","category_name":"餐饮美食","address":"上海松江松汇中路568号乐颂坊1楼"},{"poiid":"B2094655D268A5F94598","title":"乐都大厦","lon":"121.2334","lat":"31.01309","category":"46","category_name":"楼宇","address":"乐都路251号"},{"poiid":"B2094757D069AAFA4098","title":"健康煮 中山中路店","lon":"121.2317063","lat":"31.0066983","category":"86","category_name":"火锅店","address":"松江区中山中路73号平高国际世贸中心4楼"},{"poiid":"B2094750DA6EA2FC449F","title":"炫音KTV上海平高店","lon":"121.235061","lat":"31.008541","category":"500","category_name":"未知分类","address":"松江区中山中路71号平高世贸中心4楼A号座(近沃尔玛购物广场)"},{"poiid":"B2094757D66CA3F94492","title":"松临日本料理松江店","lon":"121.235353467","lat":"31.005958971","category":"95","category_name":"日本料理","address":"松江区中山中路71号平高世贸中心7楼(中山中路谷阳北路)"},{"poiid":"B2094757D06AA0FE489F","title":"田季干锅","lon":"121.23554602","lat":"31.0062322936","category":"71","category_name":"四川菜","address":"松江区中山中路83号平高世贸中心B1楼"},{"poiid":"B2094757D66FA6FE439B","title":"DQ&lt;松江平高店&gt;","lon":"121.235201467","lat":"31.0084459256","category":"113","category_name":"冷饮店","address":"上海松江平高贸易中心"},{"poiid":"B2094757D069A4FD4092","title":"凤凰小区","lon":"121.23508","lat":"31.012119","category":"47","category_name":"住宅区","address":"上海松江区谷阳北路"},{"poiid":"B2094757D464A0F9499C","title":"鲁山人","lon":"121.23868008277","lat":"31.007122656877","category":"95","category_name":"日本料理","address":"松江区普照路71号(中山东路中山中路)"},{"poiid":"B2094655D264A2F54698","title":"月夏香樟林","lon":"121.23857","lat":"31.01131","category":"47","category_name":"住宅区","address":"上海市松江区松乐路88弄"},{"poiid":"B2094654DB69A6FC4899","title":"月夏新天地","lon":"121.23793","lat":"31.01029","category":"47","category_name":"住宅区","address":"松江区松乐路128号"},{"poiid":"B2094757D068ABF4489A","title":"松江商城","lon":"121.233948467","lat":"31.0068829913","category":"119","category_name":"商场","address":"松江区中山中路168-188号(近庙前街)"},{"poiid":"B2094750D56DA3FB4793","title":"小杨生煎松江店","lon":"121.234092","lat":"31.008314","category":"247","category_name":"餐饮美食","address":null},{"poiid":"B2094655D268A2F4439E","title":"菜花泾绿地","lon":"121.23661","lat":"31.01033","category":"196","category_name":"公园","address":""},{"poiid":"B2094752D36CA6FC499E","title":"猫屎咖啡","lon":"121.235596","lat":"31.00531","category":"247","category_name":"餐饮美食","address":"鹿都生活广场"},{"poiid":"B2094655D268A6F9469A","title":"烤友社","lon":"121.236150054","lat":"31.007009793","category":"96","category_name":"韩国料理","address":"松江区谷阳南路52号(近中山中路)"},{"poiid":"B2094757D66BA5FE4492","title":"元祖 中山中路店 Ganso","lon":"121.236446054","lat":"31.008000793","category":"67","category_name":"甜品店","address":"松江区中山中路99号肯德基附近"},{"poiid":"B2094757D165A6F8449E","title":"呀咪咖喱屋","lon":"121.235324467","lat":"31.0059899717","category":"247","category_name":"餐饮美食","address":"松汇中路568号A座A131-132"},{"poiid":"B2094750D56EA4FF429F","title":"精悦蓉香锅牛蛙","lon":"121.235794","lat":"31.006372","category":"247","category_name":"餐饮美食","address":null},{"poiid":"B2094750DA6CA3FD4299","title":"black &magic","lon":"121.235366","lat":"31.005924","category":"247","category_name":"餐饮美食","address":"乐颂坊"},{"poiid":"B2094753D36EA1F44592","title":"首尔焖鲜汇(乐颂坊店)","lon":"121.239766","lat":"31.006933","category":"86","category_name":"火锅店","address":"松汇中路568号乐颂坊B座303单元(近普照路)"},{"poiid":"B2094757D165AAFF4693","title":"乐都路","lon":"121.23887486","lat":"31.013645639","category":"500","category_name":"未知分类","address":"上海乐都路"},{"poiid":"B2094654DB6EA3F54593","title":"上海市松江区机关幼儿园","lon":"121.23872","lat":"31.00952","category":"57","category_name":"幼儿园","address":"景德路40"},{"poiid":"B2094654DB6EA3F54293","title":"良友金伴(樟馨家园东)","lon":"121.23915","lat":"31.01027","category":"117","category_name":"便民商店/便利店","address":"松乐路60"},{"poiid":"B2094655D36DA7F84599","title":"中山二路谷阳北路","lon":"121.23492","lat":"31.01008","category":"38","category_name":"公交车站","address":""},{"poiid":"B2094757DB64A4FB4099","title":"呷哺呷哺（平高世贸中心店）","lon":"121.235","lat":"31.0066","category":"68","category_name":"快餐厅","address":"松江区中山中路73号B1楼BF-04号"},{"poiid":"B2094655D36CA7F54999","title":"谷阳北路中山二路","lon":"121.23629","lat":"31.00971","category":"38","category_name":"公交车站","address":""},{"poiid":"B2094654DB6DAAFF479E","title":"康惠饮食店","lon":"121.23609","lat":"31.00981","category":"68","category_name":"快餐厅","address":"松江区谷阳北路155号(近中山二路)"},{"poiid":"B2094757D168A7FE499E","title":"味千拉面(平高世贸店)","lon":"121.23533046","lat":"31.006783989","category":"247","category_name":"餐饮美食","address":"松江区上海平高世贸中心B1"},{"poiid":"B2094655D26FABF5499F","title":"小忠羊肉庄","lon":"121.23796","lat":"31.01413","category":"86","category_name":"火锅店","address":"松江区乐都路102弄13号"},{"poiid":"B2094654DB6DABF44998","title":"好德NO.447","lon":"121.23596","lat":"31.00989","category":"117","category_name":"便民商店/便利店","address":"谷阳北路169号"},{"poiid":"B2094757DB64A4FA479D","title":"炫麦KTV（平高世贸中心店）","lon":"121.235","lat":"31.0066","category":"170","category_name":"KTV","address":"上海松江区中山中路71号 平高世贸中心四层"},{"poiid":"B2094654DB6EA3F54093","title":"福建沙县特色小吃(谷阳北路)","lon":"121.23649","lat":"31.01133","category":"68","category_name":"快餐厅","address":""},{"poiid":"B2094654DB6EA3F54099","title":"谷北小区","lon":"121.23733","lat":"31.012812","category":"47","category_name":"住宅区","address":"谷阳北路98号"},{"poiid":"B2094752D269AAF8429A","title":"渔寿司","lon":"121.235446","lat":"31.005822","category":"247","category_name":"餐饮美食","address":"上海市松江区中山中路150号2楼"},{"poiid":"B2094654DB6EA3F5419F","title":"岳阳派出所","lon":"121.23651","lat":"31.01086","category":"609","category_name":"警察局","address":"谷阳北路42号"},{"poiid":"B2094757D16CA7FA4092","title":"萨利亚","lon":"121.234223017","lat":"31.0071469971","category":"249","category_name":"购物服务","address":"上海松江区松汇路鹿都商业广场"},{"poiid":"B2094654DB6EA2FC429F","title":"松荣 松江店","lon":"121.23871060014","lat":"31.006320293222","category":"95","category_name":"日本料理","address":"松江区普照路81号(中山东路中山中路)"},{"poiid":"B2094654DB6DAAFC4993","title":"克莉丝汀 中山中路店","lon":"121.23703","lat":"31.00706","category":"112","category_name":"糕饼店","address":"松江区中山中路88号(谷阳北路谷阳南路)"},{"poiid":"B2094751D46BA6F8459A","title":"乐颂坊商业广场","lon":"121.235503","lat":"31.005955","category":"119","category_name":"商场","address":"松江区松汇中路568号"},{"poiid":"B2094655D268A7FA4499","title":"黑鱼弄小区(东大门)","lon":"121.23586","lat":"31.00946","category":"47","category_name":"住宅区","address":""},{"poiid":"B2094757D168A3FC4299","title":"松临日本料理·铁板烧","lon":"121.239858467","lat":"31.0066479861","category":"247","category_name":"餐饮美食","address":"上海松江中山中路77号平高世贸中心7F"}]