[{"poiid":"B2094757D06EAAF8439F","title":"泰晤士小镇小区","lon":"121.20448030631","lat":"31.035668438909","category":"250","category_name":"公园户外","address":"上海市松江区玉华路仓桥镇"},{"poiid":"B2094757D06FA1F54092","title":"复旦大学上海视觉艺术学院(松江文翔路校区)","lon":"121.20691781406879","lat":"31.0461274825704","category":"52","category_name":"高等院校","address":"上海松江区文翔路2200号"},{"poiid":"B2094757D068A1FF409F","title":"华亭湖时代大酒店","lon":"121.20665","lat":"31.0384","category":"76","category_name":"上海菜","address":"松江区滨湖路99号(滨湖路新松江路)"},{"poiid":"B2094655D268A2FF489C","title":"上海大学生体育中心","lon":"121.21205","lat":"31.0459","category":"224","category_name":"综合体育馆","address":"松江区文翔路2000号"},{"poiid":"B2094757D068A7FE4193","title":"后街量贩KTV","lon":"121.21332301","lat":"31.043086086","category":"170","category_name":"KTV","address":"松江区新松江路1926弄68号(近喜来登)"},{"poiid":"B2094757D16CA6FE4798","title":"上海新晖大酒店","lon":"121.210652467","lat":"31.0322185475","category":"94","category_name":"西餐厅","address":"上海市松江区文诚路765号(近江学路)"},{"poiid":"B2094757DB68A4FF4992","title":"世贸时尚欢乐影城","lon":"121.214987","lat":"31.034961","category":"500","category_name":"未知分类","address":"上海市松江新城文诚路238弄1号2楼"},{"poiid":"B2094757D16FA7FE439A","title":"8898","lon":"121.21052","lat":"31.03914","category":"260","category_name":"其他","address":"松江区新松江路1296号(近江学路)"},{"poiid":"B2094750D664AAF44592","title":"御澜轩精菜馆","lon":"121.211","lat":"31.0395","category":"76","category_name":"上海菜","address":"松江区新松江路1290号(江学路瑛皇附近)"},{"poiid":"B2094654DB6EA2FA409E","title":"避风港时尚餐厅","lon":"121.21555","lat":"31.03854","category":"257","category_name":"中餐厅","address":""},{"poiid":"B2094757D069A2FB4992","title":"紫东新苑","lon":"121.20824","lat":"31.043177","category":"47","category_name":"住宅区","address":"中艺花园位于宝山海江路9号"},{"poiid":"B2094750D56CABFC409A","title":"麦当劳(开元地中海)","lon":"121.216506","lat":"31.035909","category":"247","category_name":"餐饮美食","address":"松江区新松江路925号开元地中海商业广场2楼(近星巴克)"},{"poiid":"B2094757D064A5FC409C","title":"宝都大酒店","lon":"121.21257779","lat":"31.040709537","category":"76","category_name":"上海菜","address":"松江区松江新松江路1234号(近大学城)"},{"poiid":"B2094654DB65A6F4419E","title":"珠江新城","lon":"121.20952","lat":"31.03328","category":"47","category_name":"住宅区","address":"上海,上海市,文诚路888弄"},{"poiid":"B2094751D46AA6F8439C","title":"金纯K歌","lon":"121.2125890996374","lat":"31.03451822483569","category":"248","category_name":"生活娱乐","address":"松江新城文诚路500弄1号4楼"},{"poiid":"B2094757D068A0FA429B","title":"檀香花苑","lon":"121.21349611","lat":"31.040920209","category":"500","category_name":"未知分类","address":"上海市长宁区天山路209弄"},{"poiid":"B209475CD768A0FE4099","title":"肥猫餐厅","lon":"121.211997","lat":"31.040697","category":"500","category_name":"未知分类","address":"上海市 新松江路1229号云豹广场3F"},{"poiid":"B2094757D065ABFF439C","title":"御牛台湾牛肉面","lon":"121.21156","lat":"31.03913","category":"91","category_name":"台湾菜","address":"松江区江学路869号(近喜来登)"},{"poiid":"B2094757D065ABFD4699","title":"汤士家汤馆(松江一店)","lon":"121.212066","lat":"31.039097","category":"68","category_name":"快餐厅","address":"上海市松江区江学路877号(近松江大学城大学生体育中心)"},{"poiid":"B2094757D068A7FD4098","title":"复旦大学上海视觉艺术学院逸飞楼","lon":"121.207051","lat":"31.046188","category":"253","category_name":"校园生活","address":"上海松江區文翔路2200號"},{"poiid":"B2094757D464A7F9439F","title":"富利酒店","lon":"121.210532","lat":"31.039112","category":"75","category_name":"浙江菜","address":"松江区新松江路1296号7楼"},{"poiid":"B2094757D06AA7FF4792","title":"云豹宴舞自助火锅","lon":"121.211812","lat":"31.039036","category":"86","category_name":"火锅店","address":"松江区新松江路1296号2楼(近江学路口)"},{"poiid":"B2094750D26CA0FB4298","title":"松江鲜芋仙","lon":"121.214174","lat":"31.040599","category":"247","category_name":"餐饮美食","address":"松江区新松江路925号开元地中海商业广场2楼(近松江大学城)"},{"poiid":"B2094655D36DA0FD4693","title":"新松江路江学路","lon":"121.21147","lat":"31.03878","category":"38","category_name":"公交车站","address":""},{"poiid":"B2094757D065A7F5429D","title":"海捞坊","lon":"121.21215","lat":"31.03006","category":"86","category_name":"火锅店","address":"松江区江学路381弄18-20号"},{"poiid":"B2094757D66BA3FF4499","title":"毛家饭庄","lon":"121.2115082","lat":"31.0388615","category":"77","category_name":"湖南菜","address":"松江区新松江路1292弄133号(近东明国际商城)"},{"poiid":"B2094757D66AA5F44192","title":"康季台湾料理","lon":"121.212069","lat":"31.039554","category":"91","category_name":"台湾菜","address":"松江区江学路871号(近新松江路)"},{"poiid":"B2094751D36FA0F4429B","title":"祥德小龙虾农家菜","lon":"121.20806","lat":"31.04006","category":"68","category_name":"快餐厅","address":"松江区新松江路1292弄(近江学路)"},{"poiid":"B2094752D36BA4FC479D","title":"川流不息(新松江路店)","lon":"121.21089","lat":"31.03903","category":"71","category_name":"四川菜","address":"松江区新松江路1296号"},{"poiid":"B2094757DA6EA6F4499E","title":"唱享量贩式歌城(新松江路店)","lon":"121.210441589354","lat":"31.0406536187574","category":"170","category_name":"KTV","address":"松江区新松江路1292弄79号2-3楼(近文翔路)"},{"poiid":"B2094757D664A1F84592","title":"生仕鱼林港 松江店","lon":"121.211967","lat":"31.040232","category":"86","category_name":"火锅店","address":"松江区江学路867号2楼(新松江路口)"},{"poiid":"B2094654DB6EA2FB419D","title":"世纪新城(新松江路)","lon":"121.20455","lat":"31.03912","category":"47","category_name":"住宅区","address":"上海市松江区文翔路"},{"poiid":"B2094757D66DA3F8409D","title":"东鼎名人府邸","lon":"121.20913","lat":"31.038124","category":"500","category_name":"未知分类","address":"上海新松江路1455号"},{"poiid":"B2094654DB6EA1FD4492","title":"上海市松江区血站","lon":"121.20898597668645","lat":"31.03223787685391","category":"162","category_name":"医院","address":"上海市松江区文诚路801号"},{"poiid":"B2094750DA6EAAFB429F","title":"云豹KTV","lon":"121.214179","lat":"31.041309","category":"170","category_name":"KTV","address":"新松江路"},{"poiid":"B2094654DB6DA4FE469E","title":"合众湖畔花园","lon":"121.20506","lat":"31.037439","category":"47","category_name":"住宅区","address":"滨湖路299弄"},{"poiid":"B2094757D56DA0F84599","title":"新松江路营业厅","lon":"121.217039","lat":"31.039183","category":"151","category_name":"电讯营业厅","address":"松江区新松江路925弄1021"},{"poiid":"B2094654DB6EA2FA4192","title":"南部阳光翠庭","lon":"121.2149","lat":"31.037857","category":"47","category_name":"住宅区","address":"新松江路1111弄"},{"poiid":"B2094655D268A7FD4699","title":"东鼎名人府邸(北门)","lon":"121.20912","lat":"31.03858","category":"47","category_name":"住宅区","address":""},{"poiid":"B2094655D36DA0FD469C","title":"新松江路滨湖路","lon":"121.20611","lat":"31.03873","category":"38","category_name":"公交车站","address":""},{"poiid":"B2094750D76EA0FA429A","title":"紫东食府","lon":"121.212","lat":"31.0389","category":"76","category_name":"上海菜","address":"松江区新松江路1292弄132号"},{"poiid":"B209475DD268A6F4479E","title":"some coffee","lon":"121.208053","lat":"31.038785","category":"500","category_name":"未知分类","address":"上海市 上海市松江区新松江路1451号"},{"poiid":"B2094757D46EA3FB429D","title":"西施故里特色风味","lon":"121.211991054","lat":"31.038050793","category":"68","category_name":"快餐厅","address":"松江区江学路889号(江学路新松江路)"},{"poiid":"B2094757D168A7FB499E","title":"方松社区文化活动中心","lon":"121.216213","lat":"31.036505","category":"500","category_name":"未知分类","address":"上海市松江区北翠路1077号"},{"poiid":"B2094752D26FA4F5429E","title":"釜山料理","lon":"121.214935","lat":"31.040137","category":"247","category_name":"餐饮美食","address":"松江新松江路开元地中海"},{"poiid":"B2094655D26FA7FA4999","title":"紫东新苑(北门)","lon":"121.20897","lat":"31.03911","category":"48","category_name":"楼宇大门","address":"新松江路1388弄"},{"poiid":"B2094757D16CA1FB499E","title":"方松街道社区卫生服务中心","lon":"121.207728","lat":"31.031545","category":"162","category_name":"医院","address":"上海松江区文诚路805号"},{"poiid":"B2094757D16BA3FC429C","title":"贝豪象山石浦鱼港","lon":"121.21245946","lat":"31.040474728","category":"247","category_name":"餐饮美食","address":"松江区江学路1293弄123号2楼(近新松江路)"},{"poiid":"B2094750DB6FA0FF4899","title":"华东政法大学","lon":"121.211563","lat":"31.046117","category":"671","category_name":"高校中心点","address":null},{"poiid":"B2094757D165A0F9449E","title":"笨牛牛排","lon":"121.211855227","lat":"31.0406591729","category":"94","category_name":"西餐厅","address":"松江区江学路809号(近后街KTV)"},{"poiid":"B2094757D06EAAF8439F","title":"泰晤士小镇小区","lon":"121.20448030631","lat":"31.035668438909","category":"250","category_name":"公园户外","address":"上海市松江区玉华路仓桥镇"},{"poiid":"B2094757D06FA1F54092","title":"复旦大学上海视觉艺术学院(松江文翔路校区)","lon":"121.20691781406879","lat":"31.0461274825704","category":"52","category_name":"高等院校","address":"上海松江区文翔路2200号"},{"poiid":"B2094757D068A1FF409F","title":"华亭湖时代大酒店","lon":"121.20665","lat":"31.0384","category":"76","category_name":"上海菜","address":"松江区滨湖路99号(滨湖路新松江路)"},{"poiid":"B2094655D268A2FF489C","title":"上海大学生体育中心","lon":"121.21205","lat":"31.0459","category":"224","category_name":"综合体育馆","address":"松江区文翔路2000号"},{"poiid":"B2094757D068A7FE4193","title":"后街量贩KTV","lon":"121.21332301","lat":"31.043086086","category":"170","category_name":"KTV","address":"松江区新松江路1926弄68号(近喜来登)"},{"poiid":"B2094757D16CA6FE4798","title":"上海新晖大酒店","lon":"121.210652467","lat":"31.0322185475","category":"94","category_name":"西餐厅","address":"上海市松江区文诚路765号(近江学路)"},{"poiid":"B2094757DB68A4FF4992","title":"世贸时尚欢乐影城","lon":"121.214987","lat":"31.034961","category":"500","category_name":"未知分类","address":"上海市松江新城文诚路238弄1号2楼"},{"poiid":"B2094757D16FA7FE439A","title":"8898","lon":"121.21052","lat":"31.03914","category":"260","category_name":"其他","address":"松江区新松江路1296号(近江学路)"},{"poiid":"B2094750D664AAF44592","title":"御澜轩精菜馆","lon":"121.211","lat":"31.0395","category":"76","category_name":"上海菜","address":"松江区新松江路1290号(江学路瑛皇附近)"},{"poiid":"B2094654DB6EA2FA409E","title":"避风港时尚餐厅","lon":"121.21555","lat":"31.03854","category":"257","category_name":"中餐厅","address":""},{"poiid":"B2094757D069A2FB4992","title":"紫东新苑","lon":"121.20824","lat":"31.043177","category":"47","category_name":"住宅区","address":"中艺花园位于宝山海江路9号"},{"poiid":"B2094750D56CABFC409A","title":"麦当劳(开元地中海)","lon":"121.216506","lat":"31.035909","category":"247","category_name":"餐饮美食","address":"松江区新松江路925号开元地中海商业广场2楼(近星巴克)"},{"poiid":"B2094757D064A5FC409C","title":"宝都大酒店","lon":"121.21257779","lat":"31.040709537","category":"76","category_name":"上海菜","address":"松江区松江新松江路1234号(近大学城)"},{"poiid":"B2094654DB65A6F4419E","title":"珠江新城","lon":"121.20952","lat":"31.03328","category":"47","category_name":"住宅区","address":"上海,上海市,文诚路888弄"},{"poiid":"B2094751D46AA6F8439C","title":"金纯K歌","lon":"121.2125890996374","lat":"31.03451822483569","category":"248","category_name":"生活娱乐","address":"松江新城文诚路500弄1号4楼"},{"poiid":"B2094757D068A0FA429B","title":"檀香花苑","lon":"121.21349611","lat":"31.040920209","category":"500","category_name":"未知分类","address":"上海市长宁区天山路209弄"},{"poiid":"B209475CD768A0FE4099","title":"肥猫餐厅","lon":"121.211997","lat":"31.040697","category":"500","category_name":"未知分类","address":"上海市 新松江路1229号云豹广场3F"},{"poiid":"B2094757D065ABFF439C","title":"御牛台湾牛肉面","lon":"121.21156","lat":"31.03913","category":"91","category_name":"台湾菜","address":"松江区江学路869号(近喜来登)"},{"poiid":"B2094757D065ABFD4699","title":"汤士家汤馆(松江一店)","lon":"121.212066","lat":"31.039097","category":"68","category_name":"快餐厅","address":"上海市松江区江学路877号(近松江大学城大学生体育中心)"},{"poiid":"B2094757D068A7FD4098","title":"复旦大学上海视觉艺术学院逸飞楼","lon":"121.207051","lat":"31.046188","category":"253","category_name":"校园生活","address":"上海松江區文翔路2200號"},{"poiid":"B2094757D464A7F9439F","title":"富利酒店","lon":"121.210532","lat":"31.039112","category":"75","category_name":"浙江菜","address":"松江区新松江路1296号7楼"},{"poiid":"B2094757D06AA7FF4792","title":"云豹宴舞自助火锅","lon":"121.211812","lat":"31.039036","category":"86","category_name":"火锅店","address":"松江区新松江路1296号2楼(近江学路口)"},{"poiid":"B2094750D26CA0FB4298","title":"松江鲜芋仙","lon":"121.214174","lat":"31.040599","category":"247","category_name":"餐饮美食","address":"松江区新松江路925号开元地中海商业广场2楼(近松江大学城)"},{"poiid":"B2094655D36DA0FD4693","title":"新松江路江学路","lon":"121.21147","lat":"31.03878","category":"38","category_name":"公交车站","address":""},{"poiid":"B2094757D065A7F5429D","title":"海捞坊","lon":"121.21215","lat":"31.03006","category":"86","category_name":"火锅店","address":"松江区江学路381弄18-20号"},{"poiid":"B2094757D66BA3FF4499","title":"毛家饭庄","lon":"121.2115082","lat":"31.0388615","category":"77","category_name":"湖南菜","address":"松江区新松江路1292弄133号(近东明国际商城)"},{"poiid":"B2094757D66AA5F44192","title":"康季台湾料理","lon":"121.212069","lat":"31.039554","category":"91","category_name":"台湾菜","address":"松江区江学路871号(近新松江路)"},{"poiid":"B2094751D36FA0F4429B","title":"祥德小龙虾农家菜","lon":"121.20806","lat":"31.04006","category":"68","category_name":"快餐厅","address":"松江区新松江路1292弄(近江学路)"},{"poiid":"B2094752D36BA4FC479D","title":"川流不息(新松江路店)","lon":"121.21089","lat":"31.03903","category":"71","category_name":"四川菜","address":"松江区新松江路1296号"},{"poiid":"B2094757DA6EA6F4499E","title":"唱享量贩式歌城(新松江路店)","lon":"121.210441589354","lat":"31.0406536187574","category":"170","category_name":"KTV","address":"松江区新松江路1292弄79号2-3楼(近文翔路)"},{"poiid":"B2094757D664A1F84592","title":"生仕鱼林港 松江店","lon":"121.211967","lat":"31.040232","category":"86","category_name":"火锅店","address":"松江区江学路867号2楼(新松江路口)"},{"poiid":"B2094654DB6EA2FB419D","title":"世纪新城(新松江路)","lon":"121.20455","lat":"31.03912","category":"47","category_name":"住宅区","address":"上海市松江区文翔路"},{"poiid":"B2094757D66DA3F8409D","title":"东鼎名人府邸","lon":"121.20913","lat":"31.038124","category":"500","category_name":"未知分类","address":"上海新松江路1455号"},{"poiid":"B2094654DB6EA1FD4492","title":"上海市松江区血站","lon":"121.20898597668645","lat":"31.03223787685391","category":"162","category_name":"医院","address":"上海市松江区文诚路801号"},{"poiid":"B2094750DA6EAAFB429F","title":"云豹KTV","lon":"121.214179","lat":"31.041309","category":"170","category_name":"KTV","address":"新松江路"},{"poiid":"B2094654DB6DA4FE469E","title":"合众湖畔花园","lon":"121.20506","lat":"31.037439","category":"47","category_name":"住宅区","address":"滨湖路299弄"},{"poiid":"B2094757D56DA0F84599","title":"新松江路营业厅","lon":"121.217039","lat":"31.039183","category":"151","category_name":"电讯营业厅","address":"松江区新松江路925弄1021"},{"poiid":"B2094654DB6EA2FA4192","title":"南部阳光翠庭","lon":"121.2149","lat":"31.037857","category":"47","category_name":"住宅区","address":"新松江路1111弄"},{"poiid":"B2094655D268A7FD4699","title":"东鼎名人府邸(北门)","lon":"121.20912","lat":"31.03858","category":"47","category_name":"住宅区","address":""},{"poiid":"B2094655D36DA0FD469C","title":"新松江路滨湖路","lon":"121.20611","lat":"31.03873","category":"38","category_name":"公交车站","address":""},{"poiid":"B2094750D76EA0FA429A","title":"紫东食府","lon":"121.212","lat":"31.0389","category":"76","category_name":"上海菜","address":"松江区新松江路1292弄132号"},{"poiid":"B209475DD268A6F4479E","title":"some coffee","lon":"121.208053","lat":"31.038785","category":"500","category_name":"未知分类","address":"上海市 上海市松江区新松江路1451号"},{"poiid":"B2094757D46EA3FB429D","title":"西施故里特色风味","lon":"121.211991054","lat":"31.038050793","category":"68","category_name":"快餐厅","address":"松江区江学路889号(江学路新松江路)"},{"poiid":"B2094757D168A7FB499E","title":"方松社区文化活动中心","lon":"121.216213","lat":"31.036505","category":"500","category_name":"未知分类","address":"上海市松江区北翠路1077号"},{"poiid":"B2094752D26FA4F5429E","title":"釜山料理","lon":"121.214935","lat":"31.040137","category":"247","category_name":"餐饮美食","address":"松江新松江路开元地中海"},{"poiid":"B2094655D26FA7FA4999","title":"紫东新苑(北门)","lon":"121.20897","lat":"31.03911","category":"48","category_name":"楼宇大门","address":"新松江路1388弄"},{"poiid":"B2094757D16CA1FB499E","title":"方松街道社区卫生服务中心","lon":"121.207728","lat":"31.031545","category":"162","category_name":"医院","address":"上海松江区文诚路805号"},{"poiid":"B2094757D16BA3FC429C","title":"贝豪象山石浦鱼港","lon":"121.21245946","lat":"31.040474728","category":"247","category_name":"餐饮美食","address":"松江区江学路1293弄123号2楼(近新松江路)"},{"poiid":"B2094750DB6FA0FF4899","title":"华东政法大学","lon":"121.211563","lat":"31.046117","category":"671","category_name":"高校中心点","address":null},{"poiid":"B2094757D165A0F9449E","title":"笨牛牛排","lon":"121.211855227","lat":"31.0406591729","category":"94","category_name":"西餐厅","address":"松江区江学路809号(近后街KTV)"},{"poiid":"B2094757D06EAAF8439F","title":"泰晤士小镇小区","lon":"121.20448030631","lat":"31.035668438909","category":"250","category_name":"公园户外","address":"上海市松江区玉华路仓桥镇"},{"poiid":"B2094757D06FA1F54092","title":"复旦大学上海视觉艺术学院(松江文翔路校区)","lon":"121.20691781406879","lat":"31.0461274825704","category":"52","category_name":"高等院校","address":"上海松江区文翔路2200号"},{"poiid":"B2094757D068A1FF409F","title":"华亭湖时代大酒店","lon":"121.20665","lat":"31.0384","category":"76","category_name":"上海菜","address":"松江区滨湖路99号(滨湖路新松江路)"},{"poiid":"B2094655D268A2FF489C","title":"上海大学生体育中心","lon":"121.21205","lat":"31.0459","category":"224","category_name":"综合体育馆","address":"松江区文翔路2000号"},{"poiid":"B2094757D068A7FE4193","title":"后街量贩KTV","lon":"121.21332301","lat":"31.043086086","category":"170","category_name":"KTV","address":"松江区新松江路1926弄68号(近喜来登)"},{"poiid":"B2094757D16CA6FE4798","title":"上海新晖大酒店","lon":"121.210652467","lat":"31.0322185475","category":"94","category_name":"西餐厅","address":"上海市松江区文诚路765号(近江学路)"},{"poiid":"B2094757DB68A4FF4992","title":"世贸时尚欢乐影城","lon":"121.214987","lat":"31.034961","category":"500","category_name":"未知分类","address":"上海市松江新城文诚路238弄1号2楼"},{"poiid":"B2094757D16FA7FE439A","title":"8898","lon":"121.21052","lat":"31.03914","category":"260","category_name":"其他","address":"松江区新松江路1296号(近江学路)"},{"poiid":"B2094750D664AAF44592","title":"御澜轩精菜馆","lon":"121.211","lat":"31.0395","category":"76","category_name":"上海菜","address":"松江区新松江路1290号(江学路瑛皇附近)"},{"poiid":"B2094654DB6EA2FA409E","title":"避风港时尚餐厅","lon":"121.21555","lat":"31.03854","category":"257","category_name":"中餐厅","address":""},{"poiid":"B2094757D069A2FB4992","title":"紫东新苑","lon":"121.20824","lat":"31.043177","category":"47","category_name":"住宅区","address":"中艺花园位于宝山海江路9号"},{"poiid":"B2094750D56CABFC409A","title":"麦当劳(开元地中海)","lon":"121.216506","lat":"31.035909","category":"247","category_name":"餐饮美食","address":"松江区新松江路925号开元地中海商业广场2楼(近星巴克)"},{"poiid":"B2094757D064A5FC409C","title":"宝都大酒店","lon":"121.21257779","lat":"31.040709537","category":"76","category_name":"上海菜","address":"松江区松江新松江路1234号(近大学城)"},{"poiid":"B2094654DB65A6F4419E","title":"珠江新城","lon":"121.20952","lat":"31.03328","category":"47","category_name":"住宅区","address":"上海,上海市,文诚路888弄"},{"poiid":"B2094751D46AA6F8439C","title":"金纯K歌","lon":"121.2125890996374","lat":"31.03451822483569","category":"248","category_name":"生活娱乐","address":"松江新城文诚路500弄1号4楼"},{"poiid":"B2094757D068A0FA429B","title":"檀香花苑","lon":"121.21349611","lat":"31.040920209","category":"500","category_name":"未知分类","address":"上海市长宁区天山路209弄"},{"poiid":"B209475CD768A0FE4099","title":"肥猫餐厅","lon":"121.211997","lat":"31.040697","category":"500","category_name":"未知分类","address":"上海市 新松江路1229号云豹广场3F"},{"poiid":"B2094757D065ABFF439C","title":"御牛台湾牛肉面","lon":"121.21156","lat":"31.03913","category":"91","category_name":"台湾菜","address":"松江区江学路869号(近喜来登)"},{"poiid":"B2094757D065ABFD4699","title":"汤士家汤馆(松江一店)","lon":"121.212066","lat":"31.039097","category":"68","category_name":"快餐厅","address":"上海市松江区江学路877号(近松江大学城大学生体育中心)"},{"poiid":"B2094757D068A7FD4098","title":"复旦大学上海视觉艺术学院逸飞楼","lon":"121.207051","lat":"31.046188","category":"253","category_name":"校园生活","address":"上海松江區文翔路2200號"},{"poiid":"B2094757D464A7F9439F","title":"富利酒店","lon":"121.210532","lat":"31.039112","category":"75","category_name":"浙江菜","address":"松江区新松江路1296号7楼"},{"poiid":"B2094757D06AA7FF4792","title":"云豹宴舞自助火锅","lon":"121.211812","lat":"31.039036","category":"86","category_name":"火锅店","address":"松江区新松江路1296号2楼(近江学路口)"},{"poiid":"B2094750D26CA0FB4298","title":"松江鲜芋仙","lon":"121.214174","lat":"31.040599","category":"247","category_name":"餐饮美食","address":"松江区新松江路925号开元地中海商业广场2楼(近松江大学城)"},{"poiid":"B2094655D36DA0FD4693","title":"新松江路江学路","lon":"121.21147","lat":"31.03878","category":"38","category_name":"公交车站","address":""},{"poiid":"B2094757D065A7F5429D","title":"海捞坊","lon":"121.21215","lat":"31.03006","category":"86","category_name":"火锅店","address":"松江区江学路381弄18-20号"},{"poiid":"B2094757D66BA3FF4499","title":"毛家饭庄","lon":"121.2115082","lat":"31.0388615","category":"77","category_name":"湖南菜","address":"松江区新松江路1292弄133号(近东明国际商城)"},{"poiid":"B2094757D66AA5F44192","title":"康季台湾料理","lon":"121.212069","lat":"31.039554","category":"91","category_name":"台湾菜","address":"松江区江学路871号(近新松江路)"},{"poiid":"B2094751D36FA0F4429B","title":"祥德小龙虾农家菜","lon":"121.20806","lat":"31.04006","category":"68","category_name":"快餐厅","address":"松江区新松江路1292弄(近江学路)"},{"poiid":"B2094752D36BA4FC479D","title":"川流不息(新松江路店)","lon":"121.21089","lat":"31.03903","category":"71","category_name":"四川菜","address":"松江区新松江路1296号"},{"poiid":"B2094757DA6EA6F4499E","title":"唱享量贩式歌城(新松江路店)","lon":"121.210441589354","lat":"31.0406536187574","category":"170","category_name":"KTV","address":"松江区新松江路1292弄79号2-3楼(近文翔路)"},{"poiid":"B2094757D664A1F84592","title":"生仕鱼林港 松江店","lon":"121.211967","lat":"31.040232","category":"86","category_name":"火锅店","address":"松江区江学路867号2楼(新松江路口)"},{"poiid":"B2094654DB6EA2FB419D","title":"世纪新城(新松江路)","lon":"121.20455","lat":"31.03912","category":"47","category_name":"住宅区","address":"上海市松江区文翔路"},{"poiid":"B2094757D66DA3F8409D","title":"东鼎名人府邸","lon":"121.20913","lat":"31.038124","category":"500","category_name":"未知分类","address":"上海新松江路1455号"},{"poiid":"B2094654DB6EA1FD4492","title":"上海市松江区血站","lon":"121.20898597668645","lat":"31.03223787685391","category":"162","category_name":"医院","address":"上海市松江区文诚路801号"},{"poiid":"B2094750DA6EAAFB429F","title":"云豹KTV","lon":"121.214179","lat":"31.041309","category":"170","category_name":"KTV","address":"新松江路"},{"poiid":"B2094654DB6DA4FE469E","title":"合众湖畔花园","lon":"121.20506","lat":"31.037439","category":"47","category_name":"住宅区","address":"滨湖路299弄"},{"poiid":"B2094757D56DA0F84599","title":"新松江路营业厅","lon":"121.217039","lat":"31.039183","category":"151","category_name":"电讯营业厅","address":"松江区新松江路925弄1021"},{"poiid":"B2094654DB6EA2FA4192","title":"南部阳光翠庭","lon":"121.2149","lat":"31.037857","category":"47","category_name":"住宅区","address":"新松江路1111弄"},{"poiid":"B2094655D268A7FD4699","title":"东鼎名人府邸(北门)","lon":"121.20912","lat":"31.03858","category":"47","category_name":"住宅区","address":""},{"poiid":"B2094655D36DA0FD469C","title":"新松江路滨湖路","lon":"121.20611","lat":"31.03873","category":"38","category_name":"公交车站","address":""},{"poiid":"B2094750D76EA0FA429A","title":"紫东食府","lon":"121.212","lat":"31.0389","category":"76","category_name":"上海菜","address":"松江区新松江路1292弄132号"},{"poiid":"B209475DD268A6F4479E","title":"some coffee","lon":"121.208053","lat":"31.038785","category":"500","category_name":"未知分类","address":"上海市 上海市松江区新松江路1451号"},{"poiid":"B2094757D46EA3FB429D","title":"西施故里特色风味","lon":"121.211991054","lat":"31.038050793","category":"68","category_name":"快餐厅","address":"松江区江学路889号(江学路新松江路)"},{"poiid":"B2094757D168A7FB499E","title":"方松社区文化活动中心","lon":"121.216213","lat":"31.036505","category":"500","category_name":"未知分类","address":"上海市松江区北翠路1077号"},{"poiid":"B2094752D26FA4F5429E","title":"釜山料理","lon":"121.214935","lat":"31.040137","category":"247","category_name":"餐饮美食","address":"松江新松江路开元地中海"},{"poiid":"B2094655D26FA7FA4999","title":"紫东新苑(北门)","lon":"121.20897","lat":"31.03911","category":"48","category_name":"楼宇大门","address":"新松江路1388弄"},{"poiid":"B2094757D16CA1FB499E","title":"方松街道社区卫生服务中心","lon":"121.207728","lat":"31.031545","category":"162","category_name":"医院","address":"上海松江区文诚路805号"},{"poiid":"B2094757D16BA3FC429C","title":"贝豪象山石浦鱼港","lon":"121.21245946","lat":"31.040474728","category":"247","category_name":"餐饮美食","address":"松江区江学路1293弄123号2楼(近新松江路)"},{"poiid":"B2094750DB6FA0FF4899","title":"华东政法大学","lon":"121.211563","lat":"31.046117","category":"671","category_name":"高校中心点","address":null},{"poiid":"B2094757D165A0F9449E","title":"笨牛牛排","lon":"121.211855227","lat":"31.0406591729","category":"94","category_name":"西餐厅","address":"松江区江学路809号(近后街KTV)"},{"poiid":"B2094757D06EAAF8439F","title":"泰晤士小镇小区","lon":"121.20448030631","lat":"31.035668438909","category":"250","category_name":"公园户外","address":"上海市松江区玉华路仓桥镇"},{"poiid":"B2094757D06FA1F54092","title":"复旦大学上海视觉艺术学院(松江文翔路校区)","lon":"121.20691781406879","lat":"31.0461274825704","category":"52","category_name":"高等院校","address":"上海松江区文翔路2200号"},{"poiid":"B2094757D068A1FF409F","title":"华亭湖时代大酒店","lon":"121.20665","lat":"31.0384","category":"76","category_name":"上海菜","address":"松江区滨湖路99号(滨湖路新松江路)"},{"poiid":"B2094655D268A2FF489C","title":"上海大学生体育中心","lon":"121.21205","lat":"31.0459","category":"224","category_name":"综合体育馆","address":"松江区文翔路2000号"},{"poiid":"B2094757D068A7FE4193","title":"后街量贩KTV","lon":"121.21332301","lat":"31.043086086","category":"170","category_name":"KTV","address":"松江区新松江路1926弄68号(近喜来登)"},{"poiid":"B2094757D16CA6FE4798","title":"上海新晖大酒店","lon":"121.210652467","lat":"31.0322185475","category":"94","category_name":"西餐厅","address":"上海市松江区文诚路765号(近江学路)"},{"poiid":"B2094757DB68A4FF4992","title":"世贸时尚欢乐影城","lon":"121.214987","lat":"31.034961","category":"500","category_name":"未知分类","address":"上海市松江新城文诚路238弄1号2楼"},{"poiid":"B2094757D16FA7FE439A","title":"8898","lon":"121.21052","lat":"31.03914","category":"260","category_name":"其他","address":"松江区新松江路1296号(近江学路)"},{"poiid":"B2094750D664AAF44592","title":"御澜轩精菜馆","lon":"121.211","lat":"31.0395","category":"76","category_name":"上海菜","address":"松江区新松江路1290号(江学路瑛皇附近)"},{"poiid":"B2094654DB6EA2FA409E","title":"避风港时尚餐厅","lon":"121.21555","lat":"31.03854","category":"257","category_name":"中餐厅","address":""},{"poiid":"B2094757D069A2FB4992","title":"紫东新苑","lon":"121.20824","lat":"31.043177","category":"47","category_name":"住宅区","address":"中艺花园位于宝山海江路9号"},{"poiid":"B2094750D56CABFC409A","title":"麦当劳(开元地中海)","lon":"121.216506","lat":"31.035909","category":"247","category_name":"餐饮美食","address":"松江区新松江路925号开元地中海商业广场2楼(近星巴克)"},{"poiid":"B2094757D064A5FC409C","title":"宝都大酒店","lon":"121.21257779","lat":"31.040709537","category":"76","category_name":"上海菜","address":"松江区松江新松江路1234号(近大学城)"},{"poiid":"B2094654DB65A6F4419E","title":"珠江新城","lon":"121.20952","lat":"31.03328","category":"47","category_name":"住宅区","address":"上海,上海市,文诚路888弄"},{"poiid":"B2094751D46AA6F8439C","title":"金纯K歌","lon":"121.2125890996374","lat":"31.03451822483569","category":"248","category_name":"生活娱乐","address":"松江新城文诚路500弄1号4楼"},{"poiid":"B2094757D068A0FA429B","title":"檀香花苑","lon":"121.21349611","lat":"31.040920209","category":"500","category_name":"未知分类","address":"上海市长宁区天山路209弄"},{"poiid":"B209475CD768A0FE4099","title":"肥猫餐厅","lon":"121.211997","lat":"31.040697","category":"500","category_name":"未知分类","address":"上海市 新松江路1229号云豹广场3F"},{"poiid":"B2094757D065ABFF439C","title":"御牛台湾牛肉面","lon":"121.21156","lat":"31.03913","category":"91","category_name":"台湾菜","address":"松江区江学路869号(近喜来登)"},{"poiid":"B2094757D065ABFD4699","title":"汤士家汤馆(松江一店)","lon":"121.212066","lat":"31.039097","category":"68","category_name":"快餐厅","address":"上海市松江区江学路877号(近松江大学城大学生体育中心)"},{"poiid":"B2094757D068A7FD4098","title":"复旦大学上海视觉艺术学院逸飞楼","lon":"121.207051","lat":"31.046188","category":"253","category_name":"校园生活","address":"上海松江區文翔路2200號"},{"poiid":"B2094757D464A7F9439F","title":"富利酒店","lon":"121.210532","lat":"31.039112","category":"75","category_name":"浙江菜","address":"松江区新松江路1296号7楼"},{"poiid":"B2094757D06AA7FF4792","title":"云豹宴舞自助火锅","lon":"121.211812","lat":"31.039036","category":"86","category_name":"火锅店","address":"松江区新松江路1296号2楼(近江学路口)"},{"poiid":"B2094750D26CA0FB4298","title":"松江鲜芋仙","lon":"121.214174","lat":"31.040599","category":"247","category_name":"餐饮美食","address":"松江区新松江路925号开元地中海商业广场2楼(近松江大学城)"},{"poiid":"B2094655D36DA0FD4693","title":"新松江路江学路","lon":"121.21147","lat":"31.03878","category":"38","category_name":"公交车站","address":""},{"poiid":"B2094757D065A7F5429D","title":"海捞坊","lon":"121.21215","lat":"31.03006","category":"86","category_name":"火锅店","address":"松江区江学路381弄18-20号"},{"poiid":"B2094757D66BA3FF4499","title":"毛家饭庄","lon":"121.2115082","lat":"31.0388615","category":"77","category_name":"湖南菜","address":"松江区新松江路1292弄133号(近东明国际商城)"},{"poiid":"B2094757D66AA5F44192","title":"康季台湾料理","lon":"121.212069","lat":"31.039554","category":"91","category_name":"台湾菜","address":"松江区江学路871号(近新松江路)"},{"poiid":"B2094751D36FA0F4429B","title":"祥德小龙虾农家菜","lon":"121.20806","lat":"31.04006","category":"68","category_name":"快餐厅","address":"松江区新松江路1292弄(近江学路)"},{"poiid":"B2094752D36BA4FC479D","title":"川流不息(新松江路店)","lon":"121.21089","lat":"31.03903","category":"71","category_name":"四川菜","address":"松江区新松江路1296号"},{"poiid":"B2094757DA6EA6F4499E","title":"唱享量贩式歌城(新松江路店)","lon":"121.210441589354","lat":"31.0406536187574","category":"170","category_name":"KTV","address":"松江区新松江路1292弄79号2-3楼(近文翔路)"},{"poiid":"B2094757D664A1F84592","title":"生仕鱼林港 松江店","lon":"121.211967","lat":"31.040232","category":"86","category_name":"火锅店","address":"松江区江学路867号2楼(新松江路口)"},{"poiid":"B2094654DB6EA2FB419D","title":"世纪新城(新松江路)","lon":"121.20455","lat":"31.03912","category":"47","category_name":"住宅区","address":"上海市松江区文翔路"},{"poiid":"B2094757D66DA3F8409D","title":"东鼎名人府邸","lon":"121.20913","lat":"31.038124","category":"500","category_name":"未知分类","address":"上海新松江路1455号"},{"poiid":"B2094654DB6EA1FD4492","title":"上海市松江区血站","lon":"121.20898597668645","lat":"31.03223787685391","category":"162","category_name":"医院","address":"上海市松江区文诚路801号"},{"poiid":"B2094750DA6EAAFB429F","title":"云豹KTV","lon":"121.214179","lat":"31.041309","category":"170","category_name":"KTV","address":"新松江路"},{"poiid":"B2094654DB6DA4FE469E","title":"合众湖畔花园","lon":"121.20506","lat":"31.037439","category":"47","category_name":"住宅区","address":"滨湖路299弄"},{"poiid":"B2094757D56DA0F84599","title":"新松江路营业厅","lon":"121.217039","lat":"31.039183","category":"151","category_name":"电讯营业厅","address":"松江区新松江路925弄1021"},{"poiid":"B2094654DB6EA2FA4192","title":"南部阳光翠庭","lon":"121.2149","lat":"31.037857","category":"47","category_name":"住宅区","address":"新松江路1111弄"},{"poiid":"B2094655D268A7FD4699","title":"东鼎名人府邸(北门)","lon":"121.20912","lat":"31.03858","category":"47","category_name":"住宅区","address":""},{"poiid":"B2094655D36DA0FD469C","title":"新松江路滨湖路","lon":"121.20611","lat":"31.03873","category":"38","category_name":"公交车站","address":""},{"poiid":"B2094750D76EA0FA429A","title":"紫东食府","lon":"121.212","lat":"31.0389","category":"76","category_name":"上海菜","address":"松江区新松江路1292弄132号"},{"poiid":"B209475DD268A6F4479E","title":"some coffee","lon":"121.208053","lat":"31.038785","category":"500","category_name":"未知分类","address":"上海市 上海市松江区新松江路1451号"},{"poiid":"B2094757D46EA3FB429D","title":"西施故里特色风味","lon":"121.211991054","lat":"31.038050793","category":"68","category_name":"快餐厅","address":"松江区江学路889号(江学路新松江路)"},{"poiid":"B2094757D168A7FB499E","title":"方松社区文化活动中心","lon":"121.216213","lat":"31.036505","category":"500","category_name":"未知分类","address":"上海市松江区北翠路1077号"},{"poiid":"B2094752D26FA4F5429E","title":"釜山料理","lon":"121.214935","lat":"31.040137","category":"247","category_name":"餐饮美食","address":"松江新松江路开元地中海"},{"poiid":"B2094655D26FA7FA4999","title":"紫东新苑(北门)","lon":"121.20897","lat":"31.03911","category":"48","category_name":"楼宇大门","address":"新松江路1388弄"},{"poiid":"B2094757D16CA1FB499E","title":"方松街道社区卫生服务中心","lon":"121.207728","lat":"31.031545","category":"162","category_name":"医院","address":"上海松江区文诚路805号"},{"poiid":"B2094757D16BA3FC429C","title":"贝豪象山石浦鱼港","lon":"121.21245946","lat":"31.040474728","category":"247","category_name":"餐饮美食","address":"松江区江学路1293弄123号2楼(近新松江路)"},{"poiid":"B2094750DB6FA0FF4899","title":"华东政法大学","lon":"121.211563","lat":"31.046117","category":"671","category_name":"高校中心点","address":null},{"poiid":"B2094757D165A0F9449E","title":"笨牛牛排","lon":"121.211855227","lat":"31.0406591729","category":"94","category_name":"西餐厅","address":"松江区江学路809号(近后街KTV)"}]