[{"poiid":"B2094757D068A1F44793","title":"松江平高世贸中心","lon":"121.23529618071325","lat":"31.00663743923123","category":"119","category_name":"商场","address":"松江中山中路71号"},{"poiid":"B2094757D068A0FD479C","title":"松江火车站","lon":"121.228025999","lat":"30.9993683162","category":"22","category_name":"火车站","address":"上海近郊松江区人民南路1号"},{"poiid":"B2094757D068ABFC409F","title":"醉白池公园","lon":"121.230251779","lat":"31.0021066903","category":"196","category_name":"公园","address":"松江区人民南路64号"},{"poiid":"B2094655D268A2F8459B","title":"鹿都国际商业广场","lon":"121.23458","lat":"31.00451","category":"119","category_name":"商场","address":"松江松汇中路568号（近中山中路，人民路）"},{"poiid":"B2094655D36DA6FF499D","title":"上海左岸国际影城（松江店）","lon":"121.23458","lat":"31.00451","category":"178","category_name":"电影院","address":"上海松江区松汇中路568号鹿都国际广场4楼"},{"poiid":"B2094757D06FA7FF409B","title":"上海歌城(松江店)","lon":"121.23375701","lat":"31.006780779","category":"170","category_name":"KTV","address":"松江区中山中路188号(中山东路袜子弄)"},{"poiid":"B2094757D06AA7FF489B","title":"上海松江假日酒店","lon":"121.235974117","lat":"31.0058816693","category":"217","category_name":"旅馆招待所","address":"松江区中山中路83号平高世贸中心(近谷阳路)"},{"poiid":"B2094757D068A3F4429B","title":"沃尔玛(松江店)","lon":"121.234816","lat":"31.004051","category":"118","category_name":"超级市场","address":"松江区松汇中路568号鹿都国际商业广场内(近庙前街)"},{"poiid":"B2094750DA6CA2F84092","title":"乐颂坊","lon":"121.235855","lat":"31.004205","category":"500","category_name":"未知分类","address":null},{"poiid":"B2094757D068A6FD459C","title":"PANKOO釜山料理(松江平高店)","lon":"121.23541902","lat":"31.006209294","category":"96","category_name":"韩国料理","address":"上海市松江区中山中路71号5楼平高世贸中心5楼"},{"poiid":"B2094655D26EAAF54392","title":"麦当劳(松江·中山中路)","lon":"121.23389","lat":"31.00696","category":"68","category_name":"快餐厅","address":"松江区中山中路168-188号"},{"poiid":"B2094757D069A4F54798","title":"庙前街中山中路","lon":"121.23370323","lat":"31.006477313","category":"260","category_name":"其他","address":"上海庙前街中山中路"},{"poiid":"B2094757D069A6FA4592","title":"上海红楼戴斯宾馆","lon":"121.23897","lat":"31.00381","category":"217","category_name":"旅馆招待所","address":"松江区普照路1号(近松汇路)"},{"poiid":"B2094750DA65A4FF479F","title":"猫的天空之城","lon":"121.235542","lat":"31.003101","category":"248","category_name":"生活娱乐","address":"松汇中路496号"},{"poiid":"B2094757D06AAAF9489B","title":"松江一中","lon":"121.23373","lat":"31.00276","category":"55","category_name":"中学","address":"松江区松汇中路601号"},{"poiid":"B2094757D06AA5FC429C","title":"百特喜意式餐厅","lon":"121.23449","lat":"31.004514","category":"94","category_name":"西餐厅","address":"松江区松汇中路568号鹿都沃尔玛生活广场4楼"},{"poiid":"B2094751DA69A7F4459D","title":"星巴克","lon":"121.235518","lat":"31.005691","category":"247","category_name":"餐饮美食","address":"上海松江松汇中路568号乐颂坊1楼"},{"poiid":"B2094750DA6BA4FF4099","title":"猫的天空之城概念书店","lon":"121.234818","lat":"31.004097","category":"500","category_name":"未知分类","address":"松江区老城松汇中路496号(近谷阳南路)"},{"poiid":"B2094757D66CA3F94492","title":"松临日本料理松江店","lon":"121.235353467","lat":"31.005958971","category":"95","category_name":"日本料理","address":"松江区中山中路71号平高世贸中心7楼(中山中路谷阳北路)"},{"poiid":"B2094757D068A5FC4299","title":"肯德基KFC(中山中路店)","lon":"121.229018","lat":"31.006703","category":"68","category_name":"快餐厅","address":"松江区中山中路99号"},{"poiid":"B2094757D06AA0FE489F","title":"田季干锅","lon":"121.23554602","lat":"31.0062322936","category":"71","category_name":"四川菜","address":"松江区中山中路83号平高世贸中心B1楼"},{"poiid":"B2094757D664AAF9419C","title":"韩林炭烤 松江店","lon":"121.233638","lat":"31.004928","category":"96","category_name":"韩国料理","address":"松江区松汇中路568号鹿都国际广场(松汇中路庙前街)"},{"poiid":"B2094654DB69A5FD409E","title":"好乐迪(中山中路店)","lon":"121.22967","lat":"31.00662","category":"170","category_name":"KTV","address":"松江区中山中路320-338号3楼"},{"poiid":"B2094752D36CA6FC499E","title":"猫屎咖啡","lon":"121.235596","lat":"31.00531","category":"247","category_name":"餐饮美食","address":"鹿都生活广场"},{"poiid":"B2094757D068ABF4489A","title":"松江商城","lon":"121.233948467","lat":"31.0068829913","category":"119","category_name":"商场","address":"松江区中山中路168-188号(近庙前街)"},{"poiid":"B2094757D468AAFE4493","title":"韦斯顿","lon":"121.234582","lat":"31.004526","category":"268","category_name":"自助","address":"松江区松汇中路568号沃尔玛4楼"},{"poiid":"B2094751D369A2F8489A","title":"摩休敦纳韩国年糕料理(乐颂坊店)","lon":"121.23458","lat":"31.00452","category":"96","category_name":"韩国料理","address":"松江区松汇中路568号乐颂坊1楼(近沃尔玛)"},{"poiid":"B2094750DA6CA3FD4299","title":"black &magic","lon":"121.235366","lat":"31.005924","category":"247","category_name":"餐饮美食","address":"乐颂坊"},{"poiid":"B2094757D165A6F8449E","title":"呀咪咖喱屋","lon":"121.235324467","lat":"31.0059899717","category":"247","category_name":"餐饮美食","address":"松汇中路568号A座A131-132"},{"poiid":"B2094757D168A6F4429F","title":"百味佳(人民南路店)","lon":"121.22948","lat":"31.00554","category":"76","category_name":"上海菜","address":"松江区人民南路77-79号(近中山中路)"},{"poiid":"B2094757D065ABFB4298","title":"小肥羊 松江店","lon":"121.23276","lat":"31.00487","category":"86","category_name":"火锅店","address":"松江区松汇中路648号(近谷阳路)"},{"poiid":"B2094757D16FA4F9419D","title":"肯德基 KFC (谷阳店)","lon":"121.234574","lat":"31.004513","category":"68","category_name":"快餐厅","address":"松江区松汇中路568号沃尔玛2楼(近庙前街)"},{"poiid":"B2094750D56EA4FF429F","title":"精悦蓉香锅牛蛙","lon":"121.235794","lat":"31.006372","category":"247","category_name":"餐饮美食","address":null},{"poiid":"B2094751D56CA6F9419C","title":"小杨生煎(乐颂坊店)","lon":"121.23084","lat":"31.00481","category":"68","category_name":"快餐厅","address":"松江区松汇中路568号乐颂坊B座106B单元(近沃尔玛)"},{"poiid":"B2094655D268A6F9469A","title":"烤友社","lon":"121.236150054","lat":"31.007009793","category":"96","category_name":"韩国料理","address":"松江区谷阳南路52号(近中山中路)"},{"poiid":"B2094654DB6DAAFC4499","title":"岳庙商业街","lon":"121.2332","lat":"31.00698","category":"116","category_name":"特色商业街","address":"上海近郊松江区中山中路218弄  "},{"poiid":"B2094757DB64A4FB4099","title":"呷哺呷哺（平高世贸中心店）","lon":"121.235","lat":"31.0066","category":"68","category_name":"快餐厅","address":"松江区中山中路73号B1楼BF-04号"},{"poiid":"B2094654DB69A5FF429D","title":"莫泰168连锁旅店(松汇中路店)","lon":"121.23022","lat":"31.00457","category":"216","category_name":"经济型连锁酒店","address":"松江区松汇中路736弄1号楼(人民南路)"},{"poiid":"B2094654DB6EA3FC469C","title":"松江站","lon":"121.22795","lat":"31.0001","category":"22","category_name":"火车站","address":"松江区人民南路1号"},{"poiid":"B2094654DB6EA3FC4793","title":"河畔雅苑","lon":"121.22621","lat":"31.00114","category":"47","category_name":"住宅区","address":"河畔雅苑位于松江人民南路15弄"},{"poiid":"B2094752D269AAF8429A","title":"渔寿司","lon":"121.235446","lat":"31.005822","category":"247","category_name":"餐饮美食","address":"上海市松江区中山中路150号2楼"},{"poiid":"B2094654DB6EA3FD489B","title":"荣汇公寓","lon":"121.22516","lat":"31.002411","category":"47","category_name":"住宅区","address":"松汇中路971弄1-36号"},{"poiid":"B2094757D16DA0F44099","title":"大鼓米线","lon":"121.234720467","lat":"31.0053149569","category":"247","category_name":"餐饮美食","address":"上海沃尔玛内"},{"poiid":"B2094654DB6AA3F8429C","title":"彩蝶坊 中山中路店","lon":"121.23058271113","lat":"31.007324460136","category":"76","category_name":"上海菜","address":"松江区松江中山中路328号4楼"},{"poiid":"B2094655D26FAAFB499F","title":"世纪华联(上海松江汽车运输公司东北)","lon":"121.23621","lat":"30.99776","category":"117","category_name":"便民商店/便利店","address":""},{"poiid":"B2094654DB6DAAFC4293","title":"余天成堂","lon":"121.23219","lat":"31.00689","category":"162","category_name":"医院","address":"松江区中山中路266-270号"},{"poiid":"B2094757D66DA1F4419F","title":"醉白酒楼","lon":"121.22854638428","lat":"31.004038969534","category":"76","category_name":"上海菜","address":"松江区松汇中路763号(人民路口)"},{"poiid":"B2094757D76DA1FC4993","title":"欧露Olala","lon":"121.23457","lat":"31.00451","category":"67","category_name":"甜品店","address":"松江区松汇中路568号鹿都国际商业广场A023室(近庙前街)"},{"poiid":"B2094757D465A2F54698","title":"红楼宾馆餐厅","lon":"121.238887054","lat":"31.003731793","category":"76","category_name":"上海菜","address":"松江区普照路1号红楼戴斯宾馆内(近松汇路)"},{"poiid":"B2094751D46BA6F8459A","title":"乐颂坊商业广场","lon":"121.235503","lat":"31.005955","category":"119","category_name":"商场","address":"松江区松汇中路568号"},{"poiid":"B2094757D068A1F44793","title":"松江平高世贸中心","lon":"121.23529618071325","lat":"31.00663743923123","category":"119","category_name":"商场","address":"松江中山中路71号"},{"poiid":"B2094757D068A0FD479C","title":"松江火车站","lon":"121.228025999","lat":"30.9993683162","category":"22","category_name":"火车站","address":"上海近郊松江区人民南路1号"},{"poiid":"B2094757D068ABFC409F","title":"醉白池公园","lon":"121.230251779","lat":"31.0021066903","category":"196","category_name":"公园","address":"松江区人民南路64号"},{"poiid":"B2094655D268A2F8459B","title":"鹿都国际商业广场","lon":"121.23458","lat":"31.00451","category":"119","category_name":"商场","address":"松江松汇中路568号（近中山中路，人民路）"},{"poiid":"B2094655D36DA6FF499D","title":"上海左岸国际影城（松江店）","lon":"121.23458","lat":"31.00451","category":"178","category_name":"电影院","address":"上海松江区松汇中路568号鹿都国际广场4楼"},{"poiid":"B2094757D06FA7FF409B","title":"上海歌城(松江店)","lon":"121.23375701","lat":"31.006780779","category":"170","category_name":"KTV","address":"松江区中山中路188号(中山东路袜子弄)"},{"poiid":"B2094757D06AA7FF489B","title":"上海松江假日酒店","lon":"121.235974117","lat":"31.0058816693","category":"217","category_name":"旅馆招待所","address":"松江区中山中路83号平高世贸中心(近谷阳路)"},{"poiid":"B2094757D068A3F4429B","title":"沃尔玛(松江店)","lon":"121.234816","lat":"31.004051","category":"118","category_name":"超级市场","address":"松江区松汇中路568号鹿都国际商业广场内(近庙前街)"},{"poiid":"B2094750DA6CA2F84092","title":"乐颂坊","lon":"121.235855","lat":"31.004205","category":"500","category_name":"未知分类","address":null},{"poiid":"B2094757D068A6FD459C","title":"PANKOO釜山料理(松江平高店)","lon":"121.23541902","lat":"31.006209294","category":"96","category_name":"韩国料理","address":"上海市松江区中山中路71号5楼平高世贸中心5楼"},{"poiid":"B2094655D26EAAF54392","title":"麦当劳(松江·中山中路)","lon":"121.23389","lat":"31.00696","category":"68","category_name":"快餐厅","address":"松江区中山中路168-188号"},{"poiid":"B2094757D069A4F54798","title":"庙前街中山中路","lon":"121.23370323","lat":"31.006477313","category":"260","category_name":"其他","address":"上海庙前街中山中路"},{"poiid":"B2094757D069A6FA4592","title":"上海红楼戴斯宾馆","lon":"121.23897","lat":"31.00381","category":"217","category_name":"旅馆招待所","address":"松江区普照路1号(近松汇路)"},{"poiid":"B2094750DA65A4FF479F","title":"猫的天空之城","lon":"121.235542","lat":"31.003101","category":"248","category_name":"生活娱乐","address":"松汇中路496号"},{"poiid":"B2094757D06AAAF9489B","title":"松江一中","lon":"121.23373","lat":"31.00276","category":"55","category_name":"中学","address":"松江区松汇中路601号"},{"poiid":"B2094757D06AA5FC429C","title":"百特喜意式餐厅","lon":"121.23449","lat":"31.004514","category":"94","category_name":"西餐厅","address":"松江区松汇中路568号鹿都沃尔玛生活广场4楼"},{"poiid":"B2094751DA69A7F4459D","title":"星巴克","lon":"121.235518","lat":"31.005691","category":"247","category_name":"餐饮美食","address":"上海松江松汇中路568号乐颂坊1楼"},{"poiid":"B2094750DA6BA4FF4099","title":"猫的天空之城概念书店","lon":"121.234818","lat":"31.004097","category":"500","category_name":"未知分类","address":"松江区老城松汇中路496号(近谷阳南路)"},{"poiid":"B2094757D66CA3F94492","title":"松临日本料理松江店","lon":"121.235353467","lat":"31.005958971","category":"95","category_name":"日本料理","address":"松江区中山中路71号平高世贸中心7楼(中山中路谷阳北路)"},{"poiid":"B2094757D068A5FC4299","title":"肯德基KFC(中山中路店)","lon":"121.229018","lat":"31.006703","category":"68","category_name":"快餐厅","address":"松江区中山中路99号"},{"poiid":"B2094757D06AA0FE489F","title":"田季干锅","lon":"121.23554602","lat":"31.0062322936","category":"71","category_name":"四川菜","address":"松江区中山中路83号平高世贸中心B1楼"},{"poiid":"B2094757D664AAF9419C","title":"韩林炭烤 松江店","lon":"121.233638","lat":"31.004928","category":"96","category_name":"韩国料理","address":"松江区松汇中路568号鹿都国际广场(松汇中路庙前街)"},{"poiid":"B2094654DB69A5FD409E","title":"好乐迪(中山中路店)","lon":"121.22967","lat":"31.00662","category":"170","category_name":"KTV","address":"松江区中山中路320-338号3楼"},{"poiid":"B2094752D36CA6FC499E","title":"猫屎咖啡","lon":"121.235596","lat":"31.00531","category":"247","category_name":"餐饮美食","address":"鹿都生活广场"},{"poiid":"B2094757D068ABF4489A","title":"松江商城","lon":"121.233948467","lat":"31.0068829913","category":"119","category_name":"商场","address":"松江区中山中路168-188号(近庙前街)"},{"poiid":"B2094757D468AAFE4493","title":"韦斯顿","lon":"121.234582","lat":"31.004526","category":"268","category_name":"自助","address":"松江区松汇中路568号沃尔玛4楼"},{"poiid":"B2094751D369A2F8489A","title":"摩休敦纳韩国年糕料理(乐颂坊店)","lon":"121.23458","lat":"31.00452","category":"96","category_name":"韩国料理","address":"松江区松汇中路568号乐颂坊1楼(近沃尔玛)"},{"poiid":"B2094750DA6CA3FD4299","title":"black &magic","lon":"121.235366","lat":"31.005924","category":"247","category_name":"餐饮美食","address":"乐颂坊"},{"poiid":"B2094757D165A6F8449E","title":"呀咪咖喱屋","lon":"121.235324467","lat":"31.0059899717","category":"247","category_name":"餐饮美食","address":"松汇中路568号A座A131-132"},{"poiid":"B2094757D168A6F4429F","title":"百味佳(人民南路店)","lon":"121.22948","lat":"31.00554","category":"76","category_name":"上海菜","address":"松江区人民南路77-79号(近中山中路)"},{"poiid":"B2094757D065ABFB4298","title":"小肥羊 松江店","lon":"121.23276","lat":"31.00487","category":"86","category_name":"火锅店","address":"松江区松汇中路648号(近谷阳路)"},{"poiid":"B2094757D16FA4F9419D","title":"肯德基 KFC (谷阳店)","lon":"121.234574","lat":"31.004513","category":"68","category_name":"快餐厅","address":"松江区松汇中路568号沃尔玛2楼(近庙前街)"},{"poiid":"B2094750D56EA4FF429F","title":"精悦蓉香锅牛蛙","lon":"121.235794","lat":"31.006372","category":"247","category_name":"餐饮美食","address":null},{"poiid":"B2094751D56CA6F9419C","title":"小杨生煎(乐颂坊店)","lon":"121.23084","lat":"31.00481","category":"68","category_name":"快餐厅","address":"松江区松汇中路568号乐颂坊B座106B单元(近沃尔玛)"},{"poiid":"B2094655D268A6F9469A","title":"烤友社","lon":"121.236150054","lat":"31.007009793","category":"96","category_name":"韩国料理","address":"松江区谷阳南路52号(近中山中路)"},{"poiid":"B2094654DB6DAAFC4499","title":"岳庙商业街","lon":"121.2332","lat":"31.00698","category":"116","category_name":"特色商业街","address":"上海近郊松江区中山中路218弄  "},{"poiid":"B2094757DB64A4FB4099","title":"呷哺呷哺（平高世贸中心店）","lon":"121.235","lat":"31.0066","category":"68","category_name":"快餐厅","address":"松江区中山中路73号B1楼BF-04号"},{"poiid":"B2094654DB69A5FF429D","title":"莫泰168连锁旅店(松汇中路店)","lon":"121.23022","lat":"31.00457","category":"216","category_name":"经济型连锁酒店","address":"松江区松汇中路736弄1号楼(人民南路)"},{"poiid":"B2094654DB6EA3FC469C","title":"松江站","lon":"121.22795","lat":"31.0001","category":"22","category_name":"火车站","address":"松江区人民南路1号"},{"poiid":"B2094654DB6EA3FC4793","title":"河畔雅苑","lon":"121.22621","lat":"31.00114","category":"47","category_name":"住宅区","address":"河畔雅苑位于松江人民南路15弄"},{"poiid":"B2094752D269AAF8429A","title":"渔寿司","lon":"121.235446","lat":"31.005822","category":"247","category_name":"餐饮美食","address":"上海市松江区中山中路150号2楼"},{"poiid":"B2094654DB6EA3FD489B","title":"荣汇公寓","lon":"121.22516","lat":"31.002411","category":"47","category_name":"住宅区","address":"松汇中路971弄1-36号"},{"poiid":"B2094757D16DA0F44099","title":"大鼓米线","lon":"121.234720467","lat":"31.0053149569","category":"247","category_name":"餐饮美食","address":"上海沃尔玛内"},{"poiid":"B2094654DB6AA3F8429C","title":"彩蝶坊 中山中路店","lon":"121.23058271113","lat":"31.007324460136","category":"76","category_name":"上海菜","address":"松江区松江中山中路328号4楼"},{"poiid":"B2094655D26FAAFB499F","title":"世纪华联(上海松江汽车运输公司东北)","lon":"121.23621","lat":"30.99776","category":"117","category_name":"便民商店/便利店","address":""},{"poiid":"B2094654DB6DAAFC4293","title":"余天成堂","lon":"121.23219","lat":"31.00689","category":"162","category_name":"医院","address":"松江区中山中路266-270号"},{"poiid":"B2094757D66DA1F4419F","title":"醉白酒楼","lon":"121.22854638428","lat":"31.004038969534","category":"76","category_name":"上海菜","address":"松江区松汇中路763号(人民路口)"},{"poiid":"B2094757D76DA1FC4993","title":"欧露Olala","lon":"121.23457","lat":"31.00451","category":"67","category_name":"甜品店","address":"松江区松汇中路568号鹿都国际商业广场A023室(近庙前街)"},{"poiid":"B2094757D465A2F54698","title":"红楼宾馆餐厅","lon":"121.238887054","lat":"31.003731793","category":"76","category_name":"上海菜","address":"松江区普照路1号红楼戴斯宾馆内(近松汇路)"},{"poiid":"B2094751D46BA6F8459A","title":"乐颂坊商业广场","lon":"121.235503","lat":"31.005955","category":"119","category_name":"商场","address":"松江区松汇中路568号"},{"poiid":"B2094757D068A1F44793","title":"松江平高世贸中心","lon":"121.23529618071325","lat":"31.00663743923123","category":"119","category_name":"商场","address":"松江中山中路71号"},{"poiid":"B2094757D068A0FD479C","title":"松江火车站","lon":"121.228025999","lat":"30.9993683162","category":"22","category_name":"火车站","address":"上海近郊松江区人民南路1号"},{"poiid":"B2094757D068ABFC409F","title":"醉白池公园","lon":"121.230251779","lat":"31.0021066903","category":"196","category_name":"公园","address":"松江区人民南路64号"},{"poiid":"B2094655D268A2F8459B","title":"鹿都国际商业广场","lon":"121.23458","lat":"31.00451","category":"119","category_name":"商场","address":"松江松汇中路568号（近中山中路，人民路）"},{"poiid":"B2094655D36DA6FF499D","title":"上海左岸国际影城（松江店）","lon":"121.23458","lat":"31.00451","category":"178","category_name":"电影院","address":"上海松江区松汇中路568号鹿都国际广场4楼"},{"poiid":"B2094757D06FA7FF409B","title":"上海歌城(松江店)","lon":"121.23375701","lat":"31.006780779","category":"170","category_name":"KTV","address":"松江区中山中路188号(中山东路袜子弄)"},{"poiid":"B2094757D06AA7FF489B","title":"上海松江假日酒店","lon":"121.235974117","lat":"31.0058816693","category":"217","category_name":"旅馆招待所","address":"松江区中山中路83号平高世贸中心(近谷阳路)"},{"poiid":"B2094757D068A3F4429B","title":"沃尔玛(松江店)","lon":"121.234816","lat":"31.004051","category":"118","category_name":"超级市场","address":"松江区松汇中路568号鹿都国际商业广场内(近庙前街)"},{"poiid":"B2094750DA6CA2F84092","title":"乐颂坊","lon":"121.235855","lat":"31.004205","category":"500","category_name":"未知分类","address":null},{"poiid":"B2094757D068A6FD459C","title":"PANKOO釜山料理(松江平高店)","lon":"121.23541902","lat":"31.006209294","category":"96","category_name":"韩国料理","address":"上海市松江区中山中路71号5楼平高世贸中心5楼"},{"poiid":"B2094655D26EAAF54392","title":"麦当劳(松江·中山中路)","lon":"121.23389","lat":"31.00696","category":"68","category_name":"快餐厅","address":"松江区中山中路168-188号"},{"poiid":"B2094757D069A4F54798","title":"庙前街中山中路","lon":"121.23370323","lat":"31.006477313","category":"260","category_name":"其他","address":"上海庙前街中山中路"},{"poiid":"B2094757D069A6FA4592","title":"上海红楼戴斯宾馆","lon":"121.23897","lat":"31.00381","category":"217","category_name":"旅馆招待所","address":"松江区普照路1号(近松汇路)"},{"poiid":"B2094750DA65A4FF479F","title":"猫的天空之城","lon":"121.235542","lat":"31.003101","category":"248","category_name":"生活娱乐","address":"松汇中路496号"},{"poiid":"B2094757D06AAAF9489B","title":"松江一中","lon":"121.23373","lat":"31.00276","category":"55","category_name":"中学","address":"松江区松汇中路601号"},{"poiid":"B2094757D06AA5FC429C","title":"百特喜意式餐厅","lon":"121.23449","lat":"31.004514","category":"94","category_name":"西餐厅","address":"松江区松汇中路568号鹿都沃尔玛生活广场4楼"},{"poiid":"B2094751DA69A7F4459D","title":"星巴克","lon":"121.235518","lat":"31.005691","category":"247","category_name":"餐饮美食","address":"上海松江松汇中路568号乐颂坊1楼"},{"poiid":"B2094750DA6BA4FF4099","title":"猫的天空之城概念书店","lon":"121.234818","lat":"31.004097","category":"500","category_name":"未知分类","address":"松江区老城松汇中路496号(近谷阳南路)"},{"poiid":"B2094757D66CA3F94492","title":"松临日本料理松江店","lon":"121.235353467","lat":"31.005958971","category":"95","category_name":"日本料理","address":"松江区中山中路71号平高世贸中心7楼(中山中路谷阳北路)"},{"poiid":"B2094757D068A5FC4299","title":"肯德基KFC(中山中路店)","lon":"121.229018","lat":"31.006703","category":"68","category_name":"快餐厅","address":"松江区中山中路99号"},{"poiid":"B2094757D06AA0FE489F","title":"田季干锅","lon":"121.23554602","lat":"31.0062322936","category":"71","category_name":"四川菜","address":"松江区中山中路83号平高世贸中心B1楼"},{"poiid":"B2094757D664AAF9419C","title":"韩林炭烤 松江店","lon":"121.233638","lat":"31.004928","category":"96","category_name":"韩国料理","address":"松江区松汇中路568号鹿都国际广场(松汇中路庙前街)"},{"poiid":"B2094654DB69A5FD409E","title":"好乐迪(中山中路店)","lon":"121.22967","lat":"31.00662","category":"170","category_name":"KTV","address":"松江区中山中路320-338号3楼"},{"poiid":"B2094752D36CA6FC499E","title":"猫屎咖啡","lon":"121.235596","lat":"31.00531","category":"247","category_name":"餐饮美食","address":"鹿都生活广场"},{"poiid":"B2094757D068ABF4489A","title":"松江商城","lon":"121.233948467","lat":"31.0068829913","category":"119","category_name":"商场","address":"松江区中山中路168-188号(近庙前街)"},{"poiid":"B2094757D468AAFE4493","title":"韦斯顿","lon":"121.234582","lat":"31.004526","category":"268","category_name":"自助","address":"松江区松汇中路568号沃尔玛4楼"},{"poiid":"B2094751D369A2F8489A","title":"摩休敦纳韩国年糕料理(乐颂坊店)","lon":"121.23458","lat":"31.00452","category":"96","category_name":"韩国料理","address":"松江区松汇中路568号乐颂坊1楼(近沃尔玛)"},{"poiid":"B2094750DA6CA3FD4299","title":"black &magic","lon":"121.235366","lat":"31.005924","category":"247","category_name":"餐饮美食","address":"乐颂坊"},{"poiid":"B2094757D165A6F8449E","title":"呀咪咖喱屋","lon":"121.235324467","lat":"31.0059899717","category":"247","category_name":"餐饮美食","address":"松汇中路568号A座A131-132"},{"poiid":"B2094757D168A6F4429F","title":"百味佳(人民南路店)","lon":"121.22948","lat":"31.00554","category":"76","category_name":"上海菜","address":"松江区人民南路77-79号(近中山中路)"},{"poiid":"B2094757D065ABFB4298","title":"小肥羊 松江店","lon":"121.23276","lat":"31.00487","category":"86","category_name":"火锅店","address":"松江区松汇中路648号(近谷阳路)"},{"poiid":"B2094757D16FA4F9419D","title":"肯德基 KFC (谷阳店)","lon":"121.234574","lat":"31.004513","category":"68","category_name":"快餐厅","address":"松江区松汇中路568号沃尔玛2楼(近庙前街)"},{"poiid":"B2094750D56EA4FF429F","title":"精悦蓉香锅牛蛙","lon":"121.235794","lat":"31.006372","category":"247","category_name":"餐饮美食","address":null},{"poiid":"B2094751D56CA6F9419C","title":"小杨生煎(乐颂坊店)","lon":"121.23084","lat":"31.00481","category":"68","category_name":"快餐厅","address":"松江区松汇中路568号乐颂坊B座106B单元(近沃尔玛)"},{"poiid":"B2094655D268A6F9469A","title":"烤友社","lon":"121.236150054","lat":"31.007009793","category":"96","category_name":"韩国料理","address":"松江区谷阳南路52号(近中山中路)"},{"poiid":"B2094654DB6DAAFC4499","title":"岳庙商业街","lon":"121.2332","lat":"31.00698","category":"116","category_name":"特色商业街","address":"上海近郊松江区中山中路218弄  "},{"poiid":"B2094757DB64A4FB4099","title":"呷哺呷哺（平高世贸中心店）","lon":"121.235","lat":"31.0066","category":"68","category_name":"快餐厅","address":"松江区中山中路73号B1楼BF-04号"},{"poiid":"B2094654DB69A5FF429D","title":"莫泰168连锁旅店(松汇中路店)","lon":"121.23022","lat":"31.00457","category":"216","category_name":"经济型连锁酒店","address":"松江区松汇中路736弄1号楼(人民南路)"},{"poiid":"B2094654DB6EA3FC469C","title":"松江站","lon":"121.22795","lat":"31.0001","category":"22","category_name":"火车站","address":"松江区人民南路1号"},{"poiid":"B2094654DB6EA3FC4793","title":"河畔雅苑","lon":"121.22621","lat":"31.00114","category":"47","category_name":"住宅区","address":"河畔雅苑位于松江人民南路15弄"},{"poiid":"B2094752D269AAF8429A","title":"渔寿司","lon":"121.235446","lat":"31.005822","category":"247","category_name":"餐饮美食","address":"上海市松江区中山中路150号2楼"},{"poiid":"B2094654DB6EA3FD489B","title":"荣汇公寓","lon":"121.22516","lat":"31.002411","category":"47","category_name":"住宅区","address":"松汇中路971弄1-36号"},{"poiid":"B2094757D16DA0F44099","title":"大鼓米线","lon":"121.234720467","lat":"31.0053149569","category":"247","category_name":"餐饮美食","address":"上海沃尔玛内"},{"poiid":"B2094654DB6AA3F8429C","title":"彩蝶坊 中山中路店","lon":"121.23058271113","lat":"31.007324460136","category":"76","category_name":"上海菜","address":"松江区松江中山中路328号4楼"},{"poiid":"B2094655D26FAAFB499F","title":"世纪华联(上海松江汽车运输公司东北)","lon":"121.23621","lat":"30.99776","category":"117","category_name":"便民商店/便利店","address":""},{"poiid":"B2094654DB6DAAFC4293","title":"余天成堂","lon":"121.23219","lat":"31.00689","category":"162","category_name":"医院","address":"松江区中山中路266-270号"},{"poiid":"B2094757D66DA1F4419F","title":"醉白酒楼","lon":"121.22854638428","lat":"31.004038969534","category":"76","category_name":"上海菜","address":"松江区松汇中路763号(人民路口)"},{"poiid":"B2094757D76DA1FC4993","title":"欧露Olala","lon":"121.23457","lat":"31.00451","category":"67","category_name":"甜品店","address":"松江区松汇中路568号鹿都国际商业广场A023室(近庙前街)"},{"poiid":"B2094757D465A2F54698","title":"红楼宾馆餐厅","lon":"121.238887054","lat":"31.003731793","category":"76","category_name":"上海菜","address":"松江区普照路1号红楼戴斯宾馆内(近松汇路)"},{"poiid":"B2094751D46BA6F8459A","title":"乐颂坊商业广场","lon":"121.235503","lat":"31.005955","category":"119","category_name":"商场","address":"松江区松汇中路568号"},{"poiid":"B2094757D068A1F44793","title":"松江平高世贸中心","lon":"121.23529618071325","lat":"31.00663743923123","category":"119","category_name":"商场","address":"松江中山中路71号"},{"poiid":"B2094757D068A0FD479C","title":"松江火车站","lon":"121.228025999","lat":"30.9993683162","category":"22","category_name":"火车站","address":"上海近郊松江区人民南路1号"},{"poiid":"B2094757D068ABFC409F","title":"醉白池公园","lon":"121.230251779","lat":"31.0021066903","category":"196","category_name":"公园","address":"松江区人民南路64号"},{"poiid":"B2094655D268A2F8459B","title":"鹿都国际商业广场","lon":"121.23458","lat":"31.00451","category":"119","category_name":"商场","address":"松江松汇中路568号（近中山中路，人民路）"},{"poiid":"B2094655D36DA6FF499D","title":"上海左岸国际影城（松江店）","lon":"121.23458","lat":"31.00451","category":"178","category_name":"电影院","address":"上海松江区松汇中路568号鹿都国际广场4楼"},{"poiid":"B2094757D06FA7FF409B","title":"上海歌城(松江店)","lon":"121.23375701","lat":"31.006780779","category":"170","category_name":"KTV","address":"松江区中山中路188号(中山东路袜子弄)"},{"poiid":"B2094757D06AA7FF489B","title":"上海松江假日酒店","lon":"121.235974117","lat":"31.0058816693","category":"217","category_name":"旅馆招待所","address":"松江区中山中路83号平高世贸中心(近谷阳路)"},{"poiid":"B2094757D068A3F4429B","title":"沃尔玛(松江店)","lon":"121.234816","lat":"31.004051","category":"118","category_name":"超级市场","address":"松江区松汇中路568号鹿都国际商业广场内(近庙前街)"},{"poiid":"B2094750DA6CA2F84092","title":"乐颂坊","lon":"121.235855","lat":"31.004205","category":"500","category_name":"未知分类","address":null},{"poiid":"B2094757D068A6FD459C","title":"PANKOO釜山料理(松江平高店)","lon":"121.23541902","lat":"31.006209294","category":"96","category_name":"韩国料理","address":"上海市松江区中山中路71号5楼平高世贸中心5楼"},{"poiid":"B2094655D26EAAF54392","title":"麦当劳(松江·中山中路)","lon":"121.23389","lat":"31.00696","category":"68","category_name":"快餐厅","address":"松江区中山中路168-188号"},{"poiid":"B2094757D069A4F54798","title":"庙前街中山中路","lon":"121.23370323","lat":"31.006477313","category":"260","category_name":"其他","address":"上海庙前街中山中路"},{"poiid":"B2094757D069A6FA4592","title":"上海红楼戴斯宾馆","lon":"121.23897","lat":"31.00381","category":"217","category_name":"旅馆招待所","address":"松江区普照路1号(近松汇路)"},{"poiid":"B2094750DA65A4FF479F","title":"猫的天空之城","lon":"121.235542","lat":"31.003101","category":"248","category_name":"生活娱乐","address":"松汇中路496号"},{"poiid":"B2094757D06AAAF9489B","title":"松江一中","lon":"121.23373","lat":"31.00276","category":"55","category_name":"中学","address":"松江区松汇中路601号"},{"poiid":"B2094757D06AA5FC429C","title":"百特喜意式餐厅","lon":"121.23449","lat":"31.004514","category":"94","category_name":"西餐厅","address":"松江区松汇中路568号鹿都沃尔玛生活广场4楼"},{"poiid":"B2094751DA69A7F4459D","title":"星巴克","lon":"121.235518","lat":"31.005691","category":"247","category_name":"餐饮美食","address":"上海松江松汇中路568号乐颂坊1楼"},{"poiid":"B2094750DA6BA4FF4099","title":"猫的天空之城概念书店","lon":"121.234818","lat":"31.004097","category":"500","category_name":"未知分类","address":"松江区老城松汇中路496号(近谷阳南路)"},{"poiid":"B2094757D66CA3F94492","title":"松临日本料理松江店","lon":"121.235353467","lat":"31.005958971","category":"95","category_name":"日本料理","address":"松江区中山中路71号平高世贸中心7楼(中山中路谷阳北路)"},{"poiid":"B2094757D068A5FC4299","title":"肯德基KFC(中山中路店)","lon":"121.229018","lat":"31.006703","category":"68","category_name":"快餐厅","address":"松江区中山中路99号"},{"poiid":"B2094757D06AA0FE489F","title":"田季干锅","lon":"121.23554602","lat":"31.0062322936","category":"71","category_name":"四川菜","address":"松江区中山中路83号平高世贸中心B1楼"},{"poiid":"B2094757D664AAF9419C","title":"韩林炭烤 松江店","lon":"121.233638","lat":"31.004928","category":"96","category_name":"韩国料理","address":"松江区松汇中路568号鹿都国际广场(松汇中路庙前街)"},{"poiid":"B2094654DB69A5FD409E","title":"好乐迪(中山中路店)","lon":"121.22967","lat":"31.00662","category":"170","category_name":"KTV","address":"松江区中山中路320-338号3楼"},{"poiid":"B2094752D36CA6FC499E","title":"猫屎咖啡","lon":"121.235596","lat":"31.00531","category":"247","category_name":"餐饮美食","address":"鹿都生活广场"},{"poiid":"B2094757D068ABF4489A","title":"松江商城","lon":"121.233948467","lat":"31.0068829913","category":"119","category_name":"商场","address":"松江区中山中路168-188号(近庙前街)"},{"poiid":"B2094757D468AAFE4493","title":"韦斯顿","lon":"121.234582","lat":"31.004526","category":"268","category_name":"自助","address":"松江区松汇中路568号沃尔玛4楼"},{"poiid":"B2094751D369A2F8489A","title":"摩休敦纳韩国年糕料理(乐颂坊店)","lon":"121.23458","lat":"31.00452","category":"96","category_name":"韩国料理","address":"松江区松汇中路568号乐颂坊1楼(近沃尔玛)"},{"poiid":"B2094750DA6CA3FD4299","title":"black &magic","lon":"121.235366","lat":"31.005924","category":"247","category_name":"餐饮美食","address":"乐颂坊"},{"poiid":"B2094757D165A6F8449E","title":"呀咪咖喱屋","lon":"121.235324467","lat":"31.0059899717","category":"247","category_name":"餐饮美食","address":"松汇中路568号A座A131-132"},{"poiid":"B2094757D168A6F4429F","title":"百味佳(人民南路店)","lon":"121.22948","lat":"31.00554","category":"76","category_name":"上海菜","address":"松江区人民南路77-79号(近中山中路)"},{"poiid":"B2094757D065ABFB4298","title":"小肥羊 松江店","lon":"121.23276","lat":"31.00487","category":"86","category_name":"火锅店","address":"松江区松汇中路648号(近谷阳路)"},{"poiid":"B2094757D16FA4F9419D","title":"肯德基 KFC (谷阳店)","lon":"121.234574","lat":"31.004513","category":"68","category_name":"快餐厅","address":"松江区松汇中路568号沃尔玛2楼(近庙前街)"},{"poiid":"B2094750D56EA4FF429F","title":"精悦蓉香锅牛蛙","lon":"121.235794","lat":"31.006372","category":"247","category_name":"餐饮美食","address":null},{"poiid":"B2094751D56CA6F9419C","title":"小杨生煎(乐颂坊店)","lon":"121.23084","lat":"31.00481","category":"68","category_name":"快餐厅","address":"松江区松汇中路568号乐颂坊B座106B单元(近沃尔玛)"},{"poiid":"B2094655D268A6F9469A","title":"烤友社","lon":"121.236150054","lat":"31.007009793","category":"96","category_name":"韩国料理","address":"松江区谷阳南路52号(近中山中路)"},{"poiid":"B2094654DB6DAAFC4499","title":"岳庙商业街","lon":"121.2332","lat":"31.00698","category":"116","category_name":"特色商业街","address":"上海近郊松江区中山中路218弄  "},{"poiid":"B2094757DB64A4FB4099","title":"呷哺呷哺（平高世贸中心店）","lon":"121.235","lat":"31.0066","category":"68","category_name":"快餐厅","address":"松江区中山中路73号B1楼BF-04号"},{"poiid":"B2094654DB69A5FF429D","title":"莫泰168连锁旅店(松汇中路店)","lon":"121.23022","lat":"31.00457","category":"216","category_name":"经济型连锁酒店","address":"松江区松汇中路736弄1号楼(人民南路)"},{"poiid":"B2094654DB6EA3FC469C","title":"松江站","lon":"121.22795","lat":"31.0001","category":"22","category_name":"火车站","address":"松江区人民南路1号"},{"poiid":"B2094654DB6EA3FC4793","title":"河畔雅苑","lon":"121.22621","lat":"31.00114","category":"47","category_name":"住宅区","address":"河畔雅苑位于松江人民南路15弄"},{"poiid":"B2094752D269AAF8429A","title":"渔寿司","lon":"121.235446","lat":"31.005822","category":"247","category_name":"餐饮美食","address":"上海市松江区中山中路150号2楼"},{"poiid":"B2094654DB6EA3FD489B","title":"荣汇公寓","lon":"121.22516","lat":"31.002411","category":"47","category_name":"住宅区","address":"松汇中路971弄1-36号"},{"poiid":"B2094757D16DA0F44099","title":"大鼓米线","lon":"121.234720467","lat":"31.0053149569","category":"247","category_name":"餐饮美食","address":"上海沃尔玛内"},{"poiid":"B2094654DB6AA3F8429C","title":"彩蝶坊 中山中路店","lon":"121.23058271113","lat":"31.007324460136","category":"76","category_name":"上海菜","address":"松江区松江中山中路328号4楼"},{"poiid":"B2094655D26FAAFB499F","title":"世纪华联(上海松江汽车运输公司东北)","lon":"121.23621","lat":"30.99776","category":"117","category_name":"便民商店/便利店","address":""},{"poiid":"B2094654DB6DAAFC4293","title":"余天成堂","lon":"121.23219","lat":"31.00689","category":"162","category_name":"医院","address":"松江区中山中路266-270号"},{"poiid":"B2094757D66DA1F4419F","title":"醉白酒楼","lon":"121.22854638428","lat":"31.004038969534","category":"76","category_name":"上海菜","address":"松江区松汇中路763号(人民路口)"},{"poiid":"B2094757D76DA1FC4993","title":"欧露Olala","lon":"121.23457","lat":"31.00451","category":"67","category_name":"甜品店","address":"松江区松汇中路568号鹿都国际商业广场A023室(近庙前街)"},{"poiid":"B2094757D465A2F54698","title":"红楼宾馆餐厅","lon":"121.238887054","lat":"31.003731793","category":"76","category_name":"上海菜","address":"松江区普照路1号红楼戴斯宾馆内(近松汇路)"},{"poiid":"B2094751D46BA6F8459A","title":"乐颂坊商业广场","lon":"121.235503","lat":"31.005955","category":"119","category_name":"商场","address":"松江区松汇中路568号"}]