[{"poiid":"B2094654DB6AA6FF439D","title":"方塔公园","lon":"121.24581","lat":"31.00652","category":"196","category_name":"公园","address":"松江区中山东路235路"},{"poiid":"B2094757D06FA6F4479F","title":"星美乐莫国际影城","lon":"121.25474","lat":"31.00927","category":"178","category_name":"电影院","address":"松江区环城路515-555号LOMO玩库3楼(近松东路)"},{"poiid":"B2094757D068A4FC4593","title":"松江二中","lon":"121.247600486","lat":"31.0086362483","category":"55","category_name":"中学","address":"上海市松江区中山东路250号"},{"poiid":"B2094654DB6DAAFA439E","title":"松江方塔中医医院","lon":"121.25234","lat":"31.00686","category":"162","category_name":"医院","address":"松江区中山东路39号"},{"poiid":"B2094757D06BA0FB4793","title":"沁韵渔火","lon":"121.255016793","lat":"31.0103385638","category":"86","category_name":"火锅店","address":"松江区环城路518号(近LOMO玩库)"},{"poiid":"B2094654DB6DAAFA4399","title":"森活","lon":"121.25196","lat":"31.00845","category":"47","category_name":"住宅区","address":"松江区中山东路70号"},{"poiid":"B2094757D06AA5F8409C","title":"松江东门汽车站","lon":"121.251125","lat":"31.00162","category":"35","category_name":"长途汽车站","address":"上海松汇路环城路口"},{"poiid":"B2094757D464A7F8429A","title":"三德屋日本料理 松江店","lon":"121.25501924243","lat":"31.011631808326","category":"95","category_name":"日本料理","address":"松江区松东路50号甲(松东路松江环城路)"},{"poiid":"B2094654DB6EA4F94998","title":"川流不息 松东路店","lon":"121.25600829974","lat":"31.009959830294","category":"71","category_name":"四川菜","address":"松江区松东路(松东路俞塘路)"},{"poiid":"B2094654DB6EA2FF479D","title":"松江方塔","lon":"121.24651","lat":"31.00557","category":"240","category_name":"国家级景点","address":""},{"poiid":"B2094757D66EA4FF459B","title":"松江区 环城路","lon":"121.255793","lat":"31.009118","category":"500","category_name":"未知分类","address":"上海松江区 环城路"},{"poiid":"B2094750D76FA5F44992","title":"山沟沟土菜馆","lon":"121.247","lat":"31.0069","category":"87","category_name":"特色／地方风味餐厅","address":"松江区中山东路235号方塔附近"},{"poiid":"B2094757D06BA3F5439A","title":"曙光医院松江分院","lon":"121.252356269","lat":"31.0068563322","category":"162","category_name":"医院","address":"上海松江区中山东路39号"},{"poiid":"B2094757D16FA6F8419C","title":"松江博物馆","lon":"121.24649601","lat":"31.00604726","category":"179","category_name":"音乐厅","address":"松江区松江中山东路233号"},{"poiid":"B2094757D06FABF8419A","title":"方塔园","lon":"121.254","lat":"31.0069","category":"196","category_name":"公园","address":"松江区中山东路235号"},{"poiid":"B2094757D465A0F4429D","title":"渔太郎日本料理 松江店","lon":"121.25525040644","lat":"31.008629942312","category":"95","category_name":"日本料理","address":"松江区环城路340号(方塔小学对面)"},{"poiid":"B2094655D268A3FA4092","title":"格林豪泰上海松江松东酒店","lon":"121.25531","lat":"31.0093","category":"216","category_name":"经济型连锁酒店","address":"上海市松江区环城路421号(松东路口)"},{"poiid":"B2094654DB6DAAFA419F","title":"雯雯点心店","lon":"121.24949","lat":"31.00696","category":"112","category_name":"糕饼店","address":""},{"poiid":"B2094757D66AA5F9439B","title":"潮福城","lon":"121.254134054","lat":"31.010985793","category":"76","category_name":"上海菜","address":"松江区环城路550号(近松东路)"},{"poiid":"B2094654DB6EA2FF439D","title":"余天成药店方塔分店","lon":"121.24794","lat":"31.00728","category":"162","category_name":"医院","address":"中山东路170号"},{"poiid":"B2094654DB6DAAF44692","title":"松江区教师进修学院","lon":"121.24869","lat":"31.01007","category":"53","category_name":"成人教育","address":"方塔北路318"},{"poiid":"B2094757D06BA3FA419B","title":"西藏中路北京东路","lon":"121.24690246","lat":"31.007120132","category":"38","category_name":"公交车站","address":"上海西藏中路北京东路公交站"},{"poiid":"B2094654DB6EA2FF4698","title":"好德NO.230","lon":"121.24748","lat":"31.00689","category":"117","category_name":"便民商店/便利店","address":"中山东路163"},{"poiid":"B2094757D56EA0F9489A","title":"松江二中食堂","lon":"121.2452245","lat":"31.00858483","category":"68","category_name":"快餐厅","address":"松江区中山东路250号(近方塔北路)"},{"poiid":"B2094654DB6EA4F9479F","title":"灵盛河鲜馆","lon":"121.25534","lat":"31.01055","category":"76","category_name":"上海菜","address":"松江区松东路21号(近环城路)"},{"poiid":"B2094654DB6EA2FF489A","title":"松江科技馆","lon":"121.24504","lat":"31.00654","category":"186","category_name":"科技馆","address":"中山东路237"},{"poiid":"B2094655D26FAAFC409D","title":"中山东路180弄小区","lon":"121.24675","lat":"31.00747","category":"47","category_name":"住宅区","address":"中山东路180弄"},{"poiid":"B2094654DB6DAAFA429B","title":"好德便利NO.872","lon":"121.24961","lat":"31.00697","category":"117","category_name":"便民商店/便利店","address":"方塔东一村23号"},{"poiid":"B2094655D36DA7F8449E","title":"中山东路","lon":"121.24404","lat":"31.00703","category":"38","category_name":"公交车站","address":""},{"poiid":"B2094654DB64A0FC489B","title":"新华书店(松江·中山东路)","lon":"121.24806","lat":"31.00689","category":"125","category_name":"书店","address":""},{"poiid":"B2094750DA6CA0F9439F","title":"方塔幼儿园","lon":"121.250198","lat":"31.007705","category":"57","category_name":"幼儿园","address":"方塔东村25号"},{"poiid":"B2094654DB6EA2FF479A","title":"天天瓜子店","lon":"121.24675","lat":"31.00687","category":"117","category_name":"便民商店/便利店","address":"松江区中山东路211号"},{"poiid":"B2094655D268A4FD449A","title":"方塔西村","lon":"121.24783","lat":"31.006462","category":"47","category_name":"住宅区","address":"方塔南路"},{"poiid":"B2094655D26FAAFC409F","title":"中山东路180弄小区(南门)","lon":"121.24678","lat":"31.00724","category":"47","category_name":"住宅区","address":"中山东路180弄"},{"poiid":"B2094655D268A3FD4193","title":"玩库","lon":"121.25411","lat":"31.0103","category":"119","category_name":"商场","address":""},{"poiid":"B2094654DB6EA2FE489A","title":"九峰实验学校","lon":"121.24749","lat":"31.01071","category":"55","category_name":"中学","address":"松江区方塔北路319"},{"poiid":"B2094654DB6EA2FE489B","title":"天主教上海教区邱家湾天主堂","lon":"121.24782","lat":"31.00955","category":"245","category_name":"教堂","address":"方塔北路10号"},{"poiid":"B2094655D26FABF54992","title":"中山东路120弄小区","lon":"121.25002","lat":"31.00773","category":"47","category_name":"住宅区","address":"中山东路120弄"},{"poiid":"B2094655D268A2FC4393","title":"紫罗兰大酒店松江店","lon":"121.255","lat":"31.00467","category":"70","category_name":"综合酒楼","address":"松江区环城路86号"},{"poiid":"B2094750D06CA1FA4992","title":"唛酷量版ktv","lon":"121.253372","lat":"31.009998","category":"170","category_name":"KTV","address":null},{"poiid":"B2094655D26FABF54099","title":"中山东路120弄小区(南门)","lon":"121.25001","lat":"31.00736","category":"47","category_name":"住宅区","address":"中山东路120弄"},{"poiid":"B2094757D169A3FF409A","title":"松江二中男生宿舍","lon":"121.248239","lat":"31.008033","category":"252","category_name":"楼宇机构","address":"上海松江区中山东路250号"},{"poiid":"B2094757D66EA4FC4999","title":"松江区有线电视中心营业厅","lon":"121.24808326","lat":"31.007485004","category":"500","category_name":"未知分类","address":"上海乐都路267号"},{"poiid":"B2094654DB6DAAFA429D","title":"方东小区(东大门)","lon":"121.25085","lat":"31.00703","category":"47","category_name":"住宅区","address":""},{"poiid":"B2094752D768A3F4449B","title":"泰晤士小镇","lon":"121.253052","lat":"31.005478","category":"250","category_name":"公园户外","address":"上海市，松江区，泰晤士小镇"},{"poiid":"B2094654DB6EA4F9469B","title":"谭火锅松江店","lon":"121.25529","lat":"31.00773","category":"86","category_name":"火锅店","address":"松江区中山东路6号"},{"poiid":"B2094750D16AA1FD419D","title":"星美国际影城上海松江店","lon":"121.254012","lat":"31.010243","category":"178","category_name":"电影院","address":"环城路515号玩库生活广场3层"},{"poiid":"B2094654DB6DAAF54992","title":"茸南苑","lon":"121.25484191749","lat":"31.007211033246","category":"47","category_name":"住宅区","address":"松汇东路115弄"},{"poiid":"B2094757D16AAAF44392","title":"松江鱼林港","lon":"121.255642303","lat":"31.0078518194","category":"86","category_name":"火锅店","address":"松江区环城路加油站附近(松东路口)"},{"poiid":"B2094757D16EA0FE4792","title":"九峰实验中学","lon":"121.24777","lat":"31.01044","category":"253","category_name":"校园生活","address":"松江区中山街道方塔北路319号(方塔北路松江环城路)"},{"poiid":"B2094654DB6AA6FF439D","title":"方塔公园","lon":"121.24581","lat":"31.00652","category":"196","category_name":"公园","address":"松江区中山东路235路"},{"poiid":"B2094757D06FA6F4479F","title":"星美乐莫国际影城","lon":"121.25474","lat":"31.00927","category":"178","category_name":"电影院","address":"松江区环城路515-555号LOMO玩库3楼(近松东路)"},{"poiid":"B2094757D068A4FC4593","title":"松江二中","lon":"121.247600486","lat":"31.0086362483","category":"55","category_name":"中学","address":"上海市松江区中山东路250号"},{"poiid":"B2094654DB6DAAFA439E","title":"松江方塔中医医院","lon":"121.25234","lat":"31.00686","category":"162","category_name":"医院","address":"松江区中山东路39号"},{"poiid":"B2094757D06BA0FB4793","title":"沁韵渔火","lon":"121.255016793","lat":"31.0103385638","category":"86","category_name":"火锅店","address":"松江区环城路518号(近LOMO玩库)"},{"poiid":"B2094654DB6DAAFA4399","title":"森活","lon":"121.25196","lat":"31.00845","category":"47","category_name":"住宅区","address":"松江区中山东路70号"},{"poiid":"B2094757D06AA5F8409C","title":"松江东门汽车站","lon":"121.251125","lat":"31.00162","category":"35","category_name":"长途汽车站","address":"上海松汇路环城路口"},{"poiid":"B2094757D464A7F8429A","title":"三德屋日本料理 松江店","lon":"121.25501924243","lat":"31.011631808326","category":"95","category_name":"日本料理","address":"松江区松东路50号甲(松东路松江环城路)"},{"poiid":"B2094654DB6EA4F94998","title":"川流不息 松东路店","lon":"121.25600829974","lat":"31.009959830294","category":"71","category_name":"四川菜","address":"松江区松东路(松东路俞塘路)"},{"poiid":"B2094654DB6EA2FF479D","title":"松江方塔","lon":"121.24651","lat":"31.00557","category":"240","category_name":"国家级景点","address":""},{"poiid":"B2094757D66EA4FF459B","title":"松江区 环城路","lon":"121.255793","lat":"31.009118","category":"500","category_name":"未知分类","address":"上海松江区 环城路"},{"poiid":"B2094750D76FA5F44992","title":"山沟沟土菜馆","lon":"121.247","lat":"31.0069","category":"87","category_name":"特色／地方风味餐厅","address":"松江区中山东路235号方塔附近"},{"poiid":"B2094757D06BA3F5439A","title":"曙光医院松江分院","lon":"121.252356269","lat":"31.0068563322","category":"162","category_name":"医院","address":"上海松江区中山东路39号"},{"poiid":"B2094757D16FA6F8419C","title":"松江博物馆","lon":"121.24649601","lat":"31.00604726","category":"179","category_name":"音乐厅","address":"松江区松江中山东路233号"},{"poiid":"B2094757D06FABF8419A","title":"方塔园","lon":"121.254","lat":"31.0069","category":"196","category_name":"公园","address":"松江区中山东路235号"},{"poiid":"B2094757D465A0F4429D","title":"渔太郎日本料理 松江店","lon":"121.25525040644","lat":"31.008629942312","category":"95","category_name":"日本料理","address":"松江区环城路340号(方塔小学对面)"},{"poiid":"B2094655D268A3FA4092","title":"格林豪泰上海松江松东酒店","lon":"121.25531","lat":"31.0093","category":"216","category_name":"经济型连锁酒店","address":"上海市松江区环城路421号(松东路口)"},{"poiid":"B2094654DB6DAAFA419F","title":"雯雯点心店","lon":"121.24949","lat":"31.00696","category":"112","category_name":"糕饼店","address":""},{"poiid":"B2094757D66AA5F9439B","title":"潮福城","lon":"121.254134054","lat":"31.010985793","category":"76","category_name":"上海菜","address":"松江区环城路550号(近松东路)"},{"poiid":"B2094654DB6EA2FF439D","title":"余天成药店方塔分店","lon":"121.24794","lat":"31.00728","category":"162","category_name":"医院","address":"中山东路170号"},{"poiid":"B2094654DB6DAAF44692","title":"松江区教师进修学院","lon":"121.24869","lat":"31.01007","category":"53","category_name":"成人教育","address":"方塔北路318"},{"poiid":"B2094757D06BA3FA419B","title":"西藏中路北京东路","lon":"121.24690246","lat":"31.007120132","category":"38","category_name":"公交车站","address":"上海西藏中路北京东路公交站"},{"poiid":"B2094654DB6EA2FF4698","title":"好德NO.230","lon":"121.24748","lat":"31.00689","category":"117","category_name":"便民商店/便利店","address":"中山东路163"},{"poiid":"B2094757D56EA0F9489A","title":"松江二中食堂","lon":"121.2452245","lat":"31.00858483","category":"68","category_name":"快餐厅","address":"松江区中山东路250号(近方塔北路)"},{"poiid":"B2094654DB6EA4F9479F","title":"灵盛河鲜馆","lon":"121.25534","lat":"31.01055","category":"76","category_name":"上海菜","address":"松江区松东路21号(近环城路)"},{"poiid":"B2094654DB6EA2FF489A","title":"松江科技馆","lon":"121.24504","lat":"31.00654","category":"186","category_name":"科技馆","address":"中山东路237"},{"poiid":"B2094655D26FAAFC409D","title":"中山东路180弄小区","lon":"121.24675","lat":"31.00747","category":"47","category_name":"住宅区","address":"中山东路180弄"},{"poiid":"B2094654DB6DAAFA429B","title":"好德便利NO.872","lon":"121.24961","lat":"31.00697","category":"117","category_name":"便民商店/便利店","address":"方塔东一村23号"},{"poiid":"B2094655D36DA7F8449E","title":"中山东路","lon":"121.24404","lat":"31.00703","category":"38","category_name":"公交车站","address":""},{"poiid":"B2094654DB64A0FC489B","title":"新华书店(松江·中山东路)","lon":"121.24806","lat":"31.00689","category":"125","category_name":"书店","address":""},{"poiid":"B2094750DA6CA0F9439F","title":"方塔幼儿园","lon":"121.250198","lat":"31.007705","category":"57","category_name":"幼儿园","address":"方塔东村25号"},{"poiid":"B2094654DB6EA2FF479A","title":"天天瓜子店","lon":"121.24675","lat":"31.00687","category":"117","category_name":"便民商店/便利店","address":"松江区中山东路211号"},{"poiid":"B2094655D268A4FD449A","title":"方塔西村","lon":"121.24783","lat":"31.006462","category":"47","category_name":"住宅区","address":"方塔南路"},{"poiid":"B2094655D26FAAFC409F","title":"中山东路180弄小区(南门)","lon":"121.24678","lat":"31.00724","category":"47","category_name":"住宅区","address":"中山东路180弄"},{"poiid":"B2094655D268A3FD4193","title":"玩库","lon":"121.25411","lat":"31.0103","category":"119","category_name":"商场","address":""},{"poiid":"B2094654DB6EA2FE489A","title":"九峰实验学校","lon":"121.24749","lat":"31.01071","category":"55","category_name":"中学","address":"松江区方塔北路319"},{"poiid":"B2094654DB6EA2FE489B","title":"天主教上海教区邱家湾天主堂","lon":"121.24782","lat":"31.00955","category":"245","category_name":"教堂","address":"方塔北路10号"},{"poiid":"B2094655D26FABF54992","title":"中山东路120弄小区","lon":"121.25002","lat":"31.00773","category":"47","category_name":"住宅区","address":"中山东路120弄"},{"poiid":"B2094655D268A2FC4393","title":"紫罗兰大酒店松江店","lon":"121.255","lat":"31.00467","category":"70","category_name":"综合酒楼","address":"松江区环城路86号"},{"poiid":"B2094750D06CA1FA4992","title":"唛酷量版ktv","lon":"121.253372","lat":"31.009998","category":"170","category_name":"KTV","address":null},{"poiid":"B2094655D26FABF54099","title":"中山东路120弄小区(南门)","lon":"121.25001","lat":"31.00736","category":"47","category_name":"住宅区","address":"中山东路120弄"},{"poiid":"B2094757D169A3FF409A","title":"松江二中男生宿舍","lon":"121.248239","lat":"31.008033","category":"252","category_name":"楼宇机构","address":"上海松江区中山东路250号"},{"poiid":"B2094757D66EA4FC4999","title":"松江区有线电视中心营业厅","lon":"121.24808326","lat":"31.007485004","category":"500","category_name":"未知分类","address":"上海乐都路267号"},{"poiid":"B2094654DB6DAAFA429D","title":"方东小区(东大门)","lon":"121.25085","lat":"31.00703","category":"47","category_name":"住宅区","address":""},{"poiid":"B2094752D768A3F4449B","title":"泰晤士小镇","lon":"121.253052","lat":"31.005478","category":"250","category_name":"公园户外","address":"上海市，松江区，泰晤士小镇"},{"poiid":"B2094654DB6EA4F9469B","title":"谭火锅松江店","lon":"121.25529","lat":"31.00773","category":"86","category_name":"火锅店","address":"松江区中山东路6号"},{"poiid":"B2094750D16AA1FD419D","title":"星美国际影城上海松江店","lon":"121.254012","lat":"31.010243","category":"178","category_name":"电影院","address":"环城路515号玩库生活广场3层"},{"poiid":"B2094654DB6DAAF54992","title":"茸南苑","lon":"121.25484191749","lat":"31.007211033246","category":"47","category_name":"住宅区","address":"松汇东路115弄"},{"poiid":"B2094757D16AAAF44392","title":"松江鱼林港","lon":"121.255642303","lat":"31.0078518194","category":"86","category_name":"火锅店","address":"松江区环城路加油站附近(松东路口)"},{"poiid":"B2094757D16EA0FE4792","title":"九峰实验中学","lon":"121.24777","lat":"31.01044","category":"253","category_name":"校园生活","address":"松江区中山街道方塔北路319号(方塔北路松江环城路)"},{"poiid":"B2094654DB6AA6FF439D","title":"方塔公园","lon":"121.24581","lat":"31.00652","category":"196","category_name":"公园","address":"松江区中山东路235路"},{"poiid":"B2094757D06FA6F4479F","title":"星美乐莫国际影城","lon":"121.25474","lat":"31.00927","category":"178","category_name":"电影院","address":"松江区环城路515-555号LOMO玩库3楼(近松东路)"},{"poiid":"B2094757D068A4FC4593","title":"松江二中","lon":"121.247600486","lat":"31.0086362483","category":"55","category_name":"中学","address":"上海市松江区中山东路250号"},{"poiid":"B2094654DB6DAAFA439E","title":"松江方塔中医医院","lon":"121.25234","lat":"31.00686","category":"162","category_name":"医院","address":"松江区中山东路39号"},{"poiid":"B2094757D06BA0FB4793","title":"沁韵渔火","lon":"121.255016793","lat":"31.0103385638","category":"86","category_name":"火锅店","address":"松江区环城路518号(近LOMO玩库)"},{"poiid":"B2094654DB6DAAFA4399","title":"森活","lon":"121.25196","lat":"31.00845","category":"47","category_name":"住宅区","address":"松江区中山东路70号"},{"poiid":"B2094757D06AA5F8409C","title":"松江东门汽车站","lon":"121.251125","lat":"31.00162","category":"35","category_name":"长途汽车站","address":"上海松汇路环城路口"},{"poiid":"B2094757D464A7F8429A","title":"三德屋日本料理 松江店","lon":"121.25501924243","lat":"31.011631808326","category":"95","category_name":"日本料理","address":"松江区松东路50号甲(松东路松江环城路)"},{"poiid":"B2094654DB6EA4F94998","title":"川流不息 松东路店","lon":"121.25600829974","lat":"31.009959830294","category":"71","category_name":"四川菜","address":"松江区松东路(松东路俞塘路)"},{"poiid":"B2094654DB6EA2FF479D","title":"松江方塔","lon":"121.24651","lat":"31.00557","category":"240","category_name":"国家级景点","address":""},{"poiid":"B2094757D66EA4FF459B","title":"松江区 环城路","lon":"121.255793","lat":"31.009118","category":"500","category_name":"未知分类","address":"上海松江区 环城路"},{"poiid":"B2094750D76FA5F44992","title":"山沟沟土菜馆","lon":"121.247","lat":"31.0069","category":"87","category_name":"特色／地方风味餐厅","address":"松江区中山东路235号方塔附近"},{"poiid":"B2094757D06BA3F5439A","title":"曙光医院松江分院","lon":"121.252356269","lat":"31.0068563322","category":"162","category_name":"医院","address":"上海松江区中山东路39号"},{"poiid":"B2094757D16FA6F8419C","title":"松江博物馆","lon":"121.24649601","lat":"31.00604726","category":"179","category_name":"音乐厅","address":"松江区松江中山东路233号"},{"poiid":"B2094757D06FABF8419A","title":"方塔园","lon":"121.254","lat":"31.0069","category":"196","category_name":"公园","address":"松江区中山东路235号"},{"poiid":"B2094757D465A0F4429D","title":"渔太郎日本料理 松江店","lon":"121.25525040644","lat":"31.008629942312","category":"95","category_name":"日本料理","address":"松江区环城路340号(方塔小学对面)"},{"poiid":"B2094655D268A3FA4092","title":"格林豪泰上海松江松东酒店","lon":"121.25531","lat":"31.0093","category":"216","category_name":"经济型连锁酒店","address":"上海市松江区环城路421号(松东路口)"},{"poiid":"B2094654DB6DAAFA419F","title":"雯雯点心店","lon":"121.24949","lat":"31.00696","category":"112","category_name":"糕饼店","address":""},{"poiid":"B2094757D66AA5F9439B","title":"潮福城","lon":"121.254134054","lat":"31.010985793","category":"76","category_name":"上海菜","address":"松江区环城路550号(近松东路)"},{"poiid":"B2094654DB6EA2FF439D","title":"余天成药店方塔分店","lon":"121.24794","lat":"31.00728","category":"162","category_name":"医院","address":"中山东路170号"},{"poiid":"B2094654DB6DAAF44692","title":"松江区教师进修学院","lon":"121.24869","lat":"31.01007","category":"53","category_name":"成人教育","address":"方塔北路318"},{"poiid":"B2094757D06BA3FA419B","title":"西藏中路北京东路","lon":"121.24690246","lat":"31.007120132","category":"38","category_name":"公交车站","address":"上海西藏中路北京东路公交站"},{"poiid":"B2094654DB6EA2FF4698","title":"好德NO.230","lon":"121.24748","lat":"31.00689","category":"117","category_name":"便民商店/便利店","address":"中山东路163"},{"poiid":"B2094757D56EA0F9489A","title":"松江二中食堂","lon":"121.2452245","lat":"31.00858483","category":"68","category_name":"快餐厅","address":"松江区中山东路250号(近方塔北路)"},{"poiid":"B2094654DB6EA4F9479F","title":"灵盛河鲜馆","lon":"121.25534","lat":"31.01055","category":"76","category_name":"上海菜","address":"松江区松东路21号(近环城路)"},{"poiid":"B2094654DB6EA2FF489A","title":"松江科技馆","lon":"121.24504","lat":"31.00654","category":"186","category_name":"科技馆","address":"中山东路237"},{"poiid":"B2094655D26FAAFC409D","title":"中山东路180弄小区","lon":"121.24675","lat":"31.00747","category":"47","category_name":"住宅区","address":"中山东路180弄"},{"poiid":"B2094654DB6DAAFA429B","title":"好德便利NO.872","lon":"121.24961","lat":"31.00697","category":"117","category_name":"便民商店/便利店","address":"方塔东一村23号"},{"poiid":"B2094655D36DA7F8449E","title":"中山东路","lon":"121.24404","lat":"31.00703","category":"38","category_name":"公交车站","address":""},{"poiid":"B2094654DB64A0FC489B","title":"新华书店(松江·中山东路)","lon":"121.24806","lat":"31.00689","category":"125","category_name":"书店","address":""},{"poiid":"B2094750DA6CA0F9439F","title":"方塔幼儿园","lon":"121.250198","lat":"31.007705","category":"57","category_name":"幼儿园","address":"方塔东村25号"},{"poiid":"B2094654DB6EA2FF479A","title":"天天瓜子店","lon":"121.24675","lat":"31.00687","category":"117","category_name":"便民商店/便利店","address":"松江区中山东路211号"},{"poiid":"B2094655D268A4FD449A","title":"方塔西村","lon":"121.24783","lat":"31.006462","category":"47","category_name":"住宅区","address":"方塔南路"},{"poiid":"B2094655D26FAAFC409F","title":"中山东路180弄小区(南门)","lon":"121.24678","lat":"31.00724","category":"47","category_name":"住宅区","address":"中山东路180弄"},{"poiid":"B2094655D268A3FD4193","title":"玩库","lon":"121.25411","lat":"31.0103","category":"119","category_name":"商场","address":""},{"poiid":"B2094654DB6EA2FE489A","title":"九峰实验学校","lon":"121.24749","lat":"31.01071","category":"55","category_name":"中学","address":"松江区方塔北路319"},{"poiid":"B2094654DB6EA2FE489B","title":"天主教上海教区邱家湾天主堂","lon":"121.24782","lat":"31.00955","category":"245","category_name":"教堂","address":"方塔北路10号"},{"poiid":"B2094655D26FABF54992","title":"中山东路120弄小区","lon":"121.25002","lat":"31.00773","category":"47","category_name":"住宅区","address":"中山东路120弄"},{"poiid":"B2094655D268A2FC4393","title":"紫罗兰大酒店松江店","lon":"121.255","lat":"31.00467","category":"70","category_name":"综合酒楼","address":"松江区环城路86号"},{"poiid":"B2094750D06CA1FA4992","title":"唛酷量版ktv","lon":"121.253372","lat":"31.009998","category":"170","category_name":"KTV","address":null},{"poiid":"B2094655D26FABF54099","title":"中山东路120弄小区(南门)","lon":"121.25001","lat":"31.00736","category":"47","category_name":"住宅区","address":"中山东路120弄"},{"poiid":"B2094757D169A3FF409A","title":"松江二中男生宿舍","lon":"121.248239","lat":"31.008033","category":"252","category_name":"楼宇机构","address":"上海松江区中山东路250号"},{"poiid":"B2094757D66EA4FC4999","title":"松江区有线电视中心营业厅","lon":"121.24808326","lat":"31.007485004","category":"500","category_name":"未知分类","address":"上海乐都路267号"},{"poiid":"B2094654DB6DAAFA429D","title":"方东小区(东大门)","lon":"121.25085","lat":"31.00703","category":"47","category_name":"住宅区","address":""},{"poiid":"B2094752D768A3F4449B","title":"泰晤士小镇","lon":"121.253052","lat":"31.005478","category":"250","category_name":"公园户外","address":"上海市，松江区，泰晤士小镇"},{"poiid":"B2094654DB6EA4F9469B","title":"谭火锅松江店","lon":"121.25529","lat":"31.00773","category":"86","category_name":"火锅店","address":"松江区中山东路6号"},{"poiid":"B2094750D16AA1FD419D","title":"星美国际影城上海松江店","lon":"121.254012","lat":"31.010243","category":"178","category_name":"电影院","address":"环城路515号玩库生活广场3层"},{"poiid":"B2094654DB6DAAF54992","title":"茸南苑","lon":"121.25484191749","lat":"31.007211033246","category":"47","category_name":"住宅区","address":"松汇东路115弄"},{"poiid":"B2094757D16AAAF44392","title":"松江鱼林港","lon":"121.255642303","lat":"31.0078518194","category":"86","category_name":"火锅店","address":"松江区环城路加油站附近(松东路口)"},{"poiid":"B2094757D16EA0FE4792","title":"九峰实验中学","lon":"121.24777","lat":"31.01044","category":"253","category_name":"校园生活","address":"松江区中山街道方塔北路319号(方塔北路松江环城路)"},{"poiid":"B2094654DB6AA6FF439D","title":"方塔公园","lon":"121.24581","lat":"31.00652","category":"196","category_name":"公园","address":"松江区中山东路235路"},{"poiid":"B2094757D06FA6F4479F","title":"星美乐莫国际影城","lon":"121.25474","lat":"31.00927","category":"178","category_name":"电影院","address":"松江区环城路515-555号LOMO玩库3楼(近松东路)"},{"poiid":"B2094757D068A4FC4593","title":"松江二中","lon":"121.247600486","lat":"31.0086362483","category":"55","category_name":"中学","address":"上海市松江区中山东路250号"},{"poiid":"B2094654DB6DAAFA439E","title":"松江方塔中医医院","lon":"121.25234","lat":"31.00686","category":"162","category_name":"医院","address":"松江区中山东路39号"},{"poiid":"B2094757D06BA0FB4793","title":"沁韵渔火","lon":"121.255016793","lat":"31.0103385638","category":"86","category_name":"火锅店","address":"松江区环城路518号(近LOMO玩库)"},{"poiid":"B2094654DB6DAAFA4399","title":"森活","lon":"121.25196","lat":"31.00845","category":"47","category_name":"住宅区","address":"松江区中山东路70号"},{"poiid":"B2094757D06AA5F8409C","title":"松江东门汽车站","lon":"121.251125","lat":"31.00162","category":"35","category_name":"长途汽车站","address":"上海松汇路环城路口"},{"poiid":"B2094757D464A7F8429A","title":"三德屋日本料理 松江店","lon":"121.25501924243","lat":"31.011631808326","category":"95","category_name":"日本料理","address":"松江区松东路50号甲(松东路松江环城路)"},{"poiid":"B2094654DB6EA4F94998","title":"川流不息 松东路店","lon":"121.25600829974","lat":"31.009959830294","category":"71","category_name":"四川菜","address":"松江区松东路(松东路俞塘路)"},{"poiid":"B2094654DB6EA2FF479D","title":"松江方塔","lon":"121.24651","lat":"31.00557","category":"240","category_name":"国家级景点","address":""},{"poiid":"B2094757D66EA4FF459B","title":"松江区 环城路","lon":"121.255793","lat":"31.009118","category":"500","category_name":"未知分类","address":"上海松江区 环城路"},{"poiid":"B2094750D76FA5F44992","title":"山沟沟土菜馆","lon":"121.247","lat":"31.0069","category":"87","category_name":"特色／地方风味餐厅","address":"松江区中山东路235号方塔附近"},{"poiid":"B2094757D06BA3F5439A","title":"曙光医院松江分院","lon":"121.252356269","lat":"31.0068563322","category":"162","category_name":"医院","address":"上海松江区中山东路39号"},{"poiid":"B2094757D16FA6F8419C","title":"松江博物馆","lon":"121.24649601","lat":"31.00604726","category":"179","category_name":"音乐厅","address":"松江区松江中山东路233号"},{"poiid":"B2094757D06FABF8419A","title":"方塔园","lon":"121.254","lat":"31.0069","category":"196","category_name":"公园","address":"松江区中山东路235号"},{"poiid":"B2094757D465A0F4429D","title":"渔太郎日本料理 松江店","lon":"121.25525040644","lat":"31.008629942312","category":"95","category_name":"日本料理","address":"松江区环城路340号(方塔小学对面)"},{"poiid":"B2094655D268A3FA4092","title":"格林豪泰上海松江松东酒店","lon":"121.25531","lat":"31.0093","category":"216","category_name":"经济型连锁酒店","address":"上海市松江区环城路421号(松东路口)"},{"poiid":"B2094654DB6DAAFA419F","title":"雯雯点心店","lon":"121.24949","lat":"31.00696","category":"112","category_name":"糕饼店","address":""},{"poiid":"B2094757D66AA5F9439B","title":"潮福城","lon":"121.254134054","lat":"31.010985793","category":"76","category_name":"上海菜","address":"松江区环城路550号(近松东路)"},{"poiid":"B2094654DB6EA2FF439D","title":"余天成药店方塔分店","lon":"121.24794","lat":"31.00728","category":"162","category_name":"医院","address":"中山东路170号"},{"poiid":"B2094654DB6DAAF44692","title":"松江区教师进修学院","lon":"121.24869","lat":"31.01007","category":"53","category_name":"成人教育","address":"方塔北路318"},{"poiid":"B2094757D06BA3FA419B","title":"西藏中路北京东路","lon":"121.24690246","lat":"31.007120132","category":"38","category_name":"公交车站","address":"上海西藏中路北京东路公交站"},{"poiid":"B2094654DB6EA2FF4698","title":"好德NO.230","lon":"121.24748","lat":"31.00689","category":"117","category_name":"便民商店/便利店","address":"中山东路163"},{"poiid":"B2094757D56EA0F9489A","title":"松江二中食堂","lon":"121.2452245","lat":"31.00858483","category":"68","category_name":"快餐厅","address":"松江区中山东路250号(近方塔北路)"},{"poiid":"B2094654DB6EA4F9479F","title":"灵盛河鲜馆","lon":"121.25534","lat":"31.01055","category":"76","category_name":"上海菜","address":"松江区松东路21号(近环城路)"},{"poiid":"B2094654DB6EA2FF489A","title":"松江科技馆","lon":"121.24504","lat":"31.00654","category":"186","category_name":"科技馆","address":"中山东路237"},{"poiid":"B2094655D26FAAFC409D","title":"中山东路180弄小区","lon":"121.24675","lat":"31.00747","category":"47","category_name":"住宅区","address":"中山东路180弄"},{"poiid":"B2094654DB6DAAFA429B","title":"好德便利NO.872","lon":"121.24961","lat":"31.00697","category":"117","category_name":"便民商店/便利店","address":"方塔东一村23号"},{"poiid":"B2094655D36DA7F8449E","title":"中山东路","lon":"121.24404","lat":"31.00703","category":"38","category_name":"公交车站","address":""},{"poiid":"B2094654DB64A0FC489B","title":"新华书店(松江·中山东路)","lon":"121.24806","lat":"31.00689","category":"125","category_name":"书店","address":""},{"poiid":"B2094750DA6CA0F9439F","title":"方塔幼儿园","lon":"121.250198","lat":"31.007705","category":"57","category_name":"幼儿园","address":"方塔东村25号"},{"poiid":"B2094654DB6EA2FF479A","title":"天天瓜子店","lon":"121.24675","lat":"31.00687","category":"117","category_name":"便民商店/便利店","address":"松江区中山东路211号"},{"poiid":"B2094655D268A4FD449A","title":"方塔西村","lon":"121.24783","lat":"31.006462","category":"47","category_name":"住宅区","address":"方塔南路"},{"poiid":"B2094655D26FAAFC409F","title":"中山东路180弄小区(南门)","lon":"121.24678","lat":"31.00724","category":"47","category_name":"住宅区","address":"中山东路180弄"},{"poiid":"B2094655D268A3FD4193","title":"玩库","lon":"121.25411","lat":"31.0103","category":"119","category_name":"商场","address":""},{"poiid":"B2094654DB6EA2FE489A","title":"九峰实验学校","lon":"121.24749","lat":"31.01071","category":"55","category_name":"中学","address":"松江区方塔北路319"},{"poiid":"B2094654DB6EA2FE489B","title":"天主教上海教区邱家湾天主堂","lon":"121.24782","lat":"31.00955","category":"245","category_name":"教堂","address":"方塔北路10号"},{"poiid":"B2094655D26FABF54992","title":"中山东路120弄小区","lon":"121.25002","lat":"31.00773","category":"47","category_name":"住宅区","address":"中山东路120弄"},{"poiid":"B2094655D268A2FC4393","title":"紫罗兰大酒店松江店","lon":"121.255","lat":"31.00467","category":"70","category_name":"综合酒楼","address":"松江区环城路86号"},{"poiid":"B2094750D06CA1FA4992","title":"唛酷量版ktv","lon":"121.253372","lat":"31.009998","category":"170","category_name":"KTV","address":null},{"poiid":"B2094655D26FABF54099","title":"中山东路120弄小区(南门)","lon":"121.25001","lat":"31.00736","category":"47","category_name":"住宅区","address":"中山东路120弄"},{"poiid":"B2094757D169A3FF409A","title":"松江二中男生宿舍","lon":"121.248239","lat":"31.008033","category":"252","category_name":"楼宇机构","address":"上海松江区中山东路250号"},{"poiid":"B2094757D66EA4FC4999","title":"松江区有线电视中心营业厅","lon":"121.24808326","lat":"31.007485004","category":"500","category_name":"未知分类","address":"上海乐都路267号"},{"poiid":"B2094654DB6DAAFA429D","title":"方东小区(东大门)","lon":"121.25085","lat":"31.00703","category":"47","category_name":"住宅区","address":""},{"poiid":"B2094752D768A3F4449B","title":"泰晤士小镇","lon":"121.253052","lat":"31.005478","category":"250","category_name":"公园户外","address":"上海市，松江区，泰晤士小镇"},{"poiid":"B2094654DB6EA4F9469B","title":"谭火锅松江店","lon":"121.25529","lat":"31.00773","category":"86","category_name":"火锅店","address":"松江区中山东路6号"},{"poiid":"B2094750D16AA1FD419D","title":"星美国际影城上海松江店","lon":"121.254012","lat":"31.010243","category":"178","category_name":"电影院","address":"环城路515号玩库生活广场3层"},{"poiid":"B2094654DB6DAAF54992","title":"茸南苑","lon":"121.25484191749","lat":"31.007211033246","category":"47","category_name":"住宅区","address":"松汇东路115弄"},{"poiid":"B2094757D16AAAF44392","title":"松江鱼林港","lon":"121.255642303","lat":"31.0078518194","category":"86","category_name":"火锅店","address":"松江区环城路加油站附近(松东路口)"},{"poiid":"B2094757D16EA0FE4792","title":"九峰实验中学","lon":"121.24777","lat":"31.01044","category":"253","category_name":"校园生活","address":"松江区中山街道方塔北路319号(方塔北路松江环城路)"}]