[{"poiid":"B2094757D06FA3FF499A","title":"中国平安","lon":"121.67144775","lat":"31.234863281","category":"500","category_name":"未知分类","address":"浦东新区上丰路1288号中国平安3号门"},{"poiid":"B2094757D064AAFC499C","title":"平安银行总部","lon":"121.66731908","lat":"31.236925229","category":"500","category_name":"未知分类","address":"上海浦东新区上丰路1158号"},{"poiid":"B2094757D06BA7FE489E","title":"金领国际","lon":"121.680493","lat":"31.253423","category":"252","category_name":"楼宇机构","address":"浦东新区川沙路1666号"},{"poiid":"B2094757D064A4FD489F","title":"兴业银行","lon":"121.66909638","lat":"31.247178922","category":"150","category_name":"银行","address":"上海来安路500号"},{"poiid":"B2094757DA64A3FF4192","title":"恒生商业广场","lon":"121.680043","lat":"31.241123","category":"252","category_name":"楼宇机构","address":"浦东新区上丰路(近金枫公园)"},{"poiid":"B2094757D66EA1F8459A","title":"招商银行信用卡中心","lon":"121.67261178","lat":"31.247633065","category":"150","category_name":"银行","address":"上海华东路来安路"},{"poiid":"B2094655D36CA6F54999","title":"大湾","lon":"121.68476","lat":"31.24371","category":"38","category_name":"公交车站","address":""},{"poiid":"B2094757D06BA7F4439F","title":"中国太平共享服务中心","lon":"121.67594917","lat":"31.232002288","category":"500","category_name":"未知分类","address":"上海张江卡园三路"},{"poiid":"B2094757D165A6FE4693","title":"中国银联园区","lon":"121.66524308","lat":"31.233610156","category":"500","category_name":"未知分类","address":"上海市浦东新区顾唐路1699号"},{"poiid":"B2094655D26BA2FE439A","title":"王港","lon":"121.68574","lat":"31.23727","category":"38","category_name":"公交车站","address":""},{"poiid":"B2094654DA6AAAFE489C","title":"金盛佳苑","lon":"121.68645","lat":"31.242142","category":"47","category_name":"住宅区","address":"胜利路30弄"},{"poiid":"B2094654DA6AAAFE4798","title":"鑫港苑","lon":"121.68105","lat":"31.241295","category":"47","category_name":"住宅区","address":"上海浦东新区虹盛路250弄"},{"poiid":"B2094654DA6AAAFE479B","title":"金枫公寓","lon":"121.68266","lat":"31.238955","category":"47","category_name":"住宅区","address":"虹盛东路39弄"},{"poiid":"B2094654DB64A3F4469F","title":"如家酒店","lon":"121.68334","lat":"31.23436","category":"216","category_name":"经济型连锁酒店","address":"浦东新区龙东大道5385号"},{"poiid":"B2094750DB65A2F5429E","title":"肯德基(恒生广场店)","lon":"121.680969","lat":"31.239988","category":"68","category_name":"快餐厅","address":"浦东新区上丰路1772-1784号1楼恒生商业广场内(近王港路)"},{"poiid":"B2094654DA6BA1FF4492","title":"同景苑","lon":"121.67756","lat":"31.24457","category":"47","category_name":"住宅区","address":"上海云雅路400弄"},{"poiid":"B2094750D76DAAFC489E","title":"蜀膳传火锅传奇(恒生广场店)","lon":"121.683","lat":"31.2368","category":"86","category_name":"火锅店","address":"浦东新区虹盛路253号恒生商业广场2楼(近上丰路)"},{"poiid":"B2094757D064A6FB469D","title":"同馨苑","lon":"121.684","lat":"31.2496","category":"252","category_name":"楼宇机构","address":"云雅路337号等单号"},{"poiid":"B2094654DA6AAAFE4593","title":"王港镇卫生院","lon":"121.68304","lat":"31.23668","category":"162","category_name":"医院","address":"浦东新区虹盛路25"},{"poiid":"B2094654DA6AAAFE4698","title":"新雅小区","lon":"121.68414","lat":"31.236547","category":"47","category_name":"住宅区","address":"新雅路90弄"},{"poiid":"B2094752D36CA7F94499","title":"新川饮食店","lon":"121.683679","lat":"31.237079","category":"247","category_name":"餐饮美食","address":null},{"poiid":"B2094654DA6AAAFE4693","title":"虹盛小区","lon":"121.68169","lat":"31.237766","category":"47","category_name":"住宅区","address":"虹盛路107弄"},{"poiid":"B2094654DA6BA3FC4499","title":"华昌小区","lon":"121.68414","lat":"31.238461","category":"47","category_name":"住宅区","address":"上海市浦东新区川沙路2278弄"},{"poiid":"B2094654DA6BA1FF469D","title":"金枫豪苑","lon":"121.68059","lat":"31.238508","category":"47","category_name":"住宅区","address":"金枫豪苑位于浦东虹盛路160弄"},{"poiid":"B2094757D16EA4F9479D","title":"上海期货交易所","lon":"121.679198747","lat":"31.2485499627","category":"263","category_name":"公司","address":"上海来安路996号"},{"poiid":"B2094654DA6BA1F8499C","title":"世纪华联(川沙路)","lon":"121.68627","lat":"31.2363","category":"118","category_name":"超级市场","address":"川沙路2459"},{"poiid":"B2094655D36DA1F5449C","title":"小湾","lon":"121.68753","lat":"31.22754","category":"38","category_name":"公交车站","address":""},{"poiid":"B2094654DA6BA1F9469F","title":"浦东新区王港镇图书馆","lon":"121.68192","lat":"31.23607","category":"181","category_name":"图书馆","address":""},{"poiid":"B2094757D168A2F44198","title":"永达英菲尼迪","lon":"121.683334","lat":"31.234358","category":"500","category_name":"未知分类","address":"上海龙东大道"},{"poiid":"B2094757D16BABFB429E","title":"王港派出所","lon":"121.68105648","lat":"31.236153766","category":"609","category_name":"警察局","address":"上海浦东新区王港镇新雅路258号"},{"poiid":"B2094751D369A2F9479A","title":"四海游龙(恒生广场店)","lon":"121.68064","lat":"31.24087","category":"68","category_name":"快餐厅","address":"浦东新区虹盛路253号恒生商业广场1楼(近金枫公园)"},{"poiid":"B2094751D269A0FD4299","title":"喜粤美膳","lon":"121.677719","lat":"31.2401","category":"72","category_name":"广东菜","address":"浦东新区王港路177号恒生商业广场内(近上丰路)"},{"poiid":"B2094751D36AA0F5429E","title":"野人岛烤肉(上丰路店)","lon":"121.67899","lat":"31.24094","category":"68","category_name":"快餐厅","address":"浦东新区上丰路1750-1762号恒生商业广场2-8号3楼(近张江银行卡产业园)"},{"poiid":"B2094654DA6AAAFE459D","title":"中国农业银行川沙王港分理处","lon":"121.68304","lat":"31.23633","category":"150","category_name":"银行","address":"新雅路140号"},{"poiid":"B2094757D168A2F8499F","title":"黄兴路桥　991车站","lon":"121.68320468","lat":"31.236533921","category":"500","category_name":"未知分类","address":"上海黄兴路桥"},{"poiid":"B2094654DA6AA4FC409A","title":"王港新华书店","lon":"121.68336","lat":"31.23896","category":"125","category_name":"书店","address":"王港镇宏伟路104号"},{"poiid":"B2094752D26CA6FE499A","title":"芒不颠港式甜品(恒生商业广场店)","lon":"121.68047","lat":"31.24116","category":"67","category_name":"甜品店","address":"浦东新区虹盛路261号恒生商业广场内(近上丰路)"},{"poiid":"B2094757D16FA7FF409A","title":"金枫公园","lon":"121.68068","lat":"31.24207","category":"196","category_name":"公园","address":"浦东新区虹盛路(近彩雅路)"},{"poiid":"B2094757D16BA0FB4199","title":"工商银行","lon":"121.682752","lat":"31.234143","category":"150","category_name":"银行","address":"上海龙东大道5385号"},{"poiid":"B2094654DA6AAAFE4492","title":"中国建设银行上海龙东大道支行","lon":"121.68273","lat":"31.23425","category":"150","category_name":"银行","address":"浦东新区浦东新区丽雅路115-121号(丽雅路美雅路)"},{"poiid":"B2094757D66CA6F4419D","title":"王港中学","lon":"121.67827708","lat":"31.233159147","category":"55","category_name":"中学","address":"浦东新区龙东大道5237号"},{"poiid":"B2094654DA6BA1FF4792","title":"唐镇工商所","lon":"121.6806","lat":"31.2358","category":"250","category_name":"公园户外","address":"新雅路268"},{"poiid":"B2094655D36CA1F84593","title":"龙东大道东升路","lon":"121.69485","lat":"31.2361","category":"38","category_name":"公交车站","address":""},{"poiid":"B2094757D064A5FF4892","title":"牡丹江路","lon":"121.68923808","lat":"31.235939208","category":"500","category_name":"未知分类","address":"上海市宝山区牡丹江路"},{"poiid":"B2094757D16AA0FD479A","title":"中石化加油站(锦绣路罗山路口)","lon":"121.687864485","lat":"31.2339740649","category":"154","category_name":"加油加气站","address":"上海浦东新区锦绣路罗山路口"},{"poiid":"B2094752DB6BA6FB489B","title":"上海金球国际影城","lon":"121.680206","lat":"31.238831","category":"500","category_name":"未知分类","address":"上海市 浦东新区上丰路恒生广场1810弄B4栋"},{"poiid":"B2094654DA6BA3FC4298","title":"园缘圆婚纱摄影","lon":"121.68254","lat":"31.23467","category":"248","category_name":"生活娱乐","address":""},{"poiid":"B2094655D36DA2FA499A","title":"浦东运河大桥","lon":"121.69107","lat":"31.23545","category":"250","category_name":"公园户外","address":""},{"poiid":"B2094757D66FA6FF419D","title":"东胜路229号","lon":"121.689662185","lat":"31.2352718935","category":"500","category_name":"未知分类","address":"上海YFPOPD"},{"poiid":"B2094757D16CABF9409C","title":"凇宝路潮州海鲜粥 众所粥滋","lon":"121.689238085","lat":"31.2359392081","category":"500","category_name":"未知分类","address":"上海凇宝路"},{"poiid":"B2094757D06FA3FF499A","title":"中国平安","lon":"121.67144775","lat":"31.234863281","category":"500","category_name":"未知分类","address":"浦东新区上丰路1288号中国平安3号门"},{"poiid":"B2094757D064AAFC499C","title":"平安银行总部","lon":"121.66731908","lat":"31.236925229","category":"500","category_name":"未知分类","address":"上海浦东新区上丰路1158号"},{"poiid":"B2094757D06BA7FE489E","title":"金领国际","lon":"121.680493","lat":"31.253423","category":"252","category_name":"楼宇机构","address":"浦东新区川沙路1666号"},{"poiid":"B2094757D064A4FD489F","title":"兴业银行","lon":"121.66909638","lat":"31.247178922","category":"150","category_name":"银行","address":"上海来安路500号"},{"poiid":"B2094757DA64A3FF4192","title":"恒生商业广场","lon":"121.680043","lat":"31.241123","category":"252","category_name":"楼宇机构","address":"浦东新区上丰路(近金枫公园)"},{"poiid":"B2094757D66EA1F8459A","title":"招商银行信用卡中心","lon":"121.67261178","lat":"31.247633065","category":"150","category_name":"银行","address":"上海华东路来安路"},{"poiid":"B2094655D36CA6F54999","title":"大湾","lon":"121.68476","lat":"31.24371","category":"38","category_name":"公交车站","address":""},{"poiid":"B2094757D06BA7F4439F","title":"中国太平共享服务中心","lon":"121.67594917","lat":"31.232002288","category":"500","category_name":"未知分类","address":"上海张江卡园三路"},{"poiid":"B2094757D165A6FE4693","title":"中国银联园区","lon":"121.66524308","lat":"31.233610156","category":"500","category_name":"未知分类","address":"上海市浦东新区顾唐路1699号"},{"poiid":"B2094655D26BA2FE439A","title":"王港","lon":"121.68574","lat":"31.23727","category":"38","category_name":"公交车站","address":""},{"poiid":"B2094654DA6AAAFE489C","title":"金盛佳苑","lon":"121.68645","lat":"31.242142","category":"47","category_name":"住宅区","address":"胜利路30弄"},{"poiid":"B2094654DA6AAAFE4798","title":"鑫港苑","lon":"121.68105","lat":"31.241295","category":"47","category_name":"住宅区","address":"上海浦东新区虹盛路250弄"},{"poiid":"B2094654DA6AAAFE479B","title":"金枫公寓","lon":"121.68266","lat":"31.238955","category":"47","category_name":"住宅区","address":"虹盛东路39弄"},{"poiid":"B2094654DB64A3F4469F","title":"如家酒店","lon":"121.68334","lat":"31.23436","category":"216","category_name":"经济型连锁酒店","address":"浦东新区龙东大道5385号"},{"poiid":"B2094750DB65A2F5429E","title":"肯德基(恒生广场店)","lon":"121.680969","lat":"31.239988","category":"68","category_name":"快餐厅","address":"浦东新区上丰路1772-1784号1楼恒生商业广场内(近王港路)"},{"poiid":"B2094654DA6BA1FF4492","title":"同景苑","lon":"121.67756","lat":"31.24457","category":"47","category_name":"住宅区","address":"上海云雅路400弄"},{"poiid":"B2094750D76DAAFC489E","title":"蜀膳传火锅传奇(恒生广场店)","lon":"121.683","lat":"31.2368","category":"86","category_name":"火锅店","address":"浦东新区虹盛路253号恒生商业广场2楼(近上丰路)"},{"poiid":"B2094757D064A6FB469D","title":"同馨苑","lon":"121.684","lat":"31.2496","category":"252","category_name":"楼宇机构","address":"云雅路337号等单号"},{"poiid":"B2094654DA6AAAFE4593","title":"王港镇卫生院","lon":"121.68304","lat":"31.23668","category":"162","category_name":"医院","address":"浦东新区虹盛路25"},{"poiid":"B2094654DA6AAAFE4698","title":"新雅小区","lon":"121.68414","lat":"31.236547","category":"47","category_name":"住宅区","address":"新雅路90弄"},{"poiid":"B2094752D36CA7F94499","title":"新川饮食店","lon":"121.683679","lat":"31.237079","category":"247","category_name":"餐饮美食","address":null},{"poiid":"B2094654DA6AAAFE4693","title":"虹盛小区","lon":"121.68169","lat":"31.237766","category":"47","category_name":"住宅区","address":"虹盛路107弄"},{"poiid":"B2094654DA6BA3FC4499","title":"华昌小区","lon":"121.68414","lat":"31.238461","category":"47","category_name":"住宅区","address":"上海市浦东新区川沙路2278弄"},{"poiid":"B2094654DA6BA1FF469D","title":"金枫豪苑","lon":"121.68059","lat":"31.238508","category":"47","category_name":"住宅区","address":"金枫豪苑位于浦东虹盛路160弄"},{"poiid":"B2094757D16EA4F9479D","title":"上海期货交易所","lon":"121.679198747","lat":"31.2485499627","category":"263","category_name":"公司","address":"上海来安路996号"},{"poiid":"B2094654DA6BA1F8499C","title":"世纪华联(川沙路)","lon":"121.68627","lat":"31.2363","category":"118","category_name":"超级市场","address":"川沙路2459"},{"poiid":"B2094655D36DA1F5449C","title":"小湾","lon":"121.68753","lat":"31.22754","category":"38","category_name":"公交车站","address":""},{"poiid":"B2094654DA6BA1F9469F","title":"浦东新区王港镇图书馆","lon":"121.68192","lat":"31.23607","category":"181","category_name":"图书馆","address":""},{"poiid":"B2094757D168A2F44198","title":"永达英菲尼迪","lon":"121.683334","lat":"31.234358","category":"500","category_name":"未知分类","address":"上海龙东大道"},{"poiid":"B2094757D16BABFB429E","title":"王港派出所","lon":"121.68105648","lat":"31.236153766","category":"609","category_name":"警察局","address":"上海浦东新区王港镇新雅路258号"},{"poiid":"B2094751D369A2F9479A","title":"四海游龙(恒生广场店)","lon":"121.68064","lat":"31.24087","category":"68","category_name":"快餐厅","address":"浦东新区虹盛路253号恒生商业广场1楼(近金枫公园)"},{"poiid":"B2094751D269A0FD4299","title":"喜粤美膳","lon":"121.677719","lat":"31.2401","category":"72","category_name":"广东菜","address":"浦东新区王港路177号恒生商业广场内(近上丰路)"},{"poiid":"B2094751D36AA0F5429E","title":"野人岛烤肉(上丰路店)","lon":"121.67899","lat":"31.24094","category":"68","category_name":"快餐厅","address":"浦东新区上丰路1750-1762号恒生商业广场2-8号3楼(近张江银行卡产业园)"},{"poiid":"B2094654DA6AAAFE459D","title":"中国农业银行川沙王港分理处","lon":"121.68304","lat":"31.23633","category":"150","category_name":"银行","address":"新雅路140号"},{"poiid":"B2094757D168A2F8499F","title":"黄兴路桥　991车站","lon":"121.68320468","lat":"31.236533921","category":"500","category_name":"未知分类","address":"上海黄兴路桥"},{"poiid":"B2094654DA6AA4FC409A","title":"王港新华书店","lon":"121.68336","lat":"31.23896","category":"125","category_name":"书店","address":"王港镇宏伟路104号"},{"poiid":"B2094752D26CA6FE499A","title":"芒不颠港式甜品(恒生商业广场店)","lon":"121.68047","lat":"31.24116","category":"67","category_name":"甜品店","address":"浦东新区虹盛路261号恒生商业广场内(近上丰路)"},{"poiid":"B2094757D16FA7FF409A","title":"金枫公园","lon":"121.68068","lat":"31.24207","category":"196","category_name":"公园","address":"浦东新区虹盛路(近彩雅路)"},{"poiid":"B2094757D16BA0FB4199","title":"工商银行","lon":"121.682752","lat":"31.234143","category":"150","category_name":"银行","address":"上海龙东大道5385号"},{"poiid":"B2094654DA6AAAFE4492","title":"中国建设银行上海龙东大道支行","lon":"121.68273","lat":"31.23425","category":"150","category_name":"银行","address":"浦东新区浦东新区丽雅路115-121号(丽雅路美雅路)"},{"poiid":"B2094757D66CA6F4419D","title":"王港中学","lon":"121.67827708","lat":"31.233159147","category":"55","category_name":"中学","address":"浦东新区龙东大道5237号"},{"poiid":"B2094654DA6BA1FF4792","title":"唐镇工商所","lon":"121.6806","lat":"31.2358","category":"250","category_name":"公园户外","address":"新雅路268"},{"poiid":"B2094655D36CA1F84593","title":"龙东大道东升路","lon":"121.69485","lat":"31.2361","category":"38","category_name":"公交车站","address":""},{"poiid":"B2094757D064A5FF4892","title":"牡丹江路","lon":"121.68923808","lat":"31.235939208","category":"500","category_name":"未知分类","address":"上海市宝山区牡丹江路"},{"poiid":"B2094757D16AA0FD479A","title":"中石化加油站(锦绣路罗山路口)","lon":"121.687864485","lat":"31.2339740649","category":"154","category_name":"加油加气站","address":"上海浦东新区锦绣路罗山路口"},{"poiid":"B2094752DB6BA6FB489B","title":"上海金球国际影城","lon":"121.680206","lat":"31.238831","category":"500","category_name":"未知分类","address":"上海市 浦东新区上丰路恒生广场1810弄B4栋"},{"poiid":"B2094654DA6BA3FC4298","title":"园缘圆婚纱摄影","lon":"121.68254","lat":"31.23467","category":"248","category_name":"生活娱乐","address":""},{"poiid":"B2094655D36DA2FA499A","title":"浦东运河大桥","lon":"121.69107","lat":"31.23545","category":"250","category_name":"公园户外","address":""},{"poiid":"B2094757D66FA6FF419D","title":"东胜路229号","lon":"121.689662185","lat":"31.2352718935","category":"500","category_name":"未知分类","address":"上海YFPOPD"},{"poiid":"B2094757D16CABF9409C","title":"凇宝路潮州海鲜粥 众所粥滋","lon":"121.689238085","lat":"31.2359392081","category":"500","category_name":"未知分类","address":"上海凇宝路"},{"poiid":"B2094757D06FA3FF499A","title":"中国平安","lon":"121.67144775","lat":"31.234863281","category":"500","category_name":"未知分类","address":"浦东新区上丰路1288号中国平安3号门"},{"poiid":"B2094757D064AAFC499C","title":"平安银行总部","lon":"121.66731908","lat":"31.236925229","category":"500","category_name":"未知分类","address":"上海浦东新区上丰路1158号"},{"poiid":"B2094757D06BA7FE489E","title":"金领国际","lon":"121.680493","lat":"31.253423","category":"252","category_name":"楼宇机构","address":"浦东新区川沙路1666号"},{"poiid":"B2094757D064A4FD489F","title":"兴业银行","lon":"121.66909638","lat":"31.247178922","category":"150","category_name":"银行","address":"上海来安路500号"},{"poiid":"B2094757DA64A3FF4192","title":"恒生商业广场","lon":"121.680043","lat":"31.241123","category":"252","category_name":"楼宇机构","address":"浦东新区上丰路(近金枫公园)"},{"poiid":"B2094757D66EA1F8459A","title":"招商银行信用卡中心","lon":"121.67261178","lat":"31.247633065","category":"150","category_name":"银行","address":"上海华东路来安路"},{"poiid":"B2094655D36CA6F54999","title":"大湾","lon":"121.68476","lat":"31.24371","category":"38","category_name":"公交车站","address":""},{"poiid":"B2094757D06BA7F4439F","title":"中国太平共享服务中心","lon":"121.67594917","lat":"31.232002288","category":"500","category_name":"未知分类","address":"上海张江卡园三路"},{"poiid":"B2094757D165A6FE4693","title":"中国银联园区","lon":"121.66524308","lat":"31.233610156","category":"500","category_name":"未知分类","address":"上海市浦东新区顾唐路1699号"},{"poiid":"B2094655D26BA2FE439A","title":"王港","lon":"121.68574","lat":"31.23727","category":"38","category_name":"公交车站","address":""},{"poiid":"B2094654DA6AAAFE489C","title":"金盛佳苑","lon":"121.68645","lat":"31.242142","category":"47","category_name":"住宅区","address":"胜利路30弄"},{"poiid":"B2094654DA6AAAFE4798","title":"鑫港苑","lon":"121.68105","lat":"31.241295","category":"47","category_name":"住宅区","address":"上海浦东新区虹盛路250弄"},{"poiid":"B2094654DA6AAAFE479B","title":"金枫公寓","lon":"121.68266","lat":"31.238955","category":"47","category_name":"住宅区","address":"虹盛东路39弄"},{"poiid":"B2094654DB64A3F4469F","title":"如家酒店","lon":"121.68334","lat":"31.23436","category":"216","category_name":"经济型连锁酒店","address":"浦东新区龙东大道5385号"},{"poiid":"B2094750DB65A2F5429E","title":"肯德基(恒生广场店)","lon":"121.680969","lat":"31.239988","category":"68","category_name":"快餐厅","address":"浦东新区上丰路1772-1784号1楼恒生商业广场内(近王港路)"},{"poiid":"B2094654DA6BA1FF4492","title":"同景苑","lon":"121.67756","lat":"31.24457","category":"47","category_name":"住宅区","address":"上海云雅路400弄"},{"poiid":"B2094750D76DAAFC489E","title":"蜀膳传火锅传奇(恒生广场店)","lon":"121.683","lat":"31.2368","category":"86","category_name":"火锅店","address":"浦东新区虹盛路253号恒生商业广场2楼(近上丰路)"},{"poiid":"B2094757D064A6FB469D","title":"同馨苑","lon":"121.684","lat":"31.2496","category":"252","category_name":"楼宇机构","address":"云雅路337号等单号"},{"poiid":"B2094654DA6AAAFE4593","title":"王港镇卫生院","lon":"121.68304","lat":"31.23668","category":"162","category_name":"医院","address":"浦东新区虹盛路25"},{"poiid":"B2094654DA6AAAFE4698","title":"新雅小区","lon":"121.68414","lat":"31.236547","category":"47","category_name":"住宅区","address":"新雅路90弄"},{"poiid":"B2094752D36CA7F94499","title":"新川饮食店","lon":"121.683679","lat":"31.237079","category":"247","category_name":"餐饮美食","address":null},{"poiid":"B2094654DA6AAAFE4693","title":"虹盛小区","lon":"121.68169","lat":"31.237766","category":"47","category_name":"住宅区","address":"虹盛路107弄"},{"poiid":"B2094654DA6BA3FC4499","title":"华昌小区","lon":"121.68414","lat":"31.238461","category":"47","category_name":"住宅区","address":"上海市浦东新区川沙路2278弄"},{"poiid":"B2094654DA6BA1FF469D","title":"金枫豪苑","lon":"121.68059","lat":"31.238508","category":"47","category_name":"住宅区","address":"金枫豪苑位于浦东虹盛路160弄"},{"poiid":"B2094757D16EA4F9479D","title":"上海期货交易所","lon":"121.679198747","lat":"31.2485499627","category":"263","category_name":"公司","address":"上海来安路996号"},{"poiid":"B2094654DA6BA1F8499C","title":"世纪华联(川沙路)","lon":"121.68627","lat":"31.2363","category":"118","category_name":"超级市场","address":"川沙路2459"},{"poiid":"B2094655D36DA1F5449C","title":"小湾","lon":"121.68753","lat":"31.22754","category":"38","category_name":"公交车站","address":""},{"poiid":"B2094654DA6BA1F9469F","title":"浦东新区王港镇图书馆","lon":"121.68192","lat":"31.23607","category":"181","category_name":"图书馆","address":""},{"poiid":"B2094757D168A2F44198","title":"永达英菲尼迪","lon":"121.683334","lat":"31.234358","category":"500","category_name":"未知分类","address":"上海龙东大道"},{"poiid":"B2094757D16BABFB429E","title":"王港派出所","lon":"121.68105648","lat":"31.236153766","category":"609","category_name":"警察局","address":"上海浦东新区王港镇新雅路258号"},{"poiid":"B2094751D369A2F9479A","title":"四海游龙(恒生广场店)","lon":"121.68064","lat":"31.24087","category":"68","category_name":"快餐厅","address":"浦东新区虹盛路253号恒生商业广场1楼(近金枫公园)"},{"poiid":"B2094751D269A0FD4299","title":"喜粤美膳","lon":"121.677719","lat":"31.2401","category":"72","category_name":"广东菜","address":"浦东新区王港路177号恒生商业广场内(近上丰路)"},{"poiid":"B2094751D36AA0F5429E","title":"野人岛烤肉(上丰路店)","lon":"121.67899","lat":"31.24094","category":"68","category_name":"快餐厅","address":"浦东新区上丰路1750-1762号恒生商业广场2-8号3楼(近张江银行卡产业园)"},{"poiid":"B2094654DA6AAAFE459D","title":"中国农业银行川沙王港分理处","lon":"121.68304","lat":"31.23633","category":"150","category_name":"银行","address":"新雅路140号"},{"poiid":"B2094757D168A2F8499F","title":"黄兴路桥　991车站","lon":"121.68320468","lat":"31.236533921","category":"500","category_name":"未知分类","address":"上海黄兴路桥"},{"poiid":"B2094654DA6AA4FC409A","title":"王港新华书店","lon":"121.68336","lat":"31.23896","category":"125","category_name":"书店","address":"王港镇宏伟路104号"},{"poiid":"B2094752D26CA6FE499A","title":"芒不颠港式甜品(恒生商业广场店)","lon":"121.68047","lat":"31.24116","category":"67","category_name":"甜品店","address":"浦东新区虹盛路261号恒生商业广场内(近上丰路)"},{"poiid":"B2094757D16FA7FF409A","title":"金枫公园","lon":"121.68068","lat":"31.24207","category":"196","category_name":"公园","address":"浦东新区虹盛路(近彩雅路)"},{"poiid":"B2094757D16BA0FB4199","title":"工商银行","lon":"121.682752","lat":"31.234143","category":"150","category_name":"银行","address":"上海龙东大道5385号"},{"poiid":"B2094654DA6AAAFE4492","title":"中国建设银行上海龙东大道支行","lon":"121.68273","lat":"31.23425","category":"150","category_name":"银行","address":"浦东新区浦东新区丽雅路115-121号(丽雅路美雅路)"},{"poiid":"B2094757D66CA6F4419D","title":"王港中学","lon":"121.67827708","lat":"31.233159147","category":"55","category_name":"中学","address":"浦东新区龙东大道5237号"},{"poiid":"B2094654DA6BA1FF4792","title":"唐镇工商所","lon":"121.6806","lat":"31.2358","category":"250","category_name":"公园户外","address":"新雅路268"},{"poiid":"B2094655D36CA1F84593","title":"龙东大道东升路","lon":"121.69485","lat":"31.2361","category":"38","category_name":"公交车站","address":""},{"poiid":"B2094757D064A5FF4892","title":"牡丹江路","lon":"121.68923808","lat":"31.235939208","category":"500","category_name":"未知分类","address":"上海市宝山区牡丹江路"},{"poiid":"B2094757D16AA0FD479A","title":"中石化加油站(锦绣路罗山路口)","lon":"121.687864485","lat":"31.2339740649","category":"154","category_name":"加油加气站","address":"上海浦东新区锦绣路罗山路口"},{"poiid":"B2094752DB6BA6FB489B","title":"上海金球国际影城","lon":"121.680206","lat":"31.238831","category":"500","category_name":"未知分类","address":"上海市 浦东新区上丰路恒生广场1810弄B4栋"},{"poiid":"B2094654DA6BA3FC4298","title":"园缘圆婚纱摄影","lon":"121.68254","lat":"31.23467","category":"248","category_name":"生活娱乐","address":""},{"poiid":"B2094655D36DA2FA499A","title":"浦东运河大桥","lon":"121.69107","lat":"31.23545","category":"250","category_name":"公园户外","address":""},{"poiid":"B2094757D66FA6FF419D","title":"东胜路229号","lon":"121.689662185","lat":"31.2352718935","category":"500","category_name":"未知分类","address":"上海YFPOPD"},{"poiid":"B2094757D16CABF9409C","title":"凇宝路潮州海鲜粥 众所粥滋","lon":"121.689238085","lat":"31.2359392081","category":"500","category_name":"未知分类","address":"上海凇宝路"},{"poiid":"B2094757D06FA3FF499A","title":"中国平安","lon":"121.67144775","lat":"31.234863281","category":"500","category_name":"未知分类","address":"浦东新区上丰路1288号中国平安3号门"},{"poiid":"B2094757D064AAFC499C","title":"平安银行总部","lon":"121.66731908","lat":"31.236925229","category":"500","category_name":"未知分类","address":"上海浦东新区上丰路1158号"},{"poiid":"B2094757D06BA7FE489E","title":"金领国际","lon":"121.680493","lat":"31.253423","category":"252","category_name":"楼宇机构","address":"浦东新区川沙路1666号"},{"poiid":"B2094757D064A4FD489F","title":"兴业银行","lon":"121.66909638","lat":"31.247178922","category":"150","category_name":"银行","address":"上海来安路500号"},{"poiid":"B2094757DA64A3FF4192","title":"恒生商业广场","lon":"121.680043","lat":"31.241123","category":"252","category_name":"楼宇机构","address":"浦东新区上丰路(近金枫公园)"},{"poiid":"B2094757D66EA1F8459A","title":"招商银行信用卡中心","lon":"121.67261178","lat":"31.247633065","category":"150","category_name":"银行","address":"上海华东路来安路"},{"poiid":"B2094655D36CA6F54999","title":"大湾","lon":"121.68476","lat":"31.24371","category":"38","category_name":"公交车站","address":""},{"poiid":"B2094757D06BA7F4439F","title":"中国太平共享服务中心","lon":"121.67594917","lat":"31.232002288","category":"500","category_name":"未知分类","address":"上海张江卡园三路"},{"poiid":"B2094757D165A6FE4693","title":"中国银联园区","lon":"121.66524308","lat":"31.233610156","category":"500","category_name":"未知分类","address":"上海市浦东新区顾唐路1699号"},{"poiid":"B2094655D26BA2FE439A","title":"王港","lon":"121.68574","lat":"31.23727","category":"38","category_name":"公交车站","address":""},{"poiid":"B2094654DA6AAAFE489C","title":"金盛佳苑","lon":"121.68645","lat":"31.242142","category":"47","category_name":"住宅区","address":"胜利路30弄"},{"poiid":"B2094654DA6AAAFE4798","title":"鑫港苑","lon":"121.68105","lat":"31.241295","category":"47","category_name":"住宅区","address":"上海浦东新区虹盛路250弄"},{"poiid":"B2094654DA6AAAFE479B","title":"金枫公寓","lon":"121.68266","lat":"31.238955","category":"47","category_name":"住宅区","address":"虹盛东路39弄"},{"poiid":"B2094654DB64A3F4469F","title":"如家酒店","lon":"121.68334","lat":"31.23436","category":"216","category_name":"经济型连锁酒店","address":"浦东新区龙东大道5385号"},{"poiid":"B2094750DB65A2F5429E","title":"肯德基(恒生广场店)","lon":"121.680969","lat":"31.239988","category":"68","category_name":"快餐厅","address":"浦东新区上丰路1772-1784号1楼恒生商业广场内(近王港路)"},{"poiid":"B2094654DA6BA1FF4492","title":"同景苑","lon":"121.67756","lat":"31.24457","category":"47","category_name":"住宅区","address":"上海云雅路400弄"},{"poiid":"B2094750D76DAAFC489E","title":"蜀膳传火锅传奇(恒生广场店)","lon":"121.683","lat":"31.2368","category":"86","category_name":"火锅店","address":"浦东新区虹盛路253号恒生商业广场2楼(近上丰路)"},{"poiid":"B2094757D064A6FB469D","title":"同馨苑","lon":"121.684","lat":"31.2496","category":"252","category_name":"楼宇机构","address":"云雅路337号等单号"},{"poiid":"B2094654DA6AAAFE4593","title":"王港镇卫生院","lon":"121.68304","lat":"31.23668","category":"162","category_name":"医院","address":"浦东新区虹盛路25"},{"poiid":"B2094654DA6AAAFE4698","title":"新雅小区","lon":"121.68414","lat":"31.236547","category":"47","category_name":"住宅区","address":"新雅路90弄"},{"poiid":"B2094752D36CA7F94499","title":"新川饮食店","lon":"121.683679","lat":"31.237079","category":"247","category_name":"餐饮美食","address":null},{"poiid":"B2094654DA6AAAFE4693","title":"虹盛小区","lon":"121.68169","lat":"31.237766","category":"47","category_name":"住宅区","address":"虹盛路107弄"},{"poiid":"B2094654DA6BA3FC4499","title":"华昌小区","lon":"121.68414","lat":"31.238461","category":"47","category_name":"住宅区","address":"上海市浦东新区川沙路2278弄"},{"poiid":"B2094654DA6BA1FF469D","title":"金枫豪苑","lon":"121.68059","lat":"31.238508","category":"47","category_name":"住宅区","address":"金枫豪苑位于浦东虹盛路160弄"},{"poiid":"B2094757D16EA4F9479D","title":"上海期货交易所","lon":"121.679198747","lat":"31.2485499627","category":"263","category_name":"公司","address":"上海来安路996号"},{"poiid":"B2094654DA6BA1F8499C","title":"世纪华联(川沙路)","lon":"121.68627","lat":"31.2363","category":"118","category_name":"超级市场","address":"川沙路2459"},{"poiid":"B2094655D36DA1F5449C","title":"小湾","lon":"121.68753","lat":"31.22754","category":"38","category_name":"公交车站","address":""},{"poiid":"B2094654DA6BA1F9469F","title":"浦东新区王港镇图书馆","lon":"121.68192","lat":"31.23607","category":"181","category_name":"图书馆","address":""},{"poiid":"B2094757D168A2F44198","title":"永达英菲尼迪","lon":"121.683334","lat":"31.234358","category":"500","category_name":"未知分类","address":"上海龙东大道"},{"poiid":"B2094757D16BABFB429E","title":"王港派出所","lon":"121.68105648","lat":"31.236153766","category":"609","category_name":"警察局","address":"上海浦东新区王港镇新雅路258号"},{"poiid":"B2094751D369A2F9479A","title":"四海游龙(恒生广场店)","lon":"121.68064","lat":"31.24087","category":"68","category_name":"快餐厅","address":"浦东新区虹盛路253号恒生商业广场1楼(近金枫公园)"},{"poiid":"B2094751D269A0FD4299","title":"喜粤美膳","lon":"121.677719","lat":"31.2401","category":"72","category_name":"广东菜","address":"浦东新区王港路177号恒生商业广场内(近上丰路)"},{"poiid":"B2094751D36AA0F5429E","title":"野人岛烤肉(上丰路店)","lon":"121.67899","lat":"31.24094","category":"68","category_name":"快餐厅","address":"浦东新区上丰路1750-1762号恒生商业广场2-8号3楼(近张江银行卡产业园)"},{"poiid":"B2094654DA6AAAFE459D","title":"中国农业银行川沙王港分理处","lon":"121.68304","lat":"31.23633","category":"150","category_name":"银行","address":"新雅路140号"},{"poiid":"B2094757D168A2F8499F","title":"黄兴路桥　991车站","lon":"121.68320468","lat":"31.236533921","category":"500","category_name":"未知分类","address":"上海黄兴路桥"},{"poiid":"B2094654DA6AA4FC409A","title":"王港新华书店","lon":"121.68336","lat":"31.23896","category":"125","category_name":"书店","address":"王港镇宏伟路104号"},{"poiid":"B2094752D26CA6FE499A","title":"芒不颠港式甜品(恒生商业广场店)","lon":"121.68047","lat":"31.24116","category":"67","category_name":"甜品店","address":"浦东新区虹盛路261号恒生商业广场内(近上丰路)"},{"poiid":"B2094757D16FA7FF409A","title":"金枫公园","lon":"121.68068","lat":"31.24207","category":"196","category_name":"公园","address":"浦东新区虹盛路(近彩雅路)"},{"poiid":"B2094757D16BA0FB4199","title":"工商银行","lon":"121.682752","lat":"31.234143","category":"150","category_name":"银行","address":"上海龙东大道5385号"},{"poiid":"B2094654DA6AAAFE4492","title":"中国建设银行上海龙东大道支行","lon":"121.68273","lat":"31.23425","category":"150","category_name":"银行","address":"浦东新区浦东新区丽雅路115-121号(丽雅路美雅路)"},{"poiid":"B2094757D66CA6F4419D","title":"王港中学","lon":"121.67827708","lat":"31.233159147","category":"55","category_name":"中学","address":"浦东新区龙东大道5237号"},{"poiid":"B2094654DA6BA1FF4792","title":"唐镇工商所","lon":"121.6806","lat":"31.2358","category":"250","category_name":"公园户外","address":"新雅路268"},{"poiid":"B2094655D36CA1F84593","title":"龙东大道东升路","lon":"121.69485","lat":"31.2361","category":"38","category_name":"公交车站","address":""},{"poiid":"B2094757D064A5FF4892","title":"牡丹江路","lon":"121.68923808","lat":"31.235939208","category":"500","category_name":"未知分类","address":"上海市宝山区牡丹江路"},{"poiid":"B2094757D16AA0FD479A","title":"中石化加油站(锦绣路罗山路口)","lon":"121.687864485","lat":"31.2339740649","category":"154","category_name":"加油加气站","address":"上海浦东新区锦绣路罗山路口"},{"poiid":"B2094752DB6BA6FB489B","title":"上海金球国际影城","lon":"121.680206","lat":"31.238831","category":"500","category_name":"未知分类","address":"上海市 浦东新区上丰路恒生广场1810弄B4栋"},{"poiid":"B2094654DA6BA3FC4298","title":"园缘圆婚纱摄影","lon":"121.68254","lat":"31.23467","category":"248","category_name":"生活娱乐","address":""},{"poiid":"B2094655D36DA2FA499A","title":"浦东运河大桥","lon":"121.69107","lat":"31.23545","category":"250","category_name":"公园户外","address":""},{"poiid":"B2094757D66FA6FF419D","title":"东胜路229号","lon":"121.689662185","lat":"31.2352718935","category":"500","category_name":"未知分类","address":"上海YFPOPD"},{"poiid":"B2094757D16CABF9409C","title":"凇宝路潮州海鲜粥 众所粥滋","lon":"121.689238085","lat":"31.2359392081","category":"500","category_name":"未知分类","address":"上海凇宝路"}]