[{"poiid":"B2094654DB64A2FC4293","title":"上海佘山国家森林公园","lon":"121.19633","lat":"31.09534","category":"240","category_name":"国家级景点","address":"松江区佘山镇外青松公路"},{"poiid":"B2094654DA6BABFF479E","title":"世茂佘山艾美酒店 (Le Méridien She Shan Shanghai)","lon":"121.20545","lat":"31.09526","category":"268","category_name":"自助","address":"松江区林荫新路1288号世茂佘山艾美酒店内(近月湖公园)"},{"poiid":"B2094757D06FA6F8419A","title":"佘山天主教堂","lon":"121.19495357","lat":"31.092315826","category":"245","category_name":"教堂","address":"松江区松江佘山镇西佘山山顶"},{"poiid":"B2094757D069A1F54993","title":"月湖会馆","lon":"121.2005313","lat":"31.099746398","category":"217","category_name":"旅馆招待所","address":"上海佘山国家旅游度假区佘北路158号"},{"poiid":"B2094757D06FA2FC4293","title":"月湖雕塑公园","lon":"121.21370491","lat":"31.102339066","category":"196","category_name":"公园","address":"松江区佘山镇村荫新路1158号"},{"poiid":"B2094753D764A0FC489C","title":"玛雅海滩水公园","lon":"121.208877","lat":"31.093067","category":"250","category_name":"公园户外","address":"佘山镇林湖路888号"},{"poiid":"B2094753D46CA1FC469F","title":"上海玛雅海滩水公园","lon":"121.210037","lat":"31.096334","category":"500","category_name":"未知分类","address":"上海市 上海市松江佘山玛雅海滩水公园"},{"poiid":"B2094757D068ABFA459A","title":"佘山国家森林公园西佘山园","lon":"121.185321405","lat":"31.0939654865","category":"196","category_name":"公园","address":"上海近郊松江佘山镇塔弄"},{"poiid":"B2094655D26FA4FC4392","title":"上海佘山国家森林公园东佘山园","lon":"121.20191","lat":"31.09649","category":"250","category_name":"公园户外","address":"东佘山园位于市郊古城松江北部10.5公里，距市中心35公里处"},{"poiid":"B2094757D06BA5FA4993","title":"兰笋山庄","lon":"121.198113286","lat":"31.0950694059","category":"216","category_name":"经济型连锁酒店","address":"松江区佘山外青松公路9269号(东佘山麓索道旁)"},{"poiid":"B2094655D36DA0F94992","title":"野马浜","lon":"121.17719","lat":"31.10766","category":"38","category_name":"公交车站","address":"野马浜25号宿舍楼"},{"poiid":"B2094757D069A2FC4792","title":"上海政法学院主教A座","lon":"121.176063196","lat":"31.1093503572","category":"52","category_name":"高等院校","address":"上海外青松公路7989号"},{"poiid":"B2094757D06AA3FD4898","title":"陈坊桥","lon":"121.18872833","lat":"31.100570678","category":"500","category_name":"未知分类","address":"上海松江佘山陈坊桥"},{"poiid":"B2094757D068ABF8449D","title":"佘山森林宾馆","lon":"121.197178287","lat":"31.0952594087","category":"215","category_name":"三星级宾馆","address":"松江区外青松公路9259号"},{"poiid":"B2094757D06FA2F44098","title":"上海天文博物馆","lon":"121.1888551","lat":"31.0926714","category":"182","category_name":"博物馆","address":"松江区外青松公路西佘山北门"},{"poiid":"B2094757D665A0FB4992","title":"月湖珍","lon":"121.194574054","lat":"31.098654793","category":"257","category_name":"中餐厅","address":"松江区佘山国家旅游度假区林荫新路1158号(近月圆园雕塑公园)"},{"poiid":"B2094757D66CA2FD409D","title":"汇鼎楼","lon":"121.192622196","lat":"31.099258141","category":"247","category_name":"餐饮美食","address":"上海市松江区佘山镇外青松公路8928号"},{"poiid":"B2094654DA6BA4FB489A","title":"世茂佘山庄园","lon":"121.199262","lat":"31.108645","category":"47","category_name":"住宅区","address":"松江区佘北公路518弄"},{"poiid":"B2094654DA6BABFB439B","title":"佘山新苑","lon":"121.19506","lat":"31.100262","category":"47","category_name":"住宅区","address":"桃源路2弄"},{"poiid":"B2094655D36DA7FB469B","title":"佘山天文台","lon":"121.19643","lat":"31.09585","category":"38","category_name":"公交车站","address":""},{"poiid":"B2094654DA6BA4F84992","title":"兰笋小区","lon":"121.19335","lat":"31.100204","category":"47","category_name":"住宅区","address":"兰笋小区"},{"poiid":"B2094654DA6BABFB4292","title":"佘山森林宾馆壹号楼","lon":"121.19704","lat":"31.0975","category":"215","category_name":"三星级宾馆","address":"上海松江区佘山外青松公路9259号"},{"poiid":"B2094757D065AAF5499D","title":"佘山3号","lon":"121.199027","lat":"31.111064","category":"47","category_name":"住宅区","address":"松江区佘山镇泗陈公路4388号"},{"poiid":"B2094757D065A3FA4499","title":"佘山森林宾馆阳光餐厅","lon":"121.19732","lat":"31.09713","category":"76","category_name":"上海菜","address":"松江区松江佘山塔路(近西佘山入山口)"},{"poiid":"B2094757D16DA4F9499C","title":"上海晶园","lon":"121.197109","lat":"31.107287","category":"500","category_name":"未知分类","address":"上海市松江区佘北公路389弄"},{"poiid":"B2094654DA6BABFB4393","title":"东霞小区","lon":"121.19089","lat":"31.09982","category":"47","category_name":"住宅区","address":"佘山镇"},{"poiid":"B2094654DA6BA4FA429E","title":"阿三饭店","lon":"121.18775","lat":"31.10022","category":"257","category_name":"中餐厅","address":"松江区香水路(近桃源路)"},{"poiid":"B2094757D06AA7F9469B","title":"三品香小菜(桃源路店)","lon":"121.17972","lat":"31.09862","category":"76","category_name":"上海菜","address":"松江区佘山镇桃源路371号"},{"poiid":"B2094757D66FA7FD4698","title":"鸡公煲烤鱼骨头火锅","lon":"121.19062219","lat":"31.099181139","category":"247","category_name":"餐饮美食","address":"上海陈坊桥"},{"poiid":"B2094654DA6BA4F9419A","title":"华联超市(桃源路)","lon":"121.19014","lat":"31.0998","category":"118","category_name":"超级市场","address":""},{"poiid":"B2094654DA6BA4F9419F","title":"福缘居","lon":"121.1895","lat":"31.0999","category":"87","category_name":"特色／地方风味餐厅","address":"松江区佘山风景区对面"},{"poiid":"B2094654DA6BA4F8499A","title":"佘山影剧院","lon":"121.187358","lat":"31.100594","category":"178","category_name":"电影院","address":"西霞路32"},{"poiid":"B2094757D66EA7FD409B","title":"朱家角汤圆店","lon":"121.18685","lat":"31.100592","category":"247","category_name":"餐饮美食","address":"上海朱家角古镇老街"},{"poiid":"B2094655D26EA6F94299","title":"兰笋山庄餐厅","lon":"121.19814","lat":"31.09438","category":"257","category_name":"中餐厅","address":"外青松公路9269号近沪青平公路"},{"poiid":"B2094757D06BA7FA4392","title":"月湖轩 Lake View","lon":"121.20537567139","lat":"31.095104217529","category":"72","category_name":"广东菜","address":"松江区佘山林荫新路1288号世茂佘山艾美酒店5楼"},{"poiid":"B2094757DA6FA3FF4493","title":"上海星晟桃园","lon":"121.187472999998","lat":"31.1009199999997","category":"250","category_name":"公园户外","address":"松江区佘山镇内"},{"poiid":"B2094654DA6BABFF449B","title":"蜀干鸡公煲佘山店","lon":"121.18611","lat":"31.10059","category":"247","category_name":"餐饮美食","address":""},{"poiid":"B2094654DA6BA4F4409D","title":"上海移动通信公司佘山培训中心","lon":"121.19319","lat":"31.09189","category":"190","category_name":"培训机构","address":"环山路"},{"poiid":"B2094757D16DAAFF4692","title":"松浦度假村","lon":"121.18942329","lat":"31.096562432","category":"217","category_name":"旅馆招待所","address":"松江区佘山环山路2号"},{"poiid":"B2094654DA6BABFE479E","title":"翠谷小区","lon":"121.17895","lat":"31.099634","category":"47","category_name":"住宅区","address":"漕溪路125弄"},{"poiid":"B2094654DA6BA4F84698","title":"东地科技园","lon":"121.19075","lat":"31.10988","category":"45","category_name":"产业园区","address":"泗陈公路3666"},{"poiid":"B2094757D56EA0F9459B","title":"比比馒头(松江店)","lon":"121.1961937","lat":"31.09544343","category":"247","category_name":"餐饮美食","address":"松江区文汇路800弄松江大学城三期"},{"poiid":"B2094654DA6BA4F9469F","title":"快客NO.6534","lon":"121.18657","lat":"31.09901","category":"117","category_name":"便民商店/便利店","address":"佘山镇"},{"poiid":"B2094757D069AAFA489B","title":"佘山移动培训中心","lon":"121.187189","lat":"31.099573","category":"500","category_name":"未知分类","address":"上海佘山脚下"},{"poiid":"B2094757D66EA0FC4199","title":"佘山59号","lon":"121.20185119","lat":"31.107865325","category":"47","category_name":"住宅区","address":"上海市松江区泗陈公路"},{"poiid":"B2094654DA6BABFB4492","title":"佘山派出所","lon":"121.18768","lat":"31.10058","category":"609","category_name":"警察局","address":"松江区陈坊桥西霞路30号"},{"poiid":"B2094757D16BA0FD409B","title":"哈里欧咖啡(佘山店)","lon":"121.18805","lat":"31.09965","category":"260","category_name":"其他","address":"松江区佘山商业中心香水路10弄15-17号"},{"poiid":"B2094757D06BA3F9409F","title":"上海政法学院A8","lon":"121.18014719","lat":"31.11371445","category":"500","category_name":"未知分类","address":"上海青浦区外青松公路7989号"},{"poiid":"B2094654DA6BABFB419C","title":"国家森林公园(外青松公路)","lon":"121.20083","lat":"31.08971","category":"196","category_name":"公园","address":""},{"poiid":"B2094757D168AAFE459B","title":"世贸佘山庄园","lon":"121.19631019","lat":"31.110744387","category":"500","category_name":"未知分类","address":"上海市松江区陶干路"},{"poiid":"B2094654DB64A2FC4293","title":"上海佘山国家森林公园","lon":"121.19633","lat":"31.09534","category":"240","category_name":"国家级景点","address":"松江区佘山镇外青松公路"},{"poiid":"B2094654DA6BABFF479E","title":"世茂佘山艾美酒店 (Le Méridien She Shan Shanghai)","lon":"121.20545","lat":"31.09526","category":"268","category_name":"自助","address":"松江区林荫新路1288号世茂佘山艾美酒店内(近月湖公园)"},{"poiid":"B2094757D06FA6F8419A","title":"佘山天主教堂","lon":"121.19495357","lat":"31.092315826","category":"245","category_name":"教堂","address":"松江区松江佘山镇西佘山山顶"},{"poiid":"B2094757D069A1F54993","title":"月湖会馆","lon":"121.2005313","lat":"31.099746398","category":"217","category_name":"旅馆招待所","address":"上海佘山国家旅游度假区佘北路158号"},{"poiid":"B2094757D06FA2FC4293","title":"月湖雕塑公园","lon":"121.21370491","lat":"31.102339066","category":"196","category_name":"公园","address":"松江区佘山镇村荫新路1158号"},{"poiid":"B2094753D764A0FC489C","title":"玛雅海滩水公园","lon":"121.208877","lat":"31.093067","category":"250","category_name":"公园户外","address":"佘山镇林湖路888号"},{"poiid":"B2094753D46CA1FC469F","title":"上海玛雅海滩水公园","lon":"121.210037","lat":"31.096334","category":"500","category_name":"未知分类","address":"上海市 上海市松江佘山玛雅海滩水公园"},{"poiid":"B2094757D068ABFA459A","title":"佘山国家森林公园西佘山园","lon":"121.185321405","lat":"31.0939654865","category":"196","category_name":"公园","address":"上海近郊松江佘山镇塔弄"},{"poiid":"B2094655D26FA4FC4392","title":"上海佘山国家森林公园东佘山园","lon":"121.20191","lat":"31.09649","category":"250","category_name":"公园户外","address":"东佘山园位于市郊古城松江北部10.5公里，距市中心35公里处"},{"poiid":"B2094757D06BA5FA4993","title":"兰笋山庄","lon":"121.198113286","lat":"31.0950694059","category":"216","category_name":"经济型连锁酒店","address":"松江区佘山外青松公路9269号(东佘山麓索道旁)"},{"poiid":"B2094655D36DA0F94992","title":"野马浜","lon":"121.17719","lat":"31.10766","category":"38","category_name":"公交车站","address":"野马浜25号宿舍楼"},{"poiid":"B2094757D069A2FC4792","title":"上海政法学院主教A座","lon":"121.176063196","lat":"31.1093503572","category":"52","category_name":"高等院校","address":"上海外青松公路7989号"},{"poiid":"B2094757D06AA3FD4898","title":"陈坊桥","lon":"121.18872833","lat":"31.100570678","category":"500","category_name":"未知分类","address":"上海松江佘山陈坊桥"},{"poiid":"B2094757D068ABF8449D","title":"佘山森林宾馆","lon":"121.197178287","lat":"31.0952594087","category":"215","category_name":"三星级宾馆","address":"松江区外青松公路9259号"},{"poiid":"B2094757D06FA2F44098","title":"上海天文博物馆","lon":"121.1888551","lat":"31.0926714","category":"182","category_name":"博物馆","address":"松江区外青松公路西佘山北门"},{"poiid":"B2094757D665A0FB4992","title":"月湖珍","lon":"121.194574054","lat":"31.098654793","category":"257","category_name":"中餐厅","address":"松江区佘山国家旅游度假区林荫新路1158号(近月圆园雕塑公园)"},{"poiid":"B2094757D66CA2FD409D","title":"汇鼎楼","lon":"121.192622196","lat":"31.099258141","category":"247","category_name":"餐饮美食","address":"上海市松江区佘山镇外青松公路8928号"},{"poiid":"B2094654DA6BA4FB489A","title":"世茂佘山庄园","lon":"121.199262","lat":"31.108645","category":"47","category_name":"住宅区","address":"松江区佘北公路518弄"},{"poiid":"B2094654DA6BABFB439B","title":"佘山新苑","lon":"121.19506","lat":"31.100262","category":"47","category_name":"住宅区","address":"桃源路2弄"},{"poiid":"B2094655D36DA7FB469B","title":"佘山天文台","lon":"121.19643","lat":"31.09585","category":"38","category_name":"公交车站","address":""},{"poiid":"B2094654DA6BA4F84992","title":"兰笋小区","lon":"121.19335","lat":"31.100204","category":"47","category_name":"住宅区","address":"兰笋小区"},{"poiid":"B2094654DA6BABFB4292","title":"佘山森林宾馆壹号楼","lon":"121.19704","lat":"31.0975","category":"215","category_name":"三星级宾馆","address":"上海松江区佘山外青松公路9259号"},{"poiid":"B2094757D065AAF5499D","title":"佘山3号","lon":"121.199027","lat":"31.111064","category":"47","category_name":"住宅区","address":"松江区佘山镇泗陈公路4388号"},{"poiid":"B2094757D065A3FA4499","title":"佘山森林宾馆阳光餐厅","lon":"121.19732","lat":"31.09713","category":"76","category_name":"上海菜","address":"松江区松江佘山塔路(近西佘山入山口)"},{"poiid":"B2094757D16DA4F9499C","title":"上海晶园","lon":"121.197109","lat":"31.107287","category":"500","category_name":"未知分类","address":"上海市松江区佘北公路389弄"},{"poiid":"B2094654DA6BABFB4393","title":"东霞小区","lon":"121.19089","lat":"31.09982","category":"47","category_name":"住宅区","address":"佘山镇"},{"poiid":"B2094654DA6BA4FA429E","title":"阿三饭店","lon":"121.18775","lat":"31.10022","category":"257","category_name":"中餐厅","address":"松江区香水路(近桃源路)"},{"poiid":"B2094757D06AA7F9469B","title":"三品香小菜(桃源路店)","lon":"121.17972","lat":"31.09862","category":"76","category_name":"上海菜","address":"松江区佘山镇桃源路371号"},{"poiid":"B2094757D66FA7FD4698","title":"鸡公煲烤鱼骨头火锅","lon":"121.19062219","lat":"31.099181139","category":"247","category_name":"餐饮美食","address":"上海陈坊桥"},{"poiid":"B2094654DA6BA4F9419A","title":"华联超市(桃源路)","lon":"121.19014","lat":"31.0998","category":"118","category_name":"超级市场","address":""},{"poiid":"B2094654DA6BA4F9419F","title":"福缘居","lon":"121.1895","lat":"31.0999","category":"87","category_name":"特色／地方风味餐厅","address":"松江区佘山风景区对面"},{"poiid":"B2094654DA6BA4F8499A","title":"佘山影剧院","lon":"121.187358","lat":"31.100594","category":"178","category_name":"电影院","address":"西霞路32"},{"poiid":"B2094757D66EA7FD409B","title":"朱家角汤圆店","lon":"121.18685","lat":"31.100592","category":"247","category_name":"餐饮美食","address":"上海朱家角古镇老街"},{"poiid":"B2094655D26EA6F94299","title":"兰笋山庄餐厅","lon":"121.19814","lat":"31.09438","category":"257","category_name":"中餐厅","address":"外青松公路9269号近沪青平公路"},{"poiid":"B2094757D06BA7FA4392","title":"月湖轩 Lake View","lon":"121.20537567139","lat":"31.095104217529","category":"72","category_name":"广东菜","address":"松江区佘山林荫新路1288号世茂佘山艾美酒店5楼"},{"poiid":"B2094757DA6FA3FF4493","title":"上海星晟桃园","lon":"121.187472999998","lat":"31.1009199999997","category":"250","category_name":"公园户外","address":"松江区佘山镇内"},{"poiid":"B2094654DA6BABFF449B","title":"蜀干鸡公煲佘山店","lon":"121.18611","lat":"31.10059","category":"247","category_name":"餐饮美食","address":""},{"poiid":"B2094654DA6BA4F4409D","title":"上海移动通信公司佘山培训中心","lon":"121.19319","lat":"31.09189","category":"190","category_name":"培训机构","address":"环山路"},{"poiid":"B2094757D16DAAFF4692","title":"松浦度假村","lon":"121.18942329","lat":"31.096562432","category":"217","category_name":"旅馆招待所","address":"松江区佘山环山路2号"},{"poiid":"B2094654DA6BABFE479E","title":"翠谷小区","lon":"121.17895","lat":"31.099634","category":"47","category_name":"住宅区","address":"漕溪路125弄"},{"poiid":"B2094654DA6BA4F84698","title":"东地科技园","lon":"121.19075","lat":"31.10988","category":"45","category_name":"产业园区","address":"泗陈公路3666"},{"poiid":"B2094757D56EA0F9459B","title":"比比馒头(松江店)","lon":"121.1961937","lat":"31.09544343","category":"247","category_name":"餐饮美食","address":"松江区文汇路800弄松江大学城三期"},{"poiid":"B2094654DA6BA4F9469F","title":"快客NO.6534","lon":"121.18657","lat":"31.09901","category":"117","category_name":"便民商店/便利店","address":"佘山镇"},{"poiid":"B2094757D069AAFA489B","title":"佘山移动培训中心","lon":"121.187189","lat":"31.099573","category":"500","category_name":"未知分类","address":"上海佘山脚下"},{"poiid":"B2094757D66EA0FC4199","title":"佘山59号","lon":"121.20185119","lat":"31.107865325","category":"47","category_name":"住宅区","address":"上海市松江区泗陈公路"},{"poiid":"B2094654DA6BABFB4492","title":"佘山派出所","lon":"121.18768","lat":"31.10058","category":"609","category_name":"警察局","address":"松江区陈坊桥西霞路30号"},{"poiid":"B2094757D16BA0FD409B","title":"哈里欧咖啡(佘山店)","lon":"121.18805","lat":"31.09965","category":"260","category_name":"其他","address":"松江区佘山商业中心香水路10弄15-17号"},{"poiid":"B2094757D06BA3F9409F","title":"上海政法学院A8","lon":"121.18014719","lat":"31.11371445","category":"500","category_name":"未知分类","address":"上海青浦区外青松公路7989号"},{"poiid":"B2094654DA6BABFB419C","title":"国家森林公园(外青松公路)","lon":"121.20083","lat":"31.08971","category":"196","category_name":"公园","address":""},{"poiid":"B2094757D168AAFE459B","title":"世贸佘山庄园","lon":"121.19631019","lat":"31.110744387","category":"500","category_name":"未知分类","address":"上海市松江区陶干路"},{"poiid":"B2094654DB64A2FC4293","title":"上海佘山国家森林公园","lon":"121.19633","lat":"31.09534","category":"240","category_name":"国家级景点","address":"松江区佘山镇外青松公路"},{"poiid":"B2094654DA6BABFF479E","title":"世茂佘山艾美酒店 (Le Méridien She Shan Shanghai)","lon":"121.20545","lat":"31.09526","category":"268","category_name":"自助","address":"松江区林荫新路1288号世茂佘山艾美酒店内(近月湖公园)"},{"poiid":"B2094757D06FA6F8419A","title":"佘山天主教堂","lon":"121.19495357","lat":"31.092315826","category":"245","category_name":"教堂","address":"松江区松江佘山镇西佘山山顶"},{"poiid":"B2094757D069A1F54993","title":"月湖会馆","lon":"121.2005313","lat":"31.099746398","category":"217","category_name":"旅馆招待所","address":"上海佘山国家旅游度假区佘北路158号"},{"poiid":"B2094757D06FA2FC4293","title":"月湖雕塑公园","lon":"121.21370491","lat":"31.102339066","category":"196","category_name":"公园","address":"松江区佘山镇村荫新路1158号"},{"poiid":"B2094753D764A0FC489C","title":"玛雅海滩水公园","lon":"121.208877","lat":"31.093067","category":"250","category_name":"公园户外","address":"佘山镇林湖路888号"},{"poiid":"B2094753D46CA1FC469F","title":"上海玛雅海滩水公园","lon":"121.210037","lat":"31.096334","category":"500","category_name":"未知分类","address":"上海市 上海市松江佘山玛雅海滩水公园"},{"poiid":"B2094757D068ABFA459A","title":"佘山国家森林公园西佘山园","lon":"121.185321405","lat":"31.0939654865","category":"196","category_name":"公园","address":"上海近郊松江佘山镇塔弄"},{"poiid":"B2094655D26FA4FC4392","title":"上海佘山国家森林公园东佘山园","lon":"121.20191","lat":"31.09649","category":"250","category_name":"公园户外","address":"东佘山园位于市郊古城松江北部10.5公里，距市中心35公里处"},{"poiid":"B2094757D06BA5FA4993","title":"兰笋山庄","lon":"121.198113286","lat":"31.0950694059","category":"216","category_name":"经济型连锁酒店","address":"松江区佘山外青松公路9269号(东佘山麓索道旁)"},{"poiid":"B2094655D36DA0F94992","title":"野马浜","lon":"121.17719","lat":"31.10766","category":"38","category_name":"公交车站","address":"野马浜25号宿舍楼"},{"poiid":"B2094757D069A2FC4792","title":"上海政法学院主教A座","lon":"121.176063196","lat":"31.1093503572","category":"52","category_name":"高等院校","address":"上海外青松公路7989号"},{"poiid":"B2094757D06AA3FD4898","title":"陈坊桥","lon":"121.18872833","lat":"31.100570678","category":"500","category_name":"未知分类","address":"上海松江佘山陈坊桥"},{"poiid":"B2094757D068ABF8449D","title":"佘山森林宾馆","lon":"121.197178287","lat":"31.0952594087","category":"215","category_name":"三星级宾馆","address":"松江区外青松公路9259号"},{"poiid":"B2094757D06FA2F44098","title":"上海天文博物馆","lon":"121.1888551","lat":"31.0926714","category":"182","category_name":"博物馆","address":"松江区外青松公路西佘山北门"},{"poiid":"B2094757D665A0FB4992","title":"月湖珍","lon":"121.194574054","lat":"31.098654793","category":"257","category_name":"中餐厅","address":"松江区佘山国家旅游度假区林荫新路1158号(近月圆园雕塑公园)"},{"poiid":"B2094757D66CA2FD409D","title":"汇鼎楼","lon":"121.192622196","lat":"31.099258141","category":"247","category_name":"餐饮美食","address":"上海市松江区佘山镇外青松公路8928号"},{"poiid":"B2094654DA6BA4FB489A","title":"世茂佘山庄园","lon":"121.199262","lat":"31.108645","category":"47","category_name":"住宅区","address":"松江区佘北公路518弄"},{"poiid":"B2094654DA6BABFB439B","title":"佘山新苑","lon":"121.19506","lat":"31.100262","category":"47","category_name":"住宅区","address":"桃源路2弄"},{"poiid":"B2094655D36DA7FB469B","title":"佘山天文台","lon":"121.19643","lat":"31.09585","category":"38","category_name":"公交车站","address":""},{"poiid":"B2094654DA6BA4F84992","title":"兰笋小区","lon":"121.19335","lat":"31.100204","category":"47","category_name":"住宅区","address":"兰笋小区"},{"poiid":"B2094654DA6BABFB4292","title":"佘山森林宾馆壹号楼","lon":"121.19704","lat":"31.0975","category":"215","category_name":"三星级宾馆","address":"上海松江区佘山外青松公路9259号"},{"poiid":"B2094757D065AAF5499D","title":"佘山3号","lon":"121.199027","lat":"31.111064","category":"47","category_name":"住宅区","address":"松江区佘山镇泗陈公路4388号"},{"poiid":"B2094757D065A3FA4499","title":"佘山森林宾馆阳光餐厅","lon":"121.19732","lat":"31.09713","category":"76","category_name":"上海菜","address":"松江区松江佘山塔路(近西佘山入山口)"},{"poiid":"B2094757D16DA4F9499C","title":"上海晶园","lon":"121.197109","lat":"31.107287","category":"500","category_name":"未知分类","address":"上海市松江区佘北公路389弄"},{"poiid":"B2094654DA6BABFB4393","title":"东霞小区","lon":"121.19089","lat":"31.09982","category":"47","category_name":"住宅区","address":"佘山镇"},{"poiid":"B2094654DA6BA4FA429E","title":"阿三饭店","lon":"121.18775","lat":"31.10022","category":"257","category_name":"中餐厅","address":"松江区香水路(近桃源路)"},{"poiid":"B2094757D06AA7F9469B","title":"三品香小菜(桃源路店)","lon":"121.17972","lat":"31.09862","category":"76","category_name":"上海菜","address":"松江区佘山镇桃源路371号"},{"poiid":"B2094757D66FA7FD4698","title":"鸡公煲烤鱼骨头火锅","lon":"121.19062219","lat":"31.099181139","category":"247","category_name":"餐饮美食","address":"上海陈坊桥"},{"poiid":"B2094654DA6BA4F9419A","title":"华联超市(桃源路)","lon":"121.19014","lat":"31.0998","category":"118","category_name":"超级市场","address":""},{"poiid":"B2094654DA6BA4F9419F","title":"福缘居","lon":"121.1895","lat":"31.0999","category":"87","category_name":"特色／地方风味餐厅","address":"松江区佘山风景区对面"},{"poiid":"B2094654DA6BA4F8499A","title":"佘山影剧院","lon":"121.187358","lat":"31.100594","category":"178","category_name":"电影院","address":"西霞路32"},{"poiid":"B2094757D66EA7FD409B","title":"朱家角汤圆店","lon":"121.18685","lat":"31.100592","category":"247","category_name":"餐饮美食","address":"上海朱家角古镇老街"},{"poiid":"B2094655D26EA6F94299","title":"兰笋山庄餐厅","lon":"121.19814","lat":"31.09438","category":"257","category_name":"中餐厅","address":"外青松公路9269号近沪青平公路"},{"poiid":"B2094757D06BA7FA4392","title":"月湖轩 Lake View","lon":"121.20537567139","lat":"31.095104217529","category":"72","category_name":"广东菜","address":"松江区佘山林荫新路1288号世茂佘山艾美酒店5楼"},{"poiid":"B2094757DA6FA3FF4493","title":"上海星晟桃园","lon":"121.187472999998","lat":"31.1009199999997","category":"250","category_name":"公园户外","address":"松江区佘山镇内"},{"poiid":"B2094654DA6BABFF449B","title":"蜀干鸡公煲佘山店","lon":"121.18611","lat":"31.10059","category":"247","category_name":"餐饮美食","address":""},{"poiid":"B2094654DA6BA4F4409D","title":"上海移动通信公司佘山培训中心","lon":"121.19319","lat":"31.09189","category":"190","category_name":"培训机构","address":"环山路"},{"poiid":"B2094757D16DAAFF4692","title":"松浦度假村","lon":"121.18942329","lat":"31.096562432","category":"217","category_name":"旅馆招待所","address":"松江区佘山环山路2号"},{"poiid":"B2094654DA6BABFE479E","title":"翠谷小区","lon":"121.17895","lat":"31.099634","category":"47","category_name":"住宅区","address":"漕溪路125弄"},{"poiid":"B2094654DA6BA4F84698","title":"东地科技园","lon":"121.19075","lat":"31.10988","category":"45","category_name":"产业园区","address":"泗陈公路3666"},{"poiid":"B2094757D56EA0F9459B","title":"比比馒头(松江店)","lon":"121.1961937","lat":"31.09544343","category":"247","category_name":"餐饮美食","address":"松江区文汇路800弄松江大学城三期"},{"poiid":"B2094654DA6BA4F9469F","title":"快客NO.6534","lon":"121.18657","lat":"31.09901","category":"117","category_name":"便民商店/便利店","address":"佘山镇"},{"poiid":"B2094757D069AAFA489B","title":"佘山移动培训中心","lon":"121.187189","lat":"31.099573","category":"500","category_name":"未知分类","address":"上海佘山脚下"},{"poiid":"B2094757D66EA0FC4199","title":"佘山59号","lon":"121.20185119","lat":"31.107865325","category":"47","category_name":"住宅区","address":"上海市松江区泗陈公路"},{"poiid":"B2094654DA6BABFB4492","title":"佘山派出所","lon":"121.18768","lat":"31.10058","category":"609","category_name":"警察局","address":"松江区陈坊桥西霞路30号"},{"poiid":"B2094757D16BA0FD409B","title":"哈里欧咖啡(佘山店)","lon":"121.18805","lat":"31.09965","category":"260","category_name":"其他","address":"松江区佘山商业中心香水路10弄15-17号"},{"poiid":"B2094757D06BA3F9409F","title":"上海政法学院A8","lon":"121.18014719","lat":"31.11371445","category":"500","category_name":"未知分类","address":"上海青浦区外青松公路7989号"},{"poiid":"B2094654DA6BABFB419C","title":"国家森林公园(外青松公路)","lon":"121.20083","lat":"31.08971","category":"196","category_name":"公园","address":""},{"poiid":"B2094757D168AAFE459B","title":"世贸佘山庄园","lon":"121.19631019","lat":"31.110744387","category":"500","category_name":"未知分类","address":"上海市松江区陶干路"}]