[{"poiid":"B2094655D269ABFD469B","title":"静安寺","lon":"121.44552","lat":"31.22324","category":"244","category_name":"寺庙道观","address":"静安区南京西路1686号(近静安寺)"},{"poiid":"B2094655D268A6F5449B","title":"翠华餐厅 富民路店 Tsui Wah Restaurant","lon":"121.452124054","lat":"31.217478793","category":"72","category_name":"广东菜","address":"静安区富民路291号悟锦世纪大厦内(长乐路口)"},{"poiid":"B2094655D26EA5F8409A","title":"保罗酒家","lon":"121.45205","lat":"31.21782","category":"257","category_name":"中餐厅","address":"静安区富民路271号(近长乐路)"},{"poiid":"B2094753D76FAAFA449C","title":"上海滩国泰旗舰店","lon":"121.466011","lat":"31.216125","category":"249","category_name":"购物服务","address":"淮海中路868号"},{"poiid":"B209475CD564A7F84292","title":"上海滩新天地店","lon":"121.47463","lat":"31.22164","category":"119","category_name":"商场","address":"\"太仓路181弄新天地北里15号\r\n\""},{"poiid":"B209475CD564A7F8439E","title":"上海滩中信泰富店","lon":"121.45602","lat":"31.22851","category":"119","category_name":"商场","address":"\"南京西路1168号中信泰富广场，店铺号221.\r\n\""},{"poiid":"B2094757D469A1F44499","title":"No.88酒吧 No.88 Bar","lon":"121.451729054","lat":"31.217383793","category":"172","category_name":"酒吧","address":"静安区富民路291号悟锦世纪大厦2楼(长乐路口)"},{"poiid":"B2094757D06FA2F94992","title":"Nepali Kitchen","lon":"121.45022","lat":"31.21855","category":"110","category_name":"其他亚洲菜","address":"静安区巨鹿路819弄4号(近富民路)"},{"poiid":"B2094750D268A1F54699","title":"宫","lon":"121.450805","lat":"31.217145","category":"260","category_name":"其他","address":"徐汇区长乐路764弄2号前门(近华亭路)"},{"poiid":"B2094757D06FABFA459A","title":"dr.wine","lon":"121.45114394","lat":"31.219256726","category":"65","category_name":"咖啡厅","address":"上海富民路177号(近巨鹿路)"},{"poiid":"B2094757D068A6FD499D","title":"Bistro Burger","lon":"121.45293","lat":"31.21705","category":"94","category_name":"西餐厅","address":"静安区富民路291号悟锦世纪大厦1楼(长乐路口)"},{"poiid":"B2094757D06FA1FF459E","title":"PHO REAL(富民路店)","lon":"121.45148","lat":"31.21822","category":"99","category_name":"泰国／越南菜品餐厅","address":"静安区富民路166号(近长乐路)"},{"poiid":"B2094757D06FA0F54398","title":"CANTINA AGAVE 富民路店","lon":"121.452071054","lat":"31.217879793","category":"94","category_name":"西餐厅","address":"静安区富民路291号悟锦世纪大厦1楼01A-2室(长乐路口)"},{"poiid":"B2094757D06FA4FB4792","title":"zen cafe","lon":"121.44974","lat":"31.21571","category":"65","category_name":"咖啡厅","address":"徐汇区东平路7-1号(近衡山路)"},{"poiid":"B2094757D068A4FF459C","title":"荧七","lon":"121.45033424","lat":"31.217746436","category":"172","category_name":"酒吧","address":"上海巨鹿路"},{"poiid":"B2094654DB69A6F94798","title":"新都里无二 Shintori 2","lon":"121.45023441444","lat":"31.219697165107","category":"95","category_name":"日本料理","address":"静安区巨鹿路803号(近富民路)"},{"poiid":"B2094757D06FA1FC469B","title":"Dolce Vita Italian","lon":"121.45246925","lat":"31.2171414317","category":"94","category_name":"西餐厅","address":"静安区富民路291号悟锦世纪大厦内(长乐路口)"},{"poiid":"B2094757D068ABFC4098","title":"CLUB VIETNAM","lon":"121.44839","lat":"31.21765","category":"99","category_name":"泰国／越南菜品餐厅","address":"静安区巨鹿路889号11-12号楼(近常熟路)"},{"poiid":"B2094757D06FA5FC489D","title":"Le Creme Milano(富民路店)","lon":"121.451104","lat":"31.219465","category":"67","category_name":"甜品店","address":"静安区富民路173号(富民路巨鹿路)"},{"poiid":"B2094757D068A2FD4299","title":"新乐路","lon":"121.45293426","lat":"31.216962814","category":"47","category_name":"住宅区","address":"上海新乐路"},{"poiid":"B2094757D06FA1FD429F","title":"狠牛独创牛肉面馆(富民路店)","lon":"121.45243","lat":"31.21706","category":"68","category_name":"快餐厅","address":"静安区富民路291号悟锦世纪大厦1楼3B(长乐路口)"},{"poiid":"B2094757D06FA5FB409B","title":"毛豆阿姨","lon":"121.44856","lat":"31.21619","category":"76","category_name":"上海菜","address":"静安区常熟路115弄5号(近长乐路)"},{"poiid":"B2094757D068A0F54292","title":"Mo'laksa","lon":"121.452731586","lat":"31.2169611715","category":"110","category_name":"其他亚洲菜","address":"上海长乐路208号(近东湖路)"},{"poiid":"B2094757D06FA6FB439F","title":"香啡缤(富民路店)","lon":"121.45256","lat":"31.21711","category":"260","category_name":"其他","address":"静安区富民路291号悟锦世纪大厦内(长乐路口)"},{"poiid":"B2094757D06FA2F4499F","title":"董大师金牌稻香蛙(延庆路店)","lon":"121.4514","lat":"31.21504","category":"71","category_name":"四川菜","address":"徐汇区延庆路92号(近华亭路)"},{"poiid":"B2094757D068A4FF439D","title":"BALI LAGUNA","lon":"121.45022583","lat":"31.219125747","category":"172","category_name":"酒吧","address":"上海静安区南京西路1649号(静安公园内)"},{"poiid":"B2094751DB6CA4FD469E","title":"Vino Tapas","lon":"121.45196","lat":"31.21775","category":"247","category_name":"餐饮美食","address":"卢湾区富民路259号(近长乐路)"},{"poiid":"B2094752D66AABF84698","title":"豆苗工坊","lon":"121.452897","lat":"31.216913","category":"247","category_name":"餐饮美食","address":"新乐路 东湖路"},{"poiid":"B2094757D068A3F4439B","title":"湾仔(常熟店)","lon":"121.44904","lat":"31.21845","category":"71","category_name":"四川菜","address":"静安区巨鹿路858号(近常熟路)"},{"poiid":"B2094757D068A2FE4993","title":"金刚饮食店","lon":"121.451340788","lat":"31.217013254","category":"68","category_name":"快餐厅","address":"徐汇区长乐路601号(近东湖路)"},{"poiid":"B2094757D069A7F84998","title":"Q太郎","lon":"121.45101065","lat":"31.219166647","category":"95","category_name":"日本料理","address":"静安区富民路158号(近巨鹿路)"},{"poiid":"B2094757DA69A3F9489C","title":"上海搜浩88酒吧","lon":"121.45276728836","lat":"31.217338350747","category":"172","category_name":"酒吧","address":"富民路291号悟锦世纪大楼2F"},{"poiid":"B2094750DA6AA6FF429E","title":"Le Bistro du Dr wine","lon":"121.451011","lat":"31.219398","category":"94","category_name":"西餐厅","address":"静安区富民路177号(近巨鹿路)"},{"poiid":"B2094655D36CA5F94792","title":"常熟路长乐路","lon":"121.44883","lat":"31.21628","category":"38","category_name":"公交车站","address":""},{"poiid":"B2094757D16EABF84299","title":"团市委","lon":"121.452710026","lat":"31.2175345227","category":"46","category_name":"楼宇","address":"上海东湖路17号"},{"poiid":"B2094757D168AAFA4092","title":"鸟巢","lon":"121.452849586","lat":"31.2169391711","category":"95","category_name":"日本料理","address":"徐汇区新乐路167号(东湖路口)"},{"poiid":"B2094757DB69A2FC4393","title":"宴公馆","lon":"121.448713","lat":"31.217807","category":"72","category_name":"广东菜","address":"静安区巨鹿路889号16号楼(近常熟路)"},{"poiid":"B2094757D064A2FB4893","title":"新加坡泰国村鱼翅(巨鹿花园店)","lon":"121.44858384","lat":"31.218204948","category":"110","category_name":"其他亚洲菜","address":"静安区巨鹿路889号7-8号楼(常熟路口)"},{"poiid":"B2094757D56CA0F9499B","title":"B Real","lon":"121.451317","lat":"31.219085","category":"99","category_name":"泰国／越南菜品餐厅","address":"静安区富民路185号"},{"poiid":"B2094655D26EA6F4449A","title":"尼泊尔餐厅","lon":"121.45008","lat":"31.21929","category":"102","category_name":"印度风味","address":"静安区巨鹿路819弄4号"},{"poiid":"B2094757DB6CA4FC4793","title":"Brioche Dorée","lon":"121.4521496124225","lat":"31.21834106369002","category":"247","category_name":"餐饮美食","address":"徐汇区东湖路7号(近富民路)"},{"poiid":"B2094750DA68A4F54699","title":"PAPAYA BAR","lon":"121.451171","lat":"31.219129","category":"260","category_name":"其他","address":"静安区富民路185号(近巨鹿路)"},{"poiid":"B209475DD76AAAFA4298","title":"Captain Rooster","lon":"121.451354","lat":"31.214776","category":"247","category_name":"餐饮美食","address":"上海市 上海市常熟路75号，靠近巨鹿路"},{"poiid":"B2094757D568A4FC4592","title":"诚居酒屋","lon":"121.4511639","lat":"31.21935611","category":"95","category_name":"日本料理","address":"静安区富民路177号(近巨鹿路)"},{"poiid":"B2094750DA69AAFE409B","title":"梅赛德斯-奔驰文化中心","lon":"121.448669","lat":"31.217979","category":"500","category_name":"未知分类","address":null},{"poiid":"B2094751D569AAFD4292","title":"el Efante","lon":"121.450183","lat":"31.218263","category":"247","category_name":"餐饮美食","address":"东湖路20号"},{"poiid":"B2094757D065A0F9419A","title":"满舟中华料理","lon":"121.44922","lat":"31.21761","category":"72","category_name":"广东菜","address":"静安区巨鹿路889号11-12幢3-4楼(近常熟路)"},{"poiid":"B2094757D068A5FA409F","title":"Lune Bar","lon":"121.452694194","lat":"31.2169398694","category":"260","category_name":"其他","address":"徐汇区新乐路218号4楼(近东湖路)"},{"poiid":"B2094750D26EABFB439C","title":"papaya 2","lon":"121.451332","lat":"31.218729","category":"247","category_name":"餐饮美食","address":"上海市富民路"},{"poiid":"B2094757D06EAAF5499F","title":"延庆路董大师","lon":"121.451077","lat":"31.215218","category":"52","category_name":"高等院校","address":"上海延庆路92号"},{"poiid":"B2094751D264A5FD489E","title":"陕西南路1号线地铁站","lon":"121.4521672","lat":"31.2152085","category":"36","category_name":"地铁站","address":null},{"poiid":"B2094757D069A2F5419B","title":"卡夫食品企业管理(上海)有限公司","lon":"121.452593627","lat":"31.2173367631","category":"46","category_name":"楼宇","address":"上海市富民路291号"},{"poiid":"B2094654D564ABFE459B","title":"山东手工水饺馆","lon":"121.452285054","lat":"31.216435793","category":"68","category_name":"快餐厅","address":"徐汇区延庆路9号延庆路菜场对面(近东湖路)"},{"poiid":"B2094654D564ABF8449D","title":"华山美术幼儿园","lon":"121.44837","lat":"31.21683","category":"57","category_name":"幼儿园","address":"静安区常熟路113弄9号(近长乐路)"},{"poiid":"B2094752DB6DA3FE479E","title":"保罗酒楼","lon":"121.449287","lat":"31.216508","category":"247","category_name":"餐饮美食","address":"上海市 富民路271号"},{"poiid":"B2094757D16EA6FD479D","title":"画庭寿司","lon":"121.449924","lat":"31.214897","category":"95","category_name":"日本料理","address":"静安区华亭路延庆路口(近淮海中路)"},{"poiid":"B2094757D468A2FF479F","title":"美味点心店","lon":"121.451185054","lat":"31.218576793","category":"68","category_name":"快餐厅","address":"静安区富民路175号(近巨鹿路)"},{"poiid":"B2094757DB65ABFD449B","title":"新花城海鲜火锅 东湖店","lon":"121.45258618135","lat":"31.217185224282","category":"88","category_name":"海鲜酒楼","address":"东湖路58号近淮海中路"},{"poiid":"B2094757D069ABF5469B","title":"悠庭保健会所(新乐店)","lon":"121.45315","lat":"31.21668","category":"149","category_name":"洗浴推拿场所","address":"徐汇区新乐路218号2楼(近东湖路)"},{"poiid":"B2094655D264A7FB4698","title":"越南特别牛肉粉专门店","lon":"121.45129","lat":"31.21875","category":"94","category_name":"西餐厅","address":"富民路166"},{"poiid":"B2094757D16DABFB4692","title":"三以书房","lon":"121.45102907","lat":"31.217055767","category":"66","category_name":"茶艺馆","address":"卢湾区长乐路762弄(近华亭路)"},{"poiid":"B209475DD56CA0FE479B","title":"香港龙凤楼","lon":"121.452941","lat":"31.21599","category":"247","category_name":"餐饮美食","address":"上海市 静安区巨鹿路889号7-8幢"},{"poiid":"B2094757D064A3FA499A","title":"Helen Nail Spa(巨鹿路店)","lon":"121.45043","lat":"31.2191","category":"122","category_name":"个人用品/化妆品店","address":"上海静安区巨鹿路819弄6号(近富民路)"},{"poiid":"B2094757D568A2FA469D","title":"巨鹿瑞苑国际花园别墅","lon":"121.44954698","lat":"31.2182628","category":"47","category_name":"住宅区","address":"巨鹿路889号"},{"poiid":"B2094757D06AA5F5439C","title":"栋梁设计师品牌店","lon":"121.45232958","lat":"31.217778187","category":"141","category_name":"服装鞋帽皮具店","address":"静安区富民路184号"},{"poiid":"B2094654D564ABFE459F","title":"姐妹餐厅(延庆路)","lon":"121.45228","lat":"31.21657","category":"68","category_name":"快餐厅","address":"徐汇区延庆路6号(近东湖路)"},{"poiid":"B2094757D065A1F9499D","title":"华亭路延庆路","lon":"121.451167","lat":"31.215257","category":"260","category_name":"其他","address":"上海华亭路延庆路"},{"poiid":"B2094757D164A7FD4599","title":"故宫报告厅","lon":"121.448864186","lat":"31.2178226884","category":"182","category_name":"博物馆","address":"北京故宫博物院西北，神武门内西"},{"poiid":"B209475CD46AA0FF4698","title":"MYST酒吧","lon":"121.452194","lat":"31.2189","category":"247","category_name":"餐饮美食","address":"上海市 上海延安中路"},{"poiid":"B2094752D66CA5FB4792","title":"豆苗工坊","lon":"121.452899","lat":"31.216869","category":"247","category_name":"餐饮美食","address":null},{"poiid":"B2094757D168A1FB499A","title":"88燒烤&amp;小馄饨","lon":"121.452165586","lat":"31.2176041841","category":"247","category_name":"餐饮美食","address":"上海市静安区富民路"},{"poiid":"B2094757D16FA6FA4493","title":"很牛","lon":"121.45269695","lat":"31.217652913","category":"500","category_name":"未知分类","address":"上海长乐路708号对面"},{"poiid":"B2094757D06EAAF9409D","title":"Jiepang SH Office","lon":"121.449031654","lat":"31.2176946532","category":"46","category_name":"楼宇","address":"上海静安区巨鹿路889号"},{"poiid":"B2094655D268A6F5439D","title":"延庆路123弄小区(西门)","lon":"121.45176","lat":"31.21524","category":"47","category_name":"住宅区","address":"延庆路123弄1-34号"},{"poiid":"B2094752D16CAAFF4399","title":"Baker One","lon":"121.45243","lat":"31.216309","category":"247","category_name":"餐饮美食","address":"上海市徐汇区南昌路559号"},{"poiid":"B2094750D26FABF4449E","title":"美丽人生意大利餐厅 Dolce Vita Italian","lon":"121.452071054","lat":"31.217879793","category":"98","category_name":"意式菜品餐厅","address":"富民路291号悟锦世纪大楼长乐路口"},{"poiid":"B209475CD46EAAFF4693","title":"上海环球金融中心","lon":"121.449653","lat":"31.218458","category":"500","category_name":"未知分类","address":"上海市 上海市浦东新区世纪大道100号1座"},{"poiid":"B2094757D06AA6FB4292","title":"J&amp;eleven","lon":"121.45255166","lat":"31.216954129","category":"500","category_name":"未知分类","address":"上海新乐路216号"},{"poiid":"B2094654D564AAFC449E","title":"hair culture","lon":"121.45282","lat":"31.21701","category":"148","category_name":"美容美发店","address":"新乐路208"},{"poiid":"B2094654D564ABFE4593","title":"金林商务楼","lon":"121.4526","lat":"31.217","category":"46","category_name":"楼宇","address":"新乐路218"},{"poiid":"B2094751D46BABFD489F","title":"In Magic Coffee","lon":"121.452459","lat":"31.218251","category":"247","category_name":"餐饮美食","address":"上海徐汇区陕西南路186弄20米"},{"poiid":"B2094752D56CA5F4459C","title":"上海红枫妇产医院","lon":"121.450868","lat":"31.217146","category":"162","category_name":"医院","address":"上海市徐汇区淮海中路1209号"},{"poiid":"B209475CDB6EA5F4429D","title":"上海巨鹿花园别墅","lon":"121.448555","lat":"31.217918","category":"47","category_name":"住宅区","address":"巨鹿路889号"},{"poiid":"B2094752DB6FA6FF4292","title":"The Public Food and Drinks","lon":"121.452255","lat":"31.21535","category":"500","category_name":"未知分类","address":"上海市 襄阳南路174号，靠近复兴路"},{"poiid":"B2094654D564AAFC449B","title":"怡德保健中心","lon":"121.45297","lat":"31.21703","category":"149","category_name":"洗浴推拿场所","address":"徐汇区新乐路204号2楼(近东湖路)"},{"poiid":"B2094757D065A2F94493","title":"珍奶会所 长乐店","lon":"121.452795054","lat":"31.217920793","category":"113","category_name":"冷饮店","address":"长乐路688号近富民路"},{"poiid":"B2094654DB69A0F54999","title":"翰祥翅中皇","lon":"121.45256","lat":"31.21707","category":"72","category_name":"广东菜","address":"静安区富民路291号悟锦世纪大厦9楼(近长乐路)"},{"poiid":"B2094655D268A6F5439C","title":"延庆路123弄小区","lon":"121.45226","lat":"31.21505","category":"47","category_name":"住宅区","address":"延庆路123弄1-34号"},{"poiid":"B2094655D26FA6F54293","title":"长乐新村","lon":"121.45073","lat":"31.217278","category":"47","category_name":"住宅区","address":"长乐路764弄1-28号"},{"poiid":"B2094757D16BABFA479D","title":"誠","lon":"121.45209658","lat":"31.218915209","category":"500","category_name":"未知分类","address":"上海市富民路177号"},{"poiid":"B2094655D268A6F5449A","title":"富民路210弄小区","lon":"121.45184","lat":"31.2175","category":"47","category_name":"住宅区","address":"富民路210弄1-15号"},{"poiid":"B2094654D564ABFE4299","title":"好德便利No.789","lon":"121.45108","lat":"31.21521","category":"117","category_name":"便民商店/便利店","address":"湖南路"},{"poiid":"B2094654D564ABFE499A","title":"好德便利No.212","lon":"121.45117","lat":"31.21893","category":"117","category_name":"便民商店/便利店","address":"富民路160"},{"poiid":"B2094654D564ABF8459D","title":"好德便利No.172","lon":"121.4494","lat":"31.21632","category":"117","category_name":"便民商店/便利店","address":"长乐路681-1识别"},{"poiid":"B2094757D06FAAFC489D","title":"斯多奇巧克力主题酒吧(stocchi)","lon":"121.451221586","lat":"31.2191382141","category":"172","category_name":"酒吧","address":"上海市静安区富民路185号"},{"poiid":"B2094655D26FA6F54292","title":"南华新邨","lon":"121.44972","lat":"31.21712","category":"47","category_name":"住宅区","address":"长乐路774弄1-22号"},{"poiid":"B2094655D26FA6F5439A","title":"裕华新村","lon":"121.45106","lat":"31.218012","category":"47","category_name":"住宅区","address":"富民路182弄1-32号"},{"poiid":"B2094752D465A0F94199","title":"新斗记","lon":"121.452098","lat":"31.218488","category":"500","category_name":"未知分类","address":"新乐路47号"},{"poiid":"B2094757D068A2FA4499","title":"富民路197弄","lon":"121.451592","lat":"31.219222","category":"500","category_name":"未知分类","address":"上海富民路197弄"},{"poiid":"B2094757D06BA1F94592","title":"樂 寿司","lon":"121.451287586","lat":"31.2171531753","category":"247","category_name":"餐饮美食","address":"上海徐汇区长乐路609号"},{"poiid":"B2094757D66BA6FF4498","title":"斯莱士","lon":"121.451380054","lat":"31.217178793","category":"94","category_name":"西餐厅","address":"卢湾区长乐路419号(近襄阳北路)"},{"poiid":"B2094655D268A5F5489D","title":"延庆路51弄小区","lon":"121.45257","lat":"31.21536","category":"47","category_name":"住宅区","address":"延庆路51弄1-26号"},{"poiid":"B2094655D268A6F5449F","title":"Fly street wear","lon":"121.45269","lat":"31.21788","category":"141","category_name":"服装鞋帽皮具店","address":"长乐路702-704"},{"poiid":"B2094757D165AAF9469E","title":"福民会馆","lon":"121.4512788","lat":"31.2189865","category":"500","category_name":"未知分类","address":"上海富民路197弄69号"},{"poiid":"B2094655D26EA5FD4699","title":"欧越年代","lon":"121.44851","lat":"31.21802","category":"247","category_name":"餐饮美食","address":"巨鹿路889号11号楼近常熟路"},{"poiid":"B2094655D268A6F5439F","title":"延庆路4弄小区","lon":"121.45189","lat":"31.21659","category":"47","category_name":"住宅区","address":"延庆路4弄2-44号"},{"poiid":"B2094654D564AAFC4193","title":"上海私立蒙特梭利幼儿园","lon":"121.45312","lat":"31.21651","category":"57","category_name":"幼儿园","address":"徐汇区东湖路21号"},{"poiid":"B2094655D26FABFD419E","title":"滬江别墅(北门)","lon":"121.45092","lat":"31.21684","category":"47","category_name":"住宅区","address":"长乐路613弄1-25号"},{"poiid":"B2094655D26CA4F9449F","title":"大福里西门(延庆路)","lon":"121.4524","lat":"31.21601","category":"47","category_name":"住宅区","address":"延庆路29弄1-21号"},{"poiid":"B2094757D16AAAF5459C","title":"谭记私房菜","lon":"121.452545586","lat":"31.2170771738","category":"247","category_name":"餐饮美食","address":"上海松潘路149号"},{"poiid":"B2094757D165A3FD449E","title":"凯司令西点房(愚园店)","lon":"121.452460586","lat":"31.2156986468","category":"247","category_name":"餐饮美食","address":"上海静安区愚园路386号(近市西中学)"},{"poiid":"B2094655D26EA3FE449F","title":"长乐新村南门","lon":"121.45084","lat":"31.21706","category":"47","category_name":"住宅区","address":"长乐路764弄1-28号"},{"poiid":"B2094655D268A6F54398","title":"延庆路96弄小区(南门)","lon":"121.45102","lat":"31.21518","category":"47","category_name":"住宅区","address":"延庆路96弄1-11号"},{"poiid":"B2094654D564ABFE4392","title":"大福里(西门)","lon":"121.45288","lat":"31.21594","category":"47","category_name":"住宅区","address":"延庆路29弄1-21号"},{"poiid":"B2094655D26FABFD4199","title":"延庆路51弄小区(西门)","lon":"121.45213","lat":"31.21554","category":"47","category_name":"住宅区","address":"延庆路51弄1-26号"},{"poiid":"B2094757D06BA0FD4899","title":"华亭路","lon":"121.450314456","lat":"31.2177107862","category":"260","category_name":"其他","address":"上海华亭路"},{"poiid":"B2094655D26FA7FA4493","title":"景华新村(南门)","lon":"121.44959","lat":"31.21922","category":"47","category_name":"住宅区","address":"巨鹿路820弄1-82号"},{"poiid":"B2094655D268A6F5439E","title":"延庆路4弄小区(东门)","lon":"121.45229","lat":"31.21661","category":"47","category_name":"住宅区","address":"延庆路4弄2-44号"},{"poiid":"B2094655D268A6F5439B","title":"延庆路96弄小区","lon":"121.45089","lat":"31.2154","category":"47","category_name":"住宅区","address":"延庆路96弄1-11号"},{"poiid":"B2094655D268A6F54393","title":"富民路210弄小区(东门)","lon":"121.45194","lat":"31.21766","category":"47","category_name":"住宅区","address":"富民路210弄1-15号"},{"poiid":"B2094752D36FA3F9489C","title":"Madison","lon":"121.451358","lat":"31.216548","category":"500","category_name":"未知分类","address":null},{"poiid":"B2094654D564ABFE479C","title":"裕华新村(东门)","lon":"121.45159","lat":"31.21819","category":"47","category_name":"住宅区","address":"富民路182弄1-32号"},{"poiid":"B2094654D564ABFE4398","title":"花都(延安路)","lon":"121.45203","lat":"31.21547","category":"148","category_name":"美容美发店","address":"延安路53号"},{"poiid":"B2094654D564ABFF409B","title":"沸点专业美发沙龙","lon":"121.45104","lat":"31.21914","category":"148","category_name":"美容美发店","address":"富民路146"},{"poiid":"B2094654D564AAFC4693","title":"思奕庭美容身心会馆","lon":"121.4506","lat":"31.21672","category":"148","category_name":"美容美发店","address":"徐汇区长乐路623号(近襄阳路)"},{"poiid":"B209475CD76EA7FC489F","title":"赵小姐不等位","lon":"121.452987","lat":"31.216772","category":"500","category_name":"未知分类","address":"上海市 长乐路628号"},{"poiid":"B209475DD26FAAF54898","title":"ssur shanghai","lon":"121.45185","lat":"31.217386","category":"500","category_name":"未知分类","address":"上海市 长乐路716号"},{"poiid":"B2094750DB6BA0F4409A","title":"东方巨匠","lon":"121.45","lat":"31.21855","category":"500","category_name":"未知分类","address":"徐汇区东湖路7号东湖宾馆2楼(近淮海路)"},{"poiid":"B2094757D064A1FC489F","title":"东田造型(富民路店)","lon":"121.45283","lat":"31.2168","category":"148","category_name":"美容美发店","address":"上海徐汇区富民路291号悟锦世纪大楼2楼203A(长乐路口)  "},{"poiid":"B209475CD66DA1F94998","title":"上海静安希尔顿酒店","lon":"121.450599","lat":"31.217121","category":"500","category_name":"未知分类","address":"上海市 上海市华山路250号"},{"poiid":"B209475CDB69A3F9469F","title":"上海希尔顿酒店","lon":"121.449127","lat":"31.21692","category":"500","category_name":"未知分类","address":"上海市 华山路520号"},{"poiid":"B2094757D568A7FC489B","title":"周信芳故居","lon":"121.44909424","lat":"31.21651828","category":"250","category_name":"公园户外","address":"徐汇区长乐路788号(近常熟路)"},{"poiid":"B2094757D16FA1FF449B","title":"Christian Dior Office","lon":"121.45076358","lat":"31.217564183","category":"500","category_name":"未知分类","address":"上海恒隆广场一期29楼"},{"poiid":"B2094757D069A0FF429F","title":"茶米家(富民店)","lon":"121.451296","lat":"31.218928","category":"260","category_name":"其他","address":"静安区富民路201号(近巨鹿路)"},{"poiid":"B2094654D564AAFC479B","title":"上海蓝蓝中国蓝印花布馆","lon":"121.4503","lat":"31.21662","category":"123","category_name":"家具建材市场","address":"徐汇区长乐路637弄24号(常熟路富民路间)"},{"poiid":"B2094757D16DA0FA489A","title":"加顿商务中心","lon":"121.449317086","lat":"31.2179941917","category":"500","category_name":"未知分类","address":"上海市巨鹿路889号23号楼"},{"poiid":"B2094753D76CA5F4429A","title":"耶香天堂","lon":"121.449783","lat":"31.217962","category":"500","category_name":"未知分类","address":"上海市 富民路38号"},{"poiid":"B2094654DB64A4F9489D","title":"徐汇区老年大学","lon":"121.45227","lat":"31.21636","category":"53","category_name":"成人教育","address":"延庆路18弄1-12号"},{"poiid":"B2094757D165A5FD4099","title":"Leonardo's Da Vinci","lon":"121.44971466","lat":"31.217250824","category":"500","category_name":"未知分类","address":"上海静安希尔顿中庭旁"},{"poiid":"B2094757D06FA1F84998","title":"VANS(长乐路店)","lon":"121.452666094","lat":"31.2179107723","category":"140","category_name":"体育用品店","address":"徐汇区长乐路706号(近富民路)"},{"poiid":"B2094752D364A7FF409B","title":"Echo,Sushi,Bar","lon":"121.45216","lat":"31.21596","category":"95","category_name":"日本料理","address":"徐汇区延庆路34号(近富民路)"},{"poiid":"B2094757D064A3FF479B","title":"极限之家(长乐路店)","lon":"121.4528","lat":"31.21752","category":"140","category_name":"体育用品店","address":"徐汇区长乐路718号(近富民路)"},{"poiid":"B2094757DB6FA6FC419F","title":"咪瑜伽","lon":"121.4530962438949","lat":"31.21785754693948","category":"220","category_name":"运动场所","address":"襄阳南路100弄2号"},{"poiid":"B2094757D16EA4F54999","title":"潮手潮脚(静安店)","lon":"121.452548586","lat":"31.2175891838","category":"500","category_name":"未知分类","address":"上海市静安区长乐路714号靠近富民路口"},{"poiid":"B2094757D164A2FC409F","title":"Bull noodle","lon":"121.452670499","lat":"31.217666416","category":"500","category_name":"未知分类","address":"上海富民路291"},{"poiid":"B2094757D16CABF9489F","title":"锦创教育培训中心","lon":"121.45020388","lat":"31.215853016","category":"253","category_name":"校园生活","address":"上海常熟路113弄5号"},{"poiid":"B2094757D66CA2F4459C","title":"延庆路菜场","lon":"121.452567","lat":"31.216908","category":"500","category_name":"未知分类","address":"上海延庆路东湖路口"},{"poiid":"B2094757D66EA1FD4398","title":"毛太设计","lon":"121.45182","lat":"31.21844","category":"123","category_name":"家具建材市场","address":"静安区富民路207号(近长乐路)"},{"poiid":"B2094750DA64A6FA499D","title":"Top Space Lounge & Bar","lon":"121.44943810052496","lat":"31.218442583990463","category":"260","category_name":"其他","address":"静安区巨鹿路889号18座"},{"poiid":"B2094757D165A4FF439C","title":"延庆路51弄","lon":"121.450142386","lat":"31.2158467497","category":"500","category_name":"未知分类","address":"上海市徐汇区延庆路51弄"},{"poiid":"B2094752DB69A0FA409A","title":"地铁7号线","lon":"121.452415","lat":"31.217794","category":"500","category_name":"未知分类","address":"上海市 昌平路100号"},{"poiid":"B2094757DB6FA0F5449C","title":"牙防所","lon":"121.45225775","lat":"31.21688145","category":"627","category_name":"一般地点标志","address":"复兴中路1258号"},{"poiid":"B2094757D66CABF5449F","title":"河久日本料理","lon":"121.449905396","lat":"31.2177867889","category":"500","category_name":"未知分类","address":"上海賓館23樓"},{"poiid":"B2094757D164ABF9479F","title":"克丽缇娜(长乐路店)","lon":"121.45309","lat":"31.21774","category":"148","category_name":"美容美发店","address":"徐汇区长乐路681号(近襄阳路)"},{"poiid":"B2094757D16AA0FD489F","title":"D.S CASTLE(长乐路店)","lon":"121.45314","lat":"31.21777","category":"500","category_name":"未知分类","address":"上海徐汇区长乐路646号(近襄阳路)  "},{"poiid":"B2094757D16EA6FF459B","title":"华山路延安中路红绿灯","lon":"121.45035134","lat":"31.217673641","category":"500","category_name":"未知分类","address":"上海延安中路华山路口"},{"poiid":"B2094757D568AAFE4698","title":"FLY长乐路店","lon":"121.4527281","lat":"31.21791611","category":"249","category_name":"购物服务","address":"卢湾区长乐路278号(近陕西南路)"},{"poiid":"B2094654DB65A3F44993","title":"卡夫食品(中国)有限公司","lon":"121.45266","lat":"31.21732","category":"263","category_name":"公司","address":"富民路291号悟锦世纪大楼5层"},{"poiid":"B2094654D564ABFE4992","title":"赫宝芳香植物专卖店","lon":"121.45111","lat":"31.21903","category":"255","category_name":"专卖店","address":"静安区富民路152号(近巨鹿路)"},{"poiid":"B2094757D165A1FB489B","title":"海吉雅会所","lon":"121.44964558","lat":"31.219115213","category":"148","category_name":"美容美发店","address":"上海市南汇区沪南公路3999号"},{"poiid":"B2094757D66CA0FA419E","title":"现代华亭","lon":"121.449737549","lat":"31.2157249451","category":"500","category_name":"未知分类","address":"上海金山区亭林镇"},{"poiid":"B2094757D169A7FD4892","title":"STUDIO TIMELESS","lon":"121.45085558","lat":"31.216984172","category":"500","category_name":"未知分类","address":"上海长乐路764号"},{"poiid":"B2094757D164A7F9489F","title":"CY Lover House","lon":"121.45212558","lat":"31.217603184","category":"500","category_name":"未知分类","address":"上海兔寶株式會社"},{"poiid":"B2094757D164A1FB4193","title":"咳嗽","lon":"121.45074898","lat":"31.215574344","category":"500","category_name":"未知分类","address":"上海糖浆在哪儿"},{"poiid":"B2094757D66DABFA459C","title":"iconx长乐店","lon":"121.45170718","lat":"31.217578483","category":"500","category_name":"未知分类","address":"上海长乐路718号"},{"poiid":"B2094757D165A0FB499F","title":"Stocchi Chocolate Lounge Bar","lon":"121.451143986","lat":"31.219185515","category":"260","category_name":"其他","address":"静安区富民路185号(近巨鹿路)"},{"poiid":"B2094757D66CA0FF489F","title":"申银万国证券有限公司","lon":"121.45216558","lat":"31.217604184","category":"263","category_name":"公司","address":"上海市静安区常熟路171号"},{"poiid":"B2094655D26FA3F9429E","title":"阿尔斯通技术服务(上海)有限公司(悟锦世纪大楼)","lon":"121.45265","lat":"31.21733","category":"263","category_name":"公司","address":"富民路291号悟锦世纪大楼3层"},{"poiid":"B2094757D568A7FB459D","title":"HyStreetWear","lon":"121.4528558","lat":"31.21795111","category":"249","category_name":"购物服务","address":"长乐路702-704号"},{"poiid":"B2094757D16BABF9479E","title":"大智慧","lon":"121.44997614","lat":"31.215325705","category":"249","category_name":"购物服务","address":"上海乌鲁木齐中路华山路口"},{"poiid":"B2094757D569A0F4429B","title":"流行风车","lon":"121.452545","lat":"31.2178","category":"249","category_name":"购物服务","address":"徐汇区长乐路718号(近富民路)"},{"poiid":"B2094757D165AAFB449D","title":"萬荼源茶叶店","lon":"121.45014238","lat":"31.215846749","category":"249","category_name":"购物服务","address":"上海泰康路274弄38号"},{"poiid":"B2094757D568A1FA4293","title":"SENZA","lon":"121.4511939","lat":"31.21890194","category":"249","category_name":"购物服务","address":"静安区富民路162号(近巨鹿路)"},{"poiid":"B2094654DB64AAFF4193","title":"International Canada(悟锦世纪大楼)","lon":"121.45265","lat":"31.21733","category":"263","category_name":"公司","address":"富民路291号悟锦世纪大楼3A05"},{"poiid":"B2094757D169A5FE469F","title":"上海驰翰拍卖","lon":"121.44959658","lat":"31.214941132","category":"263","category_name":"公司","address":"上海巨鹿路"},{"poiid":"B2094752D365A5F54193","title":"香港广场","lon":"121.449813","lat":"31.21549","category":"500","category_name":"未知分类","address":"淮海路"},{"poiid":"B2094654D564ABFE469E","title":"保罗轮胎总汇(大福里北)","lon":"121.45257","lat":"31.21668","category":"248","category_name":"生活娱乐","address":""},{"poiid":"B2094654D564ABFE469B","title":"金悦棋牌会所","lon":"121.4526","lat":"31.21699","category":"175","category_name":"棋牌室","address":"徐汇区新乐路218号3楼(近东湖路)"},{"poiid":"B2094751D56FA1F4499C","title":"上海音乐学院小音乐厅","lon":"121.45010540818","lat":"31.215655259091","category":"627","category_name":"一般地点标志","address":null},{"poiid":"B2094654D564AAFC479F","title":"南华新邨(南门)","lon":"121.44997","lat":"31.21679","category":"656","category_name":"大门","address":"长乐路774弄1-22号"},{"poiid":"B2094655D268A2FC4692","title":"南华新邨(北门)","lon":"121.44972","lat":"31.21729","category":"656","category_name":"大门","address":""}]