[{"poiid":"B2094655D26DA1FF439A","title":"96广场","lon":"121.52503","lat":"31.22758","category":"46","category_name":"楼宇","address":"浦东新区东方路796号(近张杨路)"},{"poiid":"B2094655D26AA0F84993","title":"地铁世纪大道站","lon":"121.52693","lat":"31.22938","category":"36","category_name":"地铁站","address":""},{"poiid":"B2094757D06EAAFD4393","title":"广州蕉叶(96广场店)","lon":"121.52547","lat":"31.22759","category":"99","category_name":"泰国／越南菜品餐厅","address":"浦东新区东方路796号96广场2楼(近张杨路)"},{"poiid":"B209475CD564A7F84392","title":"上海滩浦东香格里拉店","lon":"121.50058","lat":"31.23634","category":"119","category_name":"商场","address":"浦东富成路33号香格里拉酒店内大堂层"},{"poiid":"B2094655D26EA2FE479E","title":"渝信川菜(96广场店)","lon":"121.52505","lat":"31.22759","category":"71","category_name":"四川菜","address":"浦东新区东方路796号96广场3楼(近张杨路)"},{"poiid":"B2094757D06EAAF5449B","title":"烧肉达人(96广场店)","lon":"121.52538","lat":"31.22717","category":"269","category_name":"烧烤","address":"浦东新区东方路796号96广场2楼211号铺(近张杨路)"},{"poiid":"B2094757D06FA1FE4793","title":"纯彩新东京和风","lon":"121.52531","lat":"31.22731","category":"95","category_name":"日本料理","address":"浦东新区东方路796号96广场2楼(近世纪大道)"},{"poiid":"B2094757D06FA3FA4098","title":"望湘园(96广场店)","lon":"121.52618","lat":"31.2275","category":"77","category_name":"湖南菜","address":"浦东新区东方路796号96广场3楼302商铺(近张杨路)"},{"poiid":"B2094757D06EAAFF449C","title":"世纪大道地铁站","lon":"121.52631663","lat":"31.229214229","category":"36","category_name":"地铁站","address":"上海轨道交通 二号线 四号线 六号线 九号线 轨交世纪大道站 轻轨 2 4 6 9"},{"poiid":"B2094655D26DA0FE469D","title":"合点寿司","lon":"121.52504","lat":"31.22758","category":"95","category_name":"日本料理","address":"浦东新区东方路796号96广场2楼(近张杨路)"},{"poiid":"B2094757D06FA3FF469B","title":"汉拿山 96广场店","lon":"121.525542054","lat":"31.228178793","category":"96","category_name":"韩国料理","address":"浦东新区东方路796号96广场2楼229-232号(近张杨路)"},{"poiid":"B2094757D06EABF5459D","title":"家有好面 96广场店","lon":"121.525281","lat":"31.22805","category":"68","category_name":"快餐厅","address":"浦东新区东方路796号96广场1楼(近8号门)"},{"poiid":"B2094757D06FA3F4459A","title":"尚一汤(96广场店)","lon":"121.52533","lat":"31.22772","category":"72","category_name":"广东菜","address":"浦东新区东方路796号96广场2楼215-216铺(近地铁世纪大道站)"},{"poiid":"B2094757D66BA2F94892","title":"九龙冰室 东方路店 Kowloon Ice House","lon":"121.525541344","lat":"31.228178693","category":"257","category_name":"中餐厅","address":"浦东新区东方路796号96广场2楼(近张杨路)"},{"poiid":"B2094757D068AAFD409A","title":"台北吴记麻辣火锅(张扬路店))","lon":"121.529039738","lat":"31.2306723095","category":"86","category_name":"火锅店","address":"浦东新区张杨路998号(近福山路)"},{"poiid":"B2094654DA6AA3FA489A","title":"苏浙汇(东方店)","lon":"121.52799","lat":"31.22449","category":"76","category_name":"上海菜","address":"浦东新区东方路877号(近潍坊路)"},{"poiid":"B2094757D06FA6FE449E","title":"齐鲁万怡大酒店","lon":"121.52576845","lat":"31.225949269","category":"217","category_name":"旅馆招待所","address":"浦东新区东方路838号(近潍坊路)"},{"poiid":"B2094757D16FA7FA4999","title":"Wagas","lon":"121.525","lat":"31.227528","category":"500","category_name":"未知分类","address":"上海东方路796号96广场171-172室"},{"poiid":"B2094757D06FA4FC4998","title":"全聚德(浦东店)","lon":"121.52544","lat":"31.22819","category":"260","category_name":"其他","address":"浦东新区东方路778号紫金山大酒店3楼(近张杨路)"},{"poiid":"B2094757D06FA0F4479B","title":"大渔铁板烧(96广场店)","lon":"121.5254","lat":"31.22737","category":"95","category_name":"日本料理","address":"浦东新区东方路796号96广场2楼(近宝安大厦)"},{"poiid":"B2094757DB69AAFA4498","title":"渝利火锅","lon":"121.5252516","lat":"31.2274049","category":"86","category_name":"火锅店","address":"浦东新区东方路796号96广场2楼233-235号铺"},{"poiid":"B2094654DB69ABF4469B","title":"威尔士健身会所(九六广场店)","lon":"121.52584","lat":"31.22775","category":"221","category_name":"健身中心","address":"浦东新区东方路796号96广场B1楼(近张杨路)"},{"poiid":"B2094757D06FA2F54298","title":"麦当劳(东方路店)","lon":"121.52743","lat":"31.22576","category":"68","category_name":"快餐厅","address":"浦东新区潍坊路162号(近东方路)"},{"poiid":"B2094757DA6EABFA479F","title":"蜀留香冷锅鱼(潍坊路店)","lon":"121.529072999998","lat":"31.2265219999997","category":"86","category_name":"火锅店","address":"浦东新区潍坊路194号(近世纪大道)"},{"poiid":"B2094655D36DA7FE4092","title":"张扬路福山路","lon":"121.52742","lat":"31.23083","category":"38","category_name":"公交车站","address":""},{"poiid":"B2094757D66AA7FE459C","title":"新九龙城茶餐厅","lon":"121.525542054","lat":"31.228178793","category":"72","category_name":"广东菜","address":"浦东新区东方路796号96广场1楼145单元(近张杨路)"},{"poiid":"B2094757D06FA5FF4192","title":"徽珍源(潍坊路店)","lon":"121.5269","lat":"31.22535","category":"260","category_name":"其他","address":"浦东新区潍坊路162号(近东方路)"},{"poiid":"B2094757D06FABFD429D","title":"阿拉对面碳烤鱼 福山路店","lon":"121.5284129484","lat":"31.231552680725","category":"71","category_name":"四川菜","address":"浦东新区福山路287号(近张杨路)"},{"poiid":"B2094757D06FA4FF4498","title":"億方砂锅粥(潍坊路店)","lon":"121.52899","lat":"31.22607","category":"72","category_name":"广东菜","address":"上海浦东新区潍坊路188号(近东方路)"},{"poiid":"B2094757D064AAFB409A","title":"美年体检","lon":"121.52747344","lat":"31.22664526","category":"162","category_name":"医院","address":"上海崂山路523号"},{"poiid":"B2094753D36FA3FC439B","title":"世纪大道地铁站","lon":"121.52771","lat":"31.225006","category":"36","category_name":"地铁站","address":"上海市 世纪大道地铁站"},{"poiid":"B2094757D068A3FE409F","title":"振鼎鸡(潍坊路店)","lon":"121.52882773","lat":"31.225452198","category":"68","category_name":"快餐厅","address":"浦东新区潍坊路174号(近东方路)"},{"poiid":"B2094757D068ABFC499B","title":"上海歌城(东昌路店)","lon":"121.528610229","lat":"31.2306118011","category":"170","category_name":"KTV","address":"上海八佰伴对面"},{"poiid":"B2094757D068A1F9429B","title":"干锅居(东方路店)","lon":"121.527303266","lat":"31.2256183568","category":"83","category_name":"云贵菜","address":"浦东新区潍坊路162号3幢(近东方路)"},{"poiid":"B2094757D06AA2FD459A","title":"百蝶日式料理店 东方路店","lon":"121.52416437448","lat":"31.226651993154","category":"95","category_name":"日本料理","address":"浦东新区崂山路588号宝安大厦1楼(近潍坊路)"},{"poiid":"B2094757D16CA3F54292","title":"堡龙阁","lon":"121.525879","lat":"31.226608","category":"72","category_name":"广东菜","address":"浦东新区东方路818号众城大厦3楼(近潍坊路)"},{"poiid":"B2094757D068A3F9459C","title":"85度C 潍坊店","lon":"121.527273054","lat":"31.226372793","category":"112","category_name":"糕饼店","address":"浦东新区潍坊路164号(近东方路)"},{"poiid":"B2094757D068ABFE479D","title":"will\\'s 健身会所(九六广场店)","lon":"121.52732377","lat":"31.228175696","category":"221","category_name":"健身中心","address":"上海浦东新区东方路796号96广场B1楼(近张杨路)"},{"poiid":"B2094757D06FAAFB409C","title":"虹桥古北汤馆(九六广场店)","lon":"121.52533968","lat":"31.226928424","category":"500","category_name":"未知分类","address":"上海世纪大道东方路九六广场二层"},{"poiid":"B2094654DA6AA3F9479E","title":"老西安","lon":"121.529323054","lat":"31.227174793","category":"84","category_name":"西北菜","address":"浦东新区潍坊路192号(近世纪大道)"},{"poiid":"B2094757D068A0F5439B","title":"肯德基 KFC (潍坊店)","lon":"121.52683421","lat":"31.225123503","category":"68","category_name":"快餐厅","address":"浦东新区崂山路585号(近潍坊路)"},{"poiid":"B2094757D068A2FB499D","title":"中国建设银行(东方路支行)","lon":"121.52546","lat":"31.22655","category":"150","category_name":"银行","address":"上海浦东新区东方路818号(近潍坊路)"},{"poiid":"B209475CD26DA0F44992","title":"糖员外私房甜品（96广场店）","lon":"121.530052","lat":"31.226718","category":"247","category_name":"餐饮美食","address":"上海市 东方路796号96广场249B"},{"poiid":"B2094655D265A5FD459B","title":"莎琪玛港式茶餐厅","lon":"121.52894","lat":"31.23002","category":"72","category_name":"广东菜","address":"浦东新区福山路295号(近张杨路)"},{"poiid":"B2094757D06AA0FA419D","title":"福山路世纪大道车站","lon":"121.52947","lat":"31.22856","category":"500","category_name":"未知分类","address":"上海福山路世纪大道"},{"poiid":"B2094654DB69A0FA4192","title":"大渔(东方店)","lon":"121.52796","lat":"31.22467","category":"87","category_name":"特色／地方风味餐厅","address":"浦东新区东方路877号嘉兴大厦3楼(近向城路)"},{"poiid":"B2094757D465A4FA419E","title":"邵稼楼 潍坊路店","lon":"121.527697054","lat":"31.225929793","category":"76","category_name":"上海菜","address":"浦东新区潍坊路172号(近东方路)"},{"poiid":"B2094757D16FABF9489C","title":"蒂凡尼","lon":"121.527249738","lat":"31.2257132038","category":"500","category_name":"未知分类","address":"上海96广场"},{"poiid":"B2094757D66EA0FA4993","title":"地铁二号线车厢内","lon":"121.52563323","lat":"31.228779679","category":"500","category_name":"未知分类","address":null},{"poiid":"B2094655D26EA6FF439E","title":"蒂凡尼(浦东店)","lon":"121.5292","lat":"31.22821","category":"148","category_name":"美容美发店","address":"浦东新区世纪大道1211号A15-A16座"},{"poiid":"B2094655D26DA1FF439A","title":"96广场","lon":"121.52503","lat":"31.22758","category":"46","category_name":"楼宇","address":"浦东新区东方路796号(近张杨路)"},{"poiid":"B2094655D26AA0F84993","title":"地铁世纪大道站","lon":"121.52693","lat":"31.22938","category":"36","category_name":"地铁站","address":""},{"poiid":"B2094757D06EAAFD4393","title":"广州蕉叶(96广场店)","lon":"121.52547","lat":"31.22759","category":"99","category_name":"泰国／越南菜品餐厅","address":"浦东新区东方路796号96广场2楼(近张杨路)"},{"poiid":"B209475CD564A7F84392","title":"上海滩浦东香格里拉店","lon":"121.50058","lat":"31.23634","category":"119","category_name":"商场","address":"浦东富成路33号香格里拉酒店内大堂层"},{"poiid":"B2094655D26EA2FE479E","title":"渝信川菜(96广场店)","lon":"121.52505","lat":"31.22759","category":"71","category_name":"四川菜","address":"浦东新区东方路796号96广场3楼(近张杨路)"},{"poiid":"B2094757D06EAAF5449B","title":"烧肉达人(96广场店)","lon":"121.52538","lat":"31.22717","category":"269","category_name":"烧烤","address":"浦东新区东方路796号96广场2楼211号铺(近张杨路)"},{"poiid":"B2094757D06FA1FE4793","title":"纯彩新东京和风","lon":"121.52531","lat":"31.22731","category":"95","category_name":"日本料理","address":"浦东新区东方路796号96广场2楼(近世纪大道)"},{"poiid":"B2094757D06FA3FA4098","title":"望湘园(96广场店)","lon":"121.52618","lat":"31.2275","category":"77","category_name":"湖南菜","address":"浦东新区东方路796号96广场3楼302商铺(近张杨路)"},{"poiid":"B2094757D06EAAFF449C","title":"世纪大道地铁站","lon":"121.52631663","lat":"31.229214229","category":"36","category_name":"地铁站","address":"上海轨道交通 二号线 四号线 六号线 九号线 轨交世纪大道站 轻轨 2 4 6 9"},{"poiid":"B2094655D26DA0FE469D","title":"合点寿司","lon":"121.52504","lat":"31.22758","category":"95","category_name":"日本料理","address":"浦东新区东方路796号96广场2楼(近张杨路)"},{"poiid":"B2094757D06FA3FF469B","title":"汉拿山 96广场店","lon":"121.525542054","lat":"31.228178793","category":"96","category_name":"韩国料理","address":"浦东新区东方路796号96广场2楼229-232号(近张杨路)"},{"poiid":"B2094757D06EABF5459D","title":"家有好面 96广场店","lon":"121.525281","lat":"31.22805","category":"68","category_name":"快餐厅","address":"浦东新区东方路796号96广场1楼(近8号门)"},{"poiid":"B2094757D06FA3F4459A","title":"尚一汤(96广场店)","lon":"121.52533","lat":"31.22772","category":"72","category_name":"广东菜","address":"浦东新区东方路796号96广场2楼215-216铺(近地铁世纪大道站)"},{"poiid":"B2094757D66BA2F94892","title":"九龙冰室 东方路店 Kowloon Ice House","lon":"121.525541344","lat":"31.228178693","category":"257","category_name":"中餐厅","address":"浦东新区东方路796号96广场2楼(近张杨路)"},{"poiid":"B2094757D068AAFD409A","title":"台北吴记麻辣火锅(张扬路店))","lon":"121.529039738","lat":"31.2306723095","category":"86","category_name":"火锅店","address":"浦东新区张杨路998号(近福山路)"},{"poiid":"B2094654DA6AA3FA489A","title":"苏浙汇(东方店)","lon":"121.52799","lat":"31.22449","category":"76","category_name":"上海菜","address":"浦东新区东方路877号(近潍坊路)"},{"poiid":"B2094757D06FA6FE449E","title":"齐鲁万怡大酒店","lon":"121.52576845","lat":"31.225949269","category":"217","category_name":"旅馆招待所","address":"浦东新区东方路838号(近潍坊路)"},{"poiid":"B2094757D16FA7FA4999","title":"Wagas","lon":"121.525","lat":"31.227528","category":"500","category_name":"未知分类","address":"上海东方路796号96广场171-172室"},{"poiid":"B2094757D06FA4FC4998","title":"全聚德(浦东店)","lon":"121.52544","lat":"31.22819","category":"260","category_name":"其他","address":"浦东新区东方路778号紫金山大酒店3楼(近张杨路)"},{"poiid":"B2094757D06FA0F4479B","title":"大渔铁板烧(96广场店)","lon":"121.5254","lat":"31.22737","category":"95","category_name":"日本料理","address":"浦东新区东方路796号96广场2楼(近宝安大厦)"},{"poiid":"B2094757DB69AAFA4498","title":"渝利火锅","lon":"121.5252516","lat":"31.2274049","category":"86","category_name":"火锅店","address":"浦东新区东方路796号96广场2楼233-235号铺"},{"poiid":"B2094654DB69ABF4469B","title":"威尔士健身会所(九六广场店)","lon":"121.52584","lat":"31.22775","category":"221","category_name":"健身中心","address":"浦东新区东方路796号96广场B1楼(近张杨路)"},{"poiid":"B2094757D06FA2F54298","title":"麦当劳(东方路店)","lon":"121.52743","lat":"31.22576","category":"68","category_name":"快餐厅","address":"浦东新区潍坊路162号(近东方路)"},{"poiid":"B2094757DA6EABFA479F","title":"蜀留香冷锅鱼(潍坊路店)","lon":"121.529072999998","lat":"31.2265219999997","category":"86","category_name":"火锅店","address":"浦东新区潍坊路194号(近世纪大道)"},{"poiid":"B2094655D36DA7FE4092","title":"张扬路福山路","lon":"121.52742","lat":"31.23083","category":"38","category_name":"公交车站","address":""},{"poiid":"B2094757D66AA7FE459C","title":"新九龙城茶餐厅","lon":"121.525542054","lat":"31.228178793","category":"72","category_name":"广东菜","address":"浦东新区东方路796号96广场1楼145单元(近张杨路)"},{"poiid":"B2094757D06FA5FF4192","title":"徽珍源(潍坊路店)","lon":"121.5269","lat":"31.22535","category":"260","category_name":"其他","address":"浦东新区潍坊路162号(近东方路)"},{"poiid":"B2094757D06FABFD429D","title":"阿拉对面碳烤鱼 福山路店","lon":"121.5284129484","lat":"31.231552680725","category":"71","category_name":"四川菜","address":"浦东新区福山路287号(近张杨路)"},{"poiid":"B2094757D06FA4FF4498","title":"億方砂锅粥(潍坊路店)","lon":"121.52899","lat":"31.22607","category":"72","category_name":"广东菜","address":"上海浦东新区潍坊路188号(近东方路)"},{"poiid":"B2094757D064AAFB409A","title":"美年体检","lon":"121.52747344","lat":"31.22664526","category":"162","category_name":"医院","address":"上海崂山路523号"},{"poiid":"B2094753D36FA3FC439B","title":"世纪大道地铁站","lon":"121.52771","lat":"31.225006","category":"36","category_name":"地铁站","address":"上海市 世纪大道地铁站"},{"poiid":"B2094757D068A3FE409F","title":"振鼎鸡(潍坊路店)","lon":"121.52882773","lat":"31.225452198","category":"68","category_name":"快餐厅","address":"浦东新区潍坊路174号(近东方路)"},{"poiid":"B2094757D068ABFC499B","title":"上海歌城(东昌路店)","lon":"121.528610229","lat":"31.2306118011","category":"170","category_name":"KTV","address":"上海八佰伴对面"},{"poiid":"B2094757D068A1F9429B","title":"干锅居(东方路店)","lon":"121.527303266","lat":"31.2256183568","category":"83","category_name":"云贵菜","address":"浦东新区潍坊路162号3幢(近东方路)"},{"poiid":"B2094757D06AA2FD459A","title":"百蝶日式料理店 东方路店","lon":"121.52416437448","lat":"31.226651993154","category":"95","category_name":"日本料理","address":"浦东新区崂山路588号宝安大厦1楼(近潍坊路)"},{"poiid":"B2094757D16CA3F54292","title":"堡龙阁","lon":"121.525879","lat":"31.226608","category":"72","category_name":"广东菜","address":"浦东新区东方路818号众城大厦3楼(近潍坊路)"},{"poiid":"B2094757D068A3F9459C","title":"85度C 潍坊店","lon":"121.527273054","lat":"31.226372793","category":"112","category_name":"糕饼店","address":"浦东新区潍坊路164号(近东方路)"},{"poiid":"B2094757D068ABFE479D","title":"will\\'s 健身会所(九六广场店)","lon":"121.52732377","lat":"31.228175696","category":"221","category_name":"健身中心","address":"上海浦东新区东方路796号96广场B1楼(近张杨路)"},{"poiid":"B2094757D06FAAFB409C","title":"虹桥古北汤馆(九六广场店)","lon":"121.52533968","lat":"31.226928424","category":"500","category_name":"未知分类","address":"上海世纪大道东方路九六广场二层"},{"poiid":"B2094654DA6AA3F9479E","title":"老西安","lon":"121.529323054","lat":"31.227174793","category":"84","category_name":"西北菜","address":"浦东新区潍坊路192号(近世纪大道)"},{"poiid":"B2094757D068A0F5439B","title":"肯德基 KFC (潍坊店)","lon":"121.52683421","lat":"31.225123503","category":"68","category_name":"快餐厅","address":"浦东新区崂山路585号(近潍坊路)"},{"poiid":"B2094757D068A2FB499D","title":"中国建设银行(东方路支行)","lon":"121.52546","lat":"31.22655","category":"150","category_name":"银行","address":"上海浦东新区东方路818号(近潍坊路)"},{"poiid":"B209475CD26DA0F44992","title":"糖员外私房甜品（96广场店）","lon":"121.530052","lat":"31.226718","category":"247","category_name":"餐饮美食","address":"上海市 东方路796号96广场249B"},{"poiid":"B2094655D265A5FD459B","title":"莎琪玛港式茶餐厅","lon":"121.52894","lat":"31.23002","category":"72","category_name":"广东菜","address":"浦东新区福山路295号(近张杨路)"},{"poiid":"B2094757D06AA0FA419D","title":"福山路世纪大道车站","lon":"121.52947","lat":"31.22856","category":"500","category_name":"未知分类","address":"上海福山路世纪大道"},{"poiid":"B2094654DB69A0FA4192","title":"大渔(东方店)","lon":"121.52796","lat":"31.22467","category":"87","category_name":"特色／地方风味餐厅","address":"浦东新区东方路877号嘉兴大厦3楼(近向城路)"},{"poiid":"B2094757D465A4FA419E","title":"邵稼楼 潍坊路店","lon":"121.527697054","lat":"31.225929793","category":"76","category_name":"上海菜","address":"浦东新区潍坊路172号(近东方路)"},{"poiid":"B2094757D16FABF9489C","title":"蒂凡尼","lon":"121.527249738","lat":"31.2257132038","category":"500","category_name":"未知分类","address":"上海96广场"},{"poiid":"B2094757D66EA0FA4993","title":"地铁二号线车厢内","lon":"121.52563323","lat":"31.228779679","category":"500","category_name":"未知分类","address":null},{"poiid":"B2094655D26EA6FF439E","title":"蒂凡尼(浦东店)","lon":"121.5292","lat":"31.22821","category":"148","category_name":"美容美发店","address":"浦东新区世纪大道1211号A15-A16座"},{"poiid":"B2094655D26DA1FF439A","title":"96广场","lon":"121.52503","lat":"31.22758","category":"46","category_name":"楼宇","address":"浦东新区东方路796号(近张杨路)"},{"poiid":"B2094655D26AA0F84993","title":"地铁世纪大道站","lon":"121.52693","lat":"31.22938","category":"36","category_name":"地铁站","address":""},{"poiid":"B2094757D06EAAFD4393","title":"广州蕉叶(96广场店)","lon":"121.52547","lat":"31.22759","category":"99","category_name":"泰国／越南菜品餐厅","address":"浦东新区东方路796号96广场2楼(近张杨路)"},{"poiid":"B209475CD564A7F84392","title":"上海滩浦东香格里拉店","lon":"121.50058","lat":"31.23634","category":"119","category_name":"商场","address":"浦东富成路33号香格里拉酒店内大堂层"},{"poiid":"B2094655D26EA2FE479E","title":"渝信川菜(96广场店)","lon":"121.52505","lat":"31.22759","category":"71","category_name":"四川菜","address":"浦东新区东方路796号96广场3楼(近张杨路)"},{"poiid":"B2094757D06EAAF5449B","title":"烧肉达人(96广场店)","lon":"121.52538","lat":"31.22717","category":"269","category_name":"烧烤","address":"浦东新区东方路796号96广场2楼211号铺(近张杨路)"},{"poiid":"B2094757D06FA1FE4793","title":"纯彩新东京和风","lon":"121.52531","lat":"31.22731","category":"95","category_name":"日本料理","address":"浦东新区东方路796号96广场2楼(近世纪大道)"},{"poiid":"B2094757D06FA3FA4098","title":"望湘园(96广场店)","lon":"121.52618","lat":"31.2275","category":"77","category_name":"湖南菜","address":"浦东新区东方路796号96广场3楼302商铺(近张杨路)"},{"poiid":"B2094757D06EAAFF449C","title":"世纪大道地铁站","lon":"121.52631663","lat":"31.229214229","category":"36","category_name":"地铁站","address":"上海轨道交通 二号线 四号线 六号线 九号线 轨交世纪大道站 轻轨 2 4 6 9"},{"poiid":"B2094655D26DA0FE469D","title":"合点寿司","lon":"121.52504","lat":"31.22758","category":"95","category_name":"日本料理","address":"浦东新区东方路796号96广场2楼(近张杨路)"},{"poiid":"B2094757D06FA3FF469B","title":"汉拿山 96广场店","lon":"121.525542054","lat":"31.228178793","category":"96","category_name":"韩国料理","address":"浦东新区东方路796号96广场2楼229-232号(近张杨路)"},{"poiid":"B2094757D06EABF5459D","title":"家有好面 96广场店","lon":"121.525281","lat":"31.22805","category":"68","category_name":"快餐厅","address":"浦东新区东方路796号96广场1楼(近8号门)"},{"poiid":"B2094757D06FA3F4459A","title":"尚一汤(96广场店)","lon":"121.52533","lat":"31.22772","category":"72","category_name":"广东菜","address":"浦东新区东方路796号96广场2楼215-216铺(近地铁世纪大道站)"},{"poiid":"B2094757D66BA2F94892","title":"九龙冰室 东方路店 Kowloon Ice House","lon":"121.525541344","lat":"31.228178693","category":"257","category_name":"中餐厅","address":"浦东新区东方路796号96广场2楼(近张杨路)"},{"poiid":"B2094757D068AAFD409A","title":"台北吴记麻辣火锅(张扬路店))","lon":"121.529039738","lat":"31.2306723095","category":"86","category_name":"火锅店","address":"浦东新区张杨路998号(近福山路)"},{"poiid":"B2094654DA6AA3FA489A","title":"苏浙汇(东方店)","lon":"121.52799","lat":"31.22449","category":"76","category_name":"上海菜","address":"浦东新区东方路877号(近潍坊路)"},{"poiid":"B2094757D06FA6FE449E","title":"齐鲁万怡大酒店","lon":"121.52576845","lat":"31.225949269","category":"217","category_name":"旅馆招待所","address":"浦东新区东方路838号(近潍坊路)"},{"poiid":"B2094757D16FA7FA4999","title":"Wagas","lon":"121.525","lat":"31.227528","category":"500","category_name":"未知分类","address":"上海东方路796号96广场171-172室"},{"poiid":"B2094757D06FA4FC4998","title":"全聚德(浦东店)","lon":"121.52544","lat":"31.22819","category":"260","category_name":"其他","address":"浦东新区东方路778号紫金山大酒店3楼(近张杨路)"},{"poiid":"B2094757D06FA0F4479B","title":"大渔铁板烧(96广场店)","lon":"121.5254","lat":"31.22737","category":"95","category_name":"日本料理","address":"浦东新区东方路796号96广场2楼(近宝安大厦)"},{"poiid":"B2094757DB69AAFA4498","title":"渝利火锅","lon":"121.5252516","lat":"31.2274049","category":"86","category_name":"火锅店","address":"浦东新区东方路796号96广场2楼233-235号铺"},{"poiid":"B2094654DB69ABF4469B","title":"威尔士健身会所(九六广场店)","lon":"121.52584","lat":"31.22775","category":"221","category_name":"健身中心","address":"浦东新区东方路796号96广场B1楼(近张杨路)"},{"poiid":"B2094757D06FA2F54298","title":"麦当劳(东方路店)","lon":"121.52743","lat":"31.22576","category":"68","category_name":"快餐厅","address":"浦东新区潍坊路162号(近东方路)"},{"poiid":"B2094757DA6EABFA479F","title":"蜀留香冷锅鱼(潍坊路店)","lon":"121.529072999998","lat":"31.2265219999997","category":"86","category_name":"火锅店","address":"浦东新区潍坊路194号(近世纪大道)"},{"poiid":"B2094655D36DA7FE4092","title":"张扬路福山路","lon":"121.52742","lat":"31.23083","category":"38","category_name":"公交车站","address":""},{"poiid":"B2094757D66AA7FE459C","title":"新九龙城茶餐厅","lon":"121.525542054","lat":"31.228178793","category":"72","category_name":"广东菜","address":"浦东新区东方路796号96广场1楼145单元(近张杨路)"},{"poiid":"B2094757D06FA5FF4192","title":"徽珍源(潍坊路店)","lon":"121.5269","lat":"31.22535","category":"260","category_name":"其他","address":"浦东新区潍坊路162号(近东方路)"},{"poiid":"B2094757D06FABFD429D","title":"阿拉对面碳烤鱼 福山路店","lon":"121.5284129484","lat":"31.231552680725","category":"71","category_name":"四川菜","address":"浦东新区福山路287号(近张杨路)"},{"poiid":"B2094757D06FA4FF4498","title":"億方砂锅粥(潍坊路店)","lon":"121.52899","lat":"31.22607","category":"72","category_name":"广东菜","address":"上海浦东新区潍坊路188号(近东方路)"},{"poiid":"B2094757D064AAFB409A","title":"美年体检","lon":"121.52747344","lat":"31.22664526","category":"162","category_name":"医院","address":"上海崂山路523号"},{"poiid":"B2094753D36FA3FC439B","title":"世纪大道地铁站","lon":"121.52771","lat":"31.225006","category":"36","category_name":"地铁站","address":"上海市 世纪大道地铁站"},{"poiid":"B2094757D068A3FE409F","title":"振鼎鸡(潍坊路店)","lon":"121.52882773","lat":"31.225452198","category":"68","category_name":"快餐厅","address":"浦东新区潍坊路174号(近东方路)"},{"poiid":"B2094757D068ABFC499B","title":"上海歌城(东昌路店)","lon":"121.528610229","lat":"31.2306118011","category":"170","category_name":"KTV","address":"上海八佰伴对面"},{"poiid":"B2094757D068A1F9429B","title":"干锅居(东方路店)","lon":"121.527303266","lat":"31.2256183568","category":"83","category_name":"云贵菜","address":"浦东新区潍坊路162号3幢(近东方路)"},{"poiid":"B2094757D06AA2FD459A","title":"百蝶日式料理店 东方路店","lon":"121.52416437448","lat":"31.226651993154","category":"95","category_name":"日本料理","address":"浦东新区崂山路588号宝安大厦1楼(近潍坊路)"},{"poiid":"B2094757D16CA3F54292","title":"堡龙阁","lon":"121.525879","lat":"31.226608","category":"72","category_name":"广东菜","address":"浦东新区东方路818号众城大厦3楼(近潍坊路)"},{"poiid":"B2094757D068A3F9459C","title":"85度C 潍坊店","lon":"121.527273054","lat":"31.226372793","category":"112","category_name":"糕饼店","address":"浦东新区潍坊路164号(近东方路)"},{"poiid":"B2094757D068ABFE479D","title":"will\\'s 健身会所(九六广场店)","lon":"121.52732377","lat":"31.228175696","category":"221","category_name":"健身中心","address":"上海浦东新区东方路796号96广场B1楼(近张杨路)"},{"poiid":"B2094757D06FAAFB409C","title":"虹桥古北汤馆(九六广场店)","lon":"121.52533968","lat":"31.226928424","category":"500","category_name":"未知分类","address":"上海世纪大道东方路九六广场二层"},{"poiid":"B2094654DA6AA3F9479E","title":"老西安","lon":"121.529323054","lat":"31.227174793","category":"84","category_name":"西北菜","address":"浦东新区潍坊路192号(近世纪大道)"},{"poiid":"B2094757D068A0F5439B","title":"肯德基 KFC (潍坊店)","lon":"121.52683421","lat":"31.225123503","category":"68","category_name":"快餐厅","address":"浦东新区崂山路585号(近潍坊路)"},{"poiid":"B2094757D068A2FB499D","title":"中国建设银行(东方路支行)","lon":"121.52546","lat":"31.22655","category":"150","category_name":"银行","address":"上海浦东新区东方路818号(近潍坊路)"},{"poiid":"B209475CD26DA0F44992","title":"糖员外私房甜品（96广场店）","lon":"121.530052","lat":"31.226718","category":"247","category_name":"餐饮美食","address":"上海市 东方路796号96广场249B"},{"poiid":"B2094655D265A5FD459B","title":"莎琪玛港式茶餐厅","lon":"121.52894","lat":"31.23002","category":"72","category_name":"广东菜","address":"浦东新区福山路295号(近张杨路)"},{"poiid":"B2094757D06AA0FA419D","title":"福山路世纪大道车站","lon":"121.52947","lat":"31.22856","category":"500","category_name":"未知分类","address":"上海福山路世纪大道"},{"poiid":"B2094654DB69A0FA4192","title":"大渔(东方店)","lon":"121.52796","lat":"31.22467","category":"87","category_name":"特色／地方风味餐厅","address":"浦东新区东方路877号嘉兴大厦3楼(近向城路)"},{"poiid":"B2094757D465A4FA419E","title":"邵稼楼 潍坊路店","lon":"121.527697054","lat":"31.225929793","category":"76","category_name":"上海菜","address":"浦东新区潍坊路172号(近东方路)"},{"poiid":"B2094757D16FABF9489C","title":"蒂凡尼","lon":"121.527249738","lat":"31.2257132038","category":"500","category_name":"未知分类","address":"上海96广场"},{"poiid":"B2094757D66EA0FA4993","title":"地铁二号线车厢内","lon":"121.52563323","lat":"31.228779679","category":"500","category_name":"未知分类","address":null},{"poiid":"B2094655D26EA6FF439E","title":"蒂凡尼(浦东店)","lon":"121.5292","lat":"31.22821","category":"148","category_name":"美容美发店","address":"浦东新区世纪大道1211号A15-A16座"},{"poiid":"B2094655D26DA1FF439A","title":"96广场","lon":"121.52503","lat":"31.22758","category":"46","category_name":"楼宇","address":"浦东新区东方路796号(近张杨路)"},{"poiid":"B2094655D26AA0F84993","title":"地铁世纪大道站","lon":"121.52693","lat":"31.22938","category":"36","category_name":"地铁站","address":""},{"poiid":"B2094757D06EAAFD4393","title":"广州蕉叶(96广场店)","lon":"121.52547","lat":"31.22759","category":"99","category_name":"泰国／越南菜品餐厅","address":"浦东新区东方路796号96广场2楼(近张杨路)"},{"poiid":"B209475CD564A7F84392","title":"上海滩浦东香格里拉店","lon":"121.50058","lat":"31.23634","category":"119","category_name":"商场","address":"浦东富成路33号香格里拉酒店内大堂层"},{"poiid":"B2094655D26EA2FE479E","title":"渝信川菜(96广场店)","lon":"121.52505","lat":"31.22759","category":"71","category_name":"四川菜","address":"浦东新区东方路796号96广场3楼(近张杨路)"},{"poiid":"B2094757D06EAAF5449B","title":"烧肉达人(96广场店)","lon":"121.52538","lat":"31.22717","category":"269","category_name":"烧烤","address":"浦东新区东方路796号96广场2楼211号铺(近张杨路)"},{"poiid":"B2094757D06FA1FE4793","title":"纯彩新东京和风","lon":"121.52531","lat":"31.22731","category":"95","category_name":"日本料理","address":"浦东新区东方路796号96广场2楼(近世纪大道)"},{"poiid":"B2094757D06FA3FA4098","title":"望湘园(96广场店)","lon":"121.52618","lat":"31.2275","category":"77","category_name":"湖南菜","address":"浦东新区东方路796号96广场3楼302商铺(近张杨路)"},{"poiid":"B2094757D06EAAFF449C","title":"世纪大道地铁站","lon":"121.52631663","lat":"31.229214229","category":"36","category_name":"地铁站","address":"上海轨道交通 二号线 四号线 六号线 九号线 轨交世纪大道站 轻轨 2 4 6 9"},{"poiid":"B2094655D26DA0FE469D","title":"合点寿司","lon":"121.52504","lat":"31.22758","category":"95","category_name":"日本料理","address":"浦东新区东方路796号96广场2楼(近张杨路)"},{"poiid":"B2094757D06FA3FF469B","title":"汉拿山 96广场店","lon":"121.525542054","lat":"31.228178793","category":"96","category_name":"韩国料理","address":"浦东新区东方路796号96广场2楼229-232号(近张杨路)"},{"poiid":"B2094757D06EABF5459D","title":"家有好面 96广场店","lon":"121.525281","lat":"31.22805","category":"68","category_name":"快餐厅","address":"浦东新区东方路796号96广场1楼(近8号门)"},{"poiid":"B2094757D06FA3F4459A","title":"尚一汤(96广场店)","lon":"121.52533","lat":"31.22772","category":"72","category_name":"广东菜","address":"浦东新区东方路796号96广场2楼215-216铺(近地铁世纪大道站)"},{"poiid":"B2094757D66BA2F94892","title":"九龙冰室 东方路店 Kowloon Ice House","lon":"121.525541344","lat":"31.228178693","category":"257","category_name":"中餐厅","address":"浦东新区东方路796号96广场2楼(近张杨路)"},{"poiid":"B2094757D068AAFD409A","title":"台北吴记麻辣火锅(张扬路店))","lon":"121.529039738","lat":"31.2306723095","category":"86","category_name":"火锅店","address":"浦东新区张杨路998号(近福山路)"},{"poiid":"B2094654DA6AA3FA489A","title":"苏浙汇(东方店)","lon":"121.52799","lat":"31.22449","category":"76","category_name":"上海菜","address":"浦东新区东方路877号(近潍坊路)"},{"poiid":"B2094757D06FA6FE449E","title":"齐鲁万怡大酒店","lon":"121.52576845","lat":"31.225949269","category":"217","category_name":"旅馆招待所","address":"浦东新区东方路838号(近潍坊路)"},{"poiid":"B2094757D16FA7FA4999","title":"Wagas","lon":"121.525","lat":"31.227528","category":"500","category_name":"未知分类","address":"上海东方路796号96广场171-172室"},{"poiid":"B2094757D06FA4FC4998","title":"全聚德(浦东店)","lon":"121.52544","lat":"31.22819","category":"260","category_name":"其他","address":"浦东新区东方路778号紫金山大酒店3楼(近张杨路)"},{"poiid":"B2094757D06FA0F4479B","title":"大渔铁板烧(96广场店)","lon":"121.5254","lat":"31.22737","category":"95","category_name":"日本料理","address":"浦东新区东方路796号96广场2楼(近宝安大厦)"},{"poiid":"B2094757DB69AAFA4498","title":"渝利火锅","lon":"121.5252516","lat":"31.2274049","category":"86","category_name":"火锅店","address":"浦东新区东方路796号96广场2楼233-235号铺"},{"poiid":"B2094654DB69ABF4469B","title":"威尔士健身会所(九六广场店)","lon":"121.52584","lat":"31.22775","category":"221","category_name":"健身中心","address":"浦东新区东方路796号96广场B1楼(近张杨路)"},{"poiid":"B2094757D06FA2F54298","title":"麦当劳(东方路店)","lon":"121.52743","lat":"31.22576","category":"68","category_name":"快餐厅","address":"浦东新区潍坊路162号(近东方路)"},{"poiid":"B2094757DA6EABFA479F","title":"蜀留香冷锅鱼(潍坊路店)","lon":"121.529072999998","lat":"31.2265219999997","category":"86","category_name":"火锅店","address":"浦东新区潍坊路194号(近世纪大道)"},{"poiid":"B2094655D36DA7FE4092","title":"张扬路福山路","lon":"121.52742","lat":"31.23083","category":"38","category_name":"公交车站","address":""},{"poiid":"B2094757D66AA7FE459C","title":"新九龙城茶餐厅","lon":"121.525542054","lat":"31.228178793","category":"72","category_name":"广东菜","address":"浦东新区东方路796号96广场1楼145单元(近张杨路)"},{"poiid":"B2094757D06FA5FF4192","title":"徽珍源(潍坊路店)","lon":"121.5269","lat":"31.22535","category":"260","category_name":"其他","address":"浦东新区潍坊路162号(近东方路)"},{"poiid":"B2094757D06FABFD429D","title":"阿拉对面碳烤鱼 福山路店","lon":"121.5284129484","lat":"31.231552680725","category":"71","category_name":"四川菜","address":"浦东新区福山路287号(近张杨路)"},{"poiid":"B2094757D06FA4FF4498","title":"億方砂锅粥(潍坊路店)","lon":"121.52899","lat":"31.22607","category":"72","category_name":"广东菜","address":"上海浦东新区潍坊路188号(近东方路)"},{"poiid":"B2094757D064AAFB409A","title":"美年体检","lon":"121.52747344","lat":"31.22664526","category":"162","category_name":"医院","address":"上海崂山路523号"},{"poiid":"B2094753D36FA3FC439B","title":"世纪大道地铁站","lon":"121.52771","lat":"31.225006","category":"36","category_name":"地铁站","address":"上海市 世纪大道地铁站"},{"poiid":"B2094757D068A3FE409F","title":"振鼎鸡(潍坊路店)","lon":"121.52882773","lat":"31.225452198","category":"68","category_name":"快餐厅","address":"浦东新区潍坊路174号(近东方路)"},{"poiid":"B2094757D068ABFC499B","title":"上海歌城(东昌路店)","lon":"121.528610229","lat":"31.2306118011","category":"170","category_name":"KTV","address":"上海八佰伴对面"},{"poiid":"B2094757D068A1F9429B","title":"干锅居(东方路店)","lon":"121.527303266","lat":"31.2256183568","category":"83","category_name":"云贵菜","address":"浦东新区潍坊路162号3幢(近东方路)"},{"poiid":"B2094757D06AA2FD459A","title":"百蝶日式料理店 东方路店","lon":"121.52416437448","lat":"31.226651993154","category":"95","category_name":"日本料理","address":"浦东新区崂山路588号宝安大厦1楼(近潍坊路)"},{"poiid":"B2094757D16CA3F54292","title":"堡龙阁","lon":"121.525879","lat":"31.226608","category":"72","category_name":"广东菜","address":"浦东新区东方路818号众城大厦3楼(近潍坊路)"},{"poiid":"B2094757D068A3F9459C","title":"85度C 潍坊店","lon":"121.527273054","lat":"31.226372793","category":"112","category_name":"糕饼店","address":"浦东新区潍坊路164号(近东方路)"},{"poiid":"B2094757D068ABFE479D","title":"will\\'s 健身会所(九六广场店)","lon":"121.52732377","lat":"31.228175696","category":"221","category_name":"健身中心","address":"上海浦东新区东方路796号96广场B1楼(近张杨路)"},{"poiid":"B2094757D06FAAFB409C","title":"虹桥古北汤馆(九六广场店)","lon":"121.52533968","lat":"31.226928424","category":"500","category_name":"未知分类","address":"上海世纪大道东方路九六广场二层"},{"poiid":"B2094654DA6AA3F9479E","title":"老西安","lon":"121.529323054","lat":"31.227174793","category":"84","category_name":"西北菜","address":"浦东新区潍坊路192号(近世纪大道)"},{"poiid":"B2094757D068A0F5439B","title":"肯德基 KFC (潍坊店)","lon":"121.52683421","lat":"31.225123503","category":"68","category_name":"快餐厅","address":"浦东新区崂山路585号(近潍坊路)"},{"poiid":"B2094757D068A2FB499D","title":"中国建设银行(东方路支行)","lon":"121.52546","lat":"31.22655","category":"150","category_name":"银行","address":"上海浦东新区东方路818号(近潍坊路)"},{"poiid":"B209475CD26DA0F44992","title":"糖员外私房甜品（96广场店）","lon":"121.530052","lat":"31.226718","category":"247","category_name":"餐饮美食","address":"上海市 东方路796号96广场249B"},{"poiid":"B2094655D265A5FD459B","title":"莎琪玛港式茶餐厅","lon":"121.52894","lat":"31.23002","category":"72","category_name":"广东菜","address":"浦东新区福山路295号(近张杨路)"},{"poiid":"B2094757D06AA0FA419D","title":"福山路世纪大道车站","lon":"121.52947","lat":"31.22856","category":"500","category_name":"未知分类","address":"上海福山路世纪大道"},{"poiid":"B2094654DB69A0FA4192","title":"大渔(东方店)","lon":"121.52796","lat":"31.22467","category":"87","category_name":"特色／地方风味餐厅","address":"浦东新区东方路877号嘉兴大厦3楼(近向城路)"},{"poiid":"B2094757D465A4FA419E","title":"邵稼楼 潍坊路店","lon":"121.527697054","lat":"31.225929793","category":"76","category_name":"上海菜","address":"浦东新区潍坊路172号(近东方路)"},{"poiid":"B2094757D16FABF9489C","title":"蒂凡尼","lon":"121.527249738","lat":"31.2257132038","category":"500","category_name":"未知分类","address":"上海96广场"},{"poiid":"B2094757D66EA0FA4993","title":"地铁二号线车厢内","lon":"121.52563323","lat":"31.228779679","category":"500","category_name":"未知分类","address":null},{"poiid":"B2094655D26EA6FF439E","title":"蒂凡尼(浦东店)","lon":"121.5292","lat":"31.22821","category":"148","category_name":"美容美发店","address":"浦东新区世纪大道1211号A15-A16座"},{"poiid":"B2094655D26DA1FF439A","title":"96广场","lon":"121.52503","lat":"31.22758","category":"46","category_name":"楼宇","address":"浦东新区东方路796号(近张杨路)"},{"poiid":"B2094655D26AA0F84993","title":"地铁世纪大道站","lon":"121.52693","lat":"31.22938","category":"36","category_name":"地铁站","address":""},{"poiid":"B2094757D06EAAFD4393","title":"广州蕉叶(96广场店)","lon":"121.52547","lat":"31.22759","category":"99","category_name":"泰国／越南菜品餐厅","address":"浦东新区东方路796号96广场2楼(近张杨路)"},{"poiid":"B209475CD564A7F84392","title":"上海滩浦东香格里拉店","lon":"121.50058","lat":"31.23634","category":"119","category_name":"商场","address":"浦东富成路33号香格里拉酒店内大堂层"},{"poiid":"B2094655D26EA2FE479E","title":"渝信川菜(96广场店)","lon":"121.52505","lat":"31.22759","category":"71","category_name":"四川菜","address":"浦东新区东方路796号96广场3楼(近张杨路)"},{"poiid":"B2094757D06EAAF5449B","title":"烧肉达人(96广场店)","lon":"121.52538","lat":"31.22717","category":"269","category_name":"烧烤","address":"浦东新区东方路796号96广场2楼211号铺(近张杨路)"},{"poiid":"B2094757D06FA1FE4793","title":"纯彩新东京和风","lon":"121.52531","lat":"31.22731","category":"95","category_name":"日本料理","address":"浦东新区东方路796号96广场2楼(近世纪大道)"},{"poiid":"B2094757D06FA3FA4098","title":"望湘园(96广场店)","lon":"121.52618","lat":"31.2275","category":"77","category_name":"湖南菜","address":"浦东新区东方路796号96广场3楼302商铺(近张杨路)"},{"poiid":"B2094757D06EAAFF449C","title":"世纪大道地铁站","lon":"121.52631663","lat":"31.229214229","category":"36","category_name":"地铁站","address":"上海轨道交通 二号线 四号线 六号线 九号线 轨交世纪大道站 轻轨 2 4 6 9"},{"poiid":"B2094655D26DA0FE469D","title":"合点寿司","lon":"121.52504","lat":"31.22758","category":"95","category_name":"日本料理","address":"浦东新区东方路796号96广场2楼(近张杨路)"},{"poiid":"B2094757D06FA3FF469B","title":"汉拿山 96广场店","lon":"121.525542054","lat":"31.228178793","category":"96","category_name":"韩国料理","address":"浦东新区东方路796号96广场2楼229-232号(近张杨路)"},{"poiid":"B2094757D06EABF5459D","title":"家有好面 96广场店","lon":"121.525281","lat":"31.22805","category":"68","category_name":"快餐厅","address":"浦东新区东方路796号96广场1楼(近8号门)"},{"poiid":"B2094757D06FA3F4459A","title":"尚一汤(96广场店)","lon":"121.52533","lat":"31.22772","category":"72","category_name":"广东菜","address":"浦东新区东方路796号96广场2楼215-216铺(近地铁世纪大道站)"},{"poiid":"B2094757D66BA2F94892","title":"九龙冰室 东方路店 Kowloon Ice House","lon":"121.525541344","lat":"31.228178693","category":"257","category_name":"中餐厅","address":"浦东新区东方路796号96广场2楼(近张杨路)"},{"poiid":"B2094757D068AAFD409A","title":"台北吴记麻辣火锅(张扬路店))","lon":"121.529039738","lat":"31.2306723095","category":"86","category_name":"火锅店","address":"浦东新区张杨路998号(近福山路)"},{"poiid":"B2094654DA6AA3FA489A","title":"苏浙汇(东方店)","lon":"121.52799","lat":"31.22449","category":"76","category_name":"上海菜","address":"浦东新区东方路877号(近潍坊路)"},{"poiid":"B2094757D06FA6FE449E","title":"齐鲁万怡大酒店","lon":"121.52576845","lat":"31.225949269","category":"217","category_name":"旅馆招待所","address":"浦东新区东方路838号(近潍坊路)"},{"poiid":"B2094757D16FA7FA4999","title":"Wagas","lon":"121.525","lat":"31.227528","category":"500","category_name":"未知分类","address":"上海东方路796号96广场171-172室"},{"poiid":"B2094757D06FA4FC4998","title":"全聚德(浦东店)","lon":"121.52544","lat":"31.22819","category":"260","category_name":"其他","address":"浦东新区东方路778号紫金山大酒店3楼(近张杨路)"},{"poiid":"B2094757D06FA0F4479B","title":"大渔铁板烧(96广场店)","lon":"121.5254","lat":"31.22737","category":"95","category_name":"日本料理","address":"浦东新区东方路796号96广场2楼(近宝安大厦)"},{"poiid":"B2094757DB69AAFA4498","title":"渝利火锅","lon":"121.5252516","lat":"31.2274049","category":"86","category_name":"火锅店","address":"浦东新区东方路796号96广场2楼233-235号铺"},{"poiid":"B2094654DB69ABF4469B","title":"威尔士健身会所(九六广场店)","lon":"121.52584","lat":"31.22775","category":"221","category_name":"健身中心","address":"浦东新区东方路796号96广场B1楼(近张杨路)"},{"poiid":"B2094757D06FA2F54298","title":"麦当劳(东方路店)","lon":"121.52743","lat":"31.22576","category":"68","category_name":"快餐厅","address":"浦东新区潍坊路162号(近东方路)"},{"poiid":"B2094757DA6EABFA479F","title":"蜀留香冷锅鱼(潍坊路店)","lon":"121.529072999998","lat":"31.2265219999997","category":"86","category_name":"火锅店","address":"浦东新区潍坊路194号(近世纪大道)"},{"poiid":"B2094655D36DA7FE4092","title":"张扬路福山路","lon":"121.52742","lat":"31.23083","category":"38","category_name":"公交车站","address":""},{"poiid":"B2094757D66AA7FE459C","title":"新九龙城茶餐厅","lon":"121.525542054","lat":"31.228178793","category":"72","category_name":"广东菜","address":"浦东新区东方路796号96广场1楼145单元(近张杨路)"},{"poiid":"B2094757D06FA5FF4192","title":"徽珍源(潍坊路店)","lon":"121.5269","lat":"31.22535","category":"260","category_name":"其他","address":"浦东新区潍坊路162号(近东方路)"},{"poiid":"B2094757D06FABFD429D","title":"阿拉对面碳烤鱼 福山路店","lon":"121.5284129484","lat":"31.231552680725","category":"71","category_name":"四川菜","address":"浦东新区福山路287号(近张杨路)"},{"poiid":"B2094757D06FA4FF4498","title":"億方砂锅粥(潍坊路店)","lon":"121.52899","lat":"31.22607","category":"72","category_name":"广东菜","address":"上海浦东新区潍坊路188号(近东方路)"},{"poiid":"B2094757D064AAFB409A","title":"美年体检","lon":"121.52747344","lat":"31.22664526","category":"162","category_name":"医院","address":"上海崂山路523号"},{"poiid":"B2094753D36FA3FC439B","title":"世纪大道地铁站","lon":"121.52771","lat":"31.225006","category":"36","category_name":"地铁站","address":"上海市 世纪大道地铁站"},{"poiid":"B2094757D068A3FE409F","title":"振鼎鸡(潍坊路店)","lon":"121.52882773","lat":"31.225452198","category":"68","category_name":"快餐厅","address":"浦东新区潍坊路174号(近东方路)"},{"poiid":"B2094757D068ABFC499B","title":"上海歌城(东昌路店)","lon":"121.528610229","lat":"31.2306118011","category":"170","category_name":"KTV","address":"上海八佰伴对面"},{"poiid":"B2094757D068A1F9429B","title":"干锅居(东方路店)","lon":"121.527303266","lat":"31.2256183568","category":"83","category_name":"云贵菜","address":"浦东新区潍坊路162号3幢(近东方路)"},{"poiid":"B2094757D06AA2FD459A","title":"百蝶日式料理店 东方路店","lon":"121.52416437448","lat":"31.226651993154","category":"95","category_name":"日本料理","address":"浦东新区崂山路588号宝安大厦1楼(近潍坊路)"},{"poiid":"B2094757D16CA3F54292","title":"堡龙阁","lon":"121.525879","lat":"31.226608","category":"72","category_name":"广东菜","address":"浦东新区东方路818号众城大厦3楼(近潍坊路)"},{"poiid":"B2094757D068A3F9459C","title":"85度C 潍坊店","lon":"121.527273054","lat":"31.226372793","category":"112","category_name":"糕饼店","address":"浦东新区潍坊路164号(近东方路)"},{"poiid":"B2094757D068ABFE479D","title":"will\\'s 健身会所(九六广场店)","lon":"121.52732377","lat":"31.228175696","category":"221","category_name":"健身中心","address":"上海浦东新区东方路796号96广场B1楼(近张杨路)"},{"poiid":"B2094757D06FAAFB409C","title":"虹桥古北汤馆(九六广场店)","lon":"121.52533968","lat":"31.226928424","category":"500","category_name":"未知分类","address":"上海世纪大道东方路九六广场二层"},{"poiid":"B2094654DA6AA3F9479E","title":"老西安","lon":"121.529323054","lat":"31.227174793","category":"84","category_name":"西北菜","address":"浦东新区潍坊路192号(近世纪大道)"},{"poiid":"B2094757D068A0F5439B","title":"肯德基 KFC (潍坊店)","lon":"121.52683421","lat":"31.225123503","category":"68","category_name":"快餐厅","address":"浦东新区崂山路585号(近潍坊路)"},{"poiid":"B2094757D068A2FB499D","title":"中国建设银行(东方路支行)","lon":"121.52546","lat":"31.22655","category":"150","category_name":"银行","address":"上海浦东新区东方路818号(近潍坊路)"},{"poiid":"B209475CD26DA0F44992","title":"糖员外私房甜品（96广场店）","lon":"121.530052","lat":"31.226718","category":"247","category_name":"餐饮美食","address":"上海市 东方路796号96广场249B"},{"poiid":"B2094655D265A5FD459B","title":"莎琪玛港式茶餐厅","lon":"121.52894","lat":"31.23002","category":"72","category_name":"广东菜","address":"浦东新区福山路295号(近张杨路)"},{"poiid":"B2094757D06AA0FA419D","title":"福山路世纪大道车站","lon":"121.52947","lat":"31.22856","category":"500","category_name":"未知分类","address":"上海福山路世纪大道"},{"poiid":"B2094654DB69A0FA4192","title":"大渔(东方店)","lon":"121.52796","lat":"31.22467","category":"87","category_name":"特色／地方风味餐厅","address":"浦东新区东方路877号嘉兴大厦3楼(近向城路)"},{"poiid":"B2094757D465A4FA419E","title":"邵稼楼 潍坊路店","lon":"121.527697054","lat":"31.225929793","category":"76","category_name":"上海菜","address":"浦东新区潍坊路172号(近东方路)"},{"poiid":"B2094757D16FABF9489C","title":"蒂凡尼","lon":"121.527249738","lat":"31.2257132038","category":"500","category_name":"未知分类","address":"上海96广场"},{"poiid":"B2094757D66EA0FA4993","title":"地铁二号线车厢内","lon":"121.52563323","lat":"31.228779679","category":"500","category_name":"未知分类","address":null},{"poiid":"B2094655D26EA6FF439E","title":"蒂凡尼(浦东店)","lon":"121.5292","lat":"31.22821","category":"148","category_name":"美容美发店","address":"浦东新区世纪大道1211号A15-A16座"}]