[{"poiid":"B2094654DB68A1FA489D","title":"枫泾古镇旅游区","lon":"121.01859","lat":"30.89056","category":"250","category_name":"公园户外","address":"金山区枫泾镇区和中洪村"},{"poiid":"B2094757D06FA3FA429A","title":"G60沪昆高速枫泾服务区","lon":"121.040802","lat":"30.889434814","category":"260","category_name":"其他","address":"上海G60沪昆高速枫泾服务区"},{"poiid":"B2094655D268ABFF459C","title":"枫泾收费站","lon":"121.03628","lat":"30.89162","category":"267","category_name":"收费站","address":""},{"poiid":"B2094757D069A6F44393","title":"新长岭大酒店","lon":"121.013876913","lat":"30.8982504983","category":"76","category_name":"上海菜","address":"上海近郊金山区枫泾镇枫湾路798号"},{"poiid":"B2094757D069AAF54098","title":"唔呶喔哩酒家(生产街店)","lon":"121.01715","lat":"30.88747","category":"76","category_name":"上海菜","address":"近郊金山区枫泾镇生产街65号(枫丽路枫泾新泾路)"},{"poiid":"B2094654DB68A1FA499B","title":"上海市金山区中心医院枫泾分院","lon":"121.02247","lat":"30.89181","category":"162","category_name":"医院","address":"近郊金山区白牛路219号(近枫杰路)"},{"poiid":"B2094654DB68A1F9419C","title":"枫泾汽车站","lon":"121.02232","lat":"30.8931","category":"35","category_name":"长途汽车站","address":"新车站路181号"},{"poiid":"B2094757D168A7F94693","title":"古镇印象","lon":"121.016436664","lat":"30.887484951","category":"76","category_name":"上海菜","address":"近郊金山枫泾镇中大街238号"},{"poiid":"B2094757D16AA6FD4092","title":"枫泾中学","lon":"121.02272","lat":"30.88978","category":"55","category_name":"中学","address":"近郊金山区枫泾镇白牛路188号(近枫泾汽车站)"},{"poiid":"B2094655D264A0F94392","title":"桥英花苑","lon":"121.02461","lat":"30.8943","category":"47","category_name":"住宅区","address":"上海市金山区枫泾镇白牛路338弄30号"},{"poiid":"B2094757D064A6FB469A","title":"枫径公墓","lon":"121.010329","lat":"30.888312","category":"620","category_name":"丧葬","address":"上海金山区枫径朱枫公路"},{"poiid":"B2094654DB68A1FA449F","title":"性觉禅寺","lon":"121.0241","lat":"30.89614","category":"244","category_name":"寺庙道观","address":"枫泾镇北"},{"poiid":"B2094654DB68A1F9419E","title":"川府火锅","lon":"121.02265","lat":"30.89314","category":"86","category_name":"火锅店","address":"近郊金山区枫阳路155号(近白牛路)"},{"poiid":"B2094757D468A4F94492","title":"引宝农家饭店","lon":"121.0198385","lat":"30.8913565","category":"87","category_name":"特色／地方风味餐厅","address":"近郊金山区枫泾镇北大街"},{"poiid":"B2094654DB68A1F84893","title":"枫阳新村","lon":"121.01883","lat":"30.89371","category":"47","category_name":"住宅区","address":"上海市金山区枫泾镇"},{"poiid":"B2094654DB68A1FA499A","title":"快客No.6629","lon":"121.02253","lat":"30.89196","category":"117","category_name":"便民商店/便利店","address":"白牛路255"},{"poiid":"B2094757D16CAAF44299","title":"金皇朝大酒店","lon":"121.014549","lat":"30.891193","category":"217","category_name":"旅馆招待所","address":"近郊金山区枫泾镇泾波路128号"},{"poiid":"B2094654DB64A5FD439A","title":"吉利海鲜楼","lon":"121.02653","lat":"30.89246","category":"76","category_name":"上海菜","address":"近郊金山区枫泾枫阳路180号"},{"poiid":"B209475CD365A7FF4392","title":"肯德基 枫泾店","lon":"121.0234","lat":"30.89294","category":"68","category_name":"快餐厅","address":"枫泾镇白牛路280号(枫阳路口)"},{"poiid":"B2094655D26FA5FD499E","title":"枫岸华庭","lon":"121.0295","lat":"30.896118","category":"47","category_name":"住宅区","address":"金山区枫泾镇青风路500弄"},{"poiid":"B2094655D26BA3F5419C","title":"好又多(枫泾店)","lon":"121.02366","lat":"30.89329","category":"118","category_name":"超级市场","address":""},{"poiid":"B2094654DB68A1FA4492","title":"皇驾咖啡","lon":"121.02036","lat":"30.89323","category":"65","category_name":"咖啡厅","address":"北大街617"},{"poiid":"B2094654DB68A1FA4999","title":"白牛小区","lon":"121.02102","lat":"30.88918","category":"47","category_name":"住宅区","address":""},{"poiid":"B2094654DB68A1FE489D","title":"枫泾小学","lon":"121.01874","lat":"30.89066","category":"56","category_name":"小学","address":""},{"poiid":"B2094654DB68A1F94193","title":"百乐酒店","lon":"121.02369","lat":"30.89293","category":"257","category_name":"中餐厅","address":"枫泾镇"},{"poiid":"B2094654DB68A1F9429D","title":"上海金山众仁护理院","lon":"121.02246","lat":"30.89386","category":"265","category_name":"知名企业","address":"金山区枫泾镇枫阳路258号"},{"poiid":"B2094655D36CA4FD4298","title":"白牛新村","lon":"121.025","lat":"30.8913","category":"38","category_name":"公交车站","address":"白牛新村"},{"poiid":"B2094757D66CA3FB4798","title":"长廊饭店","lon":"121.01947115","lat":"30.8872914761","category":"247","category_name":"餐饮美食","address":"近郊金山区枫泾镇生产街54号(小桥流水古街)"},{"poiid":"B2094654DB68A1F8499C","title":"尚典咖啡","lon":"121.01963","lat":"30.89381","category":"65","category_name":"咖啡厅","address":"枫泾镇"},{"poiid":"B2094757D66CABFE4192","title":"延安东路中山东一路","lon":"121.02117015","lat":"30.8911904665","category":"500","category_name":"未知分类","address":"上海延安东路58号"},{"poiid":"B2094654DB68A1FA4493","title":"金中中学","lon":"121.01834","lat":"30.89181","category":"55","category_name":"中学","address":""},{"poiid":"B2094654DB68A1FA449D","title":"农兴苑","lon":"121.02611","lat":"30.890118","category":"47","category_name":"住宅区","address":"环城东路100弄"},{"poiid":"B2094655D36CA6F84293","title":"枫泾牌楼","lon":"121.01543","lat":"30.88391","category":"38","category_name":"公交车站","address":""},{"poiid":"B2094654DB68A1FB4193","title":"白牛二村","lon":"121.02132","lat":"30.8887","category":"47","category_name":"住宅区","address":"枫阳路242弄"},{"poiid":"B2094655D26FA3F54598","title":"施王庙","lon":"121.01753","lat":"30.89027","category":"244","category_name":"寺庙道观","address":"近郊金山区枫泾镇北大街409号"},{"poiid":"B2094655D264A0F5499D","title":"创欣名苑","lon":"121.02644","lat":"30.891483","category":"47","category_name":"住宅区","address":"上海市金山区泾宾路535弄等"},{"poiid":"B2094757D568A4F8499F","title":"G60沪昆高速枫泾收费站","lon":"121.036288","lat":"30.891621","category":"267","category_name":"收费站","address":"中国上海市金山区A8"},{"poiid":"B2094654DB68A1FF4993","title":"迪卡咖啡","lon":"121.01445","lat":"30.89161","category":"65","category_name":"咖啡厅","address":"枫泾镇"},{"poiid":"B2094757D168A3FE479B","title":"人民公社旧址","lon":"121.017094","lat":"30.887033","category":"500","category_name":"未知分类","address":"上海枫泾古镇"},{"poiid":"B2094655D264A4FA439E","title":"枫泾烧麦店","lon":"121.0171","lat":"30.88704","category":"257","category_name":"中餐厅","address":"枫泾古镇枫溪长廊1号"},{"poiid":"B2094655D26EA1FC469F","title":"施王庙(东南门)","lon":"121.01789","lat":"30.8901","category":"679","category_name":"楼宇机构","address":"北大街393"},{"poiid":"B2094654DB68A1FA4499","title":"云枫苑","lon":"121.01559","lat":"30.89598","category":"47","category_name":"住宅区","address":"上海市金山区枫泾镇泾波路376弄"},{"poiid":"B2094654DB68A1FE499C","title":"枫溪公园","lon":"121.01783","lat":"30.88629","category":"196","category_name":"公园","address":"近郊金山区枫泾镇新枫路45号(枫丽路新枫路)"},{"poiid":"B2094654DB68A1FA429C","title":"枫泾状元糕","lon":"121.01596","lat":"30.88634","category":"112","category_name":"糕饼店","address":"近郊金山枫泾镇芙蓉村5幢502号"},{"poiid":"B2094654DB68A1FF409B","title":"枫泾站","lon":"121.02947","lat":"30.89247","category":"22","category_name":"火车站","address":"枫阳路1号"},{"poiid":"B2094654DB68A1FA4092","title":"枫泾天纯小吃世界","lon":"121.01473","lat":"30.88802","category":"257","category_name":"中餐厅","address":"近郊金山区新泾路207号(近联华超市)"},{"poiid":"B2094757D169A6FC469D","title":"清风阁茶楼","lon":"121.01669245","lat":"30.8886461075","category":"260","category_name":"其他","address":"近郊金山区枫泾三桥附近(近清风桥)"},{"poiid":"B2094654DB68A1F84493","title":"老庙小笼(泾波路)","lon":"121.0155","lat":"30.89431","category":"257","category_name":"中餐厅","address":"商城路146号"},{"poiid":"B2094654DB64A0F5469F","title":"中国移动枫泾营业厅","lon":"121.01724","lat":"30.88701","category":"151","category_name":"电讯营业厅","address":"枫泾镇新泾路92号"},{"poiid":"B2094654DB68A1FA4992","title":"重庆烧鸡公(枫丽路)","lon":"121.01727","lat":"30.88717","category":"71","category_name":"四川菜","address":""},{"poiid":"B2094654DB68A1FA489D","title":"枫泾古镇旅游区","lon":"121.01859","lat":"30.89056","category":"250","category_name":"公园户外","address":"金山区枫泾镇区和中洪村"},{"poiid":"B2094757D06FA3FA429A","title":"G60沪昆高速枫泾服务区","lon":"121.040802","lat":"30.889434814","category":"260","category_name":"其他","address":"上海G60沪昆高速枫泾服务区"},{"poiid":"B2094655D268ABFF459C","title":"枫泾收费站","lon":"121.03628","lat":"30.89162","category":"267","category_name":"收费站","address":""},{"poiid":"B2094757D069A6F44393","title":"新长岭大酒店","lon":"121.013876913","lat":"30.8982504983","category":"76","category_name":"上海菜","address":"上海近郊金山区枫泾镇枫湾路798号"},{"poiid":"B2094757D069AAF54098","title":"唔呶喔哩酒家(生产街店)","lon":"121.01715","lat":"30.88747","category":"76","category_name":"上海菜","address":"近郊金山区枫泾镇生产街65号(枫丽路枫泾新泾路)"},{"poiid":"B2094654DB68A1FA499B","title":"上海市金山区中心医院枫泾分院","lon":"121.02247","lat":"30.89181","category":"162","category_name":"医院","address":"近郊金山区白牛路219号(近枫杰路)"},{"poiid":"B2094654DB68A1F9419C","title":"枫泾汽车站","lon":"121.02232","lat":"30.8931","category":"35","category_name":"长途汽车站","address":"新车站路181号"},{"poiid":"B2094757D168A7F94693","title":"古镇印象","lon":"121.016436664","lat":"30.887484951","category":"76","category_name":"上海菜","address":"近郊金山枫泾镇中大街238号"},{"poiid":"B2094757D16AA6FD4092","title":"枫泾中学","lon":"121.02272","lat":"30.88978","category":"55","category_name":"中学","address":"近郊金山区枫泾镇白牛路188号(近枫泾汽车站)"},{"poiid":"B2094655D264A0F94392","title":"桥英花苑","lon":"121.02461","lat":"30.8943","category":"47","category_name":"住宅区","address":"上海市金山区枫泾镇白牛路338弄30号"},{"poiid":"B2094757D064A6FB469A","title":"枫径公墓","lon":"121.010329","lat":"30.888312","category":"620","category_name":"丧葬","address":"上海金山区枫径朱枫公路"},{"poiid":"B2094654DB68A1FA449F","title":"性觉禅寺","lon":"121.0241","lat":"30.89614","category":"244","category_name":"寺庙道观","address":"枫泾镇北"},{"poiid":"B2094654DB68A1F9419E","title":"川府火锅","lon":"121.02265","lat":"30.89314","category":"86","category_name":"火锅店","address":"近郊金山区枫阳路155号(近白牛路)"},{"poiid":"B2094757D468A4F94492","title":"引宝农家饭店","lon":"121.0198385","lat":"30.8913565","category":"87","category_name":"特色／地方风味餐厅","address":"近郊金山区枫泾镇北大街"},{"poiid":"B2094654DB68A1F84893","title":"枫阳新村","lon":"121.01883","lat":"30.89371","category":"47","category_name":"住宅区","address":"上海市金山区枫泾镇"},{"poiid":"B2094654DB68A1FA499A","title":"快客No.6629","lon":"121.02253","lat":"30.89196","category":"117","category_name":"便民商店/便利店","address":"白牛路255"},{"poiid":"B2094757D16CAAF44299","title":"金皇朝大酒店","lon":"121.014549","lat":"30.891193","category":"217","category_name":"旅馆招待所","address":"近郊金山区枫泾镇泾波路128号"},{"poiid":"B2094654DB64A5FD439A","title":"吉利海鲜楼","lon":"121.02653","lat":"30.89246","category":"76","category_name":"上海菜","address":"近郊金山区枫泾枫阳路180号"},{"poiid":"B209475CD365A7FF4392","title":"肯德基 枫泾店","lon":"121.0234","lat":"30.89294","category":"68","category_name":"快餐厅","address":"枫泾镇白牛路280号(枫阳路口)"},{"poiid":"B2094655D26FA5FD499E","title":"枫岸华庭","lon":"121.0295","lat":"30.896118","category":"47","category_name":"住宅区","address":"金山区枫泾镇青风路500弄"},{"poiid":"B2094655D26BA3F5419C","title":"好又多(枫泾店)","lon":"121.02366","lat":"30.89329","category":"118","category_name":"超级市场","address":""},{"poiid":"B2094654DB68A1FA4492","title":"皇驾咖啡","lon":"121.02036","lat":"30.89323","category":"65","category_name":"咖啡厅","address":"北大街617"},{"poiid":"B2094654DB68A1FA4999","title":"白牛小区","lon":"121.02102","lat":"30.88918","category":"47","category_name":"住宅区","address":""},{"poiid":"B2094654DB68A1FE489D","title":"枫泾小学","lon":"121.01874","lat":"30.89066","category":"56","category_name":"小学","address":""},{"poiid":"B2094654DB68A1F94193","title":"百乐酒店","lon":"121.02369","lat":"30.89293","category":"257","category_name":"中餐厅","address":"枫泾镇"},{"poiid":"B2094654DB68A1F9429D","title":"上海金山众仁护理院","lon":"121.02246","lat":"30.89386","category":"265","category_name":"知名企业","address":"金山区枫泾镇枫阳路258号"},{"poiid":"B2094655D36CA4FD4298","title":"白牛新村","lon":"121.025","lat":"30.8913","category":"38","category_name":"公交车站","address":"白牛新村"},{"poiid":"B2094757D66CA3FB4798","title":"长廊饭店","lon":"121.01947115","lat":"30.8872914761","category":"247","category_name":"餐饮美食","address":"近郊金山区枫泾镇生产街54号(小桥流水古街)"},{"poiid":"B2094654DB68A1F8499C","title":"尚典咖啡","lon":"121.01963","lat":"30.89381","category":"65","category_name":"咖啡厅","address":"枫泾镇"},{"poiid":"B2094757D66CABFE4192","title":"延安东路中山东一路","lon":"121.02117015","lat":"30.8911904665","category":"500","category_name":"未知分类","address":"上海延安东路58号"},{"poiid":"B2094654DB68A1FA4493","title":"金中中学","lon":"121.01834","lat":"30.89181","category":"55","category_name":"中学","address":""},{"poiid":"B2094654DB68A1FA449D","title":"农兴苑","lon":"121.02611","lat":"30.890118","category":"47","category_name":"住宅区","address":"环城东路100弄"},{"poiid":"B2094655D36CA6F84293","title":"枫泾牌楼","lon":"121.01543","lat":"30.88391","category":"38","category_name":"公交车站","address":""},{"poiid":"B2094654DB68A1FB4193","title":"白牛二村","lon":"121.02132","lat":"30.8887","category":"47","category_name":"住宅区","address":"枫阳路242弄"},{"poiid":"B2094655D26FA3F54598","title":"施王庙","lon":"121.01753","lat":"30.89027","category":"244","category_name":"寺庙道观","address":"近郊金山区枫泾镇北大街409号"},{"poiid":"B2094655D264A0F5499D","title":"创欣名苑","lon":"121.02644","lat":"30.891483","category":"47","category_name":"住宅区","address":"上海市金山区泾宾路535弄等"},{"poiid":"B2094757D568A4F8499F","title":"G60沪昆高速枫泾收费站","lon":"121.036288","lat":"30.891621","category":"267","category_name":"收费站","address":"中国上海市金山区A8"},{"poiid":"B2094654DB68A1FF4993","title":"迪卡咖啡","lon":"121.01445","lat":"30.89161","category":"65","category_name":"咖啡厅","address":"枫泾镇"},{"poiid":"B2094757D168A3FE479B","title":"人民公社旧址","lon":"121.017094","lat":"30.887033","category":"500","category_name":"未知分类","address":"上海枫泾古镇"},{"poiid":"B2094655D264A4FA439E","title":"枫泾烧麦店","lon":"121.0171","lat":"30.88704","category":"257","category_name":"中餐厅","address":"枫泾古镇枫溪长廊1号"},{"poiid":"B2094655D26EA1FC469F","title":"施王庙(东南门)","lon":"121.01789","lat":"30.8901","category":"679","category_name":"楼宇机构","address":"北大街393"},{"poiid":"B2094654DB68A1FA4499","title":"云枫苑","lon":"121.01559","lat":"30.89598","category":"47","category_name":"住宅区","address":"上海市金山区枫泾镇泾波路376弄"},{"poiid":"B2094654DB68A1FE499C","title":"枫溪公园","lon":"121.01783","lat":"30.88629","category":"196","category_name":"公园","address":"近郊金山区枫泾镇新枫路45号(枫丽路新枫路)"},{"poiid":"B2094654DB68A1FA429C","title":"枫泾状元糕","lon":"121.01596","lat":"30.88634","category":"112","category_name":"糕饼店","address":"近郊金山枫泾镇芙蓉村5幢502号"},{"poiid":"B2094654DB68A1FF409B","title":"枫泾站","lon":"121.02947","lat":"30.89247","category":"22","category_name":"火车站","address":"枫阳路1号"},{"poiid":"B2094654DB68A1FA4092","title":"枫泾天纯小吃世界","lon":"121.01473","lat":"30.88802","category":"257","category_name":"中餐厅","address":"近郊金山区新泾路207号(近联华超市)"},{"poiid":"B2094757D169A6FC469D","title":"清风阁茶楼","lon":"121.01669245","lat":"30.8886461075","category":"260","category_name":"其他","address":"近郊金山区枫泾三桥附近(近清风桥)"},{"poiid":"B2094654DB68A1F84493","title":"老庙小笼(泾波路)","lon":"121.0155","lat":"30.89431","category":"257","category_name":"中餐厅","address":"商城路146号"},{"poiid":"B2094654DB64A0F5469F","title":"中国移动枫泾营业厅","lon":"121.01724","lat":"30.88701","category":"151","category_name":"电讯营业厅","address":"枫泾镇新泾路92号"},{"poiid":"B2094654DB68A1FA4992","title":"重庆烧鸡公(枫丽路)","lon":"121.01727","lat":"30.88717","category":"71","category_name":"四川菜","address":""},{"poiid":"B2094654DB68A1FA489D","title":"枫泾古镇旅游区","lon":"121.01859","lat":"30.89056","category":"250","category_name":"公园户外","address":"金山区枫泾镇区和中洪村"},{"poiid":"B2094757D06FA3FA429A","title":"G60沪昆高速枫泾服务区","lon":"121.040802","lat":"30.889434814","category":"260","category_name":"其他","address":"上海G60沪昆高速枫泾服务区"},{"poiid":"B2094655D268ABFF459C","title":"枫泾收费站","lon":"121.03628","lat":"30.89162","category":"267","category_name":"收费站","address":""},{"poiid":"B2094757D069A6F44393","title":"新长岭大酒店","lon":"121.013876913","lat":"30.8982504983","category":"76","category_name":"上海菜","address":"上海近郊金山区枫泾镇枫湾路798号"},{"poiid":"B2094757D069AAF54098","title":"唔呶喔哩酒家(生产街店)","lon":"121.01715","lat":"30.88747","category":"76","category_name":"上海菜","address":"近郊金山区枫泾镇生产街65号(枫丽路枫泾新泾路)"},{"poiid":"B2094654DB68A1FA499B","title":"上海市金山区中心医院枫泾分院","lon":"121.02247","lat":"30.89181","category":"162","category_name":"医院","address":"近郊金山区白牛路219号(近枫杰路)"},{"poiid":"B2094654DB68A1F9419C","title":"枫泾汽车站","lon":"121.02232","lat":"30.8931","category":"35","category_name":"长途汽车站","address":"新车站路181号"},{"poiid":"B2094757D168A7F94693","title":"古镇印象","lon":"121.016436664","lat":"30.887484951","category":"76","category_name":"上海菜","address":"近郊金山枫泾镇中大街238号"},{"poiid":"B2094757D16AA6FD4092","title":"枫泾中学","lon":"121.02272","lat":"30.88978","category":"55","category_name":"中学","address":"近郊金山区枫泾镇白牛路188号(近枫泾汽车站)"},{"poiid":"B2094655D264A0F94392","title":"桥英花苑","lon":"121.02461","lat":"30.8943","category":"47","category_name":"住宅区","address":"上海市金山区枫泾镇白牛路338弄30号"},{"poiid":"B2094757D064A6FB469A","title":"枫径公墓","lon":"121.010329","lat":"30.888312","category":"620","category_name":"丧葬","address":"上海金山区枫径朱枫公路"},{"poiid":"B2094654DB68A1FA449F","title":"性觉禅寺","lon":"121.0241","lat":"30.89614","category":"244","category_name":"寺庙道观","address":"枫泾镇北"},{"poiid":"B2094654DB68A1F9419E","title":"川府火锅","lon":"121.02265","lat":"30.89314","category":"86","category_name":"火锅店","address":"近郊金山区枫阳路155号(近白牛路)"},{"poiid":"B2094757D468A4F94492","title":"引宝农家饭店","lon":"121.0198385","lat":"30.8913565","category":"87","category_name":"特色／地方风味餐厅","address":"近郊金山区枫泾镇北大街"},{"poiid":"B2094654DB68A1F84893","title":"枫阳新村","lon":"121.01883","lat":"30.89371","category":"47","category_name":"住宅区","address":"上海市金山区枫泾镇"},{"poiid":"B2094654DB68A1FA499A","title":"快客No.6629","lon":"121.02253","lat":"30.89196","category":"117","category_name":"便民商店/便利店","address":"白牛路255"},{"poiid":"B2094757D16CAAF44299","title":"金皇朝大酒店","lon":"121.014549","lat":"30.891193","category":"217","category_name":"旅馆招待所","address":"近郊金山区枫泾镇泾波路128号"},{"poiid":"B2094654DB64A5FD439A","title":"吉利海鲜楼","lon":"121.02653","lat":"30.89246","category":"76","category_name":"上海菜","address":"近郊金山区枫泾枫阳路180号"},{"poiid":"B209475CD365A7FF4392","title":"肯德基 枫泾店","lon":"121.0234","lat":"30.89294","category":"68","category_name":"快餐厅","address":"枫泾镇白牛路280号(枫阳路口)"},{"poiid":"B2094655D26FA5FD499E","title":"枫岸华庭","lon":"121.0295","lat":"30.896118","category":"47","category_name":"住宅区","address":"金山区枫泾镇青风路500弄"},{"poiid":"B2094655D26BA3F5419C","title":"好又多(枫泾店)","lon":"121.02366","lat":"30.89329","category":"118","category_name":"超级市场","address":""},{"poiid":"B2094654DB68A1FA4492","title":"皇驾咖啡","lon":"121.02036","lat":"30.89323","category":"65","category_name":"咖啡厅","address":"北大街617"},{"poiid":"B2094654DB68A1FA4999","title":"白牛小区","lon":"121.02102","lat":"30.88918","category":"47","category_name":"住宅区","address":""},{"poiid":"B2094654DB68A1FE489D","title":"枫泾小学","lon":"121.01874","lat":"30.89066","category":"56","category_name":"小学","address":""},{"poiid":"B2094654DB68A1F94193","title":"百乐酒店","lon":"121.02369","lat":"30.89293","category":"257","category_name":"中餐厅","address":"枫泾镇"},{"poiid":"B2094654DB68A1F9429D","title":"上海金山众仁护理院","lon":"121.02246","lat":"30.89386","category":"265","category_name":"知名企业","address":"金山区枫泾镇枫阳路258号"},{"poiid":"B2094655D36CA4FD4298","title":"白牛新村","lon":"121.025","lat":"30.8913","category":"38","category_name":"公交车站","address":"白牛新村"},{"poiid":"B2094757D66CA3FB4798","title":"长廊饭店","lon":"121.01947115","lat":"30.8872914761","category":"247","category_name":"餐饮美食","address":"近郊金山区枫泾镇生产街54号(小桥流水古街)"},{"poiid":"B2094654DB68A1F8499C","title":"尚典咖啡","lon":"121.01963","lat":"30.89381","category":"65","category_name":"咖啡厅","address":"枫泾镇"},{"poiid":"B2094757D66CABFE4192","title":"延安东路中山东一路","lon":"121.02117015","lat":"30.8911904665","category":"500","category_name":"未知分类","address":"上海延安东路58号"},{"poiid":"B2094654DB68A1FA4493","title":"金中中学","lon":"121.01834","lat":"30.89181","category":"55","category_name":"中学","address":""},{"poiid":"B2094654DB68A1FA449D","title":"农兴苑","lon":"121.02611","lat":"30.890118","category":"47","category_name":"住宅区","address":"环城东路100弄"},{"poiid":"B2094655D36CA6F84293","title":"枫泾牌楼","lon":"121.01543","lat":"30.88391","category":"38","category_name":"公交车站","address":""},{"poiid":"B2094654DB68A1FB4193","title":"白牛二村","lon":"121.02132","lat":"30.8887","category":"47","category_name":"住宅区","address":"枫阳路242弄"},{"poiid":"B2094655D26FA3F54598","title":"施王庙","lon":"121.01753","lat":"30.89027","category":"244","category_name":"寺庙道观","address":"近郊金山区枫泾镇北大街409号"},{"poiid":"B2094655D264A0F5499D","title":"创欣名苑","lon":"121.02644","lat":"30.891483","category":"47","category_name":"住宅区","address":"上海市金山区泾宾路535弄等"},{"poiid":"B2094757D568A4F8499F","title":"G60沪昆高速枫泾收费站","lon":"121.036288","lat":"30.891621","category":"267","category_name":"收费站","address":"中国上海市金山区A8"},{"poiid":"B2094654DB68A1FF4993","title":"迪卡咖啡","lon":"121.01445","lat":"30.89161","category":"65","category_name":"咖啡厅","address":"枫泾镇"},{"poiid":"B2094757D168A3FE479B","title":"人民公社旧址","lon":"121.017094","lat":"30.887033","category":"500","category_name":"未知分类","address":"上海枫泾古镇"},{"poiid":"B2094655D264A4FA439E","title":"枫泾烧麦店","lon":"121.0171","lat":"30.88704","category":"257","category_name":"中餐厅","address":"枫泾古镇枫溪长廊1号"},{"poiid":"B2094655D26EA1FC469F","title":"施王庙(东南门)","lon":"121.01789","lat":"30.8901","category":"679","category_name":"楼宇机构","address":"北大街393"},{"poiid":"B2094654DB68A1FA4499","title":"云枫苑","lon":"121.01559","lat":"30.89598","category":"47","category_name":"住宅区","address":"上海市金山区枫泾镇泾波路376弄"},{"poiid":"B2094654DB68A1FE499C","title":"枫溪公园","lon":"121.01783","lat":"30.88629","category":"196","category_name":"公园","address":"近郊金山区枫泾镇新枫路45号(枫丽路新枫路)"},{"poiid":"B2094654DB68A1FA429C","title":"枫泾状元糕","lon":"121.01596","lat":"30.88634","category":"112","category_name":"糕饼店","address":"近郊金山枫泾镇芙蓉村5幢502号"},{"poiid":"B2094654DB68A1FF409B","title":"枫泾站","lon":"121.02947","lat":"30.89247","category":"22","category_name":"火车站","address":"枫阳路1号"},{"poiid":"B2094654DB68A1FA4092","title":"枫泾天纯小吃世界","lon":"121.01473","lat":"30.88802","category":"257","category_name":"中餐厅","address":"近郊金山区新泾路207号(近联华超市)"},{"poiid":"B2094757D169A6FC469D","title":"清风阁茶楼","lon":"121.01669245","lat":"30.8886461075","category":"260","category_name":"其他","address":"近郊金山区枫泾三桥附近(近清风桥)"},{"poiid":"B2094654DB68A1F84493","title":"老庙小笼(泾波路)","lon":"121.0155","lat":"30.89431","category":"257","category_name":"中餐厅","address":"商城路146号"},{"poiid":"B2094654DB64A0F5469F","title":"中国移动枫泾营业厅","lon":"121.01724","lat":"30.88701","category":"151","category_name":"电讯营业厅","address":"枫泾镇新泾路92号"},{"poiid":"B2094654DB68A1FA4992","title":"重庆烧鸡公(枫丽路)","lon":"121.01727","lat":"30.88717","category":"71","category_name":"四川菜","address":""}]