[{"poiid":"B2094757D465A3FA439B","title":"万先港式打边炉 江西北路店","lon":"121.48182","lat":"31.25043","category":"86","category_name":"火锅店","address":"虹口区江西北路450-452号(近武进路)"},{"poiid":"B2094753D76DA0FF4092","title":"山茶花韩国家庭料理","lon":"121.483009","lat":"31.251911","category":"500","category_name":"未知分类","address":"上海市 壹丰广场三楼"},{"poiid":"B2094757DA6AA6F9489D","title":"乐购仕","lon":"121.481505","lat":"31.252542","category":"249","category_name":"购物服务","address":"四川北路海宁路"},{"poiid":"B209475CD564A7F84392","title":"上海滩浦东香格里拉店","lon":"121.50058","lat":"31.23634","category":"119","category_name":"商场","address":"浦东富成路33号香格里拉酒店内大堂层"},{"poiid":"B2094654DB6BA3FD4098","title":"莫泰168连锁旅店(天目东路店)","lon":"121.47872","lat":"31.24996","category":"216","category_name":"经济型连锁酒店","address":"闸北区天目东路29号(近宝山路)"},{"poiid":"B2094757D068ABF8449B","title":"振鼎鸡 武进路店","lon":"121.48184","lat":"31.2509","category":"68","category_name":"快餐厅","address":"虹口区武进路456号(近四川北路)"},{"poiid":"B2094757D069ABFE499B","title":"井上蛙干锅一绝","lon":"121.483542054","lat":"31.251415793","category":"76","category_name":"上海菜","address":"虹口区武进路430号(近四川北路)"},{"poiid":"B2094757D06AABFC4698","title":"中国工商银行上海闸北支行","lon":"121.479432671","lat":"31.2496450165","category":"46","category_name":"楼宇","address":"上海闸北区河南北路485号近天目东路"},{"poiid":"B2094655D26BA2FC459B","title":"武进路河南北路","lon":"121.48054","lat":"31.25029","category":"38","category_name":"公交车站","address":""},{"poiid":"B2094655D36DA6FC469A","title":"虬江路","lon":"121.48028","lat":"31.25341","category":"38","category_name":"公交车站","address":""},{"poiid":"B2094757D66EABFC449C","title":"武进路四川北路","lon":"121.483000803","lat":"31.2514159252","category":"500","category_name":"未知分类","address":"上海壹丰广场"},{"poiid":"B2094757D469A7FE4899","title":"吴记麻辣烫 武进路店","lon":"121.481006","lat":"31.250442","category":"68","category_name":"快餐厅","address":"虹口区武进路479号(近四川北路)"},{"poiid":"B2094757D465AAF8489D","title":"香港深井茶餐厅","lon":"121.48498626279","lat":"31.249610741824","category":"247","category_name":"餐饮美食","address":"四川北路888号(上岛咖啡附近)"},{"poiid":"B2094757D16AABFE489C","title":"图门烧烤","lon":"121.480632","lat":"31.25082","category":"247","category_name":"餐饮美食","address":"上海闸北区东新民路106号"},{"poiid":"B2094750D26FA4F4469F","title":"上海大悅城","lon":"121.481124","lat":"31.253086","category":"249","category_name":"购物服务","address":null},{"poiid":"B2094757D56CABF84492","title":"翰庭酒店","lon":"121.48152395361","lat":"31.251154731419","category":"247","category_name":"餐饮美食","address":"虹口区罗浮路27号(近武进路)"},{"poiid":"B2094757D06AA7F44298","title":"上海市第一人民医院住院部二楼手术室","lon":"121.482235","lat":"31.251123","category":"162","category_name":"医院","address":"上海武进路"},{"poiid":"B2094757D06AA2F4429D","title":"月圆火锅","lon":"121.478404","lat":"31.249752","category":"247","category_name":"餐饮美食","address":"天目东路43号近老北站山西北路口"},{"poiid":"B2094655D265A5F5449A","title":"重庆鸡公煲 武进路店","lon":"121.481978054","lat":"31.250425793","category":"71","category_name":"四川菜","address":"虹口区江西北路376号(近武进路)"},{"poiid":"B2094654D56EA3F84398","title":"永生大楼","lon":"121.48189","lat":"31.25101","category":"46","category_name":"楼宇","address":"武进路456"},{"poiid":"B2094750D665A1FE4699","title":"北站1号","lon":"121.479","lat":"31.2505","category":"76","category_name":"上海菜","address":"闸北区宝山路1号(天目东路口)"},{"poiid":"B2094750D768AAFF449F","title":"图门串烤(东新民路店)","lon":"121.479","lat":"31.2504","category":"68","category_name":"快餐厅","address":"闸北区东新民路106号(宝山路口)"},{"poiid":"B2094655D26CA0FB439B","title":"德年新邨(北门)","lon":"121.48114","lat":"31.25038","category":"47","category_name":"住宅区","address":"武进路521弄1-145号"},{"poiid":"B2094655D26CA0FB439A","title":"德年新邨","lon":"121.48118","lat":"31.2503","category":"47","category_name":"住宅区","address":"武进路521弄1-145号"},{"poiid":"B2094753D46AAAF44198","title":"环球港海上国际影城","lon":"121.481002","lat":"31.250312","category":"500","category_name":"未知分类","address":"上海市 中山北路3300号4楼"},{"poiid":"B2094654D56EA3F9429D","title":"曹勇专业美发护理店","lon":"121.48058","lat":"31.25095","category":"148","category_name":"美容美发店","address":"东新民路47"},{"poiid":"B2094757D66BA6F94692","title":"武进路香巴岛龙虾","lon":"121.482387","lat":"31.251113","category":"269","category_name":"烧烤","address":"虹口区武进路555号(近河南北路)"},{"poiid":"B2094752D265A5FF439F","title":"虹口龙之梦","lon":"121.483185","lat":"31.25087","category":"248","category_name":"生活娱乐","address":"花园路"},{"poiid":"B2094654DB64A4FE4799","title":"上海永生昌盛物业商务中心","lon":"121.48188","lat":"31.25097","category":"46","category_name":"楼宇","address":"武进路456号9026"},{"poiid":"B2094654DB6BA3FA4092","title":"可的(江西北路)","lon":"121.48188","lat":"31.25058","category":"117","category_name":"便民商店/便利店","address":"江西北路"},{"poiid":"B2094757D764A5F5499D","title":"武进路苏州汤包馆","lon":"121.482577","lat":"31.251026","category":"68","category_name":"快餐厅","address":"虹口区武进路445号(近四川北路)"},{"poiid":"B2094654D56EA2F4479C","title":"香奈儿服饰","lon":"121.48123","lat":"31.25041","category":"141","category_name":"服装鞋帽皮具店","address":"虹口区武进路517号"},{"poiid":"B2094654D56EA3F9439F","title":"百联集团商务大楼","lon":"121.47992","lat":"31.25072","category":"46","category_name":"楼宇","address":"东新民路89"},{"poiid":"B2094654D56EA3F9499B","title":"韶山毛家湘菜馆","lon":"121.47956","lat":"31.25037","category":"77","category_name":"湖南菜","address":"闸北区东新民路(宝山路口)"},{"poiid":"B2094757D068ABFA419B","title":"老北站","lon":"121.47821807","lat":"31.251430511","category":"260","category_name":"其他","address":"上海天目东路宝山路"},{"poiid":"B2094757D66DABFE4698","title":"蒋记品味麻辣烫","lon":"121.481871","lat":"31.250157","category":"247","category_name":"餐饮美食","address":"上海江西北路433号"},{"poiid":"B2094654D56DA1F8499A","title":"银历大厦","lon":"121.47937","lat":"31.24964","category":"46","category_name":"楼宇","address":"闸北区河南北路485号"},{"poiid":"B2094654D56EA2F4499F","title":"武进大楼","lon":"121.48015","lat":"31.249765","category":"47","category_name":"住宅区","address":"武进路577弄"},{"poiid":"B2094757D46BA4FA419C","title":"云香阁餐厅","lon":"121.48189","lat":"31.250435","category":"269","category_name":"烧烤","address":"江西北路454号近武进路"},{"poiid":"B2094654D56EA3FA4198","title":"金芙世纪公寓","lon":"121.48124","lat":"31.252501","category":"47","category_name":"住宅区","address":"上海市虹口区楼浦路89号"},{"poiid":"B2094654D56EA2F44792","title":"上海铁路运输中级法院","lon":"121.48103","lat":"31.2503","category":"608","category_name":"法院","address":"武进路527"},{"poiid":"B2094655D26CA0F5449D","title":"德康里一街","lon":"121.48106","lat":"31.25148","category":"47","category_name":"住宅区","address":"罗浮路76弄"},{"poiid":"B2094655D26FA7FD489A","title":"百联集团商务大楼(南门)","lon":"121.47994","lat":"31.25066","category":"49","category_name":"无中心点楼宇大门","address":"东新民路89"},{"poiid":"B2094757D168A5FC499A","title":"上海市大学生信息采集中心","lon":"121.48046875","lat":"31.2506961823","category":"500","category_name":"未知分类","address":"上海虬江支路181号2108室"},{"poiid":"B2094655D26DA5F5459A","title":"德康里二街","lon":"121.48091","lat":"31.25157","category":"47","category_name":"住宅区","address":"罗浮路88弄"},{"poiid":"B2094655D26CA0FC4692","title":"德康里一街(东门)","lon":"121.48107","lat":"31.25161","category":"47","category_name":"住宅区","address":"罗浮路76弄"},{"poiid":"B2094757D064ABFC4598","title":"★home☆","lon":"121.48135346","lat":"31.250095985","category":"500","category_name":"未知分类","address":"上海虹口区江西北路"},{"poiid":"B2094753D46AA3F8439E","title":"金茂大厦","lon":"121.479522","lat":"31.250631","category":"252","category_name":"楼宇机构","address":"上海市 浦东新区世纪大道88号"},{"poiid":"B209475CD665A4FF4492","title":"月星·环球港","lon":"121.482574","lat":"31.248834","category":"500","category_name":"未知分类","address":"上海市 普陀区中山北路3222号"},{"poiid":"B2094654D56EA2F44492","title":"华联超市武进店","lon":"121.48209","lat":"31.25106","category":"118","category_name":"超级市场","address":"武进路456号"},{"poiid":"B2094757D465A3FA439B","title":"万先港式打边炉 江西北路店","lon":"121.48182","lat":"31.25043","category":"86","category_name":"火锅店","address":"虹口区江西北路450-452号(近武进路)"},{"poiid":"B2094753D76DA0FF4092","title":"山茶花韩国家庭料理","lon":"121.483009","lat":"31.251911","category":"500","category_name":"未知分类","address":"上海市 壹丰广场三楼"},{"poiid":"B2094757DA6AA6F9489D","title":"乐购仕","lon":"121.481505","lat":"31.252542","category":"249","category_name":"购物服务","address":"四川北路海宁路"},{"poiid":"B209475CD564A7F84392","title":"上海滩浦东香格里拉店","lon":"121.50058","lat":"31.23634","category":"119","category_name":"商场","address":"浦东富成路33号香格里拉酒店内大堂层"},{"poiid":"B2094654DB6BA3FD4098","title":"莫泰168连锁旅店(天目东路店)","lon":"121.47872","lat":"31.24996","category":"216","category_name":"经济型连锁酒店","address":"闸北区天目东路29号(近宝山路)"},{"poiid":"B2094757D068ABF8449B","title":"振鼎鸡 武进路店","lon":"121.48184","lat":"31.2509","category":"68","category_name":"快餐厅","address":"虹口区武进路456号(近四川北路)"},{"poiid":"B2094757D069ABFE499B","title":"井上蛙干锅一绝","lon":"121.483542054","lat":"31.251415793","category":"76","category_name":"上海菜","address":"虹口区武进路430号(近四川北路)"},{"poiid":"B2094757D06AABFC4698","title":"中国工商银行上海闸北支行","lon":"121.479432671","lat":"31.2496450165","category":"46","category_name":"楼宇","address":"上海闸北区河南北路485号近天目东路"},{"poiid":"B2094655D26BA2FC459B","title":"武进路河南北路","lon":"121.48054","lat":"31.25029","category":"38","category_name":"公交车站","address":""},{"poiid":"B2094655D36DA6FC469A","title":"虬江路","lon":"121.48028","lat":"31.25341","category":"38","category_name":"公交车站","address":""},{"poiid":"B2094757D66EABFC449C","title":"武进路四川北路","lon":"121.483000803","lat":"31.2514159252","category":"500","category_name":"未知分类","address":"上海壹丰广场"},{"poiid":"B2094757D469A7FE4899","title":"吴记麻辣烫 武进路店","lon":"121.481006","lat":"31.250442","category":"68","category_name":"快餐厅","address":"虹口区武进路479号(近四川北路)"},{"poiid":"B2094757D465AAF8489D","title":"香港深井茶餐厅","lon":"121.48498626279","lat":"31.249610741824","category":"247","category_name":"餐饮美食","address":"四川北路888号(上岛咖啡附近)"},{"poiid":"B2094757D16AABFE489C","title":"图门烧烤","lon":"121.480632","lat":"31.25082","category":"247","category_name":"餐饮美食","address":"上海闸北区东新民路106号"},{"poiid":"B2094750D26FA4F4469F","title":"上海大悅城","lon":"121.481124","lat":"31.253086","category":"249","category_name":"购物服务","address":null},{"poiid":"B2094757D56CABF84492","title":"翰庭酒店","lon":"121.48152395361","lat":"31.251154731419","category":"247","category_name":"餐饮美食","address":"虹口区罗浮路27号(近武进路)"},{"poiid":"B2094757D06AA7F44298","title":"上海市第一人民医院住院部二楼手术室","lon":"121.482235","lat":"31.251123","category":"162","category_name":"医院","address":"上海武进路"},{"poiid":"B2094757D06AA2F4429D","title":"月圆火锅","lon":"121.478404","lat":"31.249752","category":"247","category_name":"餐饮美食","address":"天目东路43号近老北站山西北路口"},{"poiid":"B2094655D265A5F5449A","title":"重庆鸡公煲 武进路店","lon":"121.481978054","lat":"31.250425793","category":"71","category_name":"四川菜","address":"虹口区江西北路376号(近武进路)"},{"poiid":"B2094654D56EA3F84398","title":"永生大楼","lon":"121.48189","lat":"31.25101","category":"46","category_name":"楼宇","address":"武进路456"},{"poiid":"B2094750D665A1FE4699","title":"北站1号","lon":"121.479","lat":"31.2505","category":"76","category_name":"上海菜","address":"闸北区宝山路1号(天目东路口)"},{"poiid":"B2094750D768AAFF449F","title":"图门串烤(东新民路店)","lon":"121.479","lat":"31.2504","category":"68","category_name":"快餐厅","address":"闸北区东新民路106号(宝山路口)"},{"poiid":"B2094655D26CA0FB439B","title":"德年新邨(北门)","lon":"121.48114","lat":"31.25038","category":"47","category_name":"住宅区","address":"武进路521弄1-145号"},{"poiid":"B2094655D26CA0FB439A","title":"德年新邨","lon":"121.48118","lat":"31.2503","category":"47","category_name":"住宅区","address":"武进路521弄1-145号"},{"poiid":"B2094753D46AAAF44198","title":"环球港海上国际影城","lon":"121.481002","lat":"31.250312","category":"500","category_name":"未知分类","address":"上海市 中山北路3300号4楼"},{"poiid":"B2094654D56EA3F9429D","title":"曹勇专业美发护理店","lon":"121.48058","lat":"31.25095","category":"148","category_name":"美容美发店","address":"东新民路47"},{"poiid":"B2094757D66BA6F94692","title":"武进路香巴岛龙虾","lon":"121.482387","lat":"31.251113","category":"269","category_name":"烧烤","address":"虹口区武进路555号(近河南北路)"},{"poiid":"B2094752D265A5FF439F","title":"虹口龙之梦","lon":"121.483185","lat":"31.25087","category":"248","category_name":"生活娱乐","address":"花园路"},{"poiid":"B2094654DB64A4FE4799","title":"上海永生昌盛物业商务中心","lon":"121.48188","lat":"31.25097","category":"46","category_name":"楼宇","address":"武进路456号9026"},{"poiid":"B2094654DB6BA3FA4092","title":"可的(江西北路)","lon":"121.48188","lat":"31.25058","category":"117","category_name":"便民商店/便利店","address":"江西北路"},{"poiid":"B2094757D764A5F5499D","title":"武进路苏州汤包馆","lon":"121.482577","lat":"31.251026","category":"68","category_name":"快餐厅","address":"虹口区武进路445号(近四川北路)"},{"poiid":"B2094654D56EA2F4479C","title":"香奈儿服饰","lon":"121.48123","lat":"31.25041","category":"141","category_name":"服装鞋帽皮具店","address":"虹口区武进路517号"},{"poiid":"B2094654D56EA3F9439F","title":"百联集团商务大楼","lon":"121.47992","lat":"31.25072","category":"46","category_name":"楼宇","address":"东新民路89"},{"poiid":"B2094654D56EA3F9499B","title":"韶山毛家湘菜馆","lon":"121.47956","lat":"31.25037","category":"77","category_name":"湖南菜","address":"闸北区东新民路(宝山路口)"},{"poiid":"B2094757D068ABFA419B","title":"老北站","lon":"121.47821807","lat":"31.251430511","category":"260","category_name":"其他","address":"上海天目东路宝山路"},{"poiid":"B2094757D66DABFE4698","title":"蒋记品味麻辣烫","lon":"121.481871","lat":"31.250157","category":"247","category_name":"餐饮美食","address":"上海江西北路433号"},{"poiid":"B2094654D56DA1F8499A","title":"银历大厦","lon":"121.47937","lat":"31.24964","category":"46","category_name":"楼宇","address":"闸北区河南北路485号"},{"poiid":"B2094654D56EA2F4499F","title":"武进大楼","lon":"121.48015","lat":"31.249765","category":"47","category_name":"住宅区","address":"武进路577弄"},{"poiid":"B2094757D46BA4FA419C","title":"云香阁餐厅","lon":"121.48189","lat":"31.250435","category":"269","category_name":"烧烤","address":"江西北路454号近武进路"},{"poiid":"B2094654D56EA3FA4198","title":"金芙世纪公寓","lon":"121.48124","lat":"31.252501","category":"47","category_name":"住宅区","address":"上海市虹口区楼浦路89号"},{"poiid":"B2094654D56EA2F44792","title":"上海铁路运输中级法院","lon":"121.48103","lat":"31.2503","category":"608","category_name":"法院","address":"武进路527"},{"poiid":"B2094655D26CA0F5449D","title":"德康里一街","lon":"121.48106","lat":"31.25148","category":"47","category_name":"住宅区","address":"罗浮路76弄"},{"poiid":"B2094655D26FA7FD489A","title":"百联集团商务大楼(南门)","lon":"121.47994","lat":"31.25066","category":"49","category_name":"无中心点楼宇大门","address":"东新民路89"},{"poiid":"B2094757D168A5FC499A","title":"上海市大学生信息采集中心","lon":"121.48046875","lat":"31.2506961823","category":"500","category_name":"未知分类","address":"上海虬江支路181号2108室"},{"poiid":"B2094655D26DA5F5459A","title":"德康里二街","lon":"121.48091","lat":"31.25157","category":"47","category_name":"住宅区","address":"罗浮路88弄"},{"poiid":"B2094655D26CA0FC4692","title":"德康里一街(东门)","lon":"121.48107","lat":"31.25161","category":"47","category_name":"住宅区","address":"罗浮路76弄"},{"poiid":"B2094757D064ABFC4598","title":"★home☆","lon":"121.48135346","lat":"31.250095985","category":"500","category_name":"未知分类","address":"上海虹口区江西北路"},{"poiid":"B2094753D46AA3F8439E","title":"金茂大厦","lon":"121.479522","lat":"31.250631","category":"252","category_name":"楼宇机构","address":"上海市 浦东新区世纪大道88号"},{"poiid":"B209475CD665A4FF4492","title":"月星·环球港","lon":"121.482574","lat":"31.248834","category":"500","category_name":"未知分类","address":"上海市 普陀区中山北路3222号"},{"poiid":"B2094654D56EA2F44492","title":"华联超市武进店","lon":"121.48209","lat":"31.25106","category":"118","category_name":"超级市场","address":"武进路456号"},{"poiid":"B2094757D465A3FA439B","title":"万先港式打边炉 江西北路店","lon":"121.48182","lat":"31.25043","category":"86","category_name":"火锅店","address":"虹口区江西北路450-452号(近武进路)"},{"poiid":"B2094753D76DA0FF4092","title":"山茶花韩国家庭料理","lon":"121.483009","lat":"31.251911","category":"500","category_name":"未知分类","address":"上海市 壹丰广场三楼"},{"poiid":"B2094757DA6AA6F9489D","title":"乐购仕","lon":"121.481505","lat":"31.252542","category":"249","category_name":"购物服务","address":"四川北路海宁路"},{"poiid":"B209475CD564A7F84392","title":"上海滩浦东香格里拉店","lon":"121.50058","lat":"31.23634","category":"119","category_name":"商场","address":"浦东富成路33号香格里拉酒店内大堂层"},{"poiid":"B2094654DB6BA3FD4098","title":"莫泰168连锁旅店(天目东路店)","lon":"121.47872","lat":"31.24996","category":"216","category_name":"经济型连锁酒店","address":"闸北区天目东路29号(近宝山路)"},{"poiid":"B2094757D068ABF8449B","title":"振鼎鸡 武进路店","lon":"121.48184","lat":"31.2509","category":"68","category_name":"快餐厅","address":"虹口区武进路456号(近四川北路)"},{"poiid":"B2094757D069ABFE499B","title":"井上蛙干锅一绝","lon":"121.483542054","lat":"31.251415793","category":"76","category_name":"上海菜","address":"虹口区武进路430号(近四川北路)"},{"poiid":"B2094757D06AABFC4698","title":"中国工商银行上海闸北支行","lon":"121.479432671","lat":"31.2496450165","category":"46","category_name":"楼宇","address":"上海闸北区河南北路485号近天目东路"},{"poiid":"B2094655D26BA2FC459B","title":"武进路河南北路","lon":"121.48054","lat":"31.25029","category":"38","category_name":"公交车站","address":""},{"poiid":"B2094655D36DA6FC469A","title":"虬江路","lon":"121.48028","lat":"31.25341","category":"38","category_name":"公交车站","address":""},{"poiid":"B2094757D66EABFC449C","title":"武进路四川北路","lon":"121.483000803","lat":"31.2514159252","category":"500","category_name":"未知分类","address":"上海壹丰广场"},{"poiid":"B2094757D469A7FE4899","title":"吴记麻辣烫 武进路店","lon":"121.481006","lat":"31.250442","category":"68","category_name":"快餐厅","address":"虹口区武进路479号(近四川北路)"},{"poiid":"B2094757D465AAF8489D","title":"香港深井茶餐厅","lon":"121.48498626279","lat":"31.249610741824","category":"247","category_name":"餐饮美食","address":"四川北路888号(上岛咖啡附近)"},{"poiid":"B2094757D16AABFE489C","title":"图门烧烤","lon":"121.480632","lat":"31.25082","category":"247","category_name":"餐饮美食","address":"上海闸北区东新民路106号"},{"poiid":"B2094750D26FA4F4469F","title":"上海大悅城","lon":"121.481124","lat":"31.253086","category":"249","category_name":"购物服务","address":null},{"poiid":"B2094757D56CABF84492","title":"翰庭酒店","lon":"121.48152395361","lat":"31.251154731419","category":"247","category_name":"餐饮美食","address":"虹口区罗浮路27号(近武进路)"},{"poiid":"B2094757D06AA7F44298","title":"上海市第一人民医院住院部二楼手术室","lon":"121.482235","lat":"31.251123","category":"162","category_name":"医院","address":"上海武进路"},{"poiid":"B2094757D06AA2F4429D","title":"月圆火锅","lon":"121.478404","lat":"31.249752","category":"247","category_name":"餐饮美食","address":"天目东路43号近老北站山西北路口"},{"poiid":"B2094655D265A5F5449A","title":"重庆鸡公煲 武进路店","lon":"121.481978054","lat":"31.250425793","category":"71","category_name":"四川菜","address":"虹口区江西北路376号(近武进路)"},{"poiid":"B2094654D56EA3F84398","title":"永生大楼","lon":"121.48189","lat":"31.25101","category":"46","category_name":"楼宇","address":"武进路456"},{"poiid":"B2094750D665A1FE4699","title":"北站1号","lon":"121.479","lat":"31.2505","category":"76","category_name":"上海菜","address":"闸北区宝山路1号(天目东路口)"},{"poiid":"B2094750D768AAFF449F","title":"图门串烤(东新民路店)","lon":"121.479","lat":"31.2504","category":"68","category_name":"快餐厅","address":"闸北区东新民路106号(宝山路口)"},{"poiid":"B2094655D26CA0FB439B","title":"德年新邨(北门)","lon":"121.48114","lat":"31.25038","category":"47","category_name":"住宅区","address":"武进路521弄1-145号"},{"poiid":"B2094655D26CA0FB439A","title":"德年新邨","lon":"121.48118","lat":"31.2503","category":"47","category_name":"住宅区","address":"武进路521弄1-145号"},{"poiid":"B2094753D46AAAF44198","title":"环球港海上国际影城","lon":"121.481002","lat":"31.250312","category":"500","category_name":"未知分类","address":"上海市 中山北路3300号4楼"},{"poiid":"B2094654D56EA3F9429D","title":"曹勇专业美发护理店","lon":"121.48058","lat":"31.25095","category":"148","category_name":"美容美发店","address":"东新民路47"},{"poiid":"B2094757D66BA6F94692","title":"武进路香巴岛龙虾","lon":"121.482387","lat":"31.251113","category":"269","category_name":"烧烤","address":"虹口区武进路555号(近河南北路)"},{"poiid":"B2094752D265A5FF439F","title":"虹口龙之梦","lon":"121.483185","lat":"31.25087","category":"248","category_name":"生活娱乐","address":"花园路"},{"poiid":"B2094654DB64A4FE4799","title":"上海永生昌盛物业商务中心","lon":"121.48188","lat":"31.25097","category":"46","category_name":"楼宇","address":"武进路456号9026"},{"poiid":"B2094654DB6BA3FA4092","title":"可的(江西北路)","lon":"121.48188","lat":"31.25058","category":"117","category_name":"便民商店/便利店","address":"江西北路"},{"poiid":"B2094757D764A5F5499D","title":"武进路苏州汤包馆","lon":"121.482577","lat":"31.251026","category":"68","category_name":"快餐厅","address":"虹口区武进路445号(近四川北路)"},{"poiid":"B2094654D56EA2F4479C","title":"香奈儿服饰","lon":"121.48123","lat":"31.25041","category":"141","category_name":"服装鞋帽皮具店","address":"虹口区武进路517号"},{"poiid":"B2094654D56EA3F9439F","title":"百联集团商务大楼","lon":"121.47992","lat":"31.25072","category":"46","category_name":"楼宇","address":"东新民路89"},{"poiid":"B2094654D56EA3F9499B","title":"韶山毛家湘菜馆","lon":"121.47956","lat":"31.25037","category":"77","category_name":"湖南菜","address":"闸北区东新民路(宝山路口)"},{"poiid":"B2094757D068ABFA419B","title":"老北站","lon":"121.47821807","lat":"31.251430511","category":"260","category_name":"其他","address":"上海天目东路宝山路"},{"poiid":"B2094757D66DABFE4698","title":"蒋记品味麻辣烫","lon":"121.481871","lat":"31.250157","category":"247","category_name":"餐饮美食","address":"上海江西北路433号"},{"poiid":"B2094654D56DA1F8499A","title":"银历大厦","lon":"121.47937","lat":"31.24964","category":"46","category_name":"楼宇","address":"闸北区河南北路485号"},{"poiid":"B2094654D56EA2F4499F","title":"武进大楼","lon":"121.48015","lat":"31.249765","category":"47","category_name":"住宅区","address":"武进路577弄"},{"poiid":"B2094757D46BA4FA419C","title":"云香阁餐厅","lon":"121.48189","lat":"31.250435","category":"269","category_name":"烧烤","address":"江西北路454号近武进路"},{"poiid":"B2094654D56EA3FA4198","title":"金芙世纪公寓","lon":"121.48124","lat":"31.252501","category":"47","category_name":"住宅区","address":"上海市虹口区楼浦路89号"},{"poiid":"B2094654D56EA2F44792","title":"上海铁路运输中级法院","lon":"121.48103","lat":"31.2503","category":"608","category_name":"法院","address":"武进路527"},{"poiid":"B2094655D26CA0F5449D","title":"德康里一街","lon":"121.48106","lat":"31.25148","category":"47","category_name":"住宅区","address":"罗浮路76弄"},{"poiid":"B2094655D26FA7FD489A","title":"百联集团商务大楼(南门)","lon":"121.47994","lat":"31.25066","category":"49","category_name":"无中心点楼宇大门","address":"东新民路89"},{"poiid":"B2094757D168A5FC499A","title":"上海市大学生信息采集中心","lon":"121.48046875","lat":"31.2506961823","category":"500","category_name":"未知分类","address":"上海虬江支路181号2108室"},{"poiid":"B2094655D26DA5F5459A","title":"德康里二街","lon":"121.48091","lat":"31.25157","category":"47","category_name":"住宅区","address":"罗浮路88弄"},{"poiid":"B2094655D26CA0FC4692","title":"德康里一街(东门)","lon":"121.48107","lat":"31.25161","category":"47","category_name":"住宅区","address":"罗浮路76弄"},{"poiid":"B2094757D064ABFC4598","title":"★home☆","lon":"121.48135346","lat":"31.250095985","category":"500","category_name":"未知分类","address":"上海虹口区江西北路"},{"poiid":"B2094753D46AA3F8439E","title":"金茂大厦","lon":"121.479522","lat":"31.250631","category":"252","category_name":"楼宇机构","address":"上海市 浦东新区世纪大道88号"},{"poiid":"B209475CD665A4FF4492","title":"月星·环球港","lon":"121.482574","lat":"31.248834","category":"500","category_name":"未知分类","address":"上海市 普陀区中山北路3222号"},{"poiid":"B2094654D56EA2F44492","title":"华联超市武进店","lon":"121.48209","lat":"31.25106","category":"118","category_name":"超级市场","address":"武进路456号"}]