[{"poiid":"B2094654DA6EA0FB439D","title":"上海文庙","lon":"121.48657","lat":"31.21693","category":"244","category_name":"寺庙道观","address":"上海市黄浦区文庙路215号"},{"poiid":"B2094757D068A2FB4692","title":"辣肉丝面馆","lon":"121.482194054","lat":"31.216874793","category":"68","category_name":"快餐厅","address":"黄浦区肇周路106号(近吉安路)"},{"poiid":"B2094757D06FA2FC479D","title":"大富贵酒楼(总店)","lon":"121.48569","lat":"31.21763","category":"76","category_name":"上海菜","address":"黄浦区中华路1409号(近梦花街)"},{"poiid":"B2094753D76FAAFA449C","title":"上海滩国泰旗舰店","lon":"121.466011","lat":"31.216125","category":"249","category_name":"购物服务","address":"淮海中路868号"},{"poiid":"B209475CD564A7F84292","title":"上海滩新天地店","lon":"121.47463","lat":"31.22164","category":"119","category_name":"商场","address":"\"太仓路181弄新天地北里15号\r\n\""},{"poiid":"B209475CD564A7F84392","title":"上海滩浦东香格里拉店","lon":"121.50058","lat":"31.23634","category":"119","category_name":"商场","address":"浦东富成路33号香格里拉酒店内大堂层"},{"poiid":"B2094757D06FA0F84699","title":"红房子妇产科医院","lon":"121.48329615","lat":"31.214054702","category":"162","category_name":"医院","address":"上海黄浦区方斜路419号"},{"poiid":"B2094654DA6EA7F84999","title":"易买得(老西门店)","lon":"121.48337","lat":"31.21698","category":"118","category_name":"超级市场","address":"黄浦区西藏南路666号(西藏南路肇周路)"},{"poiid":"B2094757D06FA5F4489E","title":"西北狼烧烤(文庙店)","lon":"121.48861","lat":"31.21764","category":"68","category_name":"快餐厅","address":"黄浦区文庙路184号(近学前街)"},{"poiid":"B2094757D068A4F94499","title":"肯德基(老西门)","lon":"121.484913738","lat":"31.2175647302","category":"68","category_name":"快餐厅","address":"上海老西门易买得"},{"poiid":"B2094757D068A1FA479D","title":"跃民大酒店 西藏南路店","lon":"121.48464","lat":"31.21509","category":"76","category_name":"上海菜","address":"黄浦区西藏南路770号(近陆家浜路)"},{"poiid":"B2094757D069A3F8429B","title":"老西门新苑","lon":"121.483051","lat":"31.216619","category":"47","category_name":"住宅区","address":"上海市黄浦区西藏南路688弄会所内"},{"poiid":"B2094654DA6EA0F94492","title":"永惠商务楼","lon":"121.48498","lat":"31.21592","category":"46","category_name":"楼宇","address":"上海市长宁区仙霞路369号"},{"poiid":"B2094750D365A5FE4698","title":"阿婆豆浆油条","lon":"121.482063","lat":"31.214328","category":"247","category_name":"餐饮美食","address":"卢湾区肇周路309号(建国新路口)"},{"poiid":"B2094654DB64A5FD409B","title":"斯巴顿健身会所(老西门店)","lon":"121.48316","lat":"31.21657","category":"221","category_name":"健身中心","address":"黄浦区西藏南路688弄15号(近复兴中路)"},{"poiid":"B2094757D069A1F54192","title":"安基大厦","lon":"121.48481881","lat":"31.214868763","category":"46","category_name":"楼宇","address":"朝阳区天辰东路7号"},{"poiid":"B2094752D669A6FB429E","title":"梅赛德斯奔驰文化中心","lon":"121.486526","lat":"31.214828","category":"500","category_name":"未知分类","address":null},{"poiid":"B2094654DA6EA7F8499C","title":"惠达大厦","lon":"121.4840164","lat":"31.21635627","category":"46","category_name":"楼宇","address":"惠达大厦位于卢湾西藏南路748号"},{"poiid":"B2094757D069A2F94192","title":"黄浦区卫生学校","lon":"121.48621995","lat":"31.217713083","category":"54","category_name":"职业技术学校","address":"上海梦花街234号"},{"poiid":"B2094654DA6EA0F8479F","title":"上岛咖啡 西藏南路店 UBC Coffee","lon":"121.48600180445","lat":"31.212351222038","category":"260","category_name":"其他","address":"黄浦区西藏南路889号(近陆家浜路)"},{"poiid":"B2094654DA6EA7F4439F","title":"苏州藏书羊肉馆(方斜路)","lon":"121.48436","lat":"31.21596","category":"87","category_name":"特色／地方风味餐厅","address":"黄浦区方斜路16号(近复兴中路)"},{"poiid":"B2094757D16FAAFC4392","title":"人生奥斯卡","lon":"121.48525","lat":"31.21565","category":"178","category_name":"电影院","address":"卢湾区徐家汇路518号福苑楼806F室(近南京银行)"},{"poiid":"B2094757D16CAAF84299","title":"福禄贝尔婚纱影楼","lon":"121.485253568","lat":"31.2155173066","category":"500","category_name":"未知分类","address":"上海西藏南路771号"},{"poiid":"B2094753D76AA7F8459F","title":"韵色","lon":"121.482657","lat":"31.213799","category":"76","category_name":"上海菜","address":"上海市黄浦区方斜路446号(近建国新路)"},{"poiid":"B2094655D26AA0FA4092","title":"地铁老西门站","lon":"121.48323","lat":"31.21837","category":"36","category_name":"地铁站","address":""},{"poiid":"B2094655D26AA2FD4198","title":"薡茶 方斜路店","lon":"121.48443","lat":"31.21597","category":"113","category_name":"冷饮店","address":"黄浦区方斜路10号(近老西门地铁站)"},{"poiid":"B2094654DA6EA7F94093","title":"老西门新苑(3号门)","lon":"121.48365","lat":"31.21578","category":"47","category_name":"住宅区","address":"老西门"},{"poiid":"B2094654DA6EA6FC459C","title":"好德便利No.509","lon":"121.4843","lat":"31.21569","category":"117","category_name":"便民商店/便利店","address":"西藏南路750"},{"poiid":"B2094655D268A0F94398","title":"面包新语(西藏南路)","lon":"121.48355","lat":"31.21705","category":"112","category_name":"糕饼店","address":"黄浦区西藏南路666号易买得1楼(近肇周路)"},{"poiid":"B2094757D06AA4FB4998","title":"健维医疗","lon":"121.484773878","lat":"31.2146867747","category":"162","category_name":"医院","address":"黄浦区西藏南路770号安基大厦群房5楼(近建国新路)"},{"poiid":"B2094654DA6EA7F94198","title":"桥苑公寓","lon":"121.48429","lat":"31.215481","category":"47","category_name":"住宅区","address":"西藏南路750号"},{"poiid":"B2094753D264A4F9469C","title":"翔鹰龙虾店","lon":"121.484521","lat":"31.215283","category":"247","category_name":"餐饮美食","address":"上海市 大兴街3号"},{"poiid":"B2094753D66DA4F9439D","title":"宁静名猫生活馆","lon":"121.484599","lat":"31.215527","category":"500","category_name":"未知分类","address":"上海市 西藏南路765号"},{"poiid":"B2094654DB65A1FB449C","title":"75B会所","lon":"121.48444","lat":"31.21541","category":"170","category_name":"KTV","address":""},{"poiid":"B2094655D36DA1FB4298","title":"西藏南路老西门","lon":"121.48416","lat":"31.21673","category":"38","category_name":"公交车站","address":""},{"poiid":"B2094751D56FA1F4439C","title":"上海市黄浦区中西医结合医院","lon":"121.484893","lat":"31.216416","category":"162","category_name":"医院","address":"黄家路163号"},{"poiid":"B2094757D06BA0FF409D","title":"诞诞面","lon":"121.486093738","lat":"31.2163040034","category":"68","category_name":"快餐厅","address":"黄浦区方斜支路9号(中华路文庙路对面)"},{"poiid":"B2094654DA6EA7F5489C","title":"复旦大学上海市红房子妇产科医院","lon":"121.48274","lat":"31.21366","category":"162","category_name":"医院","address":"方斜路419"},{"poiid":"B2094655D26AA2FC4292","title":"Wingsworld飞机模型专卖店","lon":"121.48435","lat":"31.21547","category":"247","category_name":"餐饮美食","address":"黄浦区西藏南路750号28楼E室(方斜路口)"},{"poiid":"B2094654DA6EA7F8499E","title":"永乐生活电器老西门二店","lon":"121.48336","lat":"31.21698","category":"138","category_name":"家电电子卖场","address":"上海市黄浦区西藏南路666号"},{"poiid":"B2094757D468A0FF4099","title":"杰克的酒窝","lon":"121.483278","lat":"31.21809","category":"260","category_name":"其他","address":"黄浦区肇周路76号(近东台路)"},{"poiid":"B2094750D66EA5FA419E","title":"凯顿儿童美语","lon":"121.484649","lat":"31.215978","category":"253","category_name":"校园生活","address":"老西门分校"},{"poiid":"B2094757D16DA3F84499","title":"黄浦区民政局","lon":"121.48325573","lat":"31.218233044","category":"500","category_name":"未知分类","address":"上海市黄浦区中华路1011号"},{"poiid":"B2094655D26FA3FA4192","title":"思域射箭桌球馆","lon":"121.4844","lat":"31.21522","category":"171","category_name":"台球厅","address":"黄浦区西藏南路758号5楼"},{"poiid":"B2094654DA6EA0F94693","title":"克丽缇娜No.00311","lon":"121.48505","lat":"31.21551","category":"148","category_name":"美容美发店","address":"西藏南路773号"},{"poiid":"B2094655D36DA7FE449B","title":"肇周路老西门","lon":"121.48302","lat":"31.21724","category":"38","category_name":"公交车站","address":""},{"poiid":"B2094654DA6EA0F9409C","title":"南文大厦","lon":"121.4854","lat":"31.216181","category":"47","category_name":"住宅区","address":"上海市黄浦区方斜支路35弄(西藏南路口)"},{"poiid":"B2094654DA6EA0F94692","title":"宏悦连锁经济型旅馆","lon":"121.48509","lat":"31.21543","category":"216","category_name":"经济型连锁酒店","address":"西藏南路775号"},{"poiid":"B2094655D26DAAFA4099","title":"交通大厦","lon":"121.48571","lat":"31.21438","category":"46","category_name":"楼宇","address":"铁西区铁西兴华街与南十中路交处(兴华南街48号)"},{"poiid":"B2094654DA6EA6FC459E","title":"中国银行上海市西藏南路支行","lon":"121.48441","lat":"31.21554","category":"150","category_name":"银行","address":"黄浦区西藏南路758号(建国新路西藏南路)"},{"poiid":"B2094654DA6EA0FB439D","title":"上海文庙","lon":"121.48657","lat":"31.21693","category":"244","category_name":"寺庙道观","address":"上海市黄浦区文庙路215号"},{"poiid":"B2094757D068A2FB4692","title":"辣肉丝面馆","lon":"121.482194054","lat":"31.216874793","category":"68","category_name":"快餐厅","address":"黄浦区肇周路106号(近吉安路)"},{"poiid":"B2094757D06FA2FC479D","title":"大富贵酒楼(总店)","lon":"121.48569","lat":"31.21763","category":"76","category_name":"上海菜","address":"黄浦区中华路1409号(近梦花街)"},{"poiid":"B2094753D76FAAFA449C","title":"上海滩国泰旗舰店","lon":"121.466011","lat":"31.216125","category":"249","category_name":"购物服务","address":"淮海中路868号"},{"poiid":"B209475CD564A7F84292","title":"上海滩新天地店","lon":"121.47463","lat":"31.22164","category":"119","category_name":"商场","address":"\"太仓路181弄新天地北里15号\r\n\""},{"poiid":"B209475CD564A7F84392","title":"上海滩浦东香格里拉店","lon":"121.50058","lat":"31.23634","category":"119","category_name":"商场","address":"浦东富成路33号香格里拉酒店内大堂层"},{"poiid":"B2094757D06FA0F84699","title":"红房子妇产科医院","lon":"121.48329615","lat":"31.214054702","category":"162","category_name":"医院","address":"上海黄浦区方斜路419号"},{"poiid":"B2094654DA6EA7F84999","title":"易买得(老西门店)","lon":"121.48337","lat":"31.21698","category":"118","category_name":"超级市场","address":"黄浦区西藏南路666号(西藏南路肇周路)"},{"poiid":"B2094757D06FA5F4489E","title":"西北狼烧烤(文庙店)","lon":"121.48861","lat":"31.21764","category":"68","category_name":"快餐厅","address":"黄浦区文庙路184号(近学前街)"},{"poiid":"B2094757D068A4F94499","title":"肯德基(老西门)","lon":"121.484913738","lat":"31.2175647302","category":"68","category_name":"快餐厅","address":"上海老西门易买得"},{"poiid":"B2094757D068A1FA479D","title":"跃民大酒店 西藏南路店","lon":"121.48464","lat":"31.21509","category":"76","category_name":"上海菜","address":"黄浦区西藏南路770号(近陆家浜路)"},{"poiid":"B2094757D069A3F8429B","title":"老西门新苑","lon":"121.483051","lat":"31.216619","category":"47","category_name":"住宅区","address":"上海市黄浦区西藏南路688弄会所内"},{"poiid":"B2094654DA6EA0F94492","title":"永惠商务楼","lon":"121.48498","lat":"31.21592","category":"46","category_name":"楼宇","address":"上海市长宁区仙霞路369号"},{"poiid":"B2094750D365A5FE4698","title":"阿婆豆浆油条","lon":"121.482063","lat":"31.214328","category":"247","category_name":"餐饮美食","address":"卢湾区肇周路309号(建国新路口)"},{"poiid":"B2094654DB64A5FD409B","title":"斯巴顿健身会所(老西门店)","lon":"121.48316","lat":"31.21657","category":"221","category_name":"健身中心","address":"黄浦区西藏南路688弄15号(近复兴中路)"},{"poiid":"B2094757D069A1F54192","title":"安基大厦","lon":"121.48481881","lat":"31.214868763","category":"46","category_name":"楼宇","address":"朝阳区天辰东路7号"},{"poiid":"B2094752D669A6FB429E","title":"梅赛德斯奔驰文化中心","lon":"121.486526","lat":"31.214828","category":"500","category_name":"未知分类","address":null},{"poiid":"B2094654DA6EA7F8499C","title":"惠达大厦","lon":"121.4840164","lat":"31.21635627","category":"46","category_name":"楼宇","address":"惠达大厦位于卢湾西藏南路748号"},{"poiid":"B2094757D069A2F94192","title":"黄浦区卫生学校","lon":"121.48621995","lat":"31.217713083","category":"54","category_name":"职业技术学校","address":"上海梦花街234号"},{"poiid":"B2094654DA6EA0F8479F","title":"上岛咖啡 西藏南路店 UBC Coffee","lon":"121.48600180445","lat":"31.212351222038","category":"260","category_name":"其他","address":"黄浦区西藏南路889号(近陆家浜路)"},{"poiid":"B2094654DA6EA7F4439F","title":"苏州藏书羊肉馆(方斜路)","lon":"121.48436","lat":"31.21596","category":"87","category_name":"特色／地方风味餐厅","address":"黄浦区方斜路16号(近复兴中路)"},{"poiid":"B2094757D16FAAFC4392","title":"人生奥斯卡","lon":"121.48525","lat":"31.21565","category":"178","category_name":"电影院","address":"卢湾区徐家汇路518号福苑楼806F室(近南京银行)"},{"poiid":"B2094757D16CAAF84299","title":"福禄贝尔婚纱影楼","lon":"121.485253568","lat":"31.2155173066","category":"500","category_name":"未知分类","address":"上海西藏南路771号"},{"poiid":"B2094753D76AA7F8459F","title":"韵色","lon":"121.482657","lat":"31.213799","category":"76","category_name":"上海菜","address":"上海市黄浦区方斜路446号(近建国新路)"},{"poiid":"B2094655D26AA0FA4092","title":"地铁老西门站","lon":"121.48323","lat":"31.21837","category":"36","category_name":"地铁站","address":""},{"poiid":"B2094655D26AA2FD4198","title":"薡茶 方斜路店","lon":"121.48443","lat":"31.21597","category":"113","category_name":"冷饮店","address":"黄浦区方斜路10号(近老西门地铁站)"},{"poiid":"B2094654DA6EA7F94093","title":"老西门新苑(3号门)","lon":"121.48365","lat":"31.21578","category":"47","category_name":"住宅区","address":"老西门"},{"poiid":"B2094654DA6EA6FC459C","title":"好德便利No.509","lon":"121.4843","lat":"31.21569","category":"117","category_name":"便民商店/便利店","address":"西藏南路750"},{"poiid":"B2094655D268A0F94398","title":"面包新语(西藏南路)","lon":"121.48355","lat":"31.21705","category":"112","category_name":"糕饼店","address":"黄浦区西藏南路666号易买得1楼(近肇周路)"},{"poiid":"B2094757D06AA4FB4998","title":"健维医疗","lon":"121.484773878","lat":"31.2146867747","category":"162","category_name":"医院","address":"黄浦区西藏南路770号安基大厦群房5楼(近建国新路)"},{"poiid":"B2094654DA6EA7F94198","title":"桥苑公寓","lon":"121.48429","lat":"31.215481","category":"47","category_name":"住宅区","address":"西藏南路750号"},{"poiid":"B2094753D264A4F9469C","title":"翔鹰龙虾店","lon":"121.484521","lat":"31.215283","category":"247","category_name":"餐饮美食","address":"上海市 大兴街3号"},{"poiid":"B2094753D66DA4F9439D","title":"宁静名猫生活馆","lon":"121.484599","lat":"31.215527","category":"500","category_name":"未知分类","address":"上海市 西藏南路765号"},{"poiid":"B2094654DB65A1FB449C","title":"75B会所","lon":"121.48444","lat":"31.21541","category":"170","category_name":"KTV","address":""},{"poiid":"B2094655D36DA1FB4298","title":"西藏南路老西门","lon":"121.48416","lat":"31.21673","category":"38","category_name":"公交车站","address":""},{"poiid":"B2094751D56FA1F4439C","title":"上海市黄浦区中西医结合医院","lon":"121.484893","lat":"31.216416","category":"162","category_name":"医院","address":"黄家路163号"},{"poiid":"B2094757D06BA0FF409D","title":"诞诞面","lon":"121.486093738","lat":"31.2163040034","category":"68","category_name":"快餐厅","address":"黄浦区方斜支路9号(中华路文庙路对面)"},{"poiid":"B2094654DA6EA7F5489C","title":"复旦大学上海市红房子妇产科医院","lon":"121.48274","lat":"31.21366","category":"162","category_name":"医院","address":"方斜路419"},{"poiid":"B2094655D26AA2FC4292","title":"Wingsworld飞机模型专卖店","lon":"121.48435","lat":"31.21547","category":"247","category_name":"餐饮美食","address":"黄浦区西藏南路750号28楼E室(方斜路口)"},{"poiid":"B2094654DA6EA7F8499E","title":"永乐生活电器老西门二店","lon":"121.48336","lat":"31.21698","category":"138","category_name":"家电电子卖场","address":"上海市黄浦区西藏南路666号"},{"poiid":"B2094757D468A0FF4099","title":"杰克的酒窝","lon":"121.483278","lat":"31.21809","category":"260","category_name":"其他","address":"黄浦区肇周路76号(近东台路)"},{"poiid":"B2094750D66EA5FA419E","title":"凯顿儿童美语","lon":"121.484649","lat":"31.215978","category":"253","category_name":"校园生活","address":"老西门分校"},{"poiid":"B2094757D16DA3F84499","title":"黄浦区民政局","lon":"121.48325573","lat":"31.218233044","category":"500","category_name":"未知分类","address":"上海市黄浦区中华路1011号"},{"poiid":"B2094655D26FA3FA4192","title":"思域射箭桌球馆","lon":"121.4844","lat":"31.21522","category":"171","category_name":"台球厅","address":"黄浦区西藏南路758号5楼"},{"poiid":"B2094654DA6EA0F94693","title":"克丽缇娜No.00311","lon":"121.48505","lat":"31.21551","category":"148","category_name":"美容美发店","address":"西藏南路773号"},{"poiid":"B2094655D36DA7FE449B","title":"肇周路老西门","lon":"121.48302","lat":"31.21724","category":"38","category_name":"公交车站","address":""},{"poiid":"B2094654DA6EA0F9409C","title":"南文大厦","lon":"121.4854","lat":"31.216181","category":"47","category_name":"住宅区","address":"上海市黄浦区方斜支路35弄(西藏南路口)"},{"poiid":"B2094654DA6EA0F94692","title":"宏悦连锁经济型旅馆","lon":"121.48509","lat":"31.21543","category":"216","category_name":"经济型连锁酒店","address":"西藏南路775号"},{"poiid":"B2094655D26DAAFA4099","title":"交通大厦","lon":"121.48571","lat":"31.21438","category":"46","category_name":"楼宇","address":"铁西区铁西兴华街与南十中路交处(兴华南街48号)"},{"poiid":"B2094654DA6EA6FC459E","title":"中国银行上海市西藏南路支行","lon":"121.48441","lat":"31.21554","category":"150","category_name":"银行","address":"黄浦区西藏南路758号(建国新路西藏南路)"},{"poiid":"B2094654DA6EA0FB439D","title":"上海文庙","lon":"121.48657","lat":"31.21693","category":"244","category_name":"寺庙道观","address":"上海市黄浦区文庙路215号"},{"poiid":"B2094757D068A2FB4692","title":"辣肉丝面馆","lon":"121.482194054","lat":"31.216874793","category":"68","category_name":"快餐厅","address":"黄浦区肇周路106号(近吉安路)"},{"poiid":"B2094757D06FA2FC479D","title":"大富贵酒楼(总店)","lon":"121.48569","lat":"31.21763","category":"76","category_name":"上海菜","address":"黄浦区中华路1409号(近梦花街)"},{"poiid":"B2094753D76FAAFA449C","title":"上海滩国泰旗舰店","lon":"121.466011","lat":"31.216125","category":"249","category_name":"购物服务","address":"淮海中路868号"},{"poiid":"B209475CD564A7F84292","title":"上海滩新天地店","lon":"121.47463","lat":"31.22164","category":"119","category_name":"商场","address":"\"太仓路181弄新天地北里15号\r\n\""},{"poiid":"B209475CD564A7F84392","title":"上海滩浦东香格里拉店","lon":"121.50058","lat":"31.23634","category":"119","category_name":"商场","address":"浦东富成路33号香格里拉酒店内大堂层"},{"poiid":"B2094757D06FA0F84699","title":"红房子妇产科医院","lon":"121.48329615","lat":"31.214054702","category":"162","category_name":"医院","address":"上海黄浦区方斜路419号"},{"poiid":"B2094654DA6EA7F84999","title":"易买得(老西门店)","lon":"121.48337","lat":"31.21698","category":"118","category_name":"超级市场","address":"黄浦区西藏南路666号(西藏南路肇周路)"},{"poiid":"B2094757D06FA5F4489E","title":"西北狼烧烤(文庙店)","lon":"121.48861","lat":"31.21764","category":"68","category_name":"快餐厅","address":"黄浦区文庙路184号(近学前街)"},{"poiid":"B2094757D068A4F94499","title":"肯德基(老西门)","lon":"121.484913738","lat":"31.2175647302","category":"68","category_name":"快餐厅","address":"上海老西门易买得"},{"poiid":"B2094757D068A1FA479D","title":"跃民大酒店 西藏南路店","lon":"121.48464","lat":"31.21509","category":"76","category_name":"上海菜","address":"黄浦区西藏南路770号(近陆家浜路)"},{"poiid":"B2094757D069A3F8429B","title":"老西门新苑","lon":"121.483051","lat":"31.216619","category":"47","category_name":"住宅区","address":"上海市黄浦区西藏南路688弄会所内"},{"poiid":"B2094654DA6EA0F94492","title":"永惠商务楼","lon":"121.48498","lat":"31.21592","category":"46","category_name":"楼宇","address":"上海市长宁区仙霞路369号"},{"poiid":"B2094750D365A5FE4698","title":"阿婆豆浆油条","lon":"121.482063","lat":"31.214328","category":"247","category_name":"餐饮美食","address":"卢湾区肇周路309号(建国新路口)"},{"poiid":"B2094654DB64A5FD409B","title":"斯巴顿健身会所(老西门店)","lon":"121.48316","lat":"31.21657","category":"221","category_name":"健身中心","address":"黄浦区西藏南路688弄15号(近复兴中路)"},{"poiid":"B2094757D069A1F54192","title":"安基大厦","lon":"121.48481881","lat":"31.214868763","category":"46","category_name":"楼宇","address":"朝阳区天辰东路7号"},{"poiid":"B2094752D669A6FB429E","title":"梅赛德斯奔驰文化中心","lon":"121.486526","lat":"31.214828","category":"500","category_name":"未知分类","address":null},{"poiid":"B2094654DA6EA7F8499C","title":"惠达大厦","lon":"121.4840164","lat":"31.21635627","category":"46","category_name":"楼宇","address":"惠达大厦位于卢湾西藏南路748号"},{"poiid":"B2094757D069A2F94192","title":"黄浦区卫生学校","lon":"121.48621995","lat":"31.217713083","category":"54","category_name":"职业技术学校","address":"上海梦花街234号"},{"poiid":"B2094654DA6EA0F8479F","title":"上岛咖啡 西藏南路店 UBC Coffee","lon":"121.48600180445","lat":"31.212351222038","category":"260","category_name":"其他","address":"黄浦区西藏南路889号(近陆家浜路)"},{"poiid":"B2094654DA6EA7F4439F","title":"苏州藏书羊肉馆(方斜路)","lon":"121.48436","lat":"31.21596","category":"87","category_name":"特色／地方风味餐厅","address":"黄浦区方斜路16号(近复兴中路)"},{"poiid":"B2094757D16FAAFC4392","title":"人生奥斯卡","lon":"121.48525","lat":"31.21565","category":"178","category_name":"电影院","address":"卢湾区徐家汇路518号福苑楼806F室(近南京银行)"},{"poiid":"B2094757D16CAAF84299","title":"福禄贝尔婚纱影楼","lon":"121.485253568","lat":"31.2155173066","category":"500","category_name":"未知分类","address":"上海西藏南路771号"},{"poiid":"B2094753D76AA7F8459F","title":"韵色","lon":"121.482657","lat":"31.213799","category":"76","category_name":"上海菜","address":"上海市黄浦区方斜路446号(近建国新路)"},{"poiid":"B2094655D26AA0FA4092","title":"地铁老西门站","lon":"121.48323","lat":"31.21837","category":"36","category_name":"地铁站","address":""},{"poiid":"B2094655D26AA2FD4198","title":"薡茶 方斜路店","lon":"121.48443","lat":"31.21597","category":"113","category_name":"冷饮店","address":"黄浦区方斜路10号(近老西门地铁站)"},{"poiid":"B2094654DA6EA7F94093","title":"老西门新苑(3号门)","lon":"121.48365","lat":"31.21578","category":"47","category_name":"住宅区","address":"老西门"},{"poiid":"B2094654DA6EA6FC459C","title":"好德便利No.509","lon":"121.4843","lat":"31.21569","category":"117","category_name":"便民商店/便利店","address":"西藏南路750"},{"poiid":"B2094655D268A0F94398","title":"面包新语(西藏南路)","lon":"121.48355","lat":"31.21705","category":"112","category_name":"糕饼店","address":"黄浦区西藏南路666号易买得1楼(近肇周路)"},{"poiid":"B2094757D06AA4FB4998","title":"健维医疗","lon":"121.484773878","lat":"31.2146867747","category":"162","category_name":"医院","address":"黄浦区西藏南路770号安基大厦群房5楼(近建国新路)"},{"poiid":"B2094654DA6EA7F94198","title":"桥苑公寓","lon":"121.48429","lat":"31.215481","category":"47","category_name":"住宅区","address":"西藏南路750号"},{"poiid":"B2094753D264A4F9469C","title":"翔鹰龙虾店","lon":"121.484521","lat":"31.215283","category":"247","category_name":"餐饮美食","address":"上海市 大兴街3号"},{"poiid":"B2094753D66DA4F9439D","title":"宁静名猫生活馆","lon":"121.484599","lat":"31.215527","category":"500","category_name":"未知分类","address":"上海市 西藏南路765号"},{"poiid":"B2094654DB65A1FB449C","title":"75B会所","lon":"121.48444","lat":"31.21541","category":"170","category_name":"KTV","address":""},{"poiid":"B2094655D36DA1FB4298","title":"西藏南路老西门","lon":"121.48416","lat":"31.21673","category":"38","category_name":"公交车站","address":""},{"poiid":"B2094751D56FA1F4439C","title":"上海市黄浦区中西医结合医院","lon":"121.484893","lat":"31.216416","category":"162","category_name":"医院","address":"黄家路163号"},{"poiid":"B2094757D06BA0FF409D","title":"诞诞面","lon":"121.486093738","lat":"31.2163040034","category":"68","category_name":"快餐厅","address":"黄浦区方斜支路9号(中华路文庙路对面)"},{"poiid":"B2094654DA6EA7F5489C","title":"复旦大学上海市红房子妇产科医院","lon":"121.48274","lat":"31.21366","category":"162","category_name":"医院","address":"方斜路419"},{"poiid":"B2094655D26AA2FC4292","title":"Wingsworld飞机模型专卖店","lon":"121.48435","lat":"31.21547","category":"247","category_name":"餐饮美食","address":"黄浦区西藏南路750号28楼E室(方斜路口)"},{"poiid":"B2094654DA6EA7F8499E","title":"永乐生活电器老西门二店","lon":"121.48336","lat":"31.21698","category":"138","category_name":"家电电子卖场","address":"上海市黄浦区西藏南路666号"},{"poiid":"B2094757D468A0FF4099","title":"杰克的酒窝","lon":"121.483278","lat":"31.21809","category":"260","category_name":"其他","address":"黄浦区肇周路76号(近东台路)"},{"poiid":"B2094750D66EA5FA419E","title":"凯顿儿童美语","lon":"121.484649","lat":"31.215978","category":"253","category_name":"校园生活","address":"老西门分校"},{"poiid":"B2094757D16DA3F84499","title":"黄浦区民政局","lon":"121.48325573","lat":"31.218233044","category":"500","category_name":"未知分类","address":"上海市黄浦区中华路1011号"},{"poiid":"B2094655D26FA3FA4192","title":"思域射箭桌球馆","lon":"121.4844","lat":"31.21522","category":"171","category_name":"台球厅","address":"黄浦区西藏南路758号5楼"},{"poiid":"B2094654DA6EA0F94693","title":"克丽缇娜No.00311","lon":"121.48505","lat":"31.21551","category":"148","category_name":"美容美发店","address":"西藏南路773号"},{"poiid":"B2094655D36DA7FE449B","title":"肇周路老西门","lon":"121.48302","lat":"31.21724","category":"38","category_name":"公交车站","address":""},{"poiid":"B2094654DA6EA0F9409C","title":"南文大厦","lon":"121.4854","lat":"31.216181","category":"47","category_name":"住宅区","address":"上海市黄浦区方斜支路35弄(西藏南路口)"},{"poiid":"B2094654DA6EA0F94692","title":"宏悦连锁经济型旅馆","lon":"121.48509","lat":"31.21543","category":"216","category_name":"经济型连锁酒店","address":"西藏南路775号"},{"poiid":"B2094655D26DAAFA4099","title":"交通大厦","lon":"121.48571","lat":"31.21438","category":"46","category_name":"楼宇","address":"铁西区铁西兴华街与南十中路交处(兴华南街48号)"},{"poiid":"B2094654DA6EA6FC459E","title":"中国银行上海市西藏南路支行","lon":"121.48441","lat":"31.21554","category":"150","category_name":"银行","address":"黄浦区西藏南路758号(建国新路西藏南路)"},{"poiid":"B2094654DA6EA0FB439D","title":"上海文庙","lon":"121.48657","lat":"31.21693","category":"244","category_name":"寺庙道观","address":"上海市黄浦区文庙路215号"},{"poiid":"B2094757D068A2FB4692","title":"辣肉丝面馆","lon":"121.482194054","lat":"31.216874793","category":"68","category_name":"快餐厅","address":"黄浦区肇周路106号(近吉安路)"},{"poiid":"B2094757D06FA2FC479D","title":"大富贵酒楼(总店)","lon":"121.48569","lat":"31.21763","category":"76","category_name":"上海菜","address":"黄浦区中华路1409号(近梦花街)"},{"poiid":"B2094753D76FAAFA449C","title":"上海滩国泰旗舰店","lon":"121.466011","lat":"31.216125","category":"249","category_name":"购物服务","address":"淮海中路868号"},{"poiid":"B209475CD564A7F84292","title":"上海滩新天地店","lon":"121.47463","lat":"31.22164","category":"119","category_name":"商场","address":"\"太仓路181弄新天地北里15号\r\n\""},{"poiid":"B209475CD564A7F84392","title":"上海滩浦东香格里拉店","lon":"121.50058","lat":"31.23634","category":"119","category_name":"商场","address":"浦东富成路33号香格里拉酒店内大堂层"},{"poiid":"B2094757D06FA0F84699","title":"红房子妇产科医院","lon":"121.48329615","lat":"31.214054702","category":"162","category_name":"医院","address":"上海黄浦区方斜路419号"},{"poiid":"B2094654DA6EA7F84999","title":"易买得(老西门店)","lon":"121.48337","lat":"31.21698","category":"118","category_name":"超级市场","address":"黄浦区西藏南路666号(西藏南路肇周路)"},{"poiid":"B2094757D06FA5F4489E","title":"西北狼烧烤(文庙店)","lon":"121.48861","lat":"31.21764","category":"68","category_name":"快餐厅","address":"黄浦区文庙路184号(近学前街)"},{"poiid":"B2094757D068A4F94499","title":"肯德基(老西门)","lon":"121.484913738","lat":"31.2175647302","category":"68","category_name":"快餐厅","address":"上海老西门易买得"},{"poiid":"B2094757D068A1FA479D","title":"跃民大酒店 西藏南路店","lon":"121.48464","lat":"31.21509","category":"76","category_name":"上海菜","address":"黄浦区西藏南路770号(近陆家浜路)"},{"poiid":"B2094757D069A3F8429B","title":"老西门新苑","lon":"121.483051","lat":"31.216619","category":"47","category_name":"住宅区","address":"上海市黄浦区西藏南路688弄会所内"},{"poiid":"B2094654DA6EA0F94492","title":"永惠商务楼","lon":"121.48498","lat":"31.21592","category":"46","category_name":"楼宇","address":"上海市长宁区仙霞路369号"},{"poiid":"B2094750D365A5FE4698","title":"阿婆豆浆油条","lon":"121.482063","lat":"31.214328","category":"247","category_name":"餐饮美食","address":"卢湾区肇周路309号(建国新路口)"},{"poiid":"B2094654DB64A5FD409B","title":"斯巴顿健身会所(老西门店)","lon":"121.48316","lat":"31.21657","category":"221","category_name":"健身中心","address":"黄浦区西藏南路688弄15号(近复兴中路)"},{"poiid":"B2094757D069A1F54192","title":"安基大厦","lon":"121.48481881","lat":"31.214868763","category":"46","category_name":"楼宇","address":"朝阳区天辰东路7号"},{"poiid":"B2094752D669A6FB429E","title":"梅赛德斯奔驰文化中心","lon":"121.486526","lat":"31.214828","category":"500","category_name":"未知分类","address":null},{"poiid":"B2094654DA6EA7F8499C","title":"惠达大厦","lon":"121.4840164","lat":"31.21635627","category":"46","category_name":"楼宇","address":"惠达大厦位于卢湾西藏南路748号"},{"poiid":"B2094757D069A2F94192","title":"黄浦区卫生学校","lon":"121.48621995","lat":"31.217713083","category":"54","category_name":"职业技术学校","address":"上海梦花街234号"},{"poiid":"B2094654DA6EA0F8479F","title":"上岛咖啡 西藏南路店 UBC Coffee","lon":"121.48600180445","lat":"31.212351222038","category":"260","category_name":"其他","address":"黄浦区西藏南路889号(近陆家浜路)"},{"poiid":"B2094654DA6EA7F4439F","title":"苏州藏书羊肉馆(方斜路)","lon":"121.48436","lat":"31.21596","category":"87","category_name":"特色／地方风味餐厅","address":"黄浦区方斜路16号(近复兴中路)"},{"poiid":"B2094757D16FAAFC4392","title":"人生奥斯卡","lon":"121.48525","lat":"31.21565","category":"178","category_name":"电影院","address":"卢湾区徐家汇路518号福苑楼806F室(近南京银行)"},{"poiid":"B2094757D16CAAF84299","title":"福禄贝尔婚纱影楼","lon":"121.485253568","lat":"31.2155173066","category":"500","category_name":"未知分类","address":"上海西藏南路771号"},{"poiid":"B2094753D76AA7F8459F","title":"韵色","lon":"121.482657","lat":"31.213799","category":"76","category_name":"上海菜","address":"上海市黄浦区方斜路446号(近建国新路)"},{"poiid":"B2094655D26AA0FA4092","title":"地铁老西门站","lon":"121.48323","lat":"31.21837","category":"36","category_name":"地铁站","address":""},{"poiid":"B2094655D26AA2FD4198","title":"薡茶 方斜路店","lon":"121.48443","lat":"31.21597","category":"113","category_name":"冷饮店","address":"黄浦区方斜路10号(近老西门地铁站)"},{"poiid":"B2094654DA6EA7F94093","title":"老西门新苑(3号门)","lon":"121.48365","lat":"31.21578","category":"47","category_name":"住宅区","address":"老西门"},{"poiid":"B2094654DA6EA6FC459C","title":"好德便利No.509","lon":"121.4843","lat":"31.21569","category":"117","category_name":"便民商店/便利店","address":"西藏南路750"},{"poiid":"B2094655D268A0F94398","title":"面包新语(西藏南路)","lon":"121.48355","lat":"31.21705","category":"112","category_name":"糕饼店","address":"黄浦区西藏南路666号易买得1楼(近肇周路)"},{"poiid":"B2094757D06AA4FB4998","title":"健维医疗","lon":"121.484773878","lat":"31.2146867747","category":"162","category_name":"医院","address":"黄浦区西藏南路770号安基大厦群房5楼(近建国新路)"},{"poiid":"B2094654DA6EA7F94198","title":"桥苑公寓","lon":"121.48429","lat":"31.215481","category":"47","category_name":"住宅区","address":"西藏南路750号"},{"poiid":"B2094753D264A4F9469C","title":"翔鹰龙虾店","lon":"121.484521","lat":"31.215283","category":"247","category_name":"餐饮美食","address":"上海市 大兴街3号"},{"poiid":"B2094753D66DA4F9439D","title":"宁静名猫生活馆","lon":"121.484599","lat":"31.215527","category":"500","category_name":"未知分类","address":"上海市 西藏南路765号"},{"poiid":"B2094654DB65A1FB449C","title":"75B会所","lon":"121.48444","lat":"31.21541","category":"170","category_name":"KTV","address":""},{"poiid":"B2094655D36DA1FB4298","title":"西藏南路老西门","lon":"121.48416","lat":"31.21673","category":"38","category_name":"公交车站","address":""},{"poiid":"B2094751D56FA1F4439C","title":"上海市黄浦区中西医结合医院","lon":"121.484893","lat":"31.216416","category":"162","category_name":"医院","address":"黄家路163号"},{"poiid":"B2094757D06BA0FF409D","title":"诞诞面","lon":"121.486093738","lat":"31.2163040034","category":"68","category_name":"快餐厅","address":"黄浦区方斜支路9号(中华路文庙路对面)"},{"poiid":"B2094654DA6EA7F5489C","title":"复旦大学上海市红房子妇产科医院","lon":"121.48274","lat":"31.21366","category":"162","category_name":"医院","address":"方斜路419"},{"poiid":"B2094655D26AA2FC4292","title":"Wingsworld飞机模型专卖店","lon":"121.48435","lat":"31.21547","category":"247","category_name":"餐饮美食","address":"黄浦区西藏南路750号28楼E室(方斜路口)"},{"poiid":"B2094654DA6EA7F8499E","title":"永乐生活电器老西门二店","lon":"121.48336","lat":"31.21698","category":"138","category_name":"家电电子卖场","address":"上海市黄浦区西藏南路666号"},{"poiid":"B2094757D468A0FF4099","title":"杰克的酒窝","lon":"121.483278","lat":"31.21809","category":"260","category_name":"其他","address":"黄浦区肇周路76号(近东台路)"},{"poiid":"B2094750D66EA5FA419E","title":"凯顿儿童美语","lon":"121.484649","lat":"31.215978","category":"253","category_name":"校园生活","address":"老西门分校"},{"poiid":"B2094757D16DA3F84499","title":"黄浦区民政局","lon":"121.48325573","lat":"31.218233044","category":"500","category_name":"未知分类","address":"上海市黄浦区中华路1011号"},{"poiid":"B2094655D26FA3FA4192","title":"思域射箭桌球馆","lon":"121.4844","lat":"31.21522","category":"171","category_name":"台球厅","address":"黄浦区西藏南路758号5楼"},{"poiid":"B2094654DA6EA0F94693","title":"克丽缇娜No.00311","lon":"121.48505","lat":"31.21551","category":"148","category_name":"美容美发店","address":"西藏南路773号"},{"poiid":"B2094655D36DA7FE449B","title":"肇周路老西门","lon":"121.48302","lat":"31.21724","category":"38","category_name":"公交车站","address":""},{"poiid":"B2094654DA6EA0F9409C","title":"南文大厦","lon":"121.4854","lat":"31.216181","category":"47","category_name":"住宅区","address":"上海市黄浦区方斜支路35弄(西藏南路口)"},{"poiid":"B2094654DA6EA0F94692","title":"宏悦连锁经济型旅馆","lon":"121.48509","lat":"31.21543","category":"216","category_name":"经济型连锁酒店","address":"西藏南路775号"},{"poiid":"B2094655D26DAAFA4099","title":"交通大厦","lon":"121.48571","lat":"31.21438","category":"46","category_name":"楼宇","address":"铁西区铁西兴华街与南十中路交处(兴华南街48号)"},{"poiid":"B2094654DA6EA6FC459E","title":"中国银行上海市西藏南路支行","lon":"121.48441","lat":"31.21554","category":"150","category_name":"银行","address":"黄浦区西藏南路758号(建国新路西藏南路)"}]