[{"poiid":"B2094654D46BA6F4499A","title":"上海宝山城市工业园区(丰翔路)","lon":"121.35182","lat":"31.31054","category":"45","category_name":"产业园区","address":"丰翔路"},{"poiid":"B2094655D36DA1FA4299","title":"聚丰景都","lon":"121.37756","lat":"31.31431","category":"47","category_name":"住宅区","address":"上海市宝山区聚丰园路628弄"},{"poiid":"B2094757D069A4FE439B","title":"金地艺境","lon":"121.35308","lat":"31.315413","category":"47","category_name":"住宅区","address":"上海市市台路555弄50号(近真陈路)"},{"poiid":"B2094655D264A6FA4493","title":"绿地领海","lon":"121.347427","lat":"31.315148","category":"47","category_name":"住宅区","address":"真陈路以西、市台路以南，城银路以北围合而成的区域"},{"poiid":"B2094757D068A3FE439B","title":"沃尔玛(祁连店)","lon":"121.38216895","lat":"31.3150999219","category":"118","category_name":"超级市场","address":"宝山区聚丰园路205号(近祁连山路)"},{"poiid":"B2094655D26BA5FA439B","title":"宝华栎庭","lon":"121.362","lat":"31.3157","category":"47","category_name":"住宅区","address":"嘉定区丰翔路(近A12南翔出口)"},{"poiid":"B2094757D06FA4F4469F","title":"老盛昌苏州汤包馆(聚丰园路店)","lon":"121.38215","lat":"31.31498","category":"87","category_name":"特色／地方风味餐厅","address":"宝山区聚丰园路300号(近祁连山路)"},{"poiid":"B2094757D069A2FC4799","title":"上海大学附属学校","lon":"121.36961496","lat":"31.315800035","category":"253","category_name":"校园生活","address":"宝山区丰宝路135号(近聚丰园路)"},{"poiid":"B2094757D068A7FE409A","title":"轩乐诗 聚丰园路店","lon":"121.381078054","lat":"31.315256793","category":"86","category_name":"火锅店","address":"宝山区聚丰园路300号(近祁连山路)"},{"poiid":"B2094757D169AAF5499F","title":"丰翔新城","lon":"121.351125925","lat":"31.3131962985","category":"47","category_name":"住宅区","address":"宝山区城银路655弄"},{"poiid":"B2094757D16CA1F9449D","title":"轨道交通7号线陈太车库","lon":"121.36671695","lat":"31.3221520568","category":"46","category_name":"楼宇","address":"上海宝山区锦秋路2041号"},{"poiid":"B2094757D06FAAF5429A","title":"上海轨道交通陈太路基地","lon":"121.36673735","lat":"31.3130935835","category":"500","category_name":"未知分类","address":"上海市宝山区陈太路"},{"poiid":"B2094654D46BAAFC449B","title":"星福家园","lon":"121.37339","lat":"31.314713","category":"47","category_name":"住宅区","address":"上海聚丰园路669弄"},{"poiid":"B2094757D168A7FF439E","title":"地铁七号线陈太路停车场","lon":"121.36643475","lat":"31.3145894121","category":"500","category_name":"未知分类","address":"上海锦秋路744终点站对面"},{"poiid":"B2094654DB69A6FF4993","title":"上海市宝山区葑塘中学","lon":"121.3682","lat":"31.31715","category":"55","category_name":"中学","address":"宝山区陈太路500号"},{"poiid":"B2094654D46BA5FD429A","title":"上海宝凤暝园业务处","lon":"121.36748","lat":"31.30837","category":"248","category_name":"生活娱乐","address":"丰翔路644"},{"poiid":"B2094654D465A6F84893","title":"祁连一村","lon":"121.38074","lat":"31.312012","category":"47","category_name":"住宅区","address":"祁连山路2500弄1-199号"},{"poiid":"B2094757D06AABFE409C","title":"锦龙苑","lon":"121.37867","lat":"31.313692","category":"500","category_name":"未知分类","address":"上海市宝山区祁连山路2618号"},{"poiid":"B2094757D16CA3FD4499","title":"公交767","lon":"121.370663","lat":"31.317073","category":"38","category_name":"公交车站","address":"上海延长到宝山"},{"poiid":"B2094757D064A5FE4599","title":"金地艺境售楼处","lon":"121.351267325","lat":"31.3156044984","category":"500","category_name":"未知分类","address":"宝山区台路515弄50号(近真陈路)"},{"poiid":"B2094654D46BA5FF439B","title":"经济开发区","lon":"121.35409","lat":"31.3173","category":"45","category_name":"产业园区","address":""},{"poiid":"B2094757D06FAAFB4198","title":"85度C(聚丰园店)","lon":"121.38209","lat":"31.31392","category":"112","category_name":"糕饼店","address":"宝山区聚丰园路300-7号1楼(近祁连山路)"},{"poiid":"B2094752D76CA6FD419D","title":"s20外环","lon":"121.359611","lat":"31.320686","category":"500","category_name":"未知分类","address":null},{"poiid":"B2094757D16DA1FA4993","title":"申晟荣威4S","lon":"121.35251492","lat":"31.310708596","category":"500","category_name":"未知分类","address":"上海丰翔路1358号"},{"poiid":"B2094655D36DA2F54692","title":"外环丰收河桥","lon":"121.36376","lat":"31.30785","category":"250","category_name":"公园户外","address":""},{"poiid":"B2094655D36CA6F8469E","title":"丰翔路真陈路","lon":"121.3513","lat":"31.30983","category":"38","category_name":"公交车站","address":""},{"poiid":"B2094757D06BA3FF4798","title":"祁连新苑","lon":"121.376752","lat":"31.312232","category":"47","category_name":"住宅区","address":"上海宝山区聚丰园路500弄"},{"poiid":"B2094757D16DA4FE499A","title":"上海大学D楼","lon":"121.37990145","lat":"31.320033816","category":"500","category_name":"未知分类","address":"上海C楼旁边"},{"poiid":"B2094757D06BA4FE4598","title":"宝寿司（上大店）","lon":"121.354725484","lat":"31.3148184832","category":"500","category_name":"未知分类","address":"上海宝山区聚丰园路宏基广场内"},{"poiid":"B2094757D66BA3F4499F","title":"伸立大酒店","lon":"121.3787386","lat":"31.322883","category":"76","category_name":"上海菜","address":"宝山区祁华路218号"},{"poiid":"B2094654D46BA5FF4493","title":"上海森德科技发展有限公司","lon":"121.35677","lat":"31.31111","category":"263","category_name":"公司","address":""},{"poiid":"B2094655D36CA6F8479C","title":"丰宝路丰翔路","lon":"121.37137","lat":"31.31115","category":"38","category_name":"公交车站","address":""},{"poiid":"B2094654D46BA5FF449B","title":"光驰科技(上海)有限公司","lon":"121.35536","lat":"31.31245","category":"263","category_name":"公司","address":""},{"poiid":"B2094655D36DA1FC439C","title":"金皇庙桥","lon":"121.37163","lat":"31.31473","category":"250","category_name":"公园户外","address":""},{"poiid":"B2094654D465A6FF469E","title":"美铭酒楼","lon":"121.381167054","lat":"31.315202793","category":"76","category_name":"上海菜","address":"宝山区聚丰园路300号(近祁连山路)"},{"poiid":"B2094757D168A4F5459C","title":"鑫聚楼大酒店","lon":"121.37321675","lat":"31.317028758","category":"76","category_name":"上海菜","address":"宝山区聚丰园路165号3楼(近好又多中国银行)"},{"poiid":"B2094654D46BABF5479C","title":"祁连欣苑","lon":"121.37685","lat":"31.313906","category":"47","category_name":"住宅区","address":"聚丰园路500弄1-96号"},{"poiid":"B2094655D36CA0FC4398","title":"聚丰园路丰宝路","lon":"121.37321","lat":"31.31364","category":"38","category_name":"公交车站","address":""},{"poiid":"B2094654D46BA5FF429A","title":"上海真陈仓储有限公司","lon":"121.35698","lat":"31.32012","category":"263","category_name":"公司","address":"锦秋路2455"},{"poiid":"B2094654D46BABF5439C","title":"隧道股份陈太路基地","lon":"121.36999","lat":"31.32315","category":"45","category_name":"产业园区","address":""},{"poiid":"B2094751D569A0FD409E","title":"呷哺呷哺","lon":"121.375241","lat":"31.316241","category":"247","category_name":"餐饮美食","address":"聚丰园路205号沃尔玛一楼"},{"poiid":"B2094757D16CA7FB4292","title":"大学路韩国料理(宝山店)","lon":"121.37776947","lat":"31.3147125244","category":"247","category_name":"餐饮美食","address":"上海聚丰园路84号"},{"poiid":"B2094654D46BAAFC479A","title":"好乐迪练歌吧","lon":"121.37536","lat":"31.31779","category":"170","category_name":"KTV","address":""},{"poiid":"B2094654DB6AA4F8409E","title":"金杯·中华申晟汽贸4S店","lon":"121.35253","lat":"31.30945","category":"163","category_name":"4S店","address":"丰翔路1358号"},{"poiid":"B2094757D66CA3F44093","title":"聚丰园路669弄","lon":"121.37339019","lat":"31.314712524","category":"500","category_name":"未知分类","address":"上海星福家园"},{"poiid":"B2094750D268ABF94192","title":"上海大学","lon":"121.348098","lat":"31.316228","category":"500","category_name":"未知分类","address":null},{"poiid":"B2094655D265A1FB479C","title":"外环蕰藻浜大桥","lon":"121.36154","lat":"31.32528","category":"250","category_name":"公园户外","address":""},{"poiid":"B2094654DB65A0F44392","title":"上海申晟名威汽车销售服务有限公司","lon":"121.35253","lat":"31.30946","category":"158","category_name":"汽车销售","address":"嘉定区丰翔路1358号(丰翔路园新路)"},{"poiid":"B2094757D569A1FB4793","title":"祁连欣苑三、四期","lon":"121.3768461","lat":"31.31390889","category":"47","category_name":"住宅区","address":"上海市宝山区聚丰园路500弄"},{"poiid":"B2094654D465A6FD469E","title":"上海市物资学校(锦秋路)","lon":"121.37986","lat":"31.31889","category":"55","category_name":"中学","address":"锦秋路1333号"},{"poiid":"B2094654D46BA6F4499A","title":"上海宝山城市工业园区(丰翔路)","lon":"121.35182","lat":"31.31054","category":"45","category_name":"产业园区","address":"丰翔路"},{"poiid":"B2094655D36DA1FA4299","title":"聚丰景都","lon":"121.37756","lat":"31.31431","category":"47","category_name":"住宅区","address":"上海市宝山区聚丰园路628弄"},{"poiid":"B2094757D069A4FE439B","title":"金地艺境","lon":"121.35308","lat":"31.315413","category":"47","category_name":"住宅区","address":"上海市市台路555弄50号(近真陈路)"},{"poiid":"B2094655D264A6FA4493","title":"绿地领海","lon":"121.347427","lat":"31.315148","category":"47","category_name":"住宅区","address":"真陈路以西、市台路以南，城银路以北围合而成的区域"},{"poiid":"B2094757D068A3FE439B","title":"沃尔玛(祁连店)","lon":"121.38216895","lat":"31.3150999219","category":"118","category_name":"超级市场","address":"宝山区聚丰园路205号(近祁连山路)"},{"poiid":"B2094655D26BA5FA439B","title":"宝华栎庭","lon":"121.362","lat":"31.3157","category":"47","category_name":"住宅区","address":"嘉定区丰翔路(近A12南翔出口)"},{"poiid":"B2094757D06FA4F4469F","title":"老盛昌苏州汤包馆(聚丰园路店)","lon":"121.38215","lat":"31.31498","category":"87","category_name":"特色／地方风味餐厅","address":"宝山区聚丰园路300号(近祁连山路)"},{"poiid":"B2094757D069A2FC4799","title":"上海大学附属学校","lon":"121.36961496","lat":"31.315800035","category":"253","category_name":"校园生活","address":"宝山区丰宝路135号(近聚丰园路)"},{"poiid":"B2094757D068A7FE409A","title":"轩乐诗 聚丰园路店","lon":"121.381078054","lat":"31.315256793","category":"86","category_name":"火锅店","address":"宝山区聚丰园路300号(近祁连山路)"},{"poiid":"B2094757D169AAF5499F","title":"丰翔新城","lon":"121.351125925","lat":"31.3131962985","category":"47","category_name":"住宅区","address":"宝山区城银路655弄"},{"poiid":"B2094757D16CA1F9449D","title":"轨道交通7号线陈太车库","lon":"121.36671695","lat":"31.3221520568","category":"46","category_name":"楼宇","address":"上海宝山区锦秋路2041号"},{"poiid":"B2094757D06FAAF5429A","title":"上海轨道交通陈太路基地","lon":"121.36673735","lat":"31.3130935835","category":"500","category_name":"未知分类","address":"上海市宝山区陈太路"},{"poiid":"B2094654D46BAAFC449B","title":"星福家园","lon":"121.37339","lat":"31.314713","category":"47","category_name":"住宅区","address":"上海聚丰园路669弄"},{"poiid":"B2094757D168A7FF439E","title":"地铁七号线陈太路停车场","lon":"121.36643475","lat":"31.3145894121","category":"500","category_name":"未知分类","address":"上海锦秋路744终点站对面"},{"poiid":"B2094654DB69A6FF4993","title":"上海市宝山区葑塘中学","lon":"121.3682","lat":"31.31715","category":"55","category_name":"中学","address":"宝山区陈太路500号"},{"poiid":"B2094654D46BA5FD429A","title":"上海宝凤暝园业务处","lon":"121.36748","lat":"31.30837","category":"248","category_name":"生活娱乐","address":"丰翔路644"},{"poiid":"B2094654D465A6F84893","title":"祁连一村","lon":"121.38074","lat":"31.312012","category":"47","category_name":"住宅区","address":"祁连山路2500弄1-199号"},{"poiid":"B2094757D06AABFE409C","title":"锦龙苑","lon":"121.37867","lat":"31.313692","category":"500","category_name":"未知分类","address":"上海市宝山区祁连山路2618号"},{"poiid":"B2094757D16CA3FD4499","title":"公交767","lon":"121.370663","lat":"31.317073","category":"38","category_name":"公交车站","address":"上海延长到宝山"},{"poiid":"B2094757D064A5FE4599","title":"金地艺境售楼处","lon":"121.351267325","lat":"31.3156044984","category":"500","category_name":"未知分类","address":"宝山区台路515弄50号(近真陈路)"},{"poiid":"B2094654D46BA5FF439B","title":"经济开发区","lon":"121.35409","lat":"31.3173","category":"45","category_name":"产业园区","address":""},{"poiid":"B2094757D06FAAFB4198","title":"85度C(聚丰园店)","lon":"121.38209","lat":"31.31392","category":"112","category_name":"糕饼店","address":"宝山区聚丰园路300-7号1楼(近祁连山路)"},{"poiid":"B2094752D76CA6FD419D","title":"s20外环","lon":"121.359611","lat":"31.320686","category":"500","category_name":"未知分类","address":null},{"poiid":"B2094757D16DA1FA4993","title":"申晟荣威4S","lon":"121.35251492","lat":"31.310708596","category":"500","category_name":"未知分类","address":"上海丰翔路1358号"},{"poiid":"B2094655D36DA2F54692","title":"外环丰收河桥","lon":"121.36376","lat":"31.30785","category":"250","category_name":"公园户外","address":""},{"poiid":"B2094655D36CA6F8469E","title":"丰翔路真陈路","lon":"121.3513","lat":"31.30983","category":"38","category_name":"公交车站","address":""},{"poiid":"B2094757D06BA3FF4798","title":"祁连新苑","lon":"121.376752","lat":"31.312232","category":"47","category_name":"住宅区","address":"上海宝山区聚丰园路500弄"},{"poiid":"B2094757D16DA4FE499A","title":"上海大学D楼","lon":"121.37990145","lat":"31.320033816","category":"500","category_name":"未知分类","address":"上海C楼旁边"},{"poiid":"B2094757D06BA4FE4598","title":"宝寿司（上大店）","lon":"121.354725484","lat":"31.3148184832","category":"500","category_name":"未知分类","address":"上海宝山区聚丰园路宏基广场内"},{"poiid":"B2094757D66BA3F4499F","title":"伸立大酒店","lon":"121.3787386","lat":"31.322883","category":"76","category_name":"上海菜","address":"宝山区祁华路218号"},{"poiid":"B2094654D46BA5FF4493","title":"上海森德科技发展有限公司","lon":"121.35677","lat":"31.31111","category":"263","category_name":"公司","address":""},{"poiid":"B2094655D36CA6F8479C","title":"丰宝路丰翔路","lon":"121.37137","lat":"31.31115","category":"38","category_name":"公交车站","address":""},{"poiid":"B2094654D46BA5FF449B","title":"光驰科技(上海)有限公司","lon":"121.35536","lat":"31.31245","category":"263","category_name":"公司","address":""},{"poiid":"B2094655D36DA1FC439C","title":"金皇庙桥","lon":"121.37163","lat":"31.31473","category":"250","category_name":"公园户外","address":""},{"poiid":"B2094654D465A6FF469E","title":"美铭酒楼","lon":"121.381167054","lat":"31.315202793","category":"76","category_name":"上海菜","address":"宝山区聚丰园路300号(近祁连山路)"},{"poiid":"B2094757D168A4F5459C","title":"鑫聚楼大酒店","lon":"121.37321675","lat":"31.317028758","category":"76","category_name":"上海菜","address":"宝山区聚丰园路165号3楼(近好又多中国银行)"},{"poiid":"B2094654D46BABF5479C","title":"祁连欣苑","lon":"121.37685","lat":"31.313906","category":"47","category_name":"住宅区","address":"聚丰园路500弄1-96号"},{"poiid":"B2094655D36CA0FC4398","title":"聚丰园路丰宝路","lon":"121.37321","lat":"31.31364","category":"38","category_name":"公交车站","address":""},{"poiid":"B2094654D46BA5FF429A","title":"上海真陈仓储有限公司","lon":"121.35698","lat":"31.32012","category":"263","category_name":"公司","address":"锦秋路2455"},{"poiid":"B2094654D46BABF5439C","title":"隧道股份陈太路基地","lon":"121.36999","lat":"31.32315","category":"45","category_name":"产业园区","address":""},{"poiid":"B2094751D569A0FD409E","title":"呷哺呷哺","lon":"121.375241","lat":"31.316241","category":"247","category_name":"餐饮美食","address":"聚丰园路205号沃尔玛一楼"},{"poiid":"B2094757D16CA7FB4292","title":"大学路韩国料理(宝山店)","lon":"121.37776947","lat":"31.3147125244","category":"247","category_name":"餐饮美食","address":"上海聚丰园路84号"},{"poiid":"B2094654D46BAAFC479A","title":"好乐迪练歌吧","lon":"121.37536","lat":"31.31779","category":"170","category_name":"KTV","address":""},{"poiid":"B2094654DB6AA4F8409E","title":"金杯·中华申晟汽贸4S店","lon":"121.35253","lat":"31.30945","category":"163","category_name":"4S店","address":"丰翔路1358号"},{"poiid":"B2094757D66CA3F44093","title":"聚丰园路669弄","lon":"121.37339019","lat":"31.314712524","category":"500","category_name":"未知分类","address":"上海星福家园"},{"poiid":"B2094750D268ABF94192","title":"上海大学","lon":"121.348098","lat":"31.316228","category":"500","category_name":"未知分类","address":null},{"poiid":"B2094655D265A1FB479C","title":"外环蕰藻浜大桥","lon":"121.36154","lat":"31.32528","category":"250","category_name":"公园户外","address":""},{"poiid":"B2094654DB65A0F44392","title":"上海申晟名威汽车销售服务有限公司","lon":"121.35253","lat":"31.30946","category":"158","category_name":"汽车销售","address":"嘉定区丰翔路1358号(丰翔路园新路)"},{"poiid":"B2094757D569A1FB4793","title":"祁连欣苑三、四期","lon":"121.3768461","lat":"31.31390889","category":"47","category_name":"住宅区","address":"上海市宝山区聚丰园路500弄"},{"poiid":"B2094654D465A6FD469E","title":"上海市物资学校(锦秋路)","lon":"121.37986","lat":"31.31889","category":"55","category_name":"中学","address":"锦秋路1333号"},{"poiid":"B2094654D46BA6F4499A","title":"上海宝山城市工业园区(丰翔路)","lon":"121.35182","lat":"31.31054","category":"45","category_name":"产业园区","address":"丰翔路"},{"poiid":"B2094655D36DA1FA4299","title":"聚丰景都","lon":"121.37756","lat":"31.31431","category":"47","category_name":"住宅区","address":"上海市宝山区聚丰园路628弄"},{"poiid":"B2094757D069A4FE439B","title":"金地艺境","lon":"121.35308","lat":"31.315413","category":"47","category_name":"住宅区","address":"上海市市台路555弄50号(近真陈路)"},{"poiid":"B2094655D264A6FA4493","title":"绿地领海","lon":"121.347427","lat":"31.315148","category":"47","category_name":"住宅区","address":"真陈路以西、市台路以南，城银路以北围合而成的区域"},{"poiid":"B2094757D068A3FE439B","title":"沃尔玛(祁连店)","lon":"121.38216895","lat":"31.3150999219","category":"118","category_name":"超级市场","address":"宝山区聚丰园路205号(近祁连山路)"},{"poiid":"B2094655D26BA5FA439B","title":"宝华栎庭","lon":"121.362","lat":"31.3157","category":"47","category_name":"住宅区","address":"嘉定区丰翔路(近A12南翔出口)"},{"poiid":"B2094757D06FA4F4469F","title":"老盛昌苏州汤包馆(聚丰园路店)","lon":"121.38215","lat":"31.31498","category":"87","category_name":"特色／地方风味餐厅","address":"宝山区聚丰园路300号(近祁连山路)"},{"poiid":"B2094757D069A2FC4799","title":"上海大学附属学校","lon":"121.36961496","lat":"31.315800035","category":"253","category_name":"校园生活","address":"宝山区丰宝路135号(近聚丰园路)"},{"poiid":"B2094757D068A7FE409A","title":"轩乐诗 聚丰园路店","lon":"121.381078054","lat":"31.315256793","category":"86","category_name":"火锅店","address":"宝山区聚丰园路300号(近祁连山路)"},{"poiid":"B2094757D169AAF5499F","title":"丰翔新城","lon":"121.351125925","lat":"31.3131962985","category":"47","category_name":"住宅区","address":"宝山区城银路655弄"},{"poiid":"B2094757D16CA1F9449D","title":"轨道交通7号线陈太车库","lon":"121.36671695","lat":"31.3221520568","category":"46","category_name":"楼宇","address":"上海宝山区锦秋路2041号"},{"poiid":"B2094757D06FAAF5429A","title":"上海轨道交通陈太路基地","lon":"121.36673735","lat":"31.3130935835","category":"500","category_name":"未知分类","address":"上海市宝山区陈太路"},{"poiid":"B2094654D46BAAFC449B","title":"星福家园","lon":"121.37339","lat":"31.314713","category":"47","category_name":"住宅区","address":"上海聚丰园路669弄"},{"poiid":"B2094757D168A7FF439E","title":"地铁七号线陈太路停车场","lon":"121.36643475","lat":"31.3145894121","category":"500","category_name":"未知分类","address":"上海锦秋路744终点站对面"},{"poiid":"B2094654DB69A6FF4993","title":"上海市宝山区葑塘中学","lon":"121.3682","lat":"31.31715","category":"55","category_name":"中学","address":"宝山区陈太路500号"},{"poiid":"B2094654D46BA5FD429A","title":"上海宝凤暝园业务处","lon":"121.36748","lat":"31.30837","category":"248","category_name":"生活娱乐","address":"丰翔路644"},{"poiid":"B2094654D465A6F84893","title":"祁连一村","lon":"121.38074","lat":"31.312012","category":"47","category_name":"住宅区","address":"祁连山路2500弄1-199号"},{"poiid":"B2094757D06AABFE409C","title":"锦龙苑","lon":"121.37867","lat":"31.313692","category":"500","category_name":"未知分类","address":"上海市宝山区祁连山路2618号"},{"poiid":"B2094757D16CA3FD4499","title":"公交767","lon":"121.370663","lat":"31.317073","category":"38","category_name":"公交车站","address":"上海延长到宝山"},{"poiid":"B2094757D064A5FE4599","title":"金地艺境售楼处","lon":"121.351267325","lat":"31.3156044984","category":"500","category_name":"未知分类","address":"宝山区台路515弄50号(近真陈路)"},{"poiid":"B2094654D46BA5FF439B","title":"经济开发区","lon":"121.35409","lat":"31.3173","category":"45","category_name":"产业园区","address":""},{"poiid":"B2094757D06FAAFB4198","title":"85度C(聚丰园店)","lon":"121.38209","lat":"31.31392","category":"112","category_name":"糕饼店","address":"宝山区聚丰园路300-7号1楼(近祁连山路)"},{"poiid":"B2094752D76CA6FD419D","title":"s20外环","lon":"121.359611","lat":"31.320686","category":"500","category_name":"未知分类","address":null},{"poiid":"B2094757D16DA1FA4993","title":"申晟荣威4S","lon":"121.35251492","lat":"31.310708596","category":"500","category_name":"未知分类","address":"上海丰翔路1358号"},{"poiid":"B2094655D36DA2F54692","title":"外环丰收河桥","lon":"121.36376","lat":"31.30785","category":"250","category_name":"公园户外","address":""},{"poiid":"B2094655D36CA6F8469E","title":"丰翔路真陈路","lon":"121.3513","lat":"31.30983","category":"38","category_name":"公交车站","address":""},{"poiid":"B2094757D06BA3FF4798","title":"祁连新苑","lon":"121.376752","lat":"31.312232","category":"47","category_name":"住宅区","address":"上海宝山区聚丰园路500弄"},{"poiid":"B2094757D16DA4FE499A","title":"上海大学D楼","lon":"121.37990145","lat":"31.320033816","category":"500","category_name":"未知分类","address":"上海C楼旁边"},{"poiid":"B2094757D06BA4FE4598","title":"宝寿司（上大店）","lon":"121.354725484","lat":"31.3148184832","category":"500","category_name":"未知分类","address":"上海宝山区聚丰园路宏基广场内"},{"poiid":"B2094757D66BA3F4499F","title":"伸立大酒店","lon":"121.3787386","lat":"31.322883","category":"76","category_name":"上海菜","address":"宝山区祁华路218号"},{"poiid":"B2094654D46BA5FF4493","title":"上海森德科技发展有限公司","lon":"121.35677","lat":"31.31111","category":"263","category_name":"公司","address":""},{"poiid":"B2094655D36CA6F8479C","title":"丰宝路丰翔路","lon":"121.37137","lat":"31.31115","category":"38","category_name":"公交车站","address":""},{"poiid":"B2094654D46BA5FF449B","title":"光驰科技(上海)有限公司","lon":"121.35536","lat":"31.31245","category":"263","category_name":"公司","address":""},{"poiid":"B2094655D36DA1FC439C","title":"金皇庙桥","lon":"121.37163","lat":"31.31473","category":"250","category_name":"公园户外","address":""},{"poiid":"B2094654D465A6FF469E","title":"美铭酒楼","lon":"121.381167054","lat":"31.315202793","category":"76","category_name":"上海菜","address":"宝山区聚丰园路300号(近祁连山路)"},{"poiid":"B2094757D168A4F5459C","title":"鑫聚楼大酒店","lon":"121.37321675","lat":"31.317028758","category":"76","category_name":"上海菜","address":"宝山区聚丰园路165号3楼(近好又多中国银行)"},{"poiid":"B2094654D46BABF5479C","title":"祁连欣苑","lon":"121.37685","lat":"31.313906","category":"47","category_name":"住宅区","address":"聚丰园路500弄1-96号"},{"poiid":"B2094655D36CA0FC4398","title":"聚丰园路丰宝路","lon":"121.37321","lat":"31.31364","category":"38","category_name":"公交车站","address":""},{"poiid":"B2094654D46BA5FF429A","title":"上海真陈仓储有限公司","lon":"121.35698","lat":"31.32012","category":"263","category_name":"公司","address":"锦秋路2455"},{"poiid":"B2094654D46BABF5439C","title":"隧道股份陈太路基地","lon":"121.36999","lat":"31.32315","category":"45","category_name":"产业园区","address":""},{"poiid":"B2094751D569A0FD409E","title":"呷哺呷哺","lon":"121.375241","lat":"31.316241","category":"247","category_name":"餐饮美食","address":"聚丰园路205号沃尔玛一楼"},{"poiid":"B2094757D16CA7FB4292","title":"大学路韩国料理(宝山店)","lon":"121.37776947","lat":"31.3147125244","category":"247","category_name":"餐饮美食","address":"上海聚丰园路84号"},{"poiid":"B2094654D46BAAFC479A","title":"好乐迪练歌吧","lon":"121.37536","lat":"31.31779","category":"170","category_name":"KTV","address":""},{"poiid":"B2094654DB6AA4F8409E","title":"金杯·中华申晟汽贸4S店","lon":"121.35253","lat":"31.30945","category":"163","category_name":"4S店","address":"丰翔路1358号"},{"poiid":"B2094757D66CA3F44093","title":"聚丰园路669弄","lon":"121.37339019","lat":"31.314712524","category":"500","category_name":"未知分类","address":"上海星福家园"},{"poiid":"B2094750D268ABF94192","title":"上海大学","lon":"121.348098","lat":"31.316228","category":"500","category_name":"未知分类","address":null},{"poiid":"B2094655D265A1FB479C","title":"外环蕰藻浜大桥","lon":"121.36154","lat":"31.32528","category":"250","category_name":"公园户外","address":""},{"poiid":"B2094654DB65A0F44392","title":"上海申晟名威汽车销售服务有限公司","lon":"121.35253","lat":"31.30946","category":"158","category_name":"汽车销售","address":"嘉定区丰翔路1358号(丰翔路园新路)"},{"poiid":"B2094757D569A1FB4793","title":"祁连欣苑三、四期","lon":"121.3768461","lat":"31.31390889","category":"47","category_name":"住宅区","address":"上海市宝山区聚丰园路500弄"},{"poiid":"B2094654D465A6FD469E","title":"上海市物资学校(锦秋路)","lon":"121.37986","lat":"31.31889","category":"55","category_name":"中学","address":"锦秋路1333号"}]