[{"poiid":"B2094655D26FA5FE4393","title":"上海光大会展中心","lon":"121.42892","lat":"31.16707","category":"260","category_name":"其他","address":"徐汇区漕宝路66号光大会展中心国际大酒店1楼(近习勤路)"},{"poiid":"B2094757D06FA2F9479C","title":"光大会展中心国际大酒店","lon":"121.429373","lat":"31.168133","category":"214","category_name":"四星级宾馆","address":"上海市徐汇区漕宝路66号(光大会展中心旁)"},{"poiid":"B2094654DB69A0FB419F","title":"耶里夏丽 田林店","lon":"121.42633571036","lat":"31.173006379071","category":"90","category_name":"清真餐馆","address":"田林东路411号近钦州路近柳州路田林宾馆附近"},{"poiid":"B2094757D06FA7F84493","title":"丰收日(光大店)","lon":"121.42733","lat":"31.16799","category":"75","category_name":"浙江菜","address":"徐汇区漕宝路91-93号1-2楼(近柳州路)"},{"poiid":"B2094757D06FA7F84692","title":"中国工商银行上海市分行培训中心","lon":"121.425552","lat":"31.16752","category":"260","category_name":"其他","address":"上海徐汇区漕宝路100号"},{"poiid":"B2094757D16FA2FB4698","title":"徐汇区婚姻登记中心","lon":"121.428157586","lat":"31.1672411999","category":"500","category_name":"未知分类","address":"上海徐汇区龙漕路80号光大会展中心D座3层"},{"poiid":"B2094757D06FA1F8449F","title":"小肥羊(柳州路店)","lon":"121.42492","lat":"31.16953","category":"86","category_name":"火锅店","address":"徐汇区柳州路368号(近漕宝路)"},{"poiid":"B2094654D564A0F9479B","title":"上海光大会展中心(西馆)","lon":"121.42707","lat":"31.16724","category":"46","category_name":"楼宇","address":"徐汇区漕宝路88号"},{"poiid":"B2094757D06FA5F84699","title":"名羊天下","lon":"121.42901","lat":"31.17331","category":"86","category_name":"火锅店","address":"徐汇区田林东路360弄1号(钦州路口)"},{"poiid":"B2094752D669A0FA499D","title":"3Quarks真密室","lon":"121.430414","lat":"31.170023","category":"248","category_name":"生活娱乐","address":"上海市钦州路518号"},{"poiid":"B2094655D269AAFC439A","title":"华夏宾馆","lon":"121.42989","lat":"31.1678","category":"217","category_name":"旅馆招待所","address":"徐汇区漕宝路38号华夏宾馆2楼(近钦州路)"},{"poiid":"B2094757D16CA5F54393","title":"光大展览中心","lon":"121.427751596","lat":"31.1679425186","category":"500","category_name":"未知分类","address":"上海漕宝路"},{"poiid":"B2094654D564A0FA479D","title":"上海光大会展中心E座","lon":"121.42825","lat":"31.16678","category":"46","category_name":"楼宇","address":"漕宝路82"},{"poiid":"B2094757D06BA6FD4792","title":"五木铁板烧(漕宝路店)","lon":"121.43019458","lat":"31.168261219","category":"269","category_name":"烧烤","address":"徐汇区漕宝路38号华夏宾馆1楼(近钦州路)"},{"poiid":"B2094757D06FA5F84392","title":"田林十二村","lon":"121.43008","lat":"31.172791","category":"47","category_name":"住宅区","address":"上海田林东路钦州路"},{"poiid":"B2094757D069A4F44692","title":"肯德基(光大店)","lon":"121.42786858","lat":"31.167846211","category":"68","category_name":"快餐厅","address":"徐汇区漕宝路78号光大会展中心东馆1楼"},{"poiid":"B2094654DB69A5FF4298","title":"莫泰168连锁旅店(柳州路店)","lon":"121.42504","lat":"31.16913","category":"216","category_name":"经济型连锁酒店","address":"徐汇区柳州路427号(田林东路田林路)"},{"poiid":"B209475DDA64A7FE489A","title":"Caffe Bene","lon":"121.428146","lat":"31.169977","category":"247","category_name":"餐饮美食","address":"上海市 田林路1号"},{"poiid":"B2094757D068ABFF459A","title":"上师大第一教学楼","lon":"121.428322211","lat":"31.1671282608","category":"253","category_name":"校园生活","address":"上海徐汇区桂林路100号西部"},{"poiid":"B2094757D069A1F94093","title":"港饮港食 光大店","lon":"121.42796","lat":"31.16538","category":"72","category_name":"广东菜","address":"徐汇区漕宝路80号光大会展中心D座1楼(习勤路口)"},{"poiid":"B2094753D56EA4FA429E","title":"上海市八万人体育场","lon":"121.428375","lat":"31.172063","category":"500","category_name":"未知分类","address":"上海市 中山南二路 天钥桥路"},{"poiid":"B2094757D06BA1F94599","title":"金水保健养身会馆（田林店）","lon":"121.42840576","lat":"31.170286178","category":"148","category_name":"美容美发店","address":"上海田林路588号"},{"poiid":"B2094757D064A2FF4899","title":"上海市环境科学研究院","lon":"121.43038177","lat":"31.169113159","category":"500","category_name":"未知分类","address":"上海徐汇区钦州路508号"},{"poiid":"B2094654D564A0FB489A","title":"九彩天大酒楼","lon":"121.43016","lat":"31.16786","category":"76","category_name":"上海菜","address":"徐汇区漕宝路38号华夏宾馆2楼(漕溪路口)"},{"poiid":"B2094757D068ABFC499A","title":"四海游龙 田林店 OVERSEAS DRAGON","lon":"121.425933054","lat":"31.172575793","category":"68","category_name":"快餐厅","address":"徐汇区田林东路456号(柳州路钦州路间)"},{"poiid":"B2094757D069AAFC4599","title":"四海游龙 光大店","lon":"121.427963","lat":"31.166368","category":"68","category_name":"快餐厅","address":"徐汇区漕宝路78号光大会展中心东馆1楼"},{"poiid":"B2094654D564A0FA4792","title":"上海光大会展中心C座","lon":"121.42852","lat":"31.16772","category":"46","category_name":"楼宇","address":"漕宝路70"},{"poiid":"B2094654D564A7FF4892","title":"丰收日后花园","lon":"121.42595","lat":"31.16927","category":"257","category_name":"中餐厅","address":"上海漕宝路103号"},{"poiid":"B2094654DB64A6FC479B","title":"上岛咖啡(漕宝路店)","lon":"121.42904","lat":"31.16842","category":"65","category_name":"咖啡厅","address":"徐汇区漕宝路67号(近习勤路)"},{"poiid":"B2094655D26AA3F94098","title":"九州拉面漕宝路店","lon":"121.42621","lat":"31.16797","category":"95","category_name":"日本料理","address":"徐汇区漕宝路103号(光大会展中心西馆对面)"},{"poiid":"B2094750D26EA7FB489B","title":"玉山台湾料理","lon":"121.430468","lat":"31.168571","category":"91","category_name":"台湾菜","address":"徐汇区漕宝路43号(近钦州路)"},{"poiid":"B2094655D26AA2F5479F","title":"光大会展","lon":"121.42893","lat":"31.16707","category":"247","category_name":"餐饮美食","address":"徐汇区漕宝路78号(近习勤路)"},{"poiid":"B2094654D564A0F94799","title":"上海光大会展中心D座","lon":"121.42827","lat":"31.16742","category":"46","category_name":"楼宇","address":"漕宝路80"},{"poiid":"B2094757D569A7FE4998","title":"上海光大会展中心东馆(北门)","lon":"121.42962212","lat":"31.16755859","category":"48","category_name":"楼宇大门","address":"漕宝路78号"},{"poiid":"B2094757D06BA4FE429B","title":"口吅品牛肉面馆 漕宝路店","lon":"121.430776054","lat":"31.168222793","category":"68","category_name":"快餐厅","address":"徐汇区漕宝路43号(近钦州路)"},{"poiid":"B2094654D564A0FA4899","title":"上海光大会展中心F座","lon":"121.42871","lat":"31.16653","category":"46","category_name":"楼宇","address":"漕宝路86"},{"poiid":"B2094757DB6EA6FE4992","title":"上海云悦华尔兹精品酒店","lon":"121.4272606","lat":"31.16814138","category":"214","category_name":"四星级宾馆","address":"上海市徐汇区漕宝路93号(近习勤路)"},{"poiid":"B2094654D564A7FE4293","title":"喜士多便利(漕宝路)","lon":"121.42851","lat":"31.16835","category":"117","category_name":"便民商店/便利店","address":"徐汇区漕宝路75号(漕宝路习勤路)"},{"poiid":"B2094757D16AA0FA4799","title":"沪江宾馆","lon":"121.430404","lat":"31.170248","category":"217","category_name":"旅馆招待所","address":"徐汇区钦州路518号(近漕宝路)"},{"poiid":"B2094757D069A7F5449C","title":"豫申园城隍庙小吃世界 田林店","lon":"121.42736","lat":"31.17301","category":"68","category_name":"快餐厅","address":"徐汇区田林东路407号"},{"poiid":"B2094654D564A7FE439A","title":"克丽缇娜(漕宝路)","lon":"121.42858","lat":"31.16836","category":"148","category_name":"美容美发店","address":"漕宝路73号"},{"poiid":"B2094655D26AA5FE429C","title":"工艺品研究所","lon":"121.43015","lat":"31.17057","category":"247","category_name":"餐饮美食","address":"徐汇区钦州路528号2楼(近漕宝路)"},{"poiid":"B2094654DB6BA7FB469B","title":"上海市徐汇区田林第三小学","lon":"121.42753","lat":"31.17086","category":"56","category_name":"小学","address":"徐汇区田林东路田林十一村59号"},{"poiid":"B2094757D06BABF4449A","title":"味思康麻辣烫","lon":"121.42691803","lat":"31.1691589355","category":"247","category_name":"餐饮美食","address":"上海田林路64号"},{"poiid":"B2094750DA6CA5FB439B","title":"辛格小镇咖啡","lon":"121.427803","lat":"31.167888","category":"247","category_name":"餐饮美食","address":"漕宝路89号习勤路口(丰收日隔壁)"},{"poiid":"B2094757D064AAF5499B","title":"上海美术设计有限公司","lon":"121.43108552","lat":"31.171121715","category":"46","category_name":"楼宇","address":"上海漕溪路258弄23号"},{"poiid":"B2094757D164A4F44699","title":"钦州路","lon":"121.431144286","lat":"31.1696870476","category":"500","category_name":"未知分类","address":"上海钦州路"},{"poiid":"B2094654D564A7FE4498","title":"美皓口腔门诊","lon":"121.42985","lat":"31.16846","category":"162","category_name":"医院","address":"徐汇区漕宝路51号2楼"},{"poiid":"B2094757D164A2F54098","title":"徐汇区","lon":"121.42834458","lat":"31.166519185","category":"500","category_name":"未知分类","address":"上海幸福的窝窝"},{"poiid":"B2094751D36EA5FA429D","title":"老北桥过桥米线(漕宝路店)","lon":"121.42795","lat":"31.16712","category":"68","category_name":"快餐厅","address":"徐汇区漕宝路76号光大会展旁(近习勤路)"},{"poiid":"B2094655D26FA5FE4393","title":"上海光大会展中心","lon":"121.42892","lat":"31.16707","category":"260","category_name":"其他","address":"徐汇区漕宝路66号光大会展中心国际大酒店1楼(近习勤路)"},{"poiid":"B2094757D06FA2F9479C","title":"光大会展中心国际大酒店","lon":"121.429373","lat":"31.168133","category":"214","category_name":"四星级宾馆","address":"上海市徐汇区漕宝路66号(光大会展中心旁)"},{"poiid":"B2094654DB69A0FB419F","title":"耶里夏丽 田林店","lon":"121.42633571036","lat":"31.173006379071","category":"90","category_name":"清真餐馆","address":"田林东路411号近钦州路近柳州路田林宾馆附近"},{"poiid":"B2094757D06FA7F84493","title":"丰收日(光大店)","lon":"121.42733","lat":"31.16799","category":"75","category_name":"浙江菜","address":"徐汇区漕宝路91-93号1-2楼(近柳州路)"},{"poiid":"B2094757D06FA7F84692","title":"中国工商银行上海市分行培训中心","lon":"121.425552","lat":"31.16752","category":"260","category_name":"其他","address":"上海徐汇区漕宝路100号"},{"poiid":"B2094757D16FA2FB4698","title":"徐汇区婚姻登记中心","lon":"121.428157586","lat":"31.1672411999","category":"500","category_name":"未知分类","address":"上海徐汇区龙漕路80号光大会展中心D座3层"},{"poiid":"B2094757D06FA1F8449F","title":"小肥羊(柳州路店)","lon":"121.42492","lat":"31.16953","category":"86","category_name":"火锅店","address":"徐汇区柳州路368号(近漕宝路)"},{"poiid":"B2094654D564A0F9479B","title":"上海光大会展中心(西馆)","lon":"121.42707","lat":"31.16724","category":"46","category_name":"楼宇","address":"徐汇区漕宝路88号"},{"poiid":"B2094757D06FA5F84699","title":"名羊天下","lon":"121.42901","lat":"31.17331","category":"86","category_name":"火锅店","address":"徐汇区田林东路360弄1号(钦州路口)"},{"poiid":"B2094752D669A0FA499D","title":"3Quarks真密室","lon":"121.430414","lat":"31.170023","category":"248","category_name":"生活娱乐","address":"上海市钦州路518号"},{"poiid":"B2094655D269AAFC439A","title":"华夏宾馆","lon":"121.42989","lat":"31.1678","category":"217","category_name":"旅馆招待所","address":"徐汇区漕宝路38号华夏宾馆2楼(近钦州路)"},{"poiid":"B2094757D16CA5F54393","title":"光大展览中心","lon":"121.427751596","lat":"31.1679425186","category":"500","category_name":"未知分类","address":"上海漕宝路"},{"poiid":"B2094654D564A0FA479D","title":"上海光大会展中心E座","lon":"121.42825","lat":"31.16678","category":"46","category_name":"楼宇","address":"漕宝路82"},{"poiid":"B2094757D06BA6FD4792","title":"五木铁板烧(漕宝路店)","lon":"121.43019458","lat":"31.168261219","category":"269","category_name":"烧烤","address":"徐汇区漕宝路38号华夏宾馆1楼(近钦州路)"},{"poiid":"B2094757D06FA5F84392","title":"田林十二村","lon":"121.43008","lat":"31.172791","category":"47","category_name":"住宅区","address":"上海田林东路钦州路"},{"poiid":"B2094757D069A4F44692","title":"肯德基(光大店)","lon":"121.42786858","lat":"31.167846211","category":"68","category_name":"快餐厅","address":"徐汇区漕宝路78号光大会展中心东馆1楼"},{"poiid":"B2094654DB69A5FF4298","title":"莫泰168连锁旅店(柳州路店)","lon":"121.42504","lat":"31.16913","category":"216","category_name":"经济型连锁酒店","address":"徐汇区柳州路427号(田林东路田林路)"},{"poiid":"B209475DDA64A7FE489A","title":"Caffe Bene","lon":"121.428146","lat":"31.169977","category":"247","category_name":"餐饮美食","address":"上海市 田林路1号"},{"poiid":"B2094757D068ABFF459A","title":"上师大第一教学楼","lon":"121.428322211","lat":"31.1671282608","category":"253","category_name":"校园生活","address":"上海徐汇区桂林路100号西部"},{"poiid":"B2094757D069A1F94093","title":"港饮港食 光大店","lon":"121.42796","lat":"31.16538","category":"72","category_name":"广东菜","address":"徐汇区漕宝路80号光大会展中心D座1楼(习勤路口)"},{"poiid":"B2094753D56EA4FA429E","title":"上海市八万人体育场","lon":"121.428375","lat":"31.172063","category":"500","category_name":"未知分类","address":"上海市 中山南二路 天钥桥路"},{"poiid":"B2094757D06BA1F94599","title":"金水保健养身会馆（田林店）","lon":"121.42840576","lat":"31.170286178","category":"148","category_name":"美容美发店","address":"上海田林路588号"},{"poiid":"B2094757D064A2FF4899","title":"上海市环境科学研究院","lon":"121.43038177","lat":"31.169113159","category":"500","category_name":"未知分类","address":"上海徐汇区钦州路508号"},{"poiid":"B2094654D564A0FB489A","title":"九彩天大酒楼","lon":"121.43016","lat":"31.16786","category":"76","category_name":"上海菜","address":"徐汇区漕宝路38号华夏宾馆2楼(漕溪路口)"},{"poiid":"B2094757D068ABFC499A","title":"四海游龙 田林店 OVERSEAS DRAGON","lon":"121.425933054","lat":"31.172575793","category":"68","category_name":"快餐厅","address":"徐汇区田林东路456号(柳州路钦州路间)"},{"poiid":"B2094757D069AAFC4599","title":"四海游龙 光大店","lon":"121.427963","lat":"31.166368","category":"68","category_name":"快餐厅","address":"徐汇区漕宝路78号光大会展中心东馆1楼"},{"poiid":"B2094654D564A0FA4792","title":"上海光大会展中心C座","lon":"121.42852","lat":"31.16772","category":"46","category_name":"楼宇","address":"漕宝路70"},{"poiid":"B2094654D564A7FF4892","title":"丰收日后花园","lon":"121.42595","lat":"31.16927","category":"257","category_name":"中餐厅","address":"上海漕宝路103号"},{"poiid":"B2094654DB64A6FC479B","title":"上岛咖啡(漕宝路店)","lon":"121.42904","lat":"31.16842","category":"65","category_name":"咖啡厅","address":"徐汇区漕宝路67号(近习勤路)"},{"poiid":"B2094655D26AA3F94098","title":"九州拉面漕宝路店","lon":"121.42621","lat":"31.16797","category":"95","category_name":"日本料理","address":"徐汇区漕宝路103号(光大会展中心西馆对面)"},{"poiid":"B2094750D26EA7FB489B","title":"玉山台湾料理","lon":"121.430468","lat":"31.168571","category":"91","category_name":"台湾菜","address":"徐汇区漕宝路43号(近钦州路)"},{"poiid":"B2094655D26AA2F5479F","title":"光大会展","lon":"121.42893","lat":"31.16707","category":"247","category_name":"餐饮美食","address":"徐汇区漕宝路78号(近习勤路)"},{"poiid":"B2094654D564A0F94799","title":"上海光大会展中心D座","lon":"121.42827","lat":"31.16742","category":"46","category_name":"楼宇","address":"漕宝路80"},{"poiid":"B2094757D569A7FE4998","title":"上海光大会展中心东馆(北门)","lon":"121.42962212","lat":"31.16755859","category":"48","category_name":"楼宇大门","address":"漕宝路78号"},{"poiid":"B2094757D06BA4FE429B","title":"口吅品牛肉面馆 漕宝路店","lon":"121.430776054","lat":"31.168222793","category":"68","category_name":"快餐厅","address":"徐汇区漕宝路43号(近钦州路)"},{"poiid":"B2094654D564A0FA4899","title":"上海光大会展中心F座","lon":"121.42871","lat":"31.16653","category":"46","category_name":"楼宇","address":"漕宝路86"},{"poiid":"B2094757DB6EA6FE4992","title":"上海云悦华尔兹精品酒店","lon":"121.4272606","lat":"31.16814138","category":"214","category_name":"四星级宾馆","address":"上海市徐汇区漕宝路93号(近习勤路)"},{"poiid":"B2094654D564A7FE4293","title":"喜士多便利(漕宝路)","lon":"121.42851","lat":"31.16835","category":"117","category_name":"便民商店/便利店","address":"徐汇区漕宝路75号(漕宝路习勤路)"},{"poiid":"B2094757D16AA0FA4799","title":"沪江宾馆","lon":"121.430404","lat":"31.170248","category":"217","category_name":"旅馆招待所","address":"徐汇区钦州路518号(近漕宝路)"},{"poiid":"B2094757D069A7F5449C","title":"豫申园城隍庙小吃世界 田林店","lon":"121.42736","lat":"31.17301","category":"68","category_name":"快餐厅","address":"徐汇区田林东路407号"},{"poiid":"B2094654D564A7FE439A","title":"克丽缇娜(漕宝路)","lon":"121.42858","lat":"31.16836","category":"148","category_name":"美容美发店","address":"漕宝路73号"},{"poiid":"B2094655D26AA5FE429C","title":"工艺品研究所","lon":"121.43015","lat":"31.17057","category":"247","category_name":"餐饮美食","address":"徐汇区钦州路528号2楼(近漕宝路)"},{"poiid":"B2094654DB6BA7FB469B","title":"上海市徐汇区田林第三小学","lon":"121.42753","lat":"31.17086","category":"56","category_name":"小学","address":"徐汇区田林东路田林十一村59号"},{"poiid":"B2094757D06BABF4449A","title":"味思康麻辣烫","lon":"121.42691803","lat":"31.1691589355","category":"247","category_name":"餐饮美食","address":"上海田林路64号"},{"poiid":"B2094750DA6CA5FB439B","title":"辛格小镇咖啡","lon":"121.427803","lat":"31.167888","category":"247","category_name":"餐饮美食","address":"漕宝路89号习勤路口(丰收日隔壁)"},{"poiid":"B2094757D064AAF5499B","title":"上海美术设计有限公司","lon":"121.43108552","lat":"31.171121715","category":"46","category_name":"楼宇","address":"上海漕溪路258弄23号"},{"poiid":"B2094757D164A4F44699","title":"钦州路","lon":"121.431144286","lat":"31.1696870476","category":"500","category_name":"未知分类","address":"上海钦州路"},{"poiid":"B2094654D564A7FE4498","title":"美皓口腔门诊","lon":"121.42985","lat":"31.16846","category":"162","category_name":"医院","address":"徐汇区漕宝路51号2楼"},{"poiid":"B2094757D164A2F54098","title":"徐汇区","lon":"121.42834458","lat":"31.166519185","category":"500","category_name":"未知分类","address":"上海幸福的窝窝"},{"poiid":"B2094751D36EA5FA429D","title":"老北桥过桥米线(漕宝路店)","lon":"121.42795","lat":"31.16712","category":"68","category_name":"快餐厅","address":"徐汇区漕宝路76号光大会展旁(近习勤路)"},{"poiid":"B2094655D26FA5FE4393","title":"上海光大会展中心","lon":"121.42892","lat":"31.16707","category":"260","category_name":"其他","address":"徐汇区漕宝路66号光大会展中心国际大酒店1楼(近习勤路)"},{"poiid":"B2094757D06FA2F9479C","title":"光大会展中心国际大酒店","lon":"121.429373","lat":"31.168133","category":"214","category_name":"四星级宾馆","address":"上海市徐汇区漕宝路66号(光大会展中心旁)"},{"poiid":"B2094654DB69A0FB419F","title":"耶里夏丽 田林店","lon":"121.42633571036","lat":"31.173006379071","category":"90","category_name":"清真餐馆","address":"田林东路411号近钦州路近柳州路田林宾馆附近"},{"poiid":"B2094757D06FA7F84493","title":"丰收日(光大店)","lon":"121.42733","lat":"31.16799","category":"75","category_name":"浙江菜","address":"徐汇区漕宝路91-93号1-2楼(近柳州路)"},{"poiid":"B2094757D06FA7F84692","title":"中国工商银行上海市分行培训中心","lon":"121.425552","lat":"31.16752","category":"260","category_name":"其他","address":"上海徐汇区漕宝路100号"},{"poiid":"B2094757D16FA2FB4698","title":"徐汇区婚姻登记中心","lon":"121.428157586","lat":"31.1672411999","category":"500","category_name":"未知分类","address":"上海徐汇区龙漕路80号光大会展中心D座3层"},{"poiid":"B2094757D06FA1F8449F","title":"小肥羊(柳州路店)","lon":"121.42492","lat":"31.16953","category":"86","category_name":"火锅店","address":"徐汇区柳州路368号(近漕宝路)"},{"poiid":"B2094654D564A0F9479B","title":"上海光大会展中心(西馆)","lon":"121.42707","lat":"31.16724","category":"46","category_name":"楼宇","address":"徐汇区漕宝路88号"},{"poiid":"B2094757D06FA5F84699","title":"名羊天下","lon":"121.42901","lat":"31.17331","category":"86","category_name":"火锅店","address":"徐汇区田林东路360弄1号(钦州路口)"},{"poiid":"B2094752D669A0FA499D","title":"3Quarks真密室","lon":"121.430414","lat":"31.170023","category":"248","category_name":"生活娱乐","address":"上海市钦州路518号"},{"poiid":"B2094655D269AAFC439A","title":"华夏宾馆","lon":"121.42989","lat":"31.1678","category":"217","category_name":"旅馆招待所","address":"徐汇区漕宝路38号华夏宾馆2楼(近钦州路)"},{"poiid":"B2094757D16CA5F54393","title":"光大展览中心","lon":"121.427751596","lat":"31.1679425186","category":"500","category_name":"未知分类","address":"上海漕宝路"},{"poiid":"B2094654D564A0FA479D","title":"上海光大会展中心E座","lon":"121.42825","lat":"31.16678","category":"46","category_name":"楼宇","address":"漕宝路82"},{"poiid":"B2094757D06BA6FD4792","title":"五木铁板烧(漕宝路店)","lon":"121.43019458","lat":"31.168261219","category":"269","category_name":"烧烤","address":"徐汇区漕宝路38号华夏宾馆1楼(近钦州路)"},{"poiid":"B2094757D06FA5F84392","title":"田林十二村","lon":"121.43008","lat":"31.172791","category":"47","category_name":"住宅区","address":"上海田林东路钦州路"},{"poiid":"B2094757D069A4F44692","title":"肯德基(光大店)","lon":"121.42786858","lat":"31.167846211","category":"68","category_name":"快餐厅","address":"徐汇区漕宝路78号光大会展中心东馆1楼"},{"poiid":"B2094654DB69A5FF4298","title":"莫泰168连锁旅店(柳州路店)","lon":"121.42504","lat":"31.16913","category":"216","category_name":"经济型连锁酒店","address":"徐汇区柳州路427号(田林东路田林路)"},{"poiid":"B209475DDA64A7FE489A","title":"Caffe Bene","lon":"121.428146","lat":"31.169977","category":"247","category_name":"餐饮美食","address":"上海市 田林路1号"},{"poiid":"B2094757D068ABFF459A","title":"上师大第一教学楼","lon":"121.428322211","lat":"31.1671282608","category":"253","category_name":"校园生活","address":"上海徐汇区桂林路100号西部"},{"poiid":"B2094757D069A1F94093","title":"港饮港食 光大店","lon":"121.42796","lat":"31.16538","category":"72","category_name":"广东菜","address":"徐汇区漕宝路80号光大会展中心D座1楼(习勤路口)"},{"poiid":"B2094753D56EA4FA429E","title":"上海市八万人体育场","lon":"121.428375","lat":"31.172063","category":"500","category_name":"未知分类","address":"上海市 中山南二路 天钥桥路"},{"poiid":"B2094757D06BA1F94599","title":"金水保健养身会馆（田林店）","lon":"121.42840576","lat":"31.170286178","category":"148","category_name":"美容美发店","address":"上海田林路588号"},{"poiid":"B2094757D064A2FF4899","title":"上海市环境科学研究院","lon":"121.43038177","lat":"31.169113159","category":"500","category_name":"未知分类","address":"上海徐汇区钦州路508号"},{"poiid":"B2094654D564A0FB489A","title":"九彩天大酒楼","lon":"121.43016","lat":"31.16786","category":"76","category_name":"上海菜","address":"徐汇区漕宝路38号华夏宾馆2楼(漕溪路口)"},{"poiid":"B2094757D068ABFC499A","title":"四海游龙 田林店 OVERSEAS DRAGON","lon":"121.425933054","lat":"31.172575793","category":"68","category_name":"快餐厅","address":"徐汇区田林东路456号(柳州路钦州路间)"},{"poiid":"B2094757D069AAFC4599","title":"四海游龙 光大店","lon":"121.427963","lat":"31.166368","category":"68","category_name":"快餐厅","address":"徐汇区漕宝路78号光大会展中心东馆1楼"},{"poiid":"B2094654D564A0FA4792","title":"上海光大会展中心C座","lon":"121.42852","lat":"31.16772","category":"46","category_name":"楼宇","address":"漕宝路70"},{"poiid":"B2094654D564A7FF4892","title":"丰收日后花园","lon":"121.42595","lat":"31.16927","category":"257","category_name":"中餐厅","address":"上海漕宝路103号"},{"poiid":"B2094654DB64A6FC479B","title":"上岛咖啡(漕宝路店)","lon":"121.42904","lat":"31.16842","category":"65","category_name":"咖啡厅","address":"徐汇区漕宝路67号(近习勤路)"},{"poiid":"B2094655D26AA3F94098","title":"九州拉面漕宝路店","lon":"121.42621","lat":"31.16797","category":"95","category_name":"日本料理","address":"徐汇区漕宝路103号(光大会展中心西馆对面)"},{"poiid":"B2094750D26EA7FB489B","title":"玉山台湾料理","lon":"121.430468","lat":"31.168571","category":"91","category_name":"台湾菜","address":"徐汇区漕宝路43号(近钦州路)"},{"poiid":"B2094655D26AA2F5479F","title":"光大会展","lon":"121.42893","lat":"31.16707","category":"247","category_name":"餐饮美食","address":"徐汇区漕宝路78号(近习勤路)"},{"poiid":"B2094654D564A0F94799","title":"上海光大会展中心D座","lon":"121.42827","lat":"31.16742","category":"46","category_name":"楼宇","address":"漕宝路80"},{"poiid":"B2094757D569A7FE4998","title":"上海光大会展中心东馆(北门)","lon":"121.42962212","lat":"31.16755859","category":"48","category_name":"楼宇大门","address":"漕宝路78号"},{"poiid":"B2094757D06BA4FE429B","title":"口吅品牛肉面馆 漕宝路店","lon":"121.430776054","lat":"31.168222793","category":"68","category_name":"快餐厅","address":"徐汇区漕宝路43号(近钦州路)"},{"poiid":"B2094654D564A0FA4899","title":"上海光大会展中心F座","lon":"121.42871","lat":"31.16653","category":"46","category_name":"楼宇","address":"漕宝路86"},{"poiid":"B2094757DB6EA6FE4992","title":"上海云悦华尔兹精品酒店","lon":"121.4272606","lat":"31.16814138","category":"214","category_name":"四星级宾馆","address":"上海市徐汇区漕宝路93号(近习勤路)"},{"poiid":"B2094654D564A7FE4293","title":"喜士多便利(漕宝路)","lon":"121.42851","lat":"31.16835","category":"117","category_name":"便民商店/便利店","address":"徐汇区漕宝路75号(漕宝路习勤路)"},{"poiid":"B2094757D16AA0FA4799","title":"沪江宾馆","lon":"121.430404","lat":"31.170248","category":"217","category_name":"旅馆招待所","address":"徐汇区钦州路518号(近漕宝路)"},{"poiid":"B2094757D069A7F5449C","title":"豫申园城隍庙小吃世界 田林店","lon":"121.42736","lat":"31.17301","category":"68","category_name":"快餐厅","address":"徐汇区田林东路407号"},{"poiid":"B2094654D564A7FE439A","title":"克丽缇娜(漕宝路)","lon":"121.42858","lat":"31.16836","category":"148","category_name":"美容美发店","address":"漕宝路73号"},{"poiid":"B2094655D26AA5FE429C","title":"工艺品研究所","lon":"121.43015","lat":"31.17057","category":"247","category_name":"餐饮美食","address":"徐汇区钦州路528号2楼(近漕宝路)"},{"poiid":"B2094654DB6BA7FB469B","title":"上海市徐汇区田林第三小学","lon":"121.42753","lat":"31.17086","category":"56","category_name":"小学","address":"徐汇区田林东路田林十一村59号"},{"poiid":"B2094757D06BABF4449A","title":"味思康麻辣烫","lon":"121.42691803","lat":"31.1691589355","category":"247","category_name":"餐饮美食","address":"上海田林路64号"},{"poiid":"B2094750DA6CA5FB439B","title":"辛格小镇咖啡","lon":"121.427803","lat":"31.167888","category":"247","category_name":"餐饮美食","address":"漕宝路89号习勤路口(丰收日隔壁)"},{"poiid":"B2094757D064AAF5499B","title":"上海美术设计有限公司","lon":"121.43108552","lat":"31.171121715","category":"46","category_name":"楼宇","address":"上海漕溪路258弄23号"},{"poiid":"B2094757D164A4F44699","title":"钦州路","lon":"121.431144286","lat":"31.1696870476","category":"500","category_name":"未知分类","address":"上海钦州路"},{"poiid":"B2094654D564A7FE4498","title":"美皓口腔门诊","lon":"121.42985","lat":"31.16846","category":"162","category_name":"医院","address":"徐汇区漕宝路51号2楼"},{"poiid":"B2094757D164A2F54098","title":"徐汇区","lon":"121.42834458","lat":"31.166519185","category":"500","category_name":"未知分类","address":"上海幸福的窝窝"},{"poiid":"B2094751D36EA5FA429D","title":"老北桥过桥米线(漕宝路店)","lon":"121.42795","lat":"31.16712","category":"68","category_name":"快餐厅","address":"徐汇区漕宝路76号光大会展旁(近习勤路)"},{"poiid":"B2094655D26FA5FE4393","title":"上海光大会展中心","lon":"121.42892","lat":"31.16707","category":"260","category_name":"其他","address":"徐汇区漕宝路66号光大会展中心国际大酒店1楼(近习勤路)"},{"poiid":"B2094757D06FA2F9479C","title":"光大会展中心国际大酒店","lon":"121.429373","lat":"31.168133","category":"214","category_name":"四星级宾馆","address":"上海市徐汇区漕宝路66号(光大会展中心旁)"},{"poiid":"B2094654DB69A0FB419F","title":"耶里夏丽 田林店","lon":"121.42633571036","lat":"31.173006379071","category":"90","category_name":"清真餐馆","address":"田林东路411号近钦州路近柳州路田林宾馆附近"},{"poiid":"B2094757D06FA7F84493","title":"丰收日(光大店)","lon":"121.42733","lat":"31.16799","category":"75","category_name":"浙江菜","address":"徐汇区漕宝路91-93号1-2楼(近柳州路)"},{"poiid":"B2094757D06FA7F84692","title":"中国工商银行上海市分行培训中心","lon":"121.425552","lat":"31.16752","category":"260","category_name":"其他","address":"上海徐汇区漕宝路100号"},{"poiid":"B2094757D16FA2FB4698","title":"徐汇区婚姻登记中心","lon":"121.428157586","lat":"31.1672411999","category":"500","category_name":"未知分类","address":"上海徐汇区龙漕路80号光大会展中心D座3层"},{"poiid":"B2094757D06FA1F8449F","title":"小肥羊(柳州路店)","lon":"121.42492","lat":"31.16953","category":"86","category_name":"火锅店","address":"徐汇区柳州路368号(近漕宝路)"},{"poiid":"B2094654D564A0F9479B","title":"上海光大会展中心(西馆)","lon":"121.42707","lat":"31.16724","category":"46","category_name":"楼宇","address":"徐汇区漕宝路88号"},{"poiid":"B2094757D06FA5F84699","title":"名羊天下","lon":"121.42901","lat":"31.17331","category":"86","category_name":"火锅店","address":"徐汇区田林东路360弄1号(钦州路口)"},{"poiid":"B2094752D669A0FA499D","title":"3Quarks真密室","lon":"121.430414","lat":"31.170023","category":"248","category_name":"生活娱乐","address":"上海市钦州路518号"},{"poiid":"B2094655D269AAFC439A","title":"华夏宾馆","lon":"121.42989","lat":"31.1678","category":"217","category_name":"旅馆招待所","address":"徐汇区漕宝路38号华夏宾馆2楼(近钦州路)"},{"poiid":"B2094757D16CA5F54393","title":"光大展览中心","lon":"121.427751596","lat":"31.1679425186","category":"500","category_name":"未知分类","address":"上海漕宝路"},{"poiid":"B2094654D564A0FA479D","title":"上海光大会展中心E座","lon":"121.42825","lat":"31.16678","category":"46","category_name":"楼宇","address":"漕宝路82"},{"poiid":"B2094757D06BA6FD4792","title":"五木铁板烧(漕宝路店)","lon":"121.43019458","lat":"31.168261219","category":"269","category_name":"烧烤","address":"徐汇区漕宝路38号华夏宾馆1楼(近钦州路)"},{"poiid":"B2094757D06FA5F84392","title":"田林十二村","lon":"121.43008","lat":"31.172791","category":"47","category_name":"住宅区","address":"上海田林东路钦州路"},{"poiid":"B2094757D069A4F44692","title":"肯德基(光大店)","lon":"121.42786858","lat":"31.167846211","category":"68","category_name":"快餐厅","address":"徐汇区漕宝路78号光大会展中心东馆1楼"},{"poiid":"B2094654DB69A5FF4298","title":"莫泰168连锁旅店(柳州路店)","lon":"121.42504","lat":"31.16913","category":"216","category_name":"经济型连锁酒店","address":"徐汇区柳州路427号(田林东路田林路)"},{"poiid":"B209475DDA64A7FE489A","title":"Caffe Bene","lon":"121.428146","lat":"31.169977","category":"247","category_name":"餐饮美食","address":"上海市 田林路1号"},{"poiid":"B2094757D068ABFF459A","title":"上师大第一教学楼","lon":"121.428322211","lat":"31.1671282608","category":"253","category_name":"校园生活","address":"上海徐汇区桂林路100号西部"},{"poiid":"B2094757D069A1F94093","title":"港饮港食 光大店","lon":"121.42796","lat":"31.16538","category":"72","category_name":"广东菜","address":"徐汇区漕宝路80号光大会展中心D座1楼(习勤路口)"},{"poiid":"B2094753D56EA4FA429E","title":"上海市八万人体育场","lon":"121.428375","lat":"31.172063","category":"500","category_name":"未知分类","address":"上海市 中山南二路 天钥桥路"},{"poiid":"B2094757D06BA1F94599","title":"金水保健养身会馆（田林店）","lon":"121.42840576","lat":"31.170286178","category":"148","category_name":"美容美发店","address":"上海田林路588号"},{"poiid":"B2094757D064A2FF4899","title":"上海市环境科学研究院","lon":"121.43038177","lat":"31.169113159","category":"500","category_name":"未知分类","address":"上海徐汇区钦州路508号"},{"poiid":"B2094654D564A0FB489A","title":"九彩天大酒楼","lon":"121.43016","lat":"31.16786","category":"76","category_name":"上海菜","address":"徐汇区漕宝路38号华夏宾馆2楼(漕溪路口)"},{"poiid":"B2094757D068ABFC499A","title":"四海游龙 田林店 OVERSEAS DRAGON","lon":"121.425933054","lat":"31.172575793","category":"68","category_name":"快餐厅","address":"徐汇区田林东路456号(柳州路钦州路间)"},{"poiid":"B2094757D069AAFC4599","title":"四海游龙 光大店","lon":"121.427963","lat":"31.166368","category":"68","category_name":"快餐厅","address":"徐汇区漕宝路78号光大会展中心东馆1楼"},{"poiid":"B2094654D564A0FA4792","title":"上海光大会展中心C座","lon":"121.42852","lat":"31.16772","category":"46","category_name":"楼宇","address":"漕宝路70"},{"poiid":"B2094654D564A7FF4892","title":"丰收日后花园","lon":"121.42595","lat":"31.16927","category":"257","category_name":"中餐厅","address":"上海漕宝路103号"},{"poiid":"B2094654DB64A6FC479B","title":"上岛咖啡(漕宝路店)","lon":"121.42904","lat":"31.16842","category":"65","category_name":"咖啡厅","address":"徐汇区漕宝路67号(近习勤路)"},{"poiid":"B2094655D26AA3F94098","title":"九州拉面漕宝路店","lon":"121.42621","lat":"31.16797","category":"95","category_name":"日本料理","address":"徐汇区漕宝路103号(光大会展中心西馆对面)"},{"poiid":"B2094750D26EA7FB489B","title":"玉山台湾料理","lon":"121.430468","lat":"31.168571","category":"91","category_name":"台湾菜","address":"徐汇区漕宝路43号(近钦州路)"},{"poiid":"B2094655D26AA2F5479F","title":"光大会展","lon":"121.42893","lat":"31.16707","category":"247","category_name":"餐饮美食","address":"徐汇区漕宝路78号(近习勤路)"},{"poiid":"B2094654D564A0F94799","title":"上海光大会展中心D座","lon":"121.42827","lat":"31.16742","category":"46","category_name":"楼宇","address":"漕宝路80"},{"poiid":"B2094757D569A7FE4998","title":"上海光大会展中心东馆(北门)","lon":"121.42962212","lat":"31.16755859","category":"48","category_name":"楼宇大门","address":"漕宝路78号"},{"poiid":"B2094757D06BA4FE429B","title":"口吅品牛肉面馆 漕宝路店","lon":"121.430776054","lat":"31.168222793","category":"68","category_name":"快餐厅","address":"徐汇区漕宝路43号(近钦州路)"},{"poiid":"B2094654D564A0FA4899","title":"上海光大会展中心F座","lon":"121.42871","lat":"31.16653","category":"46","category_name":"楼宇","address":"漕宝路86"},{"poiid":"B2094757DB6EA6FE4992","title":"上海云悦华尔兹精品酒店","lon":"121.4272606","lat":"31.16814138","category":"214","category_name":"四星级宾馆","address":"上海市徐汇区漕宝路93号(近习勤路)"},{"poiid":"B2094654D564A7FE4293","title":"喜士多便利(漕宝路)","lon":"121.42851","lat":"31.16835","category":"117","category_name":"便民商店/便利店","address":"徐汇区漕宝路75号(漕宝路习勤路)"},{"poiid":"B2094757D16AA0FA4799","title":"沪江宾馆","lon":"121.430404","lat":"31.170248","category":"217","category_name":"旅馆招待所","address":"徐汇区钦州路518号(近漕宝路)"},{"poiid":"B2094757D069A7F5449C","title":"豫申园城隍庙小吃世界 田林店","lon":"121.42736","lat":"31.17301","category":"68","category_name":"快餐厅","address":"徐汇区田林东路407号"},{"poiid":"B2094654D564A7FE439A","title":"克丽缇娜(漕宝路)","lon":"121.42858","lat":"31.16836","category":"148","category_name":"美容美发店","address":"漕宝路73号"},{"poiid":"B2094655D26AA5FE429C","title":"工艺品研究所","lon":"121.43015","lat":"31.17057","category":"247","category_name":"餐饮美食","address":"徐汇区钦州路528号2楼(近漕宝路)"},{"poiid":"B2094654DB6BA7FB469B","title":"上海市徐汇区田林第三小学","lon":"121.42753","lat":"31.17086","category":"56","category_name":"小学","address":"徐汇区田林东路田林十一村59号"},{"poiid":"B2094757D06BABF4449A","title":"味思康麻辣烫","lon":"121.42691803","lat":"31.1691589355","category":"247","category_name":"餐饮美食","address":"上海田林路64号"},{"poiid":"B2094750DA6CA5FB439B","title":"辛格小镇咖啡","lon":"121.427803","lat":"31.167888","category":"247","category_name":"餐饮美食","address":"漕宝路89号习勤路口(丰收日隔壁)"},{"poiid":"B2094757D064AAF5499B","title":"上海美术设计有限公司","lon":"121.43108552","lat":"31.171121715","category":"46","category_name":"楼宇","address":"上海漕溪路258弄23号"},{"poiid":"B2094757D164A4F44699","title":"钦州路","lon":"121.431144286","lat":"31.1696870476","category":"500","category_name":"未知分类","address":"上海钦州路"},{"poiid":"B2094654D564A7FE4498","title":"美皓口腔门诊","lon":"121.42985","lat":"31.16846","category":"162","category_name":"医院","address":"徐汇区漕宝路51号2楼"},{"poiid":"B2094757D164A2F54098","title":"徐汇区","lon":"121.42834458","lat":"31.166519185","category":"500","category_name":"未知分类","address":"上海幸福的窝窝"},{"poiid":"B2094751D36EA5FA429D","title":"老北桥过桥米线(漕宝路店)","lon":"121.42795","lat":"31.16712","category":"68","category_name":"快餐厅","address":"徐汇区漕宝路76号光大会展旁(近习勤路)"}]