[{"poiid":"B2094655D26CA1F9409F","title":"中环一号","lon":"121.4044","lat":"31.292637","category":"47","category_name":"住宅区","address":"上海市宝山区真北路4333弄"},{"poiid":"B2094757D06BABFF439A","title":"中环高架","lon":"121.41024595","lat":"31.2877423989","category":"500","category_name":"未知分类","address":"上海市"},{"poiid":"B2094757D06FA4FD4092","title":"康泰新城","lon":"121.404544","lat":"31.2801","category":"47","category_name":"住宅区","address":"上海华灵西路1885弄37号702"},{"poiid":"B2094757D06FABFB499E","title":"新沈家门海鲜城","lon":"121.40661","lat":"31.28291","category":"260","category_name":"其他","address":"宝山区真金路1037号(行知路口)"},{"poiid":"B2094757D06FA7FB429C","title":"莲花公寓","lon":"121.403","lat":"31.284836","category":"47","category_name":"住宅区","address":"上海真北路3725弄"},{"poiid":"B2094757D06FABFE469C","title":"祥和星宇花园","lon":"121.39809388","lat":"31.2802769342","category":"47","category_name":"住宅区","address":"上海市闸北区康宁路616弄"},{"poiid":"B2094654D464ABF5469E","title":"大华颐和华城","lon":"121.40810255711","lat":"31.28056803787","category":"47","category_name":"住宅区","address":"武威东路478弄1-31号"},{"poiid":"B2094757D069A3F44392","title":"上大附中实验学校","lon":"121.40757133","lat":"31.282254849","category":"55","category_name":"中学","address":"上海市宝山区真金路1100号"},{"poiid":"B2094757D064A6F5489F","title":"恒盛鼎城华公馆","lon":"121.39661883554","lat":"31.283067185","category":"500","category_name":"未知分类","address":"普陀区武威东路788弄(近桃浦西路)"},{"poiid":"B2094655D26AAAFB469F","title":"上味馆南翔小笼 真金路店","lon":"121.40611","lat":"31.28371","category":"257","category_name":"中餐厅","address":"宝山区真金路1041号(行知路口)"},{"poiid":"B2094654D465A2FE4793","title":"玉华苑","lon":"121.40977","lat":"31.285168","category":"47","category_name":"住宅区","address":"上海市宝山区真华路518号"},{"poiid":"B2094757D065A0FD439E","title":"金鑫花园","lon":"121.40401","lat":"31.278749","category":"47","category_name":"住宅区","address":"上海华灵路1900弄"},{"poiid":"B2094655D36CA6FC449B","title":"古浪路真北路","lon":"121.39992","lat":"31.28123","category":"38","category_name":"公交车站","address":""},{"poiid":"B2094654D465A2F84893","title":"复地太阳城","lon":"121.39957","lat":"31.28284","category":"47","category_name":"住宅区","address":"上海市普陀区古浪路108弄"},{"poiid":"B2094655D36DA0FE489F","title":"行知路真金路","lon":"121.40724","lat":"31.28341","category":"38","category_name":"公交车站","address":""},{"poiid":"B2094757D664AAF9489B","title":"振鑫鱼林港火锅","lon":"121.40655754517","lat":"31.283745289667","category":"86","category_name":"火锅店","address":"宝山区行知路729号(近真金路)"},{"poiid":"B2094655D26DA4F44393","title":"梧桐城邦二期","lon":"121.40918","lat":"31.28916","category":"47","category_name":"住宅区","address":"真华路1801弄"},{"poiid":"B2094654DB6AABF9469B","title":"卡乐迪量贩式KTV大华店","lon":"121.40877","lat":"31.28326","category":"170","category_name":"KTV","address":"宝山区行知路677号4楼(近真金路)"},{"poiid":"B2094757D66AA4F5449C","title":"湘府酒楼 真金路店","lon":"121.406329054","lat":"31.282464793","category":"77","category_name":"湖南菜","address":"宝山区真金路1114号(近行知路)"},{"poiid":"B2094757D66AABFC4093","title":"东北大菜馆","lon":"121.40673","lat":"31.28278","category":"82","category_name":"东北菜","address":"宝山区真金路1108号翠林大酒店(近行知路)"},{"poiid":"B2094750DA65A6FF409A","title":"中环一号二期（琉尊尚品）","lon":"121.4029","lat":"31.288911","category":"47","category_name":"住宅区","address":"宝山区真大路333弄"},{"poiid":"B2094757D568AAFA4892","title":"康泰新城十一、十二期","lon":"121.4038389","lat":"31.28334","category":"47","category_name":"住宅区","address":"上海市宝山区华灵西路1888号"},{"poiid":"B2094655D26DA4FB479D","title":"康泰新城(东一门)","lon":"121.40541","lat":"31.28336","category":"656","category_name":"大门","address":"真金路1039弄"},{"poiid":"B2094757D465A1FA4493","title":"真金路烧烤摊","lon":"121.406061054","lat":"31.283392793","category":"68","category_name":"快餐厅","address":"宝山区真金路1039弄康泰新城门口(近行知路)"},{"poiid":"B2094655D26CA1F9409D","title":"中环一号(南门)","lon":"121.40506","lat":"31.2913","category":"656","category_name":"大门","address":""},{"poiid":"B2094654D465A2FE4398","title":"永琪美容美发(真金路)","lon":"121.40627","lat":"31.28369","category":"148","category_name":"美容美发店","address":"宝山区真金路1041号(近行知路)"},{"poiid":"B2094757D169A5F9439C","title":"真北路汶水路","lon":"121.40260495","lat":"31.2840943292","category":"500","category_name":"未知分类","address":"上海市普陀区真北路"},{"poiid":"B2094757D16AA5F94693","title":"中环名品公馆","lon":"121.39634084","lat":"31.281997811","category":"500","category_name":"未知分类","address":"上海市古浪路真大路"},{"poiid":"B2094654D465A2FE429F","title":"行知实验幼儿园","lon":"121.40503","lat":"31.28198","category":"57","category_name":"幼儿园","address":"宝山区真金路1039弄41号(行知路口)"},{"poiid":"B2094757D569A7F8429C","title":"祥和星宇花园一期","lon":"121.399085","lat":"31.281255","category":"47","category_name":"住宅区","address":"上海市普陀区古浪路55号"},{"poiid":"B2094757D165A0FF409A","title":"晋元高级中学附属学校(分部)","lon":"121.39993905","lat":"31.2790335325","category":"500","category_name":"未知分类","address":"上海武威东路570号"},{"poiid":"B2094654D465A2F8479F","title":"真北蔬菜批发市场6号门","lon":"121.40216","lat":"31.28668","category":"117","category_name":"便民商店/便利店","address":""},{"poiid":"B2094757D568A4F4429D","title":"复地美墅","lon":"121.40052","lat":"31.28134111","category":"47","category_name":"住宅区","address":"复地美墅位于普陀古浪路8号真北路口"},{"poiid":"B2094750D768A6FB4093","title":"老北京热气羊肉","lon":"121.407","lat":"31.2843","category":"86","category_name":"火锅店","address":"宝山区真金路(行知路真金路)"},{"poiid":"B2094655D26CA7FD489B","title":"快客No.6211","lon":"121.40459","lat":"31.28345","category":"117","category_name":"便民商店/便利店","address":"真金路1039弄49号101室"},{"poiid":"B2094757D76CA0FE469F","title":"隆鑫东北风味餐馆","lon":"121.4067","lat":"31.28264","category":"82","category_name":"东北菜","address":"宝山区真金路1114号(近行知路)"},{"poiid":"B2094654D465A2F9419B","title":"好旺苑","lon":"121.40763","lat":"31.284176","category":"47","category_name":"住宅区","address":"上海市宝山区行知路382弄"},{"poiid":"B2094654D465A2FF4092","title":"康泰新城(南门)","lon":"121.40454","lat":"31.28009","category":"656","category_name":"大门","address":"华灵路1895弄、1885弄"},{"poiid":"B2094757D16AA0FF4592","title":"上海养和酒店","lon":"121.40588295","lat":"31.2835803194","category":"247","category_name":"餐饮美食","address":"上海闸北区高平路333号3-5F"},{"poiid":"B2094654D465A2F8459B","title":"上海真北副食品批发中心","lon":"121.40358","lat":"31.28633","category":"117","category_name":"便民商店/便利店","address":""},{"poiid":"B2094757D06BA7F44698","title":"同茂兴面馆(真金路店)","lon":"121.40697","lat":"31.28241","category":"68","category_name":"快餐厅","address":"宝山区真金路1116号(近行知路)"},{"poiid":"B2094654D465A2FE439B","title":"南翔小笼康泰店","lon":"121.40602","lat":"31.28356","category":"257","category_name":"中餐厅","address":""},{"poiid":"B2094654D465A2F8419B","title":"申泉花苑","lon":"121.41045","lat":"31.286463","category":"47","category_name":"住宅区","address":"上海市黄浦区河南南路260号(近大境路)"},{"poiid":"B2094757D66EA3F4469D","title":"上海市北大众维修站","lon":"121.403631","lat":"31.285335","category":"500","category_name":"未知分类","address":"上海汶水路"},{"poiid":"B2094757D064A5F84999","title":"上大附中实验学校羽毛球馆","lon":"121.40677","lat":"31.28195","category":"253","category_name":"校园生活","address":"宝山区真金路1100号(近行知路)"},{"poiid":"B2094757D06BA7F54793","title":"真北路菜场","lon":"121.403552","lat":"31.284949","category":"260","category_name":"其他","address":"上海真北路汶水路"},{"poiid":"B2094757D16CA0F4489C","title":"莲花公寓768终点站","lon":"121.40446835","lat":"31.28413583","category":"500","category_name":"未知分类","address":"上海真北路3725弄莲花公寓门口"},{"poiid":"B2094655D36DA0FE4899","title":"行知路大华新村","lon":"121.40675","lat":"31.28342","category":"38","category_name":"公交车站","address":""},{"poiid":"B2094757D66DA0FB4998","title":"吉的堡少儿英语-大华教学","lon":"121.40511095","lat":"31.283808323","category":"253","category_name":"校园生活","address":"上海市宝山区真金路"},{"poiid":"B2094655D26DABF8499B","title":"玉华苑(南二门)","lon":"121.40885","lat":"31.28367","category":"656","category_name":"大门","address":"行知路684弄"},{"poiid":"B2094655D26CA1F9409F","title":"中环一号","lon":"121.4044","lat":"31.292637","category":"47","category_name":"住宅区","address":"上海市宝山区真北路4333弄"},{"poiid":"B2094757D06BABFF439A","title":"中环高架","lon":"121.41024595","lat":"31.2877423989","category":"500","category_name":"未知分类","address":"上海市"},{"poiid":"B2094757D06FA4FD4092","title":"康泰新城","lon":"121.404544","lat":"31.2801","category":"47","category_name":"住宅区","address":"上海华灵西路1885弄37号702"},{"poiid":"B2094757D06FABFB499E","title":"新沈家门海鲜城","lon":"121.40661","lat":"31.28291","category":"260","category_name":"其他","address":"宝山区真金路1037号(行知路口)"},{"poiid":"B2094757D06FA7FB429C","title":"莲花公寓","lon":"121.403","lat":"31.284836","category":"47","category_name":"住宅区","address":"上海真北路3725弄"},{"poiid":"B2094757D06FABFE469C","title":"祥和星宇花园","lon":"121.39809388","lat":"31.2802769342","category":"47","category_name":"住宅区","address":"上海市闸北区康宁路616弄"},{"poiid":"B2094654D464ABF5469E","title":"大华颐和华城","lon":"121.40810255711","lat":"31.28056803787","category":"47","category_name":"住宅区","address":"武威东路478弄1-31号"},{"poiid":"B2094757D069A3F44392","title":"上大附中实验学校","lon":"121.40757133","lat":"31.282254849","category":"55","category_name":"中学","address":"上海市宝山区真金路1100号"},{"poiid":"B2094757D064A6F5489F","title":"恒盛鼎城华公馆","lon":"121.39661883554","lat":"31.283067185","category":"500","category_name":"未知分类","address":"普陀区武威东路788弄(近桃浦西路)"},{"poiid":"B2094655D26AAAFB469F","title":"上味馆南翔小笼 真金路店","lon":"121.40611","lat":"31.28371","category":"257","category_name":"中餐厅","address":"宝山区真金路1041号(行知路口)"},{"poiid":"B2094654D465A2FE4793","title":"玉华苑","lon":"121.40977","lat":"31.285168","category":"47","category_name":"住宅区","address":"上海市宝山区真华路518号"},{"poiid":"B2094757D065A0FD439E","title":"金鑫花园","lon":"121.40401","lat":"31.278749","category":"47","category_name":"住宅区","address":"上海华灵路1900弄"},{"poiid":"B2094655D36CA6FC449B","title":"古浪路真北路","lon":"121.39992","lat":"31.28123","category":"38","category_name":"公交车站","address":""},{"poiid":"B2094654D465A2F84893","title":"复地太阳城","lon":"121.39957","lat":"31.28284","category":"47","category_name":"住宅区","address":"上海市普陀区古浪路108弄"},{"poiid":"B2094655D36DA0FE489F","title":"行知路真金路","lon":"121.40724","lat":"31.28341","category":"38","category_name":"公交车站","address":""},{"poiid":"B2094757D664AAF9489B","title":"振鑫鱼林港火锅","lon":"121.40655754517","lat":"31.283745289667","category":"86","category_name":"火锅店","address":"宝山区行知路729号(近真金路)"},{"poiid":"B2094655D26DA4F44393","title":"梧桐城邦二期","lon":"121.40918","lat":"31.28916","category":"47","category_name":"住宅区","address":"真华路1801弄"},{"poiid":"B2094654DB6AABF9469B","title":"卡乐迪量贩式KTV大华店","lon":"121.40877","lat":"31.28326","category":"170","category_name":"KTV","address":"宝山区行知路677号4楼(近真金路)"},{"poiid":"B2094757D66AA4F5449C","title":"湘府酒楼 真金路店","lon":"121.406329054","lat":"31.282464793","category":"77","category_name":"湖南菜","address":"宝山区真金路1114号(近行知路)"},{"poiid":"B2094757D66AABFC4093","title":"东北大菜馆","lon":"121.40673","lat":"31.28278","category":"82","category_name":"东北菜","address":"宝山区真金路1108号翠林大酒店(近行知路)"},{"poiid":"B2094750DA65A6FF409A","title":"中环一号二期（琉尊尚品）","lon":"121.4029","lat":"31.288911","category":"47","category_name":"住宅区","address":"宝山区真大路333弄"},{"poiid":"B2094757D568AAFA4892","title":"康泰新城十一、十二期","lon":"121.4038389","lat":"31.28334","category":"47","category_name":"住宅区","address":"上海市宝山区华灵西路1888号"},{"poiid":"B2094655D26DA4FB479D","title":"康泰新城(东一门)","lon":"121.40541","lat":"31.28336","category":"656","category_name":"大门","address":"真金路1039弄"},{"poiid":"B2094757D465A1FA4493","title":"真金路烧烤摊","lon":"121.406061054","lat":"31.283392793","category":"68","category_name":"快餐厅","address":"宝山区真金路1039弄康泰新城门口(近行知路)"},{"poiid":"B2094655D26CA1F9409D","title":"中环一号(南门)","lon":"121.40506","lat":"31.2913","category":"656","category_name":"大门","address":""},{"poiid":"B2094654D465A2FE4398","title":"永琪美容美发(真金路)","lon":"121.40627","lat":"31.28369","category":"148","category_name":"美容美发店","address":"宝山区真金路1041号(近行知路)"},{"poiid":"B2094757D169A5F9439C","title":"真北路汶水路","lon":"121.40260495","lat":"31.2840943292","category":"500","category_name":"未知分类","address":"上海市普陀区真北路"},{"poiid":"B2094757D16AA5F94693","title":"中环名品公馆","lon":"121.39634084","lat":"31.281997811","category":"500","category_name":"未知分类","address":"上海市古浪路真大路"},{"poiid":"B2094654D465A2FE429F","title":"行知实验幼儿园","lon":"121.40503","lat":"31.28198","category":"57","category_name":"幼儿园","address":"宝山区真金路1039弄41号(行知路口)"},{"poiid":"B2094757D569A7F8429C","title":"祥和星宇花园一期","lon":"121.399085","lat":"31.281255","category":"47","category_name":"住宅区","address":"上海市普陀区古浪路55号"},{"poiid":"B2094757D165A0FF409A","title":"晋元高级中学附属学校(分部)","lon":"121.39993905","lat":"31.2790335325","category":"500","category_name":"未知分类","address":"上海武威东路570号"},{"poiid":"B2094654D465A2F8479F","title":"真北蔬菜批发市场6号门","lon":"121.40216","lat":"31.28668","category":"117","category_name":"便民商店/便利店","address":""},{"poiid":"B2094757D568A4F4429D","title":"复地美墅","lon":"121.40052","lat":"31.28134111","category":"47","category_name":"住宅区","address":"复地美墅位于普陀古浪路8号真北路口"},{"poiid":"B2094750D768A6FB4093","title":"老北京热气羊肉","lon":"121.407","lat":"31.2843","category":"86","category_name":"火锅店","address":"宝山区真金路(行知路真金路)"},{"poiid":"B2094655D26CA7FD489B","title":"快客No.6211","lon":"121.40459","lat":"31.28345","category":"117","category_name":"便民商店/便利店","address":"真金路1039弄49号101室"},{"poiid":"B2094757D76CA0FE469F","title":"隆鑫东北风味餐馆","lon":"121.4067","lat":"31.28264","category":"82","category_name":"东北菜","address":"宝山区真金路1114号(近行知路)"},{"poiid":"B2094654D465A2F9419B","title":"好旺苑","lon":"121.40763","lat":"31.284176","category":"47","category_name":"住宅区","address":"上海市宝山区行知路382弄"},{"poiid":"B2094654D465A2FF4092","title":"康泰新城(南门)","lon":"121.40454","lat":"31.28009","category":"656","category_name":"大门","address":"华灵路1895弄、1885弄"},{"poiid":"B2094757D16AA0FF4592","title":"上海养和酒店","lon":"121.40588295","lat":"31.2835803194","category":"247","category_name":"餐饮美食","address":"上海闸北区高平路333号3-5F"},{"poiid":"B2094654D465A2F8459B","title":"上海真北副食品批发中心","lon":"121.40358","lat":"31.28633","category":"117","category_name":"便民商店/便利店","address":""},{"poiid":"B2094757D06BA7F44698","title":"同茂兴面馆(真金路店)","lon":"121.40697","lat":"31.28241","category":"68","category_name":"快餐厅","address":"宝山区真金路1116号(近行知路)"},{"poiid":"B2094654D465A2FE439B","title":"南翔小笼康泰店","lon":"121.40602","lat":"31.28356","category":"257","category_name":"中餐厅","address":""},{"poiid":"B2094654D465A2F8419B","title":"申泉花苑","lon":"121.41045","lat":"31.286463","category":"47","category_name":"住宅区","address":"上海市黄浦区河南南路260号(近大境路)"},{"poiid":"B2094757D66EA3F4469D","title":"上海市北大众维修站","lon":"121.403631","lat":"31.285335","category":"500","category_name":"未知分类","address":"上海汶水路"},{"poiid":"B2094757D064A5F84999","title":"上大附中实验学校羽毛球馆","lon":"121.40677","lat":"31.28195","category":"253","category_name":"校园生活","address":"宝山区真金路1100号(近行知路)"},{"poiid":"B2094757D06BA7F54793","title":"真北路菜场","lon":"121.403552","lat":"31.284949","category":"260","category_name":"其他","address":"上海真北路汶水路"},{"poiid":"B2094757D16CA0F4489C","title":"莲花公寓768终点站","lon":"121.40446835","lat":"31.28413583","category":"500","category_name":"未知分类","address":"上海真北路3725弄莲花公寓门口"},{"poiid":"B2094655D36DA0FE4899","title":"行知路大华新村","lon":"121.40675","lat":"31.28342","category":"38","category_name":"公交车站","address":""},{"poiid":"B2094757D66DA0FB4998","title":"吉的堡少儿英语-大华教学","lon":"121.40511095","lat":"31.283808323","category":"253","category_name":"校园生活","address":"上海市宝山区真金路"},{"poiid":"B2094655D26DABF8499B","title":"玉华苑(南二门)","lon":"121.40885","lat":"31.28367","category":"656","category_name":"大门","address":"行知路684弄"},{"poiid":"B2094655D26CA1F9409F","title":"中环一号","lon":"121.4044","lat":"31.292637","category":"47","category_name":"住宅区","address":"上海市宝山区真北路4333弄"},{"poiid":"B2094757D06BABFF439A","title":"中环高架","lon":"121.41024595","lat":"31.2877423989","category":"500","category_name":"未知分类","address":"上海市"},{"poiid":"B2094757D06FA4FD4092","title":"康泰新城","lon":"121.404544","lat":"31.2801","category":"47","category_name":"住宅区","address":"上海华灵西路1885弄37号702"},{"poiid":"B2094757D06FABFB499E","title":"新沈家门海鲜城","lon":"121.40661","lat":"31.28291","category":"260","category_name":"其他","address":"宝山区真金路1037号(行知路口)"},{"poiid":"B2094757D06FA7FB429C","title":"莲花公寓","lon":"121.403","lat":"31.284836","category":"47","category_name":"住宅区","address":"上海真北路3725弄"},{"poiid":"B2094757D06FABFE469C","title":"祥和星宇花园","lon":"121.39809388","lat":"31.2802769342","category":"47","category_name":"住宅区","address":"上海市闸北区康宁路616弄"},{"poiid":"B2094654D464ABF5469E","title":"大华颐和华城","lon":"121.40810255711","lat":"31.28056803787","category":"47","category_name":"住宅区","address":"武威东路478弄1-31号"},{"poiid":"B2094757D069A3F44392","title":"上大附中实验学校","lon":"121.40757133","lat":"31.282254849","category":"55","category_name":"中学","address":"上海市宝山区真金路1100号"},{"poiid":"B2094757D064A6F5489F","title":"恒盛鼎城华公馆","lon":"121.39661883554","lat":"31.283067185","category":"500","category_name":"未知分类","address":"普陀区武威东路788弄(近桃浦西路)"},{"poiid":"B2094655D26AAAFB469F","title":"上味馆南翔小笼 真金路店","lon":"121.40611","lat":"31.28371","category":"257","category_name":"中餐厅","address":"宝山区真金路1041号(行知路口)"},{"poiid":"B2094654D465A2FE4793","title":"玉华苑","lon":"121.40977","lat":"31.285168","category":"47","category_name":"住宅区","address":"上海市宝山区真华路518号"},{"poiid":"B2094757D065A0FD439E","title":"金鑫花园","lon":"121.40401","lat":"31.278749","category":"47","category_name":"住宅区","address":"上海华灵路1900弄"},{"poiid":"B2094655D36CA6FC449B","title":"古浪路真北路","lon":"121.39992","lat":"31.28123","category":"38","category_name":"公交车站","address":""},{"poiid":"B2094654D465A2F84893","title":"复地太阳城","lon":"121.39957","lat":"31.28284","category":"47","category_name":"住宅区","address":"上海市普陀区古浪路108弄"},{"poiid":"B2094655D36DA0FE489F","title":"行知路真金路","lon":"121.40724","lat":"31.28341","category":"38","category_name":"公交车站","address":""},{"poiid":"B2094757D664AAF9489B","title":"振鑫鱼林港火锅","lon":"121.40655754517","lat":"31.283745289667","category":"86","category_name":"火锅店","address":"宝山区行知路729号(近真金路)"},{"poiid":"B2094655D26DA4F44393","title":"梧桐城邦二期","lon":"121.40918","lat":"31.28916","category":"47","category_name":"住宅区","address":"真华路1801弄"},{"poiid":"B2094654DB6AABF9469B","title":"卡乐迪量贩式KTV大华店","lon":"121.40877","lat":"31.28326","category":"170","category_name":"KTV","address":"宝山区行知路677号4楼(近真金路)"},{"poiid":"B2094757D66AA4F5449C","title":"湘府酒楼 真金路店","lon":"121.406329054","lat":"31.282464793","category":"77","category_name":"湖南菜","address":"宝山区真金路1114号(近行知路)"},{"poiid":"B2094757D66AABFC4093","title":"东北大菜馆","lon":"121.40673","lat":"31.28278","category":"82","category_name":"东北菜","address":"宝山区真金路1108号翠林大酒店(近行知路)"},{"poiid":"B2094750DA65A6FF409A","title":"中环一号二期（琉尊尚品）","lon":"121.4029","lat":"31.288911","category":"47","category_name":"住宅区","address":"宝山区真大路333弄"},{"poiid":"B2094757D568AAFA4892","title":"康泰新城十一、十二期","lon":"121.4038389","lat":"31.28334","category":"47","category_name":"住宅区","address":"上海市宝山区华灵西路1888号"},{"poiid":"B2094655D26DA4FB479D","title":"康泰新城(东一门)","lon":"121.40541","lat":"31.28336","category":"656","category_name":"大门","address":"真金路1039弄"},{"poiid":"B2094757D465A1FA4493","title":"真金路烧烤摊","lon":"121.406061054","lat":"31.283392793","category":"68","category_name":"快餐厅","address":"宝山区真金路1039弄康泰新城门口(近行知路)"},{"poiid":"B2094655D26CA1F9409D","title":"中环一号(南门)","lon":"121.40506","lat":"31.2913","category":"656","category_name":"大门","address":""},{"poiid":"B2094654D465A2FE4398","title":"永琪美容美发(真金路)","lon":"121.40627","lat":"31.28369","category":"148","category_name":"美容美发店","address":"宝山区真金路1041号(近行知路)"},{"poiid":"B2094757D169A5F9439C","title":"真北路汶水路","lon":"121.40260495","lat":"31.2840943292","category":"500","category_name":"未知分类","address":"上海市普陀区真北路"},{"poiid":"B2094757D16AA5F94693","title":"中环名品公馆","lon":"121.39634084","lat":"31.281997811","category":"500","category_name":"未知分类","address":"上海市古浪路真大路"},{"poiid":"B2094654D465A2FE429F","title":"行知实验幼儿园","lon":"121.40503","lat":"31.28198","category":"57","category_name":"幼儿园","address":"宝山区真金路1039弄41号(行知路口)"},{"poiid":"B2094757D569A7F8429C","title":"祥和星宇花园一期","lon":"121.399085","lat":"31.281255","category":"47","category_name":"住宅区","address":"上海市普陀区古浪路55号"},{"poiid":"B2094757D165A0FF409A","title":"晋元高级中学附属学校(分部)","lon":"121.39993905","lat":"31.2790335325","category":"500","category_name":"未知分类","address":"上海武威东路570号"},{"poiid":"B2094654D465A2F8479F","title":"真北蔬菜批发市场6号门","lon":"121.40216","lat":"31.28668","category":"117","category_name":"便民商店/便利店","address":""},{"poiid":"B2094757D568A4F4429D","title":"复地美墅","lon":"121.40052","lat":"31.28134111","category":"47","category_name":"住宅区","address":"复地美墅位于普陀古浪路8号真北路口"},{"poiid":"B2094750D768A6FB4093","title":"老北京热气羊肉","lon":"121.407","lat":"31.2843","category":"86","category_name":"火锅店","address":"宝山区真金路(行知路真金路)"},{"poiid":"B2094655D26CA7FD489B","title":"快客No.6211","lon":"121.40459","lat":"31.28345","category":"117","category_name":"便民商店/便利店","address":"真金路1039弄49号101室"},{"poiid":"B2094757D76CA0FE469F","title":"隆鑫东北风味餐馆","lon":"121.4067","lat":"31.28264","category":"82","category_name":"东北菜","address":"宝山区真金路1114号(近行知路)"},{"poiid":"B2094654D465A2F9419B","title":"好旺苑","lon":"121.40763","lat":"31.284176","category":"47","category_name":"住宅区","address":"上海市宝山区行知路382弄"},{"poiid":"B2094654D465A2FF4092","title":"康泰新城(南门)","lon":"121.40454","lat":"31.28009","category":"656","category_name":"大门","address":"华灵路1895弄、1885弄"},{"poiid":"B2094757D16AA0FF4592","title":"上海养和酒店","lon":"121.40588295","lat":"31.2835803194","category":"247","category_name":"餐饮美食","address":"上海闸北区高平路333号3-5F"},{"poiid":"B2094654D465A2F8459B","title":"上海真北副食品批发中心","lon":"121.40358","lat":"31.28633","category":"117","category_name":"便民商店/便利店","address":""},{"poiid":"B2094757D06BA7F44698","title":"同茂兴面馆(真金路店)","lon":"121.40697","lat":"31.28241","category":"68","category_name":"快餐厅","address":"宝山区真金路1116号(近行知路)"},{"poiid":"B2094654D465A2FE439B","title":"南翔小笼康泰店","lon":"121.40602","lat":"31.28356","category":"257","category_name":"中餐厅","address":""},{"poiid":"B2094654D465A2F8419B","title":"申泉花苑","lon":"121.41045","lat":"31.286463","category":"47","category_name":"住宅区","address":"上海市黄浦区河南南路260号(近大境路)"},{"poiid":"B2094757D66EA3F4469D","title":"上海市北大众维修站","lon":"121.403631","lat":"31.285335","category":"500","category_name":"未知分类","address":"上海汶水路"},{"poiid":"B2094757D064A5F84999","title":"上大附中实验学校羽毛球馆","lon":"121.40677","lat":"31.28195","category":"253","category_name":"校园生活","address":"宝山区真金路1100号(近行知路)"},{"poiid":"B2094757D06BA7F54793","title":"真北路菜场","lon":"121.403552","lat":"31.284949","category":"260","category_name":"其他","address":"上海真北路汶水路"},{"poiid":"B2094757D16CA0F4489C","title":"莲花公寓768终点站","lon":"121.40446835","lat":"31.28413583","category":"500","category_name":"未知分类","address":"上海真北路3725弄莲花公寓门口"},{"poiid":"B2094655D36DA0FE4899","title":"行知路大华新村","lon":"121.40675","lat":"31.28342","category":"38","category_name":"公交车站","address":""},{"poiid":"B2094757D66DA0FB4998","title":"吉的堡少儿英语-大华教学","lon":"121.40511095","lat":"31.283808323","category":"253","category_name":"校园生活","address":"上海市宝山区真金路"},{"poiid":"B2094655D26DABF8499B","title":"玉华苑(南二门)","lon":"121.40885","lat":"31.28367","category":"656","category_name":"大门","address":"行知路684弄"},{"poiid":"B2094655D26CA1F9409F","title":"中环一号","lon":"121.4044","lat":"31.292637","category":"47","category_name":"住宅区","address":"上海市宝山区真北路4333弄"},{"poiid":"B2094757D06BABFF439A","title":"中环高架","lon":"121.41024595","lat":"31.2877423989","category":"500","category_name":"未知分类","address":"上海市"},{"poiid":"B2094757D06FA4FD4092","title":"康泰新城","lon":"121.404544","lat":"31.2801","category":"47","category_name":"住宅区","address":"上海华灵西路1885弄37号702"},{"poiid":"B2094757D06FABFB499E","title":"新沈家门海鲜城","lon":"121.40661","lat":"31.28291","category":"260","category_name":"其他","address":"宝山区真金路1037号(行知路口)"},{"poiid":"B2094757D06FA7FB429C","title":"莲花公寓","lon":"121.403","lat":"31.284836","category":"47","category_name":"住宅区","address":"上海真北路3725弄"},{"poiid":"B2094757D06FABFE469C","title":"祥和星宇花园","lon":"121.39809388","lat":"31.2802769342","category":"47","category_name":"住宅区","address":"上海市闸北区康宁路616弄"},{"poiid":"B2094654D464ABF5469E","title":"大华颐和华城","lon":"121.40810255711","lat":"31.28056803787","category":"47","category_name":"住宅区","address":"武威东路478弄1-31号"},{"poiid":"B2094757D069A3F44392","title":"上大附中实验学校","lon":"121.40757133","lat":"31.282254849","category":"55","category_name":"中学","address":"上海市宝山区真金路1100号"},{"poiid":"B2094757D064A6F5489F","title":"恒盛鼎城华公馆","lon":"121.39661883554","lat":"31.283067185","category":"500","category_name":"未知分类","address":"普陀区武威东路788弄(近桃浦西路)"},{"poiid":"B2094655D26AAAFB469F","title":"上味馆南翔小笼 真金路店","lon":"121.40611","lat":"31.28371","category":"257","category_name":"中餐厅","address":"宝山区真金路1041号(行知路口)"},{"poiid":"B2094654D465A2FE4793","title":"玉华苑","lon":"121.40977","lat":"31.285168","category":"47","category_name":"住宅区","address":"上海市宝山区真华路518号"},{"poiid":"B2094757D065A0FD439E","title":"金鑫花园","lon":"121.40401","lat":"31.278749","category":"47","category_name":"住宅区","address":"上海华灵路1900弄"},{"poiid":"B2094655D36CA6FC449B","title":"古浪路真北路","lon":"121.39992","lat":"31.28123","category":"38","category_name":"公交车站","address":""},{"poiid":"B2094654D465A2F84893","title":"复地太阳城","lon":"121.39957","lat":"31.28284","category":"47","category_name":"住宅区","address":"上海市普陀区古浪路108弄"},{"poiid":"B2094655D36DA0FE489F","title":"行知路真金路","lon":"121.40724","lat":"31.28341","category":"38","category_name":"公交车站","address":""},{"poiid":"B2094757D664AAF9489B","title":"振鑫鱼林港火锅","lon":"121.40655754517","lat":"31.283745289667","category":"86","category_name":"火锅店","address":"宝山区行知路729号(近真金路)"},{"poiid":"B2094655D26DA4F44393","title":"梧桐城邦二期","lon":"121.40918","lat":"31.28916","category":"47","category_name":"住宅区","address":"真华路1801弄"},{"poiid":"B2094654DB6AABF9469B","title":"卡乐迪量贩式KTV大华店","lon":"121.40877","lat":"31.28326","category":"170","category_name":"KTV","address":"宝山区行知路677号4楼(近真金路)"},{"poiid":"B2094757D66AA4F5449C","title":"湘府酒楼 真金路店","lon":"121.406329054","lat":"31.282464793","category":"77","category_name":"湖南菜","address":"宝山区真金路1114号(近行知路)"},{"poiid":"B2094757D66AABFC4093","title":"东北大菜馆","lon":"121.40673","lat":"31.28278","category":"82","category_name":"东北菜","address":"宝山区真金路1108号翠林大酒店(近行知路)"},{"poiid":"B2094750DA65A6FF409A","title":"中环一号二期（琉尊尚品）","lon":"121.4029","lat":"31.288911","category":"47","category_name":"住宅区","address":"宝山区真大路333弄"},{"poiid":"B2094757D568AAFA4892","title":"康泰新城十一、十二期","lon":"121.4038389","lat":"31.28334","category":"47","category_name":"住宅区","address":"上海市宝山区华灵西路1888号"},{"poiid":"B2094655D26DA4FB479D","title":"康泰新城(东一门)","lon":"121.40541","lat":"31.28336","category":"656","category_name":"大门","address":"真金路1039弄"},{"poiid":"B2094757D465A1FA4493","title":"真金路烧烤摊","lon":"121.406061054","lat":"31.283392793","category":"68","category_name":"快餐厅","address":"宝山区真金路1039弄康泰新城门口(近行知路)"},{"poiid":"B2094655D26CA1F9409D","title":"中环一号(南门)","lon":"121.40506","lat":"31.2913","category":"656","category_name":"大门","address":""},{"poiid":"B2094654D465A2FE4398","title":"永琪美容美发(真金路)","lon":"121.40627","lat":"31.28369","category":"148","category_name":"美容美发店","address":"宝山区真金路1041号(近行知路)"},{"poiid":"B2094757D169A5F9439C","title":"真北路汶水路","lon":"121.40260495","lat":"31.2840943292","category":"500","category_name":"未知分类","address":"上海市普陀区真北路"},{"poiid":"B2094757D16AA5F94693","title":"中环名品公馆","lon":"121.39634084","lat":"31.281997811","category":"500","category_name":"未知分类","address":"上海市古浪路真大路"},{"poiid":"B2094654D465A2FE429F","title":"行知实验幼儿园","lon":"121.40503","lat":"31.28198","category":"57","category_name":"幼儿园","address":"宝山区真金路1039弄41号(行知路口)"},{"poiid":"B2094757D569A7F8429C","title":"祥和星宇花园一期","lon":"121.399085","lat":"31.281255","category":"47","category_name":"住宅区","address":"上海市普陀区古浪路55号"},{"poiid":"B2094757D165A0FF409A","title":"晋元高级中学附属学校(分部)","lon":"121.39993905","lat":"31.2790335325","category":"500","category_name":"未知分类","address":"上海武威东路570号"},{"poiid":"B2094654D465A2F8479F","title":"真北蔬菜批发市场6号门","lon":"121.40216","lat":"31.28668","category":"117","category_name":"便民商店/便利店","address":""},{"poiid":"B2094757D568A4F4429D","title":"复地美墅","lon":"121.40052","lat":"31.28134111","category":"47","category_name":"住宅区","address":"复地美墅位于普陀古浪路8号真北路口"},{"poiid":"B2094750D768A6FB4093","title":"老北京热气羊肉","lon":"121.407","lat":"31.2843","category":"86","category_name":"火锅店","address":"宝山区真金路(行知路真金路)"},{"poiid":"B2094655D26CA7FD489B","title":"快客No.6211","lon":"121.40459","lat":"31.28345","category":"117","category_name":"便民商店/便利店","address":"真金路1039弄49号101室"},{"poiid":"B2094757D76CA0FE469F","title":"隆鑫东北风味餐馆","lon":"121.4067","lat":"31.28264","category":"82","category_name":"东北菜","address":"宝山区真金路1114号(近行知路)"},{"poiid":"B2094654D465A2F9419B","title":"好旺苑","lon":"121.40763","lat":"31.284176","category":"47","category_name":"住宅区","address":"上海市宝山区行知路382弄"},{"poiid":"B2094654D465A2FF4092","title":"康泰新城(南门)","lon":"121.40454","lat":"31.28009","category":"656","category_name":"大门","address":"华灵路1895弄、1885弄"},{"poiid":"B2094757D16AA0FF4592","title":"上海养和酒店","lon":"121.40588295","lat":"31.2835803194","category":"247","category_name":"餐饮美食","address":"上海闸北区高平路333号3-5F"},{"poiid":"B2094654D465A2F8459B","title":"上海真北副食品批发中心","lon":"121.40358","lat":"31.28633","category":"117","category_name":"便民商店/便利店","address":""},{"poiid":"B2094757D06BA7F44698","title":"同茂兴面馆(真金路店)","lon":"121.40697","lat":"31.28241","category":"68","category_name":"快餐厅","address":"宝山区真金路1116号(近行知路)"},{"poiid":"B2094654D465A2FE439B","title":"南翔小笼康泰店","lon":"121.40602","lat":"31.28356","category":"257","category_name":"中餐厅","address":""},{"poiid":"B2094654D465A2F8419B","title":"申泉花苑","lon":"121.41045","lat":"31.286463","category":"47","category_name":"住宅区","address":"上海市黄浦区河南南路260号(近大境路)"},{"poiid":"B2094757D66EA3F4469D","title":"上海市北大众维修站","lon":"121.403631","lat":"31.285335","category":"500","category_name":"未知分类","address":"上海汶水路"},{"poiid":"B2094757D064A5F84999","title":"上大附中实验学校羽毛球馆","lon":"121.40677","lat":"31.28195","category":"253","category_name":"校园生活","address":"宝山区真金路1100号(近行知路)"},{"poiid":"B2094757D06BA7F54793","title":"真北路菜场","lon":"121.403552","lat":"31.284949","category":"260","category_name":"其他","address":"上海真北路汶水路"},{"poiid":"B2094757D16CA0F4489C","title":"莲花公寓768终点站","lon":"121.40446835","lat":"31.28413583","category":"500","category_name":"未知分类","address":"上海真北路3725弄莲花公寓门口"},{"poiid":"B2094655D36DA0FE4899","title":"行知路大华新村","lon":"121.40675","lat":"31.28342","category":"38","category_name":"公交车站","address":""},{"poiid":"B2094757D66DA0FB4998","title":"吉的堡少儿英语-大华教学","lon":"121.40511095","lat":"31.283808323","category":"253","category_name":"校园生活","address":"上海市宝山区真金路"},{"poiid":"B2094655D26DABF8499B","title":"玉华苑(南二门)","lon":"121.40885","lat":"31.28367","category":"656","category_name":"大门","address":"行知路684弄"}]