[{"poiid":"B2094655D26BA0FD479D","title":"世博洲际酒店","lon":"121.50538","lat":"31.19933","category":"213","category_name":"五星级宾馆","address":"浦东新区雪野路1188号(近南码头路)"},{"poiid":"B2094757D06FA2FB459A","title":"艾福敦酒店 (Eiffelton Riverside Hotel Pudong Shanghai)","lon":"121.509251618","lat":"31.2056334725","category":"217","category_name":"旅馆招待所","address":"浦东新区浦明路1888号(近浦建路)"},{"poiid":"B2094655D264A7FA4899","title":"幸福码头","lon":"121.50506","lat":"31.21097","category":"47","category_name":"住宅区","address":"黄浦区中山南路1029号幸福码头5号楼(近多稼路)"},{"poiid":"B2094655D26AA1FA4998","title":"黄浦旅游集散站","lon":"121.50134","lat":"31.20778","category":"35","category_name":"长途汽车站","address":"黄浦区外马路1588号"},{"poiid":"B2094757D06FA0F8439A","title":"宝莱纳餐厅(世博店)","lon":"121.504113332","lat":"31.1982851473","category":"260","category_name":"其他","address":"浦东新区世博大道555号1-2楼(近雪野路)"},{"poiid":"B2094757D06FA7FD4298","title":"薇拉宫邸(浦东店)","lon":"121.50889556","lat":"31.207375193","category":"95","category_name":"日本料理","address":"上海浦明路1888号5号楼"},{"poiid":"B2094757D06FA1F94793","title":"南码头轮渡","lon":"121.50582772","lat":"31.202802396","category":"260","category_name":"其他","address":"上海浦东新区南码头路1号摆渡口"},{"poiid":"B2094655D26BA2F5449E","title":"浦东南路浦三路","lon":"121.5112","lat":"31.19872","category":"38","category_name":"公交车站","address":""},{"poiid":"B2094757D068A3FB4299","title":"苏先生海鲜渔庄 南浦店","lon":"121.5131","lat":"31.20325","category":"260","category_name":"其他","address":"浦东新区浦东南路2304号(近龙阳路)"},{"poiid":"B2094757D06FA4F4429B","title":"上海市第二人民医院","lon":"121.50425317","lat":"31.210314152","category":"162","category_name":"医院","address":"黄浦区多稼路1号(近中山南路)"},{"poiid":"B2094757D16CA2FD469D","title":"上海亚廷游艇会","lon":"121.505592","lat":"31.209361","category":"260","category_name":"其他","address":"黄浦区外马路1162号(近南浦大桥浦西桥墩)"},{"poiid":"B2094655D268A1FA459F","title":"东江高尔夫会所","lon":"121.51033","lat":"31.2083","category":"206","category_name":"高尔夫相关","address":"小南码头路5号"},{"poiid":"B2094750DB69A3FD4993","title":"镭战大联盟","lon":"121.501408","lat":"31.204725","category":"248","category_name":"生活娱乐","address":"黄浦区外马路1353号(近南浦大桥)"},{"poiid":"B2094757D068ABFD4298","title":"南浦广场公园","lon":"121.514124","lat":"31.204002","category":"196","category_name":"公园","address":"浦东新区浦东南路2277号(近龙阳路)"},{"poiid":"B2094757DB68A5FA409B","title":"罗曼园高级婚礼会馆 外滩雅致英伦馆","lon":"121.50477647781","lat":"31.210635939807","category":"247","category_name":"餐饮美食","address":"长宁区中山西路1011号(近虹桥路)查看地图"},{"poiid":"B2094654DA68A0FD469D","title":"帝龙海鲜舫","lon":"121.50427282682","lat":"31.206678575885","category":"76","category_name":"上海菜","address":"黄浦区外马路1333号(近南浦大桥)"},{"poiid":"B2094757DA6EABFB4999","title":"薇拉宫邸私人婚礼会所(南浦店)","lon":"121.509479","lat":"31.2066410000002","category":"248","category_name":"生活娱乐","address":"浦东新区浦明路1888号5号楼(近南浦大桥)查看地图"},{"poiid":"B2094757D069AAFD4699","title":"东江高尔夫","lon":"121.50941473","lat":"31.205573774","category":"500","category_name":"未知分类","address":"上海市南码头路5号"},{"poiid":"B2094757D16DA2F9429C","title":"优艾贝国际月子会所","lon":"121.511133338","lat":"31.2068565021","category":"248","category_name":"生活娱乐","address":"浦东新区浦明路1888号(近南浦大桥)"},{"poiid":"B2094757D569A3FA4198","title":"南码头","lon":"121.511367","lat":"31.205579","category":"201","category_name":"城市广场","address":"浦明路1888"},{"poiid":"B2094757D068ABF8419D","title":"南码头小区","lon":"121.509275732","lat":"31.1982065693","category":"47","category_name":"住宅区","address":"上海浦东南路浦三路"},{"poiid":"B2094753D76AA6FC499B","title":"宝燕壹号(滨江店)","lon":"121.51101","lat":"31.20368","category":"75","category_name":"浙江菜","address":"上海市浦东新区浦明路1999号云天地美食休闲广场内"},{"poiid":"B209475CD768A0FF4499","title":"pulupulu主题游戏馆","lon":"121.504699","lat":"31.203042","category":"500","category_name":"未知分类","address":"上海市 苗江路139号"},{"poiid":"B2094654DA68A0FD4592","title":"上海南浦大桥长途旅游客运站","lon":"121.50129","lat":"31.20767","category":"35","category_name":"长途汽车站","address":"黄浦区外马路1588号(近陆家浜路)"},{"poiid":"B2094750D76FA3FC4993","title":"和容轩","lon":"121.511","lat":"31.2056","category":"76","category_name":"上海菜","address":"浦东新区浦明路1888号15号楼3楼(近微山路)"},{"poiid":"B2094757D068A5FE409F","title":"黄浦区旅游集散中心 二楼携程VIP","lon":"121.501064","lat":"31.207764","category":"260","category_name":"其他","address":"上海外马路1588号"},{"poiid":"B2094654DB6AA6FF419F","title":"南码头渡口","lon":"121.50591","lat":"31.20227","category":"34","category_name":"港口码头","address":""},{"poiid":"B2094750DB68A2FC4499","title":"浦江.四季 Seasons on the Bund","lon":"121.508255","lat":"31.206165","category":"247","category_name":"餐饮美食","address":"浦东新区浦明路1888弄21号(近东江高尔夫球场)"},{"poiid":"B2094757D16CA4FF4198","title":"外码头上海创意产业聚集区","lon":"121.505065","lat":"31.208697","category":"46","category_name":"楼宇","address":"上海黄浦区外马路1178号"},{"poiid":"B2094757D06BABFB4193","title":"滨江2250","lon":"121.513661738","lat":"31.2047697577","category":"46","category_name":"楼宇","address":"上海市浦东新区浦东南路"},{"poiid":"B2094757D06EABF54393","title":"布丁酒店(上海世博南浦大桥店)","lon":"121.513055","lat":"31.20313","category":"217","category_name":"旅馆招待所","address":"浦东新区浦东南路2304号(近龙阳路)"},{"poiid":"B2094757D66EA7F54698","title":"南浦大桥引桥","lon":"121.50467189","lat":"31.205788251","category":"500","category_name":"未知分类","address":"上海南浦大桥"},{"poiid":"B2094750D16AA2FB479C","title":"世博凌睿试驾体验中心","lon":"121.50827","lat":"31.203342","category":"500","category_name":"未知分类","address":"世博大道138号"},{"poiid":"B2094757D168A4FB4793","title":"43路终点站","lon":"121.505664","lat":"31.20537","category":"38","category_name":"公交车站","address":"上海南浦大桥"},{"poiid":"B2094654DB69A7F94299","title":"西三小区","lon":"121.50658","lat":"31.200727","category":"47","category_name":"住宅区","address":"浦东新区西三小区"},{"poiid":"B2094753D56FA5FA4498","title":"必维国际检验集团","lon":"121.507011","lat":"31.204816","category":"500","category_name":"未知分类","address":"上海市 外马路1288号"},{"poiid":"B2094750D16BA1FD409D","title":"虹口足球场","lon":"121.5032644966952","lat":"31.20336783101407","category":"220","category_name":"运动场所","address":null},{"poiid":"B2094757D064A0F8459B","title":"一一八八 Cafe 1188","lon":"121.505704","lat":"31.2001","category":"247","category_name":"餐饮美食","address":"雪野路1188号世博洲际酒店1楼内近南码头路"},{"poiid":"B2094654DA68A0FD4698","title":"海狮大厦","lon":"121.50265","lat":"31.20692","category":"46","category_name":"楼宇","address":"徐汇区田林路300号"},{"poiid":"B2094757D76DA0F4439B","title":"巴赛丽意大利餐厅 Basilico","lon":"121.505704","lat":"31.20014","category":"94","category_name":"西餐厅","address":"浦东新区雪野路1188号世博洲际酒店内(近世博大道)"},{"poiid":"B2094655D265A0F5439E","title":"幸福码头(西门)","lon":"121.50463","lat":"31.21119","category":"47","category_name":"住宅区","address":"中山南路1029号"},{"poiid":"B209475CD56AA0FE419C","title":"黄浦区工人体育馆","lon":"121.5074","lat":"31.206216","category":"500","category_name":"未知分类","address":"上海市 外马路1288号"},{"poiid":"B2094757D064A0F94999","title":"黄浦区交警队","lon":"121.502949","lat":"31.208994","category":"500","category_name":"未知分类","address":"上海丰记码头街78号"},{"poiid":"B209475DD66AA7FE429C","title":"Pulupulu主题游戏馆","lon":"121.500289","lat":"31.205091","category":"248","category_name":"生活娱乐","address":"上海市 黄浦区苗江路139号"},{"poiid":"B2094757D168A6FB449E","title":"黄浦区出入境管理办公室","lon":"121.504542738","lat":"31.2036637341","category":"500","category_name":"未知分类","address":"上海市黄浦区陆家浜路88号"},{"poiid":"B2094757D065ABF54593","title":"上海市税务局三分局","lon":"121.50812173","lat":"31.20492176","category":"500","category_name":"未知分类","address":"上海中山南路865号"},{"poiid":"B2094757D16FA3FC4792","title":"丰记码头街","lon":"121.50515423","lat":"31.203827737","category":"500","category_name":"未知分类","address":"上海黄埔区交警违章处理点"},{"poiid":"B2094655D26DA1F44999","title":"东三小区","lon":"121.5102","lat":"31.201494","category":"47","category_name":"住宅区","address":"东三街102弄"},{"poiid":"B2094757D66AA0F8469A","title":"盛会堂","lon":"121.50567","lat":"31.20018","category":"87","category_name":"特色／地方风味餐厅","address":"浦东新区雪野路1188号洲际酒店2楼(南码头渡口)"},{"poiid":"B2094654DA68A0FD469E","title":"黄浦公安分局交警支队业务接待受理点","lon":"121.50264","lat":"31.20692","category":"248","category_name":"生活娱乐","address":"陆家浜路88号海狮大厦"},{"poiid":"B2094750D66EABFB449D","title":"浦东游泳馆","lon":"121.507072","lat":"31.201353","category":"220","category_name":"运动场所","address":null},{"poiid":"B2094654DB64A3FF459F","title":"可的","lon":"121.50682","lat":"31.20144","category":"117","category_name":"便民商店/便利店","address":"南码头路47"},{"poiid":"B2094750D164A5FE499B","title":"富驿商旅酒店上海世博店","lon":"121.5074","lat":"31.2009","category":"216","category_name":"经济型连锁酒店","address":"浦东新区南码头路101号(近东三里桥路)"},{"poiid":"B2094757D064AAF8449B","title":"公交65路","lon":"121.50361633","lat":"31.206497192","category":"38","category_name":"公交车站","address":"上海南浦大桥-北区汽车站"},{"poiid":"B2094752DB6FA0FB4199","title":"金泰蘭","lon":"121.511529","lat":"31.203705","category":"249","category_name":"购物服务","address":"上海市 上海浦东新区浦明路"},{"poiid":"B2094750DB65A2FD4798","title":"浦東國際機場","lon":"121.504974","lat":"31.206342","category":"500","category_name":"未知分类","address":null},{"poiid":"B2094655D26DA7FA4892","title":"桥南玉亭小区","lon":"121.50743","lat":"31.20161","category":"47","category_name":"住宅区","address":"东三街35弄"},{"poiid":"B2094753DB68A4FF499F","title":"上海环球金融中心","lon":"121.507179","lat":"31.199951","category":"500","category_name":"未知分类","address":"上海市 上海市陆家嘴"},{"poiid":"B2094655D26BA0FA499E","title":"阳光摩天城","lon":"121.5130386","lat":"31.2008171","category":"47","category_name":"住宅区","address":"阳光摩天城位于浦东浦东南路2321号(近东三里桥路)"},{"poiid":"B2094757D16AA5FB4998","title":"周南线南码头渡口终点站","lon":"121.505867","lat":"31.202531","category":"500","category_name":"未知分类","address":"上海市浦东新区南码头路世博大道"},{"poiid":"B2094757D465A5FB4199","title":"方师傅小笼 南码头路店","lon":"121.508044054","lat":"31.199132793","category":"68","category_name":"快餐厅","address":"浦东新区南码头路175号(东三里桥与沂南路间)"},{"poiid":"B2094654DA68A0FD469F","title":"帝龙","lon":"121.50285","lat":"31.20672","category":"170","category_name":"KTV","address":"陆家浜路18号"},{"poiid":"B2094757D66EA2FD459D","title":"Marlin Bay @ Shanghai Yacht Cl","lon":"121.50546173","lat":"31.208413835","category":"500","category_name":"未知分类","address":"1162 外马路 南外滩"},{"poiid":"B2094757D16AA6FE459A","title":"ZudemDACH 智同道合 文化传播","lon":"121.505297938","lat":"31.2090959498","category":"46","category_name":"楼宇","address":"上海黄浦区外马路1178号2-C座外码头创意产业园(近南浦大桥)"},{"poiid":"B2094757D064A6FD4098","title":"南码头路 海博大厦","lon":"121.507323","lat":"31.20091","category":"500","category_name":"未知分类","address":"上海南码头路101号"},{"poiid":"B2094757D66AA0F84999","title":"世博洲际酒店大堂吧 Lobby Lounge","lon":"121.505602","lat":"31.200317","category":"260","category_name":"其他","address":"浦东新区雪野路1188号洲际酒店内(雪野路云台路)"},{"poiid":"B2094654DA6AA3F8459B","title":"南码头小学","lon":"121.50871","lat":"31.19947","category":"56","category_name":"小学","address":"浦东新区东三里桥路16号(东三里桥路胶南路)"},{"poiid":"B2094654DA69ABF8489C","title":"国地公寓","lon":"121.51326","lat":"31.20549","category":"47","category_name":"住宅区","address":"国地公寓位于浦东浦东南路2244号"},{"poiid":"B2094655D268A6FF4993","title":"黄浦交通违章受理队","lon":"121.5033","lat":"31.20581","category":"250","category_name":"公园户外","address":""},{"poiid":"B2094654DA69ABF84498","title":"微西小区","lon":"121.51069","lat":"31.207483","category":"47","category_name":"住宅区","address":"微西小区"},{"poiid":"B2094757D069A2FE499D","title":"微山二村","lon":"121.51336","lat":"31.20816","category":"47","category_name":"住宅区","address":"微山路3号"},{"poiid":"B2094655D268A4FB459D","title":"上海第二人民医院急诊","lon":"121.50534","lat":"31.20958","category":"162","category_name":"医院","address":"多稼路1"},{"poiid":"B2094655D26DABFA4493","title":"东三小区(边门)","lon":"121.50942","lat":"31.20057","category":"47","category_name":"住宅区","address":"东三街102弄"},{"poiid":"B2094753D26CA6F8429F","title":"浦东新区市民中心","lon":"121.510315","lat":"31.206406","category":"500","category_name":"未知分类","address":"上海市 合欢路2号"},{"poiid":"B2094655D268A1FD479E","title":"东三大楼(南门)","lon":"121.50741","lat":"31.20067","category":"47","category_name":"住宅区","address":"南码头路101号"},{"poiid":"B2094757D16BA5F4429A","title":"老北京涮羊肉","lon":"121.510728","lat":"31.198508","category":"86","category_name":"火锅店","address":"浦东新区浦东南路2384号(近浦三路)"},{"poiid":"B2094655D268A1FA439E","title":"东三大楼","lon":"121.5077","lat":"31.20074","category":"47","category_name":"住宅区","address":"南码头路101号"},{"poiid":"B2094655D268A2F54998","title":"东三里桥路79弄小区(侧门)","lon":"121.50867","lat":"31.20082","category":"47","category_name":"住宅区","address":"东三里桥路79弄"},{"poiid":"B2094752D06DA0FB499D","title":"初鱼坊巫山烤全鱼","lon":"121.507796","lat":"31.197813","category":"247","category_name":"餐饮美食","address":"浦三路"},{"poiid":"B2094654DA6AA3F8459D","title":"良友金伴(东三里桥路)","lon":"121.50967","lat":"31.20063","category":"117","category_name":"便民商店/便利店","address":"东三里桥路151-5"},{"poiid":"B2094757D469A3FB4992","title":"扬帆号","lon":"121.505928","lat":"31.209515","category":"94","category_name":"西餐厅","address":"外马路1178号上海亚艇游艇会近多稼路"},{"poiid":"B2094654DA69ABF84499","title":"微西小区(东门)","lon":"121.51049","lat":"31.20791","category":"47","category_name":"住宅区","address":""},{"poiid":"B2094655D26FA7FA489B","title":"上海市东方阶梯双语学校","lon":"121.50703","lat":"31.19991","category":"55","category_name":"中学","address":"浦东新区胶南路169号"},{"poiid":"B2094750DB6BA1FD469A","title":"黄浦旅游集散站 携程VIP候车厅","lon":"121.505088","lat":"31.206199","category":"251","category_name":"出行住宿","address":null},{"poiid":"B2094654DA6AA3F84499","title":"快客联华便利连锁No.1214","lon":"121.50785","lat":"31.19997","category":"117","category_name":"便民商店/便利店","address":"东三里桥路11识别"},{"poiid":"B209475CD36FA5FE4092","title":"镭战大联盟真人CS 南外滩店","lon":"121.50314","lat":"31.20637","category":"172","category_name":"酒吧","address":"外马路1353号7-8号楼(近南浦大桥)"},{"poiid":"B2094654DB64A3FF469D","title":"海博大厦","lon":"121.514","lat":"31.2065","category":"46","category_name":"楼宇","address":"南码头路101-3"},{"poiid":"B2094655D26BA2F5449F","title":"浦东南路龙阳路","lon":"121.51333","lat":"31.20299","category":"38","category_name":"公交车站","address":""},{"poiid":"B2094757D164AAF84192","title":"沪军营路公交枢纽","lon":"121.501061619","lat":"31.2059114971","category":"38","category_name":"公交车站","address":"上海南浦大桥沪军营路"},{"poiid":"B2094753D66BA0FF439D","title":"宝燕一号","lon":"121.510612","lat":"31.207403","category":"500","category_name":"未知分类","address":"上海市 浦明路1999号"},{"poiid":"B2094654DA6AA3F9409E","title":"好德便利No.069","lon":"121.50779","lat":"31.19964","category":"117","category_name":"便民商店/便利店","address":"南码头路157"},{"poiid":"B2094753D764A7F8429F","title":"国金白丽宫影院","lon":"121.511009","lat":"31.209058","category":"178","category_name":"电影院","address":"上海市 陆家嘴国金"},{"poiid":"B2094654DB65A7FB469D","title":"家得利(胶南店)","lon":"121.50893","lat":"31.20037","category":"118","category_name":"超级市场","address":"浦东新区东三里桥路79弄1-6号"},{"poiid":"B2094757D66EA5FF489D","title":"微山三村","lon":"121.513332738","lat":"31.2074558149","category":"47","category_name":"住宅区","address":"上海浦东新区小南码头路"},{"poiid":"B2094655D26DABFA469F","title":"胶南小区(北门)","lon":"121.51058","lat":"31.2006","category":"656","category_name":"大门","address":"东三里桥160、170弄"},{"poiid":"B2094654DA69ABF8489E","title":"永业商务楼","lon":"121.51406","lat":"31.20558","category":"46","category_name":"楼宇","address":"上海浦东南路2240号"},{"poiid":"B209475DD66AA7FE4193","title":"Pulu Pulu主题游戏馆","lon":"121.500282","lat":"31.205087","category":"248","category_name":"生活娱乐","address":"上海市 黄浦区苗江路139号"},{"poiid":"B2094654DA68A0FD4699","title":"黄浦区道路交通事故纠纷调解室","lon":"121.50265","lat":"31.20692","category":"250","category_name":"公园户外","address":"陆家浜路88号海狮大厦"},{"poiid":"B2094655D26BA2F5459D","title":"浦东南路","lon":"121.50846","lat":"31.19786","category":"38","category_name":"公交车站","address":""},{"poiid":"B2094654DA6AA3F8449C","title":"大桥菜市场","lon":"121.50853","lat":"31.20021","category":"117","category_name":"便民商店/便利店","address":""},{"poiid":"B2094753D164ABFD429E","title":"丽思卡尔顿酒店","lon":"121.5079707","lat":"31.2091925","category":"500","category_name":"未知分类","address":"上海市 外滩黄浦江边"},{"poiid":"B2094752D46CA5FD4193","title":"地铁四号线塘桥站","lon":"121.506742","lat":"31.209721","category":"500","category_name":"未知分类","address":null},{"poiid":"B2094654DA69ABF8499A","title":"上海南浦妇科医院","lon":"121.51371","lat":"31.20455","category":"162","category_name":"医院","address":"浦东新区浦东南路2250号(近浦三路)"},{"poiid":"B2094654DA68A0FD4299","title":"万有全食品配送中心南浦大桥分部","lon":"121.5039","lat":"31.2088","category":"117","category_name":"便民商店/便利店","address":"外马路1218号上海南浦大桥食品批发交易市场34"},{"poiid":"B2094752D664A6F8419A","title":"台北纯K","lon":"121.51178","lat":"31.205811","category":"248","category_name":"生活娱乐","address":"卢湾区徐家汇路618号一楼（日月光中心广场）"},{"poiid":"B2094757D064AAFE499B","title":"上海市城市交通运输管理处","lon":"121.502473","lat":"31.209617","category":"500","category_name":"未知分类","address":"上海市中山南路1155号"},{"poiid":"B2094655D26FA7FB4199","title":"上海市第二人民医院(南门)","lon":"121.50537","lat":"31.20995","category":"162","category_name":"医院","address":"多稼路1"},{"poiid":"B2094655D268A4FD499E","title":"西三里桥小区","lon":"121.50751","lat":"31.19902","category":"47","category_name":"住宅区","address":""},{"poiid":"B2094757D568A5FE449E","title":"胶南路烧烤摊","lon":"121.5098869","lat":"31.19931889","category":"87","category_name":"特色／地方风味餐厅","address":"胶南路66号新亚大包附近"},{"poiid":"B2094655D268A6FA479A","title":"东三里桥路小区","lon":"121.50857","lat":"31.19923","category":"47","category_name":"住宅区","address":""},{"poiid":"B2094753D56AAAF44498","title":"世博中心","lon":"121.504013","lat":"31.209514","category":"500","category_name":"未知分类","address":"上海市 世博大道"},{"poiid":"B209475CDA6BA6FC4198","title":"倪同学炸猪排","lon":"121.509658","lat":"31.199125","category":"247","category_name":"餐饮美食","address":"上海市 浦东新区南码头胶南路路口"},{"poiid":"B2094753D664A2F9439A","title":"黄浦江","lon":"121.512382","lat":"31.207145","category":"500","category_name":"未知分类","address":"上海市 外滩十六铺码头"},{"poiid":"B2094757DB6DA3F94993","title":"苏先生海鲜鱼荘","lon":"121.5003222358991","lat":"31.2059752855171","category":"247","category_name":"餐饮美食","address":"浦东南路2304号"},{"poiid":"B2094654DB6AA7F5499A","title":"凇园大厦","lon":"121.502","lat":"31.209","category":"46","category_name":"楼宇","address":"黄浦区半凇园路698弄1号"},{"poiid":"B2094757D165A3FB429C","title":"福建千里香馄饨","lon":"121.50975","lat":"31.19955","category":"247","category_name":"餐饮美食","address":"上海浦东新区胶南路  "},{"poiid":"B2094655D264A0FA439D","title":"金茂盛融游艇俱乐部","lon":"121.50694","lat":"31.20071","category":"208","category_name":"休闲场所","address":"南码头路54号3层"},{"poiid":"B2094757D165AAFA4592","title":"Grand Ballroom","lon":"121.50541059","lat":"31.199083308","category":"500","category_name":"未知分类","address":"上海世博洲际大酒店"},{"poiid":"B2094757D66CA2FA4099","title":"富桥足浴国际会所","lon":"121.512429738","lat":"31.2074078139","category":"500","category_name":"未知分类","address":"浦东新区浦建路15号新塘桥购物广场3楼(近浦东南路)"},{"poiid":"B2094654DA6AA3FF4893","title":"金谷商厦","lon":"121.50791","lat":"31.19848","category":"46","category_name":"楼宇","address":""},{"poiid":"B2094757D569A2FF4693","title":"金海马家具南码头路店","lon":"121.5073469","lat":"31.19991611","category":"123","category_name":"家具建材市场","address":"南码头路120号"},{"poiid":"B2094654DA6AA3F8489B","title":"好德便利No.477","lon":"121.51012","lat":"31.19914","category":"117","category_name":"便民商店/便利店","address":"南码头"},{"poiid":"B2094655D268A0F94498","title":"小东门派出所(丰记码头街)","lon":"121.50373","lat":"31.20994","category":"248","category_name":"生活娱乐","address":"丰记码头街116号"},{"poiid":"B2094655D268A3FE439A","title":"丰记码头街小区(东门)","lon":"121.50424","lat":"31.20954","category":"47","category_name":"住宅区","address":"丰记码头街66"},{"poiid":"B2094750DA6AA6FE4798","title":"上海文化广场","lon":"121.508308","lat":"31.210443","category":"500","category_name":"未知分类","address":null},{"poiid":"B2094655D268A6FA4693","title":"东三里桥路小区(西门)","lon":"121.50811","lat":"31.19902","category":"47","category_name":"住宅区","address":""},{"poiid":"B2094757D06AA5F54693","title":"胶南小区","lon":"121.51067","lat":"31.199404","category":"252","category_name":"楼宇机构","address":"上海东三里桥路160弄"},{"poiid":"B2094654DA6AA3F84998","title":"流金岁月专业美发美容","lon":"121.50829","lat":"31.19868","category":"148","category_name":"美容美发店","address":"南码头路223-1"},{"poiid":"B2094757D66CA4FF499D","title":"菌菇王","lon":"121.507098","lat":"31.199954","category":"500","category_name":"未知分类","address":"上海浦东新区浦三路"},{"poiid":"B2094753D36FA2F54998","title":"香辣汇","lon":"121.507911","lat":"31.197949","category":"247","category_name":"餐饮美食","address":"上海市 浦三路70号"},{"poiid":"B2094654DA68AAF9429A","title":"上海创意产业集聚区外码头","lon":"121.50506","lat":"31.20869","category":"263","category_name":"公司","address":"外马路1178号2层201室"},{"poiid":"B2094655D26DA1F44892","title":"南码头路160弄小区","lon":"121.50738","lat":"31.19891","category":"47","category_name":"住宅区","address":"南码头路160弄"},{"poiid":"B2094655D268A4FF4899","title":"西三里桥小区(侧门)","lon":"121.50779","lat":"31.19893","category":"47","category_name":"住宅区","address":""},{"poiid":"B2094757D66FA3FD499E","title":"640路浦南医院站","lon":"121.508703232","lat":"31.1979451289","category":"38","category_name":"公交车站","address":"上海南码头路浦东南路路口"},{"poiid":"B2094655D26BA4FC459F","title":"开泰里(南门)","lon":"121.50411","lat":"31.20982","category":"47","category_name":"住宅区","address":"丰记码头街95弄1-18号"},{"poiid":"B2094655D26DA1F44893","title":"南码头路160弄小区(南门)","lon":"121.50743","lat":"31.19869","category":"47","category_name":"住宅区","address":"南码头路160弄"},{"poiid":"B2094757D66DABFE489D","title":"591结婚网","lon":"121.50550973","lat":"31.211371898","category":"263","category_name":"公司","address":"上海普陀区常德路1211号宝华大厦1606室(近新会路)  "},{"poiid":"B2094750D06CA2FE489C","title":"巴富仕","lon":"121.502471","lat":"31.207853","category":"249","category_name":"购物服务","address":null},{"poiid":"B2094654DA68AAF9419F","title":"上海市会馆街环卫码头","lon":"121.50652","lat":"31.21088","category":"34","category_name":"港口码头","address":""},{"poiid":"B2094757D165A6F54698","title":"蘑菇宝贝(浦东南路店)","lon":"121.513323","lat":"31.204674","category":"249","category_name":"购物服务","address":"浦东新区浦东南路2250号1楼(近龙阳路)"},{"poiid":"B2094655D264AAFA429C","title":"浦东新区市南养老院","lon":"121.50715","lat":"31.19919","category":"207","category_name":"度假疗养场所","address":"西三里桥6号"},{"poiid":"B2094757D064A5FC439E","title":"妖物一屋","lon":"121.5043075","lat":"31.208845121","category":"500","category_name":"未知分类","address":"上海黄浦区中福花苑青年汇(近海潮路)"},{"poiid":"B2094655D36CA6F9489A","title":"多稼路","lon":"121.50361","lat":"31.21053","category":"38","category_name":"公交车站","address":""},{"poiid":"B2094655D26BA6FF4593","title":"开泰里","lon":"121.50427","lat":"31.20996","category":"47","category_name":"住宅区","address":"丰记码头街95弄1-18号"},{"poiid":"B2094757D06BA7F4499E","title":"_瑶瑶瑶瑶瑶瑶瑶s' House","lon":"121.506908495","lat":"31.1997428222","category":"500","category_name":"未知分类","address":null},{"poiid":"B2094655D269ABFD439E","title":"摩登假日沐浴","lon":"121.50235","lat":"31.20932","category":"247","category_name":"餐饮美食","address":"黄浦区中山南路1157号"},{"poiid":"B2094655D268A4FF489C","title":"桥南玉亭小区(侧门)","lon":"121.50732","lat":"31.20179","category":"656","category_name":"大门","address":""},{"poiid":"B2094750D768A2FA4293","title":"爱咖屋","lon":"121.506","lat":"31.2001","category":"260","category_name":"其他","address":"浦东新区南码头路105号海博大厦1楼(近世博大道)"},{"poiid":"B2094750D16BA1F94298","title":"上海新云传媒有限公司","lon":"121.512596","lat":"31.20363","category":"263","category_name":"公司","address":"浦东南路2304号"},{"poiid":"B2094757D568ABFD4099","title":"喜士多便利店(浦东南路)","lon":"121.51383138","lat":"31.20490126","category":"117","category_name":"便民商店/便利店","address":"浦东南路2250-3"},{"poiid":"B2094757D069A4FE4293","title":"610路公交","lon":"121.51118223","lat":"31.20115392","category":"500","category_name":"未知分类","address":"上海东沟至耀华"},{"poiid":"B2094757D66FA2FD469B","title":"长日精工","lon":"121.506006738","lat":"31.2106408827","category":"500","category_name":"未知分类","address":"黄浦区中山南路1029号幸福码头创意园区9号楼1楼(近外马路)"},{"poiid":"B2094654DA68A0FD409E","title":"上海市第二人民医院体检站","lon":"121.50437","lat":"31.21082","category":"162","category_name":"医院","address":"多稼路1号"},{"poiid":"B2094655D268ABFD409C","title":"西三小区(东二门)","lon":"121.50634","lat":"31.20154","category":"656","category_name":"大门","address":""},{"poiid":"B2094655D26EA0FF4099","title":"东三小区(西门)","lon":"121.50878","lat":"31.20164","category":"656","category_name":"大门","address":"东三街102弄1-45号"},{"poiid":"B2094757D66CA5F54398","title":"杨浦区招生办","lon":"121.512861068","lat":"31.2037681364","category":"253","category_name":"校园生活","address":"上海延吉东路55号"},{"poiid":"B209475CD66EA5FB429E","title":"超级密室Xroom","lon":"121.510009","lat":"31.20936","category":"248","category_name":"生活娱乐","address":"上海市 幸福码头"},{"poiid":"B2094655D264A0F5419E","title":"上海怡德物业经营管理有限公司三泰管理处","lon":"121.50538","lat":"31.20922","category":"263","category_name":"公司","address":"外马路1162"},{"poiid":"B2094655D26FAAF94798","title":"银河小区(边门)","lon":"121.50839","lat":"31.19764","category":"47","category_name":"住宅区","address":"南码头路238弄"},{"poiid":"B2094655D26DA1F4499A","title":"桥南玉亭小区(南门)","lon":"121.50752","lat":"31.20142","category":"656","category_name":"大门","address":"东三街35弄"},{"poiid":"B2094654DA68A0FD459D","title":"小东门社区公共体育中心","lon":"121.50191","lat":"31.20886","category":"220","category_name":"运动场所","address":"陆家浜路89号"},{"poiid":"B2094757D66EA5FD479C","title":"上海怡德物业经营管理有限公司","lon":"121.511955738","lat":"31.207319812","category":"263","category_name":"公司","address":"上海市浦明路1888号"},{"poiid":"B2094757D66DA4FE4498","title":"联华超市(南码头店)","lon":"121.50844013","lat":"31.197953912","category":"118","category_name":"超级市场","address":"浦东新区南码头路218号(近沂南路)"},{"poiid":"B209475CD76CABFC4892","title":"上海体育馆","lon":"121.501022","lat":"31.207822","category":"500","category_name":"未知分类","address":"上海市 上海体育馆"},{"poiid":"B2094654DA6AA3F94199","title":"新华书店教材书店NO.020","lon":"121.50856","lat":"31.19796","category":"125","category_name":"书店","address":"南码头路231"},{"poiid":"B2094757D66FA0FF419F","title":"小6府宅","lon":"121.51332173","lat":"31.204710756","category":"500","category_name":"未知分类","address":"上海市浦东新区浦东南路2244弄"},{"poiid":"B2094757D66EA3F94398","title":"爱乐驾校训练场","lon":"121.513708","lat":"31.20455","category":"253","category_name":"校园生活","address":"上海南浦大桥下"},{"poiid":"B2094757D16AA5F4489B","title":"The MEET •聚","lon":"121.50507773","lat":"31.198867632","category":"500","category_name":"未知分类","address":"上海KERRY HOTEL二楼"},{"poiid":"B2094757D06BA4FD4499","title":"南码头144弄","lon":"121.50793973","lat":"31.199126637","category":"500","category_name":"未知分类","address":"上海市浦东新区世博大道"},{"poiid":"B2094750DA6AA6F44993","title":"巴富仕游艇俱乐部","lon":"121.505065","lat":"31.2107","category":"248","category_name":"生活娱乐","address":"中山南路1029号码"},{"poiid":"B2094750D26FA0F84493","title":"乐芙国际母婴护理月子会所","lon":"121.50415","lat":"31.198289","category":"248","category_name":"生活娱乐","address":"浦东新区陆家嘴昌邑路588弄1号401室（近地铁4号线浦东大道站）"},{"poiid":"B2094655D268ABFD409E","title":"西三小区(东一门)","lon":"121.50662","lat":"31.20098","category":"656","category_name":"大门","address":""},{"poiid":"B2094757D165A4FE4098","title":"喜士多(滨江店)","lon":"121.51402","lat":"31.20428","category":"500","category_name":"未知分类","address":"上海浦东新区浦东南路2250号  "},{"poiid":"B2094757D06BA2FA4899","title":"KingCrew舞蹈工作室(浦东炫银店)","lon":"121.51423","lat":"31.20423","category":"500","category_name":"未知分类","address":"浦东新区浦东南路2250号B219室(近龙阳路)"},{"poiid":"B2094757D66DA3FF4398","title":"中国工商银行(南码头支行)","lon":"121.508288738","lat":"31.1980506146","category":"150","category_name":"银行","address":"上海市浦东新区南码头路189号"},{"poiid":"B2094757D164A0F9479C","title":"黄浦区残疾人劳动服务所","lon":"121.503689","lat":"31.210191","category":"500","category_name":"未知分类","address":"上海中山南路1117号"},{"poiid":"B2094655D268A6FE4493","title":"西三小区(东门)","lon":"121.50698","lat":"31.20055","category":"656","category_name":"大门","address":""},{"poiid":"B2094757D16EABFF479E","title":"流金岁月专业美容美发","lon":"121.50857","lat":"31.19836","category":"148","category_name":"美容美发店","address":"上海浦东新区南码头路223号(近沂南路)  "},{"poiid":"B2094654DA6AA3F8469F","title":"南码头社区学校沂南分校","lon":"121.50885","lat":"31.19872","category":"253","category_name":"校园生活","address":""},{"poiid":"B2094654DA6AA3F8469B","title":"东三小区(南门)","lon":"121.51036","lat":"31.20089","category":"656","category_name":"大门","address":"东三街102弄1-45号"},{"poiid":"B2094757D16FA4FA429B","title":"阿诗玛峰","lon":"121.50060653","lat":"31.207342912","category":"500","category_name":"未知分类","address":"上海普育东路101弄"},{"poiid":"B2094750DB6BABFA449C","title":"上海凌睿试驾体验中心","lon":"121.512695","lat":"31.200918","category":"248","category_name":"生活娱乐","address":"世博大道138号"},{"poiid":"B2094757D16EA2F9499C","title":"上海雅客世博滨江酒店公寓","lon":"121.507251738","lat":"31.197784609","category":"217","category_name":"旅馆招待所","address":"浦东新区雪野路1125号"},{"poiid":"B2094654DA6AA3F9429A","title":"保健足浴","lon":"121.5087","lat":"31.19769","category":"149","category_name":"洗浴推拿场所","address":"南码头路237-1识别"},{"poiid":"B2094757D16EA3F84092","title":"Ling's house","lon":"121.51154773","lat":"31.199127637","category":"500","category_name":"未知分类","address":null},{"poiid":"B2094752D06BA0FF499D","title":"塘桥","lon":"121.503365","lat":"31.209756","category":"500","category_name":"未知分类","address":null},{"poiid":"B2094757D168A1FF4099","title":"．Ｈｔｆ．家族","lon":"121.5046327","lat":"31.211181366","category":"500","category_name":"未知分类","address":null},{"poiid":"B2094757D66FA7F84993","title":"Sherry's Home","lon":"121.507463738","lat":"31.1979836132","category":"500","category_name":"未知分类","address":null},{"poiid":"B2094757D169A7FF499B","title":"欧偌妍SPA八佰伴旗舰店","lon":"121.508465","lat":"31.197864","category":"500","category_name":"未知分类","address":"上海浦东南路1038弄3号301室"},{"poiid":"B2094757D56EA6FF499B","title":"伊姿三日瘦（浦东八佰伴店）","lon":"121.508465","lat":"31.197864","category":"249","category_name":"购物服务","address":"浦东新区浦东南路商城路口八佰伴对面1036号隆宇大厦2102室(近商城路)"},{"poiid":"B2094654DA69ABF8489D","title":"国地公寓(东门)","lon":"121.51393","lat":"31.2053","category":"48","category_name":"楼宇大门","address":"浦东南路2244弄1-19号"},{"poiid":"B2094757D569A2FF4499","title":"怡丰宾馆","lon":"121.51331706","lat":"31.20345025","category":"251","category_name":"出行住宿","address":"中国上海市浦东新区浦东南路2286"},{"poiid":"B2094655D26FABFC499A","title":"胶南小区(侧门)","lon":"121.51158","lat":"31.2006","category":"656","category_name":"大门","address":""},{"poiid":"B2094654DA6AA1FE4492","title":"光鸿苑(西门)","lon":"121.51322","lat":"31.2012","category":"656","category_name":"大门","address":"浦东南路2305"},{"poiid":"B2094655D268A4FB4592","title":"谷泰滨江大厦(西二门)","lon":"121.50678","lat":"31.21165","category":"656","category_name":"大门","address":"中山南路969"},{"poiid":"B2094757D06BA4F5449F","title":"南码头街道社区学校","lon":"121.50846862","lat":"31.197864532","category":"260","category_name":"其他","address":"上海华丰路50弄11号（近浦东南路）"},{"poiid":"B2094655D26EA3F54899","title":"胶南小区(东门)","lon":"121.51177","lat":"31.19968","category":"656","category_name":"大门","address":""}]