[{"poiid":"B2094757D16AA2F5429A","title":"大风车","lon":"121.731417216","lat":"31.405081806","category":"500","category_name":"未知分类","address":"上海市崇明县长兴岛北海滩"},{"poiid":"B2094757D569A7FC429B","title":"上海桔园度假村","lon":"121.71651584","lat":"31.3938661","category":"207","category_name":"度假疗养场所","address":"潘园公路1501"},{"poiid":"B2094757D468A4FD4292","title":"瀛升大酒店","lon":"121.726408","lat":"31.3946801","category":"76","category_name":"上海菜","address":"近郊长兴岛前卫支路158号(近前卫农场)"},{"poiid":"B2094757D16EA5FF4292","title":"侬趣小院","lon":"121.73374417","lat":"31.388641842","category":"247","category_name":"餐饮美食","address":"上海长兴岛长明村12队678号"},{"poiid":"B2094757D065A4FF469D","title":"前卫农场","lon":"121.72397816","lat":"31.389368828","category":"500","category_name":"未知分类","address":"上海长兴岛前卫支路"},{"poiid":"B2094757D064A7F54099","title":"长江隧桥公司","lon":"121.721838","lat":"31.393638","category":"263","category_name":"公司","address":"上海潘园公路1502号"},{"poiid":"B2094654DB69A6FF4092","title":"上海前卫旅游服务公司(桔园度假村)游泳馆","lon":"121.71796","lat":"31.39031","category":"231","category_name":"游泳馆","address":"宝山区长兴岛"},{"poiid":"B2094757D06BA5F44698","title":"古瀛饭庄","lon":"121.7215","lat":"31.38704","category":"247","category_name":"餐饮美食","address":"上海近郊崇明县前卫村580号  "}]