[{"poiid":"B2094655D36DA7FB409E","title":"祝桥","lon":"121.7583","lat":"31.1177","category":"38","category_name":"公交车站","address":"周祝公路3477号"},{"poiid":"B2094757D16CA3F4429C","title":"祝和苑","lon":"121.76863877244","lat":"31.128664808964","category":"252","category_name":"楼宇机构","address":"上海市浦东新区祝桥镇千汇路1000号"},{"poiid":"B2094655D26DA6FD4292","title":"千汇苑三村(千汇路)","lon":"121.76387","lat":"31.11363","category":"47","category_name":"住宅区","address":"千汇路581弄"},{"poiid":"B2094752D46AA2F84393","title":"祝桥加油站(南汇第二加油站)","lon":"121.753965","lat":"31.125272","category":"153","category_name":"加油站","address":"上海市南汇区祝桥镇周祝公路3259号(近川南奉公路)"},{"poiid":"B2094655D36DA7FA419D","title":"周祝公路(胡家桥)","lon":"121.75154","lat":"31.11845","category":"38","category_name":"公交车站","address":""},{"poiid":"B2094654DB6DA5FE4293","title":"祝桥镇光明医院","lon":"121.75763","lat":"31.11545","category":"162","category_name":"医院","address":"川南奉公路5009号"},{"poiid":"B2094655D26DA6FD4299","title":"千汇苑四村(千汇路)","lon":"121.76479","lat":"31.11725","category":"47","category_name":"住宅区","address":"千汇路750弄"},{"poiid":"B2094752D26AA6FC489A","title":"浦东机场T2航站楼","lon":"121.755126","lat":"31.130522","category":"252","category_name":"楼宇机构","address":null},{"poiid":"B2094655D36CA5FE4192","title":"川南奉公路周祝公路(祝桥)","lon":"121.75971","lat":"31.1181","category":"38","category_name":"公交车站","address":""},{"poiid":"B2094654DB6DA6F94498","title":"祝桥镇星光村社区卫生服务点","lon":"121.74906","lat":"31.11923","category":"162","category_name":"医院","address":""},{"poiid":"B2094654DB64A6FD4698","title":"祝桥影剧院","lon":"121.756462","lat":"31.117408","category":"178","category_name":"电影院","address":"南北大街29号"},{"poiid":"B2094654DB69A6FF419C","title":"绿庭百合苑","lon":"121.75946","lat":"31.11942","category":"47","category_name":"住宅区","address":"奉贤区八字桥路158弄"},{"poiid":"B2094654DB64ABF8449F","title":"思凡南苑(施湾三路)","lon":"121.752","lat":"31.13994","category":"47","category_name":"住宅区","address":"施湾三路1106弄1-62号"},{"poiid":"B2094655D26DA6FD4298","title":"祝桥环城一村(川南奉公路)","lon":"121.76122","lat":"31.11965","category":"47","category_name":"住宅区","address":""},{"poiid":"B2094654DB64ABFF489B","title":"祝桥高级中学","lon":"121.75579","lat":"31.11499","category":"55","category_name":"中学","address":"浦东新区川南奉公路5062号"},{"poiid":"B2094654DB6DA6F9449B","title":"祝桥镇星光村社区文化活动服务中心","lon":"121.74847","lat":"31.11941","category":"248","category_name":"生活娱乐","address":""},{"poiid":"B2094654DB6DA5F8419E","title":"联销地下商场","lon":"121.75773","lat":"31.11632","category":"119","category_name":"商场","address":""},{"poiid":"B2094654DB64ABFF489E","title":"千汇苑二村(千汇路)","lon":"121.76581","lat":"31.11372","category":"47","category_name":"住宅区","address":"千汇路580弄"},{"poiid":"B2094757D56CA4FA4899","title":"复兴岛大酒店","lon":"121.74458216534","lat":"31.117475401606","category":"247","category_name":"餐饮美食","address":"共青路36号"},{"poiid":"B2094654DB6AA1F9499F","title":"南汇区祝桥镇中学","lon":"121.7559","lat":"31.11513","category":"55","category_name":"中学","address":"南汇区祝桥镇"},{"poiid":"B2094655D36DA7FB4099","title":"祝潘公路川南奉公路","lon":"121.76676","lat":"31.12597","category":"38","category_name":"公交车站","address":""},{"poiid":"B2094655D36CA2FF429A","title":"千汇路华星路","lon":"121.76354","lat":"31.11828","category":"38","category_name":"公交车站","address":""},{"poiid":"B2094655D265A0F4429C","title":"上岛咖啡(弘基店)","lon":"121.76338","lat":"31.13343","category":"65","category_name":"咖啡厅","address":"浦东新区惠南镇川南奉公路6101号弘基广场内(近世纪联华)"},{"poiid":"B2094757D064A5F9409F","title":"乔治咖哩屋　中环百联","lon":"121.757732","lat":"31.116323","category":"500","category_name":"未知分类","address":"上海百联地下一层"},{"poiid":"B2094757D16FABFC4892","title":"南南线(祝桥)","lon":"121.758295","lat":"31.117627","category":"500","category_name":"未知分类","address":"上海南汇川南奉公路周祝公路"},{"poiid":"B2094654DB6DA5FE4292","title":"阳光浴场","lon":"121.76004","lat":"31.11894","category":"149","category_name":"洗浴推拿场所","address":""},{"poiid":"B2094757D06AAAFE499E","title":"川南奉公路新东路","lon":"121.757348","lat":"31.116921","category":"500","category_name":"未知分类","address":"上海川南奉公路新东路"},{"poiid":"B2094752D06FABF84493","title":"上海浦东国际机场","lon":"121.749229","lat":"31.129842","category":"627","category_name":"一般地点标志","address":null},{"poiid":"B2094654DB6DA6F9449D","title":"上海大田阀门管道工程有限公司","lon":"121.74484","lat":"31.12052","category":"263","category_name":"公司","address":""},{"poiid":"B2094757D168A1FD469F","title":"周祝公路普新路","lon":"121.736649657","lat":"31.1224383018","category":"500","category_name":"未知分类","address":"上海周祝公路普新路"},{"poiid":"B2094655D36DA7FA4592","title":"朱家店","lon":"121.76372","lat":"31.13191","category":"38","category_name":"公交车站","address":""},{"poiid":"B2094757D66DAAF5469E","title":"上海市实验学校附属光明学校(东校区)","lon":"121.75988296","lat":"31.115425314","category":"500","category_name":"未知分类","address":"上海浦东新区祝桥镇华星路千汇路口"},{"poiid":"B2094654DB6DA5FF4998","title":"新华书店(祝桥镇)","lon":"121.75737","lat":"31.11306","category":"125","category_name":"书店","address":""},{"poiid":"B2094655D26DA6FD4092","title":"金湾佳园","lon":"121.75761","lat":"31.141705","category":"47","category_name":"住宅区","address":"航城七路450弄1-89号"},{"poiid":"B2094750DA68A1FE449D","title":"张闻天故居","lon":"121.759719","lat":"31.139444","category":"252","category_name":"楼宇机构","address":"浦东新区川沙新镇闻居路50号(周祝公路祝惠路)"},{"poiid":"B2094750D16AA2FD459E","title":"周浦万达广场","lon":"121.756774","lat":"31.114528","category":"248","category_name":"生活娱乐","address":null},{"poiid":"B2094750D76FA5F94299","title":"便民酒水馆","lon":"121.753","lat":"31.1385","category":"68","category_name":"快餐厅","address":"浦东新区远航路192号(近施湾三路)"},{"poiid":"B2094757D568AAF44898","title":"空港物流公众服务中心","lon":"121.7648158","lat":"31.131875","category":"248","category_name":"生活娱乐","address":"空港物流园区"},{"poiid":"B2094655D36CA5FE4298","title":"川南奉公路远航路","lon":"121.7603","lat":"31.14197","category":"38","category_name":"公交车站","address":""},{"poiid":"B2094655D26EA1FE489B","title":"上海浦东游泳馆思凡分馆","lon":"121.75172","lat":"31.14205","category":"231","category_name":"游泳馆","address":""},{"poiid":"B2094655D36DA0FE4498","title":"新浜路(新浜仓库场)","lon":"121.73731","lat":"31.13189","category":"38","category_name":"公交车站","address":""},{"poiid":"B2094654DB6DA5FD469F","title":"东港花苑","lon":"121.76127","lat":"31.10992","category":"47","category_name":"住宅区","address":"百熙路"},{"poiid":"B2094654DB6DA5FD4092","title":"祝桥东港花苑三村","lon":"121.76398","lat":"31.109356","category":"47","category_name":"住宅区","address":"广益路15弄"},{"poiid":"B2094654DB6DA5F8429C","title":"祝桥中心校","lon":"121.75659","lat":"31.11058","category":"55","category_name":"中学","address":""},{"poiid":"B2094655D36DA2FE449E","title":"邱家桥","lon":"121.74231","lat":"31.13563","category":"250","category_name":"公园户外","address":""},{"poiid":"B2094655D264A4F9489E","title":"G1501闻居路收费站","lon":"121.76962","lat":"31.13378","category":"267","category_name":"收费站","address":""},{"poiid":"B2094654DB64ABFF4393","title":"科技大楼(金闻路)","lon":"121.77134","lat":"31.12266","category":"46","category_name":"楼宇","address":"金闻路26"},{"poiid":"B2094655D26EA1F9429F","title":"上海刚杰服饰有限公司","lon":"121.76273","lat":"31.13414","category":"263","category_name":"公司","address":"川南奉公路4296"},{"poiid":"B2094655D36CA0FE4293","title":"金亭公路千汇路","lon":"121.76668","lat":"31.11177","category":"38","category_name":"公交车站","address":""},{"poiid":"B2094655D36CA7FA459C","title":"航城五路施湾二路","lon":"121.75008","lat":"31.14325","category":"38","category_name":"公交车站","address":""},{"poiid":"B2094655D36DA7FB409E","title":"祝桥","lon":"121.7583","lat":"31.1177","category":"38","category_name":"公交车站","address":"周祝公路3477号"},{"poiid":"B2094757D16CA3F4429C","title":"祝和苑","lon":"121.76863877244","lat":"31.128664808964","category":"252","category_name":"楼宇机构","address":"上海市浦东新区祝桥镇千汇路1000号"},{"poiid":"B2094655D26DA6FD4292","title":"千汇苑三村(千汇路)","lon":"121.76387","lat":"31.11363","category":"47","category_name":"住宅区","address":"千汇路581弄"},{"poiid":"B2094752D46AA2F84393","title":"祝桥加油站(南汇第二加油站)","lon":"121.753965","lat":"31.125272","category":"153","category_name":"加油站","address":"上海市南汇区祝桥镇周祝公路3259号(近川南奉公路)"},{"poiid":"B2094655D36DA7FA419D","title":"周祝公路(胡家桥)","lon":"121.75154","lat":"31.11845","category":"38","category_name":"公交车站","address":""},{"poiid":"B2094654DB6DA5FE4293","title":"祝桥镇光明医院","lon":"121.75763","lat":"31.11545","category":"162","category_name":"医院","address":"川南奉公路5009号"},{"poiid":"B2094655D26DA6FD4299","title":"千汇苑四村(千汇路)","lon":"121.76479","lat":"31.11725","category":"47","category_name":"住宅区","address":"千汇路750弄"},{"poiid":"B2094752D26AA6FC489A","title":"浦东机场T2航站楼","lon":"121.755126","lat":"31.130522","category":"252","category_name":"楼宇机构","address":null},{"poiid":"B2094655D36CA5FE4192","title":"川南奉公路周祝公路(祝桥)","lon":"121.75971","lat":"31.1181","category":"38","category_name":"公交车站","address":""},{"poiid":"B2094654DB6DA6F94498","title":"祝桥镇星光村社区卫生服务点","lon":"121.74906","lat":"31.11923","category":"162","category_name":"医院","address":""},{"poiid":"B2094654DB64A6FD4698","title":"祝桥影剧院","lon":"121.756462","lat":"31.117408","category":"178","category_name":"电影院","address":"南北大街29号"},{"poiid":"B2094654DB69A6FF419C","title":"绿庭百合苑","lon":"121.75946","lat":"31.11942","category":"47","category_name":"住宅区","address":"奉贤区八字桥路158弄"},{"poiid":"B2094654DB64ABF8449F","title":"思凡南苑(施湾三路)","lon":"121.752","lat":"31.13994","category":"47","category_name":"住宅区","address":"施湾三路1106弄1-62号"},{"poiid":"B2094655D26DA6FD4298","title":"祝桥环城一村(川南奉公路)","lon":"121.76122","lat":"31.11965","category":"47","category_name":"住宅区","address":""},{"poiid":"B2094654DB64ABFF489B","title":"祝桥高级中学","lon":"121.75579","lat":"31.11499","category":"55","category_name":"中学","address":"浦东新区川南奉公路5062号"},{"poiid":"B2094654DB6DA6F9449B","title":"祝桥镇星光村社区文化活动服务中心","lon":"121.74847","lat":"31.11941","category":"248","category_name":"生活娱乐","address":""},{"poiid":"B2094654DB6DA5F8419E","title":"联销地下商场","lon":"121.75773","lat":"31.11632","category":"119","category_name":"商场","address":""},{"poiid":"B2094654DB64ABFF489E","title":"千汇苑二村(千汇路)","lon":"121.76581","lat":"31.11372","category":"47","category_name":"住宅区","address":"千汇路580弄"},{"poiid":"B2094757D56CA4FA4899","title":"复兴岛大酒店","lon":"121.74458216534","lat":"31.117475401606","category":"247","category_name":"餐饮美食","address":"共青路36号"},{"poiid":"B2094654DB6AA1F9499F","title":"南汇区祝桥镇中学","lon":"121.7559","lat":"31.11513","category":"55","category_name":"中学","address":"南汇区祝桥镇"},{"poiid":"B2094655D36DA7FB4099","title":"祝潘公路川南奉公路","lon":"121.76676","lat":"31.12597","category":"38","category_name":"公交车站","address":""},{"poiid":"B2094655D36CA2FF429A","title":"千汇路华星路","lon":"121.76354","lat":"31.11828","category":"38","category_name":"公交车站","address":""},{"poiid":"B2094655D265A0F4429C","title":"上岛咖啡(弘基店)","lon":"121.76338","lat":"31.13343","category":"65","category_name":"咖啡厅","address":"浦东新区惠南镇川南奉公路6101号弘基广场内(近世纪联华)"},{"poiid":"B2094757D064A5F9409F","title":"乔治咖哩屋　中环百联","lon":"121.757732","lat":"31.116323","category":"500","category_name":"未知分类","address":"上海百联地下一层"},{"poiid":"B2094757D16FABFC4892","title":"南南线(祝桥)","lon":"121.758295","lat":"31.117627","category":"500","category_name":"未知分类","address":"上海南汇川南奉公路周祝公路"},{"poiid":"B2094654DB6DA5FE4292","title":"阳光浴场","lon":"121.76004","lat":"31.11894","category":"149","category_name":"洗浴推拿场所","address":""},{"poiid":"B2094757D06AAAFE499E","title":"川南奉公路新东路","lon":"121.757348","lat":"31.116921","category":"500","category_name":"未知分类","address":"上海川南奉公路新东路"},{"poiid":"B2094752D06FABF84493","title":"上海浦东国际机场","lon":"121.749229","lat":"31.129842","category":"627","category_name":"一般地点标志","address":null},{"poiid":"B2094654DB6DA6F9449D","title":"上海大田阀门管道工程有限公司","lon":"121.74484","lat":"31.12052","category":"263","category_name":"公司","address":""},{"poiid":"B2094757D168A1FD469F","title":"周祝公路普新路","lon":"121.736649657","lat":"31.1224383018","category":"500","category_name":"未知分类","address":"上海周祝公路普新路"},{"poiid":"B2094655D36DA7FA4592","title":"朱家店","lon":"121.76372","lat":"31.13191","category":"38","category_name":"公交车站","address":""},{"poiid":"B2094757D66DAAF5469E","title":"上海市实验学校附属光明学校(东校区)","lon":"121.75988296","lat":"31.115425314","category":"500","category_name":"未知分类","address":"上海浦东新区祝桥镇华星路千汇路口"},{"poiid":"B2094654DB6DA5FF4998","title":"新华书店(祝桥镇)","lon":"121.75737","lat":"31.11306","category":"125","category_name":"书店","address":""},{"poiid":"B2094655D26DA6FD4092","title":"金湾佳园","lon":"121.75761","lat":"31.141705","category":"47","category_name":"住宅区","address":"航城七路450弄1-89号"},{"poiid":"B2094750DA68A1FE449D","title":"张闻天故居","lon":"121.759719","lat":"31.139444","category":"252","category_name":"楼宇机构","address":"浦东新区川沙新镇闻居路50号(周祝公路祝惠路)"},{"poiid":"B2094750D16AA2FD459E","title":"周浦万达广场","lon":"121.756774","lat":"31.114528","category":"248","category_name":"生活娱乐","address":null},{"poiid":"B2094750D76FA5F94299","title":"便民酒水馆","lon":"121.753","lat":"31.1385","category":"68","category_name":"快餐厅","address":"浦东新区远航路192号(近施湾三路)"},{"poiid":"B2094757D568AAF44898","title":"空港物流公众服务中心","lon":"121.7648158","lat":"31.131875","category":"248","category_name":"生活娱乐","address":"空港物流园区"},{"poiid":"B2094655D36CA5FE4298","title":"川南奉公路远航路","lon":"121.7603","lat":"31.14197","category":"38","category_name":"公交车站","address":""},{"poiid":"B2094655D26EA1FE489B","title":"上海浦东游泳馆思凡分馆","lon":"121.75172","lat":"31.14205","category":"231","category_name":"游泳馆","address":""},{"poiid":"B2094655D36DA0FE4498","title":"新浜路(新浜仓库场)","lon":"121.73731","lat":"31.13189","category":"38","category_name":"公交车站","address":""},{"poiid":"B2094654DB6DA5FD469F","title":"东港花苑","lon":"121.76127","lat":"31.10992","category":"47","category_name":"住宅区","address":"百熙路"},{"poiid":"B2094654DB6DA5FD4092","title":"祝桥东港花苑三村","lon":"121.76398","lat":"31.109356","category":"47","category_name":"住宅区","address":"广益路15弄"},{"poiid":"B2094654DB6DA5F8429C","title":"祝桥中心校","lon":"121.75659","lat":"31.11058","category":"55","category_name":"中学","address":""},{"poiid":"B2094655D36DA2FE449E","title":"邱家桥","lon":"121.74231","lat":"31.13563","category":"250","category_name":"公园户外","address":""},{"poiid":"B2094655D264A4F9489E","title":"G1501闻居路收费站","lon":"121.76962","lat":"31.13378","category":"267","category_name":"收费站","address":""},{"poiid":"B2094654DB64ABFF4393","title":"科技大楼(金闻路)","lon":"121.77134","lat":"31.12266","category":"46","category_name":"楼宇","address":"金闻路26"},{"poiid":"B2094655D26EA1F9429F","title":"上海刚杰服饰有限公司","lon":"121.76273","lat":"31.13414","category":"263","category_name":"公司","address":"川南奉公路4296"},{"poiid":"B2094655D36CA0FE4293","title":"金亭公路千汇路","lon":"121.76668","lat":"31.11177","category":"38","category_name":"公交车站","address":""},{"poiid":"B2094655D36CA7FA459C","title":"航城五路施湾二路","lon":"121.75008","lat":"31.14325","category":"38","category_name":"公交车站","address":""}]