[{"poiid":"B2094757D06FA0F8409E","title":"上海海事大学","lon":"121.54098","lat":"31.242395","category":"671","category_name":"高校中心点","address":"浦东新区浦东大道1550号上海海事大学院内(近民生路)"},{"poiid":"B2094757D468A6F54999","title":"二子龙虾 栖山路店","lon":"121.542679054","lat":"31.242488793","category":"68","category_name":"快餐厅","address":"浦东新区栖山路50号(近民生路)"},{"poiid":"B2094757D06FABFC409B","title":"张杨路民生路","lon":"121.544163704","lat":"31.2360301375","category":"500","category_name":"未知分类","address":"上海市浦东新区张杨路民生路"},{"poiid":"B2094757D06FA6F94692","title":"上海市医药学校","lon":"121.54008","lat":"31.2359","category":"500","category_name":"未知分类","address":"浦东新区沈家弄路700号(近源深体育场)"},{"poiid":"B2094757D06FA5F8479A","title":"汤豪仕汤馆(民生店)","lon":"121.54043","lat":"31.23834","category":"76","category_name":"上海菜","address":"浦东新区商城路2128号(近民生路)"},{"poiid":"B2094757D06FA1FF439E","title":"民生路地铁站","lon":"121.542912661","lat":"31.2356123472","category":"36","category_name":"地铁站","address":"上海轨道交通 六号线 轨交民生路站 6"},{"poiid":"B2094757D068A5F44598","title":"船长高尔夫","lon":"121.53754","lat":"31.23753","category":"206","category_name":"高尔夫相关","address":"浦东新区商城路1860号(桃林路口)"},{"poiid":"B2094757D06AA6F54999","title":"印度小厨(浦东店)","lon":"121.54252","lat":"31.23881","category":"102","category_name":"印度风味","address":"浦东新区民生路480号(商城路口)"},{"poiid":"B2094757D065A7F44498","title":"爱康国宾","lon":"121.537822","lat":"31.237644","category":"902","category_name":"楼宇机构","address":"上海商城路1900号"},{"poiid":"B2094654DA68ABF8459F","title":"鼓浪屿休闲浴场","lon":"121.54085","lat":"31.23552","category":"149","category_name":"洗浴推拿场所","address":"张杨路1657"},{"poiid":"B2094654DA68ABFF489B","title":"上海市第二轻工业学校","lon":"121.53842","lat":"31.23609","category":"54","category_name":"职业技术学校","address":"浦东新区沈家弄路650号"},{"poiid":"B2094654DA69ABF5489C","title":"嘉瑞酒店","lon":"121.542","lat":"31.2346","category":"214","category_name":"四星级宾馆","address":"浦东新区潍坊路328号(潍坊路源深路)"},{"poiid":"B2094654DA68ABFF4399","title":"船研大厦","lon":"121.54187","lat":"31.23891","category":"46","category_name":"楼宇","address":"闸北区江场西路38号(近共和新路)"},{"poiid":"B2094757D16DA2FA4699","title":"民生路栖山路","lon":"121.54128464","lat":"31.243066869","category":"500","category_name":"未知分类","address":"上海民生路栖山路路口"},{"poiid":"B2094757D068A0F94192","title":"阿英煲 民生路店","lon":"121.542073054","lat":"31.239555793","category":"260","category_name":"其他","address":"浦东新区商城路2151号(民生路口)"},{"poiid":"B2094654DB6BABF44498","title":"上海市环境学校","lon":"121.53858","lat":"31.23765","category":"54","category_name":"职业技术学校","address":"商城路1980"},{"poiid":"B2094757D06FABFF429A","title":"山水国际(陆家嘴美丽苑)","lon":"121.542354","lat":"31.233936","category":"500","category_name":"未知分类","address":"上海羽山路383弄"},{"poiid":"B2094757D168A2FF489F","title":"雅弗源养生中心","lon":"121.54144873","lat":"31.239282493","category":"500","category_name":"未知分类","address":"浦东新区商城路2120号(近民生路)"},{"poiid":"B2094757D16FA6FE439E","title":"高恒大厦","lon":"121.541544078","lat":"31.2419453798","category":"252","category_name":"楼宇机构","address":"上海浦东大道1608号"},{"poiid":"B2094654DA68ABFA419A","title":"上海市泾南中学","lon":"121.54187","lat":"31.24162","category":"55","category_name":"中学","address":"浦东新区民生路303号(民生路栖山路)"},{"poiid":"B2094654DA68ABFF499D","title":"金桃大厦","lon":"121.53782","lat":"31.23764","category":"46","category_name":"楼宇","address":"普陀区宜昌路88号梦清园公园内"},{"poiid":"B2094757D06AABF8499C","title":"1758龙虾王","lon":"121.541451054","lat":"31.242051793","category":"68","category_name":"快餐厅","address":"浦东新区栖山路12号(近民生路)"},{"poiid":"B2094757D068ABFE4399","title":"西域郎烧烤(栖山路店)","lon":"121.54273","lat":"31.2419","category":"68","category_name":"快餐厅","address":"浦东新区栖山路48号(近民生路)"},{"poiid":"B2094750D665ABFB439A","title":"金湘缘","lon":"121.54","lat":"31.2379","category":"77","category_name":"湖南菜","address":"浦东新区栖山路153号(近巨野路)"},{"poiid":"B2094654DB6BABF44393","title":"锦江之星(民生路店)","lon":"121.54267","lat":"31.23818","category":"216","category_name":"经济型连锁酒店","address":"浦东新区民生路606号(近沈家弄路)"},{"poiid":"B2094753DA6FA7FD469A","title":"四川香天下火锅（陆家嘴店）","lon":"121.537597","lat":"31.239873","category":"247","category_name":"餐饮美食","address":"上海市 浦东大道1108号"},{"poiid":"B2094757D16EA3FB459E","title":"上海船舶运输科学研究所","lon":"121.540933701","lat":"31.2377258432","category":"500","category_name":"未知分类","address":"上海浦东新区民生路600号"},{"poiid":"B2094654DA68ABFF479E","title":"上海市医药学校(沈家弄路)","lon":"121.53976","lat":"31.23659","category":"54","category_name":"职业技术学校","address":"沈家弄路700号"},{"poiid":"B2094757D56CA2FA439C","title":"鼓浪屿","lon":"121.54076346374","lat":"31.235272760666","category":"247","category_name":"餐饮美食","address":"浦东新区张杨路1657号鼓浪屿休闲浴场2楼(近民生路)"},{"poiid":"B2094757D66BA3F84793","title":"食知味龙虾馆 栖山路店","lon":"121.54153382439","lat":"31.242334441884","category":"68","category_name":"快餐厅","address":"浦东新区栖山路36号(近民生路)"},{"poiid":"B2094655D26BA2F4449E","title":"栖山路民生路","lon":"121.54126","lat":"31.23929","category":"38","category_name":"公交车站","address":""},{"poiid":"B2094757D16CA2FF489C","title":"广东祥记蚝庄(栖山路店)","lon":"121.5416","lat":"31.24159","category":"68","category_name":"快餐厅","address":"浦东新区栖山路12号(近民生路)"},{"poiid":"B2094654DB69AAF9499D","title":"宁波汉通酒店","lon":"121.53834","lat":"31.2347","category":"247","category_name":"餐饮美食","address":"上海市浦东新区张杨路1587号八方大厦2楼(近桃林路)"},{"poiid":"B2094655D36CA2FB4992","title":"商城路民生路(临时站)","lon":"121.54165","lat":"31.23943","category":"38","category_name":"公交车站","address":""},{"poiid":"B2094757D065A3F9429C","title":"民办福山正达外国语小学","lon":"121.543546738","lat":"31.2392314919","category":"500","category_name":"未知分类","address":"浦东新区沈家弄路870弄1号(近民生路)"},{"poiid":"B2094654DA68ABF8439A","title":"快客(宜嘉商务楼西)","lon":"121.53923","lat":"31.23824","category":"117","category_name":"便民商店/便利店","address":"商城路2000号107室"},{"poiid":"B2094654DB6BABF44499","title":"商城商务楼","lon":"121.53889","lat":"31.23808","category":"46","category_name":"楼宇","address":"商城路1986号"},{"poiid":"B2094753D668A6FC429E","title":"汉庭酒店(上海陆家嘴民生路店)","lon":"121.541982","lat":"31.239267","category":"216","category_name":"经济型连锁酒店","address":"商城路2142号"},{"poiid":"B2094757D069A5FB4598","title":"蓝十字健康体检中心","lon":"121.53761","lat":"31.23741","category":"162","category_name":"医院","address":"上海浦东新区商城路1900号金桃大厦1-2楼"},{"poiid":"B2094654DA68ABFF429D","title":"招商银行上海分行行政管理中心","lon":"121.54187","lat":"31.23891","category":"150","category_name":"银行","address":"浦东新区民生路600号(近张杨路)"},{"poiid":"B2094757D16BAAFD499B","title":"妯娌老鸭粉丝馆","lon":"121.54022031","lat":"31.236971263","category":"247","category_name":"餐饮美食","address":"上海浦东新区源深路靠近乳山路"},{"poiid":"B2094654DA68ABF8459C","title":"桃林公寓","lon":"121.54067","lat":"31.235706","category":"47","category_name":"住宅区","address":"桃林公寓位于浦东张杨路1647弄"},{"poiid":"B2094654DA68ABF84393","title":"八方大酒店","lon":"121.53851","lat":"31.23477","category":"215","category_name":"三星级宾馆","address":"张杨路1587号(近桃林路)"},{"poiid":"B2094655D26BA1F94299","title":"民生路沈家弄路","lon":"121.54339","lat":"31.23762","category":"38","category_name":"公交车站","address":""},{"poiid":"B2094654DA68ABFF4692","title":"运昌商务楼","lon":"121.54235","lat":"31.23707","category":"46","category_name":"楼宇","address":"沈家弄路770"},{"poiid":"B2094750D76EA1FC459D","title":"新麦面馆","lon":"121.542","lat":"31.2392","category":"68","category_name":"快餐厅","address":"浦东新区商城路2128号(近民生路)"},{"poiid":"B2094757D568A5FA4893","title":"避风塘","lon":"121.5423581","lat":"31.237075","category":"68","category_name":"快餐厅","address":"沈家弄路770弄旁"},{"poiid":"B2094654DA68ABFF4992","title":"上海城市管理职业技术学院浦东分院","lon":"121.53857","lat":"31.23765","category":"52","category_name":"高等院校","address":"浦东新区商城路1980"},{"poiid":"B2094654DB64A5F8499A","title":"浦东理工大学网络教育学院医药教育中心","lon":"121.53993","lat":"31.23618","category":"52","category_name":"高等院校","address":"浦东新区沈家弄路700"},{"poiid":"B2094750D768A4FA4799","title":"达美乐比萨(张杨路店)","lon":"121.544","lat":"31.2356","category":"94","category_name":"西餐厅","address":"浦东新区张杨路1632号(近民生路)"},{"poiid":"B2094757D06FA0F8409E","title":"上海海事大学","lon":"121.54098","lat":"31.242395","category":"671","category_name":"高校中心点","address":"浦东新区浦东大道1550号上海海事大学院内(近民生路)"},{"poiid":"B2094757D468A6F54999","title":"二子龙虾 栖山路店","lon":"121.542679054","lat":"31.242488793","category":"68","category_name":"快餐厅","address":"浦东新区栖山路50号(近民生路)"},{"poiid":"B2094757D06FABFC409B","title":"张杨路民生路","lon":"121.544163704","lat":"31.2360301375","category":"500","category_name":"未知分类","address":"上海市浦东新区张杨路民生路"},{"poiid":"B2094757D06FA6F94692","title":"上海市医药学校","lon":"121.54008","lat":"31.2359","category":"500","category_name":"未知分类","address":"浦东新区沈家弄路700号(近源深体育场)"},{"poiid":"B2094757D06FA5F8479A","title":"汤豪仕汤馆(民生店)","lon":"121.54043","lat":"31.23834","category":"76","category_name":"上海菜","address":"浦东新区商城路2128号(近民生路)"},{"poiid":"B2094757D06FA1FF439E","title":"民生路地铁站","lon":"121.542912661","lat":"31.2356123472","category":"36","category_name":"地铁站","address":"上海轨道交通 六号线 轨交民生路站 6"},{"poiid":"B2094757D068A5F44598","title":"船长高尔夫","lon":"121.53754","lat":"31.23753","category":"206","category_name":"高尔夫相关","address":"浦东新区商城路1860号(桃林路口)"},{"poiid":"B2094757D06AA6F54999","title":"印度小厨(浦东店)","lon":"121.54252","lat":"31.23881","category":"102","category_name":"印度风味","address":"浦东新区民生路480号(商城路口)"},{"poiid":"B2094757D065A7F44498","title":"爱康国宾","lon":"121.537822","lat":"31.237644","category":"902","category_name":"楼宇机构","address":"上海商城路1900号"},{"poiid":"B2094654DA68ABF8459F","title":"鼓浪屿休闲浴场","lon":"121.54085","lat":"31.23552","category":"149","category_name":"洗浴推拿场所","address":"张杨路1657"},{"poiid":"B2094654DA68ABFF489B","title":"上海市第二轻工业学校","lon":"121.53842","lat":"31.23609","category":"54","category_name":"职业技术学校","address":"浦东新区沈家弄路650号"},{"poiid":"B2094654DA69ABF5489C","title":"嘉瑞酒店","lon":"121.542","lat":"31.2346","category":"214","category_name":"四星级宾馆","address":"浦东新区潍坊路328号(潍坊路源深路)"},{"poiid":"B2094654DA68ABFF4399","title":"船研大厦","lon":"121.54187","lat":"31.23891","category":"46","category_name":"楼宇","address":"闸北区江场西路38号(近共和新路)"},{"poiid":"B2094757D16DA2FA4699","title":"民生路栖山路","lon":"121.54128464","lat":"31.243066869","category":"500","category_name":"未知分类","address":"上海民生路栖山路路口"},{"poiid":"B2094757D068A0F94192","title":"阿英煲 民生路店","lon":"121.542073054","lat":"31.239555793","category":"260","category_name":"其他","address":"浦东新区商城路2151号(民生路口)"},{"poiid":"B2094654DB6BABF44498","title":"上海市环境学校","lon":"121.53858","lat":"31.23765","category":"54","category_name":"职业技术学校","address":"商城路1980"},{"poiid":"B2094757D06FABFF429A","title":"山水国际(陆家嘴美丽苑)","lon":"121.542354","lat":"31.233936","category":"500","category_name":"未知分类","address":"上海羽山路383弄"},{"poiid":"B2094757D168A2FF489F","title":"雅弗源养生中心","lon":"121.54144873","lat":"31.239282493","category":"500","category_name":"未知分类","address":"浦东新区商城路2120号(近民生路)"},{"poiid":"B2094757D16FA6FE439E","title":"高恒大厦","lon":"121.541544078","lat":"31.2419453798","category":"252","category_name":"楼宇机构","address":"上海浦东大道1608号"},{"poiid":"B2094654DA68ABFA419A","title":"上海市泾南中学","lon":"121.54187","lat":"31.24162","category":"55","category_name":"中学","address":"浦东新区民生路303号(民生路栖山路)"},{"poiid":"B2094654DA68ABFF499D","title":"金桃大厦","lon":"121.53782","lat":"31.23764","category":"46","category_name":"楼宇","address":"普陀区宜昌路88号梦清园公园内"},{"poiid":"B2094757D06AABF8499C","title":"1758龙虾王","lon":"121.541451054","lat":"31.242051793","category":"68","category_name":"快餐厅","address":"浦东新区栖山路12号(近民生路)"},{"poiid":"B2094757D068ABFE4399","title":"西域郎烧烤(栖山路店)","lon":"121.54273","lat":"31.2419","category":"68","category_name":"快餐厅","address":"浦东新区栖山路48号(近民生路)"},{"poiid":"B2094750D665ABFB439A","title":"金湘缘","lon":"121.54","lat":"31.2379","category":"77","category_name":"湖南菜","address":"浦东新区栖山路153号(近巨野路)"},{"poiid":"B2094654DB6BABF44393","title":"锦江之星(民生路店)","lon":"121.54267","lat":"31.23818","category":"216","category_name":"经济型连锁酒店","address":"浦东新区民生路606号(近沈家弄路)"},{"poiid":"B2094753DA6FA7FD469A","title":"四川香天下火锅（陆家嘴店）","lon":"121.537597","lat":"31.239873","category":"247","category_name":"餐饮美食","address":"上海市 浦东大道1108号"},{"poiid":"B2094757D16EA3FB459E","title":"上海船舶运输科学研究所","lon":"121.540933701","lat":"31.2377258432","category":"500","category_name":"未知分类","address":"上海浦东新区民生路600号"},{"poiid":"B2094654DA68ABFF479E","title":"上海市医药学校(沈家弄路)","lon":"121.53976","lat":"31.23659","category":"54","category_name":"职业技术学校","address":"沈家弄路700号"},{"poiid":"B2094757D56CA2FA439C","title":"鼓浪屿","lon":"121.54076346374","lat":"31.235272760666","category":"247","category_name":"餐饮美食","address":"浦东新区张杨路1657号鼓浪屿休闲浴场2楼(近民生路)"},{"poiid":"B2094757D66BA3F84793","title":"食知味龙虾馆 栖山路店","lon":"121.54153382439","lat":"31.242334441884","category":"68","category_name":"快餐厅","address":"浦东新区栖山路36号(近民生路)"},{"poiid":"B2094655D26BA2F4449E","title":"栖山路民生路","lon":"121.54126","lat":"31.23929","category":"38","category_name":"公交车站","address":""},{"poiid":"B2094757D16CA2FF489C","title":"广东祥记蚝庄(栖山路店)","lon":"121.5416","lat":"31.24159","category":"68","category_name":"快餐厅","address":"浦东新区栖山路12号(近民生路)"},{"poiid":"B2094654DB69AAF9499D","title":"宁波汉通酒店","lon":"121.53834","lat":"31.2347","category":"247","category_name":"餐饮美食","address":"上海市浦东新区张杨路1587号八方大厦2楼(近桃林路)"},{"poiid":"B2094655D36CA2FB4992","title":"商城路民生路(临时站)","lon":"121.54165","lat":"31.23943","category":"38","category_name":"公交车站","address":""},{"poiid":"B2094757D065A3F9429C","title":"民办福山正达外国语小学","lon":"121.543546738","lat":"31.2392314919","category":"500","category_name":"未知分类","address":"浦东新区沈家弄路870弄1号(近民生路)"},{"poiid":"B2094654DA68ABF8439A","title":"快客(宜嘉商务楼西)","lon":"121.53923","lat":"31.23824","category":"117","category_name":"便民商店/便利店","address":"商城路2000号107室"},{"poiid":"B2094654DB6BABF44499","title":"商城商务楼","lon":"121.53889","lat":"31.23808","category":"46","category_name":"楼宇","address":"商城路1986号"},{"poiid":"B2094753D668A6FC429E","title":"汉庭酒店(上海陆家嘴民生路店)","lon":"121.541982","lat":"31.239267","category":"216","category_name":"经济型连锁酒店","address":"商城路2142号"},{"poiid":"B2094757D069A5FB4598","title":"蓝十字健康体检中心","lon":"121.53761","lat":"31.23741","category":"162","category_name":"医院","address":"上海浦东新区商城路1900号金桃大厦1-2楼"},{"poiid":"B2094654DA68ABFF429D","title":"招商银行上海分行行政管理中心","lon":"121.54187","lat":"31.23891","category":"150","category_name":"银行","address":"浦东新区民生路600号(近张杨路)"},{"poiid":"B2094757D16BAAFD499B","title":"妯娌老鸭粉丝馆","lon":"121.54022031","lat":"31.236971263","category":"247","category_name":"餐饮美食","address":"上海浦东新区源深路靠近乳山路"},{"poiid":"B2094654DA68ABF8459C","title":"桃林公寓","lon":"121.54067","lat":"31.235706","category":"47","category_name":"住宅区","address":"桃林公寓位于浦东张杨路1647弄"},{"poiid":"B2094654DA68ABF84393","title":"八方大酒店","lon":"121.53851","lat":"31.23477","category":"215","category_name":"三星级宾馆","address":"张杨路1587号(近桃林路)"},{"poiid":"B2094655D26BA1F94299","title":"民生路沈家弄路","lon":"121.54339","lat":"31.23762","category":"38","category_name":"公交车站","address":""},{"poiid":"B2094654DA68ABFF4692","title":"运昌商务楼","lon":"121.54235","lat":"31.23707","category":"46","category_name":"楼宇","address":"沈家弄路770"},{"poiid":"B2094750D76EA1FC459D","title":"新麦面馆","lon":"121.542","lat":"31.2392","category":"68","category_name":"快餐厅","address":"浦东新区商城路2128号(近民生路)"},{"poiid":"B2094757D568A5FA4893","title":"避风塘","lon":"121.5423581","lat":"31.237075","category":"68","category_name":"快餐厅","address":"沈家弄路770弄旁"},{"poiid":"B2094654DA68ABFF4992","title":"上海城市管理职业技术学院浦东分院","lon":"121.53857","lat":"31.23765","category":"52","category_name":"高等院校","address":"浦东新区商城路1980"},{"poiid":"B2094654DB64A5F8499A","title":"浦东理工大学网络教育学院医药教育中心","lon":"121.53993","lat":"31.23618","category":"52","category_name":"高等院校","address":"浦东新区沈家弄路700"},{"poiid":"B2094750D768A4FA4799","title":"达美乐比萨(张杨路店)","lon":"121.544","lat":"31.2356","category":"94","category_name":"西餐厅","address":"浦东新区张杨路1632号(近民生路)"},{"poiid":"B2094757D06FA0F8409E","title":"上海海事大学","lon":"121.54098","lat":"31.242395","category":"671","category_name":"高校中心点","address":"浦东新区浦东大道1550号上海海事大学院内(近民生路)"},{"poiid":"B2094757D468A6F54999","title":"二子龙虾 栖山路店","lon":"121.542679054","lat":"31.242488793","category":"68","category_name":"快餐厅","address":"浦东新区栖山路50号(近民生路)"},{"poiid":"B2094757D06FABFC409B","title":"张杨路民生路","lon":"121.544163704","lat":"31.2360301375","category":"500","category_name":"未知分类","address":"上海市浦东新区张杨路民生路"},{"poiid":"B2094757D06FA6F94692","title":"上海市医药学校","lon":"121.54008","lat":"31.2359","category":"500","category_name":"未知分类","address":"浦东新区沈家弄路700号(近源深体育场)"},{"poiid":"B2094757D06FA5F8479A","title":"汤豪仕汤馆(民生店)","lon":"121.54043","lat":"31.23834","category":"76","category_name":"上海菜","address":"浦东新区商城路2128号(近民生路)"},{"poiid":"B2094757D06FA1FF439E","title":"民生路地铁站","lon":"121.542912661","lat":"31.2356123472","category":"36","category_name":"地铁站","address":"上海轨道交通 六号线 轨交民生路站 6"},{"poiid":"B2094757D068A5F44598","title":"船长高尔夫","lon":"121.53754","lat":"31.23753","category":"206","category_name":"高尔夫相关","address":"浦东新区商城路1860号(桃林路口)"},{"poiid":"B2094757D06AA6F54999","title":"印度小厨(浦东店)","lon":"121.54252","lat":"31.23881","category":"102","category_name":"印度风味","address":"浦东新区民生路480号(商城路口)"},{"poiid":"B2094757D065A7F44498","title":"爱康国宾","lon":"121.537822","lat":"31.237644","category":"902","category_name":"楼宇机构","address":"上海商城路1900号"},{"poiid":"B2094654DA68ABF8459F","title":"鼓浪屿休闲浴场","lon":"121.54085","lat":"31.23552","category":"149","category_name":"洗浴推拿场所","address":"张杨路1657"},{"poiid":"B2094654DA68ABFF489B","title":"上海市第二轻工业学校","lon":"121.53842","lat":"31.23609","category":"54","category_name":"职业技术学校","address":"浦东新区沈家弄路650号"},{"poiid":"B2094654DA69ABF5489C","title":"嘉瑞酒店","lon":"121.542","lat":"31.2346","category":"214","category_name":"四星级宾馆","address":"浦东新区潍坊路328号(潍坊路源深路)"},{"poiid":"B2094654DA68ABFF4399","title":"船研大厦","lon":"121.54187","lat":"31.23891","category":"46","category_name":"楼宇","address":"闸北区江场西路38号(近共和新路)"},{"poiid":"B2094757D16DA2FA4699","title":"民生路栖山路","lon":"121.54128464","lat":"31.243066869","category":"500","category_name":"未知分类","address":"上海民生路栖山路路口"},{"poiid":"B2094757D068A0F94192","title":"阿英煲 民生路店","lon":"121.542073054","lat":"31.239555793","category":"260","category_name":"其他","address":"浦东新区商城路2151号(民生路口)"},{"poiid":"B2094654DB6BABF44498","title":"上海市环境学校","lon":"121.53858","lat":"31.23765","category":"54","category_name":"职业技术学校","address":"商城路1980"},{"poiid":"B2094757D06FABFF429A","title":"山水国际(陆家嘴美丽苑)","lon":"121.542354","lat":"31.233936","category":"500","category_name":"未知分类","address":"上海羽山路383弄"},{"poiid":"B2094757D168A2FF489F","title":"雅弗源养生中心","lon":"121.54144873","lat":"31.239282493","category":"500","category_name":"未知分类","address":"浦东新区商城路2120号(近民生路)"},{"poiid":"B2094757D16FA6FE439E","title":"高恒大厦","lon":"121.541544078","lat":"31.2419453798","category":"252","category_name":"楼宇机构","address":"上海浦东大道1608号"},{"poiid":"B2094654DA68ABFA419A","title":"上海市泾南中学","lon":"121.54187","lat":"31.24162","category":"55","category_name":"中学","address":"浦东新区民生路303号(民生路栖山路)"},{"poiid":"B2094654DA68ABFF499D","title":"金桃大厦","lon":"121.53782","lat":"31.23764","category":"46","category_name":"楼宇","address":"普陀区宜昌路88号梦清园公园内"},{"poiid":"B2094757D06AABF8499C","title":"1758龙虾王","lon":"121.541451054","lat":"31.242051793","category":"68","category_name":"快餐厅","address":"浦东新区栖山路12号(近民生路)"},{"poiid":"B2094757D068ABFE4399","title":"西域郎烧烤(栖山路店)","lon":"121.54273","lat":"31.2419","category":"68","category_name":"快餐厅","address":"浦东新区栖山路48号(近民生路)"},{"poiid":"B2094750D665ABFB439A","title":"金湘缘","lon":"121.54","lat":"31.2379","category":"77","category_name":"湖南菜","address":"浦东新区栖山路153号(近巨野路)"},{"poiid":"B2094654DB6BABF44393","title":"锦江之星(民生路店)","lon":"121.54267","lat":"31.23818","category":"216","category_name":"经济型连锁酒店","address":"浦东新区民生路606号(近沈家弄路)"},{"poiid":"B2094753DA6FA7FD469A","title":"四川香天下火锅（陆家嘴店）","lon":"121.537597","lat":"31.239873","category":"247","category_name":"餐饮美食","address":"上海市 浦东大道1108号"},{"poiid":"B2094757D16EA3FB459E","title":"上海船舶运输科学研究所","lon":"121.540933701","lat":"31.2377258432","category":"500","category_name":"未知分类","address":"上海浦东新区民生路600号"},{"poiid":"B2094654DA68ABFF479E","title":"上海市医药学校(沈家弄路)","lon":"121.53976","lat":"31.23659","category":"54","category_name":"职业技术学校","address":"沈家弄路700号"},{"poiid":"B2094757D56CA2FA439C","title":"鼓浪屿","lon":"121.54076346374","lat":"31.235272760666","category":"247","category_name":"餐饮美食","address":"浦东新区张杨路1657号鼓浪屿休闲浴场2楼(近民生路)"},{"poiid":"B2094757D66BA3F84793","title":"食知味龙虾馆 栖山路店","lon":"121.54153382439","lat":"31.242334441884","category":"68","category_name":"快餐厅","address":"浦东新区栖山路36号(近民生路)"},{"poiid":"B2094655D26BA2F4449E","title":"栖山路民生路","lon":"121.54126","lat":"31.23929","category":"38","category_name":"公交车站","address":""},{"poiid":"B2094757D16CA2FF489C","title":"广东祥记蚝庄(栖山路店)","lon":"121.5416","lat":"31.24159","category":"68","category_name":"快餐厅","address":"浦东新区栖山路12号(近民生路)"},{"poiid":"B2094654DB69AAF9499D","title":"宁波汉通酒店","lon":"121.53834","lat":"31.2347","category":"247","category_name":"餐饮美食","address":"上海市浦东新区张杨路1587号八方大厦2楼(近桃林路)"},{"poiid":"B2094655D36CA2FB4992","title":"商城路民生路(临时站)","lon":"121.54165","lat":"31.23943","category":"38","category_name":"公交车站","address":""},{"poiid":"B2094757D065A3F9429C","title":"民办福山正达外国语小学","lon":"121.543546738","lat":"31.2392314919","category":"500","category_name":"未知分类","address":"浦东新区沈家弄路870弄1号(近民生路)"},{"poiid":"B2094654DA68ABF8439A","title":"快客(宜嘉商务楼西)","lon":"121.53923","lat":"31.23824","category":"117","category_name":"便民商店/便利店","address":"商城路2000号107室"},{"poiid":"B2094654DB6BABF44499","title":"商城商务楼","lon":"121.53889","lat":"31.23808","category":"46","category_name":"楼宇","address":"商城路1986号"},{"poiid":"B2094753D668A6FC429E","title":"汉庭酒店(上海陆家嘴民生路店)","lon":"121.541982","lat":"31.239267","category":"216","category_name":"经济型连锁酒店","address":"商城路2142号"},{"poiid":"B2094757D069A5FB4598","title":"蓝十字健康体检中心","lon":"121.53761","lat":"31.23741","category":"162","category_name":"医院","address":"上海浦东新区商城路1900号金桃大厦1-2楼"},{"poiid":"B2094654DA68ABFF429D","title":"招商银行上海分行行政管理中心","lon":"121.54187","lat":"31.23891","category":"150","category_name":"银行","address":"浦东新区民生路600号(近张杨路)"},{"poiid":"B2094757D16BAAFD499B","title":"妯娌老鸭粉丝馆","lon":"121.54022031","lat":"31.236971263","category":"247","category_name":"餐饮美食","address":"上海浦东新区源深路靠近乳山路"},{"poiid":"B2094654DA68ABF8459C","title":"桃林公寓","lon":"121.54067","lat":"31.235706","category":"47","category_name":"住宅区","address":"桃林公寓位于浦东张杨路1647弄"},{"poiid":"B2094654DA68ABF84393","title":"八方大酒店","lon":"121.53851","lat":"31.23477","category":"215","category_name":"三星级宾馆","address":"张杨路1587号(近桃林路)"},{"poiid":"B2094655D26BA1F94299","title":"民生路沈家弄路","lon":"121.54339","lat":"31.23762","category":"38","category_name":"公交车站","address":""},{"poiid":"B2094654DA68ABFF4692","title":"运昌商务楼","lon":"121.54235","lat":"31.23707","category":"46","category_name":"楼宇","address":"沈家弄路770"},{"poiid":"B2094750D76EA1FC459D","title":"新麦面馆","lon":"121.542","lat":"31.2392","category":"68","category_name":"快餐厅","address":"浦东新区商城路2128号(近民生路)"},{"poiid":"B2094757D568A5FA4893","title":"避风塘","lon":"121.5423581","lat":"31.237075","category":"68","category_name":"快餐厅","address":"沈家弄路770弄旁"},{"poiid":"B2094654DA68ABFF4992","title":"上海城市管理职业技术学院浦东分院","lon":"121.53857","lat":"31.23765","category":"52","category_name":"高等院校","address":"浦东新区商城路1980"},{"poiid":"B2094654DB64A5F8499A","title":"浦东理工大学网络教育学院医药教育中心","lon":"121.53993","lat":"31.23618","category":"52","category_name":"高等院校","address":"浦东新区沈家弄路700"},{"poiid":"B2094750D768A4FA4799","title":"达美乐比萨(张杨路店)","lon":"121.544","lat":"31.2356","category":"94","category_name":"西餐厅","address":"浦东新区张杨路1632号(近民生路)"},{"poiid":"B2094757D06FA0F8409E","title":"上海海事大学","lon":"121.54098","lat":"31.242395","category":"671","category_name":"高校中心点","address":"浦东新区浦东大道1550号上海海事大学院内(近民生路)"},{"poiid":"B2094757D468A6F54999","title":"二子龙虾 栖山路店","lon":"121.542679054","lat":"31.242488793","category":"68","category_name":"快餐厅","address":"浦东新区栖山路50号(近民生路)"},{"poiid":"B2094757D06FABFC409B","title":"张杨路民生路","lon":"121.544163704","lat":"31.2360301375","category":"500","category_name":"未知分类","address":"上海市浦东新区张杨路民生路"},{"poiid":"B2094757D06FA6F94692","title":"上海市医药学校","lon":"121.54008","lat":"31.2359","category":"500","category_name":"未知分类","address":"浦东新区沈家弄路700号(近源深体育场)"},{"poiid":"B2094757D06FA5F8479A","title":"汤豪仕汤馆(民生店)","lon":"121.54043","lat":"31.23834","category":"76","category_name":"上海菜","address":"浦东新区商城路2128号(近民生路)"},{"poiid":"B2094757D06FA1FF439E","title":"民生路地铁站","lon":"121.542912661","lat":"31.2356123472","category":"36","category_name":"地铁站","address":"上海轨道交通 六号线 轨交民生路站 6"},{"poiid":"B2094757D068A5F44598","title":"船长高尔夫","lon":"121.53754","lat":"31.23753","category":"206","category_name":"高尔夫相关","address":"浦东新区商城路1860号(桃林路口)"},{"poiid":"B2094757D06AA6F54999","title":"印度小厨(浦东店)","lon":"121.54252","lat":"31.23881","category":"102","category_name":"印度风味","address":"浦东新区民生路480号(商城路口)"},{"poiid":"B2094757D065A7F44498","title":"爱康国宾","lon":"121.537822","lat":"31.237644","category":"902","category_name":"楼宇机构","address":"上海商城路1900号"},{"poiid":"B2094654DA68ABF8459F","title":"鼓浪屿休闲浴场","lon":"121.54085","lat":"31.23552","category":"149","category_name":"洗浴推拿场所","address":"张杨路1657"},{"poiid":"B2094654DA68ABFF489B","title":"上海市第二轻工业学校","lon":"121.53842","lat":"31.23609","category":"54","category_name":"职业技术学校","address":"浦东新区沈家弄路650号"},{"poiid":"B2094654DA69ABF5489C","title":"嘉瑞酒店","lon":"121.542","lat":"31.2346","category":"214","category_name":"四星级宾馆","address":"浦东新区潍坊路328号(潍坊路源深路)"},{"poiid":"B2094654DA68ABFF4399","title":"船研大厦","lon":"121.54187","lat":"31.23891","category":"46","category_name":"楼宇","address":"闸北区江场西路38号(近共和新路)"},{"poiid":"B2094757D16DA2FA4699","title":"民生路栖山路","lon":"121.54128464","lat":"31.243066869","category":"500","category_name":"未知分类","address":"上海民生路栖山路路口"},{"poiid":"B2094757D068A0F94192","title":"阿英煲 民生路店","lon":"121.542073054","lat":"31.239555793","category":"260","category_name":"其他","address":"浦东新区商城路2151号(民生路口)"},{"poiid":"B2094654DB6BABF44498","title":"上海市环境学校","lon":"121.53858","lat":"31.23765","category":"54","category_name":"职业技术学校","address":"商城路1980"},{"poiid":"B2094757D06FABFF429A","title":"山水国际(陆家嘴美丽苑)","lon":"121.542354","lat":"31.233936","category":"500","category_name":"未知分类","address":"上海羽山路383弄"},{"poiid":"B2094757D168A2FF489F","title":"雅弗源养生中心","lon":"121.54144873","lat":"31.239282493","category":"500","category_name":"未知分类","address":"浦东新区商城路2120号(近民生路)"},{"poiid":"B2094757D16FA6FE439E","title":"高恒大厦","lon":"121.541544078","lat":"31.2419453798","category":"252","category_name":"楼宇机构","address":"上海浦东大道1608号"},{"poiid":"B2094654DA68ABFA419A","title":"上海市泾南中学","lon":"121.54187","lat":"31.24162","category":"55","category_name":"中学","address":"浦东新区民生路303号(民生路栖山路)"},{"poiid":"B2094654DA68ABFF499D","title":"金桃大厦","lon":"121.53782","lat":"31.23764","category":"46","category_name":"楼宇","address":"普陀区宜昌路88号梦清园公园内"},{"poiid":"B2094757D06AABF8499C","title":"1758龙虾王","lon":"121.541451054","lat":"31.242051793","category":"68","category_name":"快餐厅","address":"浦东新区栖山路12号(近民生路)"},{"poiid":"B2094757D068ABFE4399","title":"西域郎烧烤(栖山路店)","lon":"121.54273","lat":"31.2419","category":"68","category_name":"快餐厅","address":"浦东新区栖山路48号(近民生路)"},{"poiid":"B2094750D665ABFB439A","title":"金湘缘","lon":"121.54","lat":"31.2379","category":"77","category_name":"湖南菜","address":"浦东新区栖山路153号(近巨野路)"},{"poiid":"B2094654DB6BABF44393","title":"锦江之星(民生路店)","lon":"121.54267","lat":"31.23818","category":"216","category_name":"经济型连锁酒店","address":"浦东新区民生路606号(近沈家弄路)"},{"poiid":"B2094753DA6FA7FD469A","title":"四川香天下火锅（陆家嘴店）","lon":"121.537597","lat":"31.239873","category":"247","category_name":"餐饮美食","address":"上海市 浦东大道1108号"},{"poiid":"B2094757D16EA3FB459E","title":"上海船舶运输科学研究所","lon":"121.540933701","lat":"31.2377258432","category":"500","category_name":"未知分类","address":"上海浦东新区民生路600号"},{"poiid":"B2094654DA68ABFF479E","title":"上海市医药学校(沈家弄路)","lon":"121.53976","lat":"31.23659","category":"54","category_name":"职业技术学校","address":"沈家弄路700号"},{"poiid":"B2094757D56CA2FA439C","title":"鼓浪屿","lon":"121.54076346374","lat":"31.235272760666","category":"247","category_name":"餐饮美食","address":"浦东新区张杨路1657号鼓浪屿休闲浴场2楼(近民生路)"},{"poiid":"B2094757D66BA3F84793","title":"食知味龙虾馆 栖山路店","lon":"121.54153382439","lat":"31.242334441884","category":"68","category_name":"快餐厅","address":"浦东新区栖山路36号(近民生路)"},{"poiid":"B2094655D26BA2F4449E","title":"栖山路民生路","lon":"121.54126","lat":"31.23929","category":"38","category_name":"公交车站","address":""},{"poiid":"B2094757D16CA2FF489C","title":"广东祥记蚝庄(栖山路店)","lon":"121.5416","lat":"31.24159","category":"68","category_name":"快餐厅","address":"浦东新区栖山路12号(近民生路)"},{"poiid":"B2094654DB69AAF9499D","title":"宁波汉通酒店","lon":"121.53834","lat":"31.2347","category":"247","category_name":"餐饮美食","address":"上海市浦东新区张杨路1587号八方大厦2楼(近桃林路)"},{"poiid":"B2094655D36CA2FB4992","title":"商城路民生路(临时站)","lon":"121.54165","lat":"31.23943","category":"38","category_name":"公交车站","address":""},{"poiid":"B2094757D065A3F9429C","title":"民办福山正达外国语小学","lon":"121.543546738","lat":"31.2392314919","category":"500","category_name":"未知分类","address":"浦东新区沈家弄路870弄1号(近民生路)"},{"poiid":"B2094654DA68ABF8439A","title":"快客(宜嘉商务楼西)","lon":"121.53923","lat":"31.23824","category":"117","category_name":"便民商店/便利店","address":"商城路2000号107室"},{"poiid":"B2094654DB6BABF44499","title":"商城商务楼","lon":"121.53889","lat":"31.23808","category":"46","category_name":"楼宇","address":"商城路1986号"},{"poiid":"B2094753D668A6FC429E","title":"汉庭酒店(上海陆家嘴民生路店)","lon":"121.541982","lat":"31.239267","category":"216","category_name":"经济型连锁酒店","address":"商城路2142号"},{"poiid":"B2094757D069A5FB4598","title":"蓝十字健康体检中心","lon":"121.53761","lat":"31.23741","category":"162","category_name":"医院","address":"上海浦东新区商城路1900号金桃大厦1-2楼"},{"poiid":"B2094654DA68ABFF429D","title":"招商银行上海分行行政管理中心","lon":"121.54187","lat":"31.23891","category":"150","category_name":"银行","address":"浦东新区民生路600号(近张杨路)"},{"poiid":"B2094757D16BAAFD499B","title":"妯娌老鸭粉丝馆","lon":"121.54022031","lat":"31.236971263","category":"247","category_name":"餐饮美食","address":"上海浦东新区源深路靠近乳山路"},{"poiid":"B2094654DA68ABF8459C","title":"桃林公寓","lon":"121.54067","lat":"31.235706","category":"47","category_name":"住宅区","address":"桃林公寓位于浦东张杨路1647弄"},{"poiid":"B2094654DA68ABF84393","title":"八方大酒店","lon":"121.53851","lat":"31.23477","category":"215","category_name":"三星级宾馆","address":"张杨路1587号(近桃林路)"},{"poiid":"B2094655D26BA1F94299","title":"民生路沈家弄路","lon":"121.54339","lat":"31.23762","category":"38","category_name":"公交车站","address":""},{"poiid":"B2094654DA68ABFF4692","title":"运昌商务楼","lon":"121.54235","lat":"31.23707","category":"46","category_name":"楼宇","address":"沈家弄路770"},{"poiid":"B2094750D76EA1FC459D","title":"新麦面馆","lon":"121.542","lat":"31.2392","category":"68","category_name":"快餐厅","address":"浦东新区商城路2128号(近民生路)"},{"poiid":"B2094757D568A5FA4893","title":"避风塘","lon":"121.5423581","lat":"31.237075","category":"68","category_name":"快餐厅","address":"沈家弄路770弄旁"},{"poiid":"B2094654DA68ABFF4992","title":"上海城市管理职业技术学院浦东分院","lon":"121.53857","lat":"31.23765","category":"52","category_name":"高等院校","address":"浦东新区商城路1980"},{"poiid":"B2094654DB64A5F8499A","title":"浦东理工大学网络教育学院医药教育中心","lon":"121.53993","lat":"31.23618","category":"52","category_name":"高等院校","address":"浦东新区沈家弄路700"},{"poiid":"B2094750D768A4FA4799","title":"达美乐比萨(张杨路店)","lon":"121.544","lat":"31.2356","category":"94","category_name":"西餐厅","address":"浦东新区张杨路1632号(近民生路)"}]