[{"poiid":"B2094654D56BA3FC4492","title":"百联中环购物广场","lon":"121.39","lat":"31.2514","category":"119","category_name":"商场","address":"普陀区真光路1288号百联购物广场内(近梅川路)"},{"poiid":"B2094757D06FA3FE419B","title":"普陀区图书馆","lon":"121.39705524842736","lat":"31.251366379011127","category":"181","category_name":"图书馆","address":"普陀区铜川路1280号(近大渡河路)"},{"poiid":"B2094757D06FA0FB4999","title":"普陀区人民政府","lon":"121.396481784","lat":"31.2495622802","category":"252","category_name":"楼宇机构","address":"上海普陀区大渡河路1668号"},{"poiid":"B2094757D06EABF54898","title":"武宁路大渡河路","lon":"121.396488","lat":"31.246277","category":"38","category_name":"公交车站","address":"上海武宁路大渡河路"},{"poiid":"B2094757D06FA5F94798","title":"苏武牧羊(普陀店)","lon":"121.39745","lat":"31.24777","category":"86","category_name":"火锅店","address":"普陀区大渡河路1558号(近北石路)"},{"poiid":"B2094655D36CA5FC479D","title":"大渡河路北石路","lon":"121.39721","lat":"31.24791","category":"38","category_name":"公交车站","address":"上海大渡河路北石路"},{"poiid":"B2094757D068A1FF4192","title":"普陀区税务局","lon":"121.394380281","lat":"31.2493238773","category":"252","category_name":"楼宇机构","address":"上海普陀区北石路579号"},{"poiid":"B2094654D56BA4FD479F","title":"海上名庭","lon":"121.39221","lat":"31.243805","category":"47","category_name":"住宅区","address":"梅岭北路1258弄1-99号"},{"poiid":"B2094757D068AAFE4899","title":"上海市普陀区人民法院","lon":"121.392296","lat":"31.251391","category":"608","category_name":"法院","address":"上海市普陀区铜川路1472号"},{"poiid":"B2094757D16EA7FB479A","title":"波黎露(百联中环店)","lon":"121.390805586","lat":"31.2436804942","category":"94","category_name":"西餐厅","address":"普陀区真光路1288号百联中环B区3楼(近梅川路)"},{"poiid":"B2094757D06AA4F54099","title":"潮汕庄","lon":"121.397329","lat":"31.248326","category":"86","category_name":"火锅店","address":"普陀区大渡河路1625号(近北石路)"},{"poiid":"B2094654D465A6FD4193","title":"海棠苑","lon":"121.39087","lat":"31.24982","category":"47","category_name":"住宅区","address":"棕榈路300弄1-75"},{"poiid":"B2094757D165A6FA4293","title":"长风公园海底世界","lon":"121.39705058","lat":"31.245754734","category":"196","category_name":"公园","address":"上海市普陀区北石路"},{"poiid":"B2094751D56AA1FD449D","title":"谈阿姨炸猪排","lon":"121.3921658502795","lat":"31.24863703506036","category":"247","category_name":"餐饮美食","address":"铜川路万镇路"},{"poiid":"B2094757D06FA5F4499D","title":"绿洲公寓","lon":"121.39385","lat":"31.252184","category":"47","category_name":"住宅区","address":"上海市普陀区铜川路1422弄44号"},{"poiid":"B2094654D465A6FC4499","title":"樱花苑","lon":"121.39289","lat":"31.24876","category":"47","category_name":"住宅区","address":"静安区陕西南路(复兴中路陕西南路)"},{"poiid":"B2094757D168A6FA429F","title":"别克名流4S店","lon":"121.39515795","lat":"31.251129699","category":"500","category_name":"未知分类","address":"上海市普陀区真北路1366号"},{"poiid":"B2094654D464AAF8469B","title":"上海安吉名世凯迪拉克","lon":"121.39595","lat":"31.25106","category":"158","category_name":"汽车销售","address":"普陀区铜川路1288号(靖边路铜川路)"},{"poiid":"B2094654DB6AABFF4398","title":"锦江之星(真北店)","lon":"121.39112","lat":"31.25214","category":"216","category_name":"经济型连锁酒店","address":"普陀区真北路2051号(近铜川路)"},{"poiid":"B2094757D16AA1FF409F","title":"红星世贸大厦","lon":"121.39256181928","lat":"31.243826936363","category":"252","category_name":"楼宇机构","address":"上海怒江北路598号"},{"poiid":"B2094655D26BA2FC439C","title":"武宁路真北路","lon":"121.39005","lat":"31.24633","category":"38","category_name":"公交车站","address":"上海市武宁路真北路"},{"poiid":"B2094751D464A6FE449A","title":"上山下乡知青火锅","lon":"121.39691","lat":"31.24574","category":"86","category_name":"火锅店","address":"普陀区兰溪路201号第一酒市6楼(近武宁路)"},{"poiid":"B2094654D56BA3F94092","title":"上海申普宠物医院","lon":"121.39752","lat":"31.24627","category":"162","category_name":"医院","address":"普陀区大渡河路1545号(近武宁路)"},{"poiid":"B2094757DB6DA5FC479B","title":"上海映像戴斯大酒店\\t","lon":"121.391724","lat":"31.251577","category":"214","category_name":"四星级宾馆","address":"上海市普陀区真北路2022号(近铜川路)。"},{"poiid":"B2094757D06FA7FF4292","title":"曹安路农贸市场","lon":"121.39717","lat":"31.24498","category":"500","category_name":"未知分类","address":"普陀区武宁路2255号(大渡河路武宁路)"},{"poiid":"B2094654D465A6FC4593","title":"阳光商务大厦","lon":"121.39682","lat":"31.2502","category":"46","category_name":"楼宇","address":"闵行区七莘路联明路"},{"poiid":"B2094757D068AAF54999","title":"重庆德庄火锅(普陀店)","lon":"121.39715","lat":"31.24742","category":"86","category_name":"火锅店","address":"上海普陀区大渡河路1603号久良财富广场1楼(近北石路)  "},{"poiid":"B2094757D069A5FF449E","title":"宁馨家园","lon":"121.39222","lat":"31.247187","category":"47","category_name":"住宅区","address":"上海市浦东新区花木路1883弄"},{"poiid":"B2094655D26FA5FC429E","title":"真西新村第二小区","lon":"121.39331","lat":"31.246763","category":"47","category_name":"住宅区","address":"普陀区北石路1550弄160支弄真西新村9号居委会(近苏武牧)"},{"poiid":"B2094757D16AA1FE449B","title":"大渡河路","lon":"121.39415058","lat":"31.245613732","category":"500","category_name":"未知分类","address":"上海市普陀区大渡河路1550弄90支弄"},{"poiid":"B2094654D56BA4FD4598","title":"上海市普陀区疾病预防控制中心","lon":"121.39037","lat":"31.24439","category":"162","category_name":"医院","address":"丹巴路1628号"},{"poiid":"B2094757D168A3F9499C","title":"巴黎贝甜(乐天玛特店)","lon":"121.397437486","lat":"31.245048521","category":"67","category_name":"甜品店","address":"普陀区杨柳青路768号乐天玛特超市1楼(近武宁路)"},{"poiid":"B2094751D56DA2F84198","title":"红宝石(大渡河路店)","lon":"121.3971","lat":"31.24719","category":"67","category_name":"甜品店","address":"普陀区大渡河路1550弄(近武宁路)"},{"poiid":"B2094654DB6BA7FE4493","title":"海堂苑(武宁路南门)","lon":"121.39063","lat":"31.24685","category":"47","category_name":"住宅区","address":"真北路1902弄"},{"poiid":"B2094655D26CABF94298","title":"上海市普陀区食品药品监督所","lon":"121.39357","lat":"31.24746","category":"250","category_name":"公园户外","address":""},{"poiid":"B2094654D465A6FC499B","title":"铜川学校","lon":"121.39197","lat":"31.25077","category":"56","category_name":"小学","address":"普陀区北石路610弄28号(近铜川路)"},{"poiid":"B2094757D069A0FE4199","title":"上海通用雪佛兰安吉名门汽车服务有限公司","lon":"121.395959","lat":"31.251062","category":"500","category_name":"未知分类","address":"上海铜川路1288号"},{"poiid":"B2094655D26CABF94593","title":"舒庭苑","lon":"121.39369","lat":"31.24785","category":"47","category_name":"住宅区","address":"北石路500弄30号"},{"poiid":"B2094757D06AA2FC449E","title":"金盟豪海鲜大酒楼","lon":"121.39387","lat":"31.24203","category":"75","category_name":"浙江菜","address":"普陀区中江路1277号(近梅川路)"},{"poiid":"B2094655D26DA3FE4293","title":"真如镇社区卫生服务中心","lon":"121.39818","lat":"31.24679","category":"162","category_name":"医院","address":"上海普陀区大渡河路真如西村115号"},{"poiid":"B2094655D26EA2FB4993","title":"舒庭苑(北门)","lon":"121.39366","lat":"31.24808","category":"47","category_name":"住宅区","address":"北石路500弄30号"},{"poiid":"B2094654D56BA3F9419B","title":"久良财富休闲广场","lon":"121.39762","lat":"31.24669","category":"201","category_name":"城市广场","address":"普陀区大渡河路1501号"},{"poiid":"B2094654D56BA5F44298","title":"贵州黑竹笋香鸡干锅","lon":"121.39426","lat":"31.24736","category":"83","category_name":"云贵菜","address":"大渡河路1550弄98号(进曹安路)"},{"poiid":"B2094757D069A1FD479C","title":"上海市工商局行政管理局普陀分局","lon":"121.394478","lat":"31.250374","category":"260","category_name":"其他","address":"上海北石路631号"},{"poiid":"B2094757D068A6F84393","title":"索福德足球世界(沪西体育宫店)","lon":"121.39667","lat":"31.24928","category":"220","category_name":"运动场所","address":"普陀区大渡河路1860号沪西体育宫内(近铜川路)"},{"poiid":"B2094654D56BA5F4419C","title":"快客No.1333","lon":"121.39472","lat":"31.2472","category":"117","category_name":"便民商店/便利店","address":"真如镇"},{"poiid":"B2094757D06AA4FF4498","title":"花园鱼庄（原四川花园）(大渡河路店)","lon":"121.39785","lat":"31.2486","category":"71","category_name":"四川菜","address":"普陀区大渡河路1653号(近北石路)"},{"poiid":"B2094655D26CA0FB489C","title":"上海市普陀区卫生局卫生监督所","lon":"121.39353","lat":"31.24815","category":"250","category_name":"公园户外","address":"北石路540弄30号"},{"poiid":"B2094655D26FA0FD489A","title":"樱花苑(东门)","lon":"121.39379","lat":"31.24885","category":"47","category_name":"住宅区","address":"北石路540弄、610弄"},{"poiid":"B2094757D06BA6FE499F","title":"只有时间是解药","lon":"121.39368958","lat":"31.245563731","category":"245","category_name":"教堂","address":"上海梅岭北路中江路"},{"poiid":"B2094654D56BA3FC4492","title":"百联中环购物广场","lon":"121.39","lat":"31.2514","category":"119","category_name":"商场","address":"普陀区真光路1288号百联购物广场内(近梅川路)"},{"poiid":"B2094757D06FA3FE419B","title":"普陀区图书馆","lon":"121.39705524842736","lat":"31.251366379011127","category":"181","category_name":"图书馆","address":"普陀区铜川路1280号(近大渡河路)"},{"poiid":"B2094757D06FA0FB4999","title":"普陀区人民政府","lon":"121.396481784","lat":"31.2495622802","category":"252","category_name":"楼宇机构","address":"上海普陀区大渡河路1668号"},{"poiid":"B2094757D06EABF54898","title":"武宁路大渡河路","lon":"121.396488","lat":"31.246277","category":"38","category_name":"公交车站","address":"上海武宁路大渡河路"},{"poiid":"B2094757D06FA5F94798","title":"苏武牧羊(普陀店)","lon":"121.39745","lat":"31.24777","category":"86","category_name":"火锅店","address":"普陀区大渡河路1558号(近北石路)"},{"poiid":"B2094655D36CA5FC479D","title":"大渡河路北石路","lon":"121.39721","lat":"31.24791","category":"38","category_name":"公交车站","address":"上海大渡河路北石路"},{"poiid":"B2094757D068A1FF4192","title":"普陀区税务局","lon":"121.394380281","lat":"31.2493238773","category":"252","category_name":"楼宇机构","address":"上海普陀区北石路579号"},{"poiid":"B2094654D56BA4FD479F","title":"海上名庭","lon":"121.39221","lat":"31.243805","category":"47","category_name":"住宅区","address":"梅岭北路1258弄1-99号"},{"poiid":"B2094757D068AAFE4899","title":"上海市普陀区人民法院","lon":"121.392296","lat":"31.251391","category":"608","category_name":"法院","address":"上海市普陀区铜川路1472号"},{"poiid":"B2094757D16EA7FB479A","title":"波黎露(百联中环店)","lon":"121.390805586","lat":"31.2436804942","category":"94","category_name":"西餐厅","address":"普陀区真光路1288号百联中环B区3楼(近梅川路)"},{"poiid":"B2094757D06AA4F54099","title":"潮汕庄","lon":"121.397329","lat":"31.248326","category":"86","category_name":"火锅店","address":"普陀区大渡河路1625号(近北石路)"},{"poiid":"B2094654D465A6FD4193","title":"海棠苑","lon":"121.39087","lat":"31.24982","category":"47","category_name":"住宅区","address":"棕榈路300弄1-75"},{"poiid":"B2094757D165A6FA4293","title":"长风公园海底世界","lon":"121.39705058","lat":"31.245754734","category":"196","category_name":"公园","address":"上海市普陀区北石路"},{"poiid":"B2094751D56AA1FD449D","title":"谈阿姨炸猪排","lon":"121.3921658502795","lat":"31.24863703506036","category":"247","category_name":"餐饮美食","address":"铜川路万镇路"},{"poiid":"B2094757D06FA5F4499D","title":"绿洲公寓","lon":"121.39385","lat":"31.252184","category":"47","category_name":"住宅区","address":"上海市普陀区铜川路1422弄44号"},{"poiid":"B2094654D465A6FC4499","title":"樱花苑","lon":"121.39289","lat":"31.24876","category":"47","category_name":"住宅区","address":"静安区陕西南路(复兴中路陕西南路)"},{"poiid":"B2094757D168A6FA429F","title":"别克名流4S店","lon":"121.39515795","lat":"31.251129699","category":"500","category_name":"未知分类","address":"上海市普陀区真北路1366号"},{"poiid":"B2094654D464AAF8469B","title":"上海安吉名世凯迪拉克","lon":"121.39595","lat":"31.25106","category":"158","category_name":"汽车销售","address":"普陀区铜川路1288号(靖边路铜川路)"},{"poiid":"B2094654DB6AABFF4398","title":"锦江之星(真北店)","lon":"121.39112","lat":"31.25214","category":"216","category_name":"经济型连锁酒店","address":"普陀区真北路2051号(近铜川路)"},{"poiid":"B2094757D16AA1FF409F","title":"红星世贸大厦","lon":"121.39256181928","lat":"31.243826936363","category":"252","category_name":"楼宇机构","address":"上海怒江北路598号"},{"poiid":"B2094655D26BA2FC439C","title":"武宁路真北路","lon":"121.39005","lat":"31.24633","category":"38","category_name":"公交车站","address":"上海市武宁路真北路"},{"poiid":"B2094751D464A6FE449A","title":"上山下乡知青火锅","lon":"121.39691","lat":"31.24574","category":"86","category_name":"火锅店","address":"普陀区兰溪路201号第一酒市6楼(近武宁路)"},{"poiid":"B2094654D56BA3F94092","title":"上海申普宠物医院","lon":"121.39752","lat":"31.24627","category":"162","category_name":"医院","address":"普陀区大渡河路1545号(近武宁路)"},{"poiid":"B2094757DB6DA5FC479B","title":"上海映像戴斯大酒店\\t","lon":"121.391724","lat":"31.251577","category":"214","category_name":"四星级宾馆","address":"上海市普陀区真北路2022号(近铜川路)。"},{"poiid":"B2094757D06FA7FF4292","title":"曹安路农贸市场","lon":"121.39717","lat":"31.24498","category":"500","category_name":"未知分类","address":"普陀区武宁路2255号(大渡河路武宁路)"},{"poiid":"B2094654D465A6FC4593","title":"阳光商务大厦","lon":"121.39682","lat":"31.2502","category":"46","category_name":"楼宇","address":"闵行区七莘路联明路"},{"poiid":"B2094757D068AAF54999","title":"重庆德庄火锅(普陀店)","lon":"121.39715","lat":"31.24742","category":"86","category_name":"火锅店","address":"上海普陀区大渡河路1603号久良财富广场1楼(近北石路)  "},{"poiid":"B2094757D069A5FF449E","title":"宁馨家园","lon":"121.39222","lat":"31.247187","category":"47","category_name":"住宅区","address":"上海市浦东新区花木路1883弄"},{"poiid":"B2094655D26FA5FC429E","title":"真西新村第二小区","lon":"121.39331","lat":"31.246763","category":"47","category_name":"住宅区","address":"普陀区北石路1550弄160支弄真西新村9号居委会(近苏武牧)"},{"poiid":"B2094757D16AA1FE449B","title":"大渡河路","lon":"121.39415058","lat":"31.245613732","category":"500","category_name":"未知分类","address":"上海市普陀区大渡河路1550弄90支弄"},{"poiid":"B2094654D56BA4FD4598","title":"上海市普陀区疾病预防控制中心","lon":"121.39037","lat":"31.24439","category":"162","category_name":"医院","address":"丹巴路1628号"},{"poiid":"B2094757D168A3F9499C","title":"巴黎贝甜(乐天玛特店)","lon":"121.397437486","lat":"31.245048521","category":"67","category_name":"甜品店","address":"普陀区杨柳青路768号乐天玛特超市1楼(近武宁路)"},{"poiid":"B2094751D56DA2F84198","title":"红宝石(大渡河路店)","lon":"121.3971","lat":"31.24719","category":"67","category_name":"甜品店","address":"普陀区大渡河路1550弄(近武宁路)"},{"poiid":"B2094654DB6BA7FE4493","title":"海堂苑(武宁路南门)","lon":"121.39063","lat":"31.24685","category":"47","category_name":"住宅区","address":"真北路1902弄"},{"poiid":"B2094655D26CABF94298","title":"上海市普陀区食品药品监督所","lon":"121.39357","lat":"31.24746","category":"250","category_name":"公园户外","address":""},{"poiid":"B2094654D465A6FC499B","title":"铜川学校","lon":"121.39197","lat":"31.25077","category":"56","category_name":"小学","address":"普陀区北石路610弄28号(近铜川路)"},{"poiid":"B2094757D069A0FE4199","title":"上海通用雪佛兰安吉名门汽车服务有限公司","lon":"121.395959","lat":"31.251062","category":"500","category_name":"未知分类","address":"上海铜川路1288号"},{"poiid":"B2094655D26CABF94593","title":"舒庭苑","lon":"121.39369","lat":"31.24785","category":"47","category_name":"住宅区","address":"北石路500弄30号"},{"poiid":"B2094757D06AA2FC449E","title":"金盟豪海鲜大酒楼","lon":"121.39387","lat":"31.24203","category":"75","category_name":"浙江菜","address":"普陀区中江路1277号(近梅川路)"},{"poiid":"B2094655D26DA3FE4293","title":"真如镇社区卫生服务中心","lon":"121.39818","lat":"31.24679","category":"162","category_name":"医院","address":"上海普陀区大渡河路真如西村115号"},{"poiid":"B2094655D26EA2FB4993","title":"舒庭苑(北门)","lon":"121.39366","lat":"31.24808","category":"47","category_name":"住宅区","address":"北石路500弄30号"},{"poiid":"B2094654D56BA3F9419B","title":"久良财富休闲广场","lon":"121.39762","lat":"31.24669","category":"201","category_name":"城市广场","address":"普陀区大渡河路1501号"},{"poiid":"B2094654D56BA5F44298","title":"贵州黑竹笋香鸡干锅","lon":"121.39426","lat":"31.24736","category":"83","category_name":"云贵菜","address":"大渡河路1550弄98号(进曹安路)"},{"poiid":"B2094757D069A1FD479C","title":"上海市工商局行政管理局普陀分局","lon":"121.394478","lat":"31.250374","category":"260","category_name":"其他","address":"上海北石路631号"},{"poiid":"B2094757D068A6F84393","title":"索福德足球世界(沪西体育宫店)","lon":"121.39667","lat":"31.24928","category":"220","category_name":"运动场所","address":"普陀区大渡河路1860号沪西体育宫内(近铜川路)"},{"poiid":"B2094654D56BA5F4419C","title":"快客No.1333","lon":"121.39472","lat":"31.2472","category":"117","category_name":"便民商店/便利店","address":"真如镇"},{"poiid":"B2094757D06AA4FF4498","title":"花园鱼庄（原四川花园）(大渡河路店)","lon":"121.39785","lat":"31.2486","category":"71","category_name":"四川菜","address":"普陀区大渡河路1653号(近北石路)"},{"poiid":"B2094655D26CA0FB489C","title":"上海市普陀区卫生局卫生监督所","lon":"121.39353","lat":"31.24815","category":"250","category_name":"公园户外","address":"北石路540弄30号"},{"poiid":"B2094655D26FA0FD489A","title":"樱花苑(东门)","lon":"121.39379","lat":"31.24885","category":"47","category_name":"住宅区","address":"北石路540弄、610弄"},{"poiid":"B2094757D06BA6FE499F","title":"只有时间是解药","lon":"121.39368958","lat":"31.245563731","category":"245","category_name":"教堂","address":"上海梅岭北路中江路"},{"poiid":"B2094654D56BA3FC4492","title":"百联中环购物广场","lon":"121.39","lat":"31.2514","category":"119","category_name":"商场","address":"普陀区真光路1288号百联购物广场内(近梅川路)"},{"poiid":"B2094757D06FA3FE419B","title":"普陀区图书馆","lon":"121.39705524842736","lat":"31.251366379011127","category":"181","category_name":"图书馆","address":"普陀区铜川路1280号(近大渡河路)"},{"poiid":"B2094757D06FA0FB4999","title":"普陀区人民政府","lon":"121.396481784","lat":"31.2495622802","category":"252","category_name":"楼宇机构","address":"上海普陀区大渡河路1668号"},{"poiid":"B2094757D06EABF54898","title":"武宁路大渡河路","lon":"121.396488","lat":"31.246277","category":"38","category_name":"公交车站","address":"上海武宁路大渡河路"},{"poiid":"B2094757D06FA5F94798","title":"苏武牧羊(普陀店)","lon":"121.39745","lat":"31.24777","category":"86","category_name":"火锅店","address":"普陀区大渡河路1558号(近北石路)"},{"poiid":"B2094655D36CA5FC479D","title":"大渡河路北石路","lon":"121.39721","lat":"31.24791","category":"38","category_name":"公交车站","address":"上海大渡河路北石路"},{"poiid":"B2094757D068A1FF4192","title":"普陀区税务局","lon":"121.394380281","lat":"31.2493238773","category":"252","category_name":"楼宇机构","address":"上海普陀区北石路579号"},{"poiid":"B2094654D56BA4FD479F","title":"海上名庭","lon":"121.39221","lat":"31.243805","category":"47","category_name":"住宅区","address":"梅岭北路1258弄1-99号"},{"poiid":"B2094757D068AAFE4899","title":"上海市普陀区人民法院","lon":"121.392296","lat":"31.251391","category":"608","category_name":"法院","address":"上海市普陀区铜川路1472号"},{"poiid":"B2094757D16EA7FB479A","title":"波黎露(百联中环店)","lon":"121.390805586","lat":"31.2436804942","category":"94","category_name":"西餐厅","address":"普陀区真光路1288号百联中环B区3楼(近梅川路)"},{"poiid":"B2094757D06AA4F54099","title":"潮汕庄","lon":"121.397329","lat":"31.248326","category":"86","category_name":"火锅店","address":"普陀区大渡河路1625号(近北石路)"},{"poiid":"B2094654D465A6FD4193","title":"海棠苑","lon":"121.39087","lat":"31.24982","category":"47","category_name":"住宅区","address":"棕榈路300弄1-75"},{"poiid":"B2094757D165A6FA4293","title":"长风公园海底世界","lon":"121.39705058","lat":"31.245754734","category":"196","category_name":"公园","address":"上海市普陀区北石路"},{"poiid":"B2094751D56AA1FD449D","title":"谈阿姨炸猪排","lon":"121.3921658502795","lat":"31.24863703506036","category":"247","category_name":"餐饮美食","address":"铜川路万镇路"},{"poiid":"B2094757D06FA5F4499D","title":"绿洲公寓","lon":"121.39385","lat":"31.252184","category":"47","category_name":"住宅区","address":"上海市普陀区铜川路1422弄44号"},{"poiid":"B2094654D465A6FC4499","title":"樱花苑","lon":"121.39289","lat":"31.24876","category":"47","category_name":"住宅区","address":"静安区陕西南路(复兴中路陕西南路)"},{"poiid":"B2094757D168A6FA429F","title":"别克名流4S店","lon":"121.39515795","lat":"31.251129699","category":"500","category_name":"未知分类","address":"上海市普陀区真北路1366号"},{"poiid":"B2094654D464AAF8469B","title":"上海安吉名世凯迪拉克","lon":"121.39595","lat":"31.25106","category":"158","category_name":"汽车销售","address":"普陀区铜川路1288号(靖边路铜川路)"},{"poiid":"B2094654DB6AABFF4398","title":"锦江之星(真北店)","lon":"121.39112","lat":"31.25214","category":"216","category_name":"经济型连锁酒店","address":"普陀区真北路2051号(近铜川路)"},{"poiid":"B2094757D16AA1FF409F","title":"红星世贸大厦","lon":"121.39256181928","lat":"31.243826936363","category":"252","category_name":"楼宇机构","address":"上海怒江北路598号"},{"poiid":"B2094655D26BA2FC439C","title":"武宁路真北路","lon":"121.39005","lat":"31.24633","category":"38","category_name":"公交车站","address":"上海市武宁路真北路"},{"poiid":"B2094751D464A6FE449A","title":"上山下乡知青火锅","lon":"121.39691","lat":"31.24574","category":"86","category_name":"火锅店","address":"普陀区兰溪路201号第一酒市6楼(近武宁路)"},{"poiid":"B2094654D56BA3F94092","title":"上海申普宠物医院","lon":"121.39752","lat":"31.24627","category":"162","category_name":"医院","address":"普陀区大渡河路1545号(近武宁路)"},{"poiid":"B2094757DB6DA5FC479B","title":"上海映像戴斯大酒店\\t","lon":"121.391724","lat":"31.251577","category":"214","category_name":"四星级宾馆","address":"上海市普陀区真北路2022号(近铜川路)。"},{"poiid":"B2094757D06FA7FF4292","title":"曹安路农贸市场","lon":"121.39717","lat":"31.24498","category":"500","category_name":"未知分类","address":"普陀区武宁路2255号(大渡河路武宁路)"},{"poiid":"B2094654D465A6FC4593","title":"阳光商务大厦","lon":"121.39682","lat":"31.2502","category":"46","category_name":"楼宇","address":"闵行区七莘路联明路"},{"poiid":"B2094757D068AAF54999","title":"重庆德庄火锅(普陀店)","lon":"121.39715","lat":"31.24742","category":"86","category_name":"火锅店","address":"上海普陀区大渡河路1603号久良财富广场1楼(近北石路)  "},{"poiid":"B2094757D069A5FF449E","title":"宁馨家园","lon":"121.39222","lat":"31.247187","category":"47","category_name":"住宅区","address":"上海市浦东新区花木路1883弄"},{"poiid":"B2094655D26FA5FC429E","title":"真西新村第二小区","lon":"121.39331","lat":"31.246763","category":"47","category_name":"住宅区","address":"普陀区北石路1550弄160支弄真西新村9号居委会(近苏武牧)"},{"poiid":"B2094757D16AA1FE449B","title":"大渡河路","lon":"121.39415058","lat":"31.245613732","category":"500","category_name":"未知分类","address":"上海市普陀区大渡河路1550弄90支弄"},{"poiid":"B2094654D56BA4FD4598","title":"上海市普陀区疾病预防控制中心","lon":"121.39037","lat":"31.24439","category":"162","category_name":"医院","address":"丹巴路1628号"},{"poiid":"B2094757D168A3F9499C","title":"巴黎贝甜(乐天玛特店)","lon":"121.397437486","lat":"31.245048521","category":"67","category_name":"甜品店","address":"普陀区杨柳青路768号乐天玛特超市1楼(近武宁路)"},{"poiid":"B2094751D56DA2F84198","title":"红宝石(大渡河路店)","lon":"121.3971","lat":"31.24719","category":"67","category_name":"甜品店","address":"普陀区大渡河路1550弄(近武宁路)"},{"poiid":"B2094654DB6BA7FE4493","title":"海堂苑(武宁路南门)","lon":"121.39063","lat":"31.24685","category":"47","category_name":"住宅区","address":"真北路1902弄"},{"poiid":"B2094655D26CABF94298","title":"上海市普陀区食品药品监督所","lon":"121.39357","lat":"31.24746","category":"250","category_name":"公园户外","address":""},{"poiid":"B2094654D465A6FC499B","title":"铜川学校","lon":"121.39197","lat":"31.25077","category":"56","category_name":"小学","address":"普陀区北石路610弄28号(近铜川路)"},{"poiid":"B2094757D069A0FE4199","title":"上海通用雪佛兰安吉名门汽车服务有限公司","lon":"121.395959","lat":"31.251062","category":"500","category_name":"未知分类","address":"上海铜川路1288号"},{"poiid":"B2094655D26CABF94593","title":"舒庭苑","lon":"121.39369","lat":"31.24785","category":"47","category_name":"住宅区","address":"北石路500弄30号"},{"poiid":"B2094757D06AA2FC449E","title":"金盟豪海鲜大酒楼","lon":"121.39387","lat":"31.24203","category":"75","category_name":"浙江菜","address":"普陀区中江路1277号(近梅川路)"},{"poiid":"B2094655D26DA3FE4293","title":"真如镇社区卫生服务中心","lon":"121.39818","lat":"31.24679","category":"162","category_name":"医院","address":"上海普陀区大渡河路真如西村115号"},{"poiid":"B2094655D26EA2FB4993","title":"舒庭苑(北门)","lon":"121.39366","lat":"31.24808","category":"47","category_name":"住宅区","address":"北石路500弄30号"},{"poiid":"B2094654D56BA3F9419B","title":"久良财富休闲广场","lon":"121.39762","lat":"31.24669","category":"201","category_name":"城市广场","address":"普陀区大渡河路1501号"},{"poiid":"B2094654D56BA5F44298","title":"贵州黑竹笋香鸡干锅","lon":"121.39426","lat":"31.24736","category":"83","category_name":"云贵菜","address":"大渡河路1550弄98号(进曹安路)"},{"poiid":"B2094757D069A1FD479C","title":"上海市工商局行政管理局普陀分局","lon":"121.394478","lat":"31.250374","category":"260","category_name":"其他","address":"上海北石路631号"},{"poiid":"B2094757D068A6F84393","title":"索福德足球世界(沪西体育宫店)","lon":"121.39667","lat":"31.24928","category":"220","category_name":"运动场所","address":"普陀区大渡河路1860号沪西体育宫内(近铜川路)"},{"poiid":"B2094654D56BA5F4419C","title":"快客No.1333","lon":"121.39472","lat":"31.2472","category":"117","category_name":"便民商店/便利店","address":"真如镇"},{"poiid":"B2094757D06AA4FF4498","title":"花园鱼庄（原四川花园）(大渡河路店)","lon":"121.39785","lat":"31.2486","category":"71","category_name":"四川菜","address":"普陀区大渡河路1653号(近北石路)"},{"poiid":"B2094655D26CA0FB489C","title":"上海市普陀区卫生局卫生监督所","lon":"121.39353","lat":"31.24815","category":"250","category_name":"公园户外","address":"北石路540弄30号"},{"poiid":"B2094655D26FA0FD489A","title":"樱花苑(东门)","lon":"121.39379","lat":"31.24885","category":"47","category_name":"住宅区","address":"北石路540弄、610弄"},{"poiid":"B2094757D06BA6FE499F","title":"只有时间是解药","lon":"121.39368958","lat":"31.245563731","category":"245","category_name":"教堂","address":"上海梅岭北路中江路"},{"poiid":"B2094654D56BA3FC4492","title":"百联中环购物广场","lon":"121.39","lat":"31.2514","category":"119","category_name":"商场","address":"普陀区真光路1288号百联购物广场内(近梅川路)"},{"poiid":"B2094757D06FA3FE419B","title":"普陀区图书馆","lon":"121.39705524842736","lat":"31.251366379011127","category":"181","category_name":"图书馆","address":"普陀区铜川路1280号(近大渡河路)"},{"poiid":"B2094757D06FA0FB4999","title":"普陀区人民政府","lon":"121.396481784","lat":"31.2495622802","category":"252","category_name":"楼宇机构","address":"上海普陀区大渡河路1668号"},{"poiid":"B2094757D06EABF54898","title":"武宁路大渡河路","lon":"121.396488","lat":"31.246277","category":"38","category_name":"公交车站","address":"上海武宁路大渡河路"},{"poiid":"B2094757D06FA5F94798","title":"苏武牧羊(普陀店)","lon":"121.39745","lat":"31.24777","category":"86","category_name":"火锅店","address":"普陀区大渡河路1558号(近北石路)"},{"poiid":"B2094655D36CA5FC479D","title":"大渡河路北石路","lon":"121.39721","lat":"31.24791","category":"38","category_name":"公交车站","address":"上海大渡河路北石路"},{"poiid":"B2094757D068A1FF4192","title":"普陀区税务局","lon":"121.394380281","lat":"31.2493238773","category":"252","category_name":"楼宇机构","address":"上海普陀区北石路579号"},{"poiid":"B2094654D56BA4FD479F","title":"海上名庭","lon":"121.39221","lat":"31.243805","category":"47","category_name":"住宅区","address":"梅岭北路1258弄1-99号"},{"poiid":"B2094757D068AAFE4899","title":"上海市普陀区人民法院","lon":"121.392296","lat":"31.251391","category":"608","category_name":"法院","address":"上海市普陀区铜川路1472号"},{"poiid":"B2094757D16EA7FB479A","title":"波黎露(百联中环店)","lon":"121.390805586","lat":"31.2436804942","category":"94","category_name":"西餐厅","address":"普陀区真光路1288号百联中环B区3楼(近梅川路)"},{"poiid":"B2094757D06AA4F54099","title":"潮汕庄","lon":"121.397329","lat":"31.248326","category":"86","category_name":"火锅店","address":"普陀区大渡河路1625号(近北石路)"},{"poiid":"B2094654D465A6FD4193","title":"海棠苑","lon":"121.39087","lat":"31.24982","category":"47","category_name":"住宅区","address":"棕榈路300弄1-75"},{"poiid":"B2094757D165A6FA4293","title":"长风公园海底世界","lon":"121.39705058","lat":"31.245754734","category":"196","category_name":"公园","address":"上海市普陀区北石路"},{"poiid":"B2094751D56AA1FD449D","title":"谈阿姨炸猪排","lon":"121.3921658502795","lat":"31.24863703506036","category":"247","category_name":"餐饮美食","address":"铜川路万镇路"},{"poiid":"B2094757D06FA5F4499D","title":"绿洲公寓","lon":"121.39385","lat":"31.252184","category":"47","category_name":"住宅区","address":"上海市普陀区铜川路1422弄44号"},{"poiid":"B2094654D465A6FC4499","title":"樱花苑","lon":"121.39289","lat":"31.24876","category":"47","category_name":"住宅区","address":"静安区陕西南路(复兴中路陕西南路)"},{"poiid":"B2094757D168A6FA429F","title":"别克名流4S店","lon":"121.39515795","lat":"31.251129699","category":"500","category_name":"未知分类","address":"上海市普陀区真北路1366号"},{"poiid":"B2094654D464AAF8469B","title":"上海安吉名世凯迪拉克","lon":"121.39595","lat":"31.25106","category":"158","category_name":"汽车销售","address":"普陀区铜川路1288号(靖边路铜川路)"},{"poiid":"B2094654DB6AABFF4398","title":"锦江之星(真北店)","lon":"121.39112","lat":"31.25214","category":"216","category_name":"经济型连锁酒店","address":"普陀区真北路2051号(近铜川路)"},{"poiid":"B2094757D16AA1FF409F","title":"红星世贸大厦","lon":"121.39256181928","lat":"31.243826936363","category":"252","category_name":"楼宇机构","address":"上海怒江北路598号"},{"poiid":"B2094655D26BA2FC439C","title":"武宁路真北路","lon":"121.39005","lat":"31.24633","category":"38","category_name":"公交车站","address":"上海市武宁路真北路"},{"poiid":"B2094751D464A6FE449A","title":"上山下乡知青火锅","lon":"121.39691","lat":"31.24574","category":"86","category_name":"火锅店","address":"普陀区兰溪路201号第一酒市6楼(近武宁路)"},{"poiid":"B2094654D56BA3F94092","title":"上海申普宠物医院","lon":"121.39752","lat":"31.24627","category":"162","category_name":"医院","address":"普陀区大渡河路1545号(近武宁路)"},{"poiid":"B2094757DB6DA5FC479B","title":"上海映像戴斯大酒店\\t","lon":"121.391724","lat":"31.251577","category":"214","category_name":"四星级宾馆","address":"上海市普陀区真北路2022号(近铜川路)。"},{"poiid":"B2094757D06FA7FF4292","title":"曹安路农贸市场","lon":"121.39717","lat":"31.24498","category":"500","category_name":"未知分类","address":"普陀区武宁路2255号(大渡河路武宁路)"},{"poiid":"B2094654D465A6FC4593","title":"阳光商务大厦","lon":"121.39682","lat":"31.2502","category":"46","category_name":"楼宇","address":"闵行区七莘路联明路"},{"poiid":"B2094757D068AAF54999","title":"重庆德庄火锅(普陀店)","lon":"121.39715","lat":"31.24742","category":"86","category_name":"火锅店","address":"上海普陀区大渡河路1603号久良财富广场1楼(近北石路)  "},{"poiid":"B2094757D069A5FF449E","title":"宁馨家园","lon":"121.39222","lat":"31.247187","category":"47","category_name":"住宅区","address":"上海市浦东新区花木路1883弄"},{"poiid":"B2094655D26FA5FC429E","title":"真西新村第二小区","lon":"121.39331","lat":"31.246763","category":"47","category_name":"住宅区","address":"普陀区北石路1550弄160支弄真西新村9号居委会(近苏武牧)"},{"poiid":"B2094757D16AA1FE449B","title":"大渡河路","lon":"121.39415058","lat":"31.245613732","category":"500","category_name":"未知分类","address":"上海市普陀区大渡河路1550弄90支弄"},{"poiid":"B2094654D56BA4FD4598","title":"上海市普陀区疾病预防控制中心","lon":"121.39037","lat":"31.24439","category":"162","category_name":"医院","address":"丹巴路1628号"},{"poiid":"B2094757D168A3F9499C","title":"巴黎贝甜(乐天玛特店)","lon":"121.397437486","lat":"31.245048521","category":"67","category_name":"甜品店","address":"普陀区杨柳青路768号乐天玛特超市1楼(近武宁路)"},{"poiid":"B2094751D56DA2F84198","title":"红宝石(大渡河路店)","lon":"121.3971","lat":"31.24719","category":"67","category_name":"甜品店","address":"普陀区大渡河路1550弄(近武宁路)"},{"poiid":"B2094654DB6BA7FE4493","title":"海堂苑(武宁路南门)","lon":"121.39063","lat":"31.24685","category":"47","category_name":"住宅区","address":"真北路1902弄"},{"poiid":"B2094655D26CABF94298","title":"上海市普陀区食品药品监督所","lon":"121.39357","lat":"31.24746","category":"250","category_name":"公园户外","address":""},{"poiid":"B2094654D465A6FC499B","title":"铜川学校","lon":"121.39197","lat":"31.25077","category":"56","category_name":"小学","address":"普陀区北石路610弄28号(近铜川路)"},{"poiid":"B2094757D069A0FE4199","title":"上海通用雪佛兰安吉名门汽车服务有限公司","lon":"121.395959","lat":"31.251062","category":"500","category_name":"未知分类","address":"上海铜川路1288号"},{"poiid":"B2094655D26CABF94593","title":"舒庭苑","lon":"121.39369","lat":"31.24785","category":"47","category_name":"住宅区","address":"北石路500弄30号"},{"poiid":"B2094757D06AA2FC449E","title":"金盟豪海鲜大酒楼","lon":"121.39387","lat":"31.24203","category":"75","category_name":"浙江菜","address":"普陀区中江路1277号(近梅川路)"},{"poiid":"B2094655D26DA3FE4293","title":"真如镇社区卫生服务中心","lon":"121.39818","lat":"31.24679","category":"162","category_name":"医院","address":"上海普陀区大渡河路真如西村115号"},{"poiid":"B2094655D26EA2FB4993","title":"舒庭苑(北门)","lon":"121.39366","lat":"31.24808","category":"47","category_name":"住宅区","address":"北石路500弄30号"},{"poiid":"B2094654D56BA3F9419B","title":"久良财富休闲广场","lon":"121.39762","lat":"31.24669","category":"201","category_name":"城市广场","address":"普陀区大渡河路1501号"},{"poiid":"B2094654D56BA5F44298","title":"贵州黑竹笋香鸡干锅","lon":"121.39426","lat":"31.24736","category":"83","category_name":"云贵菜","address":"大渡河路1550弄98号(进曹安路)"},{"poiid":"B2094757D069A1FD479C","title":"上海市工商局行政管理局普陀分局","lon":"121.394478","lat":"31.250374","category":"260","category_name":"其他","address":"上海北石路631号"},{"poiid":"B2094757D068A6F84393","title":"索福德足球世界(沪西体育宫店)","lon":"121.39667","lat":"31.24928","category":"220","category_name":"运动场所","address":"普陀区大渡河路1860号沪西体育宫内(近铜川路)"},{"poiid":"B2094654D56BA5F4419C","title":"快客No.1333","lon":"121.39472","lat":"31.2472","category":"117","category_name":"便民商店/便利店","address":"真如镇"},{"poiid":"B2094757D06AA4FF4498","title":"花园鱼庄（原四川花园）(大渡河路店)","lon":"121.39785","lat":"31.2486","category":"71","category_name":"四川菜","address":"普陀区大渡河路1653号(近北石路)"},{"poiid":"B2094655D26CA0FB489C","title":"上海市普陀区卫生局卫生监督所","lon":"121.39353","lat":"31.24815","category":"250","category_name":"公园户外","address":"北石路540弄30号"},{"poiid":"B2094655D26FA0FD489A","title":"樱花苑(东门)","lon":"121.39379","lat":"31.24885","category":"47","category_name":"住宅区","address":"北石路540弄、610弄"},{"poiid":"B2094757D06BA6FE499F","title":"只有时间是解药","lon":"121.39368958","lat":"31.245563731","category":"245","category_name":"教堂","address":"上海梅岭北路中江路"}]