[{"poiid":"B2094654DB6AA6F84092","title":"上海龙之梦丽晶大酒店","lon":"121.43019","lat":"31.2106","category":"213","category_name":"五星级宾馆","address":"上海长宁区延安西路1116号(近番禺路)"},{"poiid":"B2094655D26DA5F44298","title":"上海兴国宾馆","lon":"121.43521","lat":"31.21058","category":"213","category_name":"五星级宾馆","address":"徐汇区兴国路78号(华山路口)"},{"poiid":"B2094757D06FA1F54699","title":"解放军第八五医院","lon":"121.43293","lat":"31.2085","category":"162","category_name":"医院","address":"上海徐汇区华山路1328号(近江苏路)"},{"poiid":"B2094757D069A2FE4199","title":"绅公馆","lon":"121.43344","lat":"31.21014","category":"217","category_name":"旅馆招待所","address":"长宁区华山路1220弄6号(兴国宾馆对面)"},{"poiid":"B2094757D06FA0F54899","title":"华山绿地","lon":"121.43312","lat":"31.2059","category":"196","category_name":"公园","address":"长宁区华山路平武路(近幸福路)"},{"poiid":"B2094655D268A7FB4192","title":"法华525创意树林","lon":"121.432","lat":"31.2113","category":"46","category_name":"楼宇","address":"长宁区法华镇路525号(近定西路)"},{"poiid":"B2094757D06FA6FC419E","title":"The Chowhaus","lon":"121.433561","lat":"31.206829","category":"110","category_name":"其他亚洲菜","address":"徐汇区华山路1415号(近湖南路)"},{"poiid":"B2094757D068A2FA409A","title":"翠蜓轩中国餐厅(延安西路店)","lon":"121.43097","lat":"31.21002","category":"76","category_name":"上海菜","address":"长宁区延安西路1146号乙(番禺路口)"},{"poiid":"B2094654DB6BA7F44292","title":"龙之梦大厦","lon":"121.4302","lat":"31.2106","category":"46","category_name":"楼宇","address":"上海延安西路1118号"},{"poiid":"B2094757D06FA7FC479C","title":"东北人(番禺店)","lon":"121.42933","lat":"31.20956","category":"82","category_name":"东北菜","address":"长宁区番禺路46号(延安西路口)"},{"poiid":"B2094654D564A6FD4193","title":"长峰中心","lon":"121.43095","lat":"31.2115","category":"46","category_name":"楼宇","address":"城西路188、200号等"},{"poiid":"B2094757D06FA7F94593","title":"华山医院(江苏路分院)","lon":"121.43308812","lat":"31.212072266","category":"162","category_name":"医院","address":"上海长宁区江苏路796号"},{"poiid":"B2094757D065A7F8489C","title":"兴国宾馆香樟园西餐厅","lon":"121.43489833","lat":"31.210478544","category":"268","category_name":"自助","address":"长宁区兴国路78号兴国宾馆1楼(华山路口)"},{"poiid":"B2094654D564A6FD4093","title":"瑞峰公寓酒店","lon":"121.43083","lat":"31.21191","category":"214","category_name":"四星级宾馆","address":"长宁区延安西路1066号瑞峰公寓酒店内(近江苏路)"},{"poiid":"B2094757D069A1FC409B","title":"兴国宾馆8号楼宴会厅","lon":"121.43587","lat":"31.20916","category":"217","category_name":"旅馆招待所","address":"上海徐汇区兴国路78号兴国宾馆内(华山路口)  "},{"poiid":"B2094655D26EA5FB4192","title":"汉庭快捷酒店(上海延安路店)","lon":"121.43083","lat":"31.21191","category":"216","category_name":"经济型连锁酒店","address":"上海延安西路1066号(近江苏路口，延安高架江苏路口下即到)"},{"poiid":"B2094654DB6BA7F4439D","title":"上海兴华宾馆","lon":"121.43327","lat":"31.21022","category":"215","category_name":"三星级宾馆","address":"徐汇区华山路1226号(近江苏路)"},{"poiid":"B2094757D16EA2FE4898","title":"龍之夢麗晶大酒店宴會廳","lon":"121.43022158","lat":"31.211137057","category":"217","category_name":"旅馆招待所","address":"上海市延安西路1116號4樓"},{"poiid":"B2094757D064AAFF429C","title":"新华别墅","lon":"121.433","lat":"31.2093","category":"47","category_name":"住宅区","address":"上海新华路211弄"},{"poiid":"B2094655D26FA2FD4098","title":"上海小南国","lon":"121.43324","lat":"31.21022","category":"76","category_name":"上海菜","address":"长宁区华山路1226号(近江苏路)"},{"poiid":"B2094757D06BAAFA4892","title":"大时代","lon":"121.43043358","lat":"31.208785011","category":"500","category_name":"未知分类","address":"上海美罗城"},{"poiid":"B2094757D06BA2FF419D","title":"Le Petit Saleya","lon":"121.43431","lat":"31.20494","category":"94","category_name":"西餐厅","address":"徐汇区泰安路139号(近华山路)"},{"poiid":"B2094654DB65A5F84699","title":"Venexia","lon":"121.42958","lat":"31.20802","category":"94","category_name":"西餐厅","address":"长宁区番禺路127号惠寓时尚酒店底楼(近平武路)"},{"poiid":"B2094757D06AAAF84592","title":"亿江南","lon":"121.43118592606","lat":"31.208420476656","category":"71","category_name":"四川菜","address":"长宁区平武路127号(近幸福路)"},{"poiid":"B2094757D66AA6F44498","title":"兴国宾馆8号楼会议中心","lon":"121.434930054","lat":"31.210905793","category":"67","category_name":"甜品店","address":"兴国路78号兴国宾馆8号楼近华山路口"},{"poiid":"B2094757D068A1FC429B","title":"龙之道保健养生会所(番禺路店)","lon":"121.42991","lat":"31.21007","category":"149","category_name":"洗浴推拿场所","address":"上海长宁区番禺路1号(近延安西路)  "},{"poiid":"B2094655D36CA7FC449A","title":"华山路江苏路","lon":"121.43379","lat":"31.21056","category":"38","category_name":"公交车站","address":""},{"poiid":"B2094753DB6CA4F54893","title":"百丽宫IMAX环贸iamp","lon":"121.433998","lat":"31.211498","category":"148","category_name":"美容美发店","address":"上海市 上海市徐汇区淮海中路999号"},{"poiid":"B2094757D069AAFE4792","title":"逸谷(延安西路店)","lon":"121.43158","lat":"31.2121","category":"72","category_name":"广东菜","address":"长宁区延安西路1088号长峰中心H座(近番愚路)"},{"poiid":"B2094654DB69A6FE499D","title":"华宁小区","lon":"121.433","lat":"31.2095","category":"47","category_name":"住宅区","address":"华宁小区位于长宁新华路329弄49号"},{"poiid":"B2094751D56CA7F8479F","title":"Ginger Cafe(兴国路店)","lon":"121.43604","lat":"31.2089","category":"247","category_name":"餐饮美食","address":"徐汇区兴国路91号(近湖南路预计10月初开业)"},{"poiid":"B2094655D26EA6FE409E","title":"天家(龙之梦丽晶店)","lon":"121.43052","lat":"31.21099","category":"95","category_name":"日本料理","address":"长宁区延安西路1116号龙之梦丽晶大酒店3楼(近番禺路)"},{"poiid":"B2094757D065A2F8439A","title":"跳跳蛙","lon":"121.430986054","lat":"31.208437793","category":"71","category_name":"四川菜","address":"长宁区平武路131号(近华山路)"},{"poiid":"B2094655D264A7F54293","title":"Hi电影","lon":"121.43257","lat":"31.20876","category":"178","category_name":"电影院","address":"华山路136号"},{"poiid":"B2094757D16AAAF94398","title":"华山路","lon":"121.43305858","lat":"31.206015957","category":"500","category_name":"未知分类","address":"上海市华山路淮海西路"},{"poiid":"B2094757D16FA5FD499C","title":"解放军第八五医院爱牙俱乐部","lon":"121.43299","lat":"31.20857","category":"162","category_name":"医院","address":"上海长宁区华山路1328号(平武路口)  "},{"poiid":"B2094751D468A4FB489F","title":"八五医院","lon":"121.430104","lat":"31.208576","category":"162","category_name":"医院","address":"华山路平武路"},{"poiid":"B2094757D168A6FA4398","title":"叔叔厄阁楼","lon":"121.43277567","lat":"31.209698834","category":"247","category_name":"餐饮美食","address":"上海平武路"},{"poiid":"B2094654D564A4FD4293","title":"华山花园","lon":"121.4343","lat":"31.2119","category":"47","category_name":"住宅区","address":"徐汇区华山路555号(近华山医院)"},{"poiid":"B2094654DB64ABFB429B","title":"玉嘉大厦商务中心","lon":"121.43255","lat":"31.20872","category":"185","category_name":"会展中心","address":"华山路136号玉嘉大厦18A"},{"poiid":"B2094655D26EA0F54092","title":"龙之梦丽晶O2 On 2","lon":"121.43039","lat":"31.21104","category":"247","category_name":"餐饮美食","address":"长宁区延安西路1116号龙之梦丽晶大酒店2楼(近番禺路)"},{"poiid":"B2094757D465A7FD4098","title":"正宗重庆麻辣烫 平武路店","lon":"121.431654054","lat":"31.208270793","category":"68","category_name":"快餐厅","address":"长宁区平武路129号(近湘聚楼)"},{"poiid":"B2094757D16CA4F4499D","title":"华越楼(延安西路店)","lon":"121.430756026","lat":"31.2121407172","category":"99","category_name":"泰国／越南菜品餐厅","address":"长宁区延安西路1066号瑞峰公寓酒店34楼(近江苏路)"},{"poiid":"B2094655D26EA5FC4593","title":"蓝与白 平武店","lon":"121.42806007901","lat":"31.210194813715","category":"257","category_name":"中餐厅","address":"平武路168号"},{"poiid":"B2094757D06AA0F84499","title":"心一代 平武路店","lon":"121.430419054","lat":"31.208437793","category":"68","category_name":"快餐厅","address":"长宁区平武路80号(近八五医院)"},{"poiid":"B2094654DB6BA7F44392","title":"罗森平武路","lon":"121.43199","lat":"31.20863","category":"117","category_name":"便民商店/便利店","address":"平武路138-2识别"},{"poiid":"B2094757D164A7F9479E","title":"nover pub","lon":"121.432571411","lat":"31.208404541","category":"500","category_name":"未知分类","address":"长宁区延安西路1228弄1E铺嘉利大厦侧弄(近番禺路)"},{"poiid":"B2094757D168A1F54598","title":"臻景医疗","lon":"121.43426358","lat":"31.209582027","category":"162","category_name":"医院","address":"徐汇区兴国路78号兴国宾馆5号楼"},{"poiid":"B2094655D26EA2F8449A","title":"盛源大厦","lon":"121.4295883","lat":"31.2101345","category":"46","category_name":"楼宇","address":"盛源大厦位于长宁番愚路3号"},{"poiid":"B2094654DB6BA7F44393","title":"快客平武路","lon":"121.4319","lat":"31.20861","category":"117","category_name":"便民商店/便利店","address":"平武路130"},{"poiid":"B2094654DB6AA6F84092","title":"上海龙之梦丽晶大酒店","lon":"121.43019","lat":"31.2106","category":"213","category_name":"五星级宾馆","address":"上海长宁区延安西路1116号(近番禺路)"},{"poiid":"B2094655D26DA5F44298","title":"上海兴国宾馆","lon":"121.43521","lat":"31.21058","category":"213","category_name":"五星级宾馆","address":"徐汇区兴国路78号(华山路口)"},{"poiid":"B2094757D06FA1F54699","title":"解放军第八五医院","lon":"121.43293","lat":"31.2085","category":"162","category_name":"医院","address":"上海徐汇区华山路1328号(近江苏路)"},{"poiid":"B2094757D069A2FE4199","title":"绅公馆","lon":"121.43344","lat":"31.21014","category":"217","category_name":"旅馆招待所","address":"长宁区华山路1220弄6号(兴国宾馆对面)"},{"poiid":"B2094757D06FA0F54899","title":"华山绿地","lon":"121.43312","lat":"31.2059","category":"196","category_name":"公园","address":"长宁区华山路平武路(近幸福路)"},{"poiid":"B2094655D268A7FB4192","title":"法华525创意树林","lon":"121.432","lat":"31.2113","category":"46","category_name":"楼宇","address":"长宁区法华镇路525号(近定西路)"},{"poiid":"B2094757D06FA6FC419E","title":"The Chowhaus","lon":"121.433561","lat":"31.206829","category":"110","category_name":"其他亚洲菜","address":"徐汇区华山路1415号(近湖南路)"},{"poiid":"B2094757D068A2FA409A","title":"翠蜓轩中国餐厅(延安西路店)","lon":"121.43097","lat":"31.21002","category":"76","category_name":"上海菜","address":"长宁区延安西路1146号乙(番禺路口)"},{"poiid":"B2094654DB6BA7F44292","title":"龙之梦大厦","lon":"121.4302","lat":"31.2106","category":"46","category_name":"楼宇","address":"上海延安西路1118号"},{"poiid":"B2094757D06FA7FC479C","title":"东北人(番禺店)","lon":"121.42933","lat":"31.20956","category":"82","category_name":"东北菜","address":"长宁区番禺路46号(延安西路口)"},{"poiid":"B2094654D564A6FD4193","title":"长峰中心","lon":"121.43095","lat":"31.2115","category":"46","category_name":"楼宇","address":"城西路188、200号等"},{"poiid":"B2094757D06FA7F94593","title":"华山医院(江苏路分院)","lon":"121.43308812","lat":"31.212072266","category":"162","category_name":"医院","address":"上海长宁区江苏路796号"},{"poiid":"B2094757D065A7F8489C","title":"兴国宾馆香樟园西餐厅","lon":"121.43489833","lat":"31.210478544","category":"268","category_name":"自助","address":"长宁区兴国路78号兴国宾馆1楼(华山路口)"},{"poiid":"B2094654D564A6FD4093","title":"瑞峰公寓酒店","lon":"121.43083","lat":"31.21191","category":"214","category_name":"四星级宾馆","address":"长宁区延安西路1066号瑞峰公寓酒店内(近江苏路)"},{"poiid":"B2094757D069A1FC409B","title":"兴国宾馆8号楼宴会厅","lon":"121.43587","lat":"31.20916","category":"217","category_name":"旅馆招待所","address":"上海徐汇区兴国路78号兴国宾馆内(华山路口)  "},{"poiid":"B2094655D26EA5FB4192","title":"汉庭快捷酒店(上海延安路店)","lon":"121.43083","lat":"31.21191","category":"216","category_name":"经济型连锁酒店","address":"上海延安西路1066号(近江苏路口，延安高架江苏路口下即到)"},{"poiid":"B2094654DB6BA7F4439D","title":"上海兴华宾馆","lon":"121.43327","lat":"31.21022","category":"215","category_name":"三星级宾馆","address":"徐汇区华山路1226号(近江苏路)"},{"poiid":"B2094757D16EA2FE4898","title":"龍之夢麗晶大酒店宴會廳","lon":"121.43022158","lat":"31.211137057","category":"217","category_name":"旅馆招待所","address":"上海市延安西路1116號4樓"},{"poiid":"B2094757D064AAFF429C","title":"新华别墅","lon":"121.433","lat":"31.2093","category":"47","category_name":"住宅区","address":"上海新华路211弄"},{"poiid":"B2094655D26FA2FD4098","title":"上海小南国","lon":"121.43324","lat":"31.21022","category":"76","category_name":"上海菜","address":"长宁区华山路1226号(近江苏路)"},{"poiid":"B2094757D06BAAFA4892","title":"大时代","lon":"121.43043358","lat":"31.208785011","category":"500","category_name":"未知分类","address":"上海美罗城"},{"poiid":"B2094757D06BA2FF419D","title":"Le Petit Saleya","lon":"121.43431","lat":"31.20494","category":"94","category_name":"西餐厅","address":"徐汇区泰安路139号(近华山路)"},{"poiid":"B2094654DB65A5F84699","title":"Venexia","lon":"121.42958","lat":"31.20802","category":"94","category_name":"西餐厅","address":"长宁区番禺路127号惠寓时尚酒店底楼(近平武路)"},{"poiid":"B2094757D06AAAF84592","title":"亿江南","lon":"121.43118592606","lat":"31.208420476656","category":"71","category_name":"四川菜","address":"长宁区平武路127号(近幸福路)"},{"poiid":"B2094757D66AA6F44498","title":"兴国宾馆8号楼会议中心","lon":"121.434930054","lat":"31.210905793","category":"67","category_name":"甜品店","address":"兴国路78号兴国宾馆8号楼近华山路口"},{"poiid":"B2094757D068A1FC429B","title":"龙之道保健养生会所(番禺路店)","lon":"121.42991","lat":"31.21007","category":"149","category_name":"洗浴推拿场所","address":"上海长宁区番禺路1号(近延安西路)  "},{"poiid":"B2094655D36CA7FC449A","title":"华山路江苏路","lon":"121.43379","lat":"31.21056","category":"38","category_name":"公交车站","address":""},{"poiid":"B2094753DB6CA4F54893","title":"百丽宫IMAX环贸iamp","lon":"121.433998","lat":"31.211498","category":"148","category_name":"美容美发店","address":"上海市 上海市徐汇区淮海中路999号"},{"poiid":"B2094757D069AAFE4792","title":"逸谷(延安西路店)","lon":"121.43158","lat":"31.2121","category":"72","category_name":"广东菜","address":"长宁区延安西路1088号长峰中心H座(近番愚路)"},{"poiid":"B2094654DB69A6FE499D","title":"华宁小区","lon":"121.433","lat":"31.2095","category":"47","category_name":"住宅区","address":"华宁小区位于长宁新华路329弄49号"},{"poiid":"B2094751D56CA7F8479F","title":"Ginger Cafe(兴国路店)","lon":"121.43604","lat":"31.2089","category":"247","category_name":"餐饮美食","address":"徐汇区兴国路91号(近湖南路预计10月初开业)"},{"poiid":"B2094655D26EA6FE409E","title":"天家(龙之梦丽晶店)","lon":"121.43052","lat":"31.21099","category":"95","category_name":"日本料理","address":"长宁区延安西路1116号龙之梦丽晶大酒店3楼(近番禺路)"},{"poiid":"B2094757D065A2F8439A","title":"跳跳蛙","lon":"121.430986054","lat":"31.208437793","category":"71","category_name":"四川菜","address":"长宁区平武路131号(近华山路)"},{"poiid":"B2094655D264A7F54293","title":"Hi电影","lon":"121.43257","lat":"31.20876","category":"178","category_name":"电影院","address":"华山路136号"},{"poiid":"B2094757D16AAAF94398","title":"华山路","lon":"121.43305858","lat":"31.206015957","category":"500","category_name":"未知分类","address":"上海市华山路淮海西路"},{"poiid":"B2094757D16FA5FD499C","title":"解放军第八五医院爱牙俱乐部","lon":"121.43299","lat":"31.20857","category":"162","category_name":"医院","address":"上海长宁区华山路1328号(平武路口)  "},{"poiid":"B2094751D468A4FB489F","title":"八五医院","lon":"121.430104","lat":"31.208576","category":"162","category_name":"医院","address":"华山路平武路"},{"poiid":"B2094757D168A6FA4398","title":"叔叔厄阁楼","lon":"121.43277567","lat":"31.209698834","category":"247","category_name":"餐饮美食","address":"上海平武路"},{"poiid":"B2094654D564A4FD4293","title":"华山花园","lon":"121.4343","lat":"31.2119","category":"47","category_name":"住宅区","address":"徐汇区华山路555号(近华山医院)"},{"poiid":"B2094654DB64ABFB429B","title":"玉嘉大厦商务中心","lon":"121.43255","lat":"31.20872","category":"185","category_name":"会展中心","address":"华山路136号玉嘉大厦18A"},{"poiid":"B2094655D26EA0F54092","title":"龙之梦丽晶O2 On 2","lon":"121.43039","lat":"31.21104","category":"247","category_name":"餐饮美食","address":"长宁区延安西路1116号龙之梦丽晶大酒店2楼(近番禺路)"},{"poiid":"B2094757D465A7FD4098","title":"正宗重庆麻辣烫 平武路店","lon":"121.431654054","lat":"31.208270793","category":"68","category_name":"快餐厅","address":"长宁区平武路129号(近湘聚楼)"},{"poiid":"B2094757D16CA4F4499D","title":"华越楼(延安西路店)","lon":"121.430756026","lat":"31.2121407172","category":"99","category_name":"泰国／越南菜品餐厅","address":"长宁区延安西路1066号瑞峰公寓酒店34楼(近江苏路)"},{"poiid":"B2094655D26EA5FC4593","title":"蓝与白 平武店","lon":"121.42806007901","lat":"31.210194813715","category":"257","category_name":"中餐厅","address":"平武路168号"},{"poiid":"B2094757D06AA0F84499","title":"心一代 平武路店","lon":"121.430419054","lat":"31.208437793","category":"68","category_name":"快餐厅","address":"长宁区平武路80号(近八五医院)"},{"poiid":"B2094654DB6BA7F44392","title":"罗森平武路","lon":"121.43199","lat":"31.20863","category":"117","category_name":"便民商店/便利店","address":"平武路138-2识别"},{"poiid":"B2094757D164A7F9479E","title":"nover pub","lon":"121.432571411","lat":"31.208404541","category":"500","category_name":"未知分类","address":"长宁区延安西路1228弄1E铺嘉利大厦侧弄(近番禺路)"},{"poiid":"B2094757D168A1F54598","title":"臻景医疗","lon":"121.43426358","lat":"31.209582027","category":"162","category_name":"医院","address":"徐汇区兴国路78号兴国宾馆5号楼"},{"poiid":"B2094655D26EA2F8449A","title":"盛源大厦","lon":"121.4295883","lat":"31.2101345","category":"46","category_name":"楼宇","address":"盛源大厦位于长宁番愚路3号"},{"poiid":"B2094654DB6BA7F44393","title":"快客平武路","lon":"121.4319","lat":"31.20861","category":"117","category_name":"便民商店/便利店","address":"平武路130"},{"poiid":"B2094654DB6AA6F84092","title":"上海龙之梦丽晶大酒店","lon":"121.43019","lat":"31.2106","category":"213","category_name":"五星级宾馆","address":"上海长宁区延安西路1116号(近番禺路)"},{"poiid":"B2094655D26DA5F44298","title":"上海兴国宾馆","lon":"121.43521","lat":"31.21058","category":"213","category_name":"五星级宾馆","address":"徐汇区兴国路78号(华山路口)"},{"poiid":"B2094757D06FA1F54699","title":"解放军第八五医院","lon":"121.43293","lat":"31.2085","category":"162","category_name":"医院","address":"上海徐汇区华山路1328号(近江苏路)"},{"poiid":"B2094757D069A2FE4199","title":"绅公馆","lon":"121.43344","lat":"31.21014","category":"217","category_name":"旅馆招待所","address":"长宁区华山路1220弄6号(兴国宾馆对面)"},{"poiid":"B2094757D06FA0F54899","title":"华山绿地","lon":"121.43312","lat":"31.2059","category":"196","category_name":"公园","address":"长宁区华山路平武路(近幸福路)"},{"poiid":"B2094655D268A7FB4192","title":"法华525创意树林","lon":"121.432","lat":"31.2113","category":"46","category_name":"楼宇","address":"长宁区法华镇路525号(近定西路)"},{"poiid":"B2094757D06FA6FC419E","title":"The Chowhaus","lon":"121.433561","lat":"31.206829","category":"110","category_name":"其他亚洲菜","address":"徐汇区华山路1415号(近湖南路)"},{"poiid":"B2094757D068A2FA409A","title":"翠蜓轩中国餐厅(延安西路店)","lon":"121.43097","lat":"31.21002","category":"76","category_name":"上海菜","address":"长宁区延安西路1146号乙(番禺路口)"},{"poiid":"B2094654DB6BA7F44292","title":"龙之梦大厦","lon":"121.4302","lat":"31.2106","category":"46","category_name":"楼宇","address":"上海延安西路1118号"},{"poiid":"B2094757D06FA7FC479C","title":"东北人(番禺店)","lon":"121.42933","lat":"31.20956","category":"82","category_name":"东北菜","address":"长宁区番禺路46号(延安西路口)"},{"poiid":"B2094654D564A6FD4193","title":"长峰中心","lon":"121.43095","lat":"31.2115","category":"46","category_name":"楼宇","address":"城西路188、200号等"},{"poiid":"B2094757D06FA7F94593","title":"华山医院(江苏路分院)","lon":"121.43308812","lat":"31.212072266","category":"162","category_name":"医院","address":"上海长宁区江苏路796号"},{"poiid":"B2094757D065A7F8489C","title":"兴国宾馆香樟园西餐厅","lon":"121.43489833","lat":"31.210478544","category":"268","category_name":"自助","address":"长宁区兴国路78号兴国宾馆1楼(华山路口)"},{"poiid":"B2094654D564A6FD4093","title":"瑞峰公寓酒店","lon":"121.43083","lat":"31.21191","category":"214","category_name":"四星级宾馆","address":"长宁区延安西路1066号瑞峰公寓酒店内(近江苏路)"},{"poiid":"B2094757D069A1FC409B","title":"兴国宾馆8号楼宴会厅","lon":"121.43587","lat":"31.20916","category":"217","category_name":"旅馆招待所","address":"上海徐汇区兴国路78号兴国宾馆内(华山路口)  "},{"poiid":"B2094655D26EA5FB4192","title":"汉庭快捷酒店(上海延安路店)","lon":"121.43083","lat":"31.21191","category":"216","category_name":"经济型连锁酒店","address":"上海延安西路1066号(近江苏路口，延安高架江苏路口下即到)"},{"poiid":"B2094654DB6BA7F4439D","title":"上海兴华宾馆","lon":"121.43327","lat":"31.21022","category":"215","category_name":"三星级宾馆","address":"徐汇区华山路1226号(近江苏路)"},{"poiid":"B2094757D16EA2FE4898","title":"龍之夢麗晶大酒店宴會廳","lon":"121.43022158","lat":"31.211137057","category":"217","category_name":"旅馆招待所","address":"上海市延安西路1116號4樓"},{"poiid":"B2094757D064AAFF429C","title":"新华别墅","lon":"121.433","lat":"31.2093","category":"47","category_name":"住宅区","address":"上海新华路211弄"},{"poiid":"B2094655D26FA2FD4098","title":"上海小南国","lon":"121.43324","lat":"31.21022","category":"76","category_name":"上海菜","address":"长宁区华山路1226号(近江苏路)"},{"poiid":"B2094757D06BAAFA4892","title":"大时代","lon":"121.43043358","lat":"31.208785011","category":"500","category_name":"未知分类","address":"上海美罗城"},{"poiid":"B2094757D06BA2FF419D","title":"Le Petit Saleya","lon":"121.43431","lat":"31.20494","category":"94","category_name":"西餐厅","address":"徐汇区泰安路139号(近华山路)"},{"poiid":"B2094654DB65A5F84699","title":"Venexia","lon":"121.42958","lat":"31.20802","category":"94","category_name":"西餐厅","address":"长宁区番禺路127号惠寓时尚酒店底楼(近平武路)"},{"poiid":"B2094757D06AAAF84592","title":"亿江南","lon":"121.43118592606","lat":"31.208420476656","category":"71","category_name":"四川菜","address":"长宁区平武路127号(近幸福路)"},{"poiid":"B2094757D66AA6F44498","title":"兴国宾馆8号楼会议中心","lon":"121.434930054","lat":"31.210905793","category":"67","category_name":"甜品店","address":"兴国路78号兴国宾馆8号楼近华山路口"},{"poiid":"B2094757D068A1FC429B","title":"龙之道保健养生会所(番禺路店)","lon":"121.42991","lat":"31.21007","category":"149","category_name":"洗浴推拿场所","address":"上海长宁区番禺路1号(近延安西路)  "},{"poiid":"B2094655D36CA7FC449A","title":"华山路江苏路","lon":"121.43379","lat":"31.21056","category":"38","category_name":"公交车站","address":""},{"poiid":"B2094753DB6CA4F54893","title":"百丽宫IMAX环贸iamp","lon":"121.433998","lat":"31.211498","category":"148","category_name":"美容美发店","address":"上海市 上海市徐汇区淮海中路999号"},{"poiid":"B2094757D069AAFE4792","title":"逸谷(延安西路店)","lon":"121.43158","lat":"31.2121","category":"72","category_name":"广东菜","address":"长宁区延安西路1088号长峰中心H座(近番愚路)"},{"poiid":"B2094654DB69A6FE499D","title":"华宁小区","lon":"121.433","lat":"31.2095","category":"47","category_name":"住宅区","address":"华宁小区位于长宁新华路329弄49号"},{"poiid":"B2094751D56CA7F8479F","title":"Ginger Cafe(兴国路店)","lon":"121.43604","lat":"31.2089","category":"247","category_name":"餐饮美食","address":"徐汇区兴国路91号(近湖南路预计10月初开业)"},{"poiid":"B2094655D26EA6FE409E","title":"天家(龙之梦丽晶店)","lon":"121.43052","lat":"31.21099","category":"95","category_name":"日本料理","address":"长宁区延安西路1116号龙之梦丽晶大酒店3楼(近番禺路)"},{"poiid":"B2094757D065A2F8439A","title":"跳跳蛙","lon":"121.430986054","lat":"31.208437793","category":"71","category_name":"四川菜","address":"长宁区平武路131号(近华山路)"},{"poiid":"B2094655D264A7F54293","title":"Hi电影","lon":"121.43257","lat":"31.20876","category":"178","category_name":"电影院","address":"华山路136号"},{"poiid":"B2094757D16AAAF94398","title":"华山路","lon":"121.43305858","lat":"31.206015957","category":"500","category_name":"未知分类","address":"上海市华山路淮海西路"},{"poiid":"B2094757D16FA5FD499C","title":"解放军第八五医院爱牙俱乐部","lon":"121.43299","lat":"31.20857","category":"162","category_name":"医院","address":"上海长宁区华山路1328号(平武路口)  "},{"poiid":"B2094751D468A4FB489F","title":"八五医院","lon":"121.430104","lat":"31.208576","category":"162","category_name":"医院","address":"华山路平武路"},{"poiid":"B2094757D168A6FA4398","title":"叔叔厄阁楼","lon":"121.43277567","lat":"31.209698834","category":"247","category_name":"餐饮美食","address":"上海平武路"},{"poiid":"B2094654D564A4FD4293","title":"华山花园","lon":"121.4343","lat":"31.2119","category":"47","category_name":"住宅区","address":"徐汇区华山路555号(近华山医院)"},{"poiid":"B2094654DB64ABFB429B","title":"玉嘉大厦商务中心","lon":"121.43255","lat":"31.20872","category":"185","category_name":"会展中心","address":"华山路136号玉嘉大厦18A"},{"poiid":"B2094655D26EA0F54092","title":"龙之梦丽晶O2 On 2","lon":"121.43039","lat":"31.21104","category":"247","category_name":"餐饮美食","address":"长宁区延安西路1116号龙之梦丽晶大酒店2楼(近番禺路)"},{"poiid":"B2094757D465A7FD4098","title":"正宗重庆麻辣烫 平武路店","lon":"121.431654054","lat":"31.208270793","category":"68","category_name":"快餐厅","address":"长宁区平武路129号(近湘聚楼)"},{"poiid":"B2094757D16CA4F4499D","title":"华越楼(延安西路店)","lon":"121.430756026","lat":"31.2121407172","category":"99","category_name":"泰国／越南菜品餐厅","address":"长宁区延安西路1066号瑞峰公寓酒店34楼(近江苏路)"},{"poiid":"B2094655D26EA5FC4593","title":"蓝与白 平武店","lon":"121.42806007901","lat":"31.210194813715","category":"257","category_name":"中餐厅","address":"平武路168号"},{"poiid":"B2094757D06AA0F84499","title":"心一代 平武路店","lon":"121.430419054","lat":"31.208437793","category":"68","category_name":"快餐厅","address":"长宁区平武路80号(近八五医院)"},{"poiid":"B2094654DB6BA7F44392","title":"罗森平武路","lon":"121.43199","lat":"31.20863","category":"117","category_name":"便民商店/便利店","address":"平武路138-2识别"},{"poiid":"B2094757D164A7F9479E","title":"nover pub","lon":"121.432571411","lat":"31.208404541","category":"500","category_name":"未知分类","address":"长宁区延安西路1228弄1E铺嘉利大厦侧弄(近番禺路)"},{"poiid":"B2094757D168A1F54598","title":"臻景医疗","lon":"121.43426358","lat":"31.209582027","category":"162","category_name":"医院","address":"徐汇区兴国路78号兴国宾馆5号楼"},{"poiid":"B2094655D26EA2F8449A","title":"盛源大厦","lon":"121.4295883","lat":"31.2101345","category":"46","category_name":"楼宇","address":"盛源大厦位于长宁番愚路3号"},{"poiid":"B2094654DB6BA7F44393","title":"快客平武路","lon":"121.4319","lat":"31.20861","category":"117","category_name":"便民商店/便利店","address":"平武路130"},{"poiid":"B2094654DB6AA6F84092","title":"上海龙之梦丽晶大酒店","lon":"121.43019","lat":"31.2106","category":"213","category_name":"五星级宾馆","address":"上海长宁区延安西路1116号(近番禺路)"},{"poiid":"B2094655D26DA5F44298","title":"上海兴国宾馆","lon":"121.43521","lat":"31.21058","category":"213","category_name":"五星级宾馆","address":"徐汇区兴国路78号(华山路口)"},{"poiid":"B2094757D06FA1F54699","title":"解放军第八五医院","lon":"121.43293","lat":"31.2085","category":"162","category_name":"医院","address":"上海徐汇区华山路1328号(近江苏路)"},{"poiid":"B2094757D069A2FE4199","title":"绅公馆","lon":"121.43344","lat":"31.21014","category":"217","category_name":"旅馆招待所","address":"长宁区华山路1220弄6号(兴国宾馆对面)"},{"poiid":"B2094757D06FA0F54899","title":"华山绿地","lon":"121.43312","lat":"31.2059","category":"196","category_name":"公园","address":"长宁区华山路平武路(近幸福路)"},{"poiid":"B2094655D268A7FB4192","title":"法华525创意树林","lon":"121.432","lat":"31.2113","category":"46","category_name":"楼宇","address":"长宁区法华镇路525号(近定西路)"},{"poiid":"B2094757D06FA6FC419E","title":"The Chowhaus","lon":"121.433561","lat":"31.206829","category":"110","category_name":"其他亚洲菜","address":"徐汇区华山路1415号(近湖南路)"},{"poiid":"B2094757D068A2FA409A","title":"翠蜓轩中国餐厅(延安西路店)","lon":"121.43097","lat":"31.21002","category":"76","category_name":"上海菜","address":"长宁区延安西路1146号乙(番禺路口)"},{"poiid":"B2094654DB6BA7F44292","title":"龙之梦大厦","lon":"121.4302","lat":"31.2106","category":"46","category_name":"楼宇","address":"上海延安西路1118号"},{"poiid":"B2094757D06FA7FC479C","title":"东北人(番禺店)","lon":"121.42933","lat":"31.20956","category":"82","category_name":"东北菜","address":"长宁区番禺路46号(延安西路口)"},{"poiid":"B2094654D564A6FD4193","title":"长峰中心","lon":"121.43095","lat":"31.2115","category":"46","category_name":"楼宇","address":"城西路188、200号等"},{"poiid":"B2094757D06FA7F94593","title":"华山医院(江苏路分院)","lon":"121.43308812","lat":"31.212072266","category":"162","category_name":"医院","address":"上海长宁区江苏路796号"},{"poiid":"B2094757D065A7F8489C","title":"兴国宾馆香樟园西餐厅","lon":"121.43489833","lat":"31.210478544","category":"268","category_name":"自助","address":"长宁区兴国路78号兴国宾馆1楼(华山路口)"},{"poiid":"B2094654D564A6FD4093","title":"瑞峰公寓酒店","lon":"121.43083","lat":"31.21191","category":"214","category_name":"四星级宾馆","address":"长宁区延安西路1066号瑞峰公寓酒店内(近江苏路)"},{"poiid":"B2094757D069A1FC409B","title":"兴国宾馆8号楼宴会厅","lon":"121.43587","lat":"31.20916","category":"217","category_name":"旅馆招待所","address":"上海徐汇区兴国路78号兴国宾馆内(华山路口)  "},{"poiid":"B2094655D26EA5FB4192","title":"汉庭快捷酒店(上海延安路店)","lon":"121.43083","lat":"31.21191","category":"216","category_name":"经济型连锁酒店","address":"上海延安西路1066号(近江苏路口，延安高架江苏路口下即到)"},{"poiid":"B2094654DB6BA7F4439D","title":"上海兴华宾馆","lon":"121.43327","lat":"31.21022","category":"215","category_name":"三星级宾馆","address":"徐汇区华山路1226号(近江苏路)"},{"poiid":"B2094757D16EA2FE4898","title":"龍之夢麗晶大酒店宴會廳","lon":"121.43022158","lat":"31.211137057","category":"217","category_name":"旅馆招待所","address":"上海市延安西路1116號4樓"},{"poiid":"B2094757D064AAFF429C","title":"新华别墅","lon":"121.433","lat":"31.2093","category":"47","category_name":"住宅区","address":"上海新华路211弄"},{"poiid":"B2094655D26FA2FD4098","title":"上海小南国","lon":"121.43324","lat":"31.21022","category":"76","category_name":"上海菜","address":"长宁区华山路1226号(近江苏路)"},{"poiid":"B2094757D06BAAFA4892","title":"大时代","lon":"121.43043358","lat":"31.208785011","category":"500","category_name":"未知分类","address":"上海美罗城"},{"poiid":"B2094757D06BA2FF419D","title":"Le Petit Saleya","lon":"121.43431","lat":"31.20494","category":"94","category_name":"西餐厅","address":"徐汇区泰安路139号(近华山路)"},{"poiid":"B2094654DB65A5F84699","title":"Venexia","lon":"121.42958","lat":"31.20802","category":"94","category_name":"西餐厅","address":"长宁区番禺路127号惠寓时尚酒店底楼(近平武路)"},{"poiid":"B2094757D06AAAF84592","title":"亿江南","lon":"121.43118592606","lat":"31.208420476656","category":"71","category_name":"四川菜","address":"长宁区平武路127号(近幸福路)"},{"poiid":"B2094757D66AA6F44498","title":"兴国宾馆8号楼会议中心","lon":"121.434930054","lat":"31.210905793","category":"67","category_name":"甜品店","address":"兴国路78号兴国宾馆8号楼近华山路口"},{"poiid":"B2094757D068A1FC429B","title":"龙之道保健养生会所(番禺路店)","lon":"121.42991","lat":"31.21007","category":"149","category_name":"洗浴推拿场所","address":"上海长宁区番禺路1号(近延安西路)  "},{"poiid":"B2094655D36CA7FC449A","title":"华山路江苏路","lon":"121.43379","lat":"31.21056","category":"38","category_name":"公交车站","address":""},{"poiid":"B2094753DB6CA4F54893","title":"百丽宫IMAX环贸iamp","lon":"121.433998","lat":"31.211498","category":"148","category_name":"美容美发店","address":"上海市 上海市徐汇区淮海中路999号"},{"poiid":"B2094757D069AAFE4792","title":"逸谷(延安西路店)","lon":"121.43158","lat":"31.2121","category":"72","category_name":"广东菜","address":"长宁区延安西路1088号长峰中心H座(近番愚路)"},{"poiid":"B2094654DB69A6FE499D","title":"华宁小区","lon":"121.433","lat":"31.2095","category":"47","category_name":"住宅区","address":"华宁小区位于长宁新华路329弄49号"},{"poiid":"B2094751D56CA7F8479F","title":"Ginger Cafe(兴国路店)","lon":"121.43604","lat":"31.2089","category":"247","category_name":"餐饮美食","address":"徐汇区兴国路91号(近湖南路预计10月初开业)"},{"poiid":"B2094655D26EA6FE409E","title":"天家(龙之梦丽晶店)","lon":"121.43052","lat":"31.21099","category":"95","category_name":"日本料理","address":"长宁区延安西路1116号龙之梦丽晶大酒店3楼(近番禺路)"},{"poiid":"B2094757D065A2F8439A","title":"跳跳蛙","lon":"121.430986054","lat":"31.208437793","category":"71","category_name":"四川菜","address":"长宁区平武路131号(近华山路)"},{"poiid":"B2094655D264A7F54293","title":"Hi电影","lon":"121.43257","lat":"31.20876","category":"178","category_name":"电影院","address":"华山路136号"},{"poiid":"B2094757D16AAAF94398","title":"华山路","lon":"121.43305858","lat":"31.206015957","category":"500","category_name":"未知分类","address":"上海市华山路淮海西路"},{"poiid":"B2094757D16FA5FD499C","title":"解放军第八五医院爱牙俱乐部","lon":"121.43299","lat":"31.20857","category":"162","category_name":"医院","address":"上海长宁区华山路1328号(平武路口)  "},{"poiid":"B2094751D468A4FB489F","title":"八五医院","lon":"121.430104","lat":"31.208576","category":"162","category_name":"医院","address":"华山路平武路"},{"poiid":"B2094757D168A6FA4398","title":"叔叔厄阁楼","lon":"121.43277567","lat":"31.209698834","category":"247","category_name":"餐饮美食","address":"上海平武路"},{"poiid":"B2094654D564A4FD4293","title":"华山花园","lon":"121.4343","lat":"31.2119","category":"47","category_name":"住宅区","address":"徐汇区华山路555号(近华山医院)"},{"poiid":"B2094654DB64ABFB429B","title":"玉嘉大厦商务中心","lon":"121.43255","lat":"31.20872","category":"185","category_name":"会展中心","address":"华山路136号玉嘉大厦18A"},{"poiid":"B2094655D26EA0F54092","title":"龙之梦丽晶O2 On 2","lon":"121.43039","lat":"31.21104","category":"247","category_name":"餐饮美食","address":"长宁区延安西路1116号龙之梦丽晶大酒店2楼(近番禺路)"},{"poiid":"B2094757D465A7FD4098","title":"正宗重庆麻辣烫 平武路店","lon":"121.431654054","lat":"31.208270793","category":"68","category_name":"快餐厅","address":"长宁区平武路129号(近湘聚楼)"},{"poiid":"B2094757D16CA4F4499D","title":"华越楼(延安西路店)","lon":"121.430756026","lat":"31.2121407172","category":"99","category_name":"泰国／越南菜品餐厅","address":"长宁区延安西路1066号瑞峰公寓酒店34楼(近江苏路)"},{"poiid":"B2094655D26EA5FC4593","title":"蓝与白 平武店","lon":"121.42806007901","lat":"31.210194813715","category":"257","category_name":"中餐厅","address":"平武路168号"},{"poiid":"B2094757D06AA0F84499","title":"心一代 平武路店","lon":"121.430419054","lat":"31.208437793","category":"68","category_name":"快餐厅","address":"长宁区平武路80号(近八五医院)"},{"poiid":"B2094654DB6BA7F44392","title":"罗森平武路","lon":"121.43199","lat":"31.20863","category":"117","category_name":"便民商店/便利店","address":"平武路138-2识别"},{"poiid":"B2094757D164A7F9479E","title":"nover pub","lon":"121.432571411","lat":"31.208404541","category":"500","category_name":"未知分类","address":"长宁区延安西路1228弄1E铺嘉利大厦侧弄(近番禺路)"},{"poiid":"B2094757D168A1F54598","title":"臻景医疗","lon":"121.43426358","lat":"31.209582027","category":"162","category_name":"医院","address":"徐汇区兴国路78号兴国宾馆5号楼"},{"poiid":"B2094655D26EA2F8449A","title":"盛源大厦","lon":"121.4295883","lat":"31.2101345","category":"46","category_name":"楼宇","address":"盛源大厦位于长宁番愚路3号"},{"poiid":"B2094654DB6BA7F44393","title":"快客平武路","lon":"121.4319","lat":"31.20861","category":"117","category_name":"便民商店/便利店","address":"平武路130"}]