[{"poiid":"B2094757D068A2FF4799","title":"华亭人家","lon":"121.27669","lat":"31.47964","category":"76","category_name":"上海菜","address":"嘉定区华亭镇霜竹公路518号"},{"poiid":"B2094655D36CA7FC429C","title":"华亭镇","lon":"121.28095","lat":"31.46988","category":"38","category_name":"公交车站","address":"上海嘉定区华亭镇"},{"poiid":"B2094757D16EA2FE4992","title":"华亭公墓","lon":"121.283236018","lat":"31.475011336","category":"620","category_name":"丧葬","address":"上海市嘉定区浏翔公路"},{"poiid":"B2094757D065AAF9419D","title":"华亭佳苑","lon":"121.28463","lat":"31.473833","category":"47","category_name":"住宅区","address":"上海嘉定区华亭镇华旺路888号"},{"poiid":"B2094757D66DA4F84392","title":"亨嘉农庄","lon":"121.26061701","lat":"31.472721289","category":"247","category_name":"餐饮美食","address":"上海嘉定区华亭"},{"poiid":"B2094654D468A4F44693","title":"中国农业银行(高石公路)","lon":"121.28204","lat":"31.47053","category":"150","category_name":"银行","address":"华亭镇"},{"poiid":"B2094654DB69A6FC489C","title":"华亭派出所","lon":"121.28326","lat":"31.46608","category":"609","category_name":"警察局","address":"嘉定区华谊路188号"},{"poiid":"B2094654D468A4F9459D","title":"上海远东华亭学校","lon":"121.28642","lat":"31.46723","category":"55","category_name":"中学","address":"嘉定区华亭镇华谊一路12号"},{"poiid":"B2094654D468A4F94698","title":"上海农村商业银行华亭支行","lon":"121.28361","lat":"31.47084","category":"150","category_name":"银行","address":"高石公路966"},{"poiid":"B2094654D468A4F94592","title":"华亭镇敬老院","lon":"121.28486","lat":"31.471","category":"615","category_name":"敬老院","address":""},{"poiid":"B2094757D06BA5FE4098","title":"毛桥村农家乐","lon":"121.271","lat":"31.47796","category":"260","category_name":"其他","address":"嘉定区华亭镇霜竹公路1268号"},{"poiid":"B2094655D26BA1FA479E","title":"毛桥","lon":"121.2531","lat":"31.47365","category":"38","category_name":"公交车站","address":""},{"poiid":"B2094654D468A4F9459C","title":"上海交通大学科教兴农基地","lon":"121.29078","lat":"31.46829","category":"45","category_name":"产业园区","address":""},{"poiid":"B2094654D468A4FA4199","title":"上海安易捷化工物流有限公司","lon":"121.26464","lat":"31.47913","category":"248","category_name":"生活娱乐","address":""},{"poiid":"B2094654D468A5F5439E","title":"上海北特金属制品有限公司","lon":"121.25332","lat":"31.46095","category":"263","category_name":"公司","address":""}]