[{"poiid":"B2094757D06FA6FC429D","title":"外滩新十六铺","lon":"121.498305","lat":"31.227433","category":"234","category_name":"海滨浴场","address":"上海中山东二路531号"},{"poiid":"B2094757D06EAAFA489F","title":"上海外滩英迪格酒店 (Hotel Indigo)","lon":"121.499735","lat":"31.226432","category":"217","category_name":"旅馆招待所","address":"黄浦区中山东二路585号(近东门路)"},{"poiid":"B2094757D06FA1F94792","title":"香港名都","lon":"121.496","lat":"31.228","category":"119","category_name":"商场","address":"黄浦区河南南路489号(近复兴东路)"},{"poiid":"B209475CD564A7F84292","title":"上海滩新天地店","lon":"121.47463","lat":"31.22164","category":"119","category_name":"商场","address":"\"太仓路181弄新天地北里15号\r\n\""},{"poiid":"B209475CD564A7F84392","title":"上海滩浦东香格里拉店","lon":"121.50058","lat":"31.23634","category":"119","category_name":"商场","address":"浦东富成路33号香格里拉酒店内大堂层"},{"poiid":"B2094757D568A6FE449D","title":"松鹤楼(外滩店)","lon":"121.49712782","lat":"31.22868273","category":"76","category_name":"上海菜","address":"黄浦区中山东二路505号(近外马路)"},{"poiid":"B2094757D06FA7F54892","title":"外滩轮渡","lon":"121.49613189","lat":"31.232406616","category":"260","category_name":"其他","address":"上海外滩"},{"poiid":"B2094757D06FA4F8459F","title":"滨江欣景大酒店(Riverview Hotel)","lon":"121.49992806","lat":"31.224301883","category":"76","category_name":"上海菜","address":"黄浦区中山南路76号(会馆弄中山南路)"},{"poiid":"B2094757D06FA7FC4292","title":"浦江游轮","lon":"121.50081","lat":"31.22468","category":"260","category_name":"其他","address":"黄浦区十六铺站－公平路码头(会馆弄中山南路)查看地图"},{"poiid":"B2094757D068A5FA469B","title":"恰CHAR","lon":"121.50005411","lat":"31.225733464","category":"94","category_name":"西餐厅","address":"黄浦区中山东二路585号外滩英迪格酒店29-31楼(东门路)"},{"poiid":"B2094757D06FA4FF4298","title":"Zeal","lon":"121.494104619","lat":"31.230399184","category":"260","category_name":"其他","address":"黄浦区中山东二路22号6楼(近金陵东路)"},{"poiid":"B2094757D16FA0FF4092","title":"小南国(十六铺店)","lon":"121.500050938","lat":"31.2274259403","category":"76","category_name":"上海菜","address":"黄浦区中山东二路565号A楼(近东门路)"},{"poiid":"B2094757D06FA6F8429D","title":"古城公园","lon":"121.493892508","lat":"31.2285424773","category":"196","category_name":"公园","address":"黄浦区人民路333号(近福佑路)"},{"poiid":"B2094757D069A6FE449C","title":"十六铺码头边","lon":"121.49703768","lat":"31.228610509","category":"500","category_name":"未知分类","address":"上海市,上海中山东二路"},{"poiid":"B2094757D06AA2FD4298","title":"龙皇酒家","lon":"121.49882273","lat":"31.227382239","category":"72","category_name":"广东菜","address":"黄浦区中山东二路535号十六铺B栋楼(外马路中山东二路)"},{"poiid":"B2094757D068A3FA459C","title":"四牌楼路小吃一条街","lon":"121.4956","lat":"31.22506","category":"68","category_name":"快餐厅","address":"黄浦区四牌楼路牌坊下(方浜中路口)"},{"poiid":"B2094757D06FA0F8499E","title":"交通银行上海分行","lon":"121.50114678","lat":"31.225955549","category":"46","category_name":"楼宇","address":"上海中山南路99号"},{"poiid":"B2094654DB69A6F84893","title":"外滩.滨江名人苑","lon":"121.49835","lat":"31.223482","category":"47","category_name":"住宅区","address":"黄浦区中华路88弄"},{"poiid":"B2094757D068AAF44399","title":"士林华苑","lon":"121.497","lat":"31.2262","category":"47","category_name":"住宅区","address":"上海黄浦区河南南路555弄"},{"poiid":"B2094655D36DA1F5439B","title":"小东门","lon":"121.49708","lat":"31.22573","category":"38","category_name":"公交车站","address":""},{"poiid":"B2094750D26FABF44592","title":"Bocca","lon":"121.4960508","lat":"31.2293856","category":"98","category_name":"意式菜品餐厅","address":"黄浦区中山东二路22号5楼(近新永安路)"},{"poiid":"B2094757D06FA7FD4592","title":"网鱼网咖(张杨店)","lon":"121.49722426","lat":"31.229141715","category":"173","category_name":"游戏厅","address":"浦东新区张杨路640号3楼A座(近第一八佰伴)"},{"poiid":"B2094757D664AAFB479B","title":"上海老街小吃","lon":"121.49814282332","lat":"31.22556929005","category":"68","category_name":"快餐厅","address":"黄浦区方浜中路77号(康家弄四牌楼路)"},{"poiid":"B2094757D16DA5FB459D","title":"MJ  club","lon":"121.499573738","lat":"31.2269042292","category":"500","category_name":"未知分类","address":"上海市黄浦区中山南二路501号"},{"poiid":"B2094757D168A0F8489B","title":"fesco adecco","lon":"121.49748523","lat":"31.224477577","category":"500","category_name":"未知分类","address":"上海市中山南路28号久事大厦附楼"},{"poiid":"B2094757D068ABF4459F","title":"耕月人茶馆","lon":"121.4933","lat":"31.22533","category":"260","category_name":"其他","address":"上海黄浦区方浜中路235号豫安阁4楼(近安仁街)"},{"poiid":"B209475CD76BA0F9469E","title":"大蔬无界 外滩22号馆","lon":"121.493989","lat":"31.230711","category":"111","category_name":"休闲餐饮场所","address":"上海市黄浦区中山东二路外滩22号4楼"},{"poiid":"B2094757D66AAAFB439C","title":"江畔Quay","lon":"121.496346","lat":"31.229182","category":"94","category_name":"西餐厅","address":"黄浦区中山东二路585号外滩英迪格酒店6楼"},{"poiid":"B2094654DA6EA5FA4093","title":"上海老街(人民路)","lon":"121.49656","lat":"31.22521","category":"116","category_name":"特色商业街","address":""},{"poiid":"B2094750DB68A1F84699","title":"滨江大道  哈根达斯","lon":"121.497482","lat":"31.227943","category":"247","category_name":"餐饮美食","address":null},{"poiid":"B2094757D06FA7FC4898","title":"十六铺面料城","lon":"121.49869","lat":"31.22476","category":"249","category_name":"购物服务","address":"黄浦区东门路168号(近中山东二路)"},{"poiid":"B2094757D06BA2FA4499","title":"新开河","lon":"121.495265841","lat":"31.2296010434","category":"38","category_name":"公交车站","address":"上海外滩"},{"poiid":"B2094757D069A2F8419D","title":"黄浦江游览","lon":"121.49412","lat":"31.23077","category":"260","category_name":"其他","address":"黄浦区中山东二路531号(近新开河)查看地图"},{"poiid":"B2094757D06AA5FA409A","title":"大块头排挡","lon":"121.49559","lat":"31.22314","category":"76","category_name":"上海菜","address":"黄浦区四牌楼106号(学院路口)"},{"poiid":"B2094750D665A0F4429B","title":"船长8号","lon":"121.496","lat":"31.2283","category":"76","category_name":"上海菜","address":"黄浦区中山东二路531号十六铺码头C区(近东门路)"},{"poiid":"B2094757D46BA1FD489C","title":"十二果芬 中山东二路店 Brix12","lon":"121.495787","lat":"31.2293892","category":"67","category_name":"甜品店","address":"中山东二路22号5楼近新开河路"},{"poiid":"B2094757D165A7F8469C","title":"十六铺美食美客","lon":"121.497693738","lat":"31.228069254","category":"247","category_name":"餐饮美食","address":"上海十六铺地下美食美客"},{"poiid":"B2094750D769A3FB469F","title":"土耳其拉长冰淇淋","lon":"121.497","lat":"31.2255","category":"113","category_name":"冷饮店","address":"黄浦区方浜中路23号(近中华路)"},{"poiid":"B2094757D569A1F5489B","title":"上海外滩商城","lon":"121.4990039","lat":"31.22648778","category":"46","category_name":"楼宇","address":"行宫位于沈河北站一路41号"},{"poiid":"B2094757D16BA3FA489E","title":"外滩酒吧","lon":"121.501479738","lat":"31.2253351958","category":"247","category_name":"餐饮美食","address":"上海市中山东二路575号"},{"poiid":"B2094757D065A5FD429E","title":"中山东二路新开河路站(公交33,55,65,868,910,926,928)","lon":"121.495716131","lat":"31.2294570049","category":"38","category_name":"公交车站","address":"上海市黄浦区中山东二路新开河路"},{"poiid":"B2094757D064A0F9449E","title":"名医堂","lon":"121.49637","lat":"31.2248","category":"162","category_name":"医院","address":"黄浦区方浜中路59号(近人民路)"},{"poiid":"B2094757D568A5F54898","title":"沪南电影院","lon":"121.4964053","lat":"31.22740222","category":"178","category_name":"电影院","address":"人民路134号"},{"poiid":"B2094750D269A0FD499F","title":"山海亭","lon":"121.497116","lat":"31.223377","category":"500","category_name":"未知分类","address":"河南南路489号"},{"poiid":"B2094757D16AA6FA4698","title":"泓叶精菜馆","lon":"121.498124446","lat":"31.2285007716","category":"247","category_name":"餐饮美食","address":"上海金桥国际"},{"poiid":"B2094757DB6FA3F84099","title":"淮海路一号酒吧","lon":"121.4966975953756","lat":"31.22976648979435","category":"248","category_name":"生活娱乐","address":"淮海路柳荫路"},{"poiid":"B2094757D468A5F8469B","title":"桥香园 城隍庙店","lon":"121.495749054","lat":"31.225393793","category":"68","category_name":"快餐厅","address":"黄浦区方浜中路235号豫安阁大厦2楼(城隍庙豫龙坊对面)"},{"poiid":"B2094752DB6EA4FC499B","title":"上海半岛酒店","lon":"121.495568","lat":"31.227815","category":"500","category_name":"未知分类","address":"上海市 中山东一路32号"},{"poiid":"B2094750DA6DA1F4419B","title":"上海泰康路 田子坊","lon":"121.500495","lat":"31.225341","category":"248","category_name":"生活娱乐","address":null},{"poiid":"B2094654DA6EABFE4292","title":"四牌楼","lon":"121.49531","lat":"31.22501","category":"116","category_name":"特色商业街","address":"上海市黄浦区红栏杆街"},{"poiid":"B2094757D06FA6FC429D","title":"外滩新十六铺","lon":"121.498305","lat":"31.227433","category":"234","category_name":"海滨浴场","address":"上海中山东二路531号"},{"poiid":"B2094757D06EAAFA489F","title":"上海外滩英迪格酒店 (Hotel Indigo)","lon":"121.499735","lat":"31.226432","category":"217","category_name":"旅馆招待所","address":"黄浦区中山东二路585号(近东门路)"},{"poiid":"B2094757D06FA1F94792","title":"香港名都","lon":"121.496","lat":"31.228","category":"119","category_name":"商场","address":"黄浦区河南南路489号(近复兴东路)"},{"poiid":"B209475CD564A7F84292","title":"上海滩新天地店","lon":"121.47463","lat":"31.22164","category":"119","category_name":"商场","address":"\"太仓路181弄新天地北里15号\r\n\""},{"poiid":"B209475CD564A7F84392","title":"上海滩浦东香格里拉店","lon":"121.50058","lat":"31.23634","category":"119","category_name":"商场","address":"浦东富成路33号香格里拉酒店内大堂层"},{"poiid":"B2094757D568A6FE449D","title":"松鹤楼(外滩店)","lon":"121.49712782","lat":"31.22868273","category":"76","category_name":"上海菜","address":"黄浦区中山东二路505号(近外马路)"},{"poiid":"B2094757D06FA7F54892","title":"外滩轮渡","lon":"121.49613189","lat":"31.232406616","category":"260","category_name":"其他","address":"上海外滩"},{"poiid":"B2094757D06FA4F8459F","title":"滨江欣景大酒店(Riverview Hotel)","lon":"121.49992806","lat":"31.224301883","category":"76","category_name":"上海菜","address":"黄浦区中山南路76号(会馆弄中山南路)"},{"poiid":"B2094757D06FA7FC4292","title":"浦江游轮","lon":"121.50081","lat":"31.22468","category":"260","category_name":"其他","address":"黄浦区十六铺站－公平路码头(会馆弄中山南路)查看地图"},{"poiid":"B2094757D068A5FA469B","title":"恰CHAR","lon":"121.50005411","lat":"31.225733464","category":"94","category_name":"西餐厅","address":"黄浦区中山东二路585号外滩英迪格酒店29-31楼(东门路)"},{"poiid":"B2094757D06FA4FF4298","title":"Zeal","lon":"121.494104619","lat":"31.230399184","category":"260","category_name":"其他","address":"黄浦区中山东二路22号6楼(近金陵东路)"},{"poiid":"B2094757D16FA0FF4092","title":"小南国(十六铺店)","lon":"121.500050938","lat":"31.2274259403","category":"76","category_name":"上海菜","address":"黄浦区中山东二路565号A楼(近东门路)"},{"poiid":"B2094757D06FA6F8429D","title":"古城公园","lon":"121.493892508","lat":"31.2285424773","category":"196","category_name":"公园","address":"黄浦区人民路333号(近福佑路)"},{"poiid":"B2094757D069A6FE449C","title":"十六铺码头边","lon":"121.49703768","lat":"31.228610509","category":"500","category_name":"未知分类","address":"上海市,上海中山东二路"},{"poiid":"B2094757D06AA2FD4298","title":"龙皇酒家","lon":"121.49882273","lat":"31.227382239","category":"72","category_name":"广东菜","address":"黄浦区中山东二路535号十六铺B栋楼(外马路中山东二路)"},{"poiid":"B2094757D068A3FA459C","title":"四牌楼路小吃一条街","lon":"121.4956","lat":"31.22506","category":"68","category_name":"快餐厅","address":"黄浦区四牌楼路牌坊下(方浜中路口)"},{"poiid":"B2094757D06FA0F8499E","title":"交通银行上海分行","lon":"121.50114678","lat":"31.225955549","category":"46","category_name":"楼宇","address":"上海中山南路99号"},{"poiid":"B2094654DB69A6F84893","title":"外滩.滨江名人苑","lon":"121.49835","lat":"31.223482","category":"47","category_name":"住宅区","address":"黄浦区中华路88弄"},{"poiid":"B2094757D068AAF44399","title":"士林华苑","lon":"121.497","lat":"31.2262","category":"47","category_name":"住宅区","address":"上海黄浦区河南南路555弄"},{"poiid":"B2094655D36DA1F5439B","title":"小东门","lon":"121.49708","lat":"31.22573","category":"38","category_name":"公交车站","address":""},{"poiid":"B2094750D26FABF44592","title":"Bocca","lon":"121.4960508","lat":"31.2293856","category":"98","category_name":"意式菜品餐厅","address":"黄浦区中山东二路22号5楼(近新永安路)"},{"poiid":"B2094757D06FA7FD4592","title":"网鱼网咖(张杨店)","lon":"121.49722426","lat":"31.229141715","category":"173","category_name":"游戏厅","address":"浦东新区张杨路640号3楼A座(近第一八佰伴)"},{"poiid":"B2094757D664AAFB479B","title":"上海老街小吃","lon":"121.49814282332","lat":"31.22556929005","category":"68","category_name":"快餐厅","address":"黄浦区方浜中路77号(康家弄四牌楼路)"},{"poiid":"B2094757D16DA5FB459D","title":"MJ  club","lon":"121.499573738","lat":"31.2269042292","category":"500","category_name":"未知分类","address":"上海市黄浦区中山南二路501号"},{"poiid":"B2094757D168A0F8489B","title":"fesco adecco","lon":"121.49748523","lat":"31.224477577","category":"500","category_name":"未知分类","address":"上海市中山南路28号久事大厦附楼"},{"poiid":"B2094757D068ABF4459F","title":"耕月人茶馆","lon":"121.4933","lat":"31.22533","category":"260","category_name":"其他","address":"上海黄浦区方浜中路235号豫安阁4楼(近安仁街)"},{"poiid":"B209475CD76BA0F9469E","title":"大蔬无界 外滩22号馆","lon":"121.493989","lat":"31.230711","category":"111","category_name":"休闲餐饮场所","address":"上海市黄浦区中山东二路外滩22号4楼"},{"poiid":"B2094757D66AAAFB439C","title":"江畔Quay","lon":"121.496346","lat":"31.229182","category":"94","category_name":"西餐厅","address":"黄浦区中山东二路585号外滩英迪格酒店6楼"},{"poiid":"B2094654DA6EA5FA4093","title":"上海老街(人民路)","lon":"121.49656","lat":"31.22521","category":"116","category_name":"特色商业街","address":""},{"poiid":"B2094750DB68A1F84699","title":"滨江大道  哈根达斯","lon":"121.497482","lat":"31.227943","category":"247","category_name":"餐饮美食","address":null},{"poiid":"B2094757D06FA7FC4898","title":"十六铺面料城","lon":"121.49869","lat":"31.22476","category":"249","category_name":"购物服务","address":"黄浦区东门路168号(近中山东二路)"},{"poiid":"B2094757D06BA2FA4499","title":"新开河","lon":"121.495265841","lat":"31.2296010434","category":"38","category_name":"公交车站","address":"上海外滩"},{"poiid":"B2094757D069A2F8419D","title":"黄浦江游览","lon":"121.49412","lat":"31.23077","category":"260","category_name":"其他","address":"黄浦区中山东二路531号(近新开河)查看地图"},{"poiid":"B2094757D06AA5FA409A","title":"大块头排挡","lon":"121.49559","lat":"31.22314","category":"76","category_name":"上海菜","address":"黄浦区四牌楼106号(学院路口)"},{"poiid":"B2094750D665A0F4429B","title":"船长8号","lon":"121.496","lat":"31.2283","category":"76","category_name":"上海菜","address":"黄浦区中山东二路531号十六铺码头C区(近东门路)"},{"poiid":"B2094757D46BA1FD489C","title":"十二果芬 中山东二路店 Brix12","lon":"121.495787","lat":"31.2293892","category":"67","category_name":"甜品店","address":"中山东二路22号5楼近新开河路"},{"poiid":"B2094757D165A7F8469C","title":"十六铺美食美客","lon":"121.497693738","lat":"31.228069254","category":"247","category_name":"餐饮美食","address":"上海十六铺地下美食美客"},{"poiid":"B2094750D769A3FB469F","title":"土耳其拉长冰淇淋","lon":"121.497","lat":"31.2255","category":"113","category_name":"冷饮店","address":"黄浦区方浜中路23号(近中华路)"},{"poiid":"B2094757D569A1F5489B","title":"上海外滩商城","lon":"121.4990039","lat":"31.22648778","category":"46","category_name":"楼宇","address":"行宫位于沈河北站一路41号"},{"poiid":"B2094757D16BA3FA489E","title":"外滩酒吧","lon":"121.501479738","lat":"31.2253351958","category":"247","category_name":"餐饮美食","address":"上海市中山东二路575号"},{"poiid":"B2094757D065A5FD429E","title":"中山东二路新开河路站(公交33,55,65,868,910,926,928)","lon":"121.495716131","lat":"31.2294570049","category":"38","category_name":"公交车站","address":"上海市黄浦区中山东二路新开河路"},{"poiid":"B2094757D064A0F9449E","title":"名医堂","lon":"121.49637","lat":"31.2248","category":"162","category_name":"医院","address":"黄浦区方浜中路59号(近人民路)"},{"poiid":"B2094757D568A5F54898","title":"沪南电影院","lon":"121.4964053","lat":"31.22740222","category":"178","category_name":"电影院","address":"人民路134号"},{"poiid":"B2094750D269A0FD499F","title":"山海亭","lon":"121.497116","lat":"31.223377","category":"500","category_name":"未知分类","address":"河南南路489号"},{"poiid":"B2094757D16AA6FA4698","title":"泓叶精菜馆","lon":"121.498124446","lat":"31.2285007716","category":"247","category_name":"餐饮美食","address":"上海金桥国际"},{"poiid":"B2094757DB6FA3F84099","title":"淮海路一号酒吧","lon":"121.4966975953756","lat":"31.22976648979435","category":"248","category_name":"生活娱乐","address":"淮海路柳荫路"},{"poiid":"B2094757D468A5F8469B","title":"桥香园 城隍庙店","lon":"121.495749054","lat":"31.225393793","category":"68","category_name":"快餐厅","address":"黄浦区方浜中路235号豫安阁大厦2楼(城隍庙豫龙坊对面)"},{"poiid":"B2094752DB6EA4FC499B","title":"上海半岛酒店","lon":"121.495568","lat":"31.227815","category":"500","category_name":"未知分类","address":"上海市 中山东一路32号"},{"poiid":"B2094750DA6DA1F4419B","title":"上海泰康路 田子坊","lon":"121.500495","lat":"31.225341","category":"248","category_name":"生活娱乐","address":null},{"poiid":"B2094654DA6EABFE4292","title":"四牌楼","lon":"121.49531","lat":"31.22501","category":"116","category_name":"特色商业街","address":"上海市黄浦区红栏杆街"},{"poiid":"B2094757D06FA6FC429D","title":"外滩新十六铺","lon":"121.498305","lat":"31.227433","category":"234","category_name":"海滨浴场","address":"上海中山东二路531号"},{"poiid":"B2094757D06EAAFA489F","title":"上海外滩英迪格酒店 (Hotel Indigo)","lon":"121.499735","lat":"31.226432","category":"217","category_name":"旅馆招待所","address":"黄浦区中山东二路585号(近东门路)"},{"poiid":"B2094757D06FA1F94792","title":"香港名都","lon":"121.496","lat":"31.228","category":"119","category_name":"商场","address":"黄浦区河南南路489号(近复兴东路)"},{"poiid":"B209475CD564A7F84292","title":"上海滩新天地店","lon":"121.47463","lat":"31.22164","category":"119","category_name":"商场","address":"\"太仓路181弄新天地北里15号\r\n\""},{"poiid":"B209475CD564A7F84392","title":"上海滩浦东香格里拉店","lon":"121.50058","lat":"31.23634","category":"119","category_name":"商场","address":"浦东富成路33号香格里拉酒店内大堂层"},{"poiid":"B2094757D568A6FE449D","title":"松鹤楼(外滩店)","lon":"121.49712782","lat":"31.22868273","category":"76","category_name":"上海菜","address":"黄浦区中山东二路505号(近外马路)"},{"poiid":"B2094757D06FA7F54892","title":"外滩轮渡","lon":"121.49613189","lat":"31.232406616","category":"260","category_name":"其他","address":"上海外滩"},{"poiid":"B2094757D06FA4F8459F","title":"滨江欣景大酒店(Riverview Hotel)","lon":"121.49992806","lat":"31.224301883","category":"76","category_name":"上海菜","address":"黄浦区中山南路76号(会馆弄中山南路)"},{"poiid":"B2094757D06FA7FC4292","title":"浦江游轮","lon":"121.50081","lat":"31.22468","category":"260","category_name":"其他","address":"黄浦区十六铺站－公平路码头(会馆弄中山南路)查看地图"},{"poiid":"B2094757D068A5FA469B","title":"恰CHAR","lon":"121.50005411","lat":"31.225733464","category":"94","category_name":"西餐厅","address":"黄浦区中山东二路585号外滩英迪格酒店29-31楼(东门路)"},{"poiid":"B2094757D06FA4FF4298","title":"Zeal","lon":"121.494104619","lat":"31.230399184","category":"260","category_name":"其他","address":"黄浦区中山东二路22号6楼(近金陵东路)"},{"poiid":"B2094757D16FA0FF4092","title":"小南国(十六铺店)","lon":"121.500050938","lat":"31.2274259403","category":"76","category_name":"上海菜","address":"黄浦区中山东二路565号A楼(近东门路)"},{"poiid":"B2094757D06FA6F8429D","title":"古城公园","lon":"121.493892508","lat":"31.2285424773","category":"196","category_name":"公园","address":"黄浦区人民路333号(近福佑路)"},{"poiid":"B2094757D069A6FE449C","title":"十六铺码头边","lon":"121.49703768","lat":"31.228610509","category":"500","category_name":"未知分类","address":"上海市,上海中山东二路"},{"poiid":"B2094757D06AA2FD4298","title":"龙皇酒家","lon":"121.49882273","lat":"31.227382239","category":"72","category_name":"广东菜","address":"黄浦区中山东二路535号十六铺B栋楼(外马路中山东二路)"},{"poiid":"B2094757D068A3FA459C","title":"四牌楼路小吃一条街","lon":"121.4956","lat":"31.22506","category":"68","category_name":"快餐厅","address":"黄浦区四牌楼路牌坊下(方浜中路口)"},{"poiid":"B2094757D06FA0F8499E","title":"交通银行上海分行","lon":"121.50114678","lat":"31.225955549","category":"46","category_name":"楼宇","address":"上海中山南路99号"},{"poiid":"B2094654DB69A6F84893","title":"外滩.滨江名人苑","lon":"121.49835","lat":"31.223482","category":"47","category_name":"住宅区","address":"黄浦区中华路88弄"},{"poiid":"B2094757D068AAF44399","title":"士林华苑","lon":"121.497","lat":"31.2262","category":"47","category_name":"住宅区","address":"上海黄浦区河南南路555弄"},{"poiid":"B2094655D36DA1F5439B","title":"小东门","lon":"121.49708","lat":"31.22573","category":"38","category_name":"公交车站","address":""},{"poiid":"B2094750D26FABF44592","title":"Bocca","lon":"121.4960508","lat":"31.2293856","category":"98","category_name":"意式菜品餐厅","address":"黄浦区中山东二路22号5楼(近新永安路)"},{"poiid":"B2094757D06FA7FD4592","title":"网鱼网咖(张杨店)","lon":"121.49722426","lat":"31.229141715","category":"173","category_name":"游戏厅","address":"浦东新区张杨路640号3楼A座(近第一八佰伴)"},{"poiid":"B2094757D664AAFB479B","title":"上海老街小吃","lon":"121.49814282332","lat":"31.22556929005","category":"68","category_name":"快餐厅","address":"黄浦区方浜中路77号(康家弄四牌楼路)"},{"poiid":"B2094757D16DA5FB459D","title":"MJ  club","lon":"121.499573738","lat":"31.2269042292","category":"500","category_name":"未知分类","address":"上海市黄浦区中山南二路501号"},{"poiid":"B2094757D168A0F8489B","title":"fesco adecco","lon":"121.49748523","lat":"31.224477577","category":"500","category_name":"未知分类","address":"上海市中山南路28号久事大厦附楼"},{"poiid":"B2094757D068ABF4459F","title":"耕月人茶馆","lon":"121.4933","lat":"31.22533","category":"260","category_name":"其他","address":"上海黄浦区方浜中路235号豫安阁4楼(近安仁街)"},{"poiid":"B209475CD76BA0F9469E","title":"大蔬无界 外滩22号馆","lon":"121.493989","lat":"31.230711","category":"111","category_name":"休闲餐饮场所","address":"上海市黄浦区中山东二路外滩22号4楼"},{"poiid":"B2094757D66AAAFB439C","title":"江畔Quay","lon":"121.496346","lat":"31.229182","category":"94","category_name":"西餐厅","address":"黄浦区中山东二路585号外滩英迪格酒店6楼"},{"poiid":"B2094654DA6EA5FA4093","title":"上海老街(人民路)","lon":"121.49656","lat":"31.22521","category":"116","category_name":"特色商业街","address":""},{"poiid":"B2094750DB68A1F84699","title":"滨江大道  哈根达斯","lon":"121.497482","lat":"31.227943","category":"247","category_name":"餐饮美食","address":null},{"poiid":"B2094757D06FA7FC4898","title":"十六铺面料城","lon":"121.49869","lat":"31.22476","category":"249","category_name":"购物服务","address":"黄浦区东门路168号(近中山东二路)"},{"poiid":"B2094757D06BA2FA4499","title":"新开河","lon":"121.495265841","lat":"31.2296010434","category":"38","category_name":"公交车站","address":"上海外滩"},{"poiid":"B2094757D069A2F8419D","title":"黄浦江游览","lon":"121.49412","lat":"31.23077","category":"260","category_name":"其他","address":"黄浦区中山东二路531号(近新开河)查看地图"},{"poiid":"B2094757D06AA5FA409A","title":"大块头排挡","lon":"121.49559","lat":"31.22314","category":"76","category_name":"上海菜","address":"黄浦区四牌楼106号(学院路口)"},{"poiid":"B2094750D665A0F4429B","title":"船长8号","lon":"121.496","lat":"31.2283","category":"76","category_name":"上海菜","address":"黄浦区中山东二路531号十六铺码头C区(近东门路)"},{"poiid":"B2094757D46BA1FD489C","title":"十二果芬 中山东二路店 Brix12","lon":"121.495787","lat":"31.2293892","category":"67","category_name":"甜品店","address":"中山东二路22号5楼近新开河路"},{"poiid":"B2094757D165A7F8469C","title":"十六铺美食美客","lon":"121.497693738","lat":"31.228069254","category":"247","category_name":"餐饮美食","address":"上海十六铺地下美食美客"},{"poiid":"B2094750D769A3FB469F","title":"土耳其拉长冰淇淋","lon":"121.497","lat":"31.2255","category":"113","category_name":"冷饮店","address":"黄浦区方浜中路23号(近中华路)"},{"poiid":"B2094757D569A1F5489B","title":"上海外滩商城","lon":"121.4990039","lat":"31.22648778","category":"46","category_name":"楼宇","address":"行宫位于沈河北站一路41号"},{"poiid":"B2094757D16BA3FA489E","title":"外滩酒吧","lon":"121.501479738","lat":"31.2253351958","category":"247","category_name":"餐饮美食","address":"上海市中山东二路575号"},{"poiid":"B2094757D065A5FD429E","title":"中山东二路新开河路站(公交33,55,65,868,910,926,928)","lon":"121.495716131","lat":"31.2294570049","category":"38","category_name":"公交车站","address":"上海市黄浦区中山东二路新开河路"},{"poiid":"B2094757D064A0F9449E","title":"名医堂","lon":"121.49637","lat":"31.2248","category":"162","category_name":"医院","address":"黄浦区方浜中路59号(近人民路)"},{"poiid":"B2094757D568A5F54898","title":"沪南电影院","lon":"121.4964053","lat":"31.22740222","category":"178","category_name":"电影院","address":"人民路134号"},{"poiid":"B2094750D269A0FD499F","title":"山海亭","lon":"121.497116","lat":"31.223377","category":"500","category_name":"未知分类","address":"河南南路489号"},{"poiid":"B2094757D16AA6FA4698","title":"泓叶精菜馆","lon":"121.498124446","lat":"31.2285007716","category":"247","category_name":"餐饮美食","address":"上海金桥国际"},{"poiid":"B2094757DB6FA3F84099","title":"淮海路一号酒吧","lon":"121.4966975953756","lat":"31.22976648979435","category":"248","category_name":"生活娱乐","address":"淮海路柳荫路"},{"poiid":"B2094757D468A5F8469B","title":"桥香园 城隍庙店","lon":"121.495749054","lat":"31.225393793","category":"68","category_name":"快餐厅","address":"黄浦区方浜中路235号豫安阁大厦2楼(城隍庙豫龙坊对面)"},{"poiid":"B2094752DB6EA4FC499B","title":"上海半岛酒店","lon":"121.495568","lat":"31.227815","category":"500","category_name":"未知分类","address":"上海市 中山东一路32号"},{"poiid":"B2094750DA6DA1F4419B","title":"上海泰康路 田子坊","lon":"121.500495","lat":"31.225341","category":"248","category_name":"生活娱乐","address":null},{"poiid":"B2094654DA6EABFE4292","title":"四牌楼","lon":"121.49531","lat":"31.22501","category":"116","category_name":"特色商业街","address":"上海市黄浦区红栏杆街"},{"poiid":"B2094757D06FA6FC429D","title":"外滩新十六铺","lon":"121.498305","lat":"31.227433","category":"234","category_name":"海滨浴场","address":"上海中山东二路531号"},{"poiid":"B2094757D06EAAFA489F","title":"上海外滩英迪格酒店 (Hotel Indigo)","lon":"121.499735","lat":"31.226432","category":"217","category_name":"旅馆招待所","address":"黄浦区中山东二路585号(近东门路)"},{"poiid":"B2094757D06FA1F94792","title":"香港名都","lon":"121.496","lat":"31.228","category":"119","category_name":"商场","address":"黄浦区河南南路489号(近复兴东路)"},{"poiid":"B209475CD564A7F84292","title":"上海滩新天地店","lon":"121.47463","lat":"31.22164","category":"119","category_name":"商场","address":"\"太仓路181弄新天地北里15号\r\n\""},{"poiid":"B209475CD564A7F84392","title":"上海滩浦东香格里拉店","lon":"121.50058","lat":"31.23634","category":"119","category_name":"商场","address":"浦东富成路33号香格里拉酒店内大堂层"},{"poiid":"B2094757D568A6FE449D","title":"松鹤楼(外滩店)","lon":"121.49712782","lat":"31.22868273","category":"76","category_name":"上海菜","address":"黄浦区中山东二路505号(近外马路)"},{"poiid":"B2094757D06FA7F54892","title":"外滩轮渡","lon":"121.49613189","lat":"31.232406616","category":"260","category_name":"其他","address":"上海外滩"},{"poiid":"B2094757D06FA4F8459F","title":"滨江欣景大酒店(Riverview Hotel)","lon":"121.49992806","lat":"31.224301883","category":"76","category_name":"上海菜","address":"黄浦区中山南路76号(会馆弄中山南路)"},{"poiid":"B2094757D06FA7FC4292","title":"浦江游轮","lon":"121.50081","lat":"31.22468","category":"260","category_name":"其他","address":"黄浦区十六铺站－公平路码头(会馆弄中山南路)查看地图"},{"poiid":"B2094757D068A5FA469B","title":"恰CHAR","lon":"121.50005411","lat":"31.225733464","category":"94","category_name":"西餐厅","address":"黄浦区中山东二路585号外滩英迪格酒店29-31楼(东门路)"},{"poiid":"B2094757D06FA4FF4298","title":"Zeal","lon":"121.494104619","lat":"31.230399184","category":"260","category_name":"其他","address":"黄浦区中山东二路22号6楼(近金陵东路)"},{"poiid":"B2094757D16FA0FF4092","title":"小南国(十六铺店)","lon":"121.500050938","lat":"31.2274259403","category":"76","category_name":"上海菜","address":"黄浦区中山东二路565号A楼(近东门路)"},{"poiid":"B2094757D06FA6F8429D","title":"古城公园","lon":"121.493892508","lat":"31.2285424773","category":"196","category_name":"公园","address":"黄浦区人民路333号(近福佑路)"},{"poiid":"B2094757D069A6FE449C","title":"十六铺码头边","lon":"121.49703768","lat":"31.228610509","category":"500","category_name":"未知分类","address":"上海市,上海中山东二路"},{"poiid":"B2094757D06AA2FD4298","title":"龙皇酒家","lon":"121.49882273","lat":"31.227382239","category":"72","category_name":"广东菜","address":"黄浦区中山东二路535号十六铺B栋楼(外马路中山东二路)"},{"poiid":"B2094757D068A3FA459C","title":"四牌楼路小吃一条街","lon":"121.4956","lat":"31.22506","category":"68","category_name":"快餐厅","address":"黄浦区四牌楼路牌坊下(方浜中路口)"},{"poiid":"B2094757D06FA0F8499E","title":"交通银行上海分行","lon":"121.50114678","lat":"31.225955549","category":"46","category_name":"楼宇","address":"上海中山南路99号"},{"poiid":"B2094654DB69A6F84893","title":"外滩.滨江名人苑","lon":"121.49835","lat":"31.223482","category":"47","category_name":"住宅区","address":"黄浦区中华路88弄"},{"poiid":"B2094757D068AAF44399","title":"士林华苑","lon":"121.497","lat":"31.2262","category":"47","category_name":"住宅区","address":"上海黄浦区河南南路555弄"},{"poiid":"B2094655D36DA1F5439B","title":"小东门","lon":"121.49708","lat":"31.22573","category":"38","category_name":"公交车站","address":""},{"poiid":"B2094750D26FABF44592","title":"Bocca","lon":"121.4960508","lat":"31.2293856","category":"98","category_name":"意式菜品餐厅","address":"黄浦区中山东二路22号5楼(近新永安路)"},{"poiid":"B2094757D06FA7FD4592","title":"网鱼网咖(张杨店)","lon":"121.49722426","lat":"31.229141715","category":"173","category_name":"游戏厅","address":"浦东新区张杨路640号3楼A座(近第一八佰伴)"},{"poiid":"B2094757D664AAFB479B","title":"上海老街小吃","lon":"121.49814282332","lat":"31.22556929005","category":"68","category_name":"快餐厅","address":"黄浦区方浜中路77号(康家弄四牌楼路)"},{"poiid":"B2094757D16DA5FB459D","title":"MJ  club","lon":"121.499573738","lat":"31.2269042292","category":"500","category_name":"未知分类","address":"上海市黄浦区中山南二路501号"},{"poiid":"B2094757D168A0F8489B","title":"fesco adecco","lon":"121.49748523","lat":"31.224477577","category":"500","category_name":"未知分类","address":"上海市中山南路28号久事大厦附楼"},{"poiid":"B2094757D068ABF4459F","title":"耕月人茶馆","lon":"121.4933","lat":"31.22533","category":"260","category_name":"其他","address":"上海黄浦区方浜中路235号豫安阁4楼(近安仁街)"},{"poiid":"B209475CD76BA0F9469E","title":"大蔬无界 外滩22号馆","lon":"121.493989","lat":"31.230711","category":"111","category_name":"休闲餐饮场所","address":"上海市黄浦区中山东二路外滩22号4楼"},{"poiid":"B2094757D66AAAFB439C","title":"江畔Quay","lon":"121.496346","lat":"31.229182","category":"94","category_name":"西餐厅","address":"黄浦区中山东二路585号外滩英迪格酒店6楼"},{"poiid":"B2094654DA6EA5FA4093","title":"上海老街(人民路)","lon":"121.49656","lat":"31.22521","category":"116","category_name":"特色商业街","address":""},{"poiid":"B2094750DB68A1F84699","title":"滨江大道  哈根达斯","lon":"121.497482","lat":"31.227943","category":"247","category_name":"餐饮美食","address":null},{"poiid":"B2094757D06FA7FC4898","title":"十六铺面料城","lon":"121.49869","lat":"31.22476","category":"249","category_name":"购物服务","address":"黄浦区东门路168号(近中山东二路)"},{"poiid":"B2094757D06BA2FA4499","title":"新开河","lon":"121.495265841","lat":"31.2296010434","category":"38","category_name":"公交车站","address":"上海外滩"},{"poiid":"B2094757D069A2F8419D","title":"黄浦江游览","lon":"121.49412","lat":"31.23077","category":"260","category_name":"其他","address":"黄浦区中山东二路531号(近新开河)查看地图"},{"poiid":"B2094757D06AA5FA409A","title":"大块头排挡","lon":"121.49559","lat":"31.22314","category":"76","category_name":"上海菜","address":"黄浦区四牌楼106号(学院路口)"},{"poiid":"B2094750D665A0F4429B","title":"船长8号","lon":"121.496","lat":"31.2283","category":"76","category_name":"上海菜","address":"黄浦区中山东二路531号十六铺码头C区(近东门路)"},{"poiid":"B2094757D46BA1FD489C","title":"十二果芬 中山东二路店 Brix12","lon":"121.495787","lat":"31.2293892","category":"67","category_name":"甜品店","address":"中山东二路22号5楼近新开河路"},{"poiid":"B2094757D165A7F8469C","title":"十六铺美食美客","lon":"121.497693738","lat":"31.228069254","category":"247","category_name":"餐饮美食","address":"上海十六铺地下美食美客"},{"poiid":"B2094750D769A3FB469F","title":"土耳其拉长冰淇淋","lon":"121.497","lat":"31.2255","category":"113","category_name":"冷饮店","address":"黄浦区方浜中路23号(近中华路)"},{"poiid":"B2094757D569A1F5489B","title":"上海外滩商城","lon":"121.4990039","lat":"31.22648778","category":"46","category_name":"楼宇","address":"行宫位于沈河北站一路41号"},{"poiid":"B2094757D16BA3FA489E","title":"外滩酒吧","lon":"121.501479738","lat":"31.2253351958","category":"247","category_name":"餐饮美食","address":"上海市中山东二路575号"},{"poiid":"B2094757D065A5FD429E","title":"中山东二路新开河路站(公交33,55,65,868,910,926,928)","lon":"121.495716131","lat":"31.2294570049","category":"38","category_name":"公交车站","address":"上海市黄浦区中山东二路新开河路"},{"poiid":"B2094757D064A0F9449E","title":"名医堂","lon":"121.49637","lat":"31.2248","category":"162","category_name":"医院","address":"黄浦区方浜中路59号(近人民路)"},{"poiid":"B2094757D568A5F54898","title":"沪南电影院","lon":"121.4964053","lat":"31.22740222","category":"178","category_name":"电影院","address":"人民路134号"},{"poiid":"B2094750D269A0FD499F","title":"山海亭","lon":"121.497116","lat":"31.223377","category":"500","category_name":"未知分类","address":"河南南路489号"},{"poiid":"B2094757D16AA6FA4698","title":"泓叶精菜馆","lon":"121.498124446","lat":"31.2285007716","category":"247","category_name":"餐饮美食","address":"上海金桥国际"},{"poiid":"B2094757DB6FA3F84099","title":"淮海路一号酒吧","lon":"121.4966975953756","lat":"31.22976648979435","category":"248","category_name":"生活娱乐","address":"淮海路柳荫路"},{"poiid":"B2094757D468A5F8469B","title":"桥香园 城隍庙店","lon":"121.495749054","lat":"31.225393793","category":"68","category_name":"快餐厅","address":"黄浦区方浜中路235号豫安阁大厦2楼(城隍庙豫龙坊对面)"},{"poiid":"B2094752DB6EA4FC499B","title":"上海半岛酒店","lon":"121.495568","lat":"31.227815","category":"500","category_name":"未知分类","address":"上海市 中山东一路32号"},{"poiid":"B2094750DA6DA1F4419B","title":"上海泰康路 田子坊","lon":"121.500495","lat":"31.225341","category":"248","category_name":"生活娱乐","address":null},{"poiid":"B2094654DA6EABFE4292","title":"四牌楼","lon":"121.49531","lat":"31.22501","category":"116","category_name":"特色商业街","address":"上海市黄浦区红栏杆街"},{"poiid":"B2094757D06FA6FC429D","title":"外滩新十六铺","lon":"121.498305","lat":"31.227433","category":"234","category_name":"海滨浴场","address":"上海中山东二路531号"},{"poiid":"B2094757D06EAAFA489F","title":"上海外滩英迪格酒店 (Hotel Indigo)","lon":"121.499735","lat":"31.226432","category":"217","category_name":"旅馆招待所","address":"黄浦区中山东二路585号(近东门路)"},{"poiid":"B2094757D06FA1F94792","title":"香港名都","lon":"121.496","lat":"31.228","category":"119","category_name":"商场","address":"黄浦区河南南路489号(近复兴东路)"},{"poiid":"B209475CD564A7F84292","title":"上海滩新天地店","lon":"121.47463","lat":"31.22164","category":"119","category_name":"商场","address":"\"太仓路181弄新天地北里15号\r\n\""},{"poiid":"B209475CD564A7F84392","title":"上海滩浦东香格里拉店","lon":"121.50058","lat":"31.23634","category":"119","category_name":"商场","address":"浦东富成路33号香格里拉酒店内大堂层"},{"poiid":"B2094757D568A6FE449D","title":"松鹤楼(外滩店)","lon":"121.49712782","lat":"31.22868273","category":"76","category_name":"上海菜","address":"黄浦区中山东二路505号(近外马路)"},{"poiid":"B2094757D06FA7F54892","title":"外滩轮渡","lon":"121.49613189","lat":"31.232406616","category":"260","category_name":"其他","address":"上海外滩"},{"poiid":"B2094757D06FA4F8459F","title":"滨江欣景大酒店(Riverview Hotel)","lon":"121.49992806","lat":"31.224301883","category":"76","category_name":"上海菜","address":"黄浦区中山南路76号(会馆弄中山南路)"},{"poiid":"B2094757D06FA7FC4292","title":"浦江游轮","lon":"121.50081","lat":"31.22468","category":"260","category_name":"其他","address":"黄浦区十六铺站－公平路码头(会馆弄中山南路)查看地图"},{"poiid":"B2094757D068A5FA469B","title":"恰CHAR","lon":"121.50005411","lat":"31.225733464","category":"94","category_name":"西餐厅","address":"黄浦区中山东二路585号外滩英迪格酒店29-31楼(东门路)"},{"poiid":"B2094757D06FA4FF4298","title":"Zeal","lon":"121.494104619","lat":"31.230399184","category":"260","category_name":"其他","address":"黄浦区中山东二路22号6楼(近金陵东路)"},{"poiid":"B2094757D16FA0FF4092","title":"小南国(十六铺店)","lon":"121.500050938","lat":"31.2274259403","category":"76","category_name":"上海菜","address":"黄浦区中山东二路565号A楼(近东门路)"},{"poiid":"B2094757D06FA6F8429D","title":"古城公园","lon":"121.493892508","lat":"31.2285424773","category":"196","category_name":"公园","address":"黄浦区人民路333号(近福佑路)"},{"poiid":"B2094757D069A6FE449C","title":"十六铺码头边","lon":"121.49703768","lat":"31.228610509","category":"500","category_name":"未知分类","address":"上海市,上海中山东二路"},{"poiid":"B2094757D06AA2FD4298","title":"龙皇酒家","lon":"121.49882273","lat":"31.227382239","category":"72","category_name":"广东菜","address":"黄浦区中山东二路535号十六铺B栋楼(外马路中山东二路)"},{"poiid":"B2094757D068A3FA459C","title":"四牌楼路小吃一条街","lon":"121.4956","lat":"31.22506","category":"68","category_name":"快餐厅","address":"黄浦区四牌楼路牌坊下(方浜中路口)"},{"poiid":"B2094757D06FA0F8499E","title":"交通银行上海分行","lon":"121.50114678","lat":"31.225955549","category":"46","category_name":"楼宇","address":"上海中山南路99号"},{"poiid":"B2094654DB69A6F84893","title":"外滩.滨江名人苑","lon":"121.49835","lat":"31.223482","category":"47","category_name":"住宅区","address":"黄浦区中华路88弄"},{"poiid":"B2094757D068AAF44399","title":"士林华苑","lon":"121.497","lat":"31.2262","category":"47","category_name":"住宅区","address":"上海黄浦区河南南路555弄"},{"poiid":"B2094655D36DA1F5439B","title":"小东门","lon":"121.49708","lat":"31.22573","category":"38","category_name":"公交车站","address":""},{"poiid":"B2094750D26FABF44592","title":"Bocca","lon":"121.4960508","lat":"31.2293856","category":"98","category_name":"意式菜品餐厅","address":"黄浦区中山东二路22号5楼(近新永安路)"},{"poiid":"B2094757D06FA7FD4592","title":"网鱼网咖(张杨店)","lon":"121.49722426","lat":"31.229141715","category":"173","category_name":"游戏厅","address":"浦东新区张杨路640号3楼A座(近第一八佰伴)"},{"poiid":"B2094757D664AAFB479B","title":"上海老街小吃","lon":"121.49814282332","lat":"31.22556929005","category":"68","category_name":"快餐厅","address":"黄浦区方浜中路77号(康家弄四牌楼路)"},{"poiid":"B2094757D16DA5FB459D","title":"MJ  club","lon":"121.499573738","lat":"31.2269042292","category":"500","category_name":"未知分类","address":"上海市黄浦区中山南二路501号"},{"poiid":"B2094757D168A0F8489B","title":"fesco adecco","lon":"121.49748523","lat":"31.224477577","category":"500","category_name":"未知分类","address":"上海市中山南路28号久事大厦附楼"},{"poiid":"B2094757D068ABF4459F","title":"耕月人茶馆","lon":"121.4933","lat":"31.22533","category":"260","category_name":"其他","address":"上海黄浦区方浜中路235号豫安阁4楼(近安仁街)"},{"poiid":"B209475CD76BA0F9469E","title":"大蔬无界 外滩22号馆","lon":"121.493989","lat":"31.230711","category":"111","category_name":"休闲餐饮场所","address":"上海市黄浦区中山东二路外滩22号4楼"},{"poiid":"B2094757D66AAAFB439C","title":"江畔Quay","lon":"121.496346","lat":"31.229182","category":"94","category_name":"西餐厅","address":"黄浦区中山东二路585号外滩英迪格酒店6楼"},{"poiid":"B2094654DA6EA5FA4093","title":"上海老街(人民路)","lon":"121.49656","lat":"31.22521","category":"116","category_name":"特色商业街","address":""},{"poiid":"B2094750DB68A1F84699","title":"滨江大道  哈根达斯","lon":"121.497482","lat":"31.227943","category":"247","category_name":"餐饮美食","address":null},{"poiid":"B2094757D06FA7FC4898","title":"十六铺面料城","lon":"121.49869","lat":"31.22476","category":"249","category_name":"购物服务","address":"黄浦区东门路168号(近中山东二路)"},{"poiid":"B2094757D06BA2FA4499","title":"新开河","lon":"121.495265841","lat":"31.2296010434","category":"38","category_name":"公交车站","address":"上海外滩"},{"poiid":"B2094757D069A2F8419D","title":"黄浦江游览","lon":"121.49412","lat":"31.23077","category":"260","category_name":"其他","address":"黄浦区中山东二路531号(近新开河)查看地图"},{"poiid":"B2094757D06AA5FA409A","title":"大块头排挡","lon":"121.49559","lat":"31.22314","category":"76","category_name":"上海菜","address":"黄浦区四牌楼106号(学院路口)"},{"poiid":"B2094750D665A0F4429B","title":"船长8号","lon":"121.496","lat":"31.2283","category":"76","category_name":"上海菜","address":"黄浦区中山东二路531号十六铺码头C区(近东门路)"},{"poiid":"B2094757D46BA1FD489C","title":"十二果芬 中山东二路店 Brix12","lon":"121.495787","lat":"31.2293892","category":"67","category_name":"甜品店","address":"中山东二路22号5楼近新开河路"},{"poiid":"B2094757D165A7F8469C","title":"十六铺美食美客","lon":"121.497693738","lat":"31.228069254","category":"247","category_name":"餐饮美食","address":"上海十六铺地下美食美客"},{"poiid":"B2094750D769A3FB469F","title":"土耳其拉长冰淇淋","lon":"121.497","lat":"31.2255","category":"113","category_name":"冷饮店","address":"黄浦区方浜中路23号(近中华路)"},{"poiid":"B2094757D569A1F5489B","title":"上海外滩商城","lon":"121.4990039","lat":"31.22648778","category":"46","category_name":"楼宇","address":"行宫位于沈河北站一路41号"},{"poiid":"B2094757D16BA3FA489E","title":"外滩酒吧","lon":"121.501479738","lat":"31.2253351958","category":"247","category_name":"餐饮美食","address":"上海市中山东二路575号"},{"poiid":"B2094757D065A5FD429E","title":"中山东二路新开河路站(公交33,55,65,868,910,926,928)","lon":"121.495716131","lat":"31.2294570049","category":"38","category_name":"公交车站","address":"上海市黄浦区中山东二路新开河路"},{"poiid":"B2094757D064A0F9449E","title":"名医堂","lon":"121.49637","lat":"31.2248","category":"162","category_name":"医院","address":"黄浦区方浜中路59号(近人民路)"},{"poiid":"B2094757D568A5F54898","title":"沪南电影院","lon":"121.4964053","lat":"31.22740222","category":"178","category_name":"电影院","address":"人民路134号"},{"poiid":"B2094750D269A0FD499F","title":"山海亭","lon":"121.497116","lat":"31.223377","category":"500","category_name":"未知分类","address":"河南南路489号"},{"poiid":"B2094757D16AA6FA4698","title":"泓叶精菜馆","lon":"121.498124446","lat":"31.2285007716","category":"247","category_name":"餐饮美食","address":"上海金桥国际"},{"poiid":"B2094757DB6FA3F84099","title":"淮海路一号酒吧","lon":"121.4966975953756","lat":"31.22976648979435","category":"248","category_name":"生活娱乐","address":"淮海路柳荫路"},{"poiid":"B2094757D468A5F8469B","title":"桥香园 城隍庙店","lon":"121.495749054","lat":"31.225393793","category":"68","category_name":"快餐厅","address":"黄浦区方浜中路235号豫安阁大厦2楼(城隍庙豫龙坊对面)"},{"poiid":"B2094752DB6EA4FC499B","title":"上海半岛酒店","lon":"121.495568","lat":"31.227815","category":"500","category_name":"未知分类","address":"上海市 中山东一路32号"},{"poiid":"B2094750DA6DA1F4419B","title":"上海泰康路 田子坊","lon":"121.500495","lat":"31.225341","category":"248","category_name":"生活娱乐","address":null},{"poiid":"B2094654DA6EABFE4292","title":"四牌楼","lon":"121.49531","lat":"31.22501","category":"116","category_name":"特色商业街","address":"上海市黄浦区红栏杆街"}]