[{"poiid":"B2094757D06EABF54099","title":"桃浦新村地铁站","lon":"121.349774","lat":"31.281665","category":"36","category_name":"地铁站","address":"上海轨道交通 十一号线 轨交桃浦新村站 11"},{"poiid":"B2094757D06FA7FC4092","title":"沪嘉高速公路","lon":"121.34194886","lat":"31.292617122","category":"260","category_name":"其他","address":"上海S5 A12"},{"poiid":"B2094757D06AABF8479F","title":"南翔绿谷别墅","lon":"121.329919","lat":"31.296186","category":"47","category_name":"住宅区","address":"上海市嘉定区南翔镇虹光路111号"},{"poiid":"B2094654D46BA4FD4692","title":"普陀体育公园","lon":"121.34309","lat":"31.28134","category":"196","category_name":"公园","address":"桃浦镇"},{"poiid":"B2094757D068A5FF489D","title":"膳晨海鲜大酒店","lon":"121.344917297","lat":"31.2897281647","category":"72","category_name":"广东菜","address":"普陀区桃浦镇白丽路718号(近真南路)"},{"poiid":"B2094757D065A0FD479B","title":"沃尔玛(白丽生活广场地下一楼)","lon":"121.340903225","lat":"31.2929810295","category":"500","category_name":"未知分类","address":"上海市武威路(地铁11号线1，3号出口可到)"},{"poiid":"B2094757D068AAFA499D","title":"自由港量贩KTV","lon":"121.349792725","lat":"31.2819314006","category":"170","category_name":"KTV","address":"上海 市武威路1126-1178号百丽生活广场四楼"},{"poiid":"B2094757D06AA1FF4099","title":"宝弘宝马","lon":"121.35483449","lat":"31.292829136","category":"500","category_name":"未知分类","address":"上海红柳路233号"},{"poiid":"B2094757D068A0FE489B","title":"白丽生活广场","lon":"121.34955436441805","lat":"31.281760403947924","category":"500","category_name":"未知分类","address":"普陀区武威路1118号(近红棉路)"},{"poiid":"B2094654D46BA4FD489B","title":"紫荆苑(白丽路)","lon":"121.34696","lat":"31.28638","category":"47","category_name":"住宅区","address":""},{"poiid":"B2094757D06BAAFB449A","title":"普陀区看守所","lon":"121.34403991","lat":"31.294921875","category":"500","category_name":"未知分类","address":"上海柳园路555弄55号"},{"poiid":"B2094655D36CA3FA439E","title":"新杨雅苑","lon":"121.34382","lat":"31.29162","category":"47","category_name":"住宅区","address":"上海市普陀区真南路3407弄1,2,5,6,10-12号"},{"poiid":"B2094655D26BA2F94492","title":"桃浦五村","lon":"121.355","lat":"31.2914","category":"38","category_name":"公交车站","address":"红棉路351弄"},{"poiid":"B2094757D068A1FC4692","title":"家乐福(南翔店)","lon":"121.33281769559676","lat":"31.304198465976114","category":"118","category_name":"超级市场","address":"上海嘉定区丰翔路3168号"},{"poiid":"B2094753D26AABFE499B","title":"虹桥机场T2航站楼","lon":"121.341354","lat":"31.292664","category":"500","category_name":"未知分类","address":"上海市 虹桥机场T2航站楼"},{"poiid":"B2094751D36BA5F94699","title":"地铁十一号线","lon":"121.339996","lat":"31.288757","category":"500","category_name":"未知分类","address":"上海"},{"poiid":"B2094757D66CA7FA429D","title":"安达家园","lon":"121.34331","lat":"31.291479","category":"47","category_name":"住宅区","address":"上海真南路3435弄"},{"poiid":"B2094757D16DA6F94293","title":"桃浦健身中心","lon":"121.344512525","lat":"31.284894962","category":"500","category_name":"未知分类","address":"上海金通路380号"},{"poiid":"B2094750D365A1FE459A","title":"阳光水岸苑","lon":"121.342788","lat":"31.289972","category":"47","category_name":"住宅区","address":"普陀区真南路"},{"poiid":"B2094757D66EA6F94092","title":"老猫家","lon":"121.34047392","lat":"31.29254722","category":"500","category_name":"未知分类","address":null},{"poiid":"B2094757D665A0FB499E","title":"DQ冰雪皇后 武威路店 Dairy Queen","lon":"121.34985","lat":"31.28162","category":"113","category_name":"冷饮店","address":"普陀区武威路1118号白丽生活广场1楼(近红棉路)"},{"poiid":"B2094750D568ABF8469F","title":"逸庭","lon":"121.34381","lat":"31.290028","category":"47","category_name":"住宅区","address":"普陀水杉路188号(近真南路)"},{"poiid":"B2094757D06AA3F5409F","title":"桃浦九村","lon":"121.34585","lat":"31.290047","category":"252","category_name":"楼宇机构","address":"上海市普陀区白丽路656号"},{"poiid":"B2094654D46BA4FD489F","title":"桃浦中心小学","lon":"121.34426","lat":"31.2898","category":"56","category_name":"小学","address":"上海普陀区白丽路751号(近真南路)  "},{"poiid":"B2094654D46BA4FD499F","title":"桃浦新家园(银杏路)","lon":"121.34812","lat":"31.28745","category":"47","category_name":"住宅区","address":""},{"poiid":"B2094752D46AA2F8439F","title":"金迈加油站","lon":"121.337458","lat":"31.293847","category":"153","category_name":"加油站","address":"上海市普陀区金迈路28号"},{"poiid":"B2094757D16FA5F9479C","title":"普陀区拘留所","lon":"121.344037","lat":"31.294921","category":"500","category_name":"未知分类","address":"上海普陀区柳园路555弄55号"},{"poiid":"B2094655D36CA4FD429C","title":"白丽路真南路","lon":"121.34554","lat":"31.29113","category":"38","category_name":"公交车站","address":""},{"poiid":"B2094757D66CAAFD439B","title":"普陀公安分局警训队","lon":"121.34474092","lat":"31.294128253","category":"500","category_name":"未知分类","address":"上海市普陀区柳园路555弄55号"},{"poiid":"B2094654D46BA4FE419F","title":"永翔新苑","lon":"121.332","lat":"31.2968","category":"47","category_name":"住宅区","address":"众仁路388弄"},{"poiid":"B2094757D06BAAFF449D","title":"农工商红利会员店(桃浦)","lon":"121.338872525","lat":"31.2821949061","category":"118","category_name":"超级市场","address":"普陀区金迎路85号(近地铁11号线桃浦新村站)"},{"poiid":"B2094654DB64A5FC4493","title":"上海同济大学沪西分校","lon":"121.34512","lat":"31.29159","category":"253","category_name":"校园生活","address":"普陀区真南路450号"},{"poiid":"B2094757D164A5F8409E","title":"东敏鸡公煲烤鱼","lon":"121.3401","lat":"31.28608","category":"68","category_name":"快餐厅","address":"普陀区银杏路386号"},{"poiid":"B2094757D068A1F44992","title":"绅瑞广汽丰田","lon":"121.33505434","lat":"31.293732341","category":"500","category_name":"未知分类","address":"普陀区真南路3847号(近金迎路)"},{"poiid":"B2094655D265A0FD4493","title":"郑妈妈台湾小吃","lon":"121.33607","lat":"31.29007","category":"257","category_name":"中餐厅","address":"佘山镇陈坊桥外青松公路1号营业房"},{"poiid":"B2094654D464A3FD4598","title":"山茶苑","lon":"121.3498","lat":"31.28707","category":"47","category_name":"住宅区","address":"雪松路503弄"},{"poiid":"B2094757D164ABF9419D","title":"紫藤苑","lon":"121.34290692","lat":"31.288827143","category":"500","category_name":"未知分类","address":"上海市普陀区白丽露"},{"poiid":"B2094654D46BABFD459F","title":"紫藤苑小区","lon":"121.3452","lat":"31.28669","category":"47","category_name":"住宅区","address":"银杏路120弄"},{"poiid":"B2094752D46FA1F54692","title":"顾村公园","lon":"121.347387","lat":"31.292643","category":"250","category_name":"公园户外","address":null},{"poiid":"B2094655D36CA1F8499E","title":"柳园路真陈路","lon":"121.34782","lat":"31.29648","category":"38","category_name":"公交车站","address":""},{"poiid":"B2094750D66DA3FB479E","title":"永翔佳苑","lon":"121.331779","lat":"31.291505","category":"47","category_name":"住宅区","address":"上海市嘉定区南翔镇金润路478弄"},{"poiid":"B2094750D56CABFE4899","title":"同进•理想城","lon":"121.334213","lat":"31.291563","category":"47","category_name":"住宅区","address":"金迎路1118弄"},{"poiid":"B2094753D26AA5FC479B","title":"虹桥机场T2航站楼","lon":"121.335388","lat":"31.295807","category":"500","category_name":"未知分类","address":"上海市 虹桥机场T2航站楼"},{"poiid":"B2094655D36DA7FF409B","title":"真南路雪松路","lon":"121.34747","lat":"31.29098","category":"38","category_name":"公交车站","address":""},{"poiid":"B2094752DB69A6FD459A","title":"上海正通众辉进口大众4S店","lon":"121.34189842212","lat":"31.290218626607","category":"639","category_name":"汽车交通类公司","address":"上海市普陀区真南路3847号"},{"poiid":"B2094757D069A4F4439E","title":"桃浦四村","lon":"121.352","lat":"31.2902","category":"252","category_name":"楼宇机构","address":"上海市普陀区绿杨路51弄"},{"poiid":"B2094655D264A6FD419E","title":"溢盈河畔别墅","lon":"121.345449","lat":"31.299031","category":"47","category_name":"住宅区","address":"上海市普陀区真南路3717号"},{"poiid":"B2094757D06AABFE409E","title":"小白动物园","lon":"121.34293992","lat":"31.288783142","category":"500","category_name":"未知分类","address":"上海市普陀区白丽路97号"},{"poiid":"B2094757D165AAFD419D","title":"桃浦十村﹣23号","lon":"121.34433392","lat":"31.288071127","category":"47","category_name":"住宅区","address":"上海市普陀区银杏路"},{"poiid":"B2094751D269AAF5439A","title":"白天鹅幼儿园","lon":"121.345123","lat":"31.28774","category":"57","category_name":"幼儿园","address":"普陀区白丽路701弄41号(近真南路)"},{"poiid":"B2094757D16DA7F4469E","title":"上海众国宝泓","lon":"121.35481595","lat":"31.2957055511","category":"47","category_name":"住宅区","address":"普陀区红柳路233号(近南大路)"},{"poiid":"B2094757D169ABFE479E","title":"桃浦新家苑","lon":"121.34802722","lat":"31.291205692","category":"47","category_name":"住宅区","address":"上海银杏路30弄"},{"poiid":"B2094655D36DA1FC4398","title":"金迎路翔二河桥","lon":"121.33436","lat":"31.29325","category":"250","category_name":"公园户外","address":""},{"poiid":"B2094752D26DA0FB419C","title":"军军烧烤","lon":"121.34689","lat":"31.28745","category":"68","category_name":"快餐厅","address":"普陀区白丽路579号(近银杏路)"},{"poiid":"B2094654DB64A6FF479E","title":"中国移动桃浦营业厅","lon":"121.34744","lat":"31.28735","category":"151","category_name":"电讯营业厅","address":"普陀区银杏路42、44号"},{"poiid":"B2094757D06AABFA4293","title":"佳木斯烤肉","lon":"121.349586","lat":"31.288665","category":"269","category_name":"烧烤","address":"普陀区雪松路458号桃浦七村西(桃浦规划一路雪松路)"},{"poiid":"B2094757D568A7FC499F","title":"古猗庄园","lon":"121.33028","lat":"31.294357","category":"47","category_name":"住宅区","address":"中国上海市嘉定区G204"},{"poiid":"B2094750D569A5FB449D","title":"东渡园景别墅","lon":"121.34694303456","lat":"31.298665627032","category":"47","category_name":"住宅区","address":"上海市普陀区桃浦镇真南路3525号"},{"poiid":"B2094757D169A3FD4598","title":"东北四季饺子王","lon":"121.34642692","lat":"31.287429114","category":"247","category_name":"餐饮美食","address":"上海市普陀区水杉路"},{"poiid":"B2094751D265A7F5449F","title":"味千拉面(恒达广场店)","lon":"121.3457","lat":"31.28121","category":"95","category_name":"日本料理","address":"普陀区武威路1285号恒达休闲广场1楼(近金达路)"},{"poiid":"B2094757D065A4FB459C","title":"箸香川菜","lon":"121.346732725","lat":"31.287839923","category":"247","category_name":"餐饮美食","address":"上海肇嘉浜路238号2楼"},{"poiid":"B2094654D46BA4FD479A","title":"石榴苑","lon":"121.34626","lat":"31.28206","category":"47","category_name":"住宅区","address":"武威路1236弄21支弄"},{"poiid":"B2094757D66FA3F84593","title":"西北物流园区","lon":"121.33337292","lat":"31.294828267","category":"500","category_name":"未知分类","address":"上海市嘉定区南翔镇金迎路999号"},{"poiid":"B2094654D46BABFD459E","title":"光明便利(银杏路)","lon":"121.34536","lat":"31.28673","category":"117","category_name":"便民商店/便利店","address":""},{"poiid":"B2094757D16AA7FF499E","title":"夏都","lon":"121.34716002","lat":"31.290664781","category":"500","category_name":"未知分类","address":"上海剑河路2000号"},{"poiid":"B2094654D46BABFD459A","title":"桃浦十村冷站","lon":"121.34568","lat":"31.28681","category":"47","category_name":"住宅区","address":""},{"poiid":"B2094655D36DA0FB439A","title":"银杏路白丽路","lon":"121.34763","lat":"31.28716","category":"38","category_name":"公交车站","address":""},{"poiid":"B2094757D168A0F84299","title":"上海金叶包装材料有限公司","lon":"121.34787812","lat":"31.29107179","category":"500","category_name":"未知分类","address":"上海真陈路158号"},{"poiid":"B2094757DA64A3FE489D","title":"恒达休闲广场","lon":"121.349509","lat":"31.282448","category":"252","category_name":"楼宇机构","address":"普陀白丽路237-257(单)号"},{"poiid":"B2094757D66FA3F5489D","title":"動物老巢","lon":"121.34511422","lat":"31.287683319","category":"500","category_name":"未知分类","address":"上海白麗路"},{"poiid":"B2094757D06AA3FC4392","title":"桃浦十村門口燒烤攤","lon":"121.3451445","lat":"31.2865112","category":"500","category_name":"未知分类","address":"上海银杏路120弄"},{"poiid":"B2094757D168A2FA419F","title":"750公交车站","lon":"121.347038725","lat":"31.2863351719","category":"38","category_name":"公交车站","address":"上海桃浦十村"},{"poiid":"B2094757D06BAAFD4799","title":"桃浦五村烧烤摊","lon":"121.348714925","lat":"31.2855880764","category":"269","category_name":"烧烤","address":"普陀区秋桂路53号(近银杏路)"},{"poiid":"B2094757D66CA2F84199","title":"联建小学","lon":"121.34936","lat":"31.28659","category":"56","category_name":"小学","address":"普陀区绿杨路201弄15号(雪松路银杏路)"},{"poiid":"B2094757D66EA3F8419F","title":"寶貝計劃","lon":"121.348109925","lat":"31.2902161722","category":"500","category_name":"未知分类","address":"上海白麗路672號"},{"poiid":"B2094654D46BA5FD419E","title":"乐购(金迎路)","lon":"121.33623","lat":"31.28526","category":"118","category_name":"超级市场","address":""},{"poiid":"B2094757D16FA5F5409C","title":"槎浦新家园","lon":"121.33017","lat":"31.286604","category":"252","category_name":"楼宇机构","address":"上海市普陀区金迈路"},{"poiid":"B2094757D16AA3F84199","title":"上海万国机动车驾驶员培训中心","lon":"121.348742925","lat":"31.2911971926","category":"253","category_name":"校园生活","address":"上海市浦东新区奚阳路505号"},{"poiid":"B2094757D06FAAFF409E","title":"DQ","lon":"121.347328378","lat":"31.2845982659","category":"247","category_name":"餐饮美食","address":"上海武威路499号"},{"poiid":"B2094757D06AABF44098","title":"农工商(桃浦店)","lon":"121.3492","lat":"31.28752","category":"117","category_name":"便民商店/便利店","address":"普陀区雪松路186号(近武威路)"},{"poiid":"B2094654D46BA6F54192","title":"桃浦十村紫藤苑","lon":"121.352","lat":"31.2927","category":"47","category_name":"住宅区","address":"银杏路120弄"},{"poiid":"B2094654DB69A6FD459A","title":"中国建设银行桃浦支行","lon":"121.3471","lat":"31.28721","category":"150","category_name":"银行","address":"普陀区白丽路568号(白丽路银杏路)"},{"poiid":"B2094655D36DA0FF479F","title":"雪松路银杏路","lon":"121.34878","lat":"31.28746","category":"38","category_name":"公交车站","address":""},{"poiid":"B2094757D16DA2FE4098","title":"贝贝大酒店","lon":"121.336992054","lat":"31.303102793","category":"76","category_name":"上海菜","address":"宝山区丰翔路2158号(丰翔路园泰路)"},{"poiid":"B2094757D66BA5F44698","title":"南石家常菜","lon":"121.34962167981","lat":"31.286712509856","category":"76","category_name":"上海菜","address":"普陀区雪松路460号(桃浦七村西侧)"},{"poiid":"B2094757D068A6FA4099","title":"吉祥馄饨(雪松店)","lon":"121.351861925","lat":"31.2859890847","category":"68","category_name":"快餐厅","address":"普陀区雪松路436号"},{"poiid":"B2094757D16FAAF5449E","title":"绿谷别墅","lon":"121.33026392","lat":"31.296353299","category":"47","category_name":"住宅区","address":"上海市嘉定区丰翔路"},{"poiid":"B2094753DA64A4FD439F","title":"环球港","lon":"121.349433","lat":"31.288467","category":"500","category_name":"未知分类","address":"上海市 上海市中山北路3300号"},{"poiid":"B2094655D264A7FA429C","title":"好又多真南路店","lon":"121.35215","lat":"31.28968","category":"118","category_name":"超级市场","address":"普陀区真南路2949号"},{"poiid":"B2094757D16BA5FA459F","title":"震轩spa养生馆","lon":"121.34928232","lat":"31.288499336","category":"148","category_name":"美容美发店","address":"上海市绿杨路雪松路口"},{"poiid":"B2094757D569A1F94393","title":"润迅通信(银杏路)","lon":"121.34847656","lat":"31.28755018","category":"138","category_name":"家电电子卖场","address":"银杏路16"},{"poiid":"B2094757D064ABF94293","title":"桃浦游泳馆","lon":"121.344962185","lat":"31.2848239206","category":"220","category_name":"运动场所","address":"上海金通路"},{"poiid":"B2094757D66CA4FE499A","title":"迪亚天天物流中心","lon":"121.34091557","lat":"31.285014963","category":"500","category_name":"未知分类","address":"上海银杏路359号"},{"poiid":"B2094655D268ABFF4999","title":"沪嘉高速公路收费站","lon":"121.3291","lat":"31.29587","category":"267","category_name":"收费站","address":""},{"poiid":"B2094757D66EA5FB499D","title":"白丽苑","lon":"121.34956","lat":"31.283182","category":"47","category_name":"住宅区","address":"上海市普陀区紅棉路311弄"},{"poiid":"B2094654D464A3FF499B","title":"中国外运(金通路)","lon":"121.33226","lat":"31.29059","category":"248","category_name":"生活娱乐","address":""},{"poiid":"B2094654D46BA6F5429B","title":"桃浦四村紫荆苑","lon":"121.35222429009","lat":"31.292685167","category":"47","category_name":"住宅区","address":"绿杨路51弄"},{"poiid":"B2094757D76EA7F84498","title":"苹果花园 桃浦店 Apple Garden","lon":"121.35176","lat":"31.28639","category":"47","category_name":"住宅区","address":"普陀区雪松路368号世纪联华1楼(桃浦规划一路雪松路)"},{"poiid":"B2094757D064A0FF489B","title":"宏立瑞园","lon":"121.32707785316","lat":"31.297452736929","category":"252","category_name":"楼宇机构","address":"上海南翔镇宝翔路560弄"},{"poiid":"B2094655D36DA7FC419F","title":"园泰路丰翔路","lon":"121.33827","lat":"31.30389","category":"38","category_name":"公交车站","address":""},{"poiid":"B2094654D46BAAFF439B","title":"云峰酒家","lon":"121.35099","lat":"31.28682","category":"76","category_name":"上海菜","address":"普陀区雪松路500号(近绿杨路)"},{"poiid":"B2094757D568A4F8459E","title":"莫泰168旅店(上海白丽生活广场店)","lon":"121.34876899","lat":"31.28203451","category":"216","category_name":"经济型连锁酒店","address":"上海普陀区武威路1186号(近百丽路)。"},{"poiid":"B2094654D46BA6F5419C","title":"桃浦三村和乐苑","lon":"121.3536812839","lat":"31.28901827694","category":"47","category_name":"住宅区","address":"西武威路401号"},{"poiid":"B2094655D26FA5FA4592","title":"良友金伴(秋桂路)","lon":"121.34866","lat":"31.28544","category":"117","category_name":"便民商店/便利店","address":""},{"poiid":"B2094757D16FABFC419D","title":"faiveley transport metro (sh)","lon":"121.34649642","lat":"31.300653988","category":"500","category_name":"未知分类","address":"上海宝祁路683号"},{"poiid":"B2094757D164AAFF459E","title":"田季干锅","lon":"121.3447745","lat":"31.302657875","category":"247","category_name":"餐饮美食","address":"上海嘉定区清河路8号"},{"poiid":"B2094654D46BA6F4459D","title":"东海别墅","lon":"121.334","lat":"31.3031","category":"47","category_name":"住宅区","address":"虹光路181弄"},{"poiid":"B2094654D46BA4FA4293","title":"重庆鸡公煲桃浦店","lon":"121.35094","lat":"31.28684","category":"71","category_name":"四川菜","address":"桃浦镇"},{"poiid":"B2094654D46BA4FA4399","title":"良友金伴便利连锁No.235","lon":"121.35073","lat":"31.28697","category":"117","category_name":"便民商店/便利店","address":"桃浦镇"},{"poiid":"B2094757D16DA2FA439A","title":"Victoria's 窝窝","lon":"121.3478504","lat":"31.2845199","category":"247","category_name":"餐饮美食","address":null},{"poiid":"B2094654D46BAAF8489F","title":"华环服装百货城","lon":"121.35241","lat":"31.28896","category":"119","category_name":"商场","address":""},{"poiid":"B2094654D46BA5F94799","title":"通城物流","lon":"121.34704","lat":"31.29964","category":"248","category_name":"生活娱乐","address":"真陈路719"},{"poiid":"B2094654D46BA4FA429B","title":"小刘拉面馆","lon":"121.35153","lat":"31.28652","category":"257","category_name":"中餐厅","address":""},{"poiid":"B2094757D164A7FC4892","title":"丰裕餐饮","lon":"121.350931","lat":"31.286835","category":"247","category_name":"餐饮美食","address":"上海雪松路502号"},{"poiid":"B2094654D46BAAFF4293","title":"金苹果幼儿园","lon":"121.35222","lat":"31.28748","category":"57","category_name":"幼儿园","address":"普陀区雪松路458弄224号"},{"poiid":"B2094757D469A3FF419B","title":"重庆鸡公煲村夫烤鱼 武威路店","lon":"121.338946","lat":"31.28144","category":"71","category_name":"四川菜","address":"普陀区武威路1199号-2(近红棉路)"},{"poiid":"B2094654DB69A6FE479A","title":"易居紫荆苑","lon":"121.354","lat":"31.2913","category":"47","category_name":"住宅区","address":"易居紫荆苑位于普陀白丽路绿杨路口"},{"poiid":"B2094757D16CA4F44492","title":"嘉定金沙路280号","lon":"121.33457055","lat":"31.300987682","category":"500","category_name":"未知分类","address":"上海嘉定金沙路280号科技学院"},{"poiid":"B2094757D065A6FB4292","title":"绿杨路","lon":"121.34792643","lat":"31.285901872","category":"500","category_name":"未知分类","address":"上海家"},{"poiid":"B2094654D46BA4FD449E","title":"杜鹃苑","lon":"121.35133","lat":"31.285521","category":"47","category_name":"住宅区","address":"绿杨路201弄"},{"poiid":"B2094757D665A2FA4793","title":"共富大酒店 武威路店","lon":"121.3408037","lat":"31.2803851","category":"76","category_name":"上海菜","address":"普陀区武威路1199号(近红棉路)"},{"poiid":"B2094655D36DA7FE479A","title":"真陈路","lon":"121.3468","lat":"31.30321","category":"38","category_name":"公交车站","address":""},{"poiid":"B2094757D568A6F94599","title":"星瀚办公楼","lon":"121.3548811","lat":"31.293655","category":"46","category_name":"楼宇","address":"红柳路288号"},{"poiid":"B2094654D46BA5F9459F","title":"上海棚泽八光社","lon":"121.3368","lat":"31.30148","category":"248","category_name":"生活娱乐","address":""},{"poiid":"B2094654D46BA6F54092","title":"桃浦八村","lon":"121.355","lat":"31.2935","category":"47","category_name":"住宅区","address":"银杏路30号"},{"poiid":"B2094757D06BA6F44893","title":"TT&amp;JJ噠小窩","lon":"121.349523925","lat":"31.2868291021","category":"500","category_name":"未知分类","address":null},{"poiid":"B2094757D16BA1FD439C","title":"妯娌老鸭粉丝馆(白丽广场店)","lon":"121.34889292","lat":"31.281839998","category":"68","category_name":"快餐厅","address":"普陀区武威路1118号白丽生活广场2楼(近白丽路)"},{"poiid":"B2094757DB6CA7FD4492","title":"嘉定新城","lon":"121.327738","lat":"31.296815","category":"47","category_name":"住宅区","address":"嘉定区"},{"poiid":"B2094654D46BAAF84999","title":"梦杨饭店","lon":"121.35543","lat":"31.29235","category":"68","category_name":"快餐厅","address":"普陀区红柳路160号(近真陈路)"},{"poiid":"B2094757D165A7FA4399","title":"三味拉面","lon":"121.351568925","lat":"31.2860830866","category":"247","category_name":"餐饮美食","address":"上海雪松路"},{"poiid":"B2094654D46BA6F44599","title":"白丽新村","lon":"121.35219368482","lat":"31.287662160888","category":"47","category_name":"住宅区","address":"绿杨路51弄"},{"poiid":"B2094654D46BA6F54193","title":"桃浦四村杜鹃苑","lon":"121.34926","lat":"31.28463","category":"47","category_name":"住宅区","address":"红棉路201号"},{"poiid":"B2094757D065ABFF4793","title":"老盛枫苏州汤包馆","lon":"121.34900192","lat":"31.283135025","category":"247","category_name":"餐饮美食","address":"上海地铁11号线桃浦新村站旁"},{"poiid":"B2094757D568AAFE439C","title":"世纪华联超市(雪松路)","lon":"121.35171468","lat":"31.28642822","category":"118","category_name":"超级市场","address":"雪松路460"},{"poiid":"B2094753D76CA4F8479B","title":"上海保利国际影城祥腾店","lon":"121.32801","lat":"31.294763","category":"248","category_name":"生活娱乐","address":"上海市嘉定区真南路4368弄"},{"poiid":"B2094654D46BABFD439A","title":"千之莲足浴","lon":"121.34838","lat":"31.28536","category":"149","category_name":"洗浴推拿场所","address":""},{"poiid":"B2094757D165A0F54199","title":"金迈路356弄","lon":"121.32850282","lat":"31.288970646","category":"47","category_name":"住宅区","address":"上海搓浦新家苑"},{"poiid":"B2094757D568ABFA429E","title":"中国邮政储蓄银行(红棉路支行)","lon":"121.34793972","lat":"31.28497342","category":"150","category_name":"银行","address":"白丽路506"},{"poiid":"B2094757D169A3FB4099","title":"上海惠而顺精密工具有限公司","lon":"121.34604442","lat":"31.301801012","category":"263","category_name":"公司","address":"上海市宝山区真陈路868号3号厂房"},{"poiid":"B2094753D665A6FA449C","title":"捞王锅物料理","lon":"121.326644","lat":"31.293373","category":"247","category_name":"餐饮美食","address":"上海市 中冶翔腾广场"},{"poiid":"B2094654DB6AA4F9469D","title":"好德","lon":"121.35196","lat":"31.28577","category":"117","category_name":"便民商店/便利店","address":"雪松路447"},{"poiid":"B2094654D46BA6F5439A","title":"亚龙别墅","lon":"121.3298","lat":"31.29974","category":"47","category_name":"住宅区","address":"虹光路"},{"poiid":"B2094757D16CABFB4098","title":"新杨中学","lon":"121.354549497","lat":"31.2876831212","category":"55","category_name":"中学","address":"普陀区雪松路458弄88号(近绿杨路)"},{"poiid":"B2094757D169A6FF4299","title":"D 76动车","lon":"121.35248565","lat":"31.289300918","category":"263","category_name":"公司","address":"上海到青岛"},{"poiid":"B2094757D16EAAFE469F","title":"CoCo都可茶饮(桃浦店)","lon":"121.34867442","lat":"31.284487153","category":"500","category_name":"未知分类","address":"上海武威路雪松路"},{"poiid":"B2094654D464A3FD449D","title":"上海新杨饲料工业有限公司","lon":"121.35226","lat":"31.28964","category":"263","category_name":"公司","address":"真南路3010"},{"poiid":"B2094654D46BA4FE419E","title":"搓浦新家园(众仁路)","lon":"121.32743","lat":"31.28804","category":"47","category_name":"住宅区","address":""},{"poiid":"B2094654D46BAAFF4399","title":"中国电信(雪松路)","lon":"121.35128","lat":"31.28606","category":"138","category_name":"家电电子卖场","address":""},{"poiid":"B2094752D06DABFB4093","title":"上海钢联","lon":"121.338421","lat":"31.302968","category":"500","category_name":"未知分类","address":"园丰路68号"},{"poiid":"B2094757D065A2FA429C","title":"银杏路659号","lon":"121.33919632","lat":"31.282221606","category":"500","category_name":"未知分类","address":"上海银杏路659号"},{"poiid":"B2094757D66FA7F54093","title":"豪大大鸡排","lon":"121.35273642","lat":"31.286301791","category":"247","category_name":"餐饮美食","address":"上海雪松路384号"},{"poiid":"B2094757D568A6FB469B","title":"快客便利店(郁李路)","lon":"121.34622396","lat":"31.28221707","category":"117","category_name":"便民商店/便利店","address":"中国上海市普陀区规划二路"},{"poiid":"B2094757D164A3F5449B","title":"小禾家","lon":"121.352164","lat":"31.287785","category":"500","category_name":"未知分类","address":"上海桃浦七村"},{"poiid":"B2094757D06AA2F5409A","title":"和一铁板烧","lon":"121.34955992","lat":"31.281823998","category":"247","category_name":"餐饮美食","address":"上海白丽广场(桃浦)"},{"poiid":"B2094654D464A3FD4292","title":"桃浦镇新杨工业园区合作医疗卫生室","lon":"121.35533","lat":"31.29404","category":"162","category_name":"医院","address":""},{"poiid":"B2094757D16EA7FB4099","title":"自由港(桃浦店)","lon":"121.34675012","lat":"31.281990501","category":"500","category_name":"未知分类","address":"上海普陀区武威路百丽生活广场4楼"},{"poiid":"B2094654D46BA4FD4499","title":"上海雪松小商品综合市场","lon":"121.35116","lat":"31.28324","category":"120","category_name":"小商品市场","address":""},{"poiid":"B2094757D06BABFD489A","title":"南翔税务所","lon":"121.32702892","lat":"31.296008292","category":"500","category_name":"未知分类","address":"上海真南路4268号"},{"poiid":"B2094757D66DA3FF429D","title":"top=桃浦","lon":"121.349473925","lat":"31.28334703","category":"500","category_name":"未知分类","address":"上海桃浦三村"},{"poiid":"B2094757D06AA0F8489A","title":"鑫鱼港(白丽生活广场店)","lon":"121.349532738","lat":"31.281934463","category":"500","category_name":"未知分类","address":"上海普陀区武威路1118号白丽生活广场4楼"},{"poiid":"B2094654D46BA5F9429C","title":"上海嘉宝南翔工业园区","lon":"121.33299","lat":"31.30469","category":"45","category_name":"产业园区","address":""},{"poiid":"B2094757D16CA1FB4393","title":"和乐苑","lon":"121.34688082","lat":"31.28146209","category":"252","category_name":"楼宇机构","address":"上海桃浦老三村"},{"poiid":"B2094757D568ABF9419A","title":"玲珑雅苑","lon":"121.336","lat":"31.306","category":"47","category_name":"住宅区","address":"上海嘉定区丰翔路3155弄1-3号等"},{"poiid":"B2094751DB64A7FD4692","title":"豪之华","lon":"121.34829","lat":"31.28167","category":"76","category_name":"上海菜","address":"普陀区武威路1285号3楼(近白丽路)"},{"poiid":"B2094654D46BAAF8479D","title":"普陀区桃浦新村幼儿园","lon":"121.35255","lat":"31.28494","category":"57","category_name":"幼儿园","address":"普陀区绿杨路229号(近雪松路)"},{"poiid":"B2094757D16CA4F94498","title":"838终点站","lon":"121.352715125","lat":"31.2862660904","category":"500","category_name":"未知分类","address":"上海桃浦七村西面 苏北饭店旁"},{"poiid":"B2094757D065A1FD429C","title":"沃尔玛","lon":"121.349463925","lat":"31.2818879997","category":"500","category_name":"未知分类","address":"上海市普陀区红棉路"},{"poiid":"B2094757D164A2FC429F","title":"上海硕克丝印器材有限公司","lon":"121.338847025","lat":"31.2822296068","category":"263","category_name":"公司","address":"上海市银杏路659号5号楼4楼"},{"poiid":"B2094654D46BA6F5459A","title":"众仁花苑","lon":"121.32996","lat":"31.283659","category":"47","category_name":"住宅区","address":"众仁路1号"},{"poiid":"B2094757D06BAAF9449A","title":"桃浦新村石榴苑","lon":"121.34212162","lat":"31.280734575","category":"252","category_name":"楼宇机构","address":"上海绿杨路"},{"poiid":"B2094757D569A3FA4292","title":"蓝色天空(杜鹃苑东)","lon":"121.35268338","lat":"31.2858469","category":"141","category_name":"服装鞋帽皮具店","address":"雪松路408"},{"poiid":"B2094757D06AA4F8439C","title":"xX玮玮丶House","lon":"121.352181925","lat":"31.286100087","category":"500","category_name":"未知分类","address":null},{"poiid":"B2094654D46BA5F94393","title":"国家木材市场分市场","lon":"121.33191","lat":"31.30346","category":"123","category_name":"家具建材市场","address":""},{"poiid":"B2094757D569A1FA4793","title":"永乐电器(白丽生活广场西)","lon":"121.34955892","lat":"31.28205485","category":"138","category_name":"家电电子卖场","address":"上海市普陀区武威路1118号2-3楼"},{"poiid":"B2094757D069A3FA429C","title":"雪松路503弄","lon":"121.352651","lat":"31.285502","category":"500","category_name":"未知分类","address":"上海桃浦五村"},{"poiid":"B2094757D16BAAFF4198","title":"古月美发","lon":"121.35227672","lat":"31.284563755","category":"148","category_name":"美容美发店","address":"上海红棉路334号"},{"poiid":"B2094751DA6EAAFF499F","title":"五洲水乡大酒店","lon":"121.3457","lat":"31.28121","category":"260","category_name":"其他","address":"普陀区武威路1285号恒达广场3楼"},{"poiid":"B2094654D46BA4FA409C","title":"雅芳专卖(雪松路)","lon":"121.35279","lat":"31.28575","category":"255","category_name":"专卖店","address":""},{"poiid":"B2094757D169A2FC4692","title":"复旦大学兴业光学楼","lon":"121.34955392","lat":"31.281629994","category":"500","category_name":"未知分类","address":"上海复旦大学邯郸校区"},{"poiid":"B2094654DB6AA3F9489D","title":"白丽派出所","lon":"121.35064","lat":"31.28223","category":"609","category_name":"警察局","address":"普陀区红棉路301弄1号"},{"poiid":"B2094757D16CAAFC4493","title":"路路美容美发","lon":"121.35328293","lat":"31.285366284","category":"148","category_name":"美容美发店","address":"上海雪松路"},{"poiid":"B2094654D46BA5FD4198","title":"普洛斯西北物流园","lon":"121.34087","lat":"31.27944","category":"248","category_name":"生活娱乐","address":""},{"poiid":"B2094757D66EA1FB469D","title":"上海市卫生学校","lon":"121.35191112","lat":"31.283430551","category":"253","category_name":"校园生活","address":"上海梅陇路21号"},{"poiid":"B2094750DA65A6F8459C","title":"桃浦恒达休闲广场","lon":"121.347976","lat":"31.280614","category":"248","category_name":"生活娱乐","address":null},{"poiid":"B2094654D46BA4FD439B","title":"上海量华物流有限公司","lon":"121.33508","lat":"31.2805","category":"248","category_name":"生活娱乐","address":""}]