[{"poiid":"B2094655D268A2F8459B","title":"鹿都国际商业广场","lon":"121.23458","lat":"31.00451","category":"119","category_name":"商场","address":"松江松汇中路568号（近中山中路，人民路）"},{"poiid":"B2094655D36DA6FF499D","title":"上海左岸国际影城（松江店）","lon":"121.23458","lat":"31.00451","category":"178","category_name":"电影院","address":"上海松江区松汇中路568号鹿都国际广场4楼"},{"poiid":"B2094757D06AA7FF489B","title":"上海松江假日酒店","lon":"121.235974117","lat":"31.0058816693","category":"217","category_name":"旅馆招待所","address":"松江区中山中路83号平高世贸中心(近谷阳路)"},{"poiid":"B2094750DA6CA2F84092","title":"乐颂坊","lon":"121.235855","lat":"31.004205","category":"500","category_name":"未知分类","address":null},{"poiid":"B2094757D068A6FD459C","title":"PANKOO釜山料理(松江平高店)","lon":"121.23541902","lat":"31.006209294","category":"96","category_name":"韩国料理","address":"上海市松江区中山中路71号5楼平高世贸中心5楼"},{"poiid":"B2094757D068A3F4429B","title":"沃尔玛(松江店)","lon":"121.234816","lat":"31.004051","category":"118","category_name":"超级市场","address":"松江区松汇中路568号鹿都国际商业广场内(近庙前街)"},{"poiid":"B2094757D069A6FA4592","title":"上海红楼戴斯宾馆","lon":"121.23897","lat":"31.00381","category":"217","category_name":"旅馆招待所","address":"松江区普照路1号(近松汇路)"},{"poiid":"B2094750DA65A4FF479F","title":"猫的天空之城","lon":"121.235542","lat":"31.003101","category":"248","category_name":"生活娱乐","address":"松汇中路496号"},{"poiid":"B2094757D06AAAF9489B","title":"松江一中","lon":"121.23373","lat":"31.00276","category":"55","category_name":"中学","address":"松江区松汇中路601号"},{"poiid":"B2094751DA69A7F4459D","title":"星巴克","lon":"121.235518","lat":"31.005691","category":"247","category_name":"餐饮美食","address":"上海松江松汇中路568号乐颂坊1楼"},{"poiid":"B2094757D06AA5FC429C","title":"百特喜意式餐厅","lon":"121.23449","lat":"31.004514","category":"94","category_name":"西餐厅","address":"松江区松汇中路568号鹿都沃尔玛生活广场4楼"},{"poiid":"B2094757D66CA3F94492","title":"松临日本料理松江店","lon":"121.235353467","lat":"31.005958971","category":"95","category_name":"日本料理","address":"松江区中山中路71号平高世贸中心7楼(中山中路谷阳北路)"},{"poiid":"B2094757D06AA0FE489F","title":"田季干锅","lon":"121.23554602","lat":"31.0062322936","category":"71","category_name":"四川菜","address":"松江区中山中路83号平高世贸中心B1楼"},{"poiid":"B2094757D069AAFA4098","title":"健康煮 中山中路店","lon":"121.2317063","lat":"31.0066983","category":"86","category_name":"火锅店","address":"松江区中山中路73号平高国际世贸中心4楼"},{"poiid":"B2094757D664AAF9419C","title":"韩林炭烤 松江店","lon":"121.233638","lat":"31.004928","category":"96","category_name":"韩国料理","address":"松江区松汇中路568号鹿都国际广场(松汇中路庙前街)"},{"poiid":"B2094752D36CA6FC499E","title":"猫屎咖啡","lon":"121.235596","lat":"31.00531","category":"247","category_name":"餐饮美食","address":"鹿都生活广场"},{"poiid":"B2094757D165A6F8449E","title":"呀咪咖喱屋","lon":"121.235324467","lat":"31.0059899717","category":"247","category_name":"餐饮美食","address":"松汇中路568号A座A131-132"},{"poiid":"B2094750DA6CA3FD4299","title":"black &magic","lon":"121.235366","lat":"31.005924","category":"247","category_name":"餐饮美食","address":"乐颂坊"},{"poiid":"B2094757D468AAFE4493","title":"韦斯顿","lon":"121.234582","lat":"31.004526","category":"268","category_name":"自助","address":"松江区松汇中路568号沃尔玛4楼"},{"poiid":"B2094757D065ABFB4298","title":"小肥羊 松江店","lon":"121.23276","lat":"31.00487","category":"86","category_name":"火锅店","address":"松江区松汇中路648号(近谷阳路)"},{"poiid":"B2094757D465A2F54698","title":"红楼宾馆餐厅","lon":"121.238887054","lat":"31.003731793","category":"76","category_name":"上海菜","address":"松江区普照路1号红楼戴斯宾馆内(近松汇路)"},{"poiid":"B2094751D369A2F8489A","title":"摩休敦纳韩国年糕料理(乐颂坊店)","lon":"121.23458","lat":"31.00452","category":"96","category_name":"韩国料理","address":"松江区松汇中路568号乐颂坊1楼(近沃尔玛)"},{"poiid":"B2094750D56EA4FF429F","title":"精悦蓉香锅牛蛙","lon":"121.235794","lat":"31.006372","category":"247","category_name":"餐饮美食","address":null},{"poiid":"B2094757D464A0F9499C","title":"鲁山人","lon":"121.23868008277","lat":"31.007122656877","category":"95","category_name":"日本料理","address":"松江区普照路71号(中山东路中山中路)"},{"poiid":"B2094655D268A6F9469A","title":"烤友社","lon":"121.236150054","lat":"31.007009793","category":"96","category_name":"韩国料理","address":"松江区谷阳南路52号(近中山中路)"},{"poiid":"B2094757D169A4F84392","title":"余天成养生馆","lon":"121.240055517","lat":"31.0042379833","category":"76","category_name":"上海菜","address":"松江区普照路8号(近松汇东路)"},{"poiid":"B2094655D26FAAFB499F","title":"世纪华联(上海松江汽车运输公司东北)","lon":"121.23621","lat":"30.99776","category":"117","category_name":"便民商店/便利店","address":""},{"poiid":"B2094655D26BA2FD409D","title":"污水厂","lon":"121.24153","lat":"30.99344","category":"38","category_name":"公交车站","address":""},{"poiid":"B2094654DB6DAAF54498","title":"南良苑","lon":"121.24284","lat":"31.001511","category":"47","category_name":"住宅区","address":"松汇东路291弄"},{"poiid":"B2094654DB6DAAF5449A","title":"松南饭店","lon":"121.240392054","lat":"31.003574793","category":"76","category_name":"上海菜","address":"松江区松汇东路299号(近红楼宾馆)"},{"poiid":"B2094757D16FA4F9419D","title":"肯德基 KFC (谷阳店)","lon":"121.234574","lat":"31.004513","category":"68","category_name":"快餐厅","address":"松江区松汇中路568号沃尔玛2楼(近庙前街)"},{"poiid":"B2094752D269AAF8429A","title":"渔寿司","lon":"121.235446","lat":"31.005822","category":"247","category_name":"餐饮美食","address":"上海市松江区中山中路150号2楼"},{"poiid":"B2094753D36EA1F44592","title":"首尔焖鲜汇(乐颂坊店)","lon":"121.239766","lat":"31.006933","category":"86","category_name":"火锅店","address":"松汇中路568号乐颂坊B座303单元(近普照路)"},{"poiid":"B2094654DB6EA2FC429F","title":"松荣 松江店","lon":"121.23871060014","lat":"31.006320293222","category":"95","category_name":"日本料理","address":"松江区普照路81号(中山东路中山中路)"},{"poiid":"B2094655D268A2F44198","title":"圣亚嘉洲","lon":"121.24496","lat":"31.00177","category":"149","category_name":"洗浴推拿场所","address":""},{"poiid":"B2094751D46BA6F8459A","title":"乐颂坊商业广场","lon":"121.235503","lat":"31.005955","category":"119","category_name":"商场","address":"松江区松汇中路568号"},{"poiid":"B2094654DB6EA3F84699","title":"南园子","lon":"121.2393","lat":"31.002098","category":"47","category_name":"住宅区","address":"松汇中路371弄"},{"poiid":"B2094757D16DA0F44099","title":"大鼓米线","lon":"121.234720467","lat":"31.0053149569","category":"247","category_name":"餐饮美食","address":"上海沃尔玛内"},{"poiid":"B2094654DB6EA2FC4899","title":"松江剧场","lon":"121.2387","lat":"31.00584","category":"180","category_name":"剧场","address":"松江区中山中路37号"},{"poiid":"B2094654DB6DAAF54898","title":"申和苑","lon":"121.24516","lat":"31.000519","category":"47","category_name":"住宅区","address":"松金公路10052弄"},{"poiid":"B2094757D76DA1FC4993","title":"欧露Olala","lon":"121.23457","lat":"31.00451","category":"67","category_name":"甜品店","address":"松江区松汇中路568号鹿都国际商业广场A023室(近庙前街)"},{"poiid":"B2094654DB6EA3F84599","title":"松汇小区","lon":"121.23827","lat":"31.002588","category":"47","category_name":"住宅区","address":"松汇中路401弄"},{"poiid":"B2094757D464A5FF429D","title":"川域烤鱼","lon":"121.234954","lat":"31.004654","category":"71","category_name":"四川菜","address":"松江区松汇中路鹿都商业广场B1楼(近庙前街)"},{"poiid":"B2094655D26BA1FC419D","title":"普照路中山中路","lon":"121.23973","lat":"31.0032","category":"38","category_name":"公交车站","address":""},{"poiid":"B2094757D168A3FC4299","title":"松临日本料理·铁板烧","lon":"121.239858467","lat":"31.0066479861","category":"247","category_name":"餐饮美食","address":"上海松江中山中路77号平高世贸中心7F"},{"poiid":"B2094654DB6DAAF5439B","title":"上海良友经济开发区","lon":"121.24212","lat":"31.00266","category":"45","category_name":"产业园区","address":"松汇东路323"},{"poiid":"B2094654DB6DAAF5449B","title":"好德便利NO.209","lon":"121.24288","lat":"31.00259","category":"117","category_name":"便民商店/便利店","address":"松江镇"},{"poiid":"B2094654DB6EA3F84199","title":"好德(谷阳南路)","lon":"121.23721","lat":"31.00283","category":"117","category_name":"便民商店/便利店","address":""},{"poiid":"B2094750D76FA0F5489A","title":"优莱寿司","lon":"121.235","lat":"31.0045","category":"95","category_name":"日本料理","address":"松江区松汇中路568号鹿都国际商业广场1楼"},{"poiid":"B2094750D76DA2FC489F","title":"台味味主食馆(鹿都商业广场店)","lon":"121.235","lat":"31.0044","category":"91","category_name":"台湾菜","address":"松江区松汇中路568号鹿都商业广场A座1楼139-140号"},{"poiid":"B2094655D268A2F8459B","title":"鹿都国际商业广场","lon":"121.23458","lat":"31.00451","category":"119","category_name":"商场","address":"松江松汇中路568号（近中山中路，人民路）"},{"poiid":"B2094655D36DA6FF499D","title":"上海左岸国际影城（松江店）","lon":"121.23458","lat":"31.00451","category":"178","category_name":"电影院","address":"上海松江区松汇中路568号鹿都国际广场4楼"},{"poiid":"B2094757D06AA7FF489B","title":"上海松江假日酒店","lon":"121.235974117","lat":"31.0058816693","category":"217","category_name":"旅馆招待所","address":"松江区中山中路83号平高世贸中心(近谷阳路)"},{"poiid":"B2094750DA6CA2F84092","title":"乐颂坊","lon":"121.235855","lat":"31.004205","category":"500","category_name":"未知分类","address":null},{"poiid":"B2094757D068A6FD459C","title":"PANKOO釜山料理(松江平高店)","lon":"121.23541902","lat":"31.006209294","category":"96","category_name":"韩国料理","address":"上海市松江区中山中路71号5楼平高世贸中心5楼"},{"poiid":"B2094757D068A3F4429B","title":"沃尔玛(松江店)","lon":"121.234816","lat":"31.004051","category":"118","category_name":"超级市场","address":"松江区松汇中路568号鹿都国际商业广场内(近庙前街)"},{"poiid":"B2094757D069A6FA4592","title":"上海红楼戴斯宾馆","lon":"121.23897","lat":"31.00381","category":"217","category_name":"旅馆招待所","address":"松江区普照路1号(近松汇路)"},{"poiid":"B2094750DA65A4FF479F","title":"猫的天空之城","lon":"121.235542","lat":"31.003101","category":"248","category_name":"生活娱乐","address":"松汇中路496号"},{"poiid":"B2094757D06AAAF9489B","title":"松江一中","lon":"121.23373","lat":"31.00276","category":"55","category_name":"中学","address":"松江区松汇中路601号"},{"poiid":"B2094751DA69A7F4459D","title":"星巴克","lon":"121.235518","lat":"31.005691","category":"247","category_name":"餐饮美食","address":"上海松江松汇中路568号乐颂坊1楼"},{"poiid":"B2094757D06AA5FC429C","title":"百特喜意式餐厅","lon":"121.23449","lat":"31.004514","category":"94","category_name":"西餐厅","address":"松江区松汇中路568号鹿都沃尔玛生活广场4楼"},{"poiid":"B2094757D66CA3F94492","title":"松临日本料理松江店","lon":"121.235353467","lat":"31.005958971","category":"95","category_name":"日本料理","address":"松江区中山中路71号平高世贸中心7楼(中山中路谷阳北路)"},{"poiid":"B2094757D06AA0FE489F","title":"田季干锅","lon":"121.23554602","lat":"31.0062322936","category":"71","category_name":"四川菜","address":"松江区中山中路83号平高世贸中心B1楼"},{"poiid":"B2094757D069AAFA4098","title":"健康煮 中山中路店","lon":"121.2317063","lat":"31.0066983","category":"86","category_name":"火锅店","address":"松江区中山中路73号平高国际世贸中心4楼"},{"poiid":"B2094757D664AAF9419C","title":"韩林炭烤 松江店","lon":"121.233638","lat":"31.004928","category":"96","category_name":"韩国料理","address":"松江区松汇中路568号鹿都国际广场(松汇中路庙前街)"},{"poiid":"B2094752D36CA6FC499E","title":"猫屎咖啡","lon":"121.235596","lat":"31.00531","category":"247","category_name":"餐饮美食","address":"鹿都生活广场"},{"poiid":"B2094757D165A6F8449E","title":"呀咪咖喱屋","lon":"121.235324467","lat":"31.0059899717","category":"247","category_name":"餐饮美食","address":"松汇中路568号A座A131-132"},{"poiid":"B2094750DA6CA3FD4299","title":"black &magic","lon":"121.235366","lat":"31.005924","category":"247","category_name":"餐饮美食","address":"乐颂坊"},{"poiid":"B2094757D468AAFE4493","title":"韦斯顿","lon":"121.234582","lat":"31.004526","category":"268","category_name":"自助","address":"松江区松汇中路568号沃尔玛4楼"},{"poiid":"B2094757D065ABFB4298","title":"小肥羊 松江店","lon":"121.23276","lat":"31.00487","category":"86","category_name":"火锅店","address":"松江区松汇中路648号(近谷阳路)"},{"poiid":"B2094757D465A2F54698","title":"红楼宾馆餐厅","lon":"121.238887054","lat":"31.003731793","category":"76","category_name":"上海菜","address":"松江区普照路1号红楼戴斯宾馆内(近松汇路)"},{"poiid":"B2094751D369A2F8489A","title":"摩休敦纳韩国年糕料理(乐颂坊店)","lon":"121.23458","lat":"31.00452","category":"96","category_name":"韩国料理","address":"松江区松汇中路568号乐颂坊1楼(近沃尔玛)"},{"poiid":"B2094750D56EA4FF429F","title":"精悦蓉香锅牛蛙","lon":"121.235794","lat":"31.006372","category":"247","category_name":"餐饮美食","address":null},{"poiid":"B2094757D464A0F9499C","title":"鲁山人","lon":"121.23868008277","lat":"31.007122656877","category":"95","category_name":"日本料理","address":"松江区普照路71号(中山东路中山中路)"},{"poiid":"B2094655D268A6F9469A","title":"烤友社","lon":"121.236150054","lat":"31.007009793","category":"96","category_name":"韩国料理","address":"松江区谷阳南路52号(近中山中路)"},{"poiid":"B2094757D169A4F84392","title":"余天成养生馆","lon":"121.240055517","lat":"31.0042379833","category":"76","category_name":"上海菜","address":"松江区普照路8号(近松汇东路)"},{"poiid":"B2094655D26FAAFB499F","title":"世纪华联(上海松江汽车运输公司东北)","lon":"121.23621","lat":"30.99776","category":"117","category_name":"便民商店/便利店","address":""},{"poiid":"B2094655D26BA2FD409D","title":"污水厂","lon":"121.24153","lat":"30.99344","category":"38","category_name":"公交车站","address":""},{"poiid":"B2094654DB6DAAF54498","title":"南良苑","lon":"121.24284","lat":"31.001511","category":"47","category_name":"住宅区","address":"松汇东路291弄"},{"poiid":"B2094654DB6DAAF5449A","title":"松南饭店","lon":"121.240392054","lat":"31.003574793","category":"76","category_name":"上海菜","address":"松江区松汇东路299号(近红楼宾馆)"},{"poiid":"B2094757D16FA4F9419D","title":"肯德基 KFC (谷阳店)","lon":"121.234574","lat":"31.004513","category":"68","category_name":"快餐厅","address":"松江区松汇中路568号沃尔玛2楼(近庙前街)"},{"poiid":"B2094752D269AAF8429A","title":"渔寿司","lon":"121.235446","lat":"31.005822","category":"247","category_name":"餐饮美食","address":"上海市松江区中山中路150号2楼"},{"poiid":"B2094753D36EA1F44592","title":"首尔焖鲜汇(乐颂坊店)","lon":"121.239766","lat":"31.006933","category":"86","category_name":"火锅店","address":"松汇中路568号乐颂坊B座303单元(近普照路)"},{"poiid":"B2094654DB6EA2FC429F","title":"松荣 松江店","lon":"121.23871060014","lat":"31.006320293222","category":"95","category_name":"日本料理","address":"松江区普照路81号(中山东路中山中路)"},{"poiid":"B2094655D268A2F44198","title":"圣亚嘉洲","lon":"121.24496","lat":"31.00177","category":"149","category_name":"洗浴推拿场所","address":""},{"poiid":"B2094751D46BA6F8459A","title":"乐颂坊商业广场","lon":"121.235503","lat":"31.005955","category":"119","category_name":"商场","address":"松江区松汇中路568号"},{"poiid":"B2094654DB6EA3F84699","title":"南园子","lon":"121.2393","lat":"31.002098","category":"47","category_name":"住宅区","address":"松汇中路371弄"},{"poiid":"B2094757D16DA0F44099","title":"大鼓米线","lon":"121.234720467","lat":"31.0053149569","category":"247","category_name":"餐饮美食","address":"上海沃尔玛内"},{"poiid":"B2094654DB6EA2FC4899","title":"松江剧场","lon":"121.2387","lat":"31.00584","category":"180","category_name":"剧场","address":"松江区中山中路37号"},{"poiid":"B2094654DB6DAAF54898","title":"申和苑","lon":"121.24516","lat":"31.000519","category":"47","category_name":"住宅区","address":"松金公路10052弄"},{"poiid":"B2094757D76DA1FC4993","title":"欧露Olala","lon":"121.23457","lat":"31.00451","category":"67","category_name":"甜品店","address":"松江区松汇中路568号鹿都国际商业广场A023室(近庙前街)"},{"poiid":"B2094654DB6EA3F84599","title":"松汇小区","lon":"121.23827","lat":"31.002588","category":"47","category_name":"住宅区","address":"松汇中路401弄"},{"poiid":"B2094757D464A5FF429D","title":"川域烤鱼","lon":"121.234954","lat":"31.004654","category":"71","category_name":"四川菜","address":"松江区松汇中路鹿都商业广场B1楼(近庙前街)"},{"poiid":"B2094655D26BA1FC419D","title":"普照路中山中路","lon":"121.23973","lat":"31.0032","category":"38","category_name":"公交车站","address":""},{"poiid":"B2094757D168A3FC4299","title":"松临日本料理·铁板烧","lon":"121.239858467","lat":"31.0066479861","category":"247","category_name":"餐饮美食","address":"上海松江中山中路77号平高世贸中心7F"},{"poiid":"B2094654DB6DAAF5439B","title":"上海良友经济开发区","lon":"121.24212","lat":"31.00266","category":"45","category_name":"产业园区","address":"松汇东路323"},{"poiid":"B2094654DB6DAAF5449B","title":"好德便利NO.209","lon":"121.24288","lat":"31.00259","category":"117","category_name":"便民商店/便利店","address":"松江镇"},{"poiid":"B2094654DB6EA3F84199","title":"好德(谷阳南路)","lon":"121.23721","lat":"31.00283","category":"117","category_name":"便民商店/便利店","address":""},{"poiid":"B2094750D76FA0F5489A","title":"优莱寿司","lon":"121.235","lat":"31.0045","category":"95","category_name":"日本料理","address":"松江区松汇中路568号鹿都国际商业广场1楼"},{"poiid":"B2094750D76DA2FC489F","title":"台味味主食馆(鹿都商业广场店)","lon":"121.235","lat":"31.0044","category":"91","category_name":"台湾菜","address":"松江区松汇中路568号鹿都商业广场A座1楼139-140号"},{"poiid":"B2094655D268A2F8459B","title":"鹿都国际商业广场","lon":"121.23458","lat":"31.00451","category":"119","category_name":"商场","address":"松江松汇中路568号（近中山中路，人民路）"},{"poiid":"B2094655D36DA6FF499D","title":"上海左岸国际影城（松江店）","lon":"121.23458","lat":"31.00451","category":"178","category_name":"电影院","address":"上海松江区松汇中路568号鹿都国际广场4楼"},{"poiid":"B2094757D06AA7FF489B","title":"上海松江假日酒店","lon":"121.235974117","lat":"31.0058816693","category":"217","category_name":"旅馆招待所","address":"松江区中山中路83号平高世贸中心(近谷阳路)"},{"poiid":"B2094750DA6CA2F84092","title":"乐颂坊","lon":"121.235855","lat":"31.004205","category":"500","category_name":"未知分类","address":null},{"poiid":"B2094757D068A6FD459C","title":"PANKOO釜山料理(松江平高店)","lon":"121.23541902","lat":"31.006209294","category":"96","category_name":"韩国料理","address":"上海市松江区中山中路71号5楼平高世贸中心5楼"},{"poiid":"B2094757D068A3F4429B","title":"沃尔玛(松江店)","lon":"121.234816","lat":"31.004051","category":"118","category_name":"超级市场","address":"松江区松汇中路568号鹿都国际商业广场内(近庙前街)"},{"poiid":"B2094757D069A6FA4592","title":"上海红楼戴斯宾馆","lon":"121.23897","lat":"31.00381","category":"217","category_name":"旅馆招待所","address":"松江区普照路1号(近松汇路)"},{"poiid":"B2094750DA65A4FF479F","title":"猫的天空之城","lon":"121.235542","lat":"31.003101","category":"248","category_name":"生活娱乐","address":"松汇中路496号"},{"poiid":"B2094757D06AAAF9489B","title":"松江一中","lon":"121.23373","lat":"31.00276","category":"55","category_name":"中学","address":"松江区松汇中路601号"},{"poiid":"B2094751DA69A7F4459D","title":"星巴克","lon":"121.235518","lat":"31.005691","category":"247","category_name":"餐饮美食","address":"上海松江松汇中路568号乐颂坊1楼"},{"poiid":"B2094757D06AA5FC429C","title":"百特喜意式餐厅","lon":"121.23449","lat":"31.004514","category":"94","category_name":"西餐厅","address":"松江区松汇中路568号鹿都沃尔玛生活广场4楼"},{"poiid":"B2094757D66CA3F94492","title":"松临日本料理松江店","lon":"121.235353467","lat":"31.005958971","category":"95","category_name":"日本料理","address":"松江区中山中路71号平高世贸中心7楼(中山中路谷阳北路)"},{"poiid":"B2094757D06AA0FE489F","title":"田季干锅","lon":"121.23554602","lat":"31.0062322936","category":"71","category_name":"四川菜","address":"松江区中山中路83号平高世贸中心B1楼"},{"poiid":"B2094757D069AAFA4098","title":"健康煮 中山中路店","lon":"121.2317063","lat":"31.0066983","category":"86","category_name":"火锅店","address":"松江区中山中路73号平高国际世贸中心4楼"},{"poiid":"B2094757D664AAF9419C","title":"韩林炭烤 松江店","lon":"121.233638","lat":"31.004928","category":"96","category_name":"韩国料理","address":"松江区松汇中路568号鹿都国际广场(松汇中路庙前街)"},{"poiid":"B2094752D36CA6FC499E","title":"猫屎咖啡","lon":"121.235596","lat":"31.00531","category":"247","category_name":"餐饮美食","address":"鹿都生活广场"},{"poiid":"B2094757D165A6F8449E","title":"呀咪咖喱屋","lon":"121.235324467","lat":"31.0059899717","category":"247","category_name":"餐饮美食","address":"松汇中路568号A座A131-132"},{"poiid":"B2094750DA6CA3FD4299","title":"black &magic","lon":"121.235366","lat":"31.005924","category":"247","category_name":"餐饮美食","address":"乐颂坊"},{"poiid":"B2094757D468AAFE4493","title":"韦斯顿","lon":"121.234582","lat":"31.004526","category":"268","category_name":"自助","address":"松江区松汇中路568号沃尔玛4楼"},{"poiid":"B2094757D065ABFB4298","title":"小肥羊 松江店","lon":"121.23276","lat":"31.00487","category":"86","category_name":"火锅店","address":"松江区松汇中路648号(近谷阳路)"},{"poiid":"B2094757D465A2F54698","title":"红楼宾馆餐厅","lon":"121.238887054","lat":"31.003731793","category":"76","category_name":"上海菜","address":"松江区普照路1号红楼戴斯宾馆内(近松汇路)"},{"poiid":"B2094751D369A2F8489A","title":"摩休敦纳韩国年糕料理(乐颂坊店)","lon":"121.23458","lat":"31.00452","category":"96","category_name":"韩国料理","address":"松江区松汇中路568号乐颂坊1楼(近沃尔玛)"},{"poiid":"B2094750D56EA4FF429F","title":"精悦蓉香锅牛蛙","lon":"121.235794","lat":"31.006372","category":"247","category_name":"餐饮美食","address":null},{"poiid":"B2094757D464A0F9499C","title":"鲁山人","lon":"121.23868008277","lat":"31.007122656877","category":"95","category_name":"日本料理","address":"松江区普照路71号(中山东路中山中路)"},{"poiid":"B2094655D268A6F9469A","title":"烤友社","lon":"121.236150054","lat":"31.007009793","category":"96","category_name":"韩国料理","address":"松江区谷阳南路52号(近中山中路)"},{"poiid":"B2094757D169A4F84392","title":"余天成养生馆","lon":"121.240055517","lat":"31.0042379833","category":"76","category_name":"上海菜","address":"松江区普照路8号(近松汇东路)"},{"poiid":"B2094655D26FAAFB499F","title":"世纪华联(上海松江汽车运输公司东北)","lon":"121.23621","lat":"30.99776","category":"117","category_name":"便民商店/便利店","address":""},{"poiid":"B2094655D26BA2FD409D","title":"污水厂","lon":"121.24153","lat":"30.99344","category":"38","category_name":"公交车站","address":""},{"poiid":"B2094654DB6DAAF54498","title":"南良苑","lon":"121.24284","lat":"31.001511","category":"47","category_name":"住宅区","address":"松汇东路291弄"},{"poiid":"B2094654DB6DAAF5449A","title":"松南饭店","lon":"121.240392054","lat":"31.003574793","category":"76","category_name":"上海菜","address":"松江区松汇东路299号(近红楼宾馆)"},{"poiid":"B2094757D16FA4F9419D","title":"肯德基 KFC (谷阳店)","lon":"121.234574","lat":"31.004513","category":"68","category_name":"快餐厅","address":"松江区松汇中路568号沃尔玛2楼(近庙前街)"},{"poiid":"B2094752D269AAF8429A","title":"渔寿司","lon":"121.235446","lat":"31.005822","category":"247","category_name":"餐饮美食","address":"上海市松江区中山中路150号2楼"},{"poiid":"B2094753D36EA1F44592","title":"首尔焖鲜汇(乐颂坊店)","lon":"121.239766","lat":"31.006933","category":"86","category_name":"火锅店","address":"松汇中路568号乐颂坊B座303单元(近普照路)"},{"poiid":"B2094654DB6EA2FC429F","title":"松荣 松江店","lon":"121.23871060014","lat":"31.006320293222","category":"95","category_name":"日本料理","address":"松江区普照路81号(中山东路中山中路)"},{"poiid":"B2094655D268A2F44198","title":"圣亚嘉洲","lon":"121.24496","lat":"31.00177","category":"149","category_name":"洗浴推拿场所","address":""},{"poiid":"B2094751D46BA6F8459A","title":"乐颂坊商业广场","lon":"121.235503","lat":"31.005955","category":"119","category_name":"商场","address":"松江区松汇中路568号"},{"poiid":"B2094654DB6EA3F84699","title":"南园子","lon":"121.2393","lat":"31.002098","category":"47","category_name":"住宅区","address":"松汇中路371弄"},{"poiid":"B2094757D16DA0F44099","title":"大鼓米线","lon":"121.234720467","lat":"31.0053149569","category":"247","category_name":"餐饮美食","address":"上海沃尔玛内"},{"poiid":"B2094654DB6EA2FC4899","title":"松江剧场","lon":"121.2387","lat":"31.00584","category":"180","category_name":"剧场","address":"松江区中山中路37号"},{"poiid":"B2094654DB6DAAF54898","title":"申和苑","lon":"121.24516","lat":"31.000519","category":"47","category_name":"住宅区","address":"松金公路10052弄"},{"poiid":"B2094757D76DA1FC4993","title":"欧露Olala","lon":"121.23457","lat":"31.00451","category":"67","category_name":"甜品店","address":"松江区松汇中路568号鹿都国际商业广场A023室(近庙前街)"},{"poiid":"B2094654DB6EA3F84599","title":"松汇小区","lon":"121.23827","lat":"31.002588","category":"47","category_name":"住宅区","address":"松汇中路401弄"},{"poiid":"B2094757D464A5FF429D","title":"川域烤鱼","lon":"121.234954","lat":"31.004654","category":"71","category_name":"四川菜","address":"松江区松汇中路鹿都商业广场B1楼(近庙前街)"},{"poiid":"B2094655D26BA1FC419D","title":"普照路中山中路","lon":"121.23973","lat":"31.0032","category":"38","category_name":"公交车站","address":""},{"poiid":"B2094757D168A3FC4299","title":"松临日本料理·铁板烧","lon":"121.239858467","lat":"31.0066479861","category":"247","category_name":"餐饮美食","address":"上海松江中山中路77号平高世贸中心7F"},{"poiid":"B2094654DB6DAAF5439B","title":"上海良友经济开发区","lon":"121.24212","lat":"31.00266","category":"45","category_name":"产业园区","address":"松汇东路323"},{"poiid":"B2094654DB6DAAF5449B","title":"好德便利NO.209","lon":"121.24288","lat":"31.00259","category":"117","category_name":"便民商店/便利店","address":"松江镇"},{"poiid":"B2094654DB6EA3F84199","title":"好德(谷阳南路)","lon":"121.23721","lat":"31.00283","category":"117","category_name":"便民商店/便利店","address":""},{"poiid":"B2094750D76FA0F5489A","title":"优莱寿司","lon":"121.235","lat":"31.0045","category":"95","category_name":"日本料理","address":"松江区松汇中路568号鹿都国际商业广场1楼"},{"poiid":"B2094750D76DA2FC489F","title":"台味味主食馆(鹿都商业广场店)","lon":"121.235","lat":"31.0044","category":"91","category_name":"台湾菜","address":"松江区松汇中路568号鹿都商业广场A座1楼139-140号"}]