[{"poiid":"B2094757D06FA4FB409C","title":"富客斯豪布斯卡名品村","lon":"121.781","lat":"31.0551","category":"500","category_name":"未知分类","address":"浦东新区惠南镇人民东路2635弄(近靖海路)"},{"poiid":"B2094654DB6FA4FB4593","title":"上海工商外国语学院北校区","lon":"121.78152","lat":"31.0503","category":"52","category_name":"高等院校","address":"南汇区人民东路168、188"},{"poiid":"B2094757D068A1F4409A","title":"避风塘(南汇店)","lon":"121.76907","lat":"31.04929","category":"72","category_name":"广东菜","address":"浦东新区惠南镇人民东路2635号富客斯豪布斯卡名品村1楼(靖海路人民东路)"},{"poiid":"B2094757D064A3FC449C","title":"欢歌KTV","lon":"121.768805588","lat":"31.0484797909","category":"170","category_name":"KTV","address":"上海人民东路"},{"poiid":"B2094757D068A1F8469E","title":"南汇大学城","lon":"121.780807495","lat":"31.0492343903","category":"253","category_name":"校园生活","address":"上海工商外国语学院"},{"poiid":"B2094757D06AA0FE499C","title":"南汇体育中心","lon":"121.78353815","lat":"31.054417856","category":"220","category_name":"运动场所","address":"上海市浦东新区南汇惠南镇观海路1000号"},{"poiid":"B2094757D469A0FB439E","title":"肯德基 人民东路店 KFC","lon":"121.768935054","lat":"31.049392793","category":"68","category_name":"快餐厅","address":"浦东新区惠南镇人民东路2635弄152-158号(富客斯豪布斯卡名品村外街)"},{"poiid":"B2094655D264A1F44493","title":"华钜御庭","lon":"121.77707","lat":"31.053534","category":"47","category_name":"住宅区","address":"浦东新区惠南镇拱极路2368弄29支弄"},{"poiid":"B2094757D06FA0FC429A","title":"上海工商外国语职业学院中校区1号楼","lon":"121.78080749","lat":"31.04923439","category":"500","category_name":"未知分类","address":"上海南汇区观海路550号"},{"poiid":"B2094757D06BA0F84992","title":"紫阳富豪大酒楼","lon":"121.76478376","lat":"31.055028553","category":"76","category_name":"上海菜","address":"浦东新区川南祝公路6101号弘基广场3楼"},{"poiid":"B2094757D16DA6FC4192","title":"南汇惠南镇","lon":"121.77544226","lat":"31.053331033","category":"500","category_name":"未知分类","address":"上海市浦东新区川南奉公路"},{"poiid":"B2094757D46DABFF469F","title":"真锅咖啡馆 文益街店","lon":"121.7686809","lat":"31.0532748","category":"260","category_name":"其他","address":"浦东新区惠南镇拱极路文益街1-3号(近拱极路)"},{"poiid":"B2094757D164A0F94099","title":"韩尚宫","lon":"121.770652263","lat":"31.0513579898","category":"96","category_name":"韩国料理","address":"浦东新区人民东路2635弄富客斯豪布斯卡名品村"},{"poiid":"B2094757D16EA7F8469D","title":"沁潆茶苑","lon":"121.77128","lat":"31.04887","category":"260","category_name":"其他","address":"浦东新区惠南镇人民东路2633号富客斯豪布斯卡名品村外街"},{"poiid":"B2094655D36CA6F4439F","title":"东城二村","lon":"121.777","lat":"31.0589","category":"38","category_name":"公交车站","address":"拱极路2381弄"},{"poiid":"B2094654DB6FA5F94293","title":"东城花苑","lon":"121.7682","lat":"31.052595","category":"47","category_name":"住宅区","address":"人民东路2660号"},{"poiid":"B2094757D568A0FC479B","title":"新凤凰城一期","lon":"121.778056","lat":"31.05965","category":"47","category_name":"住宅区","address":"上海市南汇区拱极路2626弄"},{"poiid":"B2094655D36DA2FC449F","title":"环城港北桥","lon":"121.7763","lat":"31.05918","category":"250","category_name":"公园户外","address":""},{"poiid":"B2094757D065A0FC4192","title":"澳门豆捞坊(惠南人民东路店)","lon":"121.77081","lat":"31.04925","category":"86","category_name":"火锅店","address":"浦东新区人民东路富客斯豪布斯卡名品村外街"},{"poiid":"B2094655D36CA6F4429C","title":"东城一村","lon":"121.77286523562","lat":"31.05558798883","category":"38","category_name":"公交车站","address":"人民东路2640弄"},{"poiid":"B2094654DB6FA4FB4799","title":"东城时代华庭","lon":"121.77393","lat":"31.052305","category":"47","category_name":"住宅区","address":"浦东新区拱极路2289弄"},{"poiid":"B2094654DB6FA6F94393","title":"浦东新区文化艺术指导中心惠南分中心","lon":"121.76877288533683","lat":"31.05506610785254","category":"248","category_name":"生活娱乐","address":"浦东新区惠南镇靖海路509号、文友街38号"},{"poiid":"B2094757D06BA4F44798","title":"重庆德庄火锅(惠南店)","lon":"121.77014126","lat":"31.049291943","category":"86","category_name":"火锅店","address":"浦东新区人民东路2657-2659号(靖海路人民东路)"},{"poiid":"B2094654DB6FA6FA479D","title":"新凤凰城1号门","lon":"121.77069","lat":"31.05371","category":"47","category_name":"住宅区","address":"拱极路2626弄22-36号"},{"poiid":"B2094757D16CA0FC429E","title":"向南阁(惠南镇店)","lon":"121.76949395","lat":"31.049798215","category":"76","category_name":"上海菜","address":"浦东新区惠南镇人民东路2645-2647号(近靖海路)"},{"poiid":"B2094654DB6FA6FA479C","title":"新凤凰城6号门","lon":"121.77373","lat":"31.0537","category":"47","category_name":"住宅区","address":""},{"poiid":"B2094654DB6FA6FB4193","title":"东城华都","lon":"121.774","lat":"31.0618","category":"47","category_name":"住宅区","address":"靖海路525弄1-30号"},{"poiid":"B2094654DB6FA6FA409D","title":"红光花苑","lon":"121.769783","lat":"31.06468391","category":"47","category_name":"住宅区","address":"红光花苑位于浦东拱乐路698弄等"},{"poiid":"B2094654DB6FA6F9449B","title":"复旦大学太平洋金融学院","lon":"121.78161","lat":"31.05781","category":"671","category_name":"高校中心点","address":"浦东新区惠南镇拱北路168号"},{"poiid":"B2094751D26BA0FE449A","title":"侬好蛙","lon":"121.769089","lat":"31.049286","category":"500","category_name":"未知分类","address":null},{"poiid":"B2094655D268A5FD4392","title":"苏武牧羊南汇店","lon":"121.77694","lat":"31.04894","category":"86","category_name":"火锅店","address":"浦东新区惠南镇人民东路2441号(近南汇大学城)"},{"poiid":"B2094751D56FA7F44092","title":"烟台大学","lon":"121.779801","lat":"31.05338","category":"671","category_name":"高校中心点","address":null},{"poiid":"B2094654DB6FA4FB489C","title":"新凤凰城3号门","lon":"121.77145","lat":"31.05327","category":"47","category_name":"住宅区","address":"拱极路2652"},{"poiid":"B2094757D568A1FD439C","title":"弘基商业休闲广场","lon":"121.771","lat":"31.0614","category":"249","category_name":"购物服务","address":"川南奉公路6101号(南汇电信大楼旁)"},{"poiid":"B2094750D66AA4FA409F","title":"野生动物园","lon":"121.775161","lat":"31.051885","category":"250","category_name":"公园户外","address":null},{"poiid":"B2094654DB6FA4FB489D","title":"东城花苑二村","lon":"121.7709","lat":"31.052534","category":"47","category_name":"住宅区","address":"人民东路258弄"},{"poiid":"B2094757D16CAAFB479C","title":"锦川火锅城","lon":"121.77269","lat":"31.04944","category":"86","category_name":"火锅店","address":"浦东新区汇南镇人民东路2677号富客斯豪布斯卡名品村外街"},{"poiid":"B2094654DB64ABF5419D","title":"金地城","lon":"121.7673","lat":"31.05744","category":"47","category_name":"住宅区","address":"浦东新区靖海路547弄"},{"poiid":"B2094654DB6FA6FB4598","title":"小二灶土菜馆","lon":"121.77033","lat":"31.06131","category":"257","category_name":"中餐厅","address":""},{"poiid":"B2094752D165ABFA4198","title":"浦东机场","lon":"121.778458","lat":"31.063858","category":"500","category_name":"未知分类","address":null},{"poiid":"B2094654DB6FA5FD459E","title":"康达公寓","lon":"121.768348272","lat":"31.05543150234","category":"47","category_name":"住宅区","address":"上海市南汇区城东路路759弄"},{"poiid":"B2094655D26FAAF4409B","title":"鑫东大厦","lon":"121.78022","lat":"31.05216","category":"46","category_name":"楼宇","address":"丰海路148"},{"poiid":"B2094654DB6FA6FA4098","title":"俄露丝足浴宫","lon":"121.76856","lat":"31.05414","category":"149","category_name":"洗浴推拿场所","address":""},{"poiid":"B2094750D66AABF84498","title":"华钜御庭二期","lon":"121.77761","lat":"31.051038","category":"47","category_name":"住宅区","address":"浦东新区惠南镇拱北路"},{"poiid":"B2094655D26FAAF44098","title":"上海新江学院","lon":"121.78034","lat":"31.05106","category":"52","category_name":"高等院校","address":"丰海路148"},{"poiid":"B2094655D26FABFB4193","title":"东城时代华庭(北门)","lon":"121.7741","lat":"31.05271","category":"656","category_name":"大门","address":"拱极路2289弄"},{"poiid":"B2094655D26FAAF4409A","title":"上海师范大学附属第二外国语学校","lon":"121.78026","lat":"31.05181","category":"253","category_name":"校园生活","address":"丰海路148号"},{"poiid":"B2094752D06DABF4449A","title":"45coffee","lon":"121.774484","lat":"31.048636","category":"247","category_name":"餐饮美食","address":"惠南镇人民东路2523弄28号"},{"poiid":"B2094654DB64A0FA4192","title":"良友金伴","lon":"121.76822","lat":"31.05439","category":"117","category_name":"便民商店/便利店","address":""},{"poiid":"B2094757D065AAFB429F","title":"元子韩国料理","lon":"121.76894","lat":"31.04865","category":"96","category_name":"韩国料理","address":"浦东新区人民东路2635弄富客斯豪布斯卡名品村150号"},{"poiid":"B2094757D06FA4FB409C","title":"富客斯豪布斯卡名品村","lon":"121.781","lat":"31.0551","category":"500","category_name":"未知分类","address":"浦东新区惠南镇人民东路2635弄(近靖海路)"},{"poiid":"B2094654DB6FA4FB4593","title":"上海工商外国语学院北校区","lon":"121.78152","lat":"31.0503","category":"52","category_name":"高等院校","address":"南汇区人民东路168、188"},{"poiid":"B2094757D068A1F4409A","title":"避风塘(南汇店)","lon":"121.76907","lat":"31.04929","category":"72","category_name":"广东菜","address":"浦东新区惠南镇人民东路2635号富客斯豪布斯卡名品村1楼(靖海路人民东路)"},{"poiid":"B2094757D064A3FC449C","title":"欢歌KTV","lon":"121.768805588","lat":"31.0484797909","category":"170","category_name":"KTV","address":"上海人民东路"},{"poiid":"B2094757D068A1F8469E","title":"南汇大学城","lon":"121.780807495","lat":"31.0492343903","category":"253","category_name":"校园生活","address":"上海工商外国语学院"},{"poiid":"B2094757D06AA0FE499C","title":"南汇体育中心","lon":"121.78353815","lat":"31.054417856","category":"220","category_name":"运动场所","address":"上海市浦东新区南汇惠南镇观海路1000号"},{"poiid":"B2094757D469A0FB439E","title":"肯德基 人民东路店 KFC","lon":"121.768935054","lat":"31.049392793","category":"68","category_name":"快餐厅","address":"浦东新区惠南镇人民东路2635弄152-158号(富客斯豪布斯卡名品村外街)"},{"poiid":"B2094655D264A1F44493","title":"华钜御庭","lon":"121.77707","lat":"31.053534","category":"47","category_name":"住宅区","address":"浦东新区惠南镇拱极路2368弄29支弄"},{"poiid":"B2094757D06FA0FC429A","title":"上海工商外国语职业学院中校区1号楼","lon":"121.78080749","lat":"31.04923439","category":"500","category_name":"未知分类","address":"上海南汇区观海路550号"},{"poiid":"B2094757D06BA0F84992","title":"紫阳富豪大酒楼","lon":"121.76478376","lat":"31.055028553","category":"76","category_name":"上海菜","address":"浦东新区川南祝公路6101号弘基广场3楼"},{"poiid":"B2094757D16DA6FC4192","title":"南汇惠南镇","lon":"121.77544226","lat":"31.053331033","category":"500","category_name":"未知分类","address":"上海市浦东新区川南奉公路"},{"poiid":"B2094757D46DABFF469F","title":"真锅咖啡馆 文益街店","lon":"121.7686809","lat":"31.0532748","category":"260","category_name":"其他","address":"浦东新区惠南镇拱极路文益街1-3号(近拱极路)"},{"poiid":"B2094757D164A0F94099","title":"韩尚宫","lon":"121.770652263","lat":"31.0513579898","category":"96","category_name":"韩国料理","address":"浦东新区人民东路2635弄富客斯豪布斯卡名品村"},{"poiid":"B2094757D16EA7F8469D","title":"沁潆茶苑","lon":"121.77128","lat":"31.04887","category":"260","category_name":"其他","address":"浦东新区惠南镇人民东路2633号富客斯豪布斯卡名品村外街"},{"poiid":"B2094655D36CA6F4439F","title":"东城二村","lon":"121.777","lat":"31.0589","category":"38","category_name":"公交车站","address":"拱极路2381弄"},{"poiid":"B2094654DB6FA5F94293","title":"东城花苑","lon":"121.7682","lat":"31.052595","category":"47","category_name":"住宅区","address":"人民东路2660号"},{"poiid":"B2094757D568A0FC479B","title":"新凤凰城一期","lon":"121.778056","lat":"31.05965","category":"47","category_name":"住宅区","address":"上海市南汇区拱极路2626弄"},{"poiid":"B2094655D36DA2FC449F","title":"环城港北桥","lon":"121.7763","lat":"31.05918","category":"250","category_name":"公园户外","address":""},{"poiid":"B2094757D065A0FC4192","title":"澳门豆捞坊(惠南人民东路店)","lon":"121.77081","lat":"31.04925","category":"86","category_name":"火锅店","address":"浦东新区人民东路富客斯豪布斯卡名品村外街"},{"poiid":"B2094655D36CA6F4429C","title":"东城一村","lon":"121.77286523562","lat":"31.05558798883","category":"38","category_name":"公交车站","address":"人民东路2640弄"},{"poiid":"B2094654DB6FA4FB4799","title":"东城时代华庭","lon":"121.77393","lat":"31.052305","category":"47","category_name":"住宅区","address":"浦东新区拱极路2289弄"},{"poiid":"B2094654DB6FA6F94393","title":"浦东新区文化艺术指导中心惠南分中心","lon":"121.76877288533683","lat":"31.05506610785254","category":"248","category_name":"生活娱乐","address":"浦东新区惠南镇靖海路509号、文友街38号"},{"poiid":"B2094757D06BA4F44798","title":"重庆德庄火锅(惠南店)","lon":"121.77014126","lat":"31.049291943","category":"86","category_name":"火锅店","address":"浦东新区人民东路2657-2659号(靖海路人民东路)"},{"poiid":"B2094654DB6FA6FA479D","title":"新凤凰城1号门","lon":"121.77069","lat":"31.05371","category":"47","category_name":"住宅区","address":"拱极路2626弄22-36号"},{"poiid":"B2094757D16CA0FC429E","title":"向南阁(惠南镇店)","lon":"121.76949395","lat":"31.049798215","category":"76","category_name":"上海菜","address":"浦东新区惠南镇人民东路2645-2647号(近靖海路)"},{"poiid":"B2094654DB6FA6FA479C","title":"新凤凰城6号门","lon":"121.77373","lat":"31.0537","category":"47","category_name":"住宅区","address":""},{"poiid":"B2094654DB6FA6FB4193","title":"东城华都","lon":"121.774","lat":"31.0618","category":"47","category_name":"住宅区","address":"靖海路525弄1-30号"},{"poiid":"B2094654DB6FA6FA409D","title":"红光花苑","lon":"121.769783","lat":"31.06468391","category":"47","category_name":"住宅区","address":"红光花苑位于浦东拱乐路698弄等"},{"poiid":"B2094654DB6FA6F9449B","title":"复旦大学太平洋金融学院","lon":"121.78161","lat":"31.05781","category":"671","category_name":"高校中心点","address":"浦东新区惠南镇拱北路168号"},{"poiid":"B2094751D26BA0FE449A","title":"侬好蛙","lon":"121.769089","lat":"31.049286","category":"500","category_name":"未知分类","address":null},{"poiid":"B2094655D268A5FD4392","title":"苏武牧羊南汇店","lon":"121.77694","lat":"31.04894","category":"86","category_name":"火锅店","address":"浦东新区惠南镇人民东路2441号(近南汇大学城)"},{"poiid":"B2094751D56FA7F44092","title":"烟台大学","lon":"121.779801","lat":"31.05338","category":"671","category_name":"高校中心点","address":null},{"poiid":"B2094654DB6FA4FB489C","title":"新凤凰城3号门","lon":"121.77145","lat":"31.05327","category":"47","category_name":"住宅区","address":"拱极路2652"},{"poiid":"B2094757D568A1FD439C","title":"弘基商业休闲广场","lon":"121.771","lat":"31.0614","category":"249","category_name":"购物服务","address":"川南奉公路6101号(南汇电信大楼旁)"},{"poiid":"B2094750D66AA4FA409F","title":"野生动物园","lon":"121.775161","lat":"31.051885","category":"250","category_name":"公园户外","address":null},{"poiid":"B2094654DB6FA4FB489D","title":"东城花苑二村","lon":"121.7709","lat":"31.052534","category":"47","category_name":"住宅区","address":"人民东路258弄"},{"poiid":"B2094757D16CAAFB479C","title":"锦川火锅城","lon":"121.77269","lat":"31.04944","category":"86","category_name":"火锅店","address":"浦东新区汇南镇人民东路2677号富客斯豪布斯卡名品村外街"},{"poiid":"B2094654DB64ABF5419D","title":"金地城","lon":"121.7673","lat":"31.05744","category":"47","category_name":"住宅区","address":"浦东新区靖海路547弄"},{"poiid":"B2094654DB6FA6FB4598","title":"小二灶土菜馆","lon":"121.77033","lat":"31.06131","category":"257","category_name":"中餐厅","address":""},{"poiid":"B2094752D165ABFA4198","title":"浦东机场","lon":"121.778458","lat":"31.063858","category":"500","category_name":"未知分类","address":null},{"poiid":"B2094654DB6FA5FD459E","title":"康达公寓","lon":"121.768348272","lat":"31.05543150234","category":"47","category_name":"住宅区","address":"上海市南汇区城东路路759弄"},{"poiid":"B2094655D26FAAF4409B","title":"鑫东大厦","lon":"121.78022","lat":"31.05216","category":"46","category_name":"楼宇","address":"丰海路148"},{"poiid":"B2094654DB6FA6FA4098","title":"俄露丝足浴宫","lon":"121.76856","lat":"31.05414","category":"149","category_name":"洗浴推拿场所","address":""},{"poiid":"B2094750D66AABF84498","title":"华钜御庭二期","lon":"121.77761","lat":"31.051038","category":"47","category_name":"住宅区","address":"浦东新区惠南镇拱北路"},{"poiid":"B2094655D26FAAF44098","title":"上海新江学院","lon":"121.78034","lat":"31.05106","category":"52","category_name":"高等院校","address":"丰海路148"},{"poiid":"B2094655D26FABFB4193","title":"东城时代华庭(北门)","lon":"121.7741","lat":"31.05271","category":"656","category_name":"大门","address":"拱极路2289弄"},{"poiid":"B2094655D26FAAF4409A","title":"上海师范大学附属第二外国语学校","lon":"121.78026","lat":"31.05181","category":"253","category_name":"校园生活","address":"丰海路148号"},{"poiid":"B2094752D06DABF4449A","title":"45coffee","lon":"121.774484","lat":"31.048636","category":"247","category_name":"餐饮美食","address":"惠南镇人民东路2523弄28号"},{"poiid":"B2094654DB64A0FA4192","title":"良友金伴","lon":"121.76822","lat":"31.05439","category":"117","category_name":"便民商店/便利店","address":""},{"poiid":"B2094757D065AAFB429F","title":"元子韩国料理","lon":"121.76894","lat":"31.04865","category":"96","category_name":"韩国料理","address":"浦东新区人民东路2635弄富客斯豪布斯卡名品村150号"},{"poiid":"B2094757D06FA4FB409C","title":"富客斯豪布斯卡名品村","lon":"121.781","lat":"31.0551","category":"500","category_name":"未知分类","address":"浦东新区惠南镇人民东路2635弄(近靖海路)"},{"poiid":"B2094654DB6FA4FB4593","title":"上海工商外国语学院北校区","lon":"121.78152","lat":"31.0503","category":"52","category_name":"高等院校","address":"南汇区人民东路168、188"},{"poiid":"B2094757D068A1F4409A","title":"避风塘(南汇店)","lon":"121.76907","lat":"31.04929","category":"72","category_name":"广东菜","address":"浦东新区惠南镇人民东路2635号富客斯豪布斯卡名品村1楼(靖海路人民东路)"},{"poiid":"B2094757D064A3FC449C","title":"欢歌KTV","lon":"121.768805588","lat":"31.0484797909","category":"170","category_name":"KTV","address":"上海人民东路"},{"poiid":"B2094757D068A1F8469E","title":"南汇大学城","lon":"121.780807495","lat":"31.0492343903","category":"253","category_name":"校园生活","address":"上海工商外国语学院"},{"poiid":"B2094757D06AA0FE499C","title":"南汇体育中心","lon":"121.78353815","lat":"31.054417856","category":"220","category_name":"运动场所","address":"上海市浦东新区南汇惠南镇观海路1000号"},{"poiid":"B2094757D469A0FB439E","title":"肯德基 人民东路店 KFC","lon":"121.768935054","lat":"31.049392793","category":"68","category_name":"快餐厅","address":"浦东新区惠南镇人民东路2635弄152-158号(富客斯豪布斯卡名品村外街)"},{"poiid":"B2094655D264A1F44493","title":"华钜御庭","lon":"121.77707","lat":"31.053534","category":"47","category_name":"住宅区","address":"浦东新区惠南镇拱极路2368弄29支弄"},{"poiid":"B2094757D06FA0FC429A","title":"上海工商外国语职业学院中校区1号楼","lon":"121.78080749","lat":"31.04923439","category":"500","category_name":"未知分类","address":"上海南汇区观海路550号"},{"poiid":"B2094757D06BA0F84992","title":"紫阳富豪大酒楼","lon":"121.76478376","lat":"31.055028553","category":"76","category_name":"上海菜","address":"浦东新区川南祝公路6101号弘基广场3楼"},{"poiid":"B2094757D16DA6FC4192","title":"南汇惠南镇","lon":"121.77544226","lat":"31.053331033","category":"500","category_name":"未知分类","address":"上海市浦东新区川南奉公路"},{"poiid":"B2094757D46DABFF469F","title":"真锅咖啡馆 文益街店","lon":"121.7686809","lat":"31.0532748","category":"260","category_name":"其他","address":"浦东新区惠南镇拱极路文益街1-3号(近拱极路)"},{"poiid":"B2094757D164A0F94099","title":"韩尚宫","lon":"121.770652263","lat":"31.0513579898","category":"96","category_name":"韩国料理","address":"浦东新区人民东路2635弄富客斯豪布斯卡名品村"},{"poiid":"B2094757D16EA7F8469D","title":"沁潆茶苑","lon":"121.77128","lat":"31.04887","category":"260","category_name":"其他","address":"浦东新区惠南镇人民东路2633号富客斯豪布斯卡名品村外街"},{"poiid":"B2094655D36CA6F4439F","title":"东城二村","lon":"121.777","lat":"31.0589","category":"38","category_name":"公交车站","address":"拱极路2381弄"},{"poiid":"B2094654DB6FA5F94293","title":"东城花苑","lon":"121.7682","lat":"31.052595","category":"47","category_name":"住宅区","address":"人民东路2660号"},{"poiid":"B2094757D568A0FC479B","title":"新凤凰城一期","lon":"121.778056","lat":"31.05965","category":"47","category_name":"住宅区","address":"上海市南汇区拱极路2626弄"},{"poiid":"B2094655D36DA2FC449F","title":"环城港北桥","lon":"121.7763","lat":"31.05918","category":"250","category_name":"公园户外","address":""},{"poiid":"B2094757D065A0FC4192","title":"澳门豆捞坊(惠南人民东路店)","lon":"121.77081","lat":"31.04925","category":"86","category_name":"火锅店","address":"浦东新区人民东路富客斯豪布斯卡名品村外街"},{"poiid":"B2094655D36CA6F4429C","title":"东城一村","lon":"121.77286523562","lat":"31.05558798883","category":"38","category_name":"公交车站","address":"人民东路2640弄"},{"poiid":"B2094654DB6FA4FB4799","title":"东城时代华庭","lon":"121.77393","lat":"31.052305","category":"47","category_name":"住宅区","address":"浦东新区拱极路2289弄"},{"poiid":"B2094654DB6FA6F94393","title":"浦东新区文化艺术指导中心惠南分中心","lon":"121.76877288533683","lat":"31.05506610785254","category":"248","category_name":"生活娱乐","address":"浦东新区惠南镇靖海路509号、文友街38号"},{"poiid":"B2094757D06BA4F44798","title":"重庆德庄火锅(惠南店)","lon":"121.77014126","lat":"31.049291943","category":"86","category_name":"火锅店","address":"浦东新区人民东路2657-2659号(靖海路人民东路)"},{"poiid":"B2094654DB6FA6FA479D","title":"新凤凰城1号门","lon":"121.77069","lat":"31.05371","category":"47","category_name":"住宅区","address":"拱极路2626弄22-36号"},{"poiid":"B2094757D16CA0FC429E","title":"向南阁(惠南镇店)","lon":"121.76949395","lat":"31.049798215","category":"76","category_name":"上海菜","address":"浦东新区惠南镇人民东路2645-2647号(近靖海路)"},{"poiid":"B2094654DB6FA6FA479C","title":"新凤凰城6号门","lon":"121.77373","lat":"31.0537","category":"47","category_name":"住宅区","address":""},{"poiid":"B2094654DB6FA6FB4193","title":"东城华都","lon":"121.774","lat":"31.0618","category":"47","category_name":"住宅区","address":"靖海路525弄1-30号"},{"poiid":"B2094654DB6FA6FA409D","title":"红光花苑","lon":"121.769783","lat":"31.06468391","category":"47","category_name":"住宅区","address":"红光花苑位于浦东拱乐路698弄等"},{"poiid":"B2094654DB6FA6F9449B","title":"复旦大学太平洋金融学院","lon":"121.78161","lat":"31.05781","category":"671","category_name":"高校中心点","address":"浦东新区惠南镇拱北路168号"},{"poiid":"B2094751D26BA0FE449A","title":"侬好蛙","lon":"121.769089","lat":"31.049286","category":"500","category_name":"未知分类","address":null},{"poiid":"B2094655D268A5FD4392","title":"苏武牧羊南汇店","lon":"121.77694","lat":"31.04894","category":"86","category_name":"火锅店","address":"浦东新区惠南镇人民东路2441号(近南汇大学城)"},{"poiid":"B2094751D56FA7F44092","title":"烟台大学","lon":"121.779801","lat":"31.05338","category":"671","category_name":"高校中心点","address":null},{"poiid":"B2094654DB6FA4FB489C","title":"新凤凰城3号门","lon":"121.77145","lat":"31.05327","category":"47","category_name":"住宅区","address":"拱极路2652"},{"poiid":"B2094757D568A1FD439C","title":"弘基商业休闲广场","lon":"121.771","lat":"31.0614","category":"249","category_name":"购物服务","address":"川南奉公路6101号(南汇电信大楼旁)"},{"poiid":"B2094750D66AA4FA409F","title":"野生动物园","lon":"121.775161","lat":"31.051885","category":"250","category_name":"公园户外","address":null},{"poiid":"B2094654DB6FA4FB489D","title":"东城花苑二村","lon":"121.7709","lat":"31.052534","category":"47","category_name":"住宅区","address":"人民东路258弄"},{"poiid":"B2094757D16CAAFB479C","title":"锦川火锅城","lon":"121.77269","lat":"31.04944","category":"86","category_name":"火锅店","address":"浦东新区汇南镇人民东路2677号富客斯豪布斯卡名品村外街"},{"poiid":"B2094654DB64ABF5419D","title":"金地城","lon":"121.7673","lat":"31.05744","category":"47","category_name":"住宅区","address":"浦东新区靖海路547弄"},{"poiid":"B2094654DB6FA6FB4598","title":"小二灶土菜馆","lon":"121.77033","lat":"31.06131","category":"257","category_name":"中餐厅","address":""},{"poiid":"B2094752D165ABFA4198","title":"浦东机场","lon":"121.778458","lat":"31.063858","category":"500","category_name":"未知分类","address":null},{"poiid":"B2094654DB6FA5FD459E","title":"康达公寓","lon":"121.768348272","lat":"31.05543150234","category":"47","category_name":"住宅区","address":"上海市南汇区城东路路759弄"},{"poiid":"B2094655D26FAAF4409B","title":"鑫东大厦","lon":"121.78022","lat":"31.05216","category":"46","category_name":"楼宇","address":"丰海路148"},{"poiid":"B2094654DB6FA6FA4098","title":"俄露丝足浴宫","lon":"121.76856","lat":"31.05414","category":"149","category_name":"洗浴推拿场所","address":""},{"poiid":"B2094750D66AABF84498","title":"华钜御庭二期","lon":"121.77761","lat":"31.051038","category":"47","category_name":"住宅区","address":"浦东新区惠南镇拱北路"},{"poiid":"B2094655D26FAAF44098","title":"上海新江学院","lon":"121.78034","lat":"31.05106","category":"52","category_name":"高等院校","address":"丰海路148"},{"poiid":"B2094655D26FABFB4193","title":"东城时代华庭(北门)","lon":"121.7741","lat":"31.05271","category":"656","category_name":"大门","address":"拱极路2289弄"},{"poiid":"B2094655D26FAAF4409A","title":"上海师范大学附属第二外国语学校","lon":"121.78026","lat":"31.05181","category":"253","category_name":"校园生活","address":"丰海路148号"},{"poiid":"B2094752D06DABF4449A","title":"45coffee","lon":"121.774484","lat":"31.048636","category":"247","category_name":"餐饮美食","address":"惠南镇人民东路2523弄28号"},{"poiid":"B2094654DB64A0FA4192","title":"良友金伴","lon":"121.76822","lat":"31.05439","category":"117","category_name":"便民商店/便利店","address":""},{"poiid":"B2094757D065AAFB429F","title":"元子韩国料理","lon":"121.76894","lat":"31.04865","category":"96","category_name":"韩国料理","address":"浦东新区人民东路2635弄富客斯豪布斯卡名品村150号"}]