[{"poiid":"B2094757D06FA3FD4598","title":"衡山路","lon":"121.44432","lat":"31.20163","category":"260","category_name":"其他","address":"徐汇区衡山路(衡山路吴兴路)"},{"poiid":"B2094757D06FA3F54592","title":"Glo London","lon":"121.44812058","lat":"31.209113018","category":"94","category_name":"西餐厅","address":"徐汇区乌鲁木齐南路1号甲(近东平路)"},{"poiid":"B2094654DA6DA7F9479B","title":"基督教国际礼拜堂","lon":"121.44808","lat":"31.20635","category":"245","category_name":"教堂","address":"徐汇区衡山路53号(近乌鲁木齐路)"},{"poiid":"B2094753D76FAAFA449C","title":"上海滩国泰旗舰店","lon":"121.466011","lat":"31.216125","category":"249","category_name":"购物服务","address":"淮海中路868号"},{"poiid":"B209475CD564A7F84292","title":"上海滩新天地店","lon":"121.47463","lat":"31.22164","category":"119","category_name":"商场","address":"\"太仓路181弄新天地北里15号\r\n\""},{"poiid":"B209475CD564A7F8439E","title":"上海滩中信泰富店","lon":"121.45602","lat":"31.22851","category":"119","category_name":"商场","address":"\"南京西路1168号中信泰富广场，店铺号221.\r\n\""},{"poiid":"B2094654DA6DA4FB4299","title":"藏珑坊(东平路)","lon":"121.44979","lat":"31.20854","category":"94","category_name":"西餐厅","address":"徐汇区东平路9号(近衡山路9月1日左右重新开业)"},{"poiid":"B2094757D068A7F4469E","title":"希腊餐厅(岳阳路店)","lon":"121.44949658","lat":"31.20925002","category":"94","category_name":"西餐厅","address":"上海市徐汇区岳阳路1号(近东平路)"},{"poiid":"B2094757D06EAAFB4593","title":"老麦咖啡馆","lon":"121.450176054","lat":"31.209116793","category":"260","category_name":"其他","address":"徐汇区桃江路25号甲(桃江路宝庆路路口,近衡山路)"},{"poiid":"B2094757D06FA2FE409D","title":"Sasha's","lon":"121.44970893","lat":"31.208426092","category":"172","category_name":"酒吧","address":"徐汇区东平路11号(近衡山路)"},{"poiid":"B2094750D768A7F9479D","title":"ShanghaiBrewery","lon":"121.449","lat":"31.2086","category":"269","category_name":"烧烤","address":"东平路15号(近衡山路)"},{"poiid":"B2094655D26AABFE469C","title":"SOHOCLUB","lon":"121.44773","lat":"31.20662","category":"247","category_name":"餐饮美食","address":"徐汇区衡山路10号"},{"poiid":"B2094757D06FA3F94499","title":"欧玛莉餐厅(O'Malley's Irish Pub)","lon":"121.44824981","lat":"31.209594726","category":"260","category_name":"其他","address":"徐汇区桃江路42号(近乌鲁木齐南路)"},{"poiid":"B2094757D06FA0FE4099","title":"Haiku by Hatsune(徐汇店)","lon":"121.44932","lat":"31.20926","category":"95","category_name":"日本料理","address":"徐汇区桃江路28号-乙(近衡山路)"},{"poiid":"B2094757D069A1FB499E","title":"ZAPATA'S","lon":"121.44930898","lat":"31.208128978","category":"500","category_name":"未知分类","address":"上海衡山路5号近东平路"},{"poiid":"B2094757D06FA2FC479F","title":"香樟花园时尚厨房","lon":"121.44792","lat":"31.20661","category":"72","category_name":"广东菜","address":"徐汇区衡山路2号甲(近桃江路)"},{"poiid":"B2094750DA6AA2FD4798","title":"Green & Safe","lon":"121.450263","lat":"31.208555","category":"94","category_name":"西餐厅","address":"徐汇区东平路6号(近衡山路)"},{"poiid":"B2094757D06FA0FF4399","title":"欧登保龄球馆","lon":"121.44951","lat":"31.20788","category":"171","category_name":"台球厅","address":"徐汇区衡山路10号甲欧登大厦3楼(近乌鲁木齐南路)"},{"poiid":"B2094750D268A4FE499B","title":"momo牧场","lon":"121.448776","lat":"31.208055","category":"500","category_name":"未知分类","address":null},{"poiid":"B2094753D164A6FF459A","title":"鼎王无老养生锅","lon":"121.449942","lat":"31.20931","category":"500","category_name":"未知分类","address":"上海市 衡山路2号甲香樟花园内"},{"poiid":"B2094757D068A2F8429B","title":"PHO REAL(复兴中路店)","lon":"121.44892958","lat":"31.210494045","category":"99","category_name":"泰国／越南菜品餐厅","address":"徐汇区复兴中路1465号(近宝庆路)"},{"poiid":"B2094654DA6DA4FB429C","title":"上海音乐学院附中","lon":"121.45015","lat":"31.20837","category":"55","category_name":"中学","address":"徐汇区汾阳路20号上海音乐学院内(近复兴中路)"},{"poiid":"B2094757D068A3FA409D","title":"衡山路乌鲁木齐南路","lon":"121.4482784","lat":"31.2070633","category":"500","category_name":"未知分类","address":"上海衡山路乌鲁木齐南路"},{"poiid":"B2094654DB64A6F9499A","title":"美国领事馆","lon":"121.44721","lat":"31.2088","category":"252","category_name":"楼宇机构","address":"乌鲁木齐中路"},{"poiid":"B2094757D068A3FD4392","title":"俏江南(徐汇店)","lon":"121.44857","lat":"31.20908","category":"71","category_name":"四川菜","address":"徐汇区桃江路28号-1(近衡山路)"},{"poiid":"B2094757DA65A4F9449A","title":"Pizza Marzano","lon":"121.4464178961901","lat":"31.20727251752392","category":"247","category_name":"餐饮美食","address":"永嘉庭"},{"poiid":"B2094757D064A0FC4799","title":"拉妃酒吧","lon":"121.448665586","lat":"31.2074949864","category":"179","category_name":"音乐厅","address":"上海衡山路10号"},{"poiid":"B2094757D469A1F44492","title":"苏荷CD3 SOHO CLUB","lon":"121.448456054","lat":"31.206970793","category":"172","category_name":"酒吧","address":"徐汇区衡山路4号(乌鲁木齐路口)"},{"poiid":"B2094654DB69A7FD439E","title":"品川","lon":"121.44807","lat":"31.20909","category":"71","category_name":"四川菜","address":"徐汇区桃江路47号(近乌鲁木齐南路)"},{"poiid":"B2094757D068A4F44393","title":"Madison","lon":"121.448763528","lat":"31.2088393742","category":"94","category_name":"西餐厅","address":"徐汇区汾阳路3号2号楼1楼(近淮海中路)"},{"poiid":"B2094750DA65A7F5429B","title":"彭于晏妈妈的小城故事店里面","lon":"121.447845","lat":"31.208089","category":"247","category_name":"餐饮美食","address":null},{"poiid":"B2094654DA6DA4FA489E","title":"徐汇艺术馆","lon":"121.44816","lat":"31.2102","category":"183","category_name":"展览馆","address":"徐汇区淮海中路1413号(复兴路口)"},{"poiid":"B2094654DA6DA4FB439A","title":"滴水洞湘菜馆(东平路)","lon":"121.45098","lat":"31.20836","category":"77","category_name":"湖南菜","address":"徐汇区东平路5号B座(近岳阳路)"},{"poiid":"B2094655D26EA1FD429D","title":"一千零一夜 1001 Nights Restaurant","lon":"121.446904988","lat":"31.207006173934","category":"247","category_name":"餐饮美食","address":"徐汇区衡山路4号领馆广场内(近乌鲁木齐南路)"},{"poiid":"B2094750D269A2F8419A","title":"天泰餐厅 东平店 Simply Thai","lon":"121.450011054","lat":"31.208268783","category":"247","category_name":"餐饮美食","address":"徐汇区东平路5号C座(近岳阳路)"},{"poiid":"B2094757D068ABFE439C","title":"鸿艺会会所(淮海中路店)","lon":"121.44689","lat":"31.2094","category":"221","category_name":"健身中心","address":"徐汇区淮海中路1500号(近乌鲁木齐中路)"},{"poiid":"B2094757D465A3FA4399","title":"隐泉源铁板烧 Kagen Teppanyaki","lon":"121.448960054","lat":"31.209266793","category":"247","category_name":"餐饮美食","address":"徐汇区桃江路28号丁(近衡山路)"},{"poiid":"B2094757D068A2F5499B","title":"复兴汇","lon":"121.44854","lat":"31.21006","category":"76","category_name":"上海菜","address":"徐汇区复兴中路1479号(近淮海中路)"},{"poiid":"B2094757D064A2FF4098","title":"桃江路","lon":"121.448433629","lat":"31.209268655","category":"172","category_name":"酒吧","address":"上海桃江路"},{"poiid":"B2094757D068A0F4409A","title":"Azul Tapas lounge","lon":"121.44865","lat":"31.20865","category":"94","category_name":"西餐厅","address":"徐汇区东平路18-2号(近衡山路)"},{"poiid":"B2094757D069A0F44998","title":"Bulldog Shanghai(英国斗牛犬)","lon":"121.44805362","lat":"31.208418656","category":"172","category_name":"酒吧","address":"徐汇区乌鲁木齐南路1号(衡山路美领馆对面)"},{"poiid":"B2094654DA6DA7F9469E","title":"Starbucks Coffee(衡山路)","lon":"121.44757","lat":"31.20641","category":"65","category_name":"咖啡厅","address":"天平路"},{"poiid":"B2094757D464ABF9439C","title":"棒约翰比萨 衡山店 Papa John's Pizza","lon":"121.44805620007","lat":"31.207111525182","category":"94","category_name":"西餐厅","address":"徐汇区衡山路4号(近乌鲁木齐南路)"},{"poiid":"B2094751D26BA3F8459D","title":"la cocina","lon":"121.44978","lat":"31.20848","category":"247","category_name":"餐饮美食","address":"上海东平路9号"},{"poiid":"B2094654DA6DA4FA499E","title":"东平大楼","lon":"121.44892","lat":"31.20856","category":"46","category_name":"楼宇","address":"闸北区江场西路38号(近共和新路)"},{"poiid":"B2094757D069A1FC499F","title":"乐加尔松音","lon":"121.44813362","lat":"31.207068655","category":"76","category_name":"上海菜","address":"徐汇区衡山路4号领馆广场2楼(近乌鲁木齐南路)"},{"poiid":"B2094757D76DA0FD4499","title":"和平官邸 东平路店","lon":"121.448434","lat":"31.208901","category":"76","category_name":"上海菜","address":"徐汇区东平路16号(近衡山路)"},{"poiid":"B2094757D56DABFE449D","title":"五官科医院","lon":"121.44854","lat":"31.21006","category":"162","category_name":"医院","address":"复兴中路"},{"poiid":"B2094757D568A6FC409C","title":"MT3酒吧衡山路店","lon":"121.4479519","lat":"31.20690889","category":"172","category_name":"酒吧","address":"衡山路10号甲"},{"poiid":"B2094757D16CA3F4409A","title":"法國領事舘官邸","lon":"121.44766677","lat":"31.209986391","category":"500","category_name":"未知分类","address":"上海淮海中路1431號"},{"poiid":"B2094757D06FA3FD4598","title":"衡山路","lon":"121.44432","lat":"31.20163","category":"260","category_name":"其他","address":"徐汇区衡山路(衡山路吴兴路)"},{"poiid":"B2094757D06FA3F54592","title":"Glo London","lon":"121.44812058","lat":"31.209113018","category":"94","category_name":"西餐厅","address":"徐汇区乌鲁木齐南路1号甲(近东平路)"},{"poiid":"B2094654DA6DA7F9479B","title":"基督教国际礼拜堂","lon":"121.44808","lat":"31.20635","category":"245","category_name":"教堂","address":"徐汇区衡山路53号(近乌鲁木齐路)"},{"poiid":"B2094753D76FAAFA449C","title":"上海滩国泰旗舰店","lon":"121.466011","lat":"31.216125","category":"249","category_name":"购物服务","address":"淮海中路868号"},{"poiid":"B209475CD564A7F84292","title":"上海滩新天地店","lon":"121.47463","lat":"31.22164","category":"119","category_name":"商场","address":"\"太仓路181弄新天地北里15号\r\n\""},{"poiid":"B209475CD564A7F8439E","title":"上海滩中信泰富店","lon":"121.45602","lat":"31.22851","category":"119","category_name":"商场","address":"\"南京西路1168号中信泰富广场，店铺号221.\r\n\""},{"poiid":"B2094654DA6DA4FB4299","title":"藏珑坊(东平路)","lon":"121.44979","lat":"31.20854","category":"94","category_name":"西餐厅","address":"徐汇区东平路9号(近衡山路9月1日左右重新开业)"},{"poiid":"B2094757D068A7F4469E","title":"希腊餐厅(岳阳路店)","lon":"121.44949658","lat":"31.20925002","category":"94","category_name":"西餐厅","address":"上海市徐汇区岳阳路1号(近东平路)"},{"poiid":"B2094757D06EAAFB4593","title":"老麦咖啡馆","lon":"121.450176054","lat":"31.209116793","category":"260","category_name":"其他","address":"徐汇区桃江路25号甲(桃江路宝庆路路口,近衡山路)"},{"poiid":"B2094757D06FA2FE409D","title":"Sasha's","lon":"121.44970893","lat":"31.208426092","category":"172","category_name":"酒吧","address":"徐汇区东平路11号(近衡山路)"},{"poiid":"B2094750D768A7F9479D","title":"ShanghaiBrewery","lon":"121.449","lat":"31.2086","category":"269","category_name":"烧烤","address":"东平路15号(近衡山路)"},{"poiid":"B2094655D26AABFE469C","title":"SOHOCLUB","lon":"121.44773","lat":"31.20662","category":"247","category_name":"餐饮美食","address":"徐汇区衡山路10号"},{"poiid":"B2094757D06FA3F94499","title":"欧玛莉餐厅(O'Malley's Irish Pub)","lon":"121.44824981","lat":"31.209594726","category":"260","category_name":"其他","address":"徐汇区桃江路42号(近乌鲁木齐南路)"},{"poiid":"B2094757D06FA0FE4099","title":"Haiku by Hatsune(徐汇店)","lon":"121.44932","lat":"31.20926","category":"95","category_name":"日本料理","address":"徐汇区桃江路28号-乙(近衡山路)"},{"poiid":"B2094757D069A1FB499E","title":"ZAPATA'S","lon":"121.44930898","lat":"31.208128978","category":"500","category_name":"未知分类","address":"上海衡山路5号近东平路"},{"poiid":"B2094757D06FA2FC479F","title":"香樟花园时尚厨房","lon":"121.44792","lat":"31.20661","category":"72","category_name":"广东菜","address":"徐汇区衡山路2号甲(近桃江路)"},{"poiid":"B2094750DA6AA2FD4798","title":"Green & Safe","lon":"121.450263","lat":"31.208555","category":"94","category_name":"西餐厅","address":"徐汇区东平路6号(近衡山路)"},{"poiid":"B2094757D06FA0FF4399","title":"欧登保龄球馆","lon":"121.44951","lat":"31.20788","category":"171","category_name":"台球厅","address":"徐汇区衡山路10号甲欧登大厦3楼(近乌鲁木齐南路)"},{"poiid":"B2094750D268A4FE499B","title":"momo牧场","lon":"121.448776","lat":"31.208055","category":"500","category_name":"未知分类","address":null},{"poiid":"B2094753D164A6FF459A","title":"鼎王无老养生锅","lon":"121.449942","lat":"31.20931","category":"500","category_name":"未知分类","address":"上海市 衡山路2号甲香樟花园内"},{"poiid":"B2094757D068A2F8429B","title":"PHO REAL(复兴中路店)","lon":"121.44892958","lat":"31.210494045","category":"99","category_name":"泰国／越南菜品餐厅","address":"徐汇区复兴中路1465号(近宝庆路)"},{"poiid":"B2094654DA6DA4FB429C","title":"上海音乐学院附中","lon":"121.45015","lat":"31.20837","category":"55","category_name":"中学","address":"徐汇区汾阳路20号上海音乐学院内(近复兴中路)"},{"poiid":"B2094757D068A3FA409D","title":"衡山路乌鲁木齐南路","lon":"121.4482784","lat":"31.2070633","category":"500","category_name":"未知分类","address":"上海衡山路乌鲁木齐南路"},{"poiid":"B2094654DB64A6F9499A","title":"美国领事馆","lon":"121.44721","lat":"31.2088","category":"252","category_name":"楼宇机构","address":"乌鲁木齐中路"},{"poiid":"B2094757D068A3FD4392","title":"俏江南(徐汇店)","lon":"121.44857","lat":"31.20908","category":"71","category_name":"四川菜","address":"徐汇区桃江路28号-1(近衡山路)"},{"poiid":"B2094757DA65A4F9449A","title":"Pizza Marzano","lon":"121.4464178961901","lat":"31.20727251752392","category":"247","category_name":"餐饮美食","address":"永嘉庭"},{"poiid":"B2094757D064A0FC4799","title":"拉妃酒吧","lon":"121.448665586","lat":"31.2074949864","category":"179","category_name":"音乐厅","address":"上海衡山路10号"},{"poiid":"B2094757D469A1F44492","title":"苏荷CD3 SOHO CLUB","lon":"121.448456054","lat":"31.206970793","category":"172","category_name":"酒吧","address":"徐汇区衡山路4号(乌鲁木齐路口)"},{"poiid":"B2094654DB69A7FD439E","title":"品川","lon":"121.44807","lat":"31.20909","category":"71","category_name":"四川菜","address":"徐汇区桃江路47号(近乌鲁木齐南路)"},{"poiid":"B2094757D068A4F44393","title":"Madison","lon":"121.448763528","lat":"31.2088393742","category":"94","category_name":"西餐厅","address":"徐汇区汾阳路3号2号楼1楼(近淮海中路)"},{"poiid":"B2094750DA65A7F5429B","title":"彭于晏妈妈的小城故事店里面","lon":"121.447845","lat":"31.208089","category":"247","category_name":"餐饮美食","address":null},{"poiid":"B2094654DA6DA4FA489E","title":"徐汇艺术馆","lon":"121.44816","lat":"31.2102","category":"183","category_name":"展览馆","address":"徐汇区淮海中路1413号(复兴路口)"},{"poiid":"B2094654DA6DA4FB439A","title":"滴水洞湘菜馆(东平路)","lon":"121.45098","lat":"31.20836","category":"77","category_name":"湖南菜","address":"徐汇区东平路5号B座(近岳阳路)"},{"poiid":"B2094655D26EA1FD429D","title":"一千零一夜 1001 Nights Restaurant","lon":"121.446904988","lat":"31.207006173934","category":"247","category_name":"餐饮美食","address":"徐汇区衡山路4号领馆广场内(近乌鲁木齐南路)"},{"poiid":"B2094750D269A2F8419A","title":"天泰餐厅 东平店 Simply Thai","lon":"121.450011054","lat":"31.208268783","category":"247","category_name":"餐饮美食","address":"徐汇区东平路5号C座(近岳阳路)"},{"poiid":"B2094757D068ABFE439C","title":"鸿艺会会所(淮海中路店)","lon":"121.44689","lat":"31.2094","category":"221","category_name":"健身中心","address":"徐汇区淮海中路1500号(近乌鲁木齐中路)"},{"poiid":"B2094757D465A3FA4399","title":"隐泉源铁板烧 Kagen Teppanyaki","lon":"121.448960054","lat":"31.209266793","category":"247","category_name":"餐饮美食","address":"徐汇区桃江路28号丁(近衡山路)"},{"poiid":"B2094757D068A2F5499B","title":"复兴汇","lon":"121.44854","lat":"31.21006","category":"76","category_name":"上海菜","address":"徐汇区复兴中路1479号(近淮海中路)"},{"poiid":"B2094757D064A2FF4098","title":"桃江路","lon":"121.448433629","lat":"31.209268655","category":"172","category_name":"酒吧","address":"上海桃江路"},{"poiid":"B2094757D068A0F4409A","title":"Azul Tapas lounge","lon":"121.44865","lat":"31.20865","category":"94","category_name":"西餐厅","address":"徐汇区东平路18-2号(近衡山路)"},{"poiid":"B2094757D069A0F44998","title":"Bulldog Shanghai(英国斗牛犬)","lon":"121.44805362","lat":"31.208418656","category":"172","category_name":"酒吧","address":"徐汇区乌鲁木齐南路1号(衡山路美领馆对面)"},{"poiid":"B2094654DA6DA7F9469E","title":"Starbucks Coffee(衡山路)","lon":"121.44757","lat":"31.20641","category":"65","category_name":"咖啡厅","address":"天平路"},{"poiid":"B2094757D464ABF9439C","title":"棒约翰比萨 衡山店 Papa John's Pizza","lon":"121.44805620007","lat":"31.207111525182","category":"94","category_name":"西餐厅","address":"徐汇区衡山路4号(近乌鲁木齐南路)"},{"poiid":"B2094751D26BA3F8459D","title":"la cocina","lon":"121.44978","lat":"31.20848","category":"247","category_name":"餐饮美食","address":"上海东平路9号"},{"poiid":"B2094654DA6DA4FA499E","title":"东平大楼","lon":"121.44892","lat":"31.20856","category":"46","category_name":"楼宇","address":"闸北区江场西路38号(近共和新路)"},{"poiid":"B2094757D069A1FC499F","title":"乐加尔松音","lon":"121.44813362","lat":"31.207068655","category":"76","category_name":"上海菜","address":"徐汇区衡山路4号领馆广场2楼(近乌鲁木齐南路)"},{"poiid":"B2094757D76DA0FD4499","title":"和平官邸 东平路店","lon":"121.448434","lat":"31.208901","category":"76","category_name":"上海菜","address":"徐汇区东平路16号(近衡山路)"},{"poiid":"B2094757D56DABFE449D","title":"五官科医院","lon":"121.44854","lat":"31.21006","category":"162","category_name":"医院","address":"复兴中路"},{"poiid":"B2094757D568A6FC409C","title":"MT3酒吧衡山路店","lon":"121.4479519","lat":"31.20690889","category":"172","category_name":"酒吧","address":"衡山路10号甲"},{"poiid":"B2094757D16CA3F4409A","title":"法國領事舘官邸","lon":"121.44766677","lat":"31.209986391","category":"500","category_name":"未知分类","address":"上海淮海中路1431號"},{"poiid":"B2094757D06FA3FD4598","title":"衡山路","lon":"121.44432","lat":"31.20163","category":"260","category_name":"其他","address":"徐汇区衡山路(衡山路吴兴路)"},{"poiid":"B2094757D06FA3F54592","title":"Glo London","lon":"121.44812058","lat":"31.209113018","category":"94","category_name":"西餐厅","address":"徐汇区乌鲁木齐南路1号甲(近东平路)"},{"poiid":"B2094654DA6DA7F9479B","title":"基督教国际礼拜堂","lon":"121.44808","lat":"31.20635","category":"245","category_name":"教堂","address":"徐汇区衡山路53号(近乌鲁木齐路)"},{"poiid":"B2094753D76FAAFA449C","title":"上海滩国泰旗舰店","lon":"121.466011","lat":"31.216125","category":"249","category_name":"购物服务","address":"淮海中路868号"},{"poiid":"B209475CD564A7F84292","title":"上海滩新天地店","lon":"121.47463","lat":"31.22164","category":"119","category_name":"商场","address":"\"太仓路181弄新天地北里15号\r\n\""},{"poiid":"B209475CD564A7F8439E","title":"上海滩中信泰富店","lon":"121.45602","lat":"31.22851","category":"119","category_name":"商场","address":"\"南京西路1168号中信泰富广场，店铺号221.\r\n\""},{"poiid":"B2094654DA6DA4FB4299","title":"藏珑坊(东平路)","lon":"121.44979","lat":"31.20854","category":"94","category_name":"西餐厅","address":"徐汇区东平路9号(近衡山路9月1日左右重新开业)"},{"poiid":"B2094757D068A7F4469E","title":"希腊餐厅(岳阳路店)","lon":"121.44949658","lat":"31.20925002","category":"94","category_name":"西餐厅","address":"上海市徐汇区岳阳路1号(近东平路)"},{"poiid":"B2094757D06EAAFB4593","title":"老麦咖啡馆","lon":"121.450176054","lat":"31.209116793","category":"260","category_name":"其他","address":"徐汇区桃江路25号甲(桃江路宝庆路路口,近衡山路)"},{"poiid":"B2094757D06FA2FE409D","title":"Sasha's","lon":"121.44970893","lat":"31.208426092","category":"172","category_name":"酒吧","address":"徐汇区东平路11号(近衡山路)"},{"poiid":"B2094750D768A7F9479D","title":"ShanghaiBrewery","lon":"121.449","lat":"31.2086","category":"269","category_name":"烧烤","address":"东平路15号(近衡山路)"},{"poiid":"B2094655D26AABFE469C","title":"SOHOCLUB","lon":"121.44773","lat":"31.20662","category":"247","category_name":"餐饮美食","address":"徐汇区衡山路10号"},{"poiid":"B2094757D06FA3F94499","title":"欧玛莉餐厅(O'Malley's Irish Pub)","lon":"121.44824981","lat":"31.209594726","category":"260","category_name":"其他","address":"徐汇区桃江路42号(近乌鲁木齐南路)"},{"poiid":"B2094757D06FA0FE4099","title":"Haiku by Hatsune(徐汇店)","lon":"121.44932","lat":"31.20926","category":"95","category_name":"日本料理","address":"徐汇区桃江路28号-乙(近衡山路)"},{"poiid":"B2094757D069A1FB499E","title":"ZAPATA'S","lon":"121.44930898","lat":"31.208128978","category":"500","category_name":"未知分类","address":"上海衡山路5号近东平路"},{"poiid":"B2094757D06FA2FC479F","title":"香樟花园时尚厨房","lon":"121.44792","lat":"31.20661","category":"72","category_name":"广东菜","address":"徐汇区衡山路2号甲(近桃江路)"},{"poiid":"B2094750DA6AA2FD4798","title":"Green & Safe","lon":"121.450263","lat":"31.208555","category":"94","category_name":"西餐厅","address":"徐汇区东平路6号(近衡山路)"},{"poiid":"B2094757D06FA0FF4399","title":"欧登保龄球馆","lon":"121.44951","lat":"31.20788","category":"171","category_name":"台球厅","address":"徐汇区衡山路10号甲欧登大厦3楼(近乌鲁木齐南路)"},{"poiid":"B2094750D268A4FE499B","title":"momo牧场","lon":"121.448776","lat":"31.208055","category":"500","category_name":"未知分类","address":null},{"poiid":"B2094753D164A6FF459A","title":"鼎王无老养生锅","lon":"121.449942","lat":"31.20931","category":"500","category_name":"未知分类","address":"上海市 衡山路2号甲香樟花园内"},{"poiid":"B2094757D068A2F8429B","title":"PHO REAL(复兴中路店)","lon":"121.44892958","lat":"31.210494045","category":"99","category_name":"泰国／越南菜品餐厅","address":"徐汇区复兴中路1465号(近宝庆路)"},{"poiid":"B2094654DA6DA4FB429C","title":"上海音乐学院附中","lon":"121.45015","lat":"31.20837","category":"55","category_name":"中学","address":"徐汇区汾阳路20号上海音乐学院内(近复兴中路)"},{"poiid":"B2094757D068A3FA409D","title":"衡山路乌鲁木齐南路","lon":"121.4482784","lat":"31.2070633","category":"500","category_name":"未知分类","address":"上海衡山路乌鲁木齐南路"},{"poiid":"B2094654DB64A6F9499A","title":"美国领事馆","lon":"121.44721","lat":"31.2088","category":"252","category_name":"楼宇机构","address":"乌鲁木齐中路"},{"poiid":"B2094757D068A3FD4392","title":"俏江南(徐汇店)","lon":"121.44857","lat":"31.20908","category":"71","category_name":"四川菜","address":"徐汇区桃江路28号-1(近衡山路)"},{"poiid":"B2094757DA65A4F9449A","title":"Pizza Marzano","lon":"121.4464178961901","lat":"31.20727251752392","category":"247","category_name":"餐饮美食","address":"永嘉庭"},{"poiid":"B2094757D064A0FC4799","title":"拉妃酒吧","lon":"121.448665586","lat":"31.2074949864","category":"179","category_name":"音乐厅","address":"上海衡山路10号"},{"poiid":"B2094757D469A1F44492","title":"苏荷CD3 SOHO CLUB","lon":"121.448456054","lat":"31.206970793","category":"172","category_name":"酒吧","address":"徐汇区衡山路4号(乌鲁木齐路口)"},{"poiid":"B2094654DB69A7FD439E","title":"品川","lon":"121.44807","lat":"31.20909","category":"71","category_name":"四川菜","address":"徐汇区桃江路47号(近乌鲁木齐南路)"},{"poiid":"B2094757D068A4F44393","title":"Madison","lon":"121.448763528","lat":"31.2088393742","category":"94","category_name":"西餐厅","address":"徐汇区汾阳路3号2号楼1楼(近淮海中路)"},{"poiid":"B2094750DA65A7F5429B","title":"彭于晏妈妈的小城故事店里面","lon":"121.447845","lat":"31.208089","category":"247","category_name":"餐饮美食","address":null},{"poiid":"B2094654DA6DA4FA489E","title":"徐汇艺术馆","lon":"121.44816","lat":"31.2102","category":"183","category_name":"展览馆","address":"徐汇区淮海中路1413号(复兴路口)"},{"poiid":"B2094654DA6DA4FB439A","title":"滴水洞湘菜馆(东平路)","lon":"121.45098","lat":"31.20836","category":"77","category_name":"湖南菜","address":"徐汇区东平路5号B座(近岳阳路)"},{"poiid":"B2094655D26EA1FD429D","title":"一千零一夜 1001 Nights Restaurant","lon":"121.446904988","lat":"31.207006173934","category":"247","category_name":"餐饮美食","address":"徐汇区衡山路4号领馆广场内(近乌鲁木齐南路)"},{"poiid":"B2094750D269A2F8419A","title":"天泰餐厅 东平店 Simply Thai","lon":"121.450011054","lat":"31.208268783","category":"247","category_name":"餐饮美食","address":"徐汇区东平路5号C座(近岳阳路)"},{"poiid":"B2094757D068ABFE439C","title":"鸿艺会会所(淮海中路店)","lon":"121.44689","lat":"31.2094","category":"221","category_name":"健身中心","address":"徐汇区淮海中路1500号(近乌鲁木齐中路)"},{"poiid":"B2094757D465A3FA4399","title":"隐泉源铁板烧 Kagen Teppanyaki","lon":"121.448960054","lat":"31.209266793","category":"247","category_name":"餐饮美食","address":"徐汇区桃江路28号丁(近衡山路)"},{"poiid":"B2094757D068A2F5499B","title":"复兴汇","lon":"121.44854","lat":"31.21006","category":"76","category_name":"上海菜","address":"徐汇区复兴中路1479号(近淮海中路)"},{"poiid":"B2094757D064A2FF4098","title":"桃江路","lon":"121.448433629","lat":"31.209268655","category":"172","category_name":"酒吧","address":"上海桃江路"},{"poiid":"B2094757D068A0F4409A","title":"Azul Tapas lounge","lon":"121.44865","lat":"31.20865","category":"94","category_name":"西餐厅","address":"徐汇区东平路18-2号(近衡山路)"},{"poiid":"B2094757D069A0F44998","title":"Bulldog Shanghai(英国斗牛犬)","lon":"121.44805362","lat":"31.208418656","category":"172","category_name":"酒吧","address":"徐汇区乌鲁木齐南路1号(衡山路美领馆对面)"},{"poiid":"B2094654DA6DA7F9469E","title":"Starbucks Coffee(衡山路)","lon":"121.44757","lat":"31.20641","category":"65","category_name":"咖啡厅","address":"天平路"},{"poiid":"B2094757D464ABF9439C","title":"棒约翰比萨 衡山店 Papa John's Pizza","lon":"121.44805620007","lat":"31.207111525182","category":"94","category_name":"西餐厅","address":"徐汇区衡山路4号(近乌鲁木齐南路)"},{"poiid":"B2094751D26BA3F8459D","title":"la cocina","lon":"121.44978","lat":"31.20848","category":"247","category_name":"餐饮美食","address":"上海东平路9号"},{"poiid":"B2094654DA6DA4FA499E","title":"东平大楼","lon":"121.44892","lat":"31.20856","category":"46","category_name":"楼宇","address":"闸北区江场西路38号(近共和新路)"},{"poiid":"B2094757D069A1FC499F","title":"乐加尔松音","lon":"121.44813362","lat":"31.207068655","category":"76","category_name":"上海菜","address":"徐汇区衡山路4号领馆广场2楼(近乌鲁木齐南路)"},{"poiid":"B2094757D76DA0FD4499","title":"和平官邸 东平路店","lon":"121.448434","lat":"31.208901","category":"76","category_name":"上海菜","address":"徐汇区东平路16号(近衡山路)"},{"poiid":"B2094757D56DABFE449D","title":"五官科医院","lon":"121.44854","lat":"31.21006","category":"162","category_name":"医院","address":"复兴中路"},{"poiid":"B2094757D568A6FC409C","title":"MT3酒吧衡山路店","lon":"121.4479519","lat":"31.20690889","category":"172","category_name":"酒吧","address":"衡山路10号甲"},{"poiid":"B2094757D16CA3F4409A","title":"法國領事舘官邸","lon":"121.44766677","lat":"31.209986391","category":"500","category_name":"未知分类","address":"上海淮海中路1431號"},{"poiid":"B2094757D06FA3FD4598","title":"衡山路","lon":"121.44432","lat":"31.20163","category":"260","category_name":"其他","address":"徐汇区衡山路(衡山路吴兴路)"},{"poiid":"B2094757D06FA3F54592","title":"Glo London","lon":"121.44812058","lat":"31.209113018","category":"94","category_name":"西餐厅","address":"徐汇区乌鲁木齐南路1号甲(近东平路)"},{"poiid":"B2094654DA6DA7F9479B","title":"基督教国际礼拜堂","lon":"121.44808","lat":"31.20635","category":"245","category_name":"教堂","address":"徐汇区衡山路53号(近乌鲁木齐路)"},{"poiid":"B2094753D76FAAFA449C","title":"上海滩国泰旗舰店","lon":"121.466011","lat":"31.216125","category":"249","category_name":"购物服务","address":"淮海中路868号"},{"poiid":"B209475CD564A7F84292","title":"上海滩新天地店","lon":"121.47463","lat":"31.22164","category":"119","category_name":"商场","address":"\"太仓路181弄新天地北里15号\r\n\""},{"poiid":"B209475CD564A7F8439E","title":"上海滩中信泰富店","lon":"121.45602","lat":"31.22851","category":"119","category_name":"商场","address":"\"南京西路1168号中信泰富广场，店铺号221.\r\n\""},{"poiid":"B2094654DA6DA4FB4299","title":"藏珑坊(东平路)","lon":"121.44979","lat":"31.20854","category":"94","category_name":"西餐厅","address":"徐汇区东平路9号(近衡山路9月1日左右重新开业)"},{"poiid":"B2094757D068A7F4469E","title":"希腊餐厅(岳阳路店)","lon":"121.44949658","lat":"31.20925002","category":"94","category_name":"西餐厅","address":"上海市徐汇区岳阳路1号(近东平路)"},{"poiid":"B2094757D06EAAFB4593","title":"老麦咖啡馆","lon":"121.450176054","lat":"31.209116793","category":"260","category_name":"其他","address":"徐汇区桃江路25号甲(桃江路宝庆路路口,近衡山路)"},{"poiid":"B2094757D06FA2FE409D","title":"Sasha's","lon":"121.44970893","lat":"31.208426092","category":"172","category_name":"酒吧","address":"徐汇区东平路11号(近衡山路)"},{"poiid":"B2094750D768A7F9479D","title":"ShanghaiBrewery","lon":"121.449","lat":"31.2086","category":"269","category_name":"烧烤","address":"东平路15号(近衡山路)"},{"poiid":"B2094655D26AABFE469C","title":"SOHOCLUB","lon":"121.44773","lat":"31.20662","category":"247","category_name":"餐饮美食","address":"徐汇区衡山路10号"},{"poiid":"B2094757D06FA3F94499","title":"欧玛莉餐厅(O'Malley's Irish Pub)","lon":"121.44824981","lat":"31.209594726","category":"260","category_name":"其他","address":"徐汇区桃江路42号(近乌鲁木齐南路)"},{"poiid":"B2094757D06FA0FE4099","title":"Haiku by Hatsune(徐汇店)","lon":"121.44932","lat":"31.20926","category":"95","category_name":"日本料理","address":"徐汇区桃江路28号-乙(近衡山路)"},{"poiid":"B2094757D069A1FB499E","title":"ZAPATA'S","lon":"121.44930898","lat":"31.208128978","category":"500","category_name":"未知分类","address":"上海衡山路5号近东平路"},{"poiid":"B2094757D06FA2FC479F","title":"香樟花园时尚厨房","lon":"121.44792","lat":"31.20661","category":"72","category_name":"广东菜","address":"徐汇区衡山路2号甲(近桃江路)"},{"poiid":"B2094750DA6AA2FD4798","title":"Green & Safe","lon":"121.450263","lat":"31.208555","category":"94","category_name":"西餐厅","address":"徐汇区东平路6号(近衡山路)"},{"poiid":"B2094757D06FA0FF4399","title":"欧登保龄球馆","lon":"121.44951","lat":"31.20788","category":"171","category_name":"台球厅","address":"徐汇区衡山路10号甲欧登大厦3楼(近乌鲁木齐南路)"},{"poiid":"B2094750D268A4FE499B","title":"momo牧场","lon":"121.448776","lat":"31.208055","category":"500","category_name":"未知分类","address":null},{"poiid":"B2094753D164A6FF459A","title":"鼎王无老养生锅","lon":"121.449942","lat":"31.20931","category":"500","category_name":"未知分类","address":"上海市 衡山路2号甲香樟花园内"},{"poiid":"B2094757D068A2F8429B","title":"PHO REAL(复兴中路店)","lon":"121.44892958","lat":"31.210494045","category":"99","category_name":"泰国／越南菜品餐厅","address":"徐汇区复兴中路1465号(近宝庆路)"},{"poiid":"B2094654DA6DA4FB429C","title":"上海音乐学院附中","lon":"121.45015","lat":"31.20837","category":"55","category_name":"中学","address":"徐汇区汾阳路20号上海音乐学院内(近复兴中路)"},{"poiid":"B2094757D068A3FA409D","title":"衡山路乌鲁木齐南路","lon":"121.4482784","lat":"31.2070633","category":"500","category_name":"未知分类","address":"上海衡山路乌鲁木齐南路"},{"poiid":"B2094654DB64A6F9499A","title":"美国领事馆","lon":"121.44721","lat":"31.2088","category":"252","category_name":"楼宇机构","address":"乌鲁木齐中路"},{"poiid":"B2094757D068A3FD4392","title":"俏江南(徐汇店)","lon":"121.44857","lat":"31.20908","category":"71","category_name":"四川菜","address":"徐汇区桃江路28号-1(近衡山路)"},{"poiid":"B2094757DA65A4F9449A","title":"Pizza Marzano","lon":"121.4464178961901","lat":"31.20727251752392","category":"247","category_name":"餐饮美食","address":"永嘉庭"},{"poiid":"B2094757D064A0FC4799","title":"拉妃酒吧","lon":"121.448665586","lat":"31.2074949864","category":"179","category_name":"音乐厅","address":"上海衡山路10号"},{"poiid":"B2094757D469A1F44492","title":"苏荷CD3 SOHO CLUB","lon":"121.448456054","lat":"31.206970793","category":"172","category_name":"酒吧","address":"徐汇区衡山路4号(乌鲁木齐路口)"},{"poiid":"B2094654DB69A7FD439E","title":"品川","lon":"121.44807","lat":"31.20909","category":"71","category_name":"四川菜","address":"徐汇区桃江路47号(近乌鲁木齐南路)"},{"poiid":"B2094757D068A4F44393","title":"Madison","lon":"121.448763528","lat":"31.2088393742","category":"94","category_name":"西餐厅","address":"徐汇区汾阳路3号2号楼1楼(近淮海中路)"},{"poiid":"B2094750DA65A7F5429B","title":"彭于晏妈妈的小城故事店里面","lon":"121.447845","lat":"31.208089","category":"247","category_name":"餐饮美食","address":null},{"poiid":"B2094654DA6DA4FA489E","title":"徐汇艺术馆","lon":"121.44816","lat":"31.2102","category":"183","category_name":"展览馆","address":"徐汇区淮海中路1413号(复兴路口)"},{"poiid":"B2094654DA6DA4FB439A","title":"滴水洞湘菜馆(东平路)","lon":"121.45098","lat":"31.20836","category":"77","category_name":"湖南菜","address":"徐汇区东平路5号B座(近岳阳路)"},{"poiid":"B2094655D26EA1FD429D","title":"一千零一夜 1001 Nights Restaurant","lon":"121.446904988","lat":"31.207006173934","category":"247","category_name":"餐饮美食","address":"徐汇区衡山路4号领馆广场内(近乌鲁木齐南路)"},{"poiid":"B2094750D269A2F8419A","title":"天泰餐厅 东平店 Simply Thai","lon":"121.450011054","lat":"31.208268783","category":"247","category_name":"餐饮美食","address":"徐汇区东平路5号C座(近岳阳路)"},{"poiid":"B2094757D068ABFE439C","title":"鸿艺会会所(淮海中路店)","lon":"121.44689","lat":"31.2094","category":"221","category_name":"健身中心","address":"徐汇区淮海中路1500号(近乌鲁木齐中路)"},{"poiid":"B2094757D465A3FA4399","title":"隐泉源铁板烧 Kagen Teppanyaki","lon":"121.448960054","lat":"31.209266793","category":"247","category_name":"餐饮美食","address":"徐汇区桃江路28号丁(近衡山路)"},{"poiid":"B2094757D068A2F5499B","title":"复兴汇","lon":"121.44854","lat":"31.21006","category":"76","category_name":"上海菜","address":"徐汇区复兴中路1479号(近淮海中路)"},{"poiid":"B2094757D064A2FF4098","title":"桃江路","lon":"121.448433629","lat":"31.209268655","category":"172","category_name":"酒吧","address":"上海桃江路"},{"poiid":"B2094757D068A0F4409A","title":"Azul Tapas lounge","lon":"121.44865","lat":"31.20865","category":"94","category_name":"西餐厅","address":"徐汇区东平路18-2号(近衡山路)"},{"poiid":"B2094757D069A0F44998","title":"Bulldog Shanghai(英国斗牛犬)","lon":"121.44805362","lat":"31.208418656","category":"172","category_name":"酒吧","address":"徐汇区乌鲁木齐南路1号(衡山路美领馆对面)"},{"poiid":"B2094654DA6DA7F9469E","title":"Starbucks Coffee(衡山路)","lon":"121.44757","lat":"31.20641","category":"65","category_name":"咖啡厅","address":"天平路"},{"poiid":"B2094757D464ABF9439C","title":"棒约翰比萨 衡山店 Papa John's Pizza","lon":"121.44805620007","lat":"31.207111525182","category":"94","category_name":"西餐厅","address":"徐汇区衡山路4号(近乌鲁木齐南路)"},{"poiid":"B2094751D26BA3F8459D","title":"la cocina","lon":"121.44978","lat":"31.20848","category":"247","category_name":"餐饮美食","address":"上海东平路9号"},{"poiid":"B2094654DA6DA4FA499E","title":"东平大楼","lon":"121.44892","lat":"31.20856","category":"46","category_name":"楼宇","address":"闸北区江场西路38号(近共和新路)"},{"poiid":"B2094757D069A1FC499F","title":"乐加尔松音","lon":"121.44813362","lat":"31.207068655","category":"76","category_name":"上海菜","address":"徐汇区衡山路4号领馆广场2楼(近乌鲁木齐南路)"},{"poiid":"B2094757D76DA0FD4499","title":"和平官邸 东平路店","lon":"121.448434","lat":"31.208901","category":"76","category_name":"上海菜","address":"徐汇区东平路16号(近衡山路)"},{"poiid":"B2094757D56DABFE449D","title":"五官科医院","lon":"121.44854","lat":"31.21006","category":"162","category_name":"医院","address":"复兴中路"},{"poiid":"B2094757D568A6FC409C","title":"MT3酒吧衡山路店","lon":"121.4479519","lat":"31.20690889","category":"172","category_name":"酒吧","address":"衡山路10号甲"},{"poiid":"B2094757D16CA3F4409A","title":"法國領事舘官邸","lon":"121.44766677","lat":"31.209986391","category":"500","category_name":"未知分类","address":"上海淮海中路1431號"}]