[{"poiid":"B2094757D06FA5FF409B","title":"镇坪路","lon":"121.42919158","lat":"31.249937057","category":"500","category_name":"未知分类","address":"上海镇坪路"},{"poiid":"B2094757D16DA5FC409F","title":"石泉路镇坪路","lon":"121.42593285","lat":"31.250332184","category":"500","category_name":"未知分类","address":"上海普陀区"},{"poiid":"B2094757D06FA7FC4093","title":"四如春食府","lon":"121.42770262","lat":"31.252188997","category":"68","category_name":"快餐厅","address":"普陀区石泉路72号(近镇坪路)"},{"poiid":"B2094757D06FA6FD499E","title":"普陀区教育学院","lon":"121.42589","lat":"31.24674","category":"260","category_name":"其他","address":"普陀区岚皋路75号(近中山北路)"},{"poiid":"B2094757D16CABF8429F","title":"老郎面馆","lon":"121.42794795","lat":"31.2515217071","category":"68","category_name":"快餐厅","address":"普陀区石泉路98号(镇坪路口)"},{"poiid":"B2094757D06FA7FE4992","title":"岚皋路桥","lon":"121.42329406","lat":"31.250734329","category":"234","category_name":"海滨浴场","address":"上海岚皋路"},{"poiid":"B2094655D36CA1FD4698","title":"石泉路岚皋路","lon":"121.42371","lat":"31.25067","category":"38","category_name":"公交车站","address":""},{"poiid":"B2094757D56CA0FD419F","title":"麦当劳 光新路店 McDonald's","lon":"121.43300037162","lat":"31.249799643716","category":"247","category_name":"餐饮美食","address":"光新路117号近内环高架桥"},{"poiid":"B2094757D068ABFF489A","title":"岳阳飘湘楼 镇坪店","lon":"121.42779252056","lat":"31.251348612392","category":"77","category_name":"湖南菜","address":"普陀区镇坪路9号2楼(石泉路口)"},{"poiid":"B2094655D36DA7FF4193","title":"镇坪路石泉路","lon":"121.42837","lat":"31.25068","category":"38","category_name":"公交车站","address":""},{"poiid":"B2094757D069ABFE4098","title":"朱雀门","lon":"121.42931971","lat":"31.2495245047","category":"257","category_name":"中餐厅","address":"普陀区镇坪路101号甲(近石泉路)"},{"poiid":"B2094757D06FA6F84598","title":"联合大厦","lon":"121.42689342268","lat":"31.247481259332","category":"260","category_name":"其他","address":"上海普陀区武宁路350号"},{"poiid":"B2094757D069A2FE4899","title":"申悦大酒店 石泉店","lon":"121.42408760413","lat":"31.25008428568","category":"76","category_name":"上海菜","address":"普陀区石泉路186号(近岚皋路)"},{"poiid":"B2094654D565A3F9429B","title":"杰地大厦","lon":"121.425","lat":"31.2469","category":"46","category_name":"楼宇","address":"上海市黄浦区南京东路409-459号"},{"poiid":"B2094655D26FA6FA4292","title":"普安堂","lon":"121.42951","lat":"31.24976","category":"245","category_name":"教堂","address":"普陀区镇坪路152号(近中山北路)"},{"poiid":"B2094757D165AAFC4398","title":"广东猪肚鸡","lon":"121.42646695","lat":"31.249835674","category":"247","category_name":"餐饮美食","address":"上海普陀区镇坪路"},{"poiid":"B2094757D66EA0F8449C","title":"岚皋路200弄","lon":"121.42651725","lat":"31.2498212747","category":"47","category_name":"住宅区","address":"上海岚皋路200弄"},{"poiid":"B2094757D465A7FE4798","title":"重庆鸡公煲 镇坪路店","lon":"121.427298054","lat":"31.251051793","category":"247","category_name":"餐饮美食","address":"普陀区镇坪路27号(近石泉路)"},{"poiid":"B2094654D465A1FC429C","title":"洵阳路小学","lon":"121.42513","lat":"31.24932","category":"56","category_name":"小学","address":"普陀区岚皋路216号(近石泉路)"},{"poiid":"B2094750D26EA6FF419C","title":"徐家汇","lon":"121.424346","lat":"31.249996","category":"500","category_name":"未知分类","address":null},{"poiid":"B2094654D465A1FC4399","title":"良友金伴No.238","lon":"121.42586","lat":"31.25051","category":"117","category_name":"便民商店/便利店","address":"石泉路143"},{"poiid":"B2094757D665AAFD499F","title":"三味拉面馆","lon":"121.424555054","lat":"31.248817793","category":"68","category_name":"快餐厅","address":"普陀区岚皋路175号(近石泉路)"},{"poiid":"B2094654D465A1FC4392","title":"好德便利No.495(石泉苑西)","lon":"121.4262","lat":"31.25061","category":"117","category_name":"便民商店/便利店","address":""},{"poiid":"B2094757D06BA2FF489B","title":"小天鹅大排档","lon":"121.425074467","lat":"31.2482345777","category":"247","category_name":"餐饮美食","address":"普陀区岚皋路(近岚皋西路)"},{"poiid":"B2094757D769A4FE4599","title":"静安面包房 岚皋路店","lon":"121.4248387","lat":"31.2488675","category":"112","category_name":"糕饼店","address":"普陀区石泉路200号(近白玉兰)"},{"poiid":"B2094757D464AAF8499B","title":"兰沁园","lon":"121.42554261315","lat":"31.248326261849","category":"68","category_name":"快餐厅","address":"普陀区岚皋路84(近中山北路)"},{"poiid":"B2094654D465A1FC4398","title":"童家桥小区","lon":"121.42496","lat":"31.24995","category":"47","category_name":"住宅区","address":"石泉路165弄1-12号"},{"poiid":"B2094757D66BA3F54599","title":"鑫鑫私房菜","lon":"121.42728","lat":"31.251136","category":"76","category_name":"上海菜","address":"普陀区石泉路115号(近镇坪路)"},{"poiid":"B2094757D06AA1F5409B","title":"图门串烤(普陀店)","lon":"121.42494","lat":"31.24835","category":"68","category_name":"快餐厅","address":"普陀区岚皋路219号(近石泉路)"},{"poiid":"B2094757D465ABFE4699","title":"新记桂林米粉","lon":"121.424870054","lat":"31.248888793","category":"68","category_name":"快餐厅","address":"普陀区岚皋路198号相邻聚禄园酒家(近石泉路)"},{"poiid":"B2094655D26FA7FD449F","title":"石泉苑(北门)","lon":"121.42636","lat":"31.25067","category":"47","category_name":"住宅区","address":""},{"poiid":"B2094757D664A4FD4192","title":"赵师傅馄饨","lon":"121.42821","lat":"31.25062","category":"68","category_name":"快餐厅","address":"普陀区镇坪路59号(近石泉路)"},{"poiid":"B2094655D265A2FB4699","title":"龙柏园","lon":"121.42704","lat":"31.24968","category":"202","category_name":"公园广场","address":""},{"poiid":"B2094655D26FA1FB4193","title":"顶顶红","lon":"121.42481912368","lat":"31.24938255752","category":"76","category_name":"上海菜","address":"普陀区岚皋路202号(近中山北路)"},{"poiid":"B2094757D06BA6FF459A","title":"coco都可茶饮","lon":"121.42803995","lat":"31.2515557078","category":"113","category_name":"冷饮店","address":"普陀区石泉路101号(近镇坪路)"},{"poiid":"B2094654D465A2FA489A","title":"小胡桃专卖(石泉路)","lon":"121.42576","lat":"31.25082","category":"117","category_name":"便民商店/便利店","address":"石泉路134临"},{"poiid":"B2094654D465A1FC449D","title":"新华源公寓","lon":"121.42702","lat":"31.250944","category":"47","category_name":"住宅区","address":"上海市普陀区石泉路125号(近岚皋路)"},{"poiid":"B2094750D665AAF8489A","title":"上海洋食铺(石泉店)","lon":"121.428","lat":"31.2516","category":"68","category_name":"快餐厅","address":"普陀区石泉路92号(近镇坪路)"},{"poiid":"B2094757D06AA3FE4899","title":"洵阳中学","lon":"121.42637","lat":"31.25197","category":"55","category_name":"中学","address":"普陀区旬阳路41号(近宁强路)"},{"poiid":"B2094757D66FA2FB449A","title":"光新乐购","lon":"121.42667495","lat":"31.2529767349","category":"500","category_name":"未知分类","address":"上海中山北路光新路"},{"poiid":"B2094757D069AAFF4798","title":"石泉苑","lon":"121.42654","lat":"31.250622","category":"252","category_name":"楼宇机构","address":"上海石泉路135弄"},{"poiid":"B2094757D16AA6FD409D","title":"〒_〒三枪喔里相。","lon":"121.42674605","lat":"31.2492769643","category":"47","category_name":"住宅区","address":"上海岚皋路200弄"},{"poiid":"B2094757D56CA4FC4498","title":"C多多 世纪大道店","lon":"121.524928054","lat":"31.229906793","category":"247","category_name":"餐饮美食","address":"东方路710号汤臣金融大厦B1楼张杨路口"},{"poiid":"B2094757D169A0FD489D","title":"粤品捞","lon":"121.42859295","lat":"31.250395685","category":"72","category_name":"广东菜","address":"普陀区镇坪路64号(近中山北路)"},{"poiid":"B2094757D665ABFE419C","title":"重庆麻辣烫 镇坪路","lon":"121.428526","lat":"31.250502","category":"68","category_name":"快餐厅","address":"普陀区镇坪路(石泉路口)"},{"poiid":"B2094654D465A1FC4492","title":"永琪美容美发(新华源公寓东北)","lon":"121.42713","lat":"31.25101","category":"148","category_name":"美容美发店","address":"石泉路123"},{"poiid":"B2094655D26FA7FC459A","title":"童家桥小区(北门)","lon":"121.42485","lat":"31.25018","category":"47","category_name":"住宅区","address":""},{"poiid":"B2094757D465A7FE479A","title":"永旺兴苏州汤包馆","lon":"121.427762","lat":"31.251294","category":"68","category_name":"快餐厅","address":"普陀区石泉路115号(近镇坪路)"},{"poiid":"B2094654DB69A7FB4393","title":"越恺发展中心","lon":"121.42906087678","lat":"31.25030401285","category":"46","category_name":"楼宇","address":"西直门北大街58号(东北角,西二环边)"},{"poiid":"B2094757D66DA3FF469C","title":"岚皋路爆米花","lon":"121.42544","lat":"31.24807","category":"68","category_name":"快餐厅","address":"普陀区岚皋路(近岚皋西路)"},{"poiid":"B2094757D06FA5FF409B","title":"镇坪路","lon":"121.42919158","lat":"31.249937057","category":"500","category_name":"未知分类","address":"上海镇坪路"},{"poiid":"B2094757D16DA5FC409F","title":"石泉路镇坪路","lon":"121.42593285","lat":"31.250332184","category":"500","category_name":"未知分类","address":"上海普陀区"},{"poiid":"B2094757D06FA7FC4093","title":"四如春食府","lon":"121.42770262","lat":"31.252188997","category":"68","category_name":"快餐厅","address":"普陀区石泉路72号(近镇坪路)"},{"poiid":"B2094757D06FA6FD499E","title":"普陀区教育学院","lon":"121.42589","lat":"31.24674","category":"260","category_name":"其他","address":"普陀区岚皋路75号(近中山北路)"},{"poiid":"B2094757D16CABF8429F","title":"老郎面馆","lon":"121.42794795","lat":"31.2515217071","category":"68","category_name":"快餐厅","address":"普陀区石泉路98号(镇坪路口)"},{"poiid":"B2094757D06FA7FE4992","title":"岚皋路桥","lon":"121.42329406","lat":"31.250734329","category":"234","category_name":"海滨浴场","address":"上海岚皋路"},{"poiid":"B2094655D36CA1FD4698","title":"石泉路岚皋路","lon":"121.42371","lat":"31.25067","category":"38","category_name":"公交车站","address":""},{"poiid":"B2094757D56CA0FD419F","title":"麦当劳 光新路店 McDonald's","lon":"121.43300037162","lat":"31.249799643716","category":"247","category_name":"餐饮美食","address":"光新路117号近内环高架桥"},{"poiid":"B2094757D068ABFF489A","title":"岳阳飘湘楼 镇坪店","lon":"121.42779252056","lat":"31.251348612392","category":"77","category_name":"湖南菜","address":"普陀区镇坪路9号2楼(石泉路口)"},{"poiid":"B2094655D36DA7FF4193","title":"镇坪路石泉路","lon":"121.42837","lat":"31.25068","category":"38","category_name":"公交车站","address":""},{"poiid":"B2094757D069ABFE4098","title":"朱雀门","lon":"121.42931971","lat":"31.2495245047","category":"257","category_name":"中餐厅","address":"普陀区镇坪路101号甲(近石泉路)"},{"poiid":"B2094757D06FA6F84598","title":"联合大厦","lon":"121.42689342268","lat":"31.247481259332","category":"260","category_name":"其他","address":"上海普陀区武宁路350号"},{"poiid":"B2094757D069A2FE4899","title":"申悦大酒店 石泉店","lon":"121.42408760413","lat":"31.25008428568","category":"76","category_name":"上海菜","address":"普陀区石泉路186号(近岚皋路)"},{"poiid":"B2094654D565A3F9429B","title":"杰地大厦","lon":"121.425","lat":"31.2469","category":"46","category_name":"楼宇","address":"上海市黄浦区南京东路409-459号"},{"poiid":"B2094655D26FA6FA4292","title":"普安堂","lon":"121.42951","lat":"31.24976","category":"245","category_name":"教堂","address":"普陀区镇坪路152号(近中山北路)"},{"poiid":"B2094757D165AAFC4398","title":"广东猪肚鸡","lon":"121.42646695","lat":"31.249835674","category":"247","category_name":"餐饮美食","address":"上海普陀区镇坪路"},{"poiid":"B2094757D66EA0F8449C","title":"岚皋路200弄","lon":"121.42651725","lat":"31.2498212747","category":"47","category_name":"住宅区","address":"上海岚皋路200弄"},{"poiid":"B2094757D465A7FE4798","title":"重庆鸡公煲 镇坪路店","lon":"121.427298054","lat":"31.251051793","category":"247","category_name":"餐饮美食","address":"普陀区镇坪路27号(近石泉路)"},{"poiid":"B2094654D465A1FC429C","title":"洵阳路小学","lon":"121.42513","lat":"31.24932","category":"56","category_name":"小学","address":"普陀区岚皋路216号(近石泉路)"},{"poiid":"B2094750D26EA6FF419C","title":"徐家汇","lon":"121.424346","lat":"31.249996","category":"500","category_name":"未知分类","address":null},{"poiid":"B2094654D465A1FC4399","title":"良友金伴No.238","lon":"121.42586","lat":"31.25051","category":"117","category_name":"便民商店/便利店","address":"石泉路143"},{"poiid":"B2094757D665AAFD499F","title":"三味拉面馆","lon":"121.424555054","lat":"31.248817793","category":"68","category_name":"快餐厅","address":"普陀区岚皋路175号(近石泉路)"},{"poiid":"B2094654D465A1FC4392","title":"好德便利No.495(石泉苑西)","lon":"121.4262","lat":"31.25061","category":"117","category_name":"便民商店/便利店","address":""},{"poiid":"B2094757D06BA2FF489B","title":"小天鹅大排档","lon":"121.425074467","lat":"31.2482345777","category":"247","category_name":"餐饮美食","address":"普陀区岚皋路(近岚皋西路)"},{"poiid":"B2094757D769A4FE4599","title":"静安面包房 岚皋路店","lon":"121.4248387","lat":"31.2488675","category":"112","category_name":"糕饼店","address":"普陀区石泉路200号(近白玉兰)"},{"poiid":"B2094757D464AAF8499B","title":"兰沁园","lon":"121.42554261315","lat":"31.248326261849","category":"68","category_name":"快餐厅","address":"普陀区岚皋路84(近中山北路)"},{"poiid":"B2094654D465A1FC4398","title":"童家桥小区","lon":"121.42496","lat":"31.24995","category":"47","category_name":"住宅区","address":"石泉路165弄1-12号"},{"poiid":"B2094757D66BA3F54599","title":"鑫鑫私房菜","lon":"121.42728","lat":"31.251136","category":"76","category_name":"上海菜","address":"普陀区石泉路115号(近镇坪路)"},{"poiid":"B2094757D06AA1F5409B","title":"图门串烤(普陀店)","lon":"121.42494","lat":"31.24835","category":"68","category_name":"快餐厅","address":"普陀区岚皋路219号(近石泉路)"},{"poiid":"B2094757D465ABFE4699","title":"新记桂林米粉","lon":"121.424870054","lat":"31.248888793","category":"68","category_name":"快餐厅","address":"普陀区岚皋路198号相邻聚禄园酒家(近石泉路)"},{"poiid":"B2094655D26FA7FD449F","title":"石泉苑(北门)","lon":"121.42636","lat":"31.25067","category":"47","category_name":"住宅区","address":""},{"poiid":"B2094757D664A4FD4192","title":"赵师傅馄饨","lon":"121.42821","lat":"31.25062","category":"68","category_name":"快餐厅","address":"普陀区镇坪路59号(近石泉路)"},{"poiid":"B2094655D265A2FB4699","title":"龙柏园","lon":"121.42704","lat":"31.24968","category":"202","category_name":"公园广场","address":""},{"poiid":"B2094655D26FA1FB4193","title":"顶顶红","lon":"121.42481912368","lat":"31.24938255752","category":"76","category_name":"上海菜","address":"普陀区岚皋路202号(近中山北路)"},{"poiid":"B2094757D06BA6FF459A","title":"coco都可茶饮","lon":"121.42803995","lat":"31.2515557078","category":"113","category_name":"冷饮店","address":"普陀区石泉路101号(近镇坪路)"},{"poiid":"B2094654D465A2FA489A","title":"小胡桃专卖(石泉路)","lon":"121.42576","lat":"31.25082","category":"117","category_name":"便民商店/便利店","address":"石泉路134临"},{"poiid":"B2094654D465A1FC449D","title":"新华源公寓","lon":"121.42702","lat":"31.250944","category":"47","category_name":"住宅区","address":"上海市普陀区石泉路125号(近岚皋路)"},{"poiid":"B2094750D665AAF8489A","title":"上海洋食铺(石泉店)","lon":"121.428","lat":"31.2516","category":"68","category_name":"快餐厅","address":"普陀区石泉路92号(近镇坪路)"},{"poiid":"B2094757D06AA3FE4899","title":"洵阳中学","lon":"121.42637","lat":"31.25197","category":"55","category_name":"中学","address":"普陀区旬阳路41号(近宁强路)"},{"poiid":"B2094757D66FA2FB449A","title":"光新乐购","lon":"121.42667495","lat":"31.2529767349","category":"500","category_name":"未知分类","address":"上海中山北路光新路"},{"poiid":"B2094757D069AAFF4798","title":"石泉苑","lon":"121.42654","lat":"31.250622","category":"252","category_name":"楼宇机构","address":"上海石泉路135弄"},{"poiid":"B2094757D16AA6FD409D","title":"〒_〒三枪喔里相。","lon":"121.42674605","lat":"31.2492769643","category":"47","category_name":"住宅区","address":"上海岚皋路200弄"},{"poiid":"B2094757D56CA4FC4498","title":"C多多 世纪大道店","lon":"121.524928054","lat":"31.229906793","category":"247","category_name":"餐饮美食","address":"东方路710号汤臣金融大厦B1楼张杨路口"},{"poiid":"B2094757D169A0FD489D","title":"粤品捞","lon":"121.42859295","lat":"31.250395685","category":"72","category_name":"广东菜","address":"普陀区镇坪路64号(近中山北路)"},{"poiid":"B2094757D665ABFE419C","title":"重庆麻辣烫 镇坪路","lon":"121.428526","lat":"31.250502","category":"68","category_name":"快餐厅","address":"普陀区镇坪路(石泉路口)"},{"poiid":"B2094654D465A1FC4492","title":"永琪美容美发(新华源公寓东北)","lon":"121.42713","lat":"31.25101","category":"148","category_name":"美容美发店","address":"石泉路123"},{"poiid":"B2094655D26FA7FC459A","title":"童家桥小区(北门)","lon":"121.42485","lat":"31.25018","category":"47","category_name":"住宅区","address":""},{"poiid":"B2094757D465A7FE479A","title":"永旺兴苏州汤包馆","lon":"121.427762","lat":"31.251294","category":"68","category_name":"快餐厅","address":"普陀区石泉路115号(近镇坪路)"},{"poiid":"B2094654DB69A7FB4393","title":"越恺发展中心","lon":"121.42906087678","lat":"31.25030401285","category":"46","category_name":"楼宇","address":"西直门北大街58号(东北角,西二环边)"},{"poiid":"B2094757D66DA3FF469C","title":"岚皋路爆米花","lon":"121.42544","lat":"31.24807","category":"68","category_name":"快餐厅","address":"普陀区岚皋路(近岚皋西路)"},{"poiid":"B2094757D06FA5FF409B","title":"镇坪路","lon":"121.42919158","lat":"31.249937057","category":"500","category_name":"未知分类","address":"上海镇坪路"},{"poiid":"B2094757D16DA5FC409F","title":"石泉路镇坪路","lon":"121.42593285","lat":"31.250332184","category":"500","category_name":"未知分类","address":"上海普陀区"},{"poiid":"B2094757D06FA7FC4093","title":"四如春食府","lon":"121.42770262","lat":"31.252188997","category":"68","category_name":"快餐厅","address":"普陀区石泉路72号(近镇坪路)"},{"poiid":"B2094757D06FA6FD499E","title":"普陀区教育学院","lon":"121.42589","lat":"31.24674","category":"260","category_name":"其他","address":"普陀区岚皋路75号(近中山北路)"},{"poiid":"B2094757D16CABF8429F","title":"老郎面馆","lon":"121.42794795","lat":"31.2515217071","category":"68","category_name":"快餐厅","address":"普陀区石泉路98号(镇坪路口)"},{"poiid":"B2094757D06FA7FE4992","title":"岚皋路桥","lon":"121.42329406","lat":"31.250734329","category":"234","category_name":"海滨浴场","address":"上海岚皋路"},{"poiid":"B2094655D36CA1FD4698","title":"石泉路岚皋路","lon":"121.42371","lat":"31.25067","category":"38","category_name":"公交车站","address":""},{"poiid":"B2094757D56CA0FD419F","title":"麦当劳 光新路店 McDonald's","lon":"121.43300037162","lat":"31.249799643716","category":"247","category_name":"餐饮美食","address":"光新路117号近内环高架桥"},{"poiid":"B2094757D068ABFF489A","title":"岳阳飘湘楼 镇坪店","lon":"121.42779252056","lat":"31.251348612392","category":"77","category_name":"湖南菜","address":"普陀区镇坪路9号2楼(石泉路口)"},{"poiid":"B2094655D36DA7FF4193","title":"镇坪路石泉路","lon":"121.42837","lat":"31.25068","category":"38","category_name":"公交车站","address":""},{"poiid":"B2094757D069ABFE4098","title":"朱雀门","lon":"121.42931971","lat":"31.2495245047","category":"257","category_name":"中餐厅","address":"普陀区镇坪路101号甲(近石泉路)"},{"poiid":"B2094757D06FA6F84598","title":"联合大厦","lon":"121.42689342268","lat":"31.247481259332","category":"260","category_name":"其他","address":"上海普陀区武宁路350号"},{"poiid":"B2094757D069A2FE4899","title":"申悦大酒店 石泉店","lon":"121.42408760413","lat":"31.25008428568","category":"76","category_name":"上海菜","address":"普陀区石泉路186号(近岚皋路)"},{"poiid":"B2094654D565A3F9429B","title":"杰地大厦","lon":"121.425","lat":"31.2469","category":"46","category_name":"楼宇","address":"上海市黄浦区南京东路409-459号"},{"poiid":"B2094655D26FA6FA4292","title":"普安堂","lon":"121.42951","lat":"31.24976","category":"245","category_name":"教堂","address":"普陀区镇坪路152号(近中山北路)"},{"poiid":"B2094757D165AAFC4398","title":"广东猪肚鸡","lon":"121.42646695","lat":"31.249835674","category":"247","category_name":"餐饮美食","address":"上海普陀区镇坪路"},{"poiid":"B2094757D66EA0F8449C","title":"岚皋路200弄","lon":"121.42651725","lat":"31.2498212747","category":"47","category_name":"住宅区","address":"上海岚皋路200弄"},{"poiid":"B2094757D465A7FE4798","title":"重庆鸡公煲 镇坪路店","lon":"121.427298054","lat":"31.251051793","category":"247","category_name":"餐饮美食","address":"普陀区镇坪路27号(近石泉路)"},{"poiid":"B2094654D465A1FC429C","title":"洵阳路小学","lon":"121.42513","lat":"31.24932","category":"56","category_name":"小学","address":"普陀区岚皋路216号(近石泉路)"},{"poiid":"B2094750D26EA6FF419C","title":"徐家汇","lon":"121.424346","lat":"31.249996","category":"500","category_name":"未知分类","address":null},{"poiid":"B2094654D465A1FC4399","title":"良友金伴No.238","lon":"121.42586","lat":"31.25051","category":"117","category_name":"便民商店/便利店","address":"石泉路143"},{"poiid":"B2094757D665AAFD499F","title":"三味拉面馆","lon":"121.424555054","lat":"31.248817793","category":"68","category_name":"快餐厅","address":"普陀区岚皋路175号(近石泉路)"},{"poiid":"B2094654D465A1FC4392","title":"好德便利No.495(石泉苑西)","lon":"121.4262","lat":"31.25061","category":"117","category_name":"便民商店/便利店","address":""},{"poiid":"B2094757D06BA2FF489B","title":"小天鹅大排档","lon":"121.425074467","lat":"31.2482345777","category":"247","category_name":"餐饮美食","address":"普陀区岚皋路(近岚皋西路)"},{"poiid":"B2094757D769A4FE4599","title":"静安面包房 岚皋路店","lon":"121.4248387","lat":"31.2488675","category":"112","category_name":"糕饼店","address":"普陀区石泉路200号(近白玉兰)"},{"poiid":"B2094757D464AAF8499B","title":"兰沁园","lon":"121.42554261315","lat":"31.248326261849","category":"68","category_name":"快餐厅","address":"普陀区岚皋路84(近中山北路)"},{"poiid":"B2094654D465A1FC4398","title":"童家桥小区","lon":"121.42496","lat":"31.24995","category":"47","category_name":"住宅区","address":"石泉路165弄1-12号"},{"poiid":"B2094757D66BA3F54599","title":"鑫鑫私房菜","lon":"121.42728","lat":"31.251136","category":"76","category_name":"上海菜","address":"普陀区石泉路115号(近镇坪路)"},{"poiid":"B2094757D06AA1F5409B","title":"图门串烤(普陀店)","lon":"121.42494","lat":"31.24835","category":"68","category_name":"快餐厅","address":"普陀区岚皋路219号(近石泉路)"},{"poiid":"B2094757D465ABFE4699","title":"新记桂林米粉","lon":"121.424870054","lat":"31.248888793","category":"68","category_name":"快餐厅","address":"普陀区岚皋路198号相邻聚禄园酒家(近石泉路)"},{"poiid":"B2094655D26FA7FD449F","title":"石泉苑(北门)","lon":"121.42636","lat":"31.25067","category":"47","category_name":"住宅区","address":""},{"poiid":"B2094757D664A4FD4192","title":"赵师傅馄饨","lon":"121.42821","lat":"31.25062","category":"68","category_name":"快餐厅","address":"普陀区镇坪路59号(近石泉路)"},{"poiid":"B2094655D265A2FB4699","title":"龙柏园","lon":"121.42704","lat":"31.24968","category":"202","category_name":"公园广场","address":""},{"poiid":"B2094655D26FA1FB4193","title":"顶顶红","lon":"121.42481912368","lat":"31.24938255752","category":"76","category_name":"上海菜","address":"普陀区岚皋路202号(近中山北路)"},{"poiid":"B2094757D06BA6FF459A","title":"coco都可茶饮","lon":"121.42803995","lat":"31.2515557078","category":"113","category_name":"冷饮店","address":"普陀区石泉路101号(近镇坪路)"},{"poiid":"B2094654D465A2FA489A","title":"小胡桃专卖(石泉路)","lon":"121.42576","lat":"31.25082","category":"117","category_name":"便民商店/便利店","address":"石泉路134临"},{"poiid":"B2094654D465A1FC449D","title":"新华源公寓","lon":"121.42702","lat":"31.250944","category":"47","category_name":"住宅区","address":"上海市普陀区石泉路125号(近岚皋路)"},{"poiid":"B2094750D665AAF8489A","title":"上海洋食铺(石泉店)","lon":"121.428","lat":"31.2516","category":"68","category_name":"快餐厅","address":"普陀区石泉路92号(近镇坪路)"},{"poiid":"B2094757D06AA3FE4899","title":"洵阳中学","lon":"121.42637","lat":"31.25197","category":"55","category_name":"中学","address":"普陀区旬阳路41号(近宁强路)"},{"poiid":"B2094757D66FA2FB449A","title":"光新乐购","lon":"121.42667495","lat":"31.2529767349","category":"500","category_name":"未知分类","address":"上海中山北路光新路"},{"poiid":"B2094757D069AAFF4798","title":"石泉苑","lon":"121.42654","lat":"31.250622","category":"252","category_name":"楼宇机构","address":"上海石泉路135弄"},{"poiid":"B2094757D16AA6FD409D","title":"〒_〒三枪喔里相。","lon":"121.42674605","lat":"31.2492769643","category":"47","category_name":"住宅区","address":"上海岚皋路200弄"},{"poiid":"B2094757D56CA4FC4498","title":"C多多 世纪大道店","lon":"121.524928054","lat":"31.229906793","category":"247","category_name":"餐饮美食","address":"东方路710号汤臣金融大厦B1楼张杨路口"},{"poiid":"B2094757D169A0FD489D","title":"粤品捞","lon":"121.42859295","lat":"31.250395685","category":"72","category_name":"广东菜","address":"普陀区镇坪路64号(近中山北路)"},{"poiid":"B2094757D665ABFE419C","title":"重庆麻辣烫 镇坪路","lon":"121.428526","lat":"31.250502","category":"68","category_name":"快餐厅","address":"普陀区镇坪路(石泉路口)"},{"poiid":"B2094654D465A1FC4492","title":"永琪美容美发(新华源公寓东北)","lon":"121.42713","lat":"31.25101","category":"148","category_name":"美容美发店","address":"石泉路123"},{"poiid":"B2094655D26FA7FC459A","title":"童家桥小区(北门)","lon":"121.42485","lat":"31.25018","category":"47","category_name":"住宅区","address":""},{"poiid":"B2094757D465A7FE479A","title":"永旺兴苏州汤包馆","lon":"121.427762","lat":"31.251294","category":"68","category_name":"快餐厅","address":"普陀区石泉路115号(近镇坪路)"},{"poiid":"B2094654DB69A7FB4393","title":"越恺发展中心","lon":"121.42906087678","lat":"31.25030401285","category":"46","category_name":"楼宇","address":"西直门北大街58号(东北角,西二环边)"},{"poiid":"B2094757D66DA3FF469C","title":"岚皋路爆米花","lon":"121.42544","lat":"31.24807","category":"68","category_name":"快餐厅","address":"普陀区岚皋路(近岚皋西路)"},{"poiid":"B2094757D06FA5FF409B","title":"镇坪路","lon":"121.42919158","lat":"31.249937057","category":"500","category_name":"未知分类","address":"上海镇坪路"},{"poiid":"B2094757D16DA5FC409F","title":"石泉路镇坪路","lon":"121.42593285","lat":"31.250332184","category":"500","category_name":"未知分类","address":"上海普陀区"},{"poiid":"B2094757D06FA7FC4093","title":"四如春食府","lon":"121.42770262","lat":"31.252188997","category":"68","category_name":"快餐厅","address":"普陀区石泉路72号(近镇坪路)"},{"poiid":"B2094757D06FA6FD499E","title":"普陀区教育学院","lon":"121.42589","lat":"31.24674","category":"260","category_name":"其他","address":"普陀区岚皋路75号(近中山北路)"},{"poiid":"B2094757D16CABF8429F","title":"老郎面馆","lon":"121.42794795","lat":"31.2515217071","category":"68","category_name":"快餐厅","address":"普陀区石泉路98号(镇坪路口)"},{"poiid":"B2094757D06FA7FE4992","title":"岚皋路桥","lon":"121.42329406","lat":"31.250734329","category":"234","category_name":"海滨浴场","address":"上海岚皋路"},{"poiid":"B2094655D36CA1FD4698","title":"石泉路岚皋路","lon":"121.42371","lat":"31.25067","category":"38","category_name":"公交车站","address":""},{"poiid":"B2094757D56CA0FD419F","title":"麦当劳 光新路店 McDonald's","lon":"121.43300037162","lat":"31.249799643716","category":"247","category_name":"餐饮美食","address":"光新路117号近内环高架桥"},{"poiid":"B2094757D068ABFF489A","title":"岳阳飘湘楼 镇坪店","lon":"121.42779252056","lat":"31.251348612392","category":"77","category_name":"湖南菜","address":"普陀区镇坪路9号2楼(石泉路口)"},{"poiid":"B2094655D36DA7FF4193","title":"镇坪路石泉路","lon":"121.42837","lat":"31.25068","category":"38","category_name":"公交车站","address":""},{"poiid":"B2094757D069ABFE4098","title":"朱雀门","lon":"121.42931971","lat":"31.2495245047","category":"257","category_name":"中餐厅","address":"普陀区镇坪路101号甲(近石泉路)"},{"poiid":"B2094757D06FA6F84598","title":"联合大厦","lon":"121.42689342268","lat":"31.247481259332","category":"260","category_name":"其他","address":"上海普陀区武宁路350号"},{"poiid":"B2094757D069A2FE4899","title":"申悦大酒店 石泉店","lon":"121.42408760413","lat":"31.25008428568","category":"76","category_name":"上海菜","address":"普陀区石泉路186号(近岚皋路)"},{"poiid":"B2094654D565A3F9429B","title":"杰地大厦","lon":"121.425","lat":"31.2469","category":"46","category_name":"楼宇","address":"上海市黄浦区南京东路409-459号"},{"poiid":"B2094655D26FA6FA4292","title":"普安堂","lon":"121.42951","lat":"31.24976","category":"245","category_name":"教堂","address":"普陀区镇坪路152号(近中山北路)"},{"poiid":"B2094757D165AAFC4398","title":"广东猪肚鸡","lon":"121.42646695","lat":"31.249835674","category":"247","category_name":"餐饮美食","address":"上海普陀区镇坪路"},{"poiid":"B2094757D66EA0F8449C","title":"岚皋路200弄","lon":"121.42651725","lat":"31.2498212747","category":"47","category_name":"住宅区","address":"上海岚皋路200弄"},{"poiid":"B2094757D465A7FE4798","title":"重庆鸡公煲 镇坪路店","lon":"121.427298054","lat":"31.251051793","category":"247","category_name":"餐饮美食","address":"普陀区镇坪路27号(近石泉路)"},{"poiid":"B2094654D465A1FC429C","title":"洵阳路小学","lon":"121.42513","lat":"31.24932","category":"56","category_name":"小学","address":"普陀区岚皋路216号(近石泉路)"},{"poiid":"B2094750D26EA6FF419C","title":"徐家汇","lon":"121.424346","lat":"31.249996","category":"500","category_name":"未知分类","address":null},{"poiid":"B2094654D465A1FC4399","title":"良友金伴No.238","lon":"121.42586","lat":"31.25051","category":"117","category_name":"便民商店/便利店","address":"石泉路143"},{"poiid":"B2094757D665AAFD499F","title":"三味拉面馆","lon":"121.424555054","lat":"31.248817793","category":"68","category_name":"快餐厅","address":"普陀区岚皋路175号(近石泉路)"},{"poiid":"B2094654D465A1FC4392","title":"好德便利No.495(石泉苑西)","lon":"121.4262","lat":"31.25061","category":"117","category_name":"便民商店/便利店","address":""},{"poiid":"B2094757D06BA2FF489B","title":"小天鹅大排档","lon":"121.425074467","lat":"31.2482345777","category":"247","category_name":"餐饮美食","address":"普陀区岚皋路(近岚皋西路)"},{"poiid":"B2094757D769A4FE4599","title":"静安面包房 岚皋路店","lon":"121.4248387","lat":"31.2488675","category":"112","category_name":"糕饼店","address":"普陀区石泉路200号(近白玉兰)"},{"poiid":"B2094757D464AAF8499B","title":"兰沁园","lon":"121.42554261315","lat":"31.248326261849","category":"68","category_name":"快餐厅","address":"普陀区岚皋路84(近中山北路)"},{"poiid":"B2094654D465A1FC4398","title":"童家桥小区","lon":"121.42496","lat":"31.24995","category":"47","category_name":"住宅区","address":"石泉路165弄1-12号"},{"poiid":"B2094757D66BA3F54599","title":"鑫鑫私房菜","lon":"121.42728","lat":"31.251136","category":"76","category_name":"上海菜","address":"普陀区石泉路115号(近镇坪路)"},{"poiid":"B2094757D06AA1F5409B","title":"图门串烤(普陀店)","lon":"121.42494","lat":"31.24835","category":"68","category_name":"快餐厅","address":"普陀区岚皋路219号(近石泉路)"},{"poiid":"B2094757D465ABFE4699","title":"新记桂林米粉","lon":"121.424870054","lat":"31.248888793","category":"68","category_name":"快餐厅","address":"普陀区岚皋路198号相邻聚禄园酒家(近石泉路)"},{"poiid":"B2094655D26FA7FD449F","title":"石泉苑(北门)","lon":"121.42636","lat":"31.25067","category":"47","category_name":"住宅区","address":""},{"poiid":"B2094757D664A4FD4192","title":"赵师傅馄饨","lon":"121.42821","lat":"31.25062","category":"68","category_name":"快餐厅","address":"普陀区镇坪路59号(近石泉路)"},{"poiid":"B2094655D265A2FB4699","title":"龙柏园","lon":"121.42704","lat":"31.24968","category":"202","category_name":"公园广场","address":""},{"poiid":"B2094655D26FA1FB4193","title":"顶顶红","lon":"121.42481912368","lat":"31.24938255752","category":"76","category_name":"上海菜","address":"普陀区岚皋路202号(近中山北路)"},{"poiid":"B2094757D06BA6FF459A","title":"coco都可茶饮","lon":"121.42803995","lat":"31.2515557078","category":"113","category_name":"冷饮店","address":"普陀区石泉路101号(近镇坪路)"},{"poiid":"B2094654D465A2FA489A","title":"小胡桃专卖(石泉路)","lon":"121.42576","lat":"31.25082","category":"117","category_name":"便民商店/便利店","address":"石泉路134临"},{"poiid":"B2094654D465A1FC449D","title":"新华源公寓","lon":"121.42702","lat":"31.250944","category":"47","category_name":"住宅区","address":"上海市普陀区石泉路125号(近岚皋路)"},{"poiid":"B2094750D665AAF8489A","title":"上海洋食铺(石泉店)","lon":"121.428","lat":"31.2516","category":"68","category_name":"快餐厅","address":"普陀区石泉路92号(近镇坪路)"},{"poiid":"B2094757D06AA3FE4899","title":"洵阳中学","lon":"121.42637","lat":"31.25197","category":"55","category_name":"中学","address":"普陀区旬阳路41号(近宁强路)"},{"poiid":"B2094757D66FA2FB449A","title":"光新乐购","lon":"121.42667495","lat":"31.2529767349","category":"500","category_name":"未知分类","address":"上海中山北路光新路"},{"poiid":"B2094757D069AAFF4798","title":"石泉苑","lon":"121.42654","lat":"31.250622","category":"252","category_name":"楼宇机构","address":"上海石泉路135弄"},{"poiid":"B2094757D16AA6FD409D","title":"〒_〒三枪喔里相。","lon":"121.42674605","lat":"31.2492769643","category":"47","category_name":"住宅区","address":"上海岚皋路200弄"},{"poiid":"B2094757D56CA4FC4498","title":"C多多 世纪大道店","lon":"121.524928054","lat":"31.229906793","category":"247","category_name":"餐饮美食","address":"东方路710号汤臣金融大厦B1楼张杨路口"},{"poiid":"B2094757D169A0FD489D","title":"粤品捞","lon":"121.42859295","lat":"31.250395685","category":"72","category_name":"广东菜","address":"普陀区镇坪路64号(近中山北路)"},{"poiid":"B2094757D665ABFE419C","title":"重庆麻辣烫 镇坪路","lon":"121.428526","lat":"31.250502","category":"68","category_name":"快餐厅","address":"普陀区镇坪路(石泉路口)"},{"poiid":"B2094654D465A1FC4492","title":"永琪美容美发(新华源公寓东北)","lon":"121.42713","lat":"31.25101","category":"148","category_name":"美容美发店","address":"石泉路123"},{"poiid":"B2094655D26FA7FC459A","title":"童家桥小区(北门)","lon":"121.42485","lat":"31.25018","category":"47","category_name":"住宅区","address":""},{"poiid":"B2094757D465A7FE479A","title":"永旺兴苏州汤包馆","lon":"121.427762","lat":"31.251294","category":"68","category_name":"快餐厅","address":"普陀区石泉路115号(近镇坪路)"},{"poiid":"B2094654DB69A7FB4393","title":"越恺发展中心","lon":"121.42906087678","lat":"31.25030401285","category":"46","category_name":"楼宇","address":"西直门北大街58号(东北角,西二环边)"},{"poiid":"B2094757D66DA3FF469C","title":"岚皋路爆米花","lon":"121.42544","lat":"31.24807","category":"68","category_name":"快餐厅","address":"普陀区岚皋路(近岚皋西路)"}]