[{"poiid":"B2094757DB68A5F9419C","title":"捞王猪肚鸡 静安店","lon":"121.442066","lat":"31.22995","category":"86","category_name":"火锅店","address":"静安区武定路1052号(胶州路口)"},{"poiid":"B2094757D068ABFC459D","title":"Sushi Abuse","lon":"121.441652687","lat":"31.2284786753","category":"268","category_name":"自助","address":"上海延平路98号C幢2楼(近新闸路)"},{"poiid":"B2094654DB6BA6FB4093","title":"谷泰饭店","lon":"121.44105","lat":"31.22859","category":"76","category_name":"上海菜","address":"静安区延平路121号三和大厦1-3楼(近武定路)"},{"poiid":"B2094753D76FAAFA449C","title":"上海滩国泰旗舰店","lon":"121.466011","lat":"31.216125","category":"249","category_name":"购物服务","address":"淮海中路868号"},{"poiid":"B209475CD564A7F8439E","title":"上海滩中信泰富店","lon":"121.45602","lat":"31.22851","category":"119","category_name":"商场","address":"\"南京西路1168号中信泰富广场，店铺号221.\r\n\""},{"poiid":"B2094757D06BA0FD479D","title":"kush","lon":"121.44224458","lat":"31.227993387","category":"94","category_name":"西餐厅","address":"静安区延平路98号c幢(近新闸路)"},{"poiid":"B2094757D06FA7FD459B","title":"三和花园","lon":"121.44018","lat":"31.228378","category":"47","category_name":"住宅区","address":"上海市静安区延平路123弄"},{"poiid":"B2094654D565ABF5409F","title":"沃歌斯(胶州路)","lon":"121.44314","lat":"31.22821","category":"94","category_name":"西餐厅","address":"静安区胶州路265号1楼(近新闸路)"},{"poiid":"B2094655D36CA1F5469C","title":"康定路延平路","lon":"121.44042","lat":"31.23092","category":"38","category_name":"公交车站","address":""},{"poiid":"B2094757D06FA6FF479A","title":"98创意园","lon":"121.44174072","lat":"31.228805503","category":"46","category_name":"楼宇","address":"静安区延平路98号云和花园内(近新闸路)"},{"poiid":"B2094757D06BA5F44198","title":"静安区牙防所","lon":"121.439982","lat":"31.230631","category":"500","category_name":"未知分类","address":"上海康定路909号"},{"poiid":"B2094757D069ABF8429E","title":"胶州路武定路","lon":"121.442456","lat":"31.230476","category":"500","category_name":"未知分类","address":"上海胶州路武定路"},{"poiid":"B2094750D56DA7FD409D","title":"一气居酒屋Yikki","lon":"121.441871","lat":"31.228118","category":"95","category_name":"日本料理","address":"静安区延平路98号2幢101室(近新闸路)"},{"poiid":"B2094751D465A1F84999","title":"Lab. whisky & cocktail","lon":"121.441904","lat":"31.229786","category":"247","category_name":"餐饮美食","address":"上海市靜安區武定路1093號"},{"poiid":"B2094750D26BA5F54792","title":"Enoterra","lon":"121.442565","lat":"31.229871","category":"247","category_name":"餐饮美食","address":"静安区武定路1075号(近胶州路)"},{"poiid":"B2094757D06AA1FB439B","title":"Munchies 梦奇屋 (武定路店)","lon":"121.44311518","lat":"31.230294607","category":"94","category_name":"西餐厅","address":"静安区武定路974号(近胶州路)"},{"poiid":"B2094654D565ABF4469F","title":"四和花园","lon":"121.4413","lat":"31.227444","category":"47","category_name":"住宅区","address":"上海新闸路1910弄"},{"poiid":"B2094654DB64A6FB469B","title":"格林豪泰(上海静安店)","lon":"121.44306","lat":"31.22753","category":"216","category_name":"经济型连锁酒店","address":"上海市静安区新闸路1829号(胶州路口)"},{"poiid":"B2094654D565ABF4499B","title":"乐途静安国际青年旅舍·上海","lon":"121.44187","lat":"31.22904","category":"218","category_name":"青年旅舍","address":"上海市静安区胶州路319弄36号(近武定路)"},{"poiid":"B2094757D069A3FE479B","title":"吴苑饼家","lon":"121.44008","lat":"31.23047","category":"68","category_name":"快餐厅","address":"静安区延平路255号(近康定路)"},{"poiid":"B2094655D36CA5F5419E","title":"北京西路","lon":"121.44211","lat":"31.22696","category":"38","category_name":"公交车站","address":""},{"poiid":"B2094757D068A1F5449D","title":"翰林府邸","lon":"121.43937658","lat":"31.228393395","category":"47","category_name":"住宅区","address":"上海ShanghaiJing'anWuding Rd"},{"poiid":"B2094757D66DA5FE4692","title":"雅马哈音乐中心","lon":"121.442688586","lat":"31.227721382","category":"500","category_name":"未知分类","address":"静安区新闸路1830号1楼(近胶州路)"},{"poiid":"B2094757D465A3FE429B","title":"海味世家","lon":"121.441021","lat":"31.229143","category":"75","category_name":"浙江菜","address":"静安区延平路128号(近武定路)"},{"poiid":"B2094654D565ABFA459B","title":"上海市公安局静安分局","lon":"121.44205","lat":"31.23086","category":"248","category_name":"生活娱乐","address":"胶州路415"},{"poiid":"B2094655D36DA0FE419E","title":"新闸路延平路","lon":"121.44199","lat":"31.2268","category":"38","category_name":"公交车站","address":""},{"poiid":"B2094655D36DA0FE4093","title":"新闸路胶州路","lon":"121.44263","lat":"31.22743","category":"38","category_name":"公交车站","address":""},{"poiid":"B2094654DB6BA6FB419B","title":"速8酒店上海静安寺新闸路店","lon":"121.442302","lat":"31.22845","category":"76","category_name":"上海菜","address":"上海市静安区延平路58号(近新闸路)"},{"poiid":"B2094757D069A2F94793","title":"美味坊","lon":"121.44356","lat":"31.22825","category":"76","category_name":"上海菜","address":"静安区胶州路273弄58号枫蓝商务酒店内(近新闸路)"},{"poiid":"B2094757D66DABF44893","title":"木村","lon":"121.443272586","lat":"31.2277103817","category":"500","category_name":"未知分类","address":"上海胶州路210号"},{"poiid":"B2094757D06AA2FB4093","title":"三和花园福居游泳馆","lon":"121.44143","lat":"31.22867","category":"220","category_name":"运动场所","address":"静安区延平路123弄三和花园16号(近新闸路)"},{"poiid":"B2094757D664A3F8479D","title":"重庆鸡公煲 延平路店","lon":"121.440389054","lat":"31.230080793","category":"71","category_name":"四川菜","address":"静安区延平路236号(近武定路)"},{"poiid":"B2094757D465A1FE489E","title":"雅家经典私房菜","lon":"121.43999403235","lat":"31.230251448286","category":"76","category_name":"上海菜","address":"静安区延平路227号(近康定路)"},{"poiid":"B2094757D765A4FF4499","title":"达美乐比萨 武定路店 Domino's Pizza","lon":"121.44223","lat":"31.22996","category":"94","category_name":"西餐厅","address":"静安区武定路1050号(近胶州路)"},{"poiid":"B2094757D16EA3FA4999","title":"可颂坊 新闸路店 Croissants de France","lon":"121.441927054","lat":"31.226829793","category":"112","category_name":"糕饼店","address":"静安区新闸路1888号(近延平路)"},{"poiid":"B2094750D56FA2F84198","title":"Shooters 52 Bakery Cafe Bar","lon":"121.442016","lat":"31.228929","category":"67","category_name":"甜品店","address":"静安区武定路1073号(近胶州路)"},{"poiid":"B2094654D565A4FA409E","title":"新闸大厦","lon":"121.44281","lat":"31.227142","category":"47","category_name":"住宅区","address":"铁西区铁西兴华街与南十中路交处(兴华南街48号)"},{"poiid":"B2094750D76DAAF84692","title":"Dvino","lon":"121.442","lat":"31.2285","category":"260","category_name":"其他","address":"静安区延平路98号云和花园C幢(近新闸路)"},{"poiid":"B2094654DB6BA6FB4298","title":"锦江之星(上海胶州路店)","lon":"121.44263","lat":"31.22945","category":"216","category_name":"经济型连锁酒店","address":"上海静安区胶州路339号(近武定路)  "},{"poiid":"B2094757D664AAF4489D","title":"豫申园城隍庙小吃世界 武定路店","lon":"121.43902","lat":"31.22867","category":"68","category_name":"快餐厅","address":"静安区武定路1106号(近延平路)"},{"poiid":"B2094654DB6BA6FB419F","title":"98创意园A栋","lon":"121.44191","lat":"31.22827","category":"46","category_name":"楼宇","address":"延平路98-11"},{"poiid":"B2094757D16EA7FE439B","title":"日全食 中式快速餐飲","lon":"121.44203258","lat":"31.226947366","category":"68","category_name":"快餐厅","address":"静安区新闸路1892号(近延平路)"},{"poiid":"B2094757D66BA6FA439E","title":"旺上旺食屋","lon":"121.442962054","lat":"31.228442793","category":"76","category_name":"上海菜","address":"静安区胶州路273弄2号(近新闸路)"},{"poiid":"B2094757D06AA6F8449A","title":"阿玛尼护肤造型中心(武定路店)","lon":"121.43961","lat":"31.22849","category":"148","category_name":"美容美发店","address":"上海静安区武定路1129号(近延平路)  "},{"poiid":"B2094654DB6BA6FA4299","title":"杏花楼(延平路)","lon":"121.43893","lat":"31.22904","category":"112","category_name":"糕饼店","address":"静安区武定路1130号(近延平路)"},{"poiid":"B2094655D26BA2FC449F","title":"武定路延平路","lon":"121.43891","lat":"31.22856","category":"38","category_name":"公交车站","address":""},{"poiid":"B2094654D565ABFA429A","title":"益民公寓","lon":"121.43957","lat":"31.230257","category":"47","category_name":"住宅区","address":"益民公寓位于静安延平路223弄"},{"poiid":"B2094751DA6AAAF4449B","title":"中福会少年宫小伙伴剧场","lon":"121.442246","lat":"31.227331","category":"248","category_name":"生活娱乐","address":null},{"poiid":"B2094750D768A0FB4799","title":"喜福面馆","lon":"121.443","lat":"31.2291","category":"68","category_name":"快餐厅","address":"静安区胶州路313号(近新闸路)"},{"poiid":"B2094654D565ABFA4399","title":"康良菜馆","lon":"121.44054","lat":"31.23084","category":"76","category_name":"上海菜","address":"静安区康定路877号(近延平路)"},{"poiid":"B2094757DB68A5F9419C","title":"捞王猪肚鸡 静安店","lon":"121.442066","lat":"31.22995","category":"86","category_name":"火锅店","address":"静安区武定路1052号(胶州路口)"},{"poiid":"B2094757D068ABFC459D","title":"Sushi Abuse","lon":"121.441652687","lat":"31.2284786753","category":"268","category_name":"自助","address":"上海延平路98号C幢2楼(近新闸路)"},{"poiid":"B2094654DB6BA6FB4093","title":"谷泰饭店","lon":"121.44105","lat":"31.22859","category":"76","category_name":"上海菜","address":"静安区延平路121号三和大厦1-3楼(近武定路)"},{"poiid":"B2094753D76FAAFA449C","title":"上海滩国泰旗舰店","lon":"121.466011","lat":"31.216125","category":"249","category_name":"购物服务","address":"淮海中路868号"},{"poiid":"B209475CD564A7F8439E","title":"上海滩中信泰富店","lon":"121.45602","lat":"31.22851","category":"119","category_name":"商场","address":"\"南京西路1168号中信泰富广场，店铺号221.\r\n\""},{"poiid":"B2094757D06BA0FD479D","title":"kush","lon":"121.44224458","lat":"31.227993387","category":"94","category_name":"西餐厅","address":"静安区延平路98号c幢(近新闸路)"},{"poiid":"B2094757D06FA7FD459B","title":"三和花园","lon":"121.44018","lat":"31.228378","category":"47","category_name":"住宅区","address":"上海市静安区延平路123弄"},{"poiid":"B2094654D565ABF5409F","title":"沃歌斯(胶州路)","lon":"121.44314","lat":"31.22821","category":"94","category_name":"西餐厅","address":"静安区胶州路265号1楼(近新闸路)"},{"poiid":"B2094655D36CA1F5469C","title":"康定路延平路","lon":"121.44042","lat":"31.23092","category":"38","category_name":"公交车站","address":""},{"poiid":"B2094757D06FA6FF479A","title":"98创意园","lon":"121.44174072","lat":"31.228805503","category":"46","category_name":"楼宇","address":"静安区延平路98号云和花园内(近新闸路)"},{"poiid":"B2094757D06BA5F44198","title":"静安区牙防所","lon":"121.439982","lat":"31.230631","category":"500","category_name":"未知分类","address":"上海康定路909号"},{"poiid":"B2094757D069ABF8429E","title":"胶州路武定路","lon":"121.442456","lat":"31.230476","category":"500","category_name":"未知分类","address":"上海胶州路武定路"},{"poiid":"B2094750D56DA7FD409D","title":"一气居酒屋Yikki","lon":"121.441871","lat":"31.228118","category":"95","category_name":"日本料理","address":"静安区延平路98号2幢101室(近新闸路)"},{"poiid":"B2094751D465A1F84999","title":"Lab. whisky & cocktail","lon":"121.441904","lat":"31.229786","category":"247","category_name":"餐饮美食","address":"上海市靜安區武定路1093號"},{"poiid":"B2094750D26BA5F54792","title":"Enoterra","lon":"121.442565","lat":"31.229871","category":"247","category_name":"餐饮美食","address":"静安区武定路1075号(近胶州路)"},{"poiid":"B2094757D06AA1FB439B","title":"Munchies 梦奇屋 (武定路店)","lon":"121.44311518","lat":"31.230294607","category":"94","category_name":"西餐厅","address":"静安区武定路974号(近胶州路)"},{"poiid":"B2094654D565ABF4469F","title":"四和花园","lon":"121.4413","lat":"31.227444","category":"47","category_name":"住宅区","address":"上海新闸路1910弄"},{"poiid":"B2094654DB64A6FB469B","title":"格林豪泰(上海静安店)","lon":"121.44306","lat":"31.22753","category":"216","category_name":"经济型连锁酒店","address":"上海市静安区新闸路1829号(胶州路口)"},{"poiid":"B2094654D565ABF4499B","title":"乐途静安国际青年旅舍·上海","lon":"121.44187","lat":"31.22904","category":"218","category_name":"青年旅舍","address":"上海市静安区胶州路319弄36号(近武定路)"},{"poiid":"B2094757D069A3FE479B","title":"吴苑饼家","lon":"121.44008","lat":"31.23047","category":"68","category_name":"快餐厅","address":"静安区延平路255号(近康定路)"},{"poiid":"B2094655D36CA5F5419E","title":"北京西路","lon":"121.44211","lat":"31.22696","category":"38","category_name":"公交车站","address":""},{"poiid":"B2094757D068A1F5449D","title":"翰林府邸","lon":"121.43937658","lat":"31.228393395","category":"47","category_name":"住宅区","address":"上海ShanghaiJing'anWuding Rd"},{"poiid":"B2094757D66DA5FE4692","title":"雅马哈音乐中心","lon":"121.442688586","lat":"31.227721382","category":"500","category_name":"未知分类","address":"静安区新闸路1830号1楼(近胶州路)"},{"poiid":"B2094757D465A3FE429B","title":"海味世家","lon":"121.441021","lat":"31.229143","category":"75","category_name":"浙江菜","address":"静安区延平路128号(近武定路)"},{"poiid":"B2094654D565ABFA459B","title":"上海市公安局静安分局","lon":"121.44205","lat":"31.23086","category":"248","category_name":"生活娱乐","address":"胶州路415"},{"poiid":"B2094655D36DA0FE419E","title":"新闸路延平路","lon":"121.44199","lat":"31.2268","category":"38","category_name":"公交车站","address":""},{"poiid":"B2094655D36DA0FE4093","title":"新闸路胶州路","lon":"121.44263","lat":"31.22743","category":"38","category_name":"公交车站","address":""},{"poiid":"B2094654DB6BA6FB419B","title":"速8酒店上海静安寺新闸路店","lon":"121.442302","lat":"31.22845","category":"76","category_name":"上海菜","address":"上海市静安区延平路58号(近新闸路)"},{"poiid":"B2094757D069A2F94793","title":"美味坊","lon":"121.44356","lat":"31.22825","category":"76","category_name":"上海菜","address":"静安区胶州路273弄58号枫蓝商务酒店内(近新闸路)"},{"poiid":"B2094757D66DABF44893","title":"木村","lon":"121.443272586","lat":"31.2277103817","category":"500","category_name":"未知分类","address":"上海胶州路210号"},{"poiid":"B2094757D06AA2FB4093","title":"三和花园福居游泳馆","lon":"121.44143","lat":"31.22867","category":"220","category_name":"运动场所","address":"静安区延平路123弄三和花园16号(近新闸路)"},{"poiid":"B2094757D664A3F8479D","title":"重庆鸡公煲 延平路店","lon":"121.440389054","lat":"31.230080793","category":"71","category_name":"四川菜","address":"静安区延平路236号(近武定路)"},{"poiid":"B2094757D465A1FE489E","title":"雅家经典私房菜","lon":"121.43999403235","lat":"31.230251448286","category":"76","category_name":"上海菜","address":"静安区延平路227号(近康定路)"},{"poiid":"B2094757D765A4FF4499","title":"达美乐比萨 武定路店 Domino's Pizza","lon":"121.44223","lat":"31.22996","category":"94","category_name":"西餐厅","address":"静安区武定路1050号(近胶州路)"},{"poiid":"B2094757D16EA3FA4999","title":"可颂坊 新闸路店 Croissants de France","lon":"121.441927054","lat":"31.226829793","category":"112","category_name":"糕饼店","address":"静安区新闸路1888号(近延平路)"},{"poiid":"B2094750D56FA2F84198","title":"Shooters 52 Bakery Cafe Bar","lon":"121.442016","lat":"31.228929","category":"67","category_name":"甜品店","address":"静安区武定路1073号(近胶州路)"},{"poiid":"B2094654D565A4FA409E","title":"新闸大厦","lon":"121.44281","lat":"31.227142","category":"47","category_name":"住宅区","address":"铁西区铁西兴华街与南十中路交处(兴华南街48号)"},{"poiid":"B2094750D76DAAF84692","title":"Dvino","lon":"121.442","lat":"31.2285","category":"260","category_name":"其他","address":"静安区延平路98号云和花园C幢(近新闸路)"},{"poiid":"B2094654DB6BA6FB4298","title":"锦江之星(上海胶州路店)","lon":"121.44263","lat":"31.22945","category":"216","category_name":"经济型连锁酒店","address":"上海静安区胶州路339号(近武定路)  "},{"poiid":"B2094757D664AAF4489D","title":"豫申园城隍庙小吃世界 武定路店","lon":"121.43902","lat":"31.22867","category":"68","category_name":"快餐厅","address":"静安区武定路1106号(近延平路)"},{"poiid":"B2094654DB6BA6FB419F","title":"98创意园A栋","lon":"121.44191","lat":"31.22827","category":"46","category_name":"楼宇","address":"延平路98-11"},{"poiid":"B2094757D16EA7FE439B","title":"日全食 中式快速餐飲","lon":"121.44203258","lat":"31.226947366","category":"68","category_name":"快餐厅","address":"静安区新闸路1892号(近延平路)"},{"poiid":"B2094757D66BA6FA439E","title":"旺上旺食屋","lon":"121.442962054","lat":"31.228442793","category":"76","category_name":"上海菜","address":"静安区胶州路273弄2号(近新闸路)"},{"poiid":"B2094757D06AA6F8449A","title":"阿玛尼护肤造型中心(武定路店)","lon":"121.43961","lat":"31.22849","category":"148","category_name":"美容美发店","address":"上海静安区武定路1129号(近延平路)  "},{"poiid":"B2094654DB6BA6FA4299","title":"杏花楼(延平路)","lon":"121.43893","lat":"31.22904","category":"112","category_name":"糕饼店","address":"静安区武定路1130号(近延平路)"},{"poiid":"B2094655D26BA2FC449F","title":"武定路延平路","lon":"121.43891","lat":"31.22856","category":"38","category_name":"公交车站","address":""},{"poiid":"B2094654D565ABFA429A","title":"益民公寓","lon":"121.43957","lat":"31.230257","category":"47","category_name":"住宅区","address":"益民公寓位于静安延平路223弄"},{"poiid":"B2094751DA6AAAF4449B","title":"中福会少年宫小伙伴剧场","lon":"121.442246","lat":"31.227331","category":"248","category_name":"生活娱乐","address":null},{"poiid":"B2094750D768A0FB4799","title":"喜福面馆","lon":"121.443","lat":"31.2291","category":"68","category_name":"快餐厅","address":"静安区胶州路313号(近新闸路)"},{"poiid":"B2094654D565ABFA4399","title":"康良菜馆","lon":"121.44054","lat":"31.23084","category":"76","category_name":"上海菜","address":"静安区康定路877号(近延平路)"},{"poiid":"B2094757DB68A5F9419C","title":"捞王猪肚鸡 静安店","lon":"121.442066","lat":"31.22995","category":"86","category_name":"火锅店","address":"静安区武定路1052号(胶州路口)"},{"poiid":"B2094757D068ABFC459D","title":"Sushi Abuse","lon":"121.441652687","lat":"31.2284786753","category":"268","category_name":"自助","address":"上海延平路98号C幢2楼(近新闸路)"},{"poiid":"B2094654DB6BA6FB4093","title":"谷泰饭店","lon":"121.44105","lat":"31.22859","category":"76","category_name":"上海菜","address":"静安区延平路121号三和大厦1-3楼(近武定路)"},{"poiid":"B2094753D76FAAFA449C","title":"上海滩国泰旗舰店","lon":"121.466011","lat":"31.216125","category":"249","category_name":"购物服务","address":"淮海中路868号"},{"poiid":"B209475CD564A7F8439E","title":"上海滩中信泰富店","lon":"121.45602","lat":"31.22851","category":"119","category_name":"商场","address":"\"南京西路1168号中信泰富广场，店铺号221.\r\n\""},{"poiid":"B2094757D06BA0FD479D","title":"kush","lon":"121.44224458","lat":"31.227993387","category":"94","category_name":"西餐厅","address":"静安区延平路98号c幢(近新闸路)"},{"poiid":"B2094757D06FA7FD459B","title":"三和花园","lon":"121.44018","lat":"31.228378","category":"47","category_name":"住宅区","address":"上海市静安区延平路123弄"},{"poiid":"B2094654D565ABF5409F","title":"沃歌斯(胶州路)","lon":"121.44314","lat":"31.22821","category":"94","category_name":"西餐厅","address":"静安区胶州路265号1楼(近新闸路)"},{"poiid":"B2094655D36CA1F5469C","title":"康定路延平路","lon":"121.44042","lat":"31.23092","category":"38","category_name":"公交车站","address":""},{"poiid":"B2094757D06FA6FF479A","title":"98创意园","lon":"121.44174072","lat":"31.228805503","category":"46","category_name":"楼宇","address":"静安区延平路98号云和花园内(近新闸路)"},{"poiid":"B2094757D06BA5F44198","title":"静安区牙防所","lon":"121.439982","lat":"31.230631","category":"500","category_name":"未知分类","address":"上海康定路909号"},{"poiid":"B2094757D069ABF8429E","title":"胶州路武定路","lon":"121.442456","lat":"31.230476","category":"500","category_name":"未知分类","address":"上海胶州路武定路"},{"poiid":"B2094750D56DA7FD409D","title":"一气居酒屋Yikki","lon":"121.441871","lat":"31.228118","category":"95","category_name":"日本料理","address":"静安区延平路98号2幢101室(近新闸路)"},{"poiid":"B2094751D465A1F84999","title":"Lab. whisky & cocktail","lon":"121.441904","lat":"31.229786","category":"247","category_name":"餐饮美食","address":"上海市靜安區武定路1093號"},{"poiid":"B2094750D26BA5F54792","title":"Enoterra","lon":"121.442565","lat":"31.229871","category":"247","category_name":"餐饮美食","address":"静安区武定路1075号(近胶州路)"},{"poiid":"B2094757D06AA1FB439B","title":"Munchies 梦奇屋 (武定路店)","lon":"121.44311518","lat":"31.230294607","category":"94","category_name":"西餐厅","address":"静安区武定路974号(近胶州路)"},{"poiid":"B2094654D565ABF4469F","title":"四和花园","lon":"121.4413","lat":"31.227444","category":"47","category_name":"住宅区","address":"上海新闸路1910弄"},{"poiid":"B2094654DB64A6FB469B","title":"格林豪泰(上海静安店)","lon":"121.44306","lat":"31.22753","category":"216","category_name":"经济型连锁酒店","address":"上海市静安区新闸路1829号(胶州路口)"},{"poiid":"B2094654D565ABF4499B","title":"乐途静安国际青年旅舍·上海","lon":"121.44187","lat":"31.22904","category":"218","category_name":"青年旅舍","address":"上海市静安区胶州路319弄36号(近武定路)"},{"poiid":"B2094757D069A3FE479B","title":"吴苑饼家","lon":"121.44008","lat":"31.23047","category":"68","category_name":"快餐厅","address":"静安区延平路255号(近康定路)"},{"poiid":"B2094655D36CA5F5419E","title":"北京西路","lon":"121.44211","lat":"31.22696","category":"38","category_name":"公交车站","address":""},{"poiid":"B2094757D068A1F5449D","title":"翰林府邸","lon":"121.43937658","lat":"31.228393395","category":"47","category_name":"住宅区","address":"上海ShanghaiJing'anWuding Rd"},{"poiid":"B2094757D66DA5FE4692","title":"雅马哈音乐中心","lon":"121.442688586","lat":"31.227721382","category":"500","category_name":"未知分类","address":"静安区新闸路1830号1楼(近胶州路)"},{"poiid":"B2094757D465A3FE429B","title":"海味世家","lon":"121.441021","lat":"31.229143","category":"75","category_name":"浙江菜","address":"静安区延平路128号(近武定路)"},{"poiid":"B2094654D565ABFA459B","title":"上海市公安局静安分局","lon":"121.44205","lat":"31.23086","category":"248","category_name":"生活娱乐","address":"胶州路415"},{"poiid":"B2094655D36DA0FE419E","title":"新闸路延平路","lon":"121.44199","lat":"31.2268","category":"38","category_name":"公交车站","address":""},{"poiid":"B2094655D36DA0FE4093","title":"新闸路胶州路","lon":"121.44263","lat":"31.22743","category":"38","category_name":"公交车站","address":""},{"poiid":"B2094654DB6BA6FB419B","title":"速8酒店上海静安寺新闸路店","lon":"121.442302","lat":"31.22845","category":"76","category_name":"上海菜","address":"上海市静安区延平路58号(近新闸路)"},{"poiid":"B2094757D069A2F94793","title":"美味坊","lon":"121.44356","lat":"31.22825","category":"76","category_name":"上海菜","address":"静安区胶州路273弄58号枫蓝商务酒店内(近新闸路)"},{"poiid":"B2094757D66DABF44893","title":"木村","lon":"121.443272586","lat":"31.2277103817","category":"500","category_name":"未知分类","address":"上海胶州路210号"},{"poiid":"B2094757D06AA2FB4093","title":"三和花园福居游泳馆","lon":"121.44143","lat":"31.22867","category":"220","category_name":"运动场所","address":"静安区延平路123弄三和花园16号(近新闸路)"},{"poiid":"B2094757D664A3F8479D","title":"重庆鸡公煲 延平路店","lon":"121.440389054","lat":"31.230080793","category":"71","category_name":"四川菜","address":"静安区延平路236号(近武定路)"},{"poiid":"B2094757D465A1FE489E","title":"雅家经典私房菜","lon":"121.43999403235","lat":"31.230251448286","category":"76","category_name":"上海菜","address":"静安区延平路227号(近康定路)"},{"poiid":"B2094757D765A4FF4499","title":"达美乐比萨 武定路店 Domino's Pizza","lon":"121.44223","lat":"31.22996","category":"94","category_name":"西餐厅","address":"静安区武定路1050号(近胶州路)"},{"poiid":"B2094757D16EA3FA4999","title":"可颂坊 新闸路店 Croissants de France","lon":"121.441927054","lat":"31.226829793","category":"112","category_name":"糕饼店","address":"静安区新闸路1888号(近延平路)"},{"poiid":"B2094750D56FA2F84198","title":"Shooters 52 Bakery Cafe Bar","lon":"121.442016","lat":"31.228929","category":"67","category_name":"甜品店","address":"静安区武定路1073号(近胶州路)"},{"poiid":"B2094654D565A4FA409E","title":"新闸大厦","lon":"121.44281","lat":"31.227142","category":"47","category_name":"住宅区","address":"铁西区铁西兴华街与南十中路交处(兴华南街48号)"},{"poiid":"B2094750D76DAAF84692","title":"Dvino","lon":"121.442","lat":"31.2285","category":"260","category_name":"其他","address":"静安区延平路98号云和花园C幢(近新闸路)"},{"poiid":"B2094654DB6BA6FB4298","title":"锦江之星(上海胶州路店)","lon":"121.44263","lat":"31.22945","category":"216","category_name":"经济型连锁酒店","address":"上海静安区胶州路339号(近武定路)  "},{"poiid":"B2094757D664AAF4489D","title":"豫申园城隍庙小吃世界 武定路店","lon":"121.43902","lat":"31.22867","category":"68","category_name":"快餐厅","address":"静安区武定路1106号(近延平路)"},{"poiid":"B2094654DB6BA6FB419F","title":"98创意园A栋","lon":"121.44191","lat":"31.22827","category":"46","category_name":"楼宇","address":"延平路98-11"},{"poiid":"B2094757D16EA7FE439B","title":"日全食 中式快速餐飲","lon":"121.44203258","lat":"31.226947366","category":"68","category_name":"快餐厅","address":"静安区新闸路1892号(近延平路)"},{"poiid":"B2094757D66BA6FA439E","title":"旺上旺食屋","lon":"121.442962054","lat":"31.228442793","category":"76","category_name":"上海菜","address":"静安区胶州路273弄2号(近新闸路)"},{"poiid":"B2094757D06AA6F8449A","title":"阿玛尼护肤造型中心(武定路店)","lon":"121.43961","lat":"31.22849","category":"148","category_name":"美容美发店","address":"上海静安区武定路1129号(近延平路)  "},{"poiid":"B2094654DB6BA6FA4299","title":"杏花楼(延平路)","lon":"121.43893","lat":"31.22904","category":"112","category_name":"糕饼店","address":"静安区武定路1130号(近延平路)"},{"poiid":"B2094655D26BA2FC449F","title":"武定路延平路","lon":"121.43891","lat":"31.22856","category":"38","category_name":"公交车站","address":""},{"poiid":"B2094654D565ABFA429A","title":"益民公寓","lon":"121.43957","lat":"31.230257","category":"47","category_name":"住宅区","address":"益民公寓位于静安延平路223弄"},{"poiid":"B2094751DA6AAAF4449B","title":"中福会少年宫小伙伴剧场","lon":"121.442246","lat":"31.227331","category":"248","category_name":"生活娱乐","address":null},{"poiid":"B2094750D768A0FB4799","title":"喜福面馆","lon":"121.443","lat":"31.2291","category":"68","category_name":"快餐厅","address":"静安区胶州路313号(近新闸路)"},{"poiid":"B2094654D565ABFA4399","title":"康良菜馆","lon":"121.44054","lat":"31.23084","category":"76","category_name":"上海菜","address":"静安区康定路877号(近延平路)"},{"poiid":"B2094757DB68A5F9419C","title":"捞王猪肚鸡 静安店","lon":"121.442066","lat":"31.22995","category":"86","category_name":"火锅店","address":"静安区武定路1052号(胶州路口)"},{"poiid":"B2094757D068ABFC459D","title":"Sushi Abuse","lon":"121.441652687","lat":"31.2284786753","category":"268","category_name":"自助","address":"上海延平路98号C幢2楼(近新闸路)"},{"poiid":"B2094654DB6BA6FB4093","title":"谷泰饭店","lon":"121.44105","lat":"31.22859","category":"76","category_name":"上海菜","address":"静安区延平路121号三和大厦1-3楼(近武定路)"},{"poiid":"B2094753D76FAAFA449C","title":"上海滩国泰旗舰店","lon":"121.466011","lat":"31.216125","category":"249","category_name":"购物服务","address":"淮海中路868号"},{"poiid":"B209475CD564A7F8439E","title":"上海滩中信泰富店","lon":"121.45602","lat":"31.22851","category":"119","category_name":"商场","address":"\"南京西路1168号中信泰富广场，店铺号221.\r\n\""},{"poiid":"B2094757D06BA0FD479D","title":"kush","lon":"121.44224458","lat":"31.227993387","category":"94","category_name":"西餐厅","address":"静安区延平路98号c幢(近新闸路)"},{"poiid":"B2094757D06FA7FD459B","title":"三和花园","lon":"121.44018","lat":"31.228378","category":"47","category_name":"住宅区","address":"上海市静安区延平路123弄"},{"poiid":"B2094654D565ABF5409F","title":"沃歌斯(胶州路)","lon":"121.44314","lat":"31.22821","category":"94","category_name":"西餐厅","address":"静安区胶州路265号1楼(近新闸路)"},{"poiid":"B2094655D36CA1F5469C","title":"康定路延平路","lon":"121.44042","lat":"31.23092","category":"38","category_name":"公交车站","address":""},{"poiid":"B2094757D06FA6FF479A","title":"98创意园","lon":"121.44174072","lat":"31.228805503","category":"46","category_name":"楼宇","address":"静安区延平路98号云和花园内(近新闸路)"},{"poiid":"B2094757D06BA5F44198","title":"静安区牙防所","lon":"121.439982","lat":"31.230631","category":"500","category_name":"未知分类","address":"上海康定路909号"},{"poiid":"B2094757D069ABF8429E","title":"胶州路武定路","lon":"121.442456","lat":"31.230476","category":"500","category_name":"未知分类","address":"上海胶州路武定路"},{"poiid":"B2094750D56DA7FD409D","title":"一气居酒屋Yikki","lon":"121.441871","lat":"31.228118","category":"95","category_name":"日本料理","address":"静安区延平路98号2幢101室(近新闸路)"},{"poiid":"B2094751D465A1F84999","title":"Lab. whisky & cocktail","lon":"121.441904","lat":"31.229786","category":"247","category_name":"餐饮美食","address":"上海市靜安區武定路1093號"},{"poiid":"B2094750D26BA5F54792","title":"Enoterra","lon":"121.442565","lat":"31.229871","category":"247","category_name":"餐饮美食","address":"静安区武定路1075号(近胶州路)"},{"poiid":"B2094757D06AA1FB439B","title":"Munchies 梦奇屋 (武定路店)","lon":"121.44311518","lat":"31.230294607","category":"94","category_name":"西餐厅","address":"静安区武定路974号(近胶州路)"},{"poiid":"B2094654D565ABF4469F","title":"四和花园","lon":"121.4413","lat":"31.227444","category":"47","category_name":"住宅区","address":"上海新闸路1910弄"},{"poiid":"B2094654DB64A6FB469B","title":"格林豪泰(上海静安店)","lon":"121.44306","lat":"31.22753","category":"216","category_name":"经济型连锁酒店","address":"上海市静安区新闸路1829号(胶州路口)"},{"poiid":"B2094654D565ABF4499B","title":"乐途静安国际青年旅舍·上海","lon":"121.44187","lat":"31.22904","category":"218","category_name":"青年旅舍","address":"上海市静安区胶州路319弄36号(近武定路)"},{"poiid":"B2094757D069A3FE479B","title":"吴苑饼家","lon":"121.44008","lat":"31.23047","category":"68","category_name":"快餐厅","address":"静安区延平路255号(近康定路)"},{"poiid":"B2094655D36CA5F5419E","title":"北京西路","lon":"121.44211","lat":"31.22696","category":"38","category_name":"公交车站","address":""},{"poiid":"B2094757D068A1F5449D","title":"翰林府邸","lon":"121.43937658","lat":"31.228393395","category":"47","category_name":"住宅区","address":"上海ShanghaiJing'anWuding Rd"},{"poiid":"B2094757D66DA5FE4692","title":"雅马哈音乐中心","lon":"121.442688586","lat":"31.227721382","category":"500","category_name":"未知分类","address":"静安区新闸路1830号1楼(近胶州路)"},{"poiid":"B2094757D465A3FE429B","title":"海味世家","lon":"121.441021","lat":"31.229143","category":"75","category_name":"浙江菜","address":"静安区延平路128号(近武定路)"},{"poiid":"B2094654D565ABFA459B","title":"上海市公安局静安分局","lon":"121.44205","lat":"31.23086","category":"248","category_name":"生活娱乐","address":"胶州路415"},{"poiid":"B2094655D36DA0FE419E","title":"新闸路延平路","lon":"121.44199","lat":"31.2268","category":"38","category_name":"公交车站","address":""},{"poiid":"B2094655D36DA0FE4093","title":"新闸路胶州路","lon":"121.44263","lat":"31.22743","category":"38","category_name":"公交车站","address":""},{"poiid":"B2094654DB6BA6FB419B","title":"速8酒店上海静安寺新闸路店","lon":"121.442302","lat":"31.22845","category":"76","category_name":"上海菜","address":"上海市静安区延平路58号(近新闸路)"},{"poiid":"B2094757D069A2F94793","title":"美味坊","lon":"121.44356","lat":"31.22825","category":"76","category_name":"上海菜","address":"静安区胶州路273弄58号枫蓝商务酒店内(近新闸路)"},{"poiid":"B2094757D66DABF44893","title":"木村","lon":"121.443272586","lat":"31.2277103817","category":"500","category_name":"未知分类","address":"上海胶州路210号"},{"poiid":"B2094757D06AA2FB4093","title":"三和花园福居游泳馆","lon":"121.44143","lat":"31.22867","category":"220","category_name":"运动场所","address":"静安区延平路123弄三和花园16号(近新闸路)"},{"poiid":"B2094757D664A3F8479D","title":"重庆鸡公煲 延平路店","lon":"121.440389054","lat":"31.230080793","category":"71","category_name":"四川菜","address":"静安区延平路236号(近武定路)"},{"poiid":"B2094757D465A1FE489E","title":"雅家经典私房菜","lon":"121.43999403235","lat":"31.230251448286","category":"76","category_name":"上海菜","address":"静安区延平路227号(近康定路)"},{"poiid":"B2094757D765A4FF4499","title":"达美乐比萨 武定路店 Domino's Pizza","lon":"121.44223","lat":"31.22996","category":"94","category_name":"西餐厅","address":"静安区武定路1050号(近胶州路)"},{"poiid":"B2094757D16EA3FA4999","title":"可颂坊 新闸路店 Croissants de France","lon":"121.441927054","lat":"31.226829793","category":"112","category_name":"糕饼店","address":"静安区新闸路1888号(近延平路)"},{"poiid":"B2094750D56FA2F84198","title":"Shooters 52 Bakery Cafe Bar","lon":"121.442016","lat":"31.228929","category":"67","category_name":"甜品店","address":"静安区武定路1073号(近胶州路)"},{"poiid":"B2094654D565A4FA409E","title":"新闸大厦","lon":"121.44281","lat":"31.227142","category":"47","category_name":"住宅区","address":"铁西区铁西兴华街与南十中路交处(兴华南街48号)"},{"poiid":"B2094750D76DAAF84692","title":"Dvino","lon":"121.442","lat":"31.2285","category":"260","category_name":"其他","address":"静安区延平路98号云和花园C幢(近新闸路)"},{"poiid":"B2094654DB6BA6FB4298","title":"锦江之星(上海胶州路店)","lon":"121.44263","lat":"31.22945","category":"216","category_name":"经济型连锁酒店","address":"上海静安区胶州路339号(近武定路)  "},{"poiid":"B2094757D664AAF4489D","title":"豫申园城隍庙小吃世界 武定路店","lon":"121.43902","lat":"31.22867","category":"68","category_name":"快餐厅","address":"静安区武定路1106号(近延平路)"},{"poiid":"B2094654DB6BA6FB419F","title":"98创意园A栋","lon":"121.44191","lat":"31.22827","category":"46","category_name":"楼宇","address":"延平路98-11"},{"poiid":"B2094757D16EA7FE439B","title":"日全食 中式快速餐飲","lon":"121.44203258","lat":"31.226947366","category":"68","category_name":"快餐厅","address":"静安区新闸路1892号(近延平路)"},{"poiid":"B2094757D66BA6FA439E","title":"旺上旺食屋","lon":"121.442962054","lat":"31.228442793","category":"76","category_name":"上海菜","address":"静安区胶州路273弄2号(近新闸路)"},{"poiid":"B2094757D06AA6F8449A","title":"阿玛尼护肤造型中心(武定路店)","lon":"121.43961","lat":"31.22849","category":"148","category_name":"美容美发店","address":"上海静安区武定路1129号(近延平路)  "},{"poiid":"B2094654DB6BA6FA4299","title":"杏花楼(延平路)","lon":"121.43893","lat":"31.22904","category":"112","category_name":"糕饼店","address":"静安区武定路1130号(近延平路)"},{"poiid":"B2094655D26BA2FC449F","title":"武定路延平路","lon":"121.43891","lat":"31.22856","category":"38","category_name":"公交车站","address":""},{"poiid":"B2094654D565ABFA429A","title":"益民公寓","lon":"121.43957","lat":"31.230257","category":"47","category_name":"住宅区","address":"益民公寓位于静安延平路223弄"},{"poiid":"B2094751DA6AAAF4449B","title":"中福会少年宫小伙伴剧场","lon":"121.442246","lat":"31.227331","category":"248","category_name":"生活娱乐","address":null},{"poiid":"B2094750D768A0FB4799","title":"喜福面馆","lon":"121.443","lat":"31.2291","category":"68","category_name":"快餐厅","address":"静安区胶州路313号(近新闸路)"},{"poiid":"B2094654D565ABFA4399","title":"康良菜馆","lon":"121.44054","lat":"31.23084","category":"76","category_name":"上海菜","address":"静安区康定路877号(近延平路)"},{"poiid":"B2094757DB68A5F9419C","title":"捞王猪肚鸡 静安店","lon":"121.442066","lat":"31.22995","category":"86","category_name":"火锅店","address":"静安区武定路1052号(胶州路口)"},{"poiid":"B2094757D068ABFC459D","title":"Sushi Abuse","lon":"121.441652687","lat":"31.2284786753","category":"268","category_name":"自助","address":"上海延平路98号C幢2楼(近新闸路)"},{"poiid":"B2094654DB6BA6FB4093","title":"谷泰饭店","lon":"121.44105","lat":"31.22859","category":"76","category_name":"上海菜","address":"静安区延平路121号三和大厦1-3楼(近武定路)"},{"poiid":"B2094753D76FAAFA449C","title":"上海滩国泰旗舰店","lon":"121.466011","lat":"31.216125","category":"249","category_name":"购物服务","address":"淮海中路868号"},{"poiid":"B209475CD564A7F8439E","title":"上海滩中信泰富店","lon":"121.45602","lat":"31.22851","category":"119","category_name":"商场","address":"\"南京西路1168号中信泰富广场，店铺号221.\r\n\""},{"poiid":"B2094757D06BA0FD479D","title":"kush","lon":"121.44224458","lat":"31.227993387","category":"94","category_name":"西餐厅","address":"静安区延平路98号c幢(近新闸路)"},{"poiid":"B2094757D06FA7FD459B","title":"三和花园","lon":"121.44018","lat":"31.228378","category":"47","category_name":"住宅区","address":"上海市静安区延平路123弄"},{"poiid":"B2094654D565ABF5409F","title":"沃歌斯(胶州路)","lon":"121.44314","lat":"31.22821","category":"94","category_name":"西餐厅","address":"静安区胶州路265号1楼(近新闸路)"},{"poiid":"B2094655D36CA1F5469C","title":"康定路延平路","lon":"121.44042","lat":"31.23092","category":"38","category_name":"公交车站","address":""},{"poiid":"B2094757D06FA6FF479A","title":"98创意园","lon":"121.44174072","lat":"31.228805503","category":"46","category_name":"楼宇","address":"静安区延平路98号云和花园内(近新闸路)"},{"poiid":"B2094757D06BA5F44198","title":"静安区牙防所","lon":"121.439982","lat":"31.230631","category":"500","category_name":"未知分类","address":"上海康定路909号"},{"poiid":"B2094757D069ABF8429E","title":"胶州路武定路","lon":"121.442456","lat":"31.230476","category":"500","category_name":"未知分类","address":"上海胶州路武定路"},{"poiid":"B2094750D56DA7FD409D","title":"一气居酒屋Yikki","lon":"121.441871","lat":"31.228118","category":"95","category_name":"日本料理","address":"静安区延平路98号2幢101室(近新闸路)"},{"poiid":"B2094751D465A1F84999","title":"Lab. whisky & cocktail","lon":"121.441904","lat":"31.229786","category":"247","category_name":"餐饮美食","address":"上海市靜安區武定路1093號"},{"poiid":"B2094750D26BA5F54792","title":"Enoterra","lon":"121.442565","lat":"31.229871","category":"247","category_name":"餐饮美食","address":"静安区武定路1075号(近胶州路)"},{"poiid":"B2094757D06AA1FB439B","title":"Munchies 梦奇屋 (武定路店)","lon":"121.44311518","lat":"31.230294607","category":"94","category_name":"西餐厅","address":"静安区武定路974号(近胶州路)"},{"poiid":"B2094654D565ABF4469F","title":"四和花园","lon":"121.4413","lat":"31.227444","category":"47","category_name":"住宅区","address":"上海新闸路1910弄"},{"poiid":"B2094654DB64A6FB469B","title":"格林豪泰(上海静安店)","lon":"121.44306","lat":"31.22753","category":"216","category_name":"经济型连锁酒店","address":"上海市静安区新闸路1829号(胶州路口)"},{"poiid":"B2094654D565ABF4499B","title":"乐途静安国际青年旅舍·上海","lon":"121.44187","lat":"31.22904","category":"218","category_name":"青年旅舍","address":"上海市静安区胶州路319弄36号(近武定路)"},{"poiid":"B2094757D069A3FE479B","title":"吴苑饼家","lon":"121.44008","lat":"31.23047","category":"68","category_name":"快餐厅","address":"静安区延平路255号(近康定路)"},{"poiid":"B2094655D36CA5F5419E","title":"北京西路","lon":"121.44211","lat":"31.22696","category":"38","category_name":"公交车站","address":""},{"poiid":"B2094757D068A1F5449D","title":"翰林府邸","lon":"121.43937658","lat":"31.228393395","category":"47","category_name":"住宅区","address":"上海ShanghaiJing'anWuding Rd"},{"poiid":"B2094757D66DA5FE4692","title":"雅马哈音乐中心","lon":"121.442688586","lat":"31.227721382","category":"500","category_name":"未知分类","address":"静安区新闸路1830号1楼(近胶州路)"},{"poiid":"B2094757D465A3FE429B","title":"海味世家","lon":"121.441021","lat":"31.229143","category":"75","category_name":"浙江菜","address":"静安区延平路128号(近武定路)"},{"poiid":"B2094654D565ABFA459B","title":"上海市公安局静安分局","lon":"121.44205","lat":"31.23086","category":"248","category_name":"生活娱乐","address":"胶州路415"},{"poiid":"B2094655D36DA0FE419E","title":"新闸路延平路","lon":"121.44199","lat":"31.2268","category":"38","category_name":"公交车站","address":""},{"poiid":"B2094655D36DA0FE4093","title":"新闸路胶州路","lon":"121.44263","lat":"31.22743","category":"38","category_name":"公交车站","address":""},{"poiid":"B2094654DB6BA6FB419B","title":"速8酒店上海静安寺新闸路店","lon":"121.442302","lat":"31.22845","category":"76","category_name":"上海菜","address":"上海市静安区延平路58号(近新闸路)"},{"poiid":"B2094757D069A2F94793","title":"美味坊","lon":"121.44356","lat":"31.22825","category":"76","category_name":"上海菜","address":"静安区胶州路273弄58号枫蓝商务酒店内(近新闸路)"},{"poiid":"B2094757D66DABF44893","title":"木村","lon":"121.443272586","lat":"31.2277103817","category":"500","category_name":"未知分类","address":"上海胶州路210号"},{"poiid":"B2094757D06AA2FB4093","title":"三和花园福居游泳馆","lon":"121.44143","lat":"31.22867","category":"220","category_name":"运动场所","address":"静安区延平路123弄三和花园16号(近新闸路)"},{"poiid":"B2094757D664A3F8479D","title":"重庆鸡公煲 延平路店","lon":"121.440389054","lat":"31.230080793","category":"71","category_name":"四川菜","address":"静安区延平路236号(近武定路)"},{"poiid":"B2094757D465A1FE489E","title":"雅家经典私房菜","lon":"121.43999403235","lat":"31.230251448286","category":"76","category_name":"上海菜","address":"静安区延平路227号(近康定路)"},{"poiid":"B2094757D765A4FF4499","title":"达美乐比萨 武定路店 Domino's Pizza","lon":"121.44223","lat":"31.22996","category":"94","category_name":"西餐厅","address":"静安区武定路1050号(近胶州路)"},{"poiid":"B2094757D16EA3FA4999","title":"可颂坊 新闸路店 Croissants de France","lon":"121.441927054","lat":"31.226829793","category":"112","category_name":"糕饼店","address":"静安区新闸路1888号(近延平路)"},{"poiid":"B2094750D56FA2F84198","title":"Shooters 52 Bakery Cafe Bar","lon":"121.442016","lat":"31.228929","category":"67","category_name":"甜品店","address":"静安区武定路1073号(近胶州路)"},{"poiid":"B2094654D565A4FA409E","title":"新闸大厦","lon":"121.44281","lat":"31.227142","category":"47","category_name":"住宅区","address":"铁西区铁西兴华街与南十中路交处(兴华南街48号)"},{"poiid":"B2094750D76DAAF84692","title":"Dvino","lon":"121.442","lat":"31.2285","category":"260","category_name":"其他","address":"静安区延平路98号云和花园C幢(近新闸路)"},{"poiid":"B2094654DB6BA6FB4298","title":"锦江之星(上海胶州路店)","lon":"121.44263","lat":"31.22945","category":"216","category_name":"经济型连锁酒店","address":"上海静安区胶州路339号(近武定路)  "},{"poiid":"B2094757D664AAF4489D","title":"豫申园城隍庙小吃世界 武定路店","lon":"121.43902","lat":"31.22867","category":"68","category_name":"快餐厅","address":"静安区武定路1106号(近延平路)"},{"poiid":"B2094654DB6BA6FB419F","title":"98创意园A栋","lon":"121.44191","lat":"31.22827","category":"46","category_name":"楼宇","address":"延平路98-11"},{"poiid":"B2094757D16EA7FE439B","title":"日全食 中式快速餐飲","lon":"121.44203258","lat":"31.226947366","category":"68","category_name":"快餐厅","address":"静安区新闸路1892号(近延平路)"},{"poiid":"B2094757D66BA6FA439E","title":"旺上旺食屋","lon":"121.442962054","lat":"31.228442793","category":"76","category_name":"上海菜","address":"静安区胶州路273弄2号(近新闸路)"},{"poiid":"B2094757D06AA6F8449A","title":"阿玛尼护肤造型中心(武定路店)","lon":"121.43961","lat":"31.22849","category":"148","category_name":"美容美发店","address":"上海静安区武定路1129号(近延平路)  "},{"poiid":"B2094654DB6BA6FA4299","title":"杏花楼(延平路)","lon":"121.43893","lat":"31.22904","category":"112","category_name":"糕饼店","address":"静安区武定路1130号(近延平路)"},{"poiid":"B2094655D26BA2FC449F","title":"武定路延平路","lon":"121.43891","lat":"31.22856","category":"38","category_name":"公交车站","address":""},{"poiid":"B2094654D565ABFA429A","title":"益民公寓","lon":"121.43957","lat":"31.230257","category":"47","category_name":"住宅区","address":"益民公寓位于静安延平路223弄"},{"poiid":"B2094751DA6AAAF4449B","title":"中福会少年宫小伙伴剧场","lon":"121.442246","lat":"31.227331","category":"248","category_name":"生活娱乐","address":null},{"poiid":"B2094750D768A0FB4799","title":"喜福面馆","lon":"121.443","lat":"31.2291","category":"68","category_name":"快餐厅","address":"静安区胶州路313号(近新闸路)"},{"poiid":"B2094654D565ABFA4399","title":"康良菜馆","lon":"121.44054","lat":"31.23084","category":"76","category_name":"上海菜","address":"静安区康定路877号(近延平路)"}]