[{"poiid":"B2094757D06EAAFF499E","title":"查餐厅(思南路店)","lon":"121.466037406","lat":"31.2186370109","category":"72","category_name":"广东菜","address":"卢湾区思南路30-4号(淮海中路南昌路间)"},{"poiid":"B2094655D26AAAFA449C","title":"上海歌城淮海中路店","lon":"121.46532","lat":"31.21974","category":"170","category_name":"KTV","address":"卢湾区淮海中路688号华狮购物中心内(近思南路)"},{"poiid":"B2094757D06EAAFC4893","title":"hoF(思南路店)","lon":"121.46590428","lat":"31.218748659","category":"260","category_name":"其他","address":"卢湾区思南路30-1号(近淮海中路)"},{"poiid":"B2094753D76FAAFA449C","title":"上海滩国泰旗舰店","lon":"121.466011","lat":"31.216125","category":"249","category_name":"购物服务","address":"淮海中路868号"},{"poiid":"B209475CD564A7F84292","title":"上海滩新天地店","lon":"121.47463","lat":"31.22164","category":"119","category_name":"商场","address":"\"太仓路181弄新天地北里15号\r\n\""},{"poiid":"B209475CD564A7F8439E","title":"上海滩中信泰富店","lon":"121.45602","lat":"31.22851","category":"119","category_name":"商场","address":"\"南京西路1168号中信泰富广场，店铺号221.\r\n\""},{"poiid":"B2094757D06EAAFB449E","title":"Brick","lon":"121.466325054","lat":"31.218668793","category":"94","category_name":"西餐厅","address":"卢湾区思南路30号(近淮海中路)"},{"poiid":"B2094757D465A3F8479C","title":"白木屋 淮海店","lon":"121.46436","lat":"31.21862","category":"247","category_name":"餐饮美食","address":"卢湾区淮海中路775号新华联大厦西楼6楼(近瑞金二路)"},{"poiid":"B2094757D06EAAFE489E","title":"麻辣诱惑(淮海中路店)","lon":"121.46677","lat":"31.21946","category":"71","category_name":"四川菜","address":"淮海中路627-635号雪豹商城4-6楼近思南路"},{"poiid":"B2094750DB6DA4F8499B","title":"Nike品牌体验店","lon":"121.46498963760382","lat":"31.219067199579417","category":"119","category_name":"商场","address":"卢湾区淮海中路717号(近思南路)"},{"poiid":"B2094757D66EA4FC4692","title":"上海歌城","lon":"121.46619473","lat":"31.219792077","category":"170","category_name":"KTV","address":"上海淮海路"},{"poiid":"B2094757D06EAAFE4899","title":"阿迪达斯魔方(品牌旗舰店)","lon":"121.465890042","lat":"31.2197844069","category":"140","category_name":"体育用品店","address":"卢湾区淮海中路691号(近思南路)"},{"poiid":"B2094757D065AAFB4999","title":"麦当劳","lon":"121.464319","lat":"31.218628","category":"68","category_name":"快餐厅","address":"卢湾区淮海中路755号新华联商厦B1楼(近瑞金二路)"},{"poiid":"B2094757D06FA1FA4593","title":"原庐餐厅","lon":"121.46624973","lat":"31.218654053","category":"260","category_name":"其他","address":"卢湾区思南路30号3楼(近淮海中路)"},{"poiid":"B2094757D069A2FF4999","title":"利苑酒家(淮海中路店)","lon":"121.464202","lat":"31.218259","category":"72","category_name":"广东菜","address":"淮海中路755号东方商厦淮海店(新华联大厦)6楼近瑞金二路"},{"poiid":"B2094655D269ABFB469D","title":"东方商厦淮海店","lon":"121.46442","lat":"31.21864","category":"247","category_name":"餐饮美食","address":"卢湾区淮海中路755号新华联商厦内(近瑞金二路)"},{"poiid":"B2094750DA6EA1FD449E","title":"蜀公馆成都老火锅","lon":"121.465324","lat":"31.217531","category":"86","category_name":"火锅店","address":"卢湾区淮海中路776号锦江淮海大厦1楼(近瑞金一路)"},{"poiid":"B2094757D06BA3F8479E","title":"en Shanghai","lon":"121.466050985","lat":"31.218367954","category":"95","category_name":"日本料理","address":"卢湾区思南路30号南2楼(近南昌路)"},{"poiid":"B2094757D06EAAFA4992","title":"H&amp;M(淮海中路店)","lon":"121.4661","lat":"31.21939","category":"141","category_name":"服装鞋帽皮具店","address":"上海卢湾区淮海中路645-659号B1-3F(近思南路)"},{"poiid":"B2094757D068A4FF489F","title":"帕夏土耳其餐厅","lon":"121.46559","lat":"31.21756","category":"94","category_name":"西餐厅","address":"卢湾区南昌路262号(近瑞金二路)"},{"poiid":"B2094654D564A5F8489E","title":"华狮688广场","lon":"121.46528","lat":"31.21971","category":"119","category_name":"商场","address":"卢湾区淮海中路688号华狮购物中心内(近思南路)"},{"poiid":"B2094750DB6FA4F54399","title":"NIKE淮海路旗舰店","lon":"121.464332","lat":"31.218704","category":"249","category_name":"购物服务","address":null},{"poiid":"B2094750D665A3FA409B","title":"鼎中鼎澳门豆捞(淮海店)","lon":"121.465","lat":"31.2198","category":"86","category_name":"火锅店","address":"卢湾区淮海中路688号华狮购物中心B1楼(近思南路)"},{"poiid":"B2094757D06FA5F94599","title":"上海弄堂餐厅","lon":"121.4663","lat":"31.21856","category":"75","category_name":"浙江菜","address":"卢湾区思南路8号(近淮海中路)"},{"poiid":"B2094757D06FABFE479D","title":"神田烧肉(淮海店)","lon":"121.46357","lat":"31.21842","category":"269","category_name":"烧烤","address":"卢湾区淮海中路776号锦江淮海大厦2楼(近瑞金一路)"},{"poiid":"B2094757D46EABFA4092","title":"味千拉面 华狮广场店","lon":"121.464080054","lat":"31.218709793","category":"95","category_name":"日本料理","address":"卢湾区淮海中路688号华狮购物中心内(近思南路)"},{"poiid":"B2094655D26AA0FB4293","title":"ZARA华狮店","lon":"121.46532","lat":"31.21974","category":"247","category_name":"餐饮美食","address":"卢湾区淮海中路688号华狮购物中心1楼(近思南路)"},{"poiid":"B2094655D26AA2FB4598","title":"伊藤家瑞金店","lon":"121.46369","lat":"31.21796","category":"95","category_name":"日本料理","address":"卢湾区瑞金二路24号(近淮海中路)"},{"poiid":"B2094757D06FA0F8459A","title":"FIRDOWS restaurant","lon":"121.46603973","lat":"31.21849705","category":"94","category_name":"西餐厅","address":"卢湾区思南路30号南4楼(近淮海中路)"},{"poiid":"B2094757D06FA7F8419B","title":"长春食品商店(淮海路店)","lon":"121.46634","lat":"31.21909","category":"119","category_name":"商场","address":"卢湾区淮海中路615号(近思南路)"},{"poiid":"B209475CD769A2FC4899","title":"咖咖奥咖啡店（淮海店）","lon":"121.466003","lat":"31.2187","category":"500","category_name":"未知分类","address":"上海市 上海市思南路8号"},{"poiid":"B2094757D06FA0F44399","title":"UR (淮海路旗舰店)","lon":"121.46521759","lat":"31.219717025","category":"141","category_name":"服装鞋帽皮具店","address":"上海卢湾区淮海中路688号华狮广场1-2F"},{"poiid":"B2094757D165A4F94993","title":"玄香馆","lon":"121.466019738","lat":"31.2183720474","category":"247","category_name":"餐饮美食","address":"上海市卢湾区思南路30／32号南栋三楼"},{"poiid":"B2094654DB69A6F4479B","title":"吉野家  华狮广场店","lon":"121.4654","lat":"31.21974","category":"95","category_name":"日本料理","address":"卢湾区淮海中路688号华狮购物中心B1楼(近思南路)"},{"poiid":"B2094757D06FABFC4298","title":"食尚食屋 华狮店 YOI-TEKO","lon":"121.465295054","lat":"31.219463793","category":"95","category_name":"日本料理","address":"卢湾区淮海中路688号华狮购物中心B1楼04单元(近思南路)"},{"poiid":"B2094757D06FAAFD409C","title":"红宝石(瑞金二店)","lon":"121.46374","lat":"31.21908","category":"67","category_name":"甜品店","address":"卢湾区瑞金一路128号(近淮海中路)"},{"poiid":"B2094757D464AAFB4492","title":"丰裕生煎 瑞金一路店","lon":"121.463617054","lat":"31.219189793","category":"68","category_name":"快餐厅","address":"卢湾区瑞金一路142号旁(近淮海中路)"},{"poiid":"B2094757D464A7FC4499","title":"本杰比餐厅 淮海中路店 PUNJABI","lon":"121.466376","lat":"31.219755","category":"102","category_name":"印度风味","address":"卢湾区淮海中路627号5楼(近思南路)"},{"poiid":"B2094655D264A5FC499E","title":"阿面娘","lon":"121.46647","lat":"31.21768","category":"257","category_name":"中餐厅","address":"思南路36-1临"},{"poiid":"B2094750DA65A6F4449C","title":"上海歌城","lon":"121.46524","lat":"31.219623","category":"170","category_name":"KTV","address":"淮海路680号"},{"poiid":"B2094750D36FA3FE499D","title":"阿宝家海鲜烧烤","lon":"121.464195","lat":"31.217658","category":"68","category_name":"快餐厅","address":"卢湾区南昌路256号(近瑞金二路)"},{"poiid":"B209475CD76CA0F8459F","title":"优衣库上海旗舰店","lon":"121.465209","lat":"31.218311","category":"500","category_name":"未知分类","address":"上海市 淮海中路887号"},{"poiid":"B2094654DA6DABF4429E","title":"市气功研究所医疗门诊部","lon":"121.46537","lat":"31.21799","category":"162","category_name":"医院","address":"卢湾区南昌路220号(瑞金二路与思南路间)"},{"poiid":"B209475CDA64A1FE489C","title":"the cafe kacao","lon":"121.465904","lat":"31.219303","category":"500","category_name":"未知分类","address":"上海市 思南路18号"},{"poiid":"B2094750D768AAFE4592","title":"老大昌(瑞金二路店)","lon":"121.464","lat":"31.2176","category":"67","category_name":"甜品店","address":"卢湾区瑞金二路43号(近南昌路)"},{"poiid":"B2094757D465ABFC479C","title":"山林熟食 长春食品店","lon":"121.466429054","lat":"31.219775793","category":"68","category_name":"快餐厅","address":"卢湾区淮海中路617号长春食品商店内(近思南路)"},{"poiid":"B2094750D665A7F9499D","title":"快乐柠檬(华狮广场店)","lon":"121.466","lat":"31.2197","category":"113","category_name":"冷饮店","address":"卢湾区淮海中路688号华狮购物中心门前广场"},{"poiid":"B2094757D66EA6FA429C","title":"新华联","lon":"121.46542073","lat":"31.219096062","category":"500","category_name":"未知分类","address":"上海市淮海中路755至775号"},{"poiid":"B2094655D26FA2F44399","title":"星巴克咖啡(杉德公司)","lon":"121.46567","lat":"31.21984","category":"65","category_name":"咖啡厅","address":"卢湾区淮海中路688号"},{"poiid":"B2094752D064A1F44993","title":"极食","lon":"121.465766","lat":"31.218774","category":"247","category_name":"餐饮美食","address":"淮海中路K11"},{"poiid":"B2094757DB6CA7FA449A","title":"The public","lon":"121.46378539382","lat":"31.21790492755346","category":"249","category_name":"购物服务","address":"思南路复兴西路"},{"poiid":"B2094757D469A1F44698","title":"WINDOWS 淮海店","lon":"121.465183054","lat":"31.219586793","category":"172","category_name":"酒吧","address":"卢湾区淮海中路527号锦江国际购物中心11楼(近雁荡路)"},{"poiid":"B2094654DA6DABF4419A","title":"TASTY西堤牛排","lon":"121.46649","lat":"31.21973","category":"94","category_name":"西餐厅","address":"淮海中路627-635号3层"},{"poiid":"B209475CD76DA1FC469C","title":"The cafe kacao","lon":"121.465896","lat":"31.219478","category":"500","category_name":"未知分类","address":"上海市 淮海路8号"},{"poiid":"B2094654DB69A7FD449D","title":"南昌184特色咸烤蟹店","lon":"121.466330054","lat":"31.218071793","category":"68","category_name":"快餐厅","address":"卢湾区南昌路184号(近思南路)"},{"poiid":"B2094757D16CA4FC4498","title":"淮海中路茂名南路","lon":"121.46589073","lat":"31.219274066","category":"500","category_name":"未知分类","address":"上海淮海中路茂名南路"},{"poiid":"B2094750D665AAF8499F","title":"上海歌城自助餐(淮海路店)","lon":"121.465","lat":"31.2195","category":"268","category_name":"自助","address":"卢湾区淮海中路688号华狮购物中心4楼"},{"poiid":"B2094750D16AA1FC4592","title":"华狮广场","lon":"121.46542765685","lat":"31.219756150308","category":"119","category_name":"商场","address":"上海市淮海中路688号"},{"poiid":"B2094757D069A1FD409B","title":"捣浆糊","lon":"121.466301054","lat":"31.218515793","category":"95","category_name":"日本料理","address":"卢湾区思南路30号(近淮海中路)"},{"poiid":"B209475CD665A0F94092","title":"Bouquet香源","lon":"121.466529","lat":"31.219871","category":"247","category_name":"餐饮美食","address":"上海市 淮海中路627号3楼"},{"poiid":"B2094757D168A6F5419A","title":"玮丰酒家","lon":"121.46632","lat":"31.21789","category":"76","category_name":"上海菜","address":"卢湾区南昌路188号(近思南路)"},{"poiid":"B2094655D265A1FE4299","title":"佰草集汉方SPA(淮海店)","lon":"121.46619","lat":"31.21979","category":"148","category_name":"美容美发店","address":"卢湾区淮海中路652号3楼(兴安路雁荡路)"},{"poiid":"B2094757D16BA5FA459A","title":"佰草集 品茗馆","lon":"121.466071773","lat":"31.2198984239","category":"247","category_name":"餐饮美食","address":"上海淮海中路652号二楼"},{"poiid":"B2094757D069A6FC409C","title":"淮海青少年用品有限公司","lon":"121.463744491","lat":"31.2184975523","category":"128","category_name":"儿童用品店","address":"上海卢湾区淮海中路775号(近瑞金二路)"},{"poiid":"B2094654DA6EA1FD459D","title":"淮海青少年用品商场","lon":"121.46377","lat":"31.21858","category":"119","category_name":"商场","address":"淮海中路775号1-4层"},{"poiid":"B2094655D26AA3F94699","title":"周生生珠宝淮海二店","lon":"121.46442","lat":"31.21864","category":"247","category_name":"餐饮美食","address":"卢湾区淮海中路755号东方商厦1楼(近瑞金二路)查看地图"},{"poiid":"B2094654DB65A0F5499B","title":"元祖(瑞金店)","lon":"121.46446","lat":"31.21743","category":"112","category_name":"糕饼店","address":"上海市卢湾区瑞金二路45号(近南昌路)"},{"poiid":"B2094750DB6CA3FC449C","title":"H&M（淮海中路店）","lon":"121.465217","lat":"31.219558","category":"249","category_name":"购物服务","address":"淮海中路645–659号B1-3F"},{"poiid":"B2094757D165A3FD439E","title":"刘师傅馒头","lon":"121.46588","lat":"31.21777","category":"68","category_name":"快餐厅","address":"卢湾区南昌路210弄(近思南路)"},{"poiid":"B2094654DA6DABF9439B","title":"仙踪林加红茶坊(思南路)","lon":"121.46568","lat":"31.21941","category":"66","category_name":"茶艺馆","address":"淮海中路671-2"},{"poiid":"B2094655D26EA4FB479B","title":"寒舍泡沫红茶坊","lon":"121.46375","lat":"31.2189","category":"111","category_name":"休闲餐饮场所","address":"卢湾区淮海中路758号"},{"poiid":"B2094751D569A0FE4792","title":"Q小馆","lon":"121.466185","lat":"31.218503","category":"247","category_name":"餐饮美食","address":"卢湾区思南路30号(近淮海路)"},{"poiid":"B2094454D26DA3F5419B","title":"咖咖奥咖啡厅","lon":"121.466056","lat":"31.219272","category":"247","category_name":"餐饮美食","address":"上海市 思南路8号"},{"poiid":"B2094654DA6DABF4409A","title":"上海现代军事体育俱乐部","lon":"121.46525","lat":"31.21898","category":"220","category_name":"运动场所","address":"卢湾区淮海中路701号7楼(近思南路)"},{"poiid":"B2094654DB69A0F4459A","title":"雪豹商城","lon":"121.4665","lat":"31.21973","category":"119","category_name":"商场","address":"淮海中路627"},{"poiid":"B2094757D064A7FC449A","title":"卢湾邮政支局","lon":"121.46610108","lat":"31.219262045","category":"252","category_name":"楼宇机构","address":"上海卢湾区思南路7号"},{"poiid":"B2094757D16DAAFB459F","title":"欧风淮海中心","lon":"121.464127738","lat":"31.2186850541","category":"500","category_name":"未知分类","address":"上海新华联大厦新楼6F"},{"poiid":"B2094752D16AAAF4409D","title":"光明村大酒店","lon":"121.465759","lat":"31.218033","category":"247","category_name":"餐饮美食","address":null},{"poiid":"B2094654DB64AAF54199","title":"海恩斯莫里斯(瑞典)","lon":"121.46623","lat":"31.21945","category":"46","category_name":"楼宇","address":"淮海中路651"},{"poiid":"B2094757D769A4F8489F","title":"谷屋 思南路店 House Of Flour","lon":"121.466134","lat":"31.218635","category":"67","category_name":"甜品店","address":"思南路30号近淮海中路"},{"poiid":"B2094757D56CABFE459B","title":"沧浪亭 淮海中路店","lon":"121.46354292397","lat":"31.218342925218","category":"247","category_name":"餐饮美食","address":"淮海中路689-691号近思南路"},{"poiid":"B2094750DB6CA4FE4098","title":"思南公馆","lon":"121.464483","lat":"31.217325","category":"500","category_name":"未知分类","address":"复兴中路531号28幢瑞贝卡"},{"poiid":"B2094654DA6DABFB4992","title":"新鑫大厦","lon":"121.46525","lat":"31.21898","category":"46","category_name":"楼宇","address":"淮海中路701号"},{"poiid":"B2094757D16BA7FF419D","title":"SHGA姜 日本私房菜","lon":"121.466906738","lat":"31.218350047","category":"247","category_name":"餐饮美食","address":"上海市卢湾区思南路"},{"poiid":"B209475DD365ABF44292","title":"糖品","lon":"121.466064","lat":"31.218999","category":"500","category_name":"未知分类","address":"上海市 卢湾区思南路19号（近南昌路）"},{"poiid":"B209475CD36BA7F8459A","title":"九点半","lon":"121.46562","lat":"31.220052","category":"94","category_name":"西餐厅","address":"淮海中路300号上海K11购物艺术中心L3楼306号铺"},{"poiid":"B2094757D069A3F44699","title":"丝芙兰(淮海中路店)","lon":"121.465682983","lat":"31.2194099426","category":"122","category_name":"个人用品/化妆品店","address":"上海淮海中路671号"},{"poiid":"B2094655D265AAF44993","title":"MissGinger思南路店","lon":"121.4661","lat":"31.21867","category":"247","category_name":"餐饮美食","address":"思南路30号"},{"poiid":"B2094757D16FA5FD449A","title":"贝中大厦","lon":"121.46486313","lat":"31.219563872","category":"46","category_name":"楼宇","address":"上海淮海中路651号"},{"poiid":"B2094654DA6DABF4409B","title":"鼎鑫商厦","lon":"121.46499","lat":"31.21908","category":"46","category_name":"楼宇","address":"淮海中路713"},{"poiid":"B2094654DB6BA6FC469A","title":"阿迪达斯(淮海中路)","lon":"121.46375","lat":"31.2189","category":"140","category_name":"体育用品店","address":"卢湾区淮海中路841号(近茂名南路)"},{"poiid":"B2094757D064A4FC449C","title":"现代大厦","lon":"121.464","lat":"31.2183","category":"252","category_name":"楼宇机构","address":"上海襄阳南路 218号"},{"poiid":"B2094655D26EA5FC4192","title":"缘禄寿司(淮海二店)","lon":"121.46572","lat":"31.21996","category":"95","category_name":"日本料理","address":"卢湾区淮海中路668弄3号"},{"poiid":"B2094454D16EA5FE499A","title":"Le Seven","lon":"121.46397","lat":"31.21938","category":"247","category_name":"餐饮美食","address":"上海卢湾区瑞金一路136号"},{"poiid":"B209475CD36EA7F9449F","title":"宴日本料理  En Shanghai","lon":"121.46598100662","lat":"31.21858204881","category":"95","category_name":"日本料理","address":"思南路30号南2楼近淮海中路"},{"poiid":"B2094655D26BAAF94692","title":"蜀天阁(淮海店)","lon":"121.46357","lat":"31.21882","category":"257","category_name":"中餐厅","address":"淮海中路776号(近瑞金一路)"},{"poiid":"B2094752D26BA2FF439A","title":"长海医院","lon":"121.464744","lat":"31.218402","category":"162","category_name":"医院","address":null},{"poiid":"B2094750D665AAFA469F","title":"19优格小厨","lon":"121.466","lat":"31.2187","category":"113","category_name":"冷饮店","address":"卢湾区思南路19号(近淮海中路)"},{"poiid":"B2094750D269A2F44692","title":"新锦江四楼会议厅","lon":"121.464233","lat":"31.219341","category":"251","category_name":"出行住宿","address":null},{"poiid":"B2094757D068ABF54493","title":"喜相逢游艺城","lon":"121.46545","lat":"31.21924","category":"173","category_name":"游戏厅","address":"卢湾区淮海中路701号8楼(近思南路)"},{"poiid":"B2094655D268A2FD4598","title":"南昌花苑","lon":"121.46517","lat":"31.2176","category":"47","category_name":"住宅区","address":"海光公寓位于徐汇大木桥路340弄1号"},{"poiid":"B2094753D76AA3F54798","title":"蓝天日料(瑞金一路店)","lon":"121.463875","lat":"31.219143","category":"95","category_name":"日本料理","address":"上海市卢湾区瑞金一路148弄4号(近淮海中路)"},{"poiid":"B2094655D36CA3F54998","title":"GingerCafe思南路店","lon":"121.4661","lat":"31.21867","category":"65","category_name":"咖啡厅","address":"思南路30号"},{"poiid":"B2094654DB6BA5F5439A","title":"好德便利No.803","lon":"121.46502","lat":"31.21788","category":"117","category_name":"便民商店/便利店","address":"南昌路228"},{"poiid":"B2094654DB64AAF44598","title":"好德便利No.718","lon":"121.4662","lat":"31.21904","category":"117","category_name":"便民商店/便利店","address":"南昌路178弄20"},{"poiid":"B2094750D16BA0FE499E","title":"黄兴公园","lon":"121.465393","lat":"31.21943","category":"196","category_name":"公园","address":null},{"poiid":"B2094654DA6DABF4409D","title":"京世发型护肤","lon":"121.46548","lat":"31.21934","category":"148","category_name":"美容美发店","address":"淮海中路681"},{"poiid":"B2094654DA6DABF4429F","title":"上海市气功医疗协作中心","lon":"121.46537","lat":"31.21799","category":"162","category_name":"医院","address":"南昌路218-220"},{"poiid":"B2094655D268A3FE4493","title":"思南路26弄小区","lon":"121.46572","lat":"31.21894","category":"47","category_name":"住宅区","address":"思南路26弄1-3号"},{"poiid":"B2094757D16EA6F4489F","title":"朗阁培训中心(淮海分部)","lon":"121.46636","lat":"31.2184","category":"253","category_name":"校园生活","address":"卢湾区淮海中路755号新华联商厦新楼7楼(近瑞金二路)"},{"poiid":"B2094757D165A6FE4799","title":"Frank丶善明屋里厢","lon":"121.465178538","lat":"31.2184027481","category":"247","category_name":"餐饮美食","address":null},{"poiid":"B2094654DB6BA5F54598","title":"原安中医门诊部","lon":"121.46553","lat":"31.21936","category":"162","category_name":"医院","address":"卢湾区淮海中路681号"},{"poiid":"B2094655D26EA4F4419F","title":"COCO曳屋(淮海店)","lon":"121.46533","lat":"31.21973","category":"247","category_name":"餐饮美食","address":"卢湾区淮海中路688号华狮广场2楼L209"},{"poiid":"B2094655D265A6F9479D","title":"徐重道参行","lon":"121.46379","lat":"31.21905","category":"162","category_name":"医院","address":""},{"poiid":"B2094655D265A0F5489B","title":"藏宝海湾餐厅","lon":"121.466384054","lat":"31.218585793","category":"257","category_name":"中餐厅","address":"思南路30号北栋2楼近淮海中路"},{"poiid":"B2094654D564AAFD4298","title":"瑞金公寓","lon":"121.46376","lat":"31.219011","category":"47","category_name":"住宅区","address":"瑞金一路150弄"},{"poiid":"B209475CD26CA3F54892","title":"汤臣一品","lon":"121.46492","lat":"31.218683","category":"500","category_name":"未知分类","address":"上海市 陆家嘴"},{"poiid":"B2094655D268A1F94399","title":"南昌路83弄小区","lon":"121.465","lat":"31.21746","category":"47","category_name":"住宅区","address":"南昌路83弄1-10号"},{"poiid":"B2094655D268A0F54292","title":"南昌路212弄小区","lon":"121.4653","lat":"31.21825","category":"47","category_name":"住宅区","address":"南昌路212弄1-10号"},{"poiid":"B2094655D268A2F9499D","title":"南昌路212弄小区(南门)","lon":"121.46551","lat":"31.21802","category":"47","category_name":"住宅区","address":"南昌路212弄1-10号"},{"poiid":"B2094757D065ABF54799","title":"索比艺术工作室(SOBY)","lon":"121.4658","lat":"31.21744","category":"148","category_name":"美容美发店","address":"上海卢湾区南昌路77号(近思南路)"},{"poiid":"B2094655D264A0FB479B","title":"Sweet-nails","lon":"121.46413","lat":"31.21745","category":"148","category_name":"美容美发店","address":"南昌路109"},{"poiid":"B2094655D268A3FE459B","title":"淮海中路668弄小区(南门)","lon":"121.46556","lat":"31.22009","category":"47","category_name":"住宅区","address":"淮海中路668弄"},{"poiid":"B2094655D268A1F9439E","title":"南三小区","lon":"121.46504","lat":"31.21808","category":"47","category_name":"住宅区","address":"南昌路224弄1-13号"},{"poiid":"B2094757D569A1FB439B","title":"孙中山行馆旧址","lon":"121.4661983","lat":"31.21979111","category":"607","category_name":"一般景点","address":"卢湾区淮海中路650弄3号(近思南路)"},{"poiid":"B2094655D268A0F54293","title":"南昌路69弄小区(北门)","lon":"121.46584","lat":"31.21787","category":"47","category_name":"住宅区","address":"南昌路69弄1-5号"},{"poiid":"B2094655D268A6FF469B","title":"柏林公园","lon":"121.46411","lat":"31.21983","category":"47","category_name":"住宅区","address":"瑞金一路165-167"},{"poiid":"B2094655D268A0F5439B","title":"南昌路178弄小区(南门)","lon":"121.46671","lat":"31.21844","category":"47","category_name":"住宅区","address":"南昌路178弄1-20号"},{"poiid":"B2094655D268A0F5439A","title":"南昌路69弄小区","lon":"121.46589","lat":"31.21779","category":"47","category_name":"住宅区","address":"南昌路69弄1-5号"},{"poiid":"B2094654DA6DABFB4393","title":"宝大开心果园","lon":"121.46685","lat":"31.21848","category":"117","category_name":"便民商店/便利店","address":"卢湾区南昌路174号"},{"poiid":"B2094655D268A1F9429D","title":"南昌路99弄小区(北门)","lon":"121.46471","lat":"31.2176","category":"47","category_name":"住宅区","address":"南昌路99弄1-6号"},{"poiid":"B2094655D268A1F9429E","title":"南昌路254弄小区(南门)","lon":"121.46452","lat":"31.21777","category":"47","category_name":"住宅区","address":"南昌路254弄1-15号"},{"poiid":"B2094655D268A6FF469A","title":"柏林公园(西门)","lon":"121.46382","lat":"31.21978","category":"47","category_name":"住宅区","address":"瑞金一路165-167"},{"poiid":"B2094655D268A1F9429F","title":"南昌路254弄小区","lon":"121.46456","lat":"31.21791","category":"47","category_name":"住宅区","address":"南昌路254弄1-15号"},{"poiid":"B2094655D268A1F94398","title":"南昌路83弄小区(北门)","lon":"121.46502","lat":"31.21763","category":"47","category_name":"住宅区","address":"南昌路83弄1-10号"},{"poiid":"B2094655D268A6F84292","title":"淮海中路706弄小区(南门)","lon":"121.46504","lat":"31.21948","category":"47","category_name":"住宅区","address":"淮海中路706弄1-10、19-25号"},{"poiid":"B2094655D268A6F8439B","title":"淮海中路668弄小区","lon":"121.4652","lat":"31.22027","category":"47","category_name":"住宅区","address":"淮海中路668弄"},{"poiid":"B2094655D268A0F54398","title":"南昌路178弄小区","lon":"121.46656","lat":"31.21857","category":"47","category_name":"住宅区","address":"南昌路178弄1-20号"},{"poiid":"B2094655D268A1F9439A","title":"南昌路244弄小区","lon":"121.46479","lat":"31.21797","category":"47","category_name":"住宅区","address":"黄浦区山东中路244号(近汉口路)"},{"poiid":"B2094655D268A1F94292","title":"南昌路99弄小区","lon":"121.46474","lat":"31.21743","category":"47","category_name":"住宅区","address":"南昌路99弄1-6号"},{"poiid":"B2094655D268A1F94293","title":"南昌路244弄小区(南门)","lon":"121.46482","lat":"31.21783","category":"47","category_name":"住宅区","address":"南昌路244弄1-9号"},{"poiid":"B2094655D268A3FE449D","title":"思南路11弄小区","lon":"121.46634","lat":"31.21913","category":"47","category_name":"住宅区","address":"思南路11弄"},{"poiid":"B2094655D26FA4F84792","title":"淮海中路650弄小区(南门)","lon":"121.46602","lat":"31.21989","category":"47","category_name":"住宅区","address":"淮海中路650弄1-3号"},{"poiid":"B2094655D26FA4F84793","title":"淮海中路650弄小区","lon":"121.46596","lat":"31.22027","category":"47","category_name":"住宅区","address":"淮海中路650弄1-3号"},{"poiid":"B2094655D268ABFD4399","title":"复兴中路1248弄小区","lon":"121.46418708424","lat":"31.219215435343","category":"47","category_name":"住宅区","address":"复兴中路1248弄1-21号"},{"poiid":"B2094655D268A2FD459B","title":"南三小区(南门)","lon":"121.46519","lat":"31.2179","category":"47","category_name":"住宅区","address":"南昌路224弄1-13号"},{"poiid":"B2094654DA6EA1FD4099","title":"白玉兰美容院","lon":"121.46418","lat":"31.2174","category":"148","category_name":"美容美发店","address":"卢湾区瑞金二路32号"},{"poiid":"B2094757DA69A2FE4698","title":"小白楼婚纱摄影","lon":"121.46526672403","lat":"31.219701099427","category":"611","category_name":"照相馆","address":"延安东路1312号"},{"poiid":"B2094654DA6DABFB4392","title":"宝大杂货店","lon":"121.46692","lat":"31.2185","category":"117","category_name":"便民商店/便利店","address":"卢湾区南昌路174号"},{"poiid":"B2094757D068A1F54793","title":"ME&amp;CITY(淮海中路店)","lon":"121.46513","lat":"31.21892","category":"141","category_name":"服装鞋帽皮具店","address":"上海卢湾区淮海中路717号(近H&amp;M)"},{"poiid":"B2094752D664A4F8469E","title":"adidas魔方","lon":"121.46524","lat":"31.219391","category":"249","category_name":"购物服务","address":null},{"poiid":"B2094757D065A1FB419D","title":"雙妹淮海店","lon":"121.46575773","lat":"31.219483071","category":"500","category_name":"未知分类","address":"上海市卢湾区淮海中路652号"},{"poiid":"B2094757D16EA3FD4099","title":"爱情果酱婚礼企划(淮海店)","lon":"121.46371","lat":"31.21947","category":"263","category_name":"公司","address":"卢湾区瑞金一路130号(近淮海中路)查看地图"},{"poiid":"B2094655D264A1F94398","title":"苹果金数码淮海路东方店","lon":"121.46432","lat":"31.21867","category":"138","category_name":"家电电子卖场","address":"淮海中路755号1层"},{"poiid":"B2094655D26BA4FA429D","title":"魅族上海淮海路认证店","lon":"121.4637","lat":"31.21796","category":"138","category_name":"家电电子卖场","address":"瑞金二路24号近淮海路口(地铁一号线陕西南路站)"},{"poiid":"B2094654DB6BA7F5419D","title":"茂昌眼镜","lon":"121.4663","lat":"31.21997","category":"132","category_name":"眼镜店","address":"淮海中路642"},{"poiid":"B2094751D569AAF5479B","title":"Annvita Tea Time","lon":"121.4645338","lat":"31.2174616","category":"500","category_name":"未知分类","address":"复兴路司南公馆"},{"poiid":"B2094757D168A4FE4392","title":"佰草集","lon":"121.46597689","lat":"31.219648958","category":"500","category_name":"未知分类","address":"卢湾区淮海中路730-734号(近瑞金二路)"},{"poiid":"B2094757D165A5F8419A","title":"上海阿良刺青","lon":"121.46376573","lat":"31.219036061","category":"500","category_name":"未知分类","address":"上海市卢湾区淮海中路瑞金一路148弄4號"},{"poiid":"B2094753D164A7F5439F","title":"思南路","lon":"121.464447","lat":"31.21732","category":"500","category_name":"未知分类","address":"上海市 卢湾区思南路"},{"poiid":"B209475CD76FA1F5479A","title":"kacao","lon":"121.466339","lat":"31.21857","category":"500","category_name":"未知分类","address":"上海市 淮海中路思南路"},{"poiid":"B2094750DA6AA3F54299","title":"黄浦区卢湾二中心小学","lon":"121.465072","lat":"31.218006","category":"500","category_name":"未知分类","address":"复兴中路642号"},{"poiid":"B2094757D16AA3FB439D","title":"URBAN RENEWAL","lon":"121.465219","lat":"31.219717","category":"500","category_name":"未知分类","address":"上海淮海中路688号 华狮广场"},{"poiid":"B2094757D065A6FA439A","title":"360度婚典","lon":"121.46369","lat":"31.21848","category":"500","category_name":"未知分类","address":"上海卢湾区淮海中路776号602室(近瑞金二路)  "},{"poiid":"B209475CD76EA7F94398","title":"新锦江大酒店","lon":"121.465713","lat":"31.218734","category":"500","category_name":"未知分类","address":"上海市 长乐路161号"},{"poiid":"B2094757D065A7FE4692","title":"雕宇刺青","lon":"121.46537967","lat":"31.217809068","category":"148","category_name":"美容美发店","address":"上海卢湾区南昌路97号"},{"poiid":"B2094751DA6BA3FB449B","title":"easybox复兴公园","lon":"121.46669","lat":"31.218689","category":"221","category_name":"健身中心","address":"南昌路168弄7号"},{"poiid":"B2094757D568A1F4459C","title":"Folli Follie(东方商厦淮海店)","lon":"121.4643169","lat":"31.21866611","category":"249","category_name":"购物服务","address":"淮海中路755号东方商厦"},{"poiid":"B2094757D06AABFC409B","title":"Ying Yang club","lon":"121.46352","lat":"31.218279","category":"500","category_name":"未知分类","address":"上海市南昌路"},{"poiid":"B2094757D66EA7F54493","title":"吴良材眼镜(淮海中路店)","lon":"121.46494","lat":"31.21901","category":"132","category_name":"眼镜店","address":"上海卢湾区淮海中路718号(近瑞金二路)  "},{"poiid":"B2094757D66EA4FD449D","title":"DADA Bar","lon":"121.465583738","lat":"31.2194540705","category":"500","category_name":"未知分类","address":"上海市幸福路115号"},{"poiid":"B2094757D16FA2FA489F","title":"167路淮海中路思南路站","lon":"121.46631073","lat":"31.219143063","category":"500","category_name":"未知分类","address":"上海卢湾区淮海中路(近思南路)"},{"poiid":"B2094757D168AAFF419D","title":"欧风培训","lon":"121.464186738","lat":"31.2187190548","category":"253","category_name":"校园生活","address":"上海市卢湾区新华联"},{"poiid":"B2094757D06BAAFE419B","title":"玫瑰婚典小白楼","lon":"121.464694","lat":"31.219474","category":"249","category_name":"购物服务","address":"上海淮海中路700号"},{"poiid":"B2094751DA6DA3FD459C","title":"圣伯多禄教堂","lon":"121.463585","lat":"31.218852","category":"627","category_name":"一般地点标志","address":"上海市黄浦区重庆南路270号"},{"poiid":"B2094757D16AA4F9429D","title":"淮海中路542弄","lon":"121.464820862","lat":"31.2178287506","category":"500","category_name":"未知分类","address":"上海淮海中路542"},{"poiid":"B2094757D66EA0F8439A","title":"Tea mine","lon":"121.46612364","lat":"31.217930404","category":"500","category_name":"未知分类","address":"上海浦东新区张杨路3611弄6号102室(金桥国际商业广场6座102室)"},{"poiid":"B2094757D064ABF94698","title":"上海市烟草专卖局卢湾分局","lon":"121.464212738","lat":"31.2178510363","category":"500","category_name":"未知分类","address":"上海市卢湾区瑞金二路"},{"poiid":"B2094753D56EA2FB409D","title":"网鱼网咖","lon":"121.466072","lat":"31.218019","category":"248","category_name":"生活娱乐","address":"上海市 卢湾区淮海中路776号"},{"poiid":"B2094757D568AAFA4198","title":"阿迪达斯青少年用品店","lon":"121.4637219","lat":"31.21840389","category":"249","category_name":"购物服务","address":"卢湾区淮海中路775号青少年用品有限公司(近瑞金二路)"},{"poiid":"B2094757D16DA0F5489B","title":"亨达利钟表行(淮海华狮店)","lon":"121.46517","lat":"31.21931","category":"249","category_name":"购物服务","address":"卢湾区淮海中路688号华狮购物中心内(近思南路)"},{"poiid":"B2094757D06AA7F94998","title":"漁尚","lon":"121.46624284","lat":"31.219773347","category":"500","category_name":"未知分类","address":"上海淮海中路627號3樓"},{"poiid":"B2094757D169A2FF4893","title":"慧俪轻体","lon":"121.46379563","lat":"31.218589612","category":"500","category_name":"未知分类","address":"上海淮海中路瑞金路"},{"poiid":"B2094757D164A0F5409A","title":"理光RICOH","lon":"121.464876","lat":"31.219045","category":"500","category_name":"未知分类","address":"上海淮海中路"},{"poiid":"B2094654DB6AA7FB409B","title":"思南阁","lon":"121.47005","lat":"31.21938","category":"260","category_name":"其他","address":"卢湾区南昌路59号5楼(近复兴公园)"},{"poiid":"B2094757D568A6FE409E","title":"Calvin Klein Jeans(旗舰店)","lon":"121.4652861","lat":"31.21971806","category":"249","category_name":"购物服务","address":"淮海中路688号华狮购物中心"},{"poiid":"B2094757D168A6F8419E","title":"天宝龙凤金银珠宝商店(淮海中路店)","lon":"121.46416","lat":"31.21869","category":"249","category_name":"购物服务","address":"卢湾区淮海中路581号(近成都南路)查看地图"},{"poiid":"B2094655D26BAAFF4092","title":"澄智堂","lon":"121.46663","lat":"31.21788","category":"131","category_name":"珠宝首饰工艺品","address":"思南路31号"},{"poiid":"B2094757D569A1FF4998","title":"日高淮海路二店","lon":"121.4643169","lat":"31.21866611","category":"249","category_name":"购物服务","address":"卢湾区淮海中路755号新华联商厦内(近瑞金二路)"},{"poiid":"B2094757D66DA1F84493","title":"三枪工业城","lon":"121.464390738","lat":"31.2199148803","category":"252","category_name":"楼宇机构","address":"上海市浦东新区康桥镇康梧路555号"},{"poiid":"B2094757D66CA3FE489C","title":"过路人风衣专卖店(瑞金店)","lon":"121.46360883","lat":"31.218222444","category":"249","category_name":"购物服务","address":"上海黄浦区瑞金二路33号"},{"poiid":"B2094757D16BA0FC4098","title":"微山行","lon":"121.464098","lat":"31.219224","category":"249","category_name":"购物服务","address":"徐汇区复兴中路1472号(淮海中路口)"},{"poiid":"B2094757DA6EA5FF429D","title":"鼎和工艺品商店","lon":"121.466049499999","lat":"31.2180939000001","category":"249","category_name":"购物服务","address":"卢湾区南昌路196弄1号(近思南路)"},{"poiid":"B2094757DA69A1FD429F","title":"朗阁教育集团官方微博","lon":"121.46444169766","lat":"31.218590467907","category":"632","category_name":"教育出国类公司","address":"淮海中路755号新华联大厦新楼8层"},{"poiid":"B2094655D265ABFD4399","title":"笛芸纪实儿童摄影","lon":"121.46397","lat":"31.21812","category":"248","category_name":"生活娱乐","address":"徐汇区永嘉路502号(近岳阳路)"},{"poiid":"B2094654D564A5FB459E","title":"名表之星","lon":"121.46379","lat":"31.2198","category":"135","category_name":"钟表店","address":"瑞金一路165"},{"poiid":"B2094654DA6DABF4419D","title":"上海正装实业有限公司","lon":"121.46428","lat":"31.21794","category":"263","category_name":"公司","address":""},{"poiid":"B2094654DA6EA1FD449F","title":"新日铁软件(上海)有限公司","lon":"121.46372","lat":"31.2184","category":"263","category_name":"公司","address":"淮海中路775号新华联大厦西15"},{"poiid":"B2094655D265A5F8449D","title":"思南路EMS投递部","lon":"121.46619","lat":"31.21908","category":"248","category_name":"生活娱乐","address":"思南路9"},{"poiid":"B2094654DB65A1F9419D","title":"上海市邮政局市南区局","lon":"121.46653","lat":"31.21914","category":"248","category_name":"生活娱乐","address":""},{"poiid":"B2094753D36DA4F8459D","title":"帼苑台球棋牌概念会所","lon":"121.46521","lat":"31.21935","category":"175","category_name":"棋牌室","address":"淮海中路701号9楼"},{"poiid":"B2094757D06AA1FC449E","title":"中国农业银行(卢湾支行)","lon":"121.4653","lat":"31.21894","category":"260","category_name":"其他","address":"上海卢湾区淮海中路701号  "},{"poiid":"B2094757D064ABFE479A","title":"喜士多便利(思南店)","lon":"121.465999738","lat":"31.2189800604","category":"260","category_name":"其他","address":"上海市卢湾区思南路2号"}]