[{"poiid":"B2094654DB6DA5F8459A","title":"上海大观园","lon":"120.91106","lat":"31.07269","category":"240","category_name":"国家级景点","address":"青浦区金商公路701号"},{"poiid":"B2094654DB6DA5F44399","title":"淀山湖风景区","lon":"120.90745","lat":"31.07161","category":"250","category_name":"公园户外","address":"淀山湖风景区在上海青浦县西，邻接江苏省。"},{"poiid":"B2094757D164A4F4419C","title":"淀山湖生态带","lon":"120.94106486","lat":"31.071180717","category":"500","category_name":"未知分类","address":"上海沪青平公路旁"},{"poiid":"B2094757D068ABFD449B","title":"淀山湖日月岛度假村","lon":"120.91598","lat":"31.06036","category":"215","category_name":"三星级宾馆","address":"青浦区沪青平公路8700号(近金泽镇)"},{"poiid":"B2094750D565A5F8419E","title":"上海美帆游艇俱乐部","lon":"120.916725","lat":"31.070718","category":"250","category_name":"公园户外","address":"金商公路588号"},{"poiid":"B2094650D16AA4FF4092","title":"太阳湖大花园","lon":"120.92139452927","lat":"31.071796055371","category":"196","category_name":"公园","address":"吴江汾湖镇张园东路88号(上海淀山湖大观园旁)"},{"poiid":"B2094757D06AA2F9459E","title":"桂竹园饭庄","lon":"120.91270396","lat":"31.072039637","category":"247","category_name":"餐饮美食","address":"上海近郊青浦区金商公路702号(近大观园)  "},{"poiid":"B2094757D06BA2FE479D","title":"农家乐","lon":"120.91176","lat":"31.07107","category":"76","category_name":"上海菜","address":"青浦区金商公路900号(近民俗村)"},{"poiid":"B2094757D064A7FA4492","title":"和欣苑大酒店","lon":"120.91477047","lat":"31.070786647","category":"217","category_name":"旅馆招待所","address":"青浦区青商路111号"},{"poiid":"B2094757D168A6F54599","title":"威尼斯花园","lon":"120.92928120733","lat":"31.072738575268","category":"47","category_name":"住宅区","address":"上海沪青平公路8600号"},{"poiid":"B2094654DB69A6FE479D","title":"上海威尼斯花园别墅","lon":"120.91919","lat":"31.06561","category":"47","category_name":"住宅区","address":"青浦区沪青公路8600号"},{"poiid":"B2094654DB6DA5F8479E","title":"上海东兴国际游艇俱乐部","lon":"120.92436","lat":"31.06883","category":"250","category_name":"公园户外","address":"青浦区西岑镇沪青平公路8500号"},{"poiid":"B2094757D169A7FD4992","title":"淀滨酒家","lon":"120.91373115","lat":"31.07500406","category":"247","category_name":"餐饮美食","address":"上海金商公路大观园北侧"},{"poiid":"B2094654DB69A6FC4898","title":"楠林水岸","lon":"120.932","lat":"31.073","category":"47","category_name":"住宅区","address":"上海市青浦区沪青平公路8499号"},{"poiid":"B2094752D165A3F94399","title":"大观园梅园","lon":"120.912415","lat":"31.077286","category":"247","category_name":"餐饮美食","address":null},{"poiid":"B2094757D164A5FD469C","title":"民族文化村真人CS基地","lon":"120.91243696","lat":"31.073632675","category":"500","category_name":"未知分类","address":"上海市青浦区浦泰路"},{"poiid":"B2094654DB6DA5F44198","title":"阿三河鲜馆","lon":"120.91468","lat":"31.0674","category":"88","category_name":"海鲜酒楼","address":"青浦区金商公路388号"},{"poiid":"B2094654DB6DA5F44093","title":"食为天酒家","lon":"120.91521","lat":"31.06692","category":"76","category_name":"上海菜","address":"青浦区金商公路264号(近上海大观园)"},{"poiid":"B2094757D569A1FF479A","title":"上海通行费西岑征收稽查站","lon":"120.928749","lat":"31.068668","category":"267","category_name":"收费站","address":"中国上海市青浦区G318"},{"poiid":"B2094654DB6DA5F9409D","title":"上海园湖苑宾馆","lon":"120.91536","lat":"31.06735","category":"250","category_name":"公园户外","address":"青浦区金商路258号(近大观园)"},{"poiid":"B2094654DB6DA5F9409A","title":"上海淀山湖宾馆","lon":"120.91638","lat":"31.06669","category":"250","category_name":"公园户外","address":"青浦区青商公路200号(近沪青平公路)"},{"poiid":"B2094654DB6DA5F4419C","title":"太虚幻境","lon":"120.90746","lat":"31.07347","category":"250","category_name":"公园户外","address":""},{"poiid":"B2094757D16CA4FC4599","title":"红楼梦","lon":"120.907463","lat":"31.073477","category":"500","category_name":"未知分类","address":"上海太虚幻境"},{"poiid":"B2094655D36DA1FB409E","title":"西蔡","lon":"120.93756","lat":"31.07074","category":"38","category_name":"公交车站","address":""},{"poiid":"B2094654DB6DA5FB4892","title":"上海金泽实业发展有限公司","lon":"120.91622","lat":"31.06623","category":"263","category_name":"公司","address":"青商路215"},{"poiid":"B2094654DB6DA5F9459E","title":"上海美蓓亚精密机电有限公司(西蔡)","lon":"120.93975","lat":"31.07126","category":"263","category_name":"公司","address":""},{"poiid":"B2094654DB6AA3FF4392","title":"淀山湖宾馆餐厅","lon":"120.9127","lat":"31.09268","category":"247","category_name":"餐饮美食","address":"青浦大观园风景区青商公路200号"},{"poiid":"B2094757D66FA7FE409E","title":"高麦生态园","lon":"120.94193196","lat":"31.07506971","category":"500","category_name":"未知分类","address":"上海市青浦区沪青平公路"},{"poiid":"B2094753D46AABF44393","title":"中石化上海会议中心","lon":"120.919906","lat":"31.057882","category":"500","category_name":"未知分类","address":"上海市 上海市，青浦区，沪青平公路"},{"poiid":"B2094757D06BA0F94999","title":"镭神训练营","lon":"120.91297","lat":"31.09241","category":"173","category_name":"游戏厅","address":"青浦区金商公路728号青浦大观园梅园景区(近朱家角)"}]