[{"poiid":"B2094655D26FA0FB449C","title":"共青国家森林公园","lon":"121.55085","lat":"31.32009","category":"240","category_name":"国家级景点","address":"军工路2000号"},{"poiid":"B2094757D068A0FD4693","title":"烧烤","lon":"121.545813","lat":"31.321156","category":"247","category_name":"餐饮美食","address":"上海共青森林公园"},{"poiid":"B2094750D768ABFF499C","title":"共青森林公园烧烤区","lon":"121.546","lat":"31.3206","category":"68","category_name":"快餐厅","address":"杨浦区军工路2000号共青森林公园内"},{"poiid":"B2094757D06FA3FD439E","title":"杨浦区市东医院","lon":"121.53765445","lat":"31.321043171","category":"162","category_name":"医院","address":"上海杨浦区市光路999号(近包头路)"},{"poiid":"B2094757D06FABFF4598","title":"蔚蓝海岸Studio(杨浦店)","lon":"121.5461873","lat":"31.3150192","category":"249","category_name":"购物服务","address":"上海杨浦区军工路1436号五维创业园内(近翔殷路)"},{"poiid":"B2094757D06FA7F9479C","title":"德林火锅(包头路店)","lon":"121.53897","lat":"31.31732","category":"86","category_name":"火锅店","address":"杨浦区包头路436号(近国和路)"},{"poiid":"B2094757D06FA1FD4799","title":"上海城市管理职业技术学院","lon":"121.54669","lat":"31.32383","category":"671","category_name":"高校中心点","address":"杨浦区军工路2360号(近森林公园)"},{"poiid":"B2094757D06FA2FE4093","title":"市光二村","lon":"121.54085","lat":"31.31772","category":"47","category_name":"住宅区","address":"上海国和路包头路"},{"poiid":"B2094757D068A3FE4993","title":"中原体育场羽毛球馆","lon":"121.53905","lat":"31.31502","category":"220","category_name":"运动场所","address":"杨浦区包头路380号(近嫩江路)"},{"poiid":"B2094757D06FA2F8419A","title":"市光三村","lon":"121.538493","lat":"31.322494","category":"47","category_name":"住宅区","address":"上海杨浦区,市光三村"},{"poiid":"B2094757D66EA4FC4298","title":"共青森林公园海盗船","lon":"121.5472672","lat":"31.320308965","category":"500","category_name":"未知分类","address":"上海军工路"},{"poiid":"B2094757D068A0FC4992","title":"市光一村","lon":"121.542811","lat":"31.322146","category":"47","category_name":"住宅区","address":"上海国和路包头路"},{"poiid":"B2094757D66BA3F4479F","title":"喜相约饭店","lon":"121.546","lat":"31.31471","category":"71","category_name":"四川菜","address":"杨浦区军工路1486号(近民星路)"},{"poiid":"B2094654DB6AA6FE429F","title":"共青森林度假村","lon":"121.54578","lat":"31.32221","category":"207","category_name":"度假疗养场所","address":"杨浦区军工路2180号"},{"poiid":"B2094757D068A6F8429C","title":"包头路麻辣烫","lon":"121.539040054","lat":"31.315891793","category":"68","category_name":"快餐厅","address":"闸北区汶水路886号(近卜蜂莲花)"},{"poiid":"B2094757D065AAF44993","title":"格林威福特4S汽车","lon":"121.544248769","lat":"31.3121138941","category":"500","category_name":"未知分类","address":"杨浦区军工路1488号(近民星路)"},{"poiid":"B2094757D068A5F84098","title":"民星路","lon":"121.540491","lat":"31.311405","category":"500","category_name":"未知分类","address":null},{"poiid":"B2094752D46BA1FD469C","title":"共青森林公园","lon":"121.543614","lat":"31.317862","category":"500","category_name":"未知分类","address":null},{"poiid":"B2094655D26CA6FB409E","title":"民星路408弄小区","lon":"121.54380583237","lat":"31.318102826115","category":"47","category_name":"住宅区","address":"民星路408弄"},{"poiid":"B2094757D06FABF84199","title":"翔殷路491弄小区","lon":"121.545","lat":"31.314","category":"47","category_name":"住宅区","address":"翔殷路491弄1-86号"},{"poiid":"B2094757D06AA2F84693","title":"大桶大足浴(包头路店)","lon":"121.5403531","lat":"31.312187295","category":"500","category_name":"未知分类","address":"杨浦区民星路376弄3楼(近包头路)"},{"poiid":"B2094655D26FA0F4469C","title":"共青国家森林公园售票处(军工路)","lon":"121.54581","lat":"31.32116","category":"33","category_name":"公园景点售票处","address":""},{"poiid":"B2094757D469A1FC4393","title":"嫩江路麻辣烫","lon":"121.53875","lat":"31.3153","category":"87","category_name":"特色／地方风味餐厅","address":"包头路386号近嫩江路"},{"poiid":"B2094757D16BABF84299","title":"上海市供电局闸北发电厂","lon":"121.5452112","lat":"31.3179299","category":"500","category_name":"未知分类","address":"上海军工路"},{"poiid":"B2094654DB6BA2FF499A","title":"市光三村(南二号门)","lon":"121.54148","lat":"31.31825","category":"47","category_name":"住宅区","address":""},{"poiid":"B2094757D66BA3F9489E","title":"新仁义海鲜酒楼","lon":"121.54521","lat":"31.31792","category":"260","category_name":"其他","address":"杨浦区军工路2866号东方国际水产中心美食广场18-19号"},{"poiid":"B2094757D16CAAF9459E","title":"张记汤馆","lon":"121.54159","lat":"31.31441","category":"68","category_name":"快餐厅","address":"杨浦区嫩江路938号(近包头路)"},{"poiid":"B2094757D068A6F94498","title":"民星住宅小区","lon":"121.53957","lat":"31.313667","category":"47","category_name":"住宅区","address":"上海包头路300弄"},{"poiid":"B2094655D26CA7F44993","title":"中原小区","lon":"121.54321","lat":"31.317677","category":"47","category_name":"住宅区","address":"嫩江路68号"},{"poiid":"B2094757D168A5FD469F","title":"毛胡子饭店","lon":"121.54608","lat":"31.31464","category":"76","category_name":"上海菜","address":"杨浦区嫩江路854号(近白城路)"},{"poiid":"B2094654D56FA0FA419A","title":"工农四村","lon":"121.54053","lat":"31.324175","category":"47","category_name":"住宅区","address":"工农四村1-82号,105-121号,125-127号,130-133号,141-175号"},{"poiid":"B2094655D26CA6F84492","title":"中原小区(北门)","lon":"121.54301","lat":"31.31792","category":"47","category_name":"住宅区","address":""},{"poiid":"B2094757D064ABFC409A","title":"民欣大酒店","lon":"121.53879","lat":"31.31318","category":"76","category_name":"上海菜","address":"杨浦区包头路280号"},{"poiid":"B2094751D26CA4FF439A","title":"i-D婚纱摄影","lon":"121.546222","lat":"31.31524","category":"611","category_name":"照相馆","address":"杨浦区市军工路1436号"},{"poiid":"B2094654D56FA7FF4898","title":"红汤面馆","lon":"121.54224","lat":"31.31525","category":"68","category_name":"快餐厅","address":"杨浦区市光二村附近(近139路嫩江路终点站)"},{"poiid":"B2094757D16EABF4419F","title":"泰阁苑鱼翅酒楼","lon":"121.54672","lat":"31.32307","category":"72","category_name":"广东菜","address":"杨浦区军工路1978号(共青森林公园西大门)"},{"poiid":"B2094655D26CA7FF4193","title":"好德便利No.571","lon":"121.54132","lat":"31.3183","category":"117","category_name":"便民商店/便利店","address":"杨浦区国和路1410号"},{"poiid":"B2094757D06BA6F44793","title":"星源佳园","lon":"121.53895","lat":"31.321993","category":"47","category_name":"住宅区","address":"工农四村83-104号"},{"poiid":"B2094654DB6AA2FC4592","title":"重庆鸡公煲 包头路店","lon":"121.538462054","lat":"31.317228793","category":"71","category_name":"四川菜","address":"杨浦区包头路371号(近国和路)"},{"poiid":"B2094757D164A6FD489D","title":"国和路","lon":"121.545335103","lat":"31.3205834713","category":"500","category_name":"未知分类","address":"上海市杨浦区市光路"},{"poiid":"B2094757D169A3FA4898","title":"Enjoy&amp;low老葛车友会","lon":"121.543711103","lat":"31.3198974569","category":"500","category_name":"未知分类","address":"上海白城路378号"},{"poiid":"B2094654D56FA7FE4199","title":"杨浦良友食品有限公司第一分公司","lon":"121.54363","lat":"31.31628","category":"263","category_name":"公司","address":"白城路259临"},{"poiid":"B2094655D26FA7F5479B","title":"市光二村(南三号门)","lon":"121.54248","lat":"31.31482","category":"47","category_name":"住宅区","address":""},{"poiid":"B2094655D26CA6FD439E","title":"星源花苑","lon":"121.54223","lat":"31.323984","category":"47","category_name":"住宅区","address":"上海市杨浦区市光路750号"},{"poiid":"B2094655D26DA4F8409D","title":"星源公寓","lon":"121.54295","lat":"31.32201","category":"47","category_name":"住宅区","address":"工农四村1-45号"},{"poiid":"B2094757D66CA7FF409F","title":"139路嫩江路白城路终点站","lon":"121.541941","lat":"31.314812","category":"500","category_name":"未知分类","address":"上海市杨浦区嫩江路844号"},{"poiid":"B2094654D56FA7FF489A","title":"雪峰餐饮","lon":"121.54225","lat":"31.31491","category":"257","category_name":"中餐厅","address":"杨浦区嫩江路市光二村小区内(近白城路)"},{"poiid":"B2094655D26AABF44099","title":"泓庄茶室","lon":"121.55085","lat":"31.32009","category":"66","category_name":"茶艺馆","address":"杨浦区军工路2000号共青森林公园内(近嫩江路)"},{"poiid":"B2094757D66EA0FB499D","title":"老崇明餐厅","lon":"121.53918259","lat":"31.319068239","category":"76","category_name":"上海菜","address":"杨浦区国和路(近包头路)"},{"poiid":"B2094757D66EA0FE449A","title":"打浦路15号","lon":"121.545587103","lat":"31.3147347489","category":"500","category_name":"未知分类","address":"上海馔巴黎"},{"poiid":"B2094655D26FA0FB449C","title":"共青国家森林公园","lon":"121.55085","lat":"31.32009","category":"240","category_name":"国家级景点","address":"军工路2000号"},{"poiid":"B2094757D068A0FD4693","title":"烧烤","lon":"121.545813","lat":"31.321156","category":"247","category_name":"餐饮美食","address":"上海共青森林公园"},{"poiid":"B2094750D768ABFF499C","title":"共青森林公园烧烤区","lon":"121.546","lat":"31.3206","category":"68","category_name":"快餐厅","address":"杨浦区军工路2000号共青森林公园内"},{"poiid":"B2094757D06FA3FD439E","title":"杨浦区市东医院","lon":"121.53765445","lat":"31.321043171","category":"162","category_name":"医院","address":"上海杨浦区市光路999号(近包头路)"},{"poiid":"B2094757D06FABFF4598","title":"蔚蓝海岸Studio(杨浦店)","lon":"121.5461873","lat":"31.3150192","category":"249","category_name":"购物服务","address":"上海杨浦区军工路1436号五维创业园内(近翔殷路)"},{"poiid":"B2094757D06FA7F9479C","title":"德林火锅(包头路店)","lon":"121.53897","lat":"31.31732","category":"86","category_name":"火锅店","address":"杨浦区包头路436号(近国和路)"},{"poiid":"B2094757D06FA1FD4799","title":"上海城市管理职业技术学院","lon":"121.54669","lat":"31.32383","category":"671","category_name":"高校中心点","address":"杨浦区军工路2360号(近森林公园)"},{"poiid":"B2094757D06FA2FE4093","title":"市光二村","lon":"121.54085","lat":"31.31772","category":"47","category_name":"住宅区","address":"上海国和路包头路"},{"poiid":"B2094757D068A3FE4993","title":"中原体育场羽毛球馆","lon":"121.53905","lat":"31.31502","category":"220","category_name":"运动场所","address":"杨浦区包头路380号(近嫩江路)"},{"poiid":"B2094757D06FA2F8419A","title":"市光三村","lon":"121.538493","lat":"31.322494","category":"47","category_name":"住宅区","address":"上海杨浦区,市光三村"},{"poiid":"B2094757D66EA4FC4298","title":"共青森林公园海盗船","lon":"121.5472672","lat":"31.320308965","category":"500","category_name":"未知分类","address":"上海军工路"},{"poiid":"B2094757D068A0FC4992","title":"市光一村","lon":"121.542811","lat":"31.322146","category":"47","category_name":"住宅区","address":"上海国和路包头路"},{"poiid":"B2094757D66BA3F4479F","title":"喜相约饭店","lon":"121.546","lat":"31.31471","category":"71","category_name":"四川菜","address":"杨浦区军工路1486号(近民星路)"},{"poiid":"B2094654DB6AA6FE429F","title":"共青森林度假村","lon":"121.54578","lat":"31.32221","category":"207","category_name":"度假疗养场所","address":"杨浦区军工路2180号"},{"poiid":"B2094757D068A6F8429C","title":"包头路麻辣烫","lon":"121.539040054","lat":"31.315891793","category":"68","category_name":"快餐厅","address":"闸北区汶水路886号(近卜蜂莲花)"},{"poiid":"B2094757D065AAF44993","title":"格林威福特4S汽车","lon":"121.544248769","lat":"31.3121138941","category":"500","category_name":"未知分类","address":"杨浦区军工路1488号(近民星路)"},{"poiid":"B2094757D068A5F84098","title":"民星路","lon":"121.540491","lat":"31.311405","category":"500","category_name":"未知分类","address":null},{"poiid":"B2094752D46BA1FD469C","title":"共青森林公园","lon":"121.543614","lat":"31.317862","category":"500","category_name":"未知分类","address":null},{"poiid":"B2094655D26CA6FB409E","title":"民星路408弄小区","lon":"121.54380583237","lat":"31.318102826115","category":"47","category_name":"住宅区","address":"民星路408弄"},{"poiid":"B2094757D06FABF84199","title":"翔殷路491弄小区","lon":"121.545","lat":"31.314","category":"47","category_name":"住宅区","address":"翔殷路491弄1-86号"},{"poiid":"B2094757D06AA2F84693","title":"大桶大足浴(包头路店)","lon":"121.5403531","lat":"31.312187295","category":"500","category_name":"未知分类","address":"杨浦区民星路376弄3楼(近包头路)"},{"poiid":"B2094655D26FA0F4469C","title":"共青国家森林公园售票处(军工路)","lon":"121.54581","lat":"31.32116","category":"33","category_name":"公园景点售票处","address":""},{"poiid":"B2094757D469A1FC4393","title":"嫩江路麻辣烫","lon":"121.53875","lat":"31.3153","category":"87","category_name":"特色／地方风味餐厅","address":"包头路386号近嫩江路"},{"poiid":"B2094757D16BABF84299","title":"上海市供电局闸北发电厂","lon":"121.5452112","lat":"31.3179299","category":"500","category_name":"未知分类","address":"上海军工路"},{"poiid":"B2094654DB6BA2FF499A","title":"市光三村(南二号门)","lon":"121.54148","lat":"31.31825","category":"47","category_name":"住宅区","address":""},{"poiid":"B2094757D66BA3F9489E","title":"新仁义海鲜酒楼","lon":"121.54521","lat":"31.31792","category":"260","category_name":"其他","address":"杨浦区军工路2866号东方国际水产中心美食广场18-19号"},{"poiid":"B2094757D16CAAF9459E","title":"张记汤馆","lon":"121.54159","lat":"31.31441","category":"68","category_name":"快餐厅","address":"杨浦区嫩江路938号(近包头路)"},{"poiid":"B2094757D068A6F94498","title":"民星住宅小区","lon":"121.53957","lat":"31.313667","category":"47","category_name":"住宅区","address":"上海包头路300弄"},{"poiid":"B2094655D26CA7F44993","title":"中原小区","lon":"121.54321","lat":"31.317677","category":"47","category_name":"住宅区","address":"嫩江路68号"},{"poiid":"B2094757D168A5FD469F","title":"毛胡子饭店","lon":"121.54608","lat":"31.31464","category":"76","category_name":"上海菜","address":"杨浦区嫩江路854号(近白城路)"},{"poiid":"B2094654D56FA0FA419A","title":"工农四村","lon":"121.54053","lat":"31.324175","category":"47","category_name":"住宅区","address":"工农四村1-82号,105-121号,125-127号,130-133号,141-175号"},{"poiid":"B2094655D26CA6F84492","title":"中原小区(北门)","lon":"121.54301","lat":"31.31792","category":"47","category_name":"住宅区","address":""},{"poiid":"B2094757D064ABFC409A","title":"民欣大酒店","lon":"121.53879","lat":"31.31318","category":"76","category_name":"上海菜","address":"杨浦区包头路280号"},{"poiid":"B2094751D26CA4FF439A","title":"i-D婚纱摄影","lon":"121.546222","lat":"31.31524","category":"611","category_name":"照相馆","address":"杨浦区市军工路1436号"},{"poiid":"B2094654D56FA7FF4898","title":"红汤面馆","lon":"121.54224","lat":"31.31525","category":"68","category_name":"快餐厅","address":"杨浦区市光二村附近(近139路嫩江路终点站)"},{"poiid":"B2094757D16EABF4419F","title":"泰阁苑鱼翅酒楼","lon":"121.54672","lat":"31.32307","category":"72","category_name":"广东菜","address":"杨浦区军工路1978号(共青森林公园西大门)"},{"poiid":"B2094655D26CA7FF4193","title":"好德便利No.571","lon":"121.54132","lat":"31.3183","category":"117","category_name":"便民商店/便利店","address":"杨浦区国和路1410号"},{"poiid":"B2094757D06BA6F44793","title":"星源佳园","lon":"121.53895","lat":"31.321993","category":"47","category_name":"住宅区","address":"工农四村83-104号"},{"poiid":"B2094654DB6AA2FC4592","title":"重庆鸡公煲 包头路店","lon":"121.538462054","lat":"31.317228793","category":"71","category_name":"四川菜","address":"杨浦区包头路371号(近国和路)"},{"poiid":"B2094757D164A6FD489D","title":"国和路","lon":"121.545335103","lat":"31.3205834713","category":"500","category_name":"未知分类","address":"上海市杨浦区市光路"},{"poiid":"B2094757D169A3FA4898","title":"Enjoy&amp;low老葛车友会","lon":"121.543711103","lat":"31.3198974569","category":"500","category_name":"未知分类","address":"上海白城路378号"},{"poiid":"B2094654D56FA7FE4199","title":"杨浦良友食品有限公司第一分公司","lon":"121.54363","lat":"31.31628","category":"263","category_name":"公司","address":"白城路259临"},{"poiid":"B2094655D26FA7F5479B","title":"市光二村(南三号门)","lon":"121.54248","lat":"31.31482","category":"47","category_name":"住宅区","address":""},{"poiid":"B2094655D26CA6FD439E","title":"星源花苑","lon":"121.54223","lat":"31.323984","category":"47","category_name":"住宅区","address":"上海市杨浦区市光路750号"},{"poiid":"B2094655D26DA4F8409D","title":"星源公寓","lon":"121.54295","lat":"31.32201","category":"47","category_name":"住宅区","address":"工农四村1-45号"},{"poiid":"B2094757D66CA7FF409F","title":"139路嫩江路白城路终点站","lon":"121.541941","lat":"31.314812","category":"500","category_name":"未知分类","address":"上海市杨浦区嫩江路844号"},{"poiid":"B2094654D56FA7FF489A","title":"雪峰餐饮","lon":"121.54225","lat":"31.31491","category":"257","category_name":"中餐厅","address":"杨浦区嫩江路市光二村小区内(近白城路)"},{"poiid":"B2094655D26AABF44099","title":"泓庄茶室","lon":"121.55085","lat":"31.32009","category":"66","category_name":"茶艺馆","address":"杨浦区军工路2000号共青森林公园内(近嫩江路)"},{"poiid":"B2094757D66EA0FB499D","title":"老崇明餐厅","lon":"121.53918259","lat":"31.319068239","category":"76","category_name":"上海菜","address":"杨浦区国和路(近包头路)"},{"poiid":"B2094757D66EA0FE449A","title":"打浦路15号","lon":"121.545587103","lat":"31.3147347489","category":"500","category_name":"未知分类","address":"上海馔巴黎"},{"poiid":"B2094655D26FA0FB449C","title":"共青国家森林公园","lon":"121.55085","lat":"31.32009","category":"240","category_name":"国家级景点","address":"军工路2000号"},{"poiid":"B2094757D068A0FD4693","title":"烧烤","lon":"121.545813","lat":"31.321156","category":"247","category_name":"餐饮美食","address":"上海共青森林公园"},{"poiid":"B2094750D768ABFF499C","title":"共青森林公园烧烤区","lon":"121.546","lat":"31.3206","category":"68","category_name":"快餐厅","address":"杨浦区军工路2000号共青森林公园内"},{"poiid":"B2094757D06FA3FD439E","title":"杨浦区市东医院","lon":"121.53765445","lat":"31.321043171","category":"162","category_name":"医院","address":"上海杨浦区市光路999号(近包头路)"},{"poiid":"B2094757D06FABFF4598","title":"蔚蓝海岸Studio(杨浦店)","lon":"121.5461873","lat":"31.3150192","category":"249","category_name":"购物服务","address":"上海杨浦区军工路1436号五维创业园内(近翔殷路)"},{"poiid":"B2094757D06FA7F9479C","title":"德林火锅(包头路店)","lon":"121.53897","lat":"31.31732","category":"86","category_name":"火锅店","address":"杨浦区包头路436号(近国和路)"},{"poiid":"B2094757D06FA1FD4799","title":"上海城市管理职业技术学院","lon":"121.54669","lat":"31.32383","category":"671","category_name":"高校中心点","address":"杨浦区军工路2360号(近森林公园)"},{"poiid":"B2094757D06FA2FE4093","title":"市光二村","lon":"121.54085","lat":"31.31772","category":"47","category_name":"住宅区","address":"上海国和路包头路"},{"poiid":"B2094757D068A3FE4993","title":"中原体育场羽毛球馆","lon":"121.53905","lat":"31.31502","category":"220","category_name":"运动场所","address":"杨浦区包头路380号(近嫩江路)"},{"poiid":"B2094757D06FA2F8419A","title":"市光三村","lon":"121.538493","lat":"31.322494","category":"47","category_name":"住宅区","address":"上海杨浦区,市光三村"},{"poiid":"B2094757D66EA4FC4298","title":"共青森林公园海盗船","lon":"121.5472672","lat":"31.320308965","category":"500","category_name":"未知分类","address":"上海军工路"},{"poiid":"B2094757D068A0FC4992","title":"市光一村","lon":"121.542811","lat":"31.322146","category":"47","category_name":"住宅区","address":"上海国和路包头路"},{"poiid":"B2094757D66BA3F4479F","title":"喜相约饭店","lon":"121.546","lat":"31.31471","category":"71","category_name":"四川菜","address":"杨浦区军工路1486号(近民星路)"},{"poiid":"B2094654DB6AA6FE429F","title":"共青森林度假村","lon":"121.54578","lat":"31.32221","category":"207","category_name":"度假疗养场所","address":"杨浦区军工路2180号"},{"poiid":"B2094757D068A6F8429C","title":"包头路麻辣烫","lon":"121.539040054","lat":"31.315891793","category":"68","category_name":"快餐厅","address":"闸北区汶水路886号(近卜蜂莲花)"},{"poiid":"B2094757D065AAF44993","title":"格林威福特4S汽车","lon":"121.544248769","lat":"31.3121138941","category":"500","category_name":"未知分类","address":"杨浦区军工路1488号(近民星路)"},{"poiid":"B2094757D068A5F84098","title":"民星路","lon":"121.540491","lat":"31.311405","category":"500","category_name":"未知分类","address":null},{"poiid":"B2094752D46BA1FD469C","title":"共青森林公园","lon":"121.543614","lat":"31.317862","category":"500","category_name":"未知分类","address":null},{"poiid":"B2094655D26CA6FB409E","title":"民星路408弄小区","lon":"121.54380583237","lat":"31.318102826115","category":"47","category_name":"住宅区","address":"民星路408弄"},{"poiid":"B2094757D06FABF84199","title":"翔殷路491弄小区","lon":"121.545","lat":"31.314","category":"47","category_name":"住宅区","address":"翔殷路491弄1-86号"},{"poiid":"B2094757D06AA2F84693","title":"大桶大足浴(包头路店)","lon":"121.5403531","lat":"31.312187295","category":"500","category_name":"未知分类","address":"杨浦区民星路376弄3楼(近包头路)"},{"poiid":"B2094655D26FA0F4469C","title":"共青国家森林公园售票处(军工路)","lon":"121.54581","lat":"31.32116","category":"33","category_name":"公园景点售票处","address":""},{"poiid":"B2094757D469A1FC4393","title":"嫩江路麻辣烫","lon":"121.53875","lat":"31.3153","category":"87","category_name":"特色／地方风味餐厅","address":"包头路386号近嫩江路"},{"poiid":"B2094757D16BABF84299","title":"上海市供电局闸北发电厂","lon":"121.5452112","lat":"31.3179299","category":"500","category_name":"未知分类","address":"上海军工路"},{"poiid":"B2094654DB6BA2FF499A","title":"市光三村(南二号门)","lon":"121.54148","lat":"31.31825","category":"47","category_name":"住宅区","address":""},{"poiid":"B2094757D66BA3F9489E","title":"新仁义海鲜酒楼","lon":"121.54521","lat":"31.31792","category":"260","category_name":"其他","address":"杨浦区军工路2866号东方国际水产中心美食广场18-19号"},{"poiid":"B2094757D16CAAF9459E","title":"张记汤馆","lon":"121.54159","lat":"31.31441","category":"68","category_name":"快餐厅","address":"杨浦区嫩江路938号(近包头路)"},{"poiid":"B2094757D068A6F94498","title":"民星住宅小区","lon":"121.53957","lat":"31.313667","category":"47","category_name":"住宅区","address":"上海包头路300弄"},{"poiid":"B2094655D26CA7F44993","title":"中原小区","lon":"121.54321","lat":"31.317677","category":"47","category_name":"住宅区","address":"嫩江路68号"},{"poiid":"B2094757D168A5FD469F","title":"毛胡子饭店","lon":"121.54608","lat":"31.31464","category":"76","category_name":"上海菜","address":"杨浦区嫩江路854号(近白城路)"},{"poiid":"B2094654D56FA0FA419A","title":"工农四村","lon":"121.54053","lat":"31.324175","category":"47","category_name":"住宅区","address":"工农四村1-82号,105-121号,125-127号,130-133号,141-175号"},{"poiid":"B2094655D26CA6F84492","title":"中原小区(北门)","lon":"121.54301","lat":"31.31792","category":"47","category_name":"住宅区","address":""},{"poiid":"B2094757D064ABFC409A","title":"民欣大酒店","lon":"121.53879","lat":"31.31318","category":"76","category_name":"上海菜","address":"杨浦区包头路280号"},{"poiid":"B2094751D26CA4FF439A","title":"i-D婚纱摄影","lon":"121.546222","lat":"31.31524","category":"611","category_name":"照相馆","address":"杨浦区市军工路1436号"},{"poiid":"B2094654D56FA7FF4898","title":"红汤面馆","lon":"121.54224","lat":"31.31525","category":"68","category_name":"快餐厅","address":"杨浦区市光二村附近(近139路嫩江路终点站)"},{"poiid":"B2094757D16EABF4419F","title":"泰阁苑鱼翅酒楼","lon":"121.54672","lat":"31.32307","category":"72","category_name":"广东菜","address":"杨浦区军工路1978号(共青森林公园西大门)"},{"poiid":"B2094655D26CA7FF4193","title":"好德便利No.571","lon":"121.54132","lat":"31.3183","category":"117","category_name":"便民商店/便利店","address":"杨浦区国和路1410号"},{"poiid":"B2094757D06BA6F44793","title":"星源佳园","lon":"121.53895","lat":"31.321993","category":"47","category_name":"住宅区","address":"工农四村83-104号"},{"poiid":"B2094654DB6AA2FC4592","title":"重庆鸡公煲 包头路店","lon":"121.538462054","lat":"31.317228793","category":"71","category_name":"四川菜","address":"杨浦区包头路371号(近国和路)"},{"poiid":"B2094757D164A6FD489D","title":"国和路","lon":"121.545335103","lat":"31.3205834713","category":"500","category_name":"未知分类","address":"上海市杨浦区市光路"},{"poiid":"B2094757D169A3FA4898","title":"Enjoy&amp;low老葛车友会","lon":"121.543711103","lat":"31.3198974569","category":"500","category_name":"未知分类","address":"上海白城路378号"},{"poiid":"B2094654D56FA7FE4199","title":"杨浦良友食品有限公司第一分公司","lon":"121.54363","lat":"31.31628","category":"263","category_name":"公司","address":"白城路259临"},{"poiid":"B2094655D26FA7F5479B","title":"市光二村(南三号门)","lon":"121.54248","lat":"31.31482","category":"47","category_name":"住宅区","address":""},{"poiid":"B2094655D26CA6FD439E","title":"星源花苑","lon":"121.54223","lat":"31.323984","category":"47","category_name":"住宅区","address":"上海市杨浦区市光路750号"},{"poiid":"B2094655D26DA4F8409D","title":"星源公寓","lon":"121.54295","lat":"31.32201","category":"47","category_name":"住宅区","address":"工农四村1-45号"},{"poiid":"B2094757D66CA7FF409F","title":"139路嫩江路白城路终点站","lon":"121.541941","lat":"31.314812","category":"500","category_name":"未知分类","address":"上海市杨浦区嫩江路844号"},{"poiid":"B2094654D56FA7FF489A","title":"雪峰餐饮","lon":"121.54225","lat":"31.31491","category":"257","category_name":"中餐厅","address":"杨浦区嫩江路市光二村小区内(近白城路)"},{"poiid":"B2094655D26AABF44099","title":"泓庄茶室","lon":"121.55085","lat":"31.32009","category":"66","category_name":"茶艺馆","address":"杨浦区军工路2000号共青森林公园内(近嫩江路)"},{"poiid":"B2094757D66EA0FB499D","title":"老崇明餐厅","lon":"121.53918259","lat":"31.319068239","category":"76","category_name":"上海菜","address":"杨浦区国和路(近包头路)"},{"poiid":"B2094757D66EA0FE449A","title":"打浦路15号","lon":"121.545587103","lat":"31.3147347489","category":"500","category_name":"未知分类","address":"上海馔巴黎"},{"poiid":"B2094655D26FA0FB449C","title":"共青国家森林公园","lon":"121.55085","lat":"31.32009","category":"240","category_name":"国家级景点","address":"军工路2000号"},{"poiid":"B2094757D068A0FD4693","title":"烧烤","lon":"121.545813","lat":"31.321156","category":"247","category_name":"餐饮美食","address":"上海共青森林公园"},{"poiid":"B2094750D768ABFF499C","title":"共青森林公园烧烤区","lon":"121.546","lat":"31.3206","category":"68","category_name":"快餐厅","address":"杨浦区军工路2000号共青森林公园内"},{"poiid":"B2094757D06FA3FD439E","title":"杨浦区市东医院","lon":"121.53765445","lat":"31.321043171","category":"162","category_name":"医院","address":"上海杨浦区市光路999号(近包头路)"},{"poiid":"B2094757D06FABFF4598","title":"蔚蓝海岸Studio(杨浦店)","lon":"121.5461873","lat":"31.3150192","category":"249","category_name":"购物服务","address":"上海杨浦区军工路1436号五维创业园内(近翔殷路)"},{"poiid":"B2094757D06FA7F9479C","title":"德林火锅(包头路店)","lon":"121.53897","lat":"31.31732","category":"86","category_name":"火锅店","address":"杨浦区包头路436号(近国和路)"},{"poiid":"B2094757D06FA1FD4799","title":"上海城市管理职业技术学院","lon":"121.54669","lat":"31.32383","category":"671","category_name":"高校中心点","address":"杨浦区军工路2360号(近森林公园)"},{"poiid":"B2094757D06FA2FE4093","title":"市光二村","lon":"121.54085","lat":"31.31772","category":"47","category_name":"住宅区","address":"上海国和路包头路"},{"poiid":"B2094757D068A3FE4993","title":"中原体育场羽毛球馆","lon":"121.53905","lat":"31.31502","category":"220","category_name":"运动场所","address":"杨浦区包头路380号(近嫩江路)"},{"poiid":"B2094757D06FA2F8419A","title":"市光三村","lon":"121.538493","lat":"31.322494","category":"47","category_name":"住宅区","address":"上海杨浦区,市光三村"},{"poiid":"B2094757D66EA4FC4298","title":"共青森林公园海盗船","lon":"121.5472672","lat":"31.320308965","category":"500","category_name":"未知分类","address":"上海军工路"},{"poiid":"B2094757D068A0FC4992","title":"市光一村","lon":"121.542811","lat":"31.322146","category":"47","category_name":"住宅区","address":"上海国和路包头路"},{"poiid":"B2094757D66BA3F4479F","title":"喜相约饭店","lon":"121.546","lat":"31.31471","category":"71","category_name":"四川菜","address":"杨浦区军工路1486号(近民星路)"},{"poiid":"B2094654DB6AA6FE429F","title":"共青森林度假村","lon":"121.54578","lat":"31.32221","category":"207","category_name":"度假疗养场所","address":"杨浦区军工路2180号"},{"poiid":"B2094757D068A6F8429C","title":"包头路麻辣烫","lon":"121.539040054","lat":"31.315891793","category":"68","category_name":"快餐厅","address":"闸北区汶水路886号(近卜蜂莲花)"},{"poiid":"B2094757D065AAF44993","title":"格林威福特4S汽车","lon":"121.544248769","lat":"31.3121138941","category":"500","category_name":"未知分类","address":"杨浦区军工路1488号(近民星路)"},{"poiid":"B2094757D068A5F84098","title":"民星路","lon":"121.540491","lat":"31.311405","category":"500","category_name":"未知分类","address":null},{"poiid":"B2094752D46BA1FD469C","title":"共青森林公园","lon":"121.543614","lat":"31.317862","category":"500","category_name":"未知分类","address":null},{"poiid":"B2094655D26CA6FB409E","title":"民星路408弄小区","lon":"121.54380583237","lat":"31.318102826115","category":"47","category_name":"住宅区","address":"民星路408弄"},{"poiid":"B2094757D06FABF84199","title":"翔殷路491弄小区","lon":"121.545","lat":"31.314","category":"47","category_name":"住宅区","address":"翔殷路491弄1-86号"},{"poiid":"B2094757D06AA2F84693","title":"大桶大足浴(包头路店)","lon":"121.5403531","lat":"31.312187295","category":"500","category_name":"未知分类","address":"杨浦区民星路376弄3楼(近包头路)"},{"poiid":"B2094655D26FA0F4469C","title":"共青国家森林公园售票处(军工路)","lon":"121.54581","lat":"31.32116","category":"33","category_name":"公园景点售票处","address":""},{"poiid":"B2094757D469A1FC4393","title":"嫩江路麻辣烫","lon":"121.53875","lat":"31.3153","category":"87","category_name":"特色／地方风味餐厅","address":"包头路386号近嫩江路"},{"poiid":"B2094757D16BABF84299","title":"上海市供电局闸北发电厂","lon":"121.5452112","lat":"31.3179299","category":"500","category_name":"未知分类","address":"上海军工路"},{"poiid":"B2094654DB6BA2FF499A","title":"市光三村(南二号门)","lon":"121.54148","lat":"31.31825","category":"47","category_name":"住宅区","address":""},{"poiid":"B2094757D66BA3F9489E","title":"新仁义海鲜酒楼","lon":"121.54521","lat":"31.31792","category":"260","category_name":"其他","address":"杨浦区军工路2866号东方国际水产中心美食广场18-19号"},{"poiid":"B2094757D16CAAF9459E","title":"张记汤馆","lon":"121.54159","lat":"31.31441","category":"68","category_name":"快餐厅","address":"杨浦区嫩江路938号(近包头路)"},{"poiid":"B2094757D068A6F94498","title":"民星住宅小区","lon":"121.53957","lat":"31.313667","category":"47","category_name":"住宅区","address":"上海包头路300弄"},{"poiid":"B2094655D26CA7F44993","title":"中原小区","lon":"121.54321","lat":"31.317677","category":"47","category_name":"住宅区","address":"嫩江路68号"},{"poiid":"B2094757D168A5FD469F","title":"毛胡子饭店","lon":"121.54608","lat":"31.31464","category":"76","category_name":"上海菜","address":"杨浦区嫩江路854号(近白城路)"},{"poiid":"B2094654D56FA0FA419A","title":"工农四村","lon":"121.54053","lat":"31.324175","category":"47","category_name":"住宅区","address":"工农四村1-82号,105-121号,125-127号,130-133号,141-175号"},{"poiid":"B2094655D26CA6F84492","title":"中原小区(北门)","lon":"121.54301","lat":"31.31792","category":"47","category_name":"住宅区","address":""},{"poiid":"B2094757D064ABFC409A","title":"民欣大酒店","lon":"121.53879","lat":"31.31318","category":"76","category_name":"上海菜","address":"杨浦区包头路280号"},{"poiid":"B2094751D26CA4FF439A","title":"i-D婚纱摄影","lon":"121.546222","lat":"31.31524","category":"611","category_name":"照相馆","address":"杨浦区市军工路1436号"},{"poiid":"B2094654D56FA7FF4898","title":"红汤面馆","lon":"121.54224","lat":"31.31525","category":"68","category_name":"快餐厅","address":"杨浦区市光二村附近(近139路嫩江路终点站)"},{"poiid":"B2094757D16EABF4419F","title":"泰阁苑鱼翅酒楼","lon":"121.54672","lat":"31.32307","category":"72","category_name":"广东菜","address":"杨浦区军工路1978号(共青森林公园西大门)"},{"poiid":"B2094655D26CA7FF4193","title":"好德便利No.571","lon":"121.54132","lat":"31.3183","category":"117","category_name":"便民商店/便利店","address":"杨浦区国和路1410号"},{"poiid":"B2094757D06BA6F44793","title":"星源佳园","lon":"121.53895","lat":"31.321993","category":"47","category_name":"住宅区","address":"工农四村83-104号"},{"poiid":"B2094654DB6AA2FC4592","title":"重庆鸡公煲 包头路店","lon":"121.538462054","lat":"31.317228793","category":"71","category_name":"四川菜","address":"杨浦区包头路371号(近国和路)"},{"poiid":"B2094757D164A6FD489D","title":"国和路","lon":"121.545335103","lat":"31.3205834713","category":"500","category_name":"未知分类","address":"上海市杨浦区市光路"},{"poiid":"B2094757D169A3FA4898","title":"Enjoy&amp;low老葛车友会","lon":"121.543711103","lat":"31.3198974569","category":"500","category_name":"未知分类","address":"上海白城路378号"},{"poiid":"B2094654D56FA7FE4199","title":"杨浦良友食品有限公司第一分公司","lon":"121.54363","lat":"31.31628","category":"263","category_name":"公司","address":"白城路259临"},{"poiid":"B2094655D26FA7F5479B","title":"市光二村(南三号门)","lon":"121.54248","lat":"31.31482","category":"47","category_name":"住宅区","address":""},{"poiid":"B2094655D26CA6FD439E","title":"星源花苑","lon":"121.54223","lat":"31.323984","category":"47","category_name":"住宅区","address":"上海市杨浦区市光路750号"},{"poiid":"B2094655D26DA4F8409D","title":"星源公寓","lon":"121.54295","lat":"31.32201","category":"47","category_name":"住宅区","address":"工农四村1-45号"},{"poiid":"B2094757D66CA7FF409F","title":"139路嫩江路白城路终点站","lon":"121.541941","lat":"31.314812","category":"500","category_name":"未知分类","address":"上海市杨浦区嫩江路844号"},{"poiid":"B2094654D56FA7FF489A","title":"雪峰餐饮","lon":"121.54225","lat":"31.31491","category":"257","category_name":"中餐厅","address":"杨浦区嫩江路市光二村小区内(近白城路)"},{"poiid":"B2094655D26AABF44099","title":"泓庄茶室","lon":"121.55085","lat":"31.32009","category":"66","category_name":"茶艺馆","address":"杨浦区军工路2000号共青森林公园内(近嫩江路)"},{"poiid":"B2094757D66EA0FB499D","title":"老崇明餐厅","lon":"121.53918259","lat":"31.319068239","category":"76","category_name":"上海菜","address":"杨浦区国和路(近包头路)"},{"poiid":"B2094757D66EA0FE449A","title":"打浦路15号","lon":"121.545587103","lat":"31.3147347489","category":"500","category_name":"未知分类","address":"上海馔巴黎"}]