[{"poiid":"B2094655D264A7FA4899","title":"幸福码头","lon":"121.50506","lat":"31.21097","category":"47","category_name":"住宅区","address":"黄浦区中山南路1029号幸福码头5号楼(近多稼路)"},{"poiid":"B2094655D26AA1FA4998","title":"黄浦旅游集散站","lon":"121.50134","lat":"31.20778","category":"35","category_name":"长途汽车站","address":"黄浦区外马路1588号"},{"poiid":"B2094757D06FA2FB459A","title":"艾福敦酒店 (Eiffelton Riverside Hotel Pudong Shanghai)","lon":"121.509251618","lat":"31.2056334725","category":"217","category_name":"旅馆招待所","address":"浦东新区浦明路1888号(近浦建路)"},{"poiid":"B2094757D06FA7FD4298","title":"薇拉宫邸(浦东店)","lon":"121.50889556","lat":"31.207375193","category":"95","category_name":"日本料理","address":"上海浦明路1888号5号楼"},{"poiid":"B2094757D06FA4F4429B","title":"上海市第二人民医院","lon":"121.50425317","lat":"31.210314152","category":"162","category_name":"医院","address":"黄浦区多稼路1号(近中山南路)"},{"poiid":"B2094757D06FA1F94793","title":"南码头轮渡","lon":"121.50582772","lat":"31.202802396","category":"260","category_name":"其他","address":"上海浦东新区南码头路1号摆渡口"},{"poiid":"B2094757D16CA2FD469D","title":"上海亚廷游艇会","lon":"121.505592","lat":"31.209361","category":"260","category_name":"其他","address":"黄浦区外马路1162号(近南浦大桥浦西桥墩)"},{"poiid":"B2094655D268A1FA459F","title":"东江高尔夫会所","lon":"121.51033","lat":"31.2083","category":"206","category_name":"高尔夫相关","address":"小南码头路5号"},{"poiid":"B2094757D169ABFE449D","title":"巴富仕游艇会","lon":"121.505978738","lat":"31.2121359146","category":"500","category_name":"未知分类","address":"上海市黄浦区幸福码头创意园区"},{"poiid":"B2094757DB68A5FA409B","title":"罗曼园高级婚礼会馆 外滩雅致英伦馆","lon":"121.50477647781","lat":"31.210635939807","category":"247","category_name":"餐饮美食","address":"长宁区中山西路1011号(近虹桥路)查看地图"},{"poiid":"B2094757D065A6FC4692","title":"HAVEN","lon":"121.50305603","lat":"31.211066691","category":"97","category_name":"法式菜品餐厅","address":"黄浦区中山南路1029号幸福码头3号楼(近多稼路)"},{"poiid":"B2094757DA6EABFB4999","title":"薇拉宫邸私人婚礼会所(南浦店)","lon":"121.509479","lat":"31.2066410000002","category":"248","category_name":"生活娱乐","address":"浦东新区浦明路1888号5号楼(近南浦大桥)查看地图"},{"poiid":"B2094654DA68A0FD469D","title":"帝龙海鲜舫","lon":"121.50427282682","lat":"31.206678575885","category":"76","category_name":"上海菜","address":"黄浦区外马路1333号(近南浦大桥)"},{"poiid":"B2094757D069AAFD4699","title":"东江高尔夫","lon":"121.50941473","lat":"31.205573774","category":"500","category_name":"未知分类","address":"上海市南码头路5号"},{"poiid":"B2094757D16DA2F9429C","title":"优艾贝国际月子会所","lon":"121.511133338","lat":"31.2068565021","category":"248","category_name":"生活娱乐","address":"浦东新区浦明路1888号(近南浦大桥)"},{"poiid":"B2094757D16CA4FF4198","title":"外码头上海创意产业聚集区","lon":"121.505065","lat":"31.208697","category":"46","category_name":"楼宇","address":"上海黄浦区外马路1178号"},{"poiid":"B2094654DA68A0FD4592","title":"上海南浦大桥长途旅游客运站","lon":"121.50129","lat":"31.20767","category":"35","category_name":"长途汽车站","address":"黄浦区外马路1588号(近陆家浜路)"},{"poiid":"B2094757D569A3FA4198","title":"南码头","lon":"121.511367","lat":"31.205579","category":"201","category_name":"城市广场","address":"浦明路1888"},{"poiid":"B2094654DA68AAF84599","title":"谷泰滨江大厦","lon":"121.50619","lat":"31.213778","category":"46","category_name":"楼宇","address":"朝阳京城大厦西100米路北(新源里14号)"},{"poiid":"B2094751D36AA4FF4993","title":"景汇酒店","lon":"121.50783","lat":"31.21542","category":"72","category_name":"广东菜","address":"黄浦区外马路725号老码头二期五号库5-6楼"},{"poiid":"B2094654DB6BABF44892","title":"上海南外滩大楼","lon":"121.50641","lat":"31.21476","category":"46","category_name":"楼宇","address":"浦东新区金湘路225弄"},{"poiid":"B2094757D068A5FE409F","title":"黄浦区旅游集散中心 二楼携程VIP","lon":"121.501064","lat":"31.207764","category":"260","category_name":"其他","address":"上海外马路1588号"},{"poiid":"B2094655D265A0F5439E","title":"幸福码头(西门)","lon":"121.50463","lat":"31.21119","category":"47","category_name":"住宅区","address":"中山南路1029号"},{"poiid":"B2094757D068A6F9489E","title":"董家渡天主堂","lon":"121.504368429","lat":"31.2143143056","category":"245","category_name":"教堂","address":"黄浦区董家渡路175号(近万裕街)"},{"poiid":"B2094655D268A1FA4699","title":"如家快捷酒店上海南外滩店","lon":"121.50653","lat":"31.21198","category":"216","category_name":"经济型连锁酒店","address":"黄浦区中山南路943号(董家渡口)"},{"poiid":"B2094753D26BABF84899","title":"梅赛德斯奔驰文化中心","lon":"121.511778","lat":"31.210557","category":"500","category_name":"未知分类","address":"上海市 上海浦东世博大道1200号"},{"poiid":"B2094655D264A4F5479E","title":"中国人民财产保险公司大厦","lon":"121.50608","lat":"31.21533","category":"46","category_name":"楼宇","address":"行宫位于沈河北站一路41号"},{"poiid":"B2094757D064A0F94999","title":"黄浦区交警队","lon":"121.502949","lat":"31.208994","category":"500","category_name":"未知分类","address":"上海丰记码头街78号"},{"poiid":"B2094750D76FA3FC4993","title":"和容轩","lon":"121.511","lat":"31.2056","category":"76","category_name":"上海菜","address":"浦东新区浦明路1888号15号楼3楼(近微山路)"},{"poiid":"B2094750DB68A2FC4499","title":"浦江.四季 Seasons on the Bund","lon":"121.508255","lat":"31.206165","category":"247","category_name":"餐饮美食","address":"浦东新区浦明路1888弄21号(近东江高尔夫球场)"},{"poiid":"B2094750D56FA4F94798","title":"x密室","lon":"121.505592","lat":"31.21318","category":"248","category_name":"生活娱乐","address":null},{"poiid":"B2094753D76AA6FC499B","title":"宝燕壹号(滨江店)","lon":"121.51101","lat":"31.20368","category":"75","category_name":"浙江菜","address":"上海市浦东新区浦明路1999号云天地美食休闲广场内"},{"poiid":"B2094757D16AA6FE459A","title":"ZudemDACH 智同道合 文化传播","lon":"121.505297938","lat":"31.2090959498","category":"46","category_name":"楼宇","address":"上海黄浦区外马路1178号2-C座外码头创意产业园(近南浦大桥)"},{"poiid":"B2094757D068A4FA419F","title":"董家渡路轮渡","lon":"121.50824447","lat":"31.214948531","category":"35","category_name":"长途汽车站","address":"上海外马路737号"},{"poiid":"B2094655D268A4FB459D","title":"上海第二人民医院急诊","lon":"121.50534","lat":"31.20958","category":"162","category_name":"医院","address":"多稼路1"},{"poiid":"B2094757D469A3FB4992","title":"扬帆号","lon":"121.505928","lat":"31.209515","category":"94","category_name":"西餐厅","address":"外马路1178号上海亚艇游艇会近多稼路"},{"poiid":"B2094752D46CA5FD4193","title":"地铁四号线塘桥站","lon":"121.506742","lat":"31.209721","category":"500","category_name":"未知分类","address":null},{"poiid":"B2094757D66EA2FD459D","title":"Marlin Bay @ Shanghai Yacht Cl","lon":"121.50546173","lat":"31.208413835","category":"500","category_name":"未知分类","address":"1162 外马路 南外滩"},{"poiid":"B2094757D068A5F8419F","title":"黄浦区社会保险事业管理中心","lon":"121.501153","lat":"31.210839","category":"252","category_name":"楼宇机构","address":"上海黄浦区陆家浜路265号"},{"poiid":"B2094753D164ABFD429E","title":"丽思卡尔顿酒店","lon":"121.5079707","lat":"31.2091925","category":"500","category_name":"未知分类","address":"上海市 外滩黄浦江边"},{"poiid":"B2094654DA68A1FA419F","title":"新地大厦","lon":"121.504","lat":"31.2135","category":"46","category_name":"楼宇","address":"泰业公寓位于虹口四川北路1856弄20-22号"},{"poiid":"B2094654DA68A0FD4698","title":"海狮大厦","lon":"121.50265","lat":"31.20692","category":"46","category_name":"楼宇","address":"徐汇区田林路300号"},{"poiid":"B2094757D064A1FE4393","title":"嘉轩大酒店","lon":"121.50651","lat":"31.21271","category":"72","category_name":"广东菜","address":"黄浦区中山南路891号(近赖义码头街)"},{"poiid":"B209475CD768A0FF4499","title":"pulupulu主题游戏馆","lon":"121.504699","lat":"31.203042","category":"500","category_name":"未知分类","address":"上海市 苗江路139号"},{"poiid":"B2094655D26FA7FB4199","title":"上海市第二人民医院(南门)","lon":"121.50537","lat":"31.20995","category":"162","category_name":"医院","address":"多稼路1"},{"poiid":"B2094654DA68AAF84298","title":"张江商务大厦","lon":"121.50686","lat":"31.21231","category":"46","category_name":"楼宇","address":"沈河北站路与北京街的交汇处"},{"poiid":"B2094750DA6AA6FE4798","title":"上海文化广场","lon":"121.508308","lat":"31.210443","category":"500","category_name":"未知分类","address":null},{"poiid":"B2094757D66EA7F54698","title":"南浦大桥引桥","lon":"121.50467189","lat":"31.205788251","category":"500","category_name":"未知分类","address":"上海南浦大桥"},{"poiid":"B2094654DA68AAF9419F","title":"上海市会馆街环卫码头","lon":"121.50652","lat":"31.21088","category":"34","category_name":"港口码头","address":""},{"poiid":"B2094757D16DA2FE4598","title":"阳光里","lon":"121.50111","lat":"31.211866","category":"500","category_name":"未知分类","address":"上海市黄浦区陆家浜路305弄"},{"poiid":"B2094655D264A7FA4899","title":"幸福码头","lon":"121.50506","lat":"31.21097","category":"47","category_name":"住宅区","address":"黄浦区中山南路1029号幸福码头5号楼(近多稼路)"},{"poiid":"B2094655D26AA1FA4998","title":"黄浦旅游集散站","lon":"121.50134","lat":"31.20778","category":"35","category_name":"长途汽车站","address":"黄浦区外马路1588号"},{"poiid":"B2094757D06FA2FB459A","title":"艾福敦酒店 (Eiffelton Riverside Hotel Pudong Shanghai)","lon":"121.509251618","lat":"31.2056334725","category":"217","category_name":"旅馆招待所","address":"浦东新区浦明路1888号(近浦建路)"},{"poiid":"B2094757D06FA7FD4298","title":"薇拉宫邸(浦东店)","lon":"121.50889556","lat":"31.207375193","category":"95","category_name":"日本料理","address":"上海浦明路1888号5号楼"},{"poiid":"B2094757D06FA4F4429B","title":"上海市第二人民医院","lon":"121.50425317","lat":"31.210314152","category":"162","category_name":"医院","address":"黄浦区多稼路1号(近中山南路)"},{"poiid":"B2094757D06FA1F94793","title":"南码头轮渡","lon":"121.50582772","lat":"31.202802396","category":"260","category_name":"其他","address":"上海浦东新区南码头路1号摆渡口"},{"poiid":"B2094757D16CA2FD469D","title":"上海亚廷游艇会","lon":"121.505592","lat":"31.209361","category":"260","category_name":"其他","address":"黄浦区外马路1162号(近南浦大桥浦西桥墩)"},{"poiid":"B2094655D268A1FA459F","title":"东江高尔夫会所","lon":"121.51033","lat":"31.2083","category":"206","category_name":"高尔夫相关","address":"小南码头路5号"},{"poiid":"B2094757D169ABFE449D","title":"巴富仕游艇会","lon":"121.505978738","lat":"31.2121359146","category":"500","category_name":"未知分类","address":"上海市黄浦区幸福码头创意园区"},{"poiid":"B2094757DB68A5FA409B","title":"罗曼园高级婚礼会馆 外滩雅致英伦馆","lon":"121.50477647781","lat":"31.210635939807","category":"247","category_name":"餐饮美食","address":"长宁区中山西路1011号(近虹桥路)查看地图"},{"poiid":"B2094757D065A6FC4692","title":"HAVEN","lon":"121.50305603","lat":"31.211066691","category":"97","category_name":"法式菜品餐厅","address":"黄浦区中山南路1029号幸福码头3号楼(近多稼路)"},{"poiid":"B2094757DA6EABFB4999","title":"薇拉宫邸私人婚礼会所(南浦店)","lon":"121.509479","lat":"31.2066410000002","category":"248","category_name":"生活娱乐","address":"浦东新区浦明路1888号5号楼(近南浦大桥)查看地图"},{"poiid":"B2094654DA68A0FD469D","title":"帝龙海鲜舫","lon":"121.50427282682","lat":"31.206678575885","category":"76","category_name":"上海菜","address":"黄浦区外马路1333号(近南浦大桥)"},{"poiid":"B2094757D069AAFD4699","title":"东江高尔夫","lon":"121.50941473","lat":"31.205573774","category":"500","category_name":"未知分类","address":"上海市南码头路5号"},{"poiid":"B2094757D16DA2F9429C","title":"优艾贝国际月子会所","lon":"121.511133338","lat":"31.2068565021","category":"248","category_name":"生活娱乐","address":"浦东新区浦明路1888号(近南浦大桥)"},{"poiid":"B2094757D16CA4FF4198","title":"外码头上海创意产业聚集区","lon":"121.505065","lat":"31.208697","category":"46","category_name":"楼宇","address":"上海黄浦区外马路1178号"},{"poiid":"B2094654DA68A0FD4592","title":"上海南浦大桥长途旅游客运站","lon":"121.50129","lat":"31.20767","category":"35","category_name":"长途汽车站","address":"黄浦区外马路1588号(近陆家浜路)"},{"poiid":"B2094757D569A3FA4198","title":"南码头","lon":"121.511367","lat":"31.205579","category":"201","category_name":"城市广场","address":"浦明路1888"},{"poiid":"B2094654DA68AAF84599","title":"谷泰滨江大厦","lon":"121.50619","lat":"31.213778","category":"46","category_name":"楼宇","address":"朝阳京城大厦西100米路北(新源里14号)"},{"poiid":"B2094751D36AA4FF4993","title":"景汇酒店","lon":"121.50783","lat":"31.21542","category":"72","category_name":"广东菜","address":"黄浦区外马路725号老码头二期五号库5-6楼"},{"poiid":"B2094654DB6BABF44892","title":"上海南外滩大楼","lon":"121.50641","lat":"31.21476","category":"46","category_name":"楼宇","address":"浦东新区金湘路225弄"},{"poiid":"B2094757D068A5FE409F","title":"黄浦区旅游集散中心 二楼携程VIP","lon":"121.501064","lat":"31.207764","category":"260","category_name":"其他","address":"上海外马路1588号"},{"poiid":"B2094655D265A0F5439E","title":"幸福码头(西门)","lon":"121.50463","lat":"31.21119","category":"47","category_name":"住宅区","address":"中山南路1029号"},{"poiid":"B2094757D068A6F9489E","title":"董家渡天主堂","lon":"121.504368429","lat":"31.2143143056","category":"245","category_name":"教堂","address":"黄浦区董家渡路175号(近万裕街)"},{"poiid":"B2094655D268A1FA4699","title":"如家快捷酒店上海南外滩店","lon":"121.50653","lat":"31.21198","category":"216","category_name":"经济型连锁酒店","address":"黄浦区中山南路943号(董家渡口)"},{"poiid":"B2094753D26BABF84899","title":"梅赛德斯奔驰文化中心","lon":"121.511778","lat":"31.210557","category":"500","category_name":"未知分类","address":"上海市 上海浦东世博大道1200号"},{"poiid":"B2094655D264A4F5479E","title":"中国人民财产保险公司大厦","lon":"121.50608","lat":"31.21533","category":"46","category_name":"楼宇","address":"行宫位于沈河北站一路41号"},{"poiid":"B2094757D064A0F94999","title":"黄浦区交警队","lon":"121.502949","lat":"31.208994","category":"500","category_name":"未知分类","address":"上海丰记码头街78号"},{"poiid":"B2094750D76FA3FC4993","title":"和容轩","lon":"121.511","lat":"31.2056","category":"76","category_name":"上海菜","address":"浦东新区浦明路1888号15号楼3楼(近微山路)"},{"poiid":"B2094750DB68A2FC4499","title":"浦江.四季 Seasons on the Bund","lon":"121.508255","lat":"31.206165","category":"247","category_name":"餐饮美食","address":"浦东新区浦明路1888弄21号(近东江高尔夫球场)"},{"poiid":"B2094750D56FA4F94798","title":"x密室","lon":"121.505592","lat":"31.21318","category":"248","category_name":"生活娱乐","address":null},{"poiid":"B2094753D76AA6FC499B","title":"宝燕壹号(滨江店)","lon":"121.51101","lat":"31.20368","category":"75","category_name":"浙江菜","address":"上海市浦东新区浦明路1999号云天地美食休闲广场内"},{"poiid":"B2094757D16AA6FE459A","title":"ZudemDACH 智同道合 文化传播","lon":"121.505297938","lat":"31.2090959498","category":"46","category_name":"楼宇","address":"上海黄浦区外马路1178号2-C座外码头创意产业园(近南浦大桥)"},{"poiid":"B2094757D068A4FA419F","title":"董家渡路轮渡","lon":"121.50824447","lat":"31.214948531","category":"35","category_name":"长途汽车站","address":"上海外马路737号"},{"poiid":"B2094655D268A4FB459D","title":"上海第二人民医院急诊","lon":"121.50534","lat":"31.20958","category":"162","category_name":"医院","address":"多稼路1"},{"poiid":"B2094757D469A3FB4992","title":"扬帆号","lon":"121.505928","lat":"31.209515","category":"94","category_name":"西餐厅","address":"外马路1178号上海亚艇游艇会近多稼路"},{"poiid":"B2094752D46CA5FD4193","title":"地铁四号线塘桥站","lon":"121.506742","lat":"31.209721","category":"500","category_name":"未知分类","address":null},{"poiid":"B2094757D66EA2FD459D","title":"Marlin Bay @ Shanghai Yacht Cl","lon":"121.50546173","lat":"31.208413835","category":"500","category_name":"未知分类","address":"1162 外马路 南外滩"},{"poiid":"B2094757D068A5F8419F","title":"黄浦区社会保险事业管理中心","lon":"121.501153","lat":"31.210839","category":"252","category_name":"楼宇机构","address":"上海黄浦区陆家浜路265号"},{"poiid":"B2094753D164ABFD429E","title":"丽思卡尔顿酒店","lon":"121.5079707","lat":"31.2091925","category":"500","category_name":"未知分类","address":"上海市 外滩黄浦江边"},{"poiid":"B2094654DA68A1FA419F","title":"新地大厦","lon":"121.504","lat":"31.2135","category":"46","category_name":"楼宇","address":"泰业公寓位于虹口四川北路1856弄20-22号"},{"poiid":"B2094654DA68A0FD4698","title":"海狮大厦","lon":"121.50265","lat":"31.20692","category":"46","category_name":"楼宇","address":"徐汇区田林路300号"},{"poiid":"B2094757D064A1FE4393","title":"嘉轩大酒店","lon":"121.50651","lat":"31.21271","category":"72","category_name":"广东菜","address":"黄浦区中山南路891号(近赖义码头街)"},{"poiid":"B209475CD768A0FF4499","title":"pulupulu主题游戏馆","lon":"121.504699","lat":"31.203042","category":"500","category_name":"未知分类","address":"上海市 苗江路139号"},{"poiid":"B2094655D26FA7FB4199","title":"上海市第二人民医院(南门)","lon":"121.50537","lat":"31.20995","category":"162","category_name":"医院","address":"多稼路1"},{"poiid":"B2094654DA68AAF84298","title":"张江商务大厦","lon":"121.50686","lat":"31.21231","category":"46","category_name":"楼宇","address":"沈河北站路与北京街的交汇处"},{"poiid":"B2094750DA6AA6FE4798","title":"上海文化广场","lon":"121.508308","lat":"31.210443","category":"500","category_name":"未知分类","address":null},{"poiid":"B2094757D66EA7F54698","title":"南浦大桥引桥","lon":"121.50467189","lat":"31.205788251","category":"500","category_name":"未知分类","address":"上海南浦大桥"},{"poiid":"B2094654DA68AAF9419F","title":"上海市会馆街环卫码头","lon":"121.50652","lat":"31.21088","category":"34","category_name":"港口码头","address":""},{"poiid":"B2094757D16DA2FE4598","title":"阳光里","lon":"121.50111","lat":"31.211866","category":"500","category_name":"未知分类","address":"上海市黄浦区陆家浜路305弄"},{"poiid":"B2094655D264A7FA4899","title":"幸福码头","lon":"121.50506","lat":"31.21097","category":"47","category_name":"住宅区","address":"黄浦区中山南路1029号幸福码头5号楼(近多稼路)"},{"poiid":"B2094655D26AA1FA4998","title":"黄浦旅游集散站","lon":"121.50134","lat":"31.20778","category":"35","category_name":"长途汽车站","address":"黄浦区外马路1588号"},{"poiid":"B2094757D06FA2FB459A","title":"艾福敦酒店 (Eiffelton Riverside Hotel Pudong Shanghai)","lon":"121.509251618","lat":"31.2056334725","category":"217","category_name":"旅馆招待所","address":"浦东新区浦明路1888号(近浦建路)"},{"poiid":"B2094757D06FA7FD4298","title":"薇拉宫邸(浦东店)","lon":"121.50889556","lat":"31.207375193","category":"95","category_name":"日本料理","address":"上海浦明路1888号5号楼"},{"poiid":"B2094757D06FA4F4429B","title":"上海市第二人民医院","lon":"121.50425317","lat":"31.210314152","category":"162","category_name":"医院","address":"黄浦区多稼路1号(近中山南路)"},{"poiid":"B2094757D06FA1F94793","title":"南码头轮渡","lon":"121.50582772","lat":"31.202802396","category":"260","category_name":"其他","address":"上海浦东新区南码头路1号摆渡口"},{"poiid":"B2094757D16CA2FD469D","title":"上海亚廷游艇会","lon":"121.505592","lat":"31.209361","category":"260","category_name":"其他","address":"黄浦区外马路1162号(近南浦大桥浦西桥墩)"},{"poiid":"B2094655D268A1FA459F","title":"东江高尔夫会所","lon":"121.51033","lat":"31.2083","category":"206","category_name":"高尔夫相关","address":"小南码头路5号"},{"poiid":"B2094757D169ABFE449D","title":"巴富仕游艇会","lon":"121.505978738","lat":"31.2121359146","category":"500","category_name":"未知分类","address":"上海市黄浦区幸福码头创意园区"},{"poiid":"B2094757DB68A5FA409B","title":"罗曼园高级婚礼会馆 外滩雅致英伦馆","lon":"121.50477647781","lat":"31.210635939807","category":"247","category_name":"餐饮美食","address":"长宁区中山西路1011号(近虹桥路)查看地图"},{"poiid":"B2094757D065A6FC4692","title":"HAVEN","lon":"121.50305603","lat":"31.211066691","category":"97","category_name":"法式菜品餐厅","address":"黄浦区中山南路1029号幸福码头3号楼(近多稼路)"},{"poiid":"B2094757DA6EABFB4999","title":"薇拉宫邸私人婚礼会所(南浦店)","lon":"121.509479","lat":"31.2066410000002","category":"248","category_name":"生活娱乐","address":"浦东新区浦明路1888号5号楼(近南浦大桥)查看地图"},{"poiid":"B2094654DA68A0FD469D","title":"帝龙海鲜舫","lon":"121.50427282682","lat":"31.206678575885","category":"76","category_name":"上海菜","address":"黄浦区外马路1333号(近南浦大桥)"},{"poiid":"B2094757D069AAFD4699","title":"东江高尔夫","lon":"121.50941473","lat":"31.205573774","category":"500","category_name":"未知分类","address":"上海市南码头路5号"},{"poiid":"B2094757D16DA2F9429C","title":"优艾贝国际月子会所","lon":"121.511133338","lat":"31.2068565021","category":"248","category_name":"生活娱乐","address":"浦东新区浦明路1888号(近南浦大桥)"},{"poiid":"B2094757D16CA4FF4198","title":"外码头上海创意产业聚集区","lon":"121.505065","lat":"31.208697","category":"46","category_name":"楼宇","address":"上海黄浦区外马路1178号"},{"poiid":"B2094654DA68A0FD4592","title":"上海南浦大桥长途旅游客运站","lon":"121.50129","lat":"31.20767","category":"35","category_name":"长途汽车站","address":"黄浦区外马路1588号(近陆家浜路)"},{"poiid":"B2094757D569A3FA4198","title":"南码头","lon":"121.511367","lat":"31.205579","category":"201","category_name":"城市广场","address":"浦明路1888"},{"poiid":"B2094654DA68AAF84599","title":"谷泰滨江大厦","lon":"121.50619","lat":"31.213778","category":"46","category_name":"楼宇","address":"朝阳京城大厦西100米路北(新源里14号)"},{"poiid":"B2094751D36AA4FF4993","title":"景汇酒店","lon":"121.50783","lat":"31.21542","category":"72","category_name":"广东菜","address":"黄浦区外马路725号老码头二期五号库5-6楼"},{"poiid":"B2094654DB6BABF44892","title":"上海南外滩大楼","lon":"121.50641","lat":"31.21476","category":"46","category_name":"楼宇","address":"浦东新区金湘路225弄"},{"poiid":"B2094757D068A5FE409F","title":"黄浦区旅游集散中心 二楼携程VIP","lon":"121.501064","lat":"31.207764","category":"260","category_name":"其他","address":"上海外马路1588号"},{"poiid":"B2094655D265A0F5439E","title":"幸福码头(西门)","lon":"121.50463","lat":"31.21119","category":"47","category_name":"住宅区","address":"中山南路1029号"},{"poiid":"B2094757D068A6F9489E","title":"董家渡天主堂","lon":"121.504368429","lat":"31.2143143056","category":"245","category_name":"教堂","address":"黄浦区董家渡路175号(近万裕街)"},{"poiid":"B2094655D268A1FA4699","title":"如家快捷酒店上海南外滩店","lon":"121.50653","lat":"31.21198","category":"216","category_name":"经济型连锁酒店","address":"黄浦区中山南路943号(董家渡口)"},{"poiid":"B2094753D26BABF84899","title":"梅赛德斯奔驰文化中心","lon":"121.511778","lat":"31.210557","category":"500","category_name":"未知分类","address":"上海市 上海浦东世博大道1200号"},{"poiid":"B2094655D264A4F5479E","title":"中国人民财产保险公司大厦","lon":"121.50608","lat":"31.21533","category":"46","category_name":"楼宇","address":"行宫位于沈河北站一路41号"},{"poiid":"B2094757D064A0F94999","title":"黄浦区交警队","lon":"121.502949","lat":"31.208994","category":"500","category_name":"未知分类","address":"上海丰记码头街78号"},{"poiid":"B2094750D76FA3FC4993","title":"和容轩","lon":"121.511","lat":"31.2056","category":"76","category_name":"上海菜","address":"浦东新区浦明路1888号15号楼3楼(近微山路)"},{"poiid":"B2094750DB68A2FC4499","title":"浦江.四季 Seasons on the Bund","lon":"121.508255","lat":"31.206165","category":"247","category_name":"餐饮美食","address":"浦东新区浦明路1888弄21号(近东江高尔夫球场)"},{"poiid":"B2094750D56FA4F94798","title":"x密室","lon":"121.505592","lat":"31.21318","category":"248","category_name":"生活娱乐","address":null},{"poiid":"B2094753D76AA6FC499B","title":"宝燕壹号(滨江店)","lon":"121.51101","lat":"31.20368","category":"75","category_name":"浙江菜","address":"上海市浦东新区浦明路1999号云天地美食休闲广场内"},{"poiid":"B2094757D16AA6FE459A","title":"ZudemDACH 智同道合 文化传播","lon":"121.505297938","lat":"31.2090959498","category":"46","category_name":"楼宇","address":"上海黄浦区外马路1178号2-C座外码头创意产业园(近南浦大桥)"},{"poiid":"B2094757D068A4FA419F","title":"董家渡路轮渡","lon":"121.50824447","lat":"31.214948531","category":"35","category_name":"长途汽车站","address":"上海外马路737号"},{"poiid":"B2094655D268A4FB459D","title":"上海第二人民医院急诊","lon":"121.50534","lat":"31.20958","category":"162","category_name":"医院","address":"多稼路1"},{"poiid":"B2094757D469A3FB4992","title":"扬帆号","lon":"121.505928","lat":"31.209515","category":"94","category_name":"西餐厅","address":"外马路1178号上海亚艇游艇会近多稼路"},{"poiid":"B2094752D46CA5FD4193","title":"地铁四号线塘桥站","lon":"121.506742","lat":"31.209721","category":"500","category_name":"未知分类","address":null},{"poiid":"B2094757D66EA2FD459D","title":"Marlin Bay @ Shanghai Yacht Cl","lon":"121.50546173","lat":"31.208413835","category":"500","category_name":"未知分类","address":"1162 外马路 南外滩"},{"poiid":"B2094757D068A5F8419F","title":"黄浦区社会保险事业管理中心","lon":"121.501153","lat":"31.210839","category":"252","category_name":"楼宇机构","address":"上海黄浦区陆家浜路265号"},{"poiid":"B2094753D164ABFD429E","title":"丽思卡尔顿酒店","lon":"121.5079707","lat":"31.2091925","category":"500","category_name":"未知分类","address":"上海市 外滩黄浦江边"},{"poiid":"B2094654DA68A1FA419F","title":"新地大厦","lon":"121.504","lat":"31.2135","category":"46","category_name":"楼宇","address":"泰业公寓位于虹口四川北路1856弄20-22号"},{"poiid":"B2094654DA68A0FD4698","title":"海狮大厦","lon":"121.50265","lat":"31.20692","category":"46","category_name":"楼宇","address":"徐汇区田林路300号"},{"poiid":"B2094757D064A1FE4393","title":"嘉轩大酒店","lon":"121.50651","lat":"31.21271","category":"72","category_name":"广东菜","address":"黄浦区中山南路891号(近赖义码头街)"},{"poiid":"B209475CD768A0FF4499","title":"pulupulu主题游戏馆","lon":"121.504699","lat":"31.203042","category":"500","category_name":"未知分类","address":"上海市 苗江路139号"},{"poiid":"B2094655D26FA7FB4199","title":"上海市第二人民医院(南门)","lon":"121.50537","lat":"31.20995","category":"162","category_name":"医院","address":"多稼路1"},{"poiid":"B2094654DA68AAF84298","title":"张江商务大厦","lon":"121.50686","lat":"31.21231","category":"46","category_name":"楼宇","address":"沈河北站路与北京街的交汇处"},{"poiid":"B2094750DA6AA6FE4798","title":"上海文化广场","lon":"121.508308","lat":"31.210443","category":"500","category_name":"未知分类","address":null},{"poiid":"B2094757D66EA7F54698","title":"南浦大桥引桥","lon":"121.50467189","lat":"31.205788251","category":"500","category_name":"未知分类","address":"上海南浦大桥"},{"poiid":"B2094654DA68AAF9419F","title":"上海市会馆街环卫码头","lon":"121.50652","lat":"31.21088","category":"34","category_name":"港口码头","address":""},{"poiid":"B2094757D16DA2FE4598","title":"阳光里","lon":"121.50111","lat":"31.211866","category":"500","category_name":"未知分类","address":"上海市黄浦区陆家浜路305弄"},{"poiid":"B2094655D264A7FA4899","title":"幸福码头","lon":"121.50506","lat":"31.21097","category":"47","category_name":"住宅区","address":"黄浦区中山南路1029号幸福码头5号楼(近多稼路)"},{"poiid":"B2094655D26AA1FA4998","title":"黄浦旅游集散站","lon":"121.50134","lat":"31.20778","category":"35","category_name":"长途汽车站","address":"黄浦区外马路1588号"},{"poiid":"B2094757D06FA2FB459A","title":"艾福敦酒店 (Eiffelton Riverside Hotel Pudong Shanghai)","lon":"121.509251618","lat":"31.2056334725","category":"217","category_name":"旅馆招待所","address":"浦东新区浦明路1888号(近浦建路)"},{"poiid":"B2094757D06FA7FD4298","title":"薇拉宫邸(浦东店)","lon":"121.50889556","lat":"31.207375193","category":"95","category_name":"日本料理","address":"上海浦明路1888号5号楼"},{"poiid":"B2094757D06FA4F4429B","title":"上海市第二人民医院","lon":"121.50425317","lat":"31.210314152","category":"162","category_name":"医院","address":"黄浦区多稼路1号(近中山南路)"},{"poiid":"B2094757D06FA1F94793","title":"南码头轮渡","lon":"121.50582772","lat":"31.202802396","category":"260","category_name":"其他","address":"上海浦东新区南码头路1号摆渡口"},{"poiid":"B2094757D16CA2FD469D","title":"上海亚廷游艇会","lon":"121.505592","lat":"31.209361","category":"260","category_name":"其他","address":"黄浦区外马路1162号(近南浦大桥浦西桥墩)"},{"poiid":"B2094655D268A1FA459F","title":"东江高尔夫会所","lon":"121.51033","lat":"31.2083","category":"206","category_name":"高尔夫相关","address":"小南码头路5号"},{"poiid":"B2094757D169ABFE449D","title":"巴富仕游艇会","lon":"121.505978738","lat":"31.2121359146","category":"500","category_name":"未知分类","address":"上海市黄浦区幸福码头创意园区"},{"poiid":"B2094757DB68A5FA409B","title":"罗曼园高级婚礼会馆 外滩雅致英伦馆","lon":"121.50477647781","lat":"31.210635939807","category":"247","category_name":"餐饮美食","address":"长宁区中山西路1011号(近虹桥路)查看地图"},{"poiid":"B2094757D065A6FC4692","title":"HAVEN","lon":"121.50305603","lat":"31.211066691","category":"97","category_name":"法式菜品餐厅","address":"黄浦区中山南路1029号幸福码头3号楼(近多稼路)"},{"poiid":"B2094757DA6EABFB4999","title":"薇拉宫邸私人婚礼会所(南浦店)","lon":"121.509479","lat":"31.2066410000002","category":"248","category_name":"生活娱乐","address":"浦东新区浦明路1888号5号楼(近南浦大桥)查看地图"},{"poiid":"B2094654DA68A0FD469D","title":"帝龙海鲜舫","lon":"121.50427282682","lat":"31.206678575885","category":"76","category_name":"上海菜","address":"黄浦区外马路1333号(近南浦大桥)"},{"poiid":"B2094757D069AAFD4699","title":"东江高尔夫","lon":"121.50941473","lat":"31.205573774","category":"500","category_name":"未知分类","address":"上海市南码头路5号"},{"poiid":"B2094757D16DA2F9429C","title":"优艾贝国际月子会所","lon":"121.511133338","lat":"31.2068565021","category":"248","category_name":"生活娱乐","address":"浦东新区浦明路1888号(近南浦大桥)"},{"poiid":"B2094757D16CA4FF4198","title":"外码头上海创意产业聚集区","lon":"121.505065","lat":"31.208697","category":"46","category_name":"楼宇","address":"上海黄浦区外马路1178号"},{"poiid":"B2094654DA68A0FD4592","title":"上海南浦大桥长途旅游客运站","lon":"121.50129","lat":"31.20767","category":"35","category_name":"长途汽车站","address":"黄浦区外马路1588号(近陆家浜路)"},{"poiid":"B2094757D569A3FA4198","title":"南码头","lon":"121.511367","lat":"31.205579","category":"201","category_name":"城市广场","address":"浦明路1888"},{"poiid":"B2094654DA68AAF84599","title":"谷泰滨江大厦","lon":"121.50619","lat":"31.213778","category":"46","category_name":"楼宇","address":"朝阳京城大厦西100米路北(新源里14号)"},{"poiid":"B2094751D36AA4FF4993","title":"景汇酒店","lon":"121.50783","lat":"31.21542","category":"72","category_name":"广东菜","address":"黄浦区外马路725号老码头二期五号库5-6楼"},{"poiid":"B2094654DB6BABF44892","title":"上海南外滩大楼","lon":"121.50641","lat":"31.21476","category":"46","category_name":"楼宇","address":"浦东新区金湘路225弄"},{"poiid":"B2094757D068A5FE409F","title":"黄浦区旅游集散中心 二楼携程VIP","lon":"121.501064","lat":"31.207764","category":"260","category_name":"其他","address":"上海外马路1588号"},{"poiid":"B2094655D265A0F5439E","title":"幸福码头(西门)","lon":"121.50463","lat":"31.21119","category":"47","category_name":"住宅区","address":"中山南路1029号"},{"poiid":"B2094757D068A6F9489E","title":"董家渡天主堂","lon":"121.504368429","lat":"31.2143143056","category":"245","category_name":"教堂","address":"黄浦区董家渡路175号(近万裕街)"},{"poiid":"B2094655D268A1FA4699","title":"如家快捷酒店上海南外滩店","lon":"121.50653","lat":"31.21198","category":"216","category_name":"经济型连锁酒店","address":"黄浦区中山南路943号(董家渡口)"},{"poiid":"B2094753D26BABF84899","title":"梅赛德斯奔驰文化中心","lon":"121.511778","lat":"31.210557","category":"500","category_name":"未知分类","address":"上海市 上海浦东世博大道1200号"},{"poiid":"B2094655D264A4F5479E","title":"中国人民财产保险公司大厦","lon":"121.50608","lat":"31.21533","category":"46","category_name":"楼宇","address":"行宫位于沈河北站一路41号"},{"poiid":"B2094757D064A0F94999","title":"黄浦区交警队","lon":"121.502949","lat":"31.208994","category":"500","category_name":"未知分类","address":"上海丰记码头街78号"},{"poiid":"B2094750D76FA3FC4993","title":"和容轩","lon":"121.511","lat":"31.2056","category":"76","category_name":"上海菜","address":"浦东新区浦明路1888号15号楼3楼(近微山路)"},{"poiid":"B2094750DB68A2FC4499","title":"浦江.四季 Seasons on the Bund","lon":"121.508255","lat":"31.206165","category":"247","category_name":"餐饮美食","address":"浦东新区浦明路1888弄21号(近东江高尔夫球场)"},{"poiid":"B2094750D56FA4F94798","title":"x密室","lon":"121.505592","lat":"31.21318","category":"248","category_name":"生活娱乐","address":null},{"poiid":"B2094753D76AA6FC499B","title":"宝燕壹号(滨江店)","lon":"121.51101","lat":"31.20368","category":"75","category_name":"浙江菜","address":"上海市浦东新区浦明路1999号云天地美食休闲广场内"},{"poiid":"B2094757D16AA6FE459A","title":"ZudemDACH 智同道合 文化传播","lon":"121.505297938","lat":"31.2090959498","category":"46","category_name":"楼宇","address":"上海黄浦区外马路1178号2-C座外码头创意产业园(近南浦大桥)"},{"poiid":"B2094757D068A4FA419F","title":"董家渡路轮渡","lon":"121.50824447","lat":"31.214948531","category":"35","category_name":"长途汽车站","address":"上海外马路737号"},{"poiid":"B2094655D268A4FB459D","title":"上海第二人民医院急诊","lon":"121.50534","lat":"31.20958","category":"162","category_name":"医院","address":"多稼路1"},{"poiid":"B2094757D469A3FB4992","title":"扬帆号","lon":"121.505928","lat":"31.209515","category":"94","category_name":"西餐厅","address":"外马路1178号上海亚艇游艇会近多稼路"},{"poiid":"B2094752D46CA5FD4193","title":"地铁四号线塘桥站","lon":"121.506742","lat":"31.209721","category":"500","category_name":"未知分类","address":null},{"poiid":"B2094757D66EA2FD459D","title":"Marlin Bay @ Shanghai Yacht Cl","lon":"121.50546173","lat":"31.208413835","category":"500","category_name":"未知分类","address":"1162 外马路 南外滩"},{"poiid":"B2094757D068A5F8419F","title":"黄浦区社会保险事业管理中心","lon":"121.501153","lat":"31.210839","category":"252","category_name":"楼宇机构","address":"上海黄浦区陆家浜路265号"},{"poiid":"B2094753D164ABFD429E","title":"丽思卡尔顿酒店","lon":"121.5079707","lat":"31.2091925","category":"500","category_name":"未知分类","address":"上海市 外滩黄浦江边"},{"poiid":"B2094654DA68A1FA419F","title":"新地大厦","lon":"121.504","lat":"31.2135","category":"46","category_name":"楼宇","address":"泰业公寓位于虹口四川北路1856弄20-22号"},{"poiid":"B2094654DA68A0FD4698","title":"海狮大厦","lon":"121.50265","lat":"31.20692","category":"46","category_name":"楼宇","address":"徐汇区田林路300号"},{"poiid":"B2094757D064A1FE4393","title":"嘉轩大酒店","lon":"121.50651","lat":"31.21271","category":"72","category_name":"广东菜","address":"黄浦区中山南路891号(近赖义码头街)"},{"poiid":"B209475CD768A0FF4499","title":"pulupulu主题游戏馆","lon":"121.504699","lat":"31.203042","category":"500","category_name":"未知分类","address":"上海市 苗江路139号"},{"poiid":"B2094655D26FA7FB4199","title":"上海市第二人民医院(南门)","lon":"121.50537","lat":"31.20995","category":"162","category_name":"医院","address":"多稼路1"},{"poiid":"B2094654DA68AAF84298","title":"张江商务大厦","lon":"121.50686","lat":"31.21231","category":"46","category_name":"楼宇","address":"沈河北站路与北京街的交汇处"},{"poiid":"B2094750DA6AA6FE4798","title":"上海文化广场","lon":"121.508308","lat":"31.210443","category":"500","category_name":"未知分类","address":null},{"poiid":"B2094757D66EA7F54698","title":"南浦大桥引桥","lon":"121.50467189","lat":"31.205788251","category":"500","category_name":"未知分类","address":"上海南浦大桥"},{"poiid":"B2094654DA68AAF9419F","title":"上海市会馆街环卫码头","lon":"121.50652","lat":"31.21088","category":"34","category_name":"港口码头","address":""},{"poiid":"B2094757D16DA2FE4598","title":"阳光里","lon":"121.50111","lat":"31.211866","category":"500","category_name":"未知分类","address":"上海市黄浦区陆家浜路305弄"}]