[{"poiid":"B2094654DB6AA6F84692","title":"上海千禧海鸥大酒店","lon":"121.39518","lat":"31.19704","category":"112","category_name":"糕饼店","address":"长宁区延安西路2588号千禧海鸥大酒店1楼(近古北家乐福)"},{"poiid":"B2094655D268A1F94593","title":"黄金城道步行街","lon":"121.3995","lat":"31.19536","category":"116","category_name":"特色商业街","address":""},{"poiid":"B2094654DB64AAFA4992","title":"东银中心A楼","lon":"121.39951","lat":"31.19861","category":"46","category_name":"楼宇","address":"红宝石路500号"},{"poiid":"B2094757D06FAAFB449C","title":"苏浙汇(虹桥店)","lon":"121.39641","lat":"31.19861","category":"75","category_name":"浙江菜","address":"上海长宁区延安西路2558号A楼  "},{"poiid":"B2094757D06FA0FD429F","title":"Wagas沃歌斯(古北店)","lon":"121.39416","lat":"31.19637","category":"94","category_name":"西餐厅","address":"长宁区水城南路268号家乐福1楼(近延安西路)"},{"poiid":"B2094757DA64AAF9479A","title":"台北纯K","lon":"121.397313","lat":"31.199114","category":"248","category_name":"生活娱乐","address":"天山路431号"},{"poiid":"B2094757D068A1FF419B","title":"鹿港老镇","lon":"121.39703258","lat":"31.195483751","category":"500","category_name":"未知分类","address":"上海市长宁区黄金城道778号(古北路)"},{"poiid":"B2094757D16CAAF8409C","title":"平壤高丽餐厅","lon":"121.397864586","lat":"31.19540175","category":"96","category_name":"韩国料理","address":"长宁区古北路1088号2楼(近中信银行)"},{"poiid":"B2094757D068AAFE4492","title":"星巴克(东银中心店)","lon":"121.399228","lat":"31.197697","category":"65","category_name":"咖啡厅","address":"长宁区红宝石路500号东银中心后(近金珠路)"},{"poiid":"B2094654DB64AAFA459E","title":"东银中心B楼","lon":"121.39952","lat":"31.19861","category":"46","category_name":"楼宇","address":"红宝石路500号"},{"poiid":"B2094655D268A1FC499D","title":"彩色盘","lon":"121.4002","lat":"31.1977","category":"65","category_name":"咖啡厅","address":""},{"poiid":"B2094655D26CABFA439C","title":"上海市工人疗养院(延安西路)","lon":"121.3977","lat":"31.19862","category":"207","category_name":"度假疗养场所","address":"延安西路2558"},{"poiid":"B2094654DB64AAF4419A","title":"华越楼No.1","lon":"121.39712","lat":"31.19486","category":"99","category_name":"泰国／越南菜品餐厅","address":"长宁区黄金城道781号(近古北路)"},{"poiid":"B2094757D069A1FE4093","title":"陵水酒家","lon":"121.39535","lat":"31.19536","category":"96","category_name":"韩国料理","address":"长宁区荣华东道119弄2号巴黎花园B楼107号(近水城南路)"},{"poiid":"B2094757D66BA6F9489D","title":"早安巴黎 黄金城道店 Bon Matin","lon":"121.398810054","lat":"31.195088793","category":"112","category_name":"糕饼店","address":"长宁区黄金城道506号(近伊犁南路)"},{"poiid":"B2094757D064AAFB489A","title":"美兆体检中心","lon":"121.39662","lat":"31.19834","category":"162","category_name":"医院","address":"长宁区延安西路2558号工人疗养院6-8楼(近古北路)"},{"poiid":"B2094757D069A1FD4998","title":"东银中心 Cisco System","lon":"121.399237","lat":"31.198137","category":"46","category_name":"楼宇","address":"上海长宁区红宝石路500号"},{"poiid":"B2094757D66AAAFF4598","title":"涟波 SAZANAMI","lon":"121.39484837119","lat":"31.19537499377","category":"95","category_name":"日本料理","address":"长宁区荣华东道121号(近家乐福)"},{"poiid":"B2094753D36FA2F8419D","title":"70后饭吧","lon":"121.400135","lat":"31.196805","category":"247","category_name":"餐饮美食","address":"上海市 天山路900号汇金百货B1 F"},{"poiid":"B2094655D26EA0FE469B","title":"上海康柏苑大酒店","lon":"121.39605","lat":"31.19849","category":"250","category_name":"公园户外","address":"长宁区延安西路2558号(近水城路)"},{"poiid":"B2094757D169A1F9459B","title":"國貿中心","lon":"121.39606758","lat":"31.197791796","category":"500","category_name":"未知分类","address":"上海市長寧區延安西路婁山關路口"},{"poiid":"B2094655D268A1F94592","title":"御翠豪庭(银珠路)","lon":"121.39987","lat":"31.19627","category":"47","category_name":"住宅区","address":"长宁区黄金城道688号"},{"poiid":"B2094757D06AA5FD4992","title":"里の水","lon":"121.39682","lat":"31.19424","category":"95","category_name":"日本料理","address":"长宁区荣华东道57弄1号102(近古北路)"},{"poiid":"B2094654DB65A1FA4692","title":"康乃馨食府","lon":"121.39944","lat":"31.1981","category":"76","category_name":"上海菜","address":"长宁区虹桥路1446号古北湾大酒店2楼(近古北路)"},{"poiid":"B2094757D068A1FE4792","title":"CAT&amp;JAZZ","lon":"121.3972","lat":"31.1955","category":"260","category_name":"其他","address":"上海长宁区荣华东道79弄马赛花园3号301室(近古北路)"},{"poiid":"B2094751DA6DA2F94592","title":"名藏","lon":"121.397719","lat":"31.199636","category":"247","category_name":"餐饮美食","address":"虹桥路1438号高岛屋7F"},{"poiid":"B2094757D06AABFF469D","title":"凯司令西点房(古北店)","lon":"121.39919","lat":"31.19504","category":"67","category_name":"甜品店","address":"长宁区黄金城道727号(近古北路)"},{"poiid":"B2094654DB69AAFB4898","title":"千禧海鸥大酒店欧咖啡餐厅","lon":"121.39518","lat":"31.19704","category":"268","category_name":"自助","address":"长宁区延安西路2588号千禧海鸥大酒店1楼(近古北家乐福)"},{"poiid":"B2094655D268A3FB449D","title":"马来西亚总领事馆(红宝石路)","lon":"121.39944","lat":"31.19811","category":"252","category_name":"楼宇机构","address":"红宝石路500号东银中心9层01"},{"poiid":"B2094757D169A3FD499A","title":"西郊宾馆四季厅","lon":"121.39558958","lat":"31.198316807","category":"217","category_name":"旅馆招待所","address":"上海市长宁区水城路"},{"poiid":"B2094757D068ABFC429E","title":"卡布拉蛋糕专卖店(古北店)","lon":"121.39712","lat":"31.19483","category":"67","category_name":"甜品店","address":"长宁区黄金城道818号(近古北路)"},{"poiid":"B2094757D66CA0FF449F","title":"樱花门诊部","lon":"121.39635258","lat":"31.197623793","category":"162","category_name":"医院","address":"上海市长宁区虹桥路"},{"poiid":"B2094757D069A5F8479F","title":"延虹绿地","lon":"121.39722","lat":"31.19977","category":"196","category_name":"公园","address":"上海长宁区虹桥路(近古北路)  "},{"poiid":"B2094757D16DA5F8469D","title":"光琳","lon":"121.399091054","lat":"31.198257793","category":"95","category_name":"日本料理","address":"长宁区红宝石路500号东银中心1楼(古北路口)"},{"poiid":"B2094757D16DA0FD4398","title":"上海市舞蹈学校","lon":"121.39723968","lat":"31.197357177","category":"253","category_name":"校园生活","address":"长宁区虹桥路1674号"},{"poiid":"B2094751DB6BA7F4489F","title":"角落咖啡","lon":"121.39719","lat":"31.19601","category":"247","category_name":"餐饮美食","address":"长宁区荣华东道82号(近古北路)"},{"poiid":"B2094757D464A7FF4592","title":"伊豆日本烧肉","lon":"121.39578130603","lat":"31.194834981876","category":"247","category_name":"餐饮美食","address":"长宁区黄金城道856号(水城南路和古北南路之间)"},{"poiid":"B2094757D06BABFB4992","title":"赛百味(金珠路店)","lon":"121.39931458","lat":"31.197882798","category":"94","category_name":"西餐厅","address":"长宁区金珠路50号(近红宝石路)"},{"poiid":"B2094654D564A2F8429B","title":"古北太阳广场","lon":"121.39725","lat":"31.196352","category":"47","category_name":"住宅区","address":"古北太阳广场位于长宁荣华东道88号"},{"poiid":"B2094757D06FA2FF439F","title":"Le Bonheur 莱贝法式手工酸奶","lon":"121.39259","lat":"31.19999","category":"113","category_name":"冷饮店","address":"长宁区虹桥路1665号洛城广场C105号商铺(近水城路)"},{"poiid":"B2094655D268A7FD409E","title":"Sun Cafe & Bakery","lon":"121.3971","lat":"31.1963","category":"113","category_name":"冷饮店","address":""},{"poiid":"B2094752D26AAAF54698","title":"糖朝","lon":"121.400162","lat":"31.196747","category":"247","category_name":"餐饮美食","address":"高岛屋百货"},{"poiid":"B2094655D268A4F5459B","title":"维多利亚高级商务楼","lon":"121.3967","lat":"31.19627","category":"46","category_name":"楼宇","address":""},{"poiid":"B2094752D269A2F5469F","title":"高岛百货","lon":"121.399176","lat":"31.199084","category":"249","category_name":"购物服务","address":"伊犁路1438"},{"poiid":"B2094655D26AA1F9409B","title":"格林口腔","lon":"121.39682","lat":"31.19625","category":"247","category_name":"餐饮美食","address":"长宁区荣华东道96号(近古北路)"},{"poiid":"B2094757D46FA0F4439B","title":"二金堂拉面","lon":"121.395927","lat":"31.19513","category":"95","category_name":"日本料理","address":"长宁区黄金城道810号(近古北路)"},{"poiid":"B2094654D564A2F9459D","title":"上海职工康复医院","lon":"121.39633","lat":"31.1983","category":"162","category_name":"医院","address":"延安西路2558"},{"poiid":"B2094757D164A7F44398","title":"台湾一品茶","lon":"121.397216586","lat":"31.1964847712","category":"247","category_name":"餐饮美食","address":"上海长宁区茅台路"},{"poiid":"B2094654DB69AAFE499C","title":"吴记老锅底麻辣火锅 虹桥店","lon":"121.39797130614","lat":"31.199716304482","category":"86","category_name":"火锅店","address":"长宁区延安西路2308号2楼(古北路口)"},{"poiid":"B2094753D06EABFE4392","title":"工人疗养院体检中心","lon":"121.39612","lat":"31.19853","category":"162","category_name":"医院","address":"长宁区延安西路2558号(近古北路)"},{"poiid":"B2094654DB6AA6F84692","title":"上海千禧海鸥大酒店","lon":"121.39518","lat":"31.19704","category":"112","category_name":"糕饼店","address":"长宁区延安西路2588号千禧海鸥大酒店1楼(近古北家乐福)"},{"poiid":"B2094655D268A1F94593","title":"黄金城道步行街","lon":"121.3995","lat":"31.19536","category":"116","category_name":"特色商业街","address":""},{"poiid":"B2094654DB64AAFA4992","title":"东银中心A楼","lon":"121.39951","lat":"31.19861","category":"46","category_name":"楼宇","address":"红宝石路500号"},{"poiid":"B2094757D06FAAFB449C","title":"苏浙汇(虹桥店)","lon":"121.39641","lat":"31.19861","category":"75","category_name":"浙江菜","address":"上海长宁区延安西路2558号A楼  "},{"poiid":"B2094757D06FA0FD429F","title":"Wagas沃歌斯(古北店)","lon":"121.39416","lat":"31.19637","category":"94","category_name":"西餐厅","address":"长宁区水城南路268号家乐福1楼(近延安西路)"},{"poiid":"B2094757DA64AAF9479A","title":"台北纯K","lon":"121.397313","lat":"31.199114","category":"248","category_name":"生活娱乐","address":"天山路431号"},{"poiid":"B2094757D068A1FF419B","title":"鹿港老镇","lon":"121.39703258","lat":"31.195483751","category":"500","category_name":"未知分类","address":"上海市长宁区黄金城道778号(古北路)"},{"poiid":"B2094757D16CAAF8409C","title":"平壤高丽餐厅","lon":"121.397864586","lat":"31.19540175","category":"96","category_name":"韩国料理","address":"长宁区古北路1088号2楼(近中信银行)"},{"poiid":"B2094757D068AAFE4492","title":"星巴克(东银中心店)","lon":"121.399228","lat":"31.197697","category":"65","category_name":"咖啡厅","address":"长宁区红宝石路500号东银中心后(近金珠路)"},{"poiid":"B2094654DB64AAFA459E","title":"东银中心B楼","lon":"121.39952","lat":"31.19861","category":"46","category_name":"楼宇","address":"红宝石路500号"},{"poiid":"B2094655D268A1FC499D","title":"彩色盘","lon":"121.4002","lat":"31.1977","category":"65","category_name":"咖啡厅","address":""},{"poiid":"B2094655D26CABFA439C","title":"上海市工人疗养院(延安西路)","lon":"121.3977","lat":"31.19862","category":"207","category_name":"度假疗养场所","address":"延安西路2558"},{"poiid":"B2094654DB64AAF4419A","title":"华越楼No.1","lon":"121.39712","lat":"31.19486","category":"99","category_name":"泰国／越南菜品餐厅","address":"长宁区黄金城道781号(近古北路)"},{"poiid":"B2094757D069A1FE4093","title":"陵水酒家","lon":"121.39535","lat":"31.19536","category":"96","category_name":"韩国料理","address":"长宁区荣华东道119弄2号巴黎花园B楼107号(近水城南路)"},{"poiid":"B2094757D66BA6F9489D","title":"早安巴黎 黄金城道店 Bon Matin","lon":"121.398810054","lat":"31.195088793","category":"112","category_name":"糕饼店","address":"长宁区黄金城道506号(近伊犁南路)"},{"poiid":"B2094757D064AAFB489A","title":"美兆体检中心","lon":"121.39662","lat":"31.19834","category":"162","category_name":"医院","address":"长宁区延安西路2558号工人疗养院6-8楼(近古北路)"},{"poiid":"B2094757D069A1FD4998","title":"东银中心 Cisco System","lon":"121.399237","lat":"31.198137","category":"46","category_name":"楼宇","address":"上海长宁区红宝石路500号"},{"poiid":"B2094757D66AAAFF4598","title":"涟波 SAZANAMI","lon":"121.39484837119","lat":"31.19537499377","category":"95","category_name":"日本料理","address":"长宁区荣华东道121号(近家乐福)"},{"poiid":"B2094753D36FA2F8419D","title":"70后饭吧","lon":"121.400135","lat":"31.196805","category":"247","category_name":"餐饮美食","address":"上海市 天山路900号汇金百货B1 F"},{"poiid":"B2094655D26EA0FE469B","title":"上海康柏苑大酒店","lon":"121.39605","lat":"31.19849","category":"250","category_name":"公园户外","address":"长宁区延安西路2558号(近水城路)"},{"poiid":"B2094757D169A1F9459B","title":"國貿中心","lon":"121.39606758","lat":"31.197791796","category":"500","category_name":"未知分类","address":"上海市長寧區延安西路婁山關路口"},{"poiid":"B2094655D268A1F94592","title":"御翠豪庭(银珠路)","lon":"121.39987","lat":"31.19627","category":"47","category_name":"住宅区","address":"长宁区黄金城道688号"},{"poiid":"B2094757D06AA5FD4992","title":"里の水","lon":"121.39682","lat":"31.19424","category":"95","category_name":"日本料理","address":"长宁区荣华东道57弄1号102(近古北路)"},{"poiid":"B2094654DB65A1FA4692","title":"康乃馨食府","lon":"121.39944","lat":"31.1981","category":"76","category_name":"上海菜","address":"长宁区虹桥路1446号古北湾大酒店2楼(近古北路)"},{"poiid":"B2094757D068A1FE4792","title":"CAT&amp;JAZZ","lon":"121.3972","lat":"31.1955","category":"260","category_name":"其他","address":"上海长宁区荣华东道79弄马赛花园3号301室(近古北路)"},{"poiid":"B2094751DA6DA2F94592","title":"名藏","lon":"121.397719","lat":"31.199636","category":"247","category_name":"餐饮美食","address":"虹桥路1438号高岛屋7F"},{"poiid":"B2094757D06AABFF469D","title":"凯司令西点房(古北店)","lon":"121.39919","lat":"31.19504","category":"67","category_name":"甜品店","address":"长宁区黄金城道727号(近古北路)"},{"poiid":"B2094654DB69AAFB4898","title":"千禧海鸥大酒店欧咖啡餐厅","lon":"121.39518","lat":"31.19704","category":"268","category_name":"自助","address":"长宁区延安西路2588号千禧海鸥大酒店1楼(近古北家乐福)"},{"poiid":"B2094655D268A3FB449D","title":"马来西亚总领事馆(红宝石路)","lon":"121.39944","lat":"31.19811","category":"252","category_name":"楼宇机构","address":"红宝石路500号东银中心9层01"},{"poiid":"B2094757D169A3FD499A","title":"西郊宾馆四季厅","lon":"121.39558958","lat":"31.198316807","category":"217","category_name":"旅馆招待所","address":"上海市长宁区水城路"},{"poiid":"B2094757D068ABFC429E","title":"卡布拉蛋糕专卖店(古北店)","lon":"121.39712","lat":"31.19483","category":"67","category_name":"甜品店","address":"长宁区黄金城道818号(近古北路)"},{"poiid":"B2094757D66CA0FF449F","title":"樱花门诊部","lon":"121.39635258","lat":"31.197623793","category":"162","category_name":"医院","address":"上海市长宁区虹桥路"},{"poiid":"B2094757D069A5F8479F","title":"延虹绿地","lon":"121.39722","lat":"31.19977","category":"196","category_name":"公园","address":"上海长宁区虹桥路(近古北路)  "},{"poiid":"B2094757D16DA5F8469D","title":"光琳","lon":"121.399091054","lat":"31.198257793","category":"95","category_name":"日本料理","address":"长宁区红宝石路500号东银中心1楼(古北路口)"},{"poiid":"B2094757D16DA0FD4398","title":"上海市舞蹈学校","lon":"121.39723968","lat":"31.197357177","category":"253","category_name":"校园生活","address":"长宁区虹桥路1674号"},{"poiid":"B2094751DB6BA7F4489F","title":"角落咖啡","lon":"121.39719","lat":"31.19601","category":"247","category_name":"餐饮美食","address":"长宁区荣华东道82号(近古北路)"},{"poiid":"B2094757D464A7FF4592","title":"伊豆日本烧肉","lon":"121.39578130603","lat":"31.194834981876","category":"247","category_name":"餐饮美食","address":"长宁区黄金城道856号(水城南路和古北南路之间)"},{"poiid":"B2094757D06BABFB4992","title":"赛百味(金珠路店)","lon":"121.39931458","lat":"31.197882798","category":"94","category_name":"西餐厅","address":"长宁区金珠路50号(近红宝石路)"},{"poiid":"B2094654D564A2F8429B","title":"古北太阳广场","lon":"121.39725","lat":"31.196352","category":"47","category_name":"住宅区","address":"古北太阳广场位于长宁荣华东道88号"},{"poiid":"B2094757D06FA2FF439F","title":"Le Bonheur 莱贝法式手工酸奶","lon":"121.39259","lat":"31.19999","category":"113","category_name":"冷饮店","address":"长宁区虹桥路1665号洛城广场C105号商铺(近水城路)"},{"poiid":"B2094655D268A7FD409E","title":"Sun Cafe & Bakery","lon":"121.3971","lat":"31.1963","category":"113","category_name":"冷饮店","address":""},{"poiid":"B2094752D26AAAF54698","title":"糖朝","lon":"121.400162","lat":"31.196747","category":"247","category_name":"餐饮美食","address":"高岛屋百货"},{"poiid":"B2094655D268A4F5459B","title":"维多利亚高级商务楼","lon":"121.3967","lat":"31.19627","category":"46","category_name":"楼宇","address":""},{"poiid":"B2094752D269A2F5469F","title":"高岛百货","lon":"121.399176","lat":"31.199084","category":"249","category_name":"购物服务","address":"伊犁路1438"},{"poiid":"B2094655D26AA1F9409B","title":"格林口腔","lon":"121.39682","lat":"31.19625","category":"247","category_name":"餐饮美食","address":"长宁区荣华东道96号(近古北路)"},{"poiid":"B2094757D46FA0F4439B","title":"二金堂拉面","lon":"121.395927","lat":"31.19513","category":"95","category_name":"日本料理","address":"长宁区黄金城道810号(近古北路)"},{"poiid":"B2094654D564A2F9459D","title":"上海职工康复医院","lon":"121.39633","lat":"31.1983","category":"162","category_name":"医院","address":"延安西路2558"},{"poiid":"B2094757D164A7F44398","title":"台湾一品茶","lon":"121.397216586","lat":"31.1964847712","category":"247","category_name":"餐饮美食","address":"上海长宁区茅台路"},{"poiid":"B2094654DB69AAFE499C","title":"吴记老锅底麻辣火锅 虹桥店","lon":"121.39797130614","lat":"31.199716304482","category":"86","category_name":"火锅店","address":"长宁区延安西路2308号2楼(古北路口)"},{"poiid":"B2094753D06EABFE4392","title":"工人疗养院体检中心","lon":"121.39612","lat":"31.19853","category":"162","category_name":"医院","address":"长宁区延安西路2558号(近古北路)"},{"poiid":"B2094654DB6AA6F84692","title":"上海千禧海鸥大酒店","lon":"121.39518","lat":"31.19704","category":"112","category_name":"糕饼店","address":"长宁区延安西路2588号千禧海鸥大酒店1楼(近古北家乐福)"},{"poiid":"B2094655D268A1F94593","title":"黄金城道步行街","lon":"121.3995","lat":"31.19536","category":"116","category_name":"特色商业街","address":""},{"poiid":"B2094654DB64AAFA4992","title":"东银中心A楼","lon":"121.39951","lat":"31.19861","category":"46","category_name":"楼宇","address":"红宝石路500号"},{"poiid":"B2094757D06FAAFB449C","title":"苏浙汇(虹桥店)","lon":"121.39641","lat":"31.19861","category":"75","category_name":"浙江菜","address":"上海长宁区延安西路2558号A楼  "},{"poiid":"B2094757D06FA0FD429F","title":"Wagas沃歌斯(古北店)","lon":"121.39416","lat":"31.19637","category":"94","category_name":"西餐厅","address":"长宁区水城南路268号家乐福1楼(近延安西路)"},{"poiid":"B2094757DA64AAF9479A","title":"台北纯K","lon":"121.397313","lat":"31.199114","category":"248","category_name":"生活娱乐","address":"天山路431号"},{"poiid":"B2094757D068A1FF419B","title":"鹿港老镇","lon":"121.39703258","lat":"31.195483751","category":"500","category_name":"未知分类","address":"上海市长宁区黄金城道778号(古北路)"},{"poiid":"B2094757D16CAAF8409C","title":"平壤高丽餐厅","lon":"121.397864586","lat":"31.19540175","category":"96","category_name":"韩国料理","address":"长宁区古北路1088号2楼(近中信银行)"},{"poiid":"B2094757D068AAFE4492","title":"星巴克(东银中心店)","lon":"121.399228","lat":"31.197697","category":"65","category_name":"咖啡厅","address":"长宁区红宝石路500号东银中心后(近金珠路)"},{"poiid":"B2094654DB64AAFA459E","title":"东银中心B楼","lon":"121.39952","lat":"31.19861","category":"46","category_name":"楼宇","address":"红宝石路500号"},{"poiid":"B2094655D268A1FC499D","title":"彩色盘","lon":"121.4002","lat":"31.1977","category":"65","category_name":"咖啡厅","address":""},{"poiid":"B2094655D26CABFA439C","title":"上海市工人疗养院(延安西路)","lon":"121.3977","lat":"31.19862","category":"207","category_name":"度假疗养场所","address":"延安西路2558"},{"poiid":"B2094654DB64AAF4419A","title":"华越楼No.1","lon":"121.39712","lat":"31.19486","category":"99","category_name":"泰国／越南菜品餐厅","address":"长宁区黄金城道781号(近古北路)"},{"poiid":"B2094757D069A1FE4093","title":"陵水酒家","lon":"121.39535","lat":"31.19536","category":"96","category_name":"韩国料理","address":"长宁区荣华东道119弄2号巴黎花园B楼107号(近水城南路)"},{"poiid":"B2094757D66BA6F9489D","title":"早安巴黎 黄金城道店 Bon Matin","lon":"121.398810054","lat":"31.195088793","category":"112","category_name":"糕饼店","address":"长宁区黄金城道506号(近伊犁南路)"},{"poiid":"B2094757D064AAFB489A","title":"美兆体检中心","lon":"121.39662","lat":"31.19834","category":"162","category_name":"医院","address":"长宁区延安西路2558号工人疗养院6-8楼(近古北路)"},{"poiid":"B2094757D069A1FD4998","title":"东银中心 Cisco System","lon":"121.399237","lat":"31.198137","category":"46","category_name":"楼宇","address":"上海长宁区红宝石路500号"},{"poiid":"B2094757D66AAAFF4598","title":"涟波 SAZANAMI","lon":"121.39484837119","lat":"31.19537499377","category":"95","category_name":"日本料理","address":"长宁区荣华东道121号(近家乐福)"},{"poiid":"B2094753D36FA2F8419D","title":"70后饭吧","lon":"121.400135","lat":"31.196805","category":"247","category_name":"餐饮美食","address":"上海市 天山路900号汇金百货B1 F"},{"poiid":"B2094655D26EA0FE469B","title":"上海康柏苑大酒店","lon":"121.39605","lat":"31.19849","category":"250","category_name":"公园户外","address":"长宁区延安西路2558号(近水城路)"},{"poiid":"B2094757D169A1F9459B","title":"國貿中心","lon":"121.39606758","lat":"31.197791796","category":"500","category_name":"未知分类","address":"上海市長寧區延安西路婁山關路口"},{"poiid":"B2094655D268A1F94592","title":"御翠豪庭(银珠路)","lon":"121.39987","lat":"31.19627","category":"47","category_name":"住宅区","address":"长宁区黄金城道688号"},{"poiid":"B2094757D06AA5FD4992","title":"里の水","lon":"121.39682","lat":"31.19424","category":"95","category_name":"日本料理","address":"长宁区荣华东道57弄1号102(近古北路)"},{"poiid":"B2094654DB65A1FA4692","title":"康乃馨食府","lon":"121.39944","lat":"31.1981","category":"76","category_name":"上海菜","address":"长宁区虹桥路1446号古北湾大酒店2楼(近古北路)"},{"poiid":"B2094757D068A1FE4792","title":"CAT&amp;JAZZ","lon":"121.3972","lat":"31.1955","category":"260","category_name":"其他","address":"上海长宁区荣华东道79弄马赛花园3号301室(近古北路)"},{"poiid":"B2094751DA6DA2F94592","title":"名藏","lon":"121.397719","lat":"31.199636","category":"247","category_name":"餐饮美食","address":"虹桥路1438号高岛屋7F"},{"poiid":"B2094757D06AABFF469D","title":"凯司令西点房(古北店)","lon":"121.39919","lat":"31.19504","category":"67","category_name":"甜品店","address":"长宁区黄金城道727号(近古北路)"},{"poiid":"B2094654DB69AAFB4898","title":"千禧海鸥大酒店欧咖啡餐厅","lon":"121.39518","lat":"31.19704","category":"268","category_name":"自助","address":"长宁区延安西路2588号千禧海鸥大酒店1楼(近古北家乐福)"},{"poiid":"B2094655D268A3FB449D","title":"马来西亚总领事馆(红宝石路)","lon":"121.39944","lat":"31.19811","category":"252","category_name":"楼宇机构","address":"红宝石路500号东银中心9层01"},{"poiid":"B2094757D169A3FD499A","title":"西郊宾馆四季厅","lon":"121.39558958","lat":"31.198316807","category":"217","category_name":"旅馆招待所","address":"上海市长宁区水城路"},{"poiid":"B2094757D068ABFC429E","title":"卡布拉蛋糕专卖店(古北店)","lon":"121.39712","lat":"31.19483","category":"67","category_name":"甜品店","address":"长宁区黄金城道818号(近古北路)"},{"poiid":"B2094757D66CA0FF449F","title":"樱花门诊部","lon":"121.39635258","lat":"31.197623793","category":"162","category_name":"医院","address":"上海市长宁区虹桥路"},{"poiid":"B2094757D069A5F8479F","title":"延虹绿地","lon":"121.39722","lat":"31.19977","category":"196","category_name":"公园","address":"上海长宁区虹桥路(近古北路)  "},{"poiid":"B2094757D16DA5F8469D","title":"光琳","lon":"121.399091054","lat":"31.198257793","category":"95","category_name":"日本料理","address":"长宁区红宝石路500号东银中心1楼(古北路口)"},{"poiid":"B2094757D16DA0FD4398","title":"上海市舞蹈学校","lon":"121.39723968","lat":"31.197357177","category":"253","category_name":"校园生活","address":"长宁区虹桥路1674号"},{"poiid":"B2094751DB6BA7F4489F","title":"角落咖啡","lon":"121.39719","lat":"31.19601","category":"247","category_name":"餐饮美食","address":"长宁区荣华东道82号(近古北路)"},{"poiid":"B2094757D464A7FF4592","title":"伊豆日本烧肉","lon":"121.39578130603","lat":"31.194834981876","category":"247","category_name":"餐饮美食","address":"长宁区黄金城道856号(水城南路和古北南路之间)"},{"poiid":"B2094757D06BABFB4992","title":"赛百味(金珠路店)","lon":"121.39931458","lat":"31.197882798","category":"94","category_name":"西餐厅","address":"长宁区金珠路50号(近红宝石路)"},{"poiid":"B2094654D564A2F8429B","title":"古北太阳广场","lon":"121.39725","lat":"31.196352","category":"47","category_name":"住宅区","address":"古北太阳广场位于长宁荣华东道88号"},{"poiid":"B2094757D06FA2FF439F","title":"Le Bonheur 莱贝法式手工酸奶","lon":"121.39259","lat":"31.19999","category":"113","category_name":"冷饮店","address":"长宁区虹桥路1665号洛城广场C105号商铺(近水城路)"},{"poiid":"B2094655D268A7FD409E","title":"Sun Cafe & Bakery","lon":"121.3971","lat":"31.1963","category":"113","category_name":"冷饮店","address":""},{"poiid":"B2094752D26AAAF54698","title":"糖朝","lon":"121.400162","lat":"31.196747","category":"247","category_name":"餐饮美食","address":"高岛屋百货"},{"poiid":"B2094655D268A4F5459B","title":"维多利亚高级商务楼","lon":"121.3967","lat":"31.19627","category":"46","category_name":"楼宇","address":""},{"poiid":"B2094752D269A2F5469F","title":"高岛百货","lon":"121.399176","lat":"31.199084","category":"249","category_name":"购物服务","address":"伊犁路1438"},{"poiid":"B2094655D26AA1F9409B","title":"格林口腔","lon":"121.39682","lat":"31.19625","category":"247","category_name":"餐饮美食","address":"长宁区荣华东道96号(近古北路)"},{"poiid":"B2094757D46FA0F4439B","title":"二金堂拉面","lon":"121.395927","lat":"31.19513","category":"95","category_name":"日本料理","address":"长宁区黄金城道810号(近古北路)"},{"poiid":"B2094654D564A2F9459D","title":"上海职工康复医院","lon":"121.39633","lat":"31.1983","category":"162","category_name":"医院","address":"延安西路2558"},{"poiid":"B2094757D164A7F44398","title":"台湾一品茶","lon":"121.397216586","lat":"31.1964847712","category":"247","category_name":"餐饮美食","address":"上海长宁区茅台路"},{"poiid":"B2094654DB69AAFE499C","title":"吴记老锅底麻辣火锅 虹桥店","lon":"121.39797130614","lat":"31.199716304482","category":"86","category_name":"火锅店","address":"长宁区延安西路2308号2楼(古北路口)"},{"poiid":"B2094753D06EABFE4392","title":"工人疗养院体检中心","lon":"121.39612","lat":"31.19853","category":"162","category_name":"医院","address":"长宁区延安西路2558号(近古北路)"},{"poiid":"B2094654DB6AA6F84692","title":"上海千禧海鸥大酒店","lon":"121.39518","lat":"31.19704","category":"112","category_name":"糕饼店","address":"长宁区延安西路2588号千禧海鸥大酒店1楼(近古北家乐福)"},{"poiid":"B2094655D268A1F94593","title":"黄金城道步行街","lon":"121.3995","lat":"31.19536","category":"116","category_name":"特色商业街","address":""},{"poiid":"B2094654DB64AAFA4992","title":"东银中心A楼","lon":"121.39951","lat":"31.19861","category":"46","category_name":"楼宇","address":"红宝石路500号"},{"poiid":"B2094757D06FAAFB449C","title":"苏浙汇(虹桥店)","lon":"121.39641","lat":"31.19861","category":"75","category_name":"浙江菜","address":"上海长宁区延安西路2558号A楼  "},{"poiid":"B2094757D06FA0FD429F","title":"Wagas沃歌斯(古北店)","lon":"121.39416","lat":"31.19637","category":"94","category_name":"西餐厅","address":"长宁区水城南路268号家乐福1楼(近延安西路)"},{"poiid":"B2094757DA64AAF9479A","title":"台北纯K","lon":"121.397313","lat":"31.199114","category":"248","category_name":"生活娱乐","address":"天山路431号"},{"poiid":"B2094757D068A1FF419B","title":"鹿港老镇","lon":"121.39703258","lat":"31.195483751","category":"500","category_name":"未知分类","address":"上海市长宁区黄金城道778号(古北路)"},{"poiid":"B2094757D16CAAF8409C","title":"平壤高丽餐厅","lon":"121.397864586","lat":"31.19540175","category":"96","category_name":"韩国料理","address":"长宁区古北路1088号2楼(近中信银行)"},{"poiid":"B2094757D068AAFE4492","title":"星巴克(东银中心店)","lon":"121.399228","lat":"31.197697","category":"65","category_name":"咖啡厅","address":"长宁区红宝石路500号东银中心后(近金珠路)"},{"poiid":"B2094654DB64AAFA459E","title":"东银中心B楼","lon":"121.39952","lat":"31.19861","category":"46","category_name":"楼宇","address":"红宝石路500号"},{"poiid":"B2094655D268A1FC499D","title":"彩色盘","lon":"121.4002","lat":"31.1977","category":"65","category_name":"咖啡厅","address":""},{"poiid":"B2094655D26CABFA439C","title":"上海市工人疗养院(延安西路)","lon":"121.3977","lat":"31.19862","category":"207","category_name":"度假疗养场所","address":"延安西路2558"},{"poiid":"B2094654DB64AAF4419A","title":"华越楼No.1","lon":"121.39712","lat":"31.19486","category":"99","category_name":"泰国／越南菜品餐厅","address":"长宁区黄金城道781号(近古北路)"},{"poiid":"B2094757D069A1FE4093","title":"陵水酒家","lon":"121.39535","lat":"31.19536","category":"96","category_name":"韩国料理","address":"长宁区荣华东道119弄2号巴黎花园B楼107号(近水城南路)"},{"poiid":"B2094757D66BA6F9489D","title":"早安巴黎 黄金城道店 Bon Matin","lon":"121.398810054","lat":"31.195088793","category":"112","category_name":"糕饼店","address":"长宁区黄金城道506号(近伊犁南路)"},{"poiid":"B2094757D064AAFB489A","title":"美兆体检中心","lon":"121.39662","lat":"31.19834","category":"162","category_name":"医院","address":"长宁区延安西路2558号工人疗养院6-8楼(近古北路)"},{"poiid":"B2094757D069A1FD4998","title":"东银中心 Cisco System","lon":"121.399237","lat":"31.198137","category":"46","category_name":"楼宇","address":"上海长宁区红宝石路500号"},{"poiid":"B2094757D66AAAFF4598","title":"涟波 SAZANAMI","lon":"121.39484837119","lat":"31.19537499377","category":"95","category_name":"日本料理","address":"长宁区荣华东道121号(近家乐福)"},{"poiid":"B2094753D36FA2F8419D","title":"70后饭吧","lon":"121.400135","lat":"31.196805","category":"247","category_name":"餐饮美食","address":"上海市 天山路900号汇金百货B1 F"},{"poiid":"B2094655D26EA0FE469B","title":"上海康柏苑大酒店","lon":"121.39605","lat":"31.19849","category":"250","category_name":"公园户外","address":"长宁区延安西路2558号(近水城路)"},{"poiid":"B2094757D169A1F9459B","title":"國貿中心","lon":"121.39606758","lat":"31.197791796","category":"500","category_name":"未知分类","address":"上海市長寧區延安西路婁山關路口"},{"poiid":"B2094655D268A1F94592","title":"御翠豪庭(银珠路)","lon":"121.39987","lat":"31.19627","category":"47","category_name":"住宅区","address":"长宁区黄金城道688号"},{"poiid":"B2094757D06AA5FD4992","title":"里の水","lon":"121.39682","lat":"31.19424","category":"95","category_name":"日本料理","address":"长宁区荣华东道57弄1号102(近古北路)"},{"poiid":"B2094654DB65A1FA4692","title":"康乃馨食府","lon":"121.39944","lat":"31.1981","category":"76","category_name":"上海菜","address":"长宁区虹桥路1446号古北湾大酒店2楼(近古北路)"},{"poiid":"B2094757D068A1FE4792","title":"CAT&amp;JAZZ","lon":"121.3972","lat":"31.1955","category":"260","category_name":"其他","address":"上海长宁区荣华东道79弄马赛花园3号301室(近古北路)"},{"poiid":"B2094751DA6DA2F94592","title":"名藏","lon":"121.397719","lat":"31.199636","category":"247","category_name":"餐饮美食","address":"虹桥路1438号高岛屋7F"},{"poiid":"B2094757D06AABFF469D","title":"凯司令西点房(古北店)","lon":"121.39919","lat":"31.19504","category":"67","category_name":"甜品店","address":"长宁区黄金城道727号(近古北路)"},{"poiid":"B2094654DB69AAFB4898","title":"千禧海鸥大酒店欧咖啡餐厅","lon":"121.39518","lat":"31.19704","category":"268","category_name":"自助","address":"长宁区延安西路2588号千禧海鸥大酒店1楼(近古北家乐福)"},{"poiid":"B2094655D268A3FB449D","title":"马来西亚总领事馆(红宝石路)","lon":"121.39944","lat":"31.19811","category":"252","category_name":"楼宇机构","address":"红宝石路500号东银中心9层01"},{"poiid":"B2094757D169A3FD499A","title":"西郊宾馆四季厅","lon":"121.39558958","lat":"31.198316807","category":"217","category_name":"旅馆招待所","address":"上海市长宁区水城路"},{"poiid":"B2094757D068ABFC429E","title":"卡布拉蛋糕专卖店(古北店)","lon":"121.39712","lat":"31.19483","category":"67","category_name":"甜品店","address":"长宁区黄金城道818号(近古北路)"},{"poiid":"B2094757D66CA0FF449F","title":"樱花门诊部","lon":"121.39635258","lat":"31.197623793","category":"162","category_name":"医院","address":"上海市长宁区虹桥路"},{"poiid":"B2094757D069A5F8479F","title":"延虹绿地","lon":"121.39722","lat":"31.19977","category":"196","category_name":"公园","address":"上海长宁区虹桥路(近古北路)  "},{"poiid":"B2094757D16DA5F8469D","title":"光琳","lon":"121.399091054","lat":"31.198257793","category":"95","category_name":"日本料理","address":"长宁区红宝石路500号东银中心1楼(古北路口)"},{"poiid":"B2094757D16DA0FD4398","title":"上海市舞蹈学校","lon":"121.39723968","lat":"31.197357177","category":"253","category_name":"校园生活","address":"长宁区虹桥路1674号"},{"poiid":"B2094751DB6BA7F4489F","title":"角落咖啡","lon":"121.39719","lat":"31.19601","category":"247","category_name":"餐饮美食","address":"长宁区荣华东道82号(近古北路)"},{"poiid":"B2094757D464A7FF4592","title":"伊豆日本烧肉","lon":"121.39578130603","lat":"31.194834981876","category":"247","category_name":"餐饮美食","address":"长宁区黄金城道856号(水城南路和古北南路之间)"},{"poiid":"B2094757D06BABFB4992","title":"赛百味(金珠路店)","lon":"121.39931458","lat":"31.197882798","category":"94","category_name":"西餐厅","address":"长宁区金珠路50号(近红宝石路)"},{"poiid":"B2094654D564A2F8429B","title":"古北太阳广场","lon":"121.39725","lat":"31.196352","category":"47","category_name":"住宅区","address":"古北太阳广场位于长宁荣华东道88号"},{"poiid":"B2094757D06FA2FF439F","title":"Le Bonheur 莱贝法式手工酸奶","lon":"121.39259","lat":"31.19999","category":"113","category_name":"冷饮店","address":"长宁区虹桥路1665号洛城广场C105号商铺(近水城路)"},{"poiid":"B2094655D268A7FD409E","title":"Sun Cafe & Bakery","lon":"121.3971","lat":"31.1963","category":"113","category_name":"冷饮店","address":""},{"poiid":"B2094752D26AAAF54698","title":"糖朝","lon":"121.400162","lat":"31.196747","category":"247","category_name":"餐饮美食","address":"高岛屋百货"},{"poiid":"B2094655D268A4F5459B","title":"维多利亚高级商务楼","lon":"121.3967","lat":"31.19627","category":"46","category_name":"楼宇","address":""},{"poiid":"B2094752D269A2F5469F","title":"高岛百货","lon":"121.399176","lat":"31.199084","category":"249","category_name":"购物服务","address":"伊犁路1438"},{"poiid":"B2094655D26AA1F9409B","title":"格林口腔","lon":"121.39682","lat":"31.19625","category":"247","category_name":"餐饮美食","address":"长宁区荣华东道96号(近古北路)"},{"poiid":"B2094757D46FA0F4439B","title":"二金堂拉面","lon":"121.395927","lat":"31.19513","category":"95","category_name":"日本料理","address":"长宁区黄金城道810号(近古北路)"},{"poiid":"B2094654D564A2F9459D","title":"上海职工康复医院","lon":"121.39633","lat":"31.1983","category":"162","category_name":"医院","address":"延安西路2558"},{"poiid":"B2094757D164A7F44398","title":"台湾一品茶","lon":"121.397216586","lat":"31.1964847712","category":"247","category_name":"餐饮美食","address":"上海长宁区茅台路"},{"poiid":"B2094654DB69AAFE499C","title":"吴记老锅底麻辣火锅 虹桥店","lon":"121.39797130614","lat":"31.199716304482","category":"86","category_name":"火锅店","address":"长宁区延安西路2308号2楼(古北路口)"},{"poiid":"B2094753D06EABFE4392","title":"工人疗养院体检中心","lon":"121.39612","lat":"31.19853","category":"162","category_name":"医院","address":"长宁区延安西路2558号(近古北路)"}]