[{"poiid":"B2094655D26AABFB439B","title":"上海歌城天山店","lon":"121.40342","lat":"31.21143","category":"170","category_name":"KTV","address":"长宁区天山路762号泓鑫时尚广场6楼(近娄山关路)"},{"poiid":"B2094757D06EABF54098","title":"百盛购物中心(天山店)","lon":"121.402857386","lat":"31.2114382635","category":"249","category_name":"购物服务","address":"上海长宁区天山路789号(近娄山关路)"},{"poiid":"B2094757D06EAAF54293","title":"三人行骨头王火锅","lon":"121.403418","lat":"31.211284","category":"86","category_name":"火锅店","address":"长宁区天山路762号泓鑫时尚广场5楼东侧(近古北路)"},{"poiid":"B2094654D56BA1F5409E","title":"泓鑫时尚广场","lon":"121.40252","lat":"31.2117","category":"119","category_name":"商场","address":"长宁区天山路762号(近娄山关路)"},{"poiid":"B2094757D068A0FE489C","title":"融合马来西亚餐厅(天山路店)","lon":"121.402935586","lat":"31.2105730466","category":"110","category_name":"其他亚洲菜","address":"上海长宁区天山路789号百盛5楼(近娄山关路)"},{"poiid":"B2094655D26AABFB4392","title":"西贝莜面村(天山路店)","lon":"121.40342","lat":"31.21143","category":"247","category_name":"餐饮美食","address":"长宁区天山路762号泓鑫时尚广场西区5楼(近古北路)"},{"poiid":"B2094757D068A2FD4893","title":"三人行火锅","lon":"121.40228658","lat":"31.211000054","category":"247","category_name":"餐饮美食","address":"上海市天山路"},{"poiid":"B2094751D564A0FD4693","title":"豪辣重庆麻辣火锅","lon":"121.401144","lat":"31.211615","category":"247","category_name":"餐饮美食","address":"天山路古北路"},{"poiid":"B2094757D56DA4F84292","title":"虹桥火车站","lon":"121.40228658","lat":"31.211000054","category":"500","category_name":"未知分类","address":"虹桥火车站"},{"poiid":"B2094757D06FABF4449C","title":"和民居食屋","lon":"121.402830986","lat":"31.2102065394","category":"95","category_name":"日本料理","address":"长宁区天山路789号天山百盛5楼(近天山电影院)"},{"poiid":"B2094654D56BA7FA4599","title":"必胜客欢乐餐厅天山餐厅","lon":"121.40245","lat":"31.21098","category":"68","category_name":"快餐厅","address":"长宁区天山路789号百盛购物中心1楼(近娄山关路)"},{"poiid":"B2094654D56BA7FA459B","title":"麦当劳 天山店 McDonald's","lon":"121.40356793764","lat":"31.210957175327","category":"68","category_name":"快餐厅","address":"长宁区天山路789号天山商厦内(近娄山关路)"},{"poiid":"B2094757D068A4FA479D","title":"小肥羊 天山路店","lon":"121.40487","lat":"31.211051","category":"86","category_name":"火锅店","address":"长宁区天山路900号汇金百货6楼(近娄山关路)"},{"poiid":"B2094757D06FA5FC499B","title":"徽珍源(天山店)","lon":"121.402599","lat":"31.210857","category":"75","category_name":"浙江菜","address":"上海长宁区天山路789号天山百盛A座5楼(近2号地铁站出口)"},{"poiid":"B2094751D26AA7FF449E","title":"伊秀手握寿司（天山店）","lon":"121.40275","lat":"31.21044","category":"95","category_name":"日本料理","address":"长宁区天山路789号天山百盛5楼(近遵义路)"},{"poiid":"B2094757D069A6F8469B","title":"韩林炭烤(天山百盛店)","lon":"121.401095186","lat":"31.2100527364","category":"96","category_name":"韩国料理","address":"长宁区天山路789号百盛5楼(近娄山关路)"},{"poiid":"B2094757D06FA2F5459B","title":"哈玛匠","lon":"121.40303","lat":"31.21128","category":"95","category_name":"日本料理","address":"上海长宁区天山路762号泓鑫时尚广场B2-1(近娄山关路)  "},{"poiid":"B2094757D06FA6FD4398","title":"老北京羊蝎子火锅","lon":"121.402524","lat":"31.211706","category":"86","category_name":"火锅店","address":"长宁区天山路762号泓鑫时尚广场B2-14号商铺(近古北路)"},{"poiid":"B2094757D06FA1FA499B","title":"康师傅私房牛肉面 天山路店","lon":"121.402691054","lat":"31.211096793","category":"68","category_name":"快餐厅","address":"长宁区天山路762号泓鑫时尚广场1楼(近娄山关路)"},{"poiid":"B2094757D16AA4F9449C","title":"天山路古北路路口","lon":"121.39944838","lat":"31.21230328","category":"500","category_name":"未知分类","address":"上海天山路古北路路口"},{"poiid":"B2094757D06FABFC489C","title":"振鼎鸡(泓鑫店)","lon":"121.40280645","lat":"31.211082819","category":"68","category_name":"快餐厅","address":"长宁区天山路762号泓鑫时尚广场1楼(近娄山关路)"},{"poiid":"B2094757D06FA2F54799","title":"老盛昌苏州汤包馆(古北路店)","lon":"121.400782","lat":"31.21043","category":"68","category_name":"快餐厅","address":"长宁区古北路445号(近茅台路)"},{"poiid":"B2094757D468A0F8489C","title":"巴贝隆自助烤肉 天山路店","lon":"121.402838","lat":"31.211259","category":"96","category_name":"韩国料理","address":"长宁区天山路762号泓鑫时尚广场B26-7号(近天山电影院)"},{"poiid":"B2094751D268A4F8419A","title":"季诺意式休闲餐厅(天山店)","lon":"121.4030230925598","lat":"31.210743663835505","category":"111","category_name":"休闲餐饮场所","address":"长宁区天山路889号百盛购物中心3楼(近娄山关路)"},{"poiid":"B2094750D26EA2F8449D","title":"龙樱日式火锅料理","lon":"121.403418","lat":"31.211284","category":"95","category_name":"日本料理","address":"长宁区天山路762号泓鑫时尚广场B2楼15号铺(近古北路)"},{"poiid":"B2094757D06FA6F54492","title":"COCO壱番屋(泓鑫广场店)","lon":"121.40239","lat":"31.21121","category":"95","category_name":"日本料理","address":"长宁区天山路762号泓鑫时尚广场B2楼(近娄山关路)"},{"poiid":"B2094757D06FABF9459B","title":"聚三湘(天山店)","lon":"121.40279","lat":"31.21143","category":"77","category_name":"湖南菜","address":"长宁区天山路762号泓鑫时尚广场4楼(近古北路)"},{"poiid":"B2094757D06FA7F84498","title":"DQ冰雪皇后 泓鑫广场店 Dairy Queen","lon":"121.402691054","lat":"31.211096793","category":"113","category_name":"冷饮店","address":"长宁区天山路762号泓鑫时尚广场1楼(近古北路)"},{"poiid":"B2094757D06AA4F94798","title":"茅台路","lon":"121.40033273","lat":"31.209175173","category":"500","category_name":"未知分类","address":"上海茅台路"},{"poiid":"B2094757D068A0FA4498","title":"巴贝隆","lon":"121.402833286","lat":"31.2109155533","category":"500","category_name":"未知分类","address":"上海长宁区天山路762号泓鑫时尚广场B2复6复7室"},{"poiid":"B2094751D469A1F94093","title":"鲜芋仙泓鑫广场店","lon":"121.401443","lat":"31.211334","category":"247","category_name":"餐饮美食","address":"长宁区天山路762号泓鑫时尚广场F1楼20室(近古北路)"},{"poiid":"B2094655D26DAAF5409A","title":"一刻","lon":"121.400508054","lat":"31.211418793","category":"95","category_name":"日本料理","address":"长宁区古北路437号(近天山路)"},{"poiid":"B2094655D26DA2FA4792","title":"一线烫捞(天山路店)","lon":"121.40252","lat":"31.2117","category":"68","category_name":"快餐厅","address":"长宁区天山路762号泓鑫时尚广场B2楼13座(近娄山关路)"},{"poiid":"B2094757D06FAAFE4998","title":"萨莉亚(泓鑫广场店)","lon":"121.40245","lat":"31.2115","category":"94","category_name":"西餐厅","address":"长宁区天山路762号泓鑫时尚广场B2-复2室(近娄山关路)"},{"poiid":"B2094757D06FA3F84693","title":"健康煮(天山店)","lon":"121.40154052","lat":"31.211592166","category":"86","category_name":"火锅店","address":"长宁区天山路762号泓鑫时尚广场一号楼2楼F1-28(近古北路)"},{"poiid":"B2094757D068A2F94098","title":"肯德基 KFC (泓鑫店)","lon":"121.40140577","lat":"31.211580852","category":"68","category_name":"快餐厅","address":"长宁区天山路762号泓鑫时尚广场1楼(近娄山关路)"},{"poiid":"B2094757D069A6F9489F","title":"维心日面","lon":"121.40246885","lat":"31.21118283","category":"95","category_name":"日本料理","address":"长宁区天山路762号泓鑫时尚广场B2楼(近古北路)"},{"poiid":"B2094655D36CA6FC469B","title":"古北路","lon":"121.40063","lat":"31.21179","category":"38","category_name":"公交车站","address":""},{"poiid":"B2094751D36FA1F4489A","title":"和风铁板料理(天山路店)","lon":"121.40258","lat":"31.21084","category":"269","category_name":"烧烤","address":"长宁区天山路789号百盛购物中心大厦B座5楼(近娄山关路)"},{"poiid":"B209475CD064ABFB479F","title":"耶里夏丽新疆餐厅 天山店","lon":"121.40197","lat":"31.21171","category":"90","category_name":"清真餐馆","address":"天山路762号泓鑫时尚广场西区2楼(近古北路)"},{"poiid":"B2094757D06FAAFE499C","title":"若岛拉面(天山店)","lon":"121.402","lat":"31.21152","category":"95","category_name":"日本料理","address":"长宁区天山路762号泓鑫时尚广场B1-09室(近娄山关路)"},{"poiid":"B2094757D66BA2FC439F","title":"川忆","lon":"121.403418","lat":"31.211284","category":"71","category_name":"四川菜","address":"长宁区天山路762号泓鑫时尚广场4楼(近古北路)"},{"poiid":"B2094757D16AA5FF479B","title":"杂粮小工坊(天山店)","lon":"121.401527586","lat":"31.2113840624","category":"68","category_name":"快餐厅","address":"长宁区天山路762号泓鑫时尚广场1楼(近古北路)"},{"poiid":"B2094757D169A6FA499B","title":"兰桂坊","lon":"121.399307586","lat":"31.2107320497","category":"500","category_name":"未知分类","address":"田林兰桂坊位于徐汇区上海徐汇桂林路625弄"},{"poiid":"B2094750D665A5FC489C","title":"芋贵人甜品店(泓鑫广场店)","lon":"121.402","lat":"31.2117","category":"67","category_name":"甜品店","address":"长宁区天山路762号泓鑫时尚广场B2楼18室(巴贝隆对面)"},{"poiid":"B2094757D06AA3FD479A","title":"古北状元楼","lon":"121.40054","lat":"31.20953","category":"75","category_name":"浙江菜","address":"长宁区古北路460号(近茅台路)"},{"poiid":"B2094654D56BA1F5409D","title":"吉野家 泓鑫广场店","lon":"121.402691054","lat":"31.211096793","category":"95","category_name":"日本料理","address":"长宁区天山路762号泓鑫时尚广场1楼(近娄山关路)"},{"poiid":"B2094757D06BA5FE489C","title":"太郎","lon":"121.40053","lat":"31.20999","category":"95","category_name":"日本料理","address":"长宁区古北路443号(近天山路)"},{"poiid":"B2094757D064A3FA409A","title":"denny house丝袜奶茶(天山店)","lon":"121.40173","lat":"31.20988","category":"113","category_name":"冷饮店","address":"长宁区茅台路168号(近娄山关路)"},{"poiid":"B2094757D168A2FA4999","title":"川忆川菜","lon":"121.401104586","lat":"31.2115570658","category":"247","category_name":"餐饮美食","address":"上海天山路762号四楼"},{"poiid":"B2094655D26AABFB439B","title":"上海歌城天山店","lon":"121.40342","lat":"31.21143","category":"170","category_name":"KTV","address":"长宁区天山路762号泓鑫时尚广场6楼(近娄山关路)"},{"poiid":"B2094757D06EABF54098","title":"百盛购物中心(天山店)","lon":"121.402857386","lat":"31.2114382635","category":"249","category_name":"购物服务","address":"上海长宁区天山路789号(近娄山关路)"},{"poiid":"B2094757D06EAAF54293","title":"三人行骨头王火锅","lon":"121.403418","lat":"31.211284","category":"86","category_name":"火锅店","address":"长宁区天山路762号泓鑫时尚广场5楼东侧(近古北路)"},{"poiid":"B2094654D56BA1F5409E","title":"泓鑫时尚广场","lon":"121.40252","lat":"31.2117","category":"119","category_name":"商场","address":"长宁区天山路762号(近娄山关路)"},{"poiid":"B2094757D068A0FE489C","title":"融合马来西亚餐厅(天山路店)","lon":"121.402935586","lat":"31.2105730466","category":"110","category_name":"其他亚洲菜","address":"上海长宁区天山路789号百盛5楼(近娄山关路)"},{"poiid":"B2094655D26AABFB4392","title":"西贝莜面村(天山路店)","lon":"121.40342","lat":"31.21143","category":"247","category_name":"餐饮美食","address":"长宁区天山路762号泓鑫时尚广场西区5楼(近古北路)"},{"poiid":"B2094757D068A2FD4893","title":"三人行火锅","lon":"121.40228658","lat":"31.211000054","category":"247","category_name":"餐饮美食","address":"上海市天山路"},{"poiid":"B2094751D564A0FD4693","title":"豪辣重庆麻辣火锅","lon":"121.401144","lat":"31.211615","category":"247","category_name":"餐饮美食","address":"天山路古北路"},{"poiid":"B2094757D56DA4F84292","title":"虹桥火车站","lon":"121.40228658","lat":"31.211000054","category":"500","category_name":"未知分类","address":"虹桥火车站"},{"poiid":"B2094757D06FABF4449C","title":"和民居食屋","lon":"121.402830986","lat":"31.2102065394","category":"95","category_name":"日本料理","address":"长宁区天山路789号天山百盛5楼(近天山电影院)"},{"poiid":"B2094654D56BA7FA4599","title":"必胜客欢乐餐厅天山餐厅","lon":"121.40245","lat":"31.21098","category":"68","category_name":"快餐厅","address":"长宁区天山路789号百盛购物中心1楼(近娄山关路)"},{"poiid":"B2094654D56BA7FA459B","title":"麦当劳 天山店 McDonald's","lon":"121.40356793764","lat":"31.210957175327","category":"68","category_name":"快餐厅","address":"长宁区天山路789号天山商厦内(近娄山关路)"},{"poiid":"B2094757D068A4FA479D","title":"小肥羊 天山路店","lon":"121.40487","lat":"31.211051","category":"86","category_name":"火锅店","address":"长宁区天山路900号汇金百货6楼(近娄山关路)"},{"poiid":"B2094757D06FA5FC499B","title":"徽珍源(天山店)","lon":"121.402599","lat":"31.210857","category":"75","category_name":"浙江菜","address":"上海长宁区天山路789号天山百盛A座5楼(近2号地铁站出口)"},{"poiid":"B2094751D26AA7FF449E","title":"伊秀手握寿司（天山店）","lon":"121.40275","lat":"31.21044","category":"95","category_name":"日本料理","address":"长宁区天山路789号天山百盛5楼(近遵义路)"},{"poiid":"B2094757D069A6F8469B","title":"韩林炭烤(天山百盛店)","lon":"121.401095186","lat":"31.2100527364","category":"96","category_name":"韩国料理","address":"长宁区天山路789号百盛5楼(近娄山关路)"},{"poiid":"B2094757D06FA2F5459B","title":"哈玛匠","lon":"121.40303","lat":"31.21128","category":"95","category_name":"日本料理","address":"上海长宁区天山路762号泓鑫时尚广场B2-1(近娄山关路)  "},{"poiid":"B2094757D06FA6FD4398","title":"老北京羊蝎子火锅","lon":"121.402524","lat":"31.211706","category":"86","category_name":"火锅店","address":"长宁区天山路762号泓鑫时尚广场B2-14号商铺(近古北路)"},{"poiid":"B2094757D06FA1FA499B","title":"康师傅私房牛肉面 天山路店","lon":"121.402691054","lat":"31.211096793","category":"68","category_name":"快餐厅","address":"长宁区天山路762号泓鑫时尚广场1楼(近娄山关路)"},{"poiid":"B2094757D16AA4F9449C","title":"天山路古北路路口","lon":"121.39944838","lat":"31.21230328","category":"500","category_name":"未知分类","address":"上海天山路古北路路口"},{"poiid":"B2094757D06FABFC489C","title":"振鼎鸡(泓鑫店)","lon":"121.40280645","lat":"31.211082819","category":"68","category_name":"快餐厅","address":"长宁区天山路762号泓鑫时尚广场1楼(近娄山关路)"},{"poiid":"B2094757D06FA2F54799","title":"老盛昌苏州汤包馆(古北路店)","lon":"121.400782","lat":"31.21043","category":"68","category_name":"快餐厅","address":"长宁区古北路445号(近茅台路)"},{"poiid":"B2094757D468A0F8489C","title":"巴贝隆自助烤肉 天山路店","lon":"121.402838","lat":"31.211259","category":"96","category_name":"韩国料理","address":"长宁区天山路762号泓鑫时尚广场B26-7号(近天山电影院)"},{"poiid":"B2094751D268A4F8419A","title":"季诺意式休闲餐厅(天山店)","lon":"121.4030230925598","lat":"31.210743663835505","category":"111","category_name":"休闲餐饮场所","address":"长宁区天山路889号百盛购物中心3楼(近娄山关路)"},{"poiid":"B2094750D26EA2F8449D","title":"龙樱日式火锅料理","lon":"121.403418","lat":"31.211284","category":"95","category_name":"日本料理","address":"长宁区天山路762号泓鑫时尚广场B2楼15号铺(近古北路)"},{"poiid":"B2094757D06FA6F54492","title":"COCO壱番屋(泓鑫广场店)","lon":"121.40239","lat":"31.21121","category":"95","category_name":"日本料理","address":"长宁区天山路762号泓鑫时尚广场B2楼(近娄山关路)"},{"poiid":"B2094757D06FABF9459B","title":"聚三湘(天山店)","lon":"121.40279","lat":"31.21143","category":"77","category_name":"湖南菜","address":"长宁区天山路762号泓鑫时尚广场4楼(近古北路)"},{"poiid":"B2094757D06FA7F84498","title":"DQ冰雪皇后 泓鑫广场店 Dairy Queen","lon":"121.402691054","lat":"31.211096793","category":"113","category_name":"冷饮店","address":"长宁区天山路762号泓鑫时尚广场1楼(近古北路)"},{"poiid":"B2094757D06AA4F94798","title":"茅台路","lon":"121.40033273","lat":"31.209175173","category":"500","category_name":"未知分类","address":"上海茅台路"},{"poiid":"B2094757D068A0FA4498","title":"巴贝隆","lon":"121.402833286","lat":"31.2109155533","category":"500","category_name":"未知分类","address":"上海长宁区天山路762号泓鑫时尚广场B2复6复7室"},{"poiid":"B2094751D469A1F94093","title":"鲜芋仙泓鑫广场店","lon":"121.401443","lat":"31.211334","category":"247","category_name":"餐饮美食","address":"长宁区天山路762号泓鑫时尚广场F1楼20室(近古北路)"},{"poiid":"B2094655D26DAAF5409A","title":"一刻","lon":"121.400508054","lat":"31.211418793","category":"95","category_name":"日本料理","address":"长宁区古北路437号(近天山路)"},{"poiid":"B2094655D26DA2FA4792","title":"一线烫捞(天山路店)","lon":"121.40252","lat":"31.2117","category":"68","category_name":"快餐厅","address":"长宁区天山路762号泓鑫时尚广场B2楼13座(近娄山关路)"},{"poiid":"B2094757D06FAAFE4998","title":"萨莉亚(泓鑫广场店)","lon":"121.40245","lat":"31.2115","category":"94","category_name":"西餐厅","address":"长宁区天山路762号泓鑫时尚广场B2-复2室(近娄山关路)"},{"poiid":"B2094757D06FA3F84693","title":"健康煮(天山店)","lon":"121.40154052","lat":"31.211592166","category":"86","category_name":"火锅店","address":"长宁区天山路762号泓鑫时尚广场一号楼2楼F1-28(近古北路)"},{"poiid":"B2094757D068A2F94098","title":"肯德基 KFC (泓鑫店)","lon":"121.40140577","lat":"31.211580852","category":"68","category_name":"快餐厅","address":"长宁区天山路762号泓鑫时尚广场1楼(近娄山关路)"},{"poiid":"B2094757D069A6F9489F","title":"维心日面","lon":"121.40246885","lat":"31.21118283","category":"95","category_name":"日本料理","address":"长宁区天山路762号泓鑫时尚广场B2楼(近古北路)"},{"poiid":"B2094655D36CA6FC469B","title":"古北路","lon":"121.40063","lat":"31.21179","category":"38","category_name":"公交车站","address":""},{"poiid":"B2094751D36FA1F4489A","title":"和风铁板料理(天山路店)","lon":"121.40258","lat":"31.21084","category":"269","category_name":"烧烤","address":"长宁区天山路789号百盛购物中心大厦B座5楼(近娄山关路)"},{"poiid":"B209475CD064ABFB479F","title":"耶里夏丽新疆餐厅 天山店","lon":"121.40197","lat":"31.21171","category":"90","category_name":"清真餐馆","address":"天山路762号泓鑫时尚广场西区2楼(近古北路)"},{"poiid":"B2094757D06FAAFE499C","title":"若岛拉面(天山店)","lon":"121.402","lat":"31.21152","category":"95","category_name":"日本料理","address":"长宁区天山路762号泓鑫时尚广场B1-09室(近娄山关路)"},{"poiid":"B2094757D66BA2FC439F","title":"川忆","lon":"121.403418","lat":"31.211284","category":"71","category_name":"四川菜","address":"长宁区天山路762号泓鑫时尚广场4楼(近古北路)"},{"poiid":"B2094757D16AA5FF479B","title":"杂粮小工坊(天山店)","lon":"121.401527586","lat":"31.2113840624","category":"68","category_name":"快餐厅","address":"长宁区天山路762号泓鑫时尚广场1楼(近古北路)"},{"poiid":"B2094757D169A6FA499B","title":"兰桂坊","lon":"121.399307586","lat":"31.2107320497","category":"500","category_name":"未知分类","address":"田林兰桂坊位于徐汇区上海徐汇桂林路625弄"},{"poiid":"B2094750D665A5FC489C","title":"芋贵人甜品店(泓鑫广场店)","lon":"121.402","lat":"31.2117","category":"67","category_name":"甜品店","address":"长宁区天山路762号泓鑫时尚广场B2楼18室(巴贝隆对面)"},{"poiid":"B2094757D06AA3FD479A","title":"古北状元楼","lon":"121.40054","lat":"31.20953","category":"75","category_name":"浙江菜","address":"长宁区古北路460号(近茅台路)"},{"poiid":"B2094654D56BA1F5409D","title":"吉野家 泓鑫广场店","lon":"121.402691054","lat":"31.211096793","category":"95","category_name":"日本料理","address":"长宁区天山路762号泓鑫时尚广场1楼(近娄山关路)"},{"poiid":"B2094757D06BA5FE489C","title":"太郎","lon":"121.40053","lat":"31.20999","category":"95","category_name":"日本料理","address":"长宁区古北路443号(近天山路)"},{"poiid":"B2094757D064A3FA409A","title":"denny house丝袜奶茶(天山店)","lon":"121.40173","lat":"31.20988","category":"113","category_name":"冷饮店","address":"长宁区茅台路168号(近娄山关路)"},{"poiid":"B2094757D168A2FA4999","title":"川忆川菜","lon":"121.401104586","lat":"31.2115570658","category":"247","category_name":"餐饮美食","address":"上海天山路762号四楼"},{"poiid":"B2094655D26AABFB439B","title":"上海歌城天山店","lon":"121.40342","lat":"31.21143","category":"170","category_name":"KTV","address":"长宁区天山路762号泓鑫时尚广场6楼(近娄山关路)"},{"poiid":"B2094757D06EABF54098","title":"百盛购物中心(天山店)","lon":"121.402857386","lat":"31.2114382635","category":"249","category_name":"购物服务","address":"上海长宁区天山路789号(近娄山关路)"},{"poiid":"B2094757D06EAAF54293","title":"三人行骨头王火锅","lon":"121.403418","lat":"31.211284","category":"86","category_name":"火锅店","address":"长宁区天山路762号泓鑫时尚广场5楼东侧(近古北路)"},{"poiid":"B2094654D56BA1F5409E","title":"泓鑫时尚广场","lon":"121.40252","lat":"31.2117","category":"119","category_name":"商场","address":"长宁区天山路762号(近娄山关路)"},{"poiid":"B2094757D068A0FE489C","title":"融合马来西亚餐厅(天山路店)","lon":"121.402935586","lat":"31.2105730466","category":"110","category_name":"其他亚洲菜","address":"上海长宁区天山路789号百盛5楼(近娄山关路)"},{"poiid":"B2094655D26AABFB4392","title":"西贝莜面村(天山路店)","lon":"121.40342","lat":"31.21143","category":"247","category_name":"餐饮美食","address":"长宁区天山路762号泓鑫时尚广场西区5楼(近古北路)"},{"poiid":"B2094757D068A2FD4893","title":"三人行火锅","lon":"121.40228658","lat":"31.211000054","category":"247","category_name":"餐饮美食","address":"上海市天山路"},{"poiid":"B2094751D564A0FD4693","title":"豪辣重庆麻辣火锅","lon":"121.401144","lat":"31.211615","category":"247","category_name":"餐饮美食","address":"天山路古北路"},{"poiid":"B2094757D56DA4F84292","title":"虹桥火车站","lon":"121.40228658","lat":"31.211000054","category":"500","category_name":"未知分类","address":"虹桥火车站"},{"poiid":"B2094757D06FABF4449C","title":"和民居食屋","lon":"121.402830986","lat":"31.2102065394","category":"95","category_name":"日本料理","address":"长宁区天山路789号天山百盛5楼(近天山电影院)"},{"poiid":"B2094654D56BA7FA4599","title":"必胜客欢乐餐厅天山餐厅","lon":"121.40245","lat":"31.21098","category":"68","category_name":"快餐厅","address":"长宁区天山路789号百盛购物中心1楼(近娄山关路)"},{"poiid":"B2094654D56BA7FA459B","title":"麦当劳 天山店 McDonald's","lon":"121.40356793764","lat":"31.210957175327","category":"68","category_name":"快餐厅","address":"长宁区天山路789号天山商厦内(近娄山关路)"},{"poiid":"B2094757D068A4FA479D","title":"小肥羊 天山路店","lon":"121.40487","lat":"31.211051","category":"86","category_name":"火锅店","address":"长宁区天山路900号汇金百货6楼(近娄山关路)"},{"poiid":"B2094757D06FA5FC499B","title":"徽珍源(天山店)","lon":"121.402599","lat":"31.210857","category":"75","category_name":"浙江菜","address":"上海长宁区天山路789号天山百盛A座5楼(近2号地铁站出口)"},{"poiid":"B2094751D26AA7FF449E","title":"伊秀手握寿司（天山店）","lon":"121.40275","lat":"31.21044","category":"95","category_name":"日本料理","address":"长宁区天山路789号天山百盛5楼(近遵义路)"},{"poiid":"B2094757D069A6F8469B","title":"韩林炭烤(天山百盛店)","lon":"121.401095186","lat":"31.2100527364","category":"96","category_name":"韩国料理","address":"长宁区天山路789号百盛5楼(近娄山关路)"},{"poiid":"B2094757D06FA2F5459B","title":"哈玛匠","lon":"121.40303","lat":"31.21128","category":"95","category_name":"日本料理","address":"上海长宁区天山路762号泓鑫时尚广场B2-1(近娄山关路)  "},{"poiid":"B2094757D06FA6FD4398","title":"老北京羊蝎子火锅","lon":"121.402524","lat":"31.211706","category":"86","category_name":"火锅店","address":"长宁区天山路762号泓鑫时尚广场B2-14号商铺(近古北路)"},{"poiid":"B2094757D06FA1FA499B","title":"康师傅私房牛肉面 天山路店","lon":"121.402691054","lat":"31.211096793","category":"68","category_name":"快餐厅","address":"长宁区天山路762号泓鑫时尚广场1楼(近娄山关路)"},{"poiid":"B2094757D16AA4F9449C","title":"天山路古北路路口","lon":"121.39944838","lat":"31.21230328","category":"500","category_name":"未知分类","address":"上海天山路古北路路口"},{"poiid":"B2094757D06FABFC489C","title":"振鼎鸡(泓鑫店)","lon":"121.40280645","lat":"31.211082819","category":"68","category_name":"快餐厅","address":"长宁区天山路762号泓鑫时尚广场1楼(近娄山关路)"},{"poiid":"B2094757D06FA2F54799","title":"老盛昌苏州汤包馆(古北路店)","lon":"121.400782","lat":"31.21043","category":"68","category_name":"快餐厅","address":"长宁区古北路445号(近茅台路)"},{"poiid":"B2094757D468A0F8489C","title":"巴贝隆自助烤肉 天山路店","lon":"121.402838","lat":"31.211259","category":"96","category_name":"韩国料理","address":"长宁区天山路762号泓鑫时尚广场B26-7号(近天山电影院)"},{"poiid":"B2094751D268A4F8419A","title":"季诺意式休闲餐厅(天山店)","lon":"121.4030230925598","lat":"31.210743663835505","category":"111","category_name":"休闲餐饮场所","address":"长宁区天山路889号百盛购物中心3楼(近娄山关路)"},{"poiid":"B2094750D26EA2F8449D","title":"龙樱日式火锅料理","lon":"121.403418","lat":"31.211284","category":"95","category_name":"日本料理","address":"长宁区天山路762号泓鑫时尚广场B2楼15号铺(近古北路)"},{"poiid":"B2094757D06FA6F54492","title":"COCO壱番屋(泓鑫广场店)","lon":"121.40239","lat":"31.21121","category":"95","category_name":"日本料理","address":"长宁区天山路762号泓鑫时尚广场B2楼(近娄山关路)"},{"poiid":"B2094757D06FABF9459B","title":"聚三湘(天山店)","lon":"121.40279","lat":"31.21143","category":"77","category_name":"湖南菜","address":"长宁区天山路762号泓鑫时尚广场4楼(近古北路)"},{"poiid":"B2094757D06FA7F84498","title":"DQ冰雪皇后 泓鑫广场店 Dairy Queen","lon":"121.402691054","lat":"31.211096793","category":"113","category_name":"冷饮店","address":"长宁区天山路762号泓鑫时尚广场1楼(近古北路)"},{"poiid":"B2094757D06AA4F94798","title":"茅台路","lon":"121.40033273","lat":"31.209175173","category":"500","category_name":"未知分类","address":"上海茅台路"},{"poiid":"B2094757D068A0FA4498","title":"巴贝隆","lon":"121.402833286","lat":"31.2109155533","category":"500","category_name":"未知分类","address":"上海长宁区天山路762号泓鑫时尚广场B2复6复7室"},{"poiid":"B2094751D469A1F94093","title":"鲜芋仙泓鑫广场店","lon":"121.401443","lat":"31.211334","category":"247","category_name":"餐饮美食","address":"长宁区天山路762号泓鑫时尚广场F1楼20室(近古北路)"},{"poiid":"B2094655D26DAAF5409A","title":"一刻","lon":"121.400508054","lat":"31.211418793","category":"95","category_name":"日本料理","address":"长宁区古北路437号(近天山路)"},{"poiid":"B2094655D26DA2FA4792","title":"一线烫捞(天山路店)","lon":"121.40252","lat":"31.2117","category":"68","category_name":"快餐厅","address":"长宁区天山路762号泓鑫时尚广场B2楼13座(近娄山关路)"},{"poiid":"B2094757D06FAAFE4998","title":"萨莉亚(泓鑫广场店)","lon":"121.40245","lat":"31.2115","category":"94","category_name":"西餐厅","address":"长宁区天山路762号泓鑫时尚广场B2-复2室(近娄山关路)"},{"poiid":"B2094757D06FA3F84693","title":"健康煮(天山店)","lon":"121.40154052","lat":"31.211592166","category":"86","category_name":"火锅店","address":"长宁区天山路762号泓鑫时尚广场一号楼2楼F1-28(近古北路)"},{"poiid":"B2094757D068A2F94098","title":"肯德基 KFC (泓鑫店)","lon":"121.40140577","lat":"31.211580852","category":"68","category_name":"快餐厅","address":"长宁区天山路762号泓鑫时尚广场1楼(近娄山关路)"},{"poiid":"B2094757D069A6F9489F","title":"维心日面","lon":"121.40246885","lat":"31.21118283","category":"95","category_name":"日本料理","address":"长宁区天山路762号泓鑫时尚广场B2楼(近古北路)"},{"poiid":"B2094655D36CA6FC469B","title":"古北路","lon":"121.40063","lat":"31.21179","category":"38","category_name":"公交车站","address":""},{"poiid":"B2094751D36FA1F4489A","title":"和风铁板料理(天山路店)","lon":"121.40258","lat":"31.21084","category":"269","category_name":"烧烤","address":"长宁区天山路789号百盛购物中心大厦B座5楼(近娄山关路)"},{"poiid":"B209475CD064ABFB479F","title":"耶里夏丽新疆餐厅 天山店","lon":"121.40197","lat":"31.21171","category":"90","category_name":"清真餐馆","address":"天山路762号泓鑫时尚广场西区2楼(近古北路)"},{"poiid":"B2094757D06FAAFE499C","title":"若岛拉面(天山店)","lon":"121.402","lat":"31.21152","category":"95","category_name":"日本料理","address":"长宁区天山路762号泓鑫时尚广场B1-09室(近娄山关路)"},{"poiid":"B2094757D66BA2FC439F","title":"川忆","lon":"121.403418","lat":"31.211284","category":"71","category_name":"四川菜","address":"长宁区天山路762号泓鑫时尚广场4楼(近古北路)"},{"poiid":"B2094757D16AA5FF479B","title":"杂粮小工坊(天山店)","lon":"121.401527586","lat":"31.2113840624","category":"68","category_name":"快餐厅","address":"长宁区天山路762号泓鑫时尚广场1楼(近古北路)"},{"poiid":"B2094757D169A6FA499B","title":"兰桂坊","lon":"121.399307586","lat":"31.2107320497","category":"500","category_name":"未知分类","address":"田林兰桂坊位于徐汇区上海徐汇桂林路625弄"},{"poiid":"B2094750D665A5FC489C","title":"芋贵人甜品店(泓鑫广场店)","lon":"121.402","lat":"31.2117","category":"67","category_name":"甜品店","address":"长宁区天山路762号泓鑫时尚广场B2楼18室(巴贝隆对面)"},{"poiid":"B2094757D06AA3FD479A","title":"古北状元楼","lon":"121.40054","lat":"31.20953","category":"75","category_name":"浙江菜","address":"长宁区古北路460号(近茅台路)"},{"poiid":"B2094654D56BA1F5409D","title":"吉野家 泓鑫广场店","lon":"121.402691054","lat":"31.211096793","category":"95","category_name":"日本料理","address":"长宁区天山路762号泓鑫时尚广场1楼(近娄山关路)"},{"poiid":"B2094757D06BA5FE489C","title":"太郎","lon":"121.40053","lat":"31.20999","category":"95","category_name":"日本料理","address":"长宁区古北路443号(近天山路)"},{"poiid":"B2094757D064A3FA409A","title":"denny house丝袜奶茶(天山店)","lon":"121.40173","lat":"31.20988","category":"113","category_name":"冷饮店","address":"长宁区茅台路168号(近娄山关路)"},{"poiid":"B2094757D168A2FA4999","title":"川忆川菜","lon":"121.401104586","lat":"31.2115570658","category":"247","category_name":"餐饮美食","address":"上海天山路762号四楼"},{"poiid":"B2094655D26AABFB439B","title":"上海歌城天山店","lon":"121.40342","lat":"31.21143","category":"170","category_name":"KTV","address":"长宁区天山路762号泓鑫时尚广场6楼(近娄山关路)"},{"poiid":"B2094757D06EABF54098","title":"百盛购物中心(天山店)","lon":"121.402857386","lat":"31.2114382635","category":"249","category_name":"购物服务","address":"上海长宁区天山路789号(近娄山关路)"},{"poiid":"B2094757D06EAAF54293","title":"三人行骨头王火锅","lon":"121.403418","lat":"31.211284","category":"86","category_name":"火锅店","address":"长宁区天山路762号泓鑫时尚广场5楼东侧(近古北路)"},{"poiid":"B2094654D56BA1F5409E","title":"泓鑫时尚广场","lon":"121.40252","lat":"31.2117","category":"119","category_name":"商场","address":"长宁区天山路762号(近娄山关路)"},{"poiid":"B2094757D068A0FE489C","title":"融合马来西亚餐厅(天山路店)","lon":"121.402935586","lat":"31.2105730466","category":"110","category_name":"其他亚洲菜","address":"上海长宁区天山路789号百盛5楼(近娄山关路)"},{"poiid":"B2094655D26AABFB4392","title":"西贝莜面村(天山路店)","lon":"121.40342","lat":"31.21143","category":"247","category_name":"餐饮美食","address":"长宁区天山路762号泓鑫时尚广场西区5楼(近古北路)"},{"poiid":"B2094757D068A2FD4893","title":"三人行火锅","lon":"121.40228658","lat":"31.211000054","category":"247","category_name":"餐饮美食","address":"上海市天山路"},{"poiid":"B2094751D564A0FD4693","title":"豪辣重庆麻辣火锅","lon":"121.401144","lat":"31.211615","category":"247","category_name":"餐饮美食","address":"天山路古北路"},{"poiid":"B2094757D56DA4F84292","title":"虹桥火车站","lon":"121.40228658","lat":"31.211000054","category":"500","category_name":"未知分类","address":"虹桥火车站"},{"poiid":"B2094757D06FABF4449C","title":"和民居食屋","lon":"121.402830986","lat":"31.2102065394","category":"95","category_name":"日本料理","address":"长宁区天山路789号天山百盛5楼(近天山电影院)"},{"poiid":"B2094654D56BA7FA4599","title":"必胜客欢乐餐厅天山餐厅","lon":"121.40245","lat":"31.21098","category":"68","category_name":"快餐厅","address":"长宁区天山路789号百盛购物中心1楼(近娄山关路)"},{"poiid":"B2094654D56BA7FA459B","title":"麦当劳 天山店 McDonald's","lon":"121.40356793764","lat":"31.210957175327","category":"68","category_name":"快餐厅","address":"长宁区天山路789号天山商厦内(近娄山关路)"},{"poiid":"B2094757D068A4FA479D","title":"小肥羊 天山路店","lon":"121.40487","lat":"31.211051","category":"86","category_name":"火锅店","address":"长宁区天山路900号汇金百货6楼(近娄山关路)"},{"poiid":"B2094757D06FA5FC499B","title":"徽珍源(天山店)","lon":"121.402599","lat":"31.210857","category":"75","category_name":"浙江菜","address":"上海长宁区天山路789号天山百盛A座5楼(近2号地铁站出口)"},{"poiid":"B2094751D26AA7FF449E","title":"伊秀手握寿司（天山店）","lon":"121.40275","lat":"31.21044","category":"95","category_name":"日本料理","address":"长宁区天山路789号天山百盛5楼(近遵义路)"},{"poiid":"B2094757D069A6F8469B","title":"韩林炭烤(天山百盛店)","lon":"121.401095186","lat":"31.2100527364","category":"96","category_name":"韩国料理","address":"长宁区天山路789号百盛5楼(近娄山关路)"},{"poiid":"B2094757D06FA2F5459B","title":"哈玛匠","lon":"121.40303","lat":"31.21128","category":"95","category_name":"日本料理","address":"上海长宁区天山路762号泓鑫时尚广场B2-1(近娄山关路)  "},{"poiid":"B2094757D06FA6FD4398","title":"老北京羊蝎子火锅","lon":"121.402524","lat":"31.211706","category":"86","category_name":"火锅店","address":"长宁区天山路762号泓鑫时尚广场B2-14号商铺(近古北路)"},{"poiid":"B2094757D06FA1FA499B","title":"康师傅私房牛肉面 天山路店","lon":"121.402691054","lat":"31.211096793","category":"68","category_name":"快餐厅","address":"长宁区天山路762号泓鑫时尚广场1楼(近娄山关路)"},{"poiid":"B2094757D16AA4F9449C","title":"天山路古北路路口","lon":"121.39944838","lat":"31.21230328","category":"500","category_name":"未知分类","address":"上海天山路古北路路口"},{"poiid":"B2094757D06FABFC489C","title":"振鼎鸡(泓鑫店)","lon":"121.40280645","lat":"31.211082819","category":"68","category_name":"快餐厅","address":"长宁区天山路762号泓鑫时尚广场1楼(近娄山关路)"},{"poiid":"B2094757D06FA2F54799","title":"老盛昌苏州汤包馆(古北路店)","lon":"121.400782","lat":"31.21043","category":"68","category_name":"快餐厅","address":"长宁区古北路445号(近茅台路)"},{"poiid":"B2094757D468A0F8489C","title":"巴贝隆自助烤肉 天山路店","lon":"121.402838","lat":"31.211259","category":"96","category_name":"韩国料理","address":"长宁区天山路762号泓鑫时尚广场B26-7号(近天山电影院)"},{"poiid":"B2094751D268A4F8419A","title":"季诺意式休闲餐厅(天山店)","lon":"121.4030230925598","lat":"31.210743663835505","category":"111","category_name":"休闲餐饮场所","address":"长宁区天山路889号百盛购物中心3楼(近娄山关路)"},{"poiid":"B2094750D26EA2F8449D","title":"龙樱日式火锅料理","lon":"121.403418","lat":"31.211284","category":"95","category_name":"日本料理","address":"长宁区天山路762号泓鑫时尚广场B2楼15号铺(近古北路)"},{"poiid":"B2094757D06FA6F54492","title":"COCO壱番屋(泓鑫广场店)","lon":"121.40239","lat":"31.21121","category":"95","category_name":"日本料理","address":"长宁区天山路762号泓鑫时尚广场B2楼(近娄山关路)"},{"poiid":"B2094757D06FABF9459B","title":"聚三湘(天山店)","lon":"121.40279","lat":"31.21143","category":"77","category_name":"湖南菜","address":"长宁区天山路762号泓鑫时尚广场4楼(近古北路)"},{"poiid":"B2094757D06FA7F84498","title":"DQ冰雪皇后 泓鑫广场店 Dairy Queen","lon":"121.402691054","lat":"31.211096793","category":"113","category_name":"冷饮店","address":"长宁区天山路762号泓鑫时尚广场1楼(近古北路)"},{"poiid":"B2094757D06AA4F94798","title":"茅台路","lon":"121.40033273","lat":"31.209175173","category":"500","category_name":"未知分类","address":"上海茅台路"},{"poiid":"B2094757D068A0FA4498","title":"巴贝隆","lon":"121.402833286","lat":"31.2109155533","category":"500","category_name":"未知分类","address":"上海长宁区天山路762号泓鑫时尚广场B2复6复7室"},{"poiid":"B2094751D469A1F94093","title":"鲜芋仙泓鑫广场店","lon":"121.401443","lat":"31.211334","category":"247","category_name":"餐饮美食","address":"长宁区天山路762号泓鑫时尚广场F1楼20室(近古北路)"},{"poiid":"B2094655D26DAAF5409A","title":"一刻","lon":"121.400508054","lat":"31.211418793","category":"95","category_name":"日本料理","address":"长宁区古北路437号(近天山路)"},{"poiid":"B2094655D26DA2FA4792","title":"一线烫捞(天山路店)","lon":"121.40252","lat":"31.2117","category":"68","category_name":"快餐厅","address":"长宁区天山路762号泓鑫时尚广场B2楼13座(近娄山关路)"},{"poiid":"B2094757D06FAAFE4998","title":"萨莉亚(泓鑫广场店)","lon":"121.40245","lat":"31.2115","category":"94","category_name":"西餐厅","address":"长宁区天山路762号泓鑫时尚广场B2-复2室(近娄山关路)"},{"poiid":"B2094757D06FA3F84693","title":"健康煮(天山店)","lon":"121.40154052","lat":"31.211592166","category":"86","category_name":"火锅店","address":"长宁区天山路762号泓鑫时尚广场一号楼2楼F1-28(近古北路)"},{"poiid":"B2094757D068A2F94098","title":"肯德基 KFC (泓鑫店)","lon":"121.40140577","lat":"31.211580852","category":"68","category_name":"快餐厅","address":"长宁区天山路762号泓鑫时尚广场1楼(近娄山关路)"},{"poiid":"B2094757D069A6F9489F","title":"维心日面","lon":"121.40246885","lat":"31.21118283","category":"95","category_name":"日本料理","address":"长宁区天山路762号泓鑫时尚广场B2楼(近古北路)"},{"poiid":"B2094655D36CA6FC469B","title":"古北路","lon":"121.40063","lat":"31.21179","category":"38","category_name":"公交车站","address":""},{"poiid":"B2094751D36FA1F4489A","title":"和风铁板料理(天山路店)","lon":"121.40258","lat":"31.21084","category":"269","category_name":"烧烤","address":"长宁区天山路789号百盛购物中心大厦B座5楼(近娄山关路)"},{"poiid":"B209475CD064ABFB479F","title":"耶里夏丽新疆餐厅 天山店","lon":"121.40197","lat":"31.21171","category":"90","category_name":"清真餐馆","address":"天山路762号泓鑫时尚广场西区2楼(近古北路)"},{"poiid":"B2094757D06FAAFE499C","title":"若岛拉面(天山店)","lon":"121.402","lat":"31.21152","category":"95","category_name":"日本料理","address":"长宁区天山路762号泓鑫时尚广场B1-09室(近娄山关路)"},{"poiid":"B2094757D66BA2FC439F","title":"川忆","lon":"121.403418","lat":"31.211284","category":"71","category_name":"四川菜","address":"长宁区天山路762号泓鑫时尚广场4楼(近古北路)"},{"poiid":"B2094757D16AA5FF479B","title":"杂粮小工坊(天山店)","lon":"121.401527586","lat":"31.2113840624","category":"68","category_name":"快餐厅","address":"长宁区天山路762号泓鑫时尚广场1楼(近古北路)"},{"poiid":"B2094757D169A6FA499B","title":"兰桂坊","lon":"121.399307586","lat":"31.2107320497","category":"500","category_name":"未知分类","address":"田林兰桂坊位于徐汇区上海徐汇桂林路625弄"},{"poiid":"B2094750D665A5FC489C","title":"芋贵人甜品店(泓鑫广场店)","lon":"121.402","lat":"31.2117","category":"67","category_name":"甜品店","address":"长宁区天山路762号泓鑫时尚广场B2楼18室(巴贝隆对面)"},{"poiid":"B2094757D06AA3FD479A","title":"古北状元楼","lon":"121.40054","lat":"31.20953","category":"75","category_name":"浙江菜","address":"长宁区古北路460号(近茅台路)"},{"poiid":"B2094654D56BA1F5409D","title":"吉野家 泓鑫广场店","lon":"121.402691054","lat":"31.211096793","category":"95","category_name":"日本料理","address":"长宁区天山路762号泓鑫时尚广场1楼(近娄山关路)"},{"poiid":"B2094757D06BA5FE489C","title":"太郎","lon":"121.40053","lat":"31.20999","category":"95","category_name":"日本料理","address":"长宁区古北路443号(近天山路)"},{"poiid":"B2094757D064A3FA409A","title":"denny house丝袜奶茶(天山店)","lon":"121.40173","lat":"31.20988","category":"113","category_name":"冷饮店","address":"长宁区茅台路168号(近娄山关路)"},{"poiid":"B2094757D168A2FA4999","title":"川忆川菜","lon":"121.401104586","lat":"31.2115570658","category":"247","category_name":"餐饮美食","address":"上海天山路762号四楼"}]