[{"poiid":"B2094757D06FA5FE419B","title":"唐朝大酒店","lon":"121.2268","lat":"31.31661","category":"72","category_name":"广东菜","address":"嘉定区安亭宝安公路4339号(近方德路)"},{"poiid":"B2094757D069A0FB499E","title":"F1赛车场","lon":"121.22218328","lat":"31.334469835","category":"220","category_name":"运动场所","address":"上海F1"},{"poiid":"B2094655D36CA2F4479E","title":"上海赛车场","lon":"121.23606","lat":"31.33054","category":"38","category_name":"公交车站","address":""},{"poiid":"B2094757D06FA1FD4599","title":"松鹤墓园","lon":"121.214534794","lat":"31.3307517551","category":"260","category_name":"其他","address":"嘉定区嘉松北路3485号"},{"poiid":"B2094757D069A2FF4892","title":"方泰镇","lon":"121.21786206","lat":"31.31674276","category":"47","category_name":"住宅区","address":"上海嘉定区方泰镇"},{"poiid":"B2094757D06FA7F94998","title":"上海赛车场地铁站","lon":"121.225481649","lat":"31.3317858564","category":"36","category_name":"地铁站","address":"上海轨道交通 十一号线 轨交上海赛车场站 11"},{"poiid":"B2094654DB64A5F9479A","title":"泰东公寓","lon":"121.22459","lat":"31.319427","category":"47","category_name":"住宅区","address":"东环路129弄1-49号"},{"poiid":"B2094655D26AAAFE409A","title":"上海忠心大酒店","lon":"121.21754","lat":"31.31707","category":"250","category_name":"公园户外","address":"嘉定区安亭镇宝安公路4568号(近F1上海国际赛车场)"},{"poiid":"B2094654DB6AA5F5499B","title":"上岛咖啡(方泰店)","lon":"121.21949","lat":"31.31592","category":"65","category_name":"咖啡厅","address":"嘉定区嘉松北路4428号(近地铁11号线)"},{"poiid":"B2094757D169A3F4449B","title":"劳动模范度假村","lon":"121.22408228","lat":"31.318145499","category":"500","category_name":"未知分类","address":"上海市嘉定区泰富路"},{"poiid":"B2094654D46BA2F84992","title":"国际机电五金城","lon":"121.22789","lat":"31.31693","category":"123","category_name":"家具建材市场","address":"嘉定区方陆路88弄(宝安公路口)"},{"poiid":"B2094757D66AA5FA499F","title":"联怡大酒店 方泰店","lon":"121.219758054","lat":"31.316967793","category":"76","category_name":"上海菜","address":"嘉定区方泰泰顺路69号(嘉松北路泰顺路)"},{"poiid":"B2094757D168A2FF4399","title":"诗缘咖啡","lon":"121.21976","lat":"31.31565","category":"94","category_name":"西餐厅","address":"嘉定区嘉松北路4428号(近地铁11号线)"},{"poiid":"B2094654DB65A2FE4398","title":"妈妈小菜方泰店","lon":"121.22061","lat":"31.3177","category":"257","category_name":"中餐厅","address":"嘉定区方泰镇泰富路172号(近宝安公路)"},{"poiid":"B2094654D46BA2F9489E","title":"桃园别墅二区","lon":"121.21484","lat":"31.31002","category":"47","category_name":"住宅区","address":"方南路475弄"},{"poiid":"B2094757D569A3FF4493","title":"第八人民医院","lon":"121.22291","lat":"31.31987","category":"162","category_name":"医院","address":"漕宝路8号"},{"poiid":"B209475DDA6EAAFB409C","title":"上海国际赛车场","lon":"121.224311","lat":"31.317581","category":"627","category_name":"一般地点标志","address":"上海市 上海市嘉定区"},{"poiid":"B2094654DB65A3FD4798","title":"上海市嘉定区方泰小学","lon":"121.21875","lat":"31.31902","category":"56","category_name":"小学","address":"泰富路275"},{"poiid":"B2094750DA6CABF8419F","title":"上海F1博而地高尔夫俱乐部","lon":"121.228164","lat":"31.319265","category":"500","category_name":"未知分类","address":"宝安公路4188号"},{"poiid":"B2094757DA64A3F5409D","title":"嘉饰茂居家生活广场","lon":"121.227264","lat":"31.314342","category":"252","category_name":"楼宇机构","address":"其他区无锡锡沪东路99号"},{"poiid":"B2094654D46BA1F9419C","title":"德清五金(唐朝酒店东南)","lon":"121.22898","lat":"31.3169","category":"123","category_name":"家具建材市场","address":""},{"poiid":"B2094654D46BA2FA4193","title":"泰盛别墅一区","lon":"121.224","lat":"31.3213","category":"47","category_name":"住宅区","address":"花园浜路３0弄"},{"poiid":"B2094757D569A2F8419E","title":"泰盛公寓","lon":"121.21950222","lat":"31.31463216","category":"47","category_name":"住宅区","address":"中国上海市嘉定区泰顺路"},{"poiid":"B2094654DB64A4F9439E","title":"熊记烧烤方泰店","lon":"121.21713","lat":"31.31551","category":"87","category_name":"特色／地方风味餐厅","address":"嘉定区方泰花园浜路36号(近宝安公路)"},{"poiid":"B2094655D26FA0FE4693","title":"泰东公寓(北门)","lon":"121.22245","lat":"31.32214","category":"47","category_name":"住宅区","address":"东环路279弄1-32号"},{"poiid":"B2094654DB65A2FF459A","title":"新华联超市","lon":"121.21997","lat":"31.31248","category":"117","category_name":"便民商店/便利店","address":""},{"poiid":"B2094654DB64A4FC4093","title":"农工商超市NO.0397","lon":"121.21707","lat":"31.31604","category":"117","category_name":"便民商店/便利店","address":"宝安公路4535号"},{"poiid":"B2094654D46BA2FA419E","title":"方泰派出所","lon":"121.21933","lat":"31.31614","category":"609","category_name":"警察局","address":"嘉定区嘉松北路4418"},{"poiid":"B2094757D16DA1FE449B","title":"同济大学嘉定校区材料楼","lon":"121.22004543","lat":"31.319016767","category":"500","category_name":"未知分类","address":"上海嘉定区曹安公路4800号同济大学内"},{"poiid":"B2094757D064A0FA449D","title":"桃园别墅","lon":"121.217035889","lat":"31.3103003377","category":"47","category_name":"住宅区","address":"上海市嘉定区安亭镇方南路"},{"poiid":"B2094654DB65A3F4419C","title":"花中苑","lon":"121.21726","lat":"31.31984","category":"47","category_name":"住宅区","address":"方中路77弄"},{"poiid":"B2094655D36CA6F94098","title":"方泰","lon":"121.21649","lat":"31.31974","category":"38","category_name":"公交车站","address":""},{"poiid":"B2094757D66FA6F9429F","title":"中涂化工上海有限公司","lon":"121.2224671","lat":"31.3120855","category":"500","category_name":"未知分类","address":"上海市嘉松北路4677号"},{"poiid":"B2094655D26FA1F5489E","title":"桃园别墅一区(北二门)","lon":"121.22002","lat":"31.31214","category":"47","category_name":"住宅区","address":"方泰镇"},{"poiid":"B2094654D46BA2FB469D","title":"上海善尔德五金机电有限公司","lon":"121.23032","lat":"31.31498","category":"123","category_name":"家具建材市场","address":"安亭镇方泰方德路203-207号"},{"poiid":"B2094654D46BA2FB459A","title":"上海宜家·金成门业","lon":"121.23181","lat":"31.31343","category":"123","category_name":"家具建材市场","address":"方德路273-275号"},{"poiid":"B2094655D26EA0F4479D","title":"好又多购物中心方泰店","lon":"121.21556","lat":"31.31765","category":"119","category_name":"商场","address":""},{"poiid":"B2094757D569A3FA4493","title":"欣安医院","lon":"121.21623725","lat":"31.3157921","category":"162","category_name":"医院","address":"中国上海市嘉定区宝安公路"},{"poiid":"B2094757D569A1FA489D","title":"宝安公路4385弄","lon":"121.216512","lat":"31.321442","category":"47","category_name":"住宅区","address":"上海市嘉定区宝安公路4385弄"},{"poiid":"B2094654D46BA2FA499A","title":"快客No.1361","lon":"121.21635","lat":"31.32029","category":"117","category_name":"便民商店/便利店","address":""},{"poiid":"B2094655D26FA1F9489B","title":"川锦火锅方泰分店","lon":"121.21604","lat":"31.31615","category":"86","category_name":"火锅店","address":""},{"poiid":"B2094654D46BA2FA4993","title":"花园新村(花园浜路)","lon":"121.21435","lat":"31.31777","category":"47","category_name":"住宅区","address":"花园浜路151号"},{"poiid":"B2094655D36CA6FA4499","title":"东赵巷","lon":"121.22198","lat":"31.30875","category":"38","category_name":"公交车站","address":""},{"poiid":"B2094757D568A7F9449D","title":"漳浦石前代销店","lon":"121.21687554","lat":"31.31383626","category":"117","category_name":"便民商店/便利店","address":"泰顺路208"},{"poiid":"B2094757D16AAAF84792","title":"象山半岛人家","lon":"121.21461","lat":"31.32156","category":"260","category_name":"其他","address":"嘉定区嘉松北路4151号(近宝安公路)"},{"poiid":"B2094757D66FA2FA449A","title":"花中苑小区46号","lon":"121.21646328","lat":"31.320185541","category":"47","category_name":"住宅区","address":"上海市嘉定区嘉松北路"},{"poiid":"B2094654D46BA2F8429B","title":"桃园别墅一区","lon":"121.21804","lat":"31.31031","category":"47","category_name":"住宅区","address":"方南路401弄"},{"poiid":"B2094757D66CA0FB439B","title":"采蝶轩","lon":"121.218009","lat":"31.319772","category":"500","category_name":"未知分类","address":"上海百花谷"},{"poiid":"B2094654DB65A2FF4299","title":"泰盛别墅二区","lon":"121.21541","lat":"31.314","category":"47","category_name":"住宅区","address":"方泰镇"},{"poiid":"B2094655D36DA1F4489B","title":"翔方公路嘉松北路","lon":"121.2229","lat":"31.3059","category":"38","category_name":"公交车站","address":""},{"poiid":"B2094757D06FA5FE419B","title":"唐朝大酒店","lon":"121.2268","lat":"31.31661","category":"72","category_name":"广东菜","address":"嘉定区安亭宝安公路4339号(近方德路)"},{"poiid":"B2094757D069A0FB499E","title":"F1赛车场","lon":"121.22218328","lat":"31.334469835","category":"220","category_name":"运动场所","address":"上海F1"},{"poiid":"B2094655D36CA2F4479E","title":"上海赛车场","lon":"121.23606","lat":"31.33054","category":"38","category_name":"公交车站","address":""},{"poiid":"B2094757D06FA1FD4599","title":"松鹤墓园","lon":"121.214534794","lat":"31.3307517551","category":"260","category_name":"其他","address":"嘉定区嘉松北路3485号"},{"poiid":"B2094757D069A2FF4892","title":"方泰镇","lon":"121.21786206","lat":"31.31674276","category":"47","category_name":"住宅区","address":"上海嘉定区方泰镇"},{"poiid":"B2094757D06FA7F94998","title":"上海赛车场地铁站","lon":"121.225481649","lat":"31.3317858564","category":"36","category_name":"地铁站","address":"上海轨道交通 十一号线 轨交上海赛车场站 11"},{"poiid":"B2094654DB64A5F9479A","title":"泰东公寓","lon":"121.22459","lat":"31.319427","category":"47","category_name":"住宅区","address":"东环路129弄1-49号"},{"poiid":"B2094655D26AAAFE409A","title":"上海忠心大酒店","lon":"121.21754","lat":"31.31707","category":"250","category_name":"公园户外","address":"嘉定区安亭镇宝安公路4568号(近F1上海国际赛车场)"},{"poiid":"B2094654DB6AA5F5499B","title":"上岛咖啡(方泰店)","lon":"121.21949","lat":"31.31592","category":"65","category_name":"咖啡厅","address":"嘉定区嘉松北路4428号(近地铁11号线)"},{"poiid":"B2094757D169A3F4449B","title":"劳动模范度假村","lon":"121.22408228","lat":"31.318145499","category":"500","category_name":"未知分类","address":"上海市嘉定区泰富路"},{"poiid":"B2094654D46BA2F84992","title":"国际机电五金城","lon":"121.22789","lat":"31.31693","category":"123","category_name":"家具建材市场","address":"嘉定区方陆路88弄(宝安公路口)"},{"poiid":"B2094757D66AA5FA499F","title":"联怡大酒店 方泰店","lon":"121.219758054","lat":"31.316967793","category":"76","category_name":"上海菜","address":"嘉定区方泰泰顺路69号(嘉松北路泰顺路)"},{"poiid":"B2094757D168A2FF4399","title":"诗缘咖啡","lon":"121.21976","lat":"31.31565","category":"94","category_name":"西餐厅","address":"嘉定区嘉松北路4428号(近地铁11号线)"},{"poiid":"B2094654DB65A2FE4398","title":"妈妈小菜方泰店","lon":"121.22061","lat":"31.3177","category":"257","category_name":"中餐厅","address":"嘉定区方泰镇泰富路172号(近宝安公路)"},{"poiid":"B2094654D46BA2F9489E","title":"桃园别墅二区","lon":"121.21484","lat":"31.31002","category":"47","category_name":"住宅区","address":"方南路475弄"},{"poiid":"B2094757D569A3FF4493","title":"第八人民医院","lon":"121.22291","lat":"31.31987","category":"162","category_name":"医院","address":"漕宝路8号"},{"poiid":"B209475DDA6EAAFB409C","title":"上海国际赛车场","lon":"121.224311","lat":"31.317581","category":"627","category_name":"一般地点标志","address":"上海市 上海市嘉定区"},{"poiid":"B2094654DB65A3FD4798","title":"上海市嘉定区方泰小学","lon":"121.21875","lat":"31.31902","category":"56","category_name":"小学","address":"泰富路275"},{"poiid":"B2094750DA6CABF8419F","title":"上海F1博而地高尔夫俱乐部","lon":"121.228164","lat":"31.319265","category":"500","category_name":"未知分类","address":"宝安公路4188号"},{"poiid":"B2094757DA64A3F5409D","title":"嘉饰茂居家生活广场","lon":"121.227264","lat":"31.314342","category":"252","category_name":"楼宇机构","address":"其他区无锡锡沪东路99号"},{"poiid":"B2094654D46BA1F9419C","title":"德清五金(唐朝酒店东南)","lon":"121.22898","lat":"31.3169","category":"123","category_name":"家具建材市场","address":""},{"poiid":"B2094654D46BA2FA4193","title":"泰盛别墅一区","lon":"121.224","lat":"31.3213","category":"47","category_name":"住宅区","address":"花园浜路３0弄"},{"poiid":"B2094757D569A2F8419E","title":"泰盛公寓","lon":"121.21950222","lat":"31.31463216","category":"47","category_name":"住宅区","address":"中国上海市嘉定区泰顺路"},{"poiid":"B2094654DB64A4F9439E","title":"熊记烧烤方泰店","lon":"121.21713","lat":"31.31551","category":"87","category_name":"特色／地方风味餐厅","address":"嘉定区方泰花园浜路36号(近宝安公路)"},{"poiid":"B2094655D26FA0FE4693","title":"泰东公寓(北门)","lon":"121.22245","lat":"31.32214","category":"47","category_name":"住宅区","address":"东环路279弄1-32号"},{"poiid":"B2094654DB65A2FF459A","title":"新华联超市","lon":"121.21997","lat":"31.31248","category":"117","category_name":"便民商店/便利店","address":""},{"poiid":"B2094654DB64A4FC4093","title":"农工商超市NO.0397","lon":"121.21707","lat":"31.31604","category":"117","category_name":"便民商店/便利店","address":"宝安公路4535号"},{"poiid":"B2094654D46BA2FA419E","title":"方泰派出所","lon":"121.21933","lat":"31.31614","category":"609","category_name":"警察局","address":"嘉定区嘉松北路4418"},{"poiid":"B2094757D16DA1FE449B","title":"同济大学嘉定校区材料楼","lon":"121.22004543","lat":"31.319016767","category":"500","category_name":"未知分类","address":"上海嘉定区曹安公路4800号同济大学内"},{"poiid":"B2094757D064A0FA449D","title":"桃园别墅","lon":"121.217035889","lat":"31.3103003377","category":"47","category_name":"住宅区","address":"上海市嘉定区安亭镇方南路"},{"poiid":"B2094654DB65A3F4419C","title":"花中苑","lon":"121.21726","lat":"31.31984","category":"47","category_name":"住宅区","address":"方中路77弄"},{"poiid":"B2094655D36CA6F94098","title":"方泰","lon":"121.21649","lat":"31.31974","category":"38","category_name":"公交车站","address":""},{"poiid":"B2094757D66FA6F9429F","title":"中涂化工上海有限公司","lon":"121.2224671","lat":"31.3120855","category":"500","category_name":"未知分类","address":"上海市嘉松北路4677号"},{"poiid":"B2094655D26FA1F5489E","title":"桃园别墅一区(北二门)","lon":"121.22002","lat":"31.31214","category":"47","category_name":"住宅区","address":"方泰镇"},{"poiid":"B2094654D46BA2FB469D","title":"上海善尔德五金机电有限公司","lon":"121.23032","lat":"31.31498","category":"123","category_name":"家具建材市场","address":"安亭镇方泰方德路203-207号"},{"poiid":"B2094654D46BA2FB459A","title":"上海宜家·金成门业","lon":"121.23181","lat":"31.31343","category":"123","category_name":"家具建材市场","address":"方德路273-275号"},{"poiid":"B2094655D26EA0F4479D","title":"好又多购物中心方泰店","lon":"121.21556","lat":"31.31765","category":"119","category_name":"商场","address":""},{"poiid":"B2094757D569A3FA4493","title":"欣安医院","lon":"121.21623725","lat":"31.3157921","category":"162","category_name":"医院","address":"中国上海市嘉定区宝安公路"},{"poiid":"B2094757D569A1FA489D","title":"宝安公路4385弄","lon":"121.216512","lat":"31.321442","category":"47","category_name":"住宅区","address":"上海市嘉定区宝安公路4385弄"},{"poiid":"B2094654D46BA2FA499A","title":"快客No.1361","lon":"121.21635","lat":"31.32029","category":"117","category_name":"便民商店/便利店","address":""},{"poiid":"B2094655D26FA1F9489B","title":"川锦火锅方泰分店","lon":"121.21604","lat":"31.31615","category":"86","category_name":"火锅店","address":""},{"poiid":"B2094654D46BA2FA4993","title":"花园新村(花园浜路)","lon":"121.21435","lat":"31.31777","category":"47","category_name":"住宅区","address":"花园浜路151号"},{"poiid":"B2094655D36CA6FA4499","title":"东赵巷","lon":"121.22198","lat":"31.30875","category":"38","category_name":"公交车站","address":""},{"poiid":"B2094757D568A7F9449D","title":"漳浦石前代销店","lon":"121.21687554","lat":"31.31383626","category":"117","category_name":"便民商店/便利店","address":"泰顺路208"},{"poiid":"B2094757D16AAAF84792","title":"象山半岛人家","lon":"121.21461","lat":"31.32156","category":"260","category_name":"其他","address":"嘉定区嘉松北路4151号(近宝安公路)"},{"poiid":"B2094757D66FA2FA449A","title":"花中苑小区46号","lon":"121.21646328","lat":"31.320185541","category":"47","category_name":"住宅区","address":"上海市嘉定区嘉松北路"},{"poiid":"B2094654D46BA2F8429B","title":"桃园别墅一区","lon":"121.21804","lat":"31.31031","category":"47","category_name":"住宅区","address":"方南路401弄"},{"poiid":"B2094757D66CA0FB439B","title":"采蝶轩","lon":"121.218009","lat":"31.319772","category":"500","category_name":"未知分类","address":"上海百花谷"},{"poiid":"B2094654DB65A2FF4299","title":"泰盛别墅二区","lon":"121.21541","lat":"31.314","category":"47","category_name":"住宅区","address":"方泰镇"},{"poiid":"B2094655D36DA1F4489B","title":"翔方公路嘉松北路","lon":"121.2229","lat":"31.3059","category":"38","category_name":"公交车站","address":""}]