[{"poiid":"B2094757D06EAAFE459D","title":"思南公馆","lon":"121.46813836607953","lat":"31.214518389031245","category":"172","category_name":"酒吧","address":"卢湾区思南路55号思南公馆63-95号楼(近复兴中路)"},{"poiid":"B2094654DB65A6FA409D","title":"复兴公园","lon":"121.46890775116913","lat":"31.216458585904284","category":"196","category_name":"公园","address":"卢湾区皋兰路2号甲(近思南路)"},{"poiid":"B2094757D06FA3F9439C","title":"拳击猫啤酒屋 Boxing Cat Brewery(思南路店)","lon":"121.46768783","lat":"31.215615828","category":"94","category_name":"西餐厅","address":"卢湾区复兴中路519号思南公馆26A栋(近思南路)"},{"poiid":"B2094753D76FAAFA449C","title":"上海滩国泰旗舰店","lon":"121.466011","lat":"31.216125","category":"249","category_name":"购物服务","address":"淮海中路868号"},{"poiid":"B209475CD564A7F84292","title":"上海滩新天地店","lon":"121.47463","lat":"31.22164","category":"119","category_name":"商场","address":"\"太仓路181弄新天地北里15号\r\n\""},{"poiid":"B209475CD564A7F8439E","title":"上海滩中信泰富店","lon":"121.45602","lat":"31.22851","category":"119","category_name":"商场","address":"\"南京西路1168号中信泰富广场，店铺号221.\r\n\""},{"poiid":"B2094757D06FA2F44698","title":"California Pizza Kitchen(思南公馆店)","lon":"121.46871509","lat":"31.215263676","category":"94","category_name":"西餐厅","address":"卢湾区复兴中路507弄思南公馆3号2楼(近重庆南路)"},{"poiid":"B2094655D26EAAFC409C","title":"Richy(复兴公园店)","lon":"121.47016","lat":"31.2177","category":"260","category_name":"其他","address":"卢湾区皋兰路2号甲复兴公园内(近思南路)"},{"poiid":"B2094757D06FA3F8449A","title":"COSTA COFFEE(思南公馆店)","lon":"121.46997364","lat":"31.21457859","category":"65","category_name":"咖啡厅","address":"卢湾区复兴中路507弄5号1楼103室(近重庆南路)"},{"poiid":"B2094757D06FA0FC4493","title":"Shanghai Slim's","lon":"121.46852999","lat":"31.215135828","category":"94","category_name":"西餐厅","address":"卢湾区复兴中路523弄思南公馆10-12号26D"},{"poiid":"B2094750D26CA2FE4699","title":"安薇塔英国茶体系 复兴中路店","lon":"121.4684398","lat":"31.2151914","category":"260","category_name":"其他","address":"卢湾区复兴中路529号思南公馆27幢(近思南路)"},{"poiid":"B2094757D069AAFD4193","title":"labrioche拉普利奥","lon":"121.46821816","lat":"31.215114399","category":"500","category_name":"未知分类","address":"上海思南路51号思南公馆"},{"poiid":"B2094757DB6AA4F5439F","title":"猫的天空之城","lon":"121.470243","lat":"31.218327","category":"248","category_name":"生活娱乐","address":"马当路245号新天地时尚购物广场B112号(近自忠路)"},{"poiid":"B2094757D469A5F9479C","title":"鱼藏 思南公馆店 UoKura","lon":"121.468","lat":"31.21458","category":"95","category_name":"日本料理","address":"卢湾区复兴中路507弄思南公馆(近思南路)"},{"poiid":"B2094757D06FA1F9449C","title":"孙中山故居","lon":"121.46759796","lat":"31.216024398","category":"243","category_name":"纪念馆","address":"卢湾区香山路7号(近思南路)"},{"poiid":"B2094757D06FA0FF489C","title":"Alchemist Cocktail Kitchen","lon":"121.46824419","lat":"31.215264793","category":"260","category_name":"其他","address":"卢湾区思南路45号思南公馆32号楼1-2楼(近复兴中路)"},{"poiid":"B2094757D06FA7FB489E","title":"官邸","lon":"121.4676","lat":"31.21717","category":"47","category_name":"住宅区","address":"卢湾区皋兰路2号甲复兴公园内(近思南路)"},{"poiid":"B2094757D66EA7FC499F","title":"交通大学医学院","lon":"121.47045573","lat":"31.212595924","category":"253","category_name":"校园生活","address":"上海重庆南路280号"},{"poiid":"B2094757DA6EA7FA4898","title":"慧公馆(思南公馆店)","lon":"121.468108199999","lat":"31.2144047999999","category":"72","category_name":"广东菜","address":"卢湾区思南路59号(近复兴中路)"},{"poiid":"B2094750D26FABFF429F","title":"True color本色酒吧","lon":"121.469528","lat":"31.218008","category":"248","category_name":"生活娱乐","address":"复兴公园"},{"poiid":"B2094757D068A1FE409B","title":"The Funky Chicken","lon":"121.468556271","lat":"31.2149832923","category":"94","category_name":"西餐厅","address":"卢湾区思南路55号思南公馆26号楼1楼(近复兴中路)"},{"poiid":"B2094757D164A2FF449F","title":"南北高架","lon":"121.470309792","lat":"31.2140381135","category":"500","category_name":"未知分类","address":"上海卢湾"},{"poiid":"B2094655D36CA6FF4293","title":"复兴中路","lon":"121.47073","lat":"31.21609","category":"38","category_name":"公交车站","address":""},{"poiid":"B2094757D06FA3FC4399","title":"周公馆(周恩来故居)","lon":"121.4688193","lat":"31.213421744","category":"260","category_name":"其他","address":"上海卢湾区思南路73号"},{"poiid":"B2094757D16CA7F44999","title":"晶浦会(思南公馆店)","lon":"121.46982518","lat":"31.215764791","category":"72","category_name":"广东菜","address":"卢湾区思南路55号思南公馆35号2-3楼(近复兴中路)"},{"poiid":"B2094750D26AA3FB479D","title":"Annvita tea time","lon":"121.468894","lat":"31.215209","category":"500","category_name":"未知分类","address":"思南公馆59号"},{"poiid":"B2094757D06FABFE429A","title":"Chicha Lounge","lon":"121.46801629","lat":"31.214670398","category":"260","category_name":"其他","address":"卢湾区思南路55号思南公馆33号楼1-2楼(近复兴中路)"},{"poiid":"B2094757D06BA0FE4198","title":"橘(思南公馆)","lon":"121.468265738","lat":"31.2155129865","category":"95","category_name":"日本料理","address":"卢湾区思南路55号思南公馆26E(近复兴公园)"},{"poiid":"B2094757D06AA3FF499F","title":"魚蔵","lon":"121.47018573","lat":"31.215160979","category":"500","category_name":"未知分类","address":"上海思南路55号思南公馆1号3楼(近复兴中路)"},{"poiid":"B2094750DA64A7FE449B","title":"新锦江饭店","lon":"121.469696","lat":"31.21635","category":"247","category_name":"餐饮美食","address":null},{"poiid":"B2094654DB65A4F8479E","title":"复兴公园(南门)","lon":"121.47041","lat":"31.21575","category":"656","category_name":"大门","address":"上海卢湾区皋兰路2号甲(近思南路)"},{"poiid":"B2094654DA6DA5FE429B","title":"天主教上海教区圣伯多禄堂","lon":"121.46995","lat":"31.21339","category":"245","category_name":"教堂","address":"重庆南路270"},{"poiid":"B2094757D064A2FB439A","title":"思南公馆诗碧阁Specialty","lon":"121.47044173","lat":"31.214863972","category":"500","category_name":"未知分类","address":"上海市卢湾区南昌路"},{"poiid":"B2094753D76AA5FC439A","title":"树洞咖啡","lon":"121.47134","lat":"31.21385","category":"65","category_name":"咖啡厅","address":"上海市卢湾区合肥路636号(近重庆南路)"},{"poiid":"B2094757D469A3F84092","title":"拉普利奥 思南路店","lon":"121.46799","lat":"31.21458","category":"112","category_name":"糕饼店","address":"卢湾区复兴中路523弄思南公馆35号102单元(近复兴中路)"},{"poiid":"B2094757D06AA0FB409C","title":"品芳面馆","lon":"121.470912054","lat":"31.216979793","category":"68","category_name":"快餐厅","address":"卢湾区重庆南路183号(复兴中路重庆南路)"},{"poiid":"B2094750DB69ABFC4498","title":"光明村大酒楼","lon":"121.470329","lat":"31.215513","category":"247","category_name":"餐饮美食","address":null},{"poiid":"B2094654DA6DA5FD419C","title":"中共代表团驻沪办事处纪念馆(周公馆)","lon":"121.46852","lat":"31.2142","category":"243","category_name":"纪念馆","address":"卢湾区思南路73号(近建国中路)"},{"poiid":"B2094757D068ABFE4998","title":"Yucca by David Laris","lon":"121.46803783","lat":"31.214799104","category":"94","category_name":"西餐厅","address":"卢湾区思南路55号思南公馆26号楼3楼(近复兴中路)"},{"poiid":"B2094654DA6DABFA4698","title":"钱柜(重庆南路)","lon":"121.4701","lat":"31.21783","category":"68","category_name":"快餐厅","address":"瑞金二路"},{"poiid":"B2094757D468A4FD419E","title":"X Bistro & Rumbar","lon":"121.4683461","lat":"31.2139728","category":"94","category_name":"西餐厅","address":"卢湾区思南路47号33号楼3楼(近复兴中路)"},{"poiid":"B2094757D169A6FB479B","title":"思南公馆57号法餐厅","lon":"121.46886973","lat":"31.214605967","category":"500","category_name":"未知分类","address":"上海市卢湾区瑞金二路"},{"poiid":"B2094757D064A2FA419D","title":"LA BRIOCHE面包","lon":"121.46930773","lat":"31.215565987","category":"247","category_name":"餐饮美食","address":"上海市卢湾区思南公馆35号102单元"},{"poiid":"B2094757D169A5F9469D","title":"南北高架淮海路","lon":"121.47080473","lat":"31.21662301","category":"500","category_name":"未知分类","address":"上海市南北高架"},{"poiid":"B2094750DB6BABFA4498","title":"THE PUBLIC Food&Drinks","lon":"121.469001","lat":"31.215293","category":"94","category_name":"西餐厅","address":"卢湾区复兴中路507弄1号楼4楼(近重庆南路)"},{"poiid":"B2094655D268A3FF4898","title":"法国公园旧址","lon":"121.47017","lat":"31.2161","category":"196","category_name":"公园","address":"复兴中路516"},{"poiid":"B2094757D568ABFC4799","title":"交大医学院西校区","lon":"121.46739","lat":"31.21463","category":"52","category_name":"高等院校","address":"重庆南路280号"},{"poiid":"B2094655D26CA4F94699","title":"钱柜卢湾店(东门)","lon":"121.47074","lat":"31.21645","category":"68","category_name":"快餐厅","address":""},{"poiid":"B2094655D36DA7F9459E","title":"重庆南路复兴中路","lon":"121.47099","lat":"31.21581","category":"38","category_name":"公交车站","address":""},{"poiid":"B2094655D26CA1FE4599","title":"复兴公园(北门)","lon":"121.46957","lat":"31.21833","category":"656","category_name":"大门","address":"上海卢湾区皋兰路2号甲(近思南路)"},{"poiid":"B2094757D06EAAFE459D","title":"思南公馆","lon":"121.46813836607953","lat":"31.214518389031245","category":"172","category_name":"酒吧","address":"卢湾区思南路55号思南公馆63-95号楼(近复兴中路)"},{"poiid":"B2094654DB65A6FA409D","title":"复兴公园","lon":"121.46890775116913","lat":"31.216458585904284","category":"196","category_name":"公园","address":"卢湾区皋兰路2号甲(近思南路)"},{"poiid":"B2094757D06FA3F9439C","title":"拳击猫啤酒屋 Boxing Cat Brewery(思南路店)","lon":"121.46768783","lat":"31.215615828","category":"94","category_name":"西餐厅","address":"卢湾区复兴中路519号思南公馆26A栋(近思南路)"},{"poiid":"B2094753D76FAAFA449C","title":"上海滩国泰旗舰店","lon":"121.466011","lat":"31.216125","category":"249","category_name":"购物服务","address":"淮海中路868号"},{"poiid":"B209475CD564A7F84292","title":"上海滩新天地店","lon":"121.47463","lat":"31.22164","category":"119","category_name":"商场","address":"\"太仓路181弄新天地北里15号\r\n\""},{"poiid":"B209475CD564A7F8439E","title":"上海滩中信泰富店","lon":"121.45602","lat":"31.22851","category":"119","category_name":"商场","address":"\"南京西路1168号中信泰富广场，店铺号221.\r\n\""},{"poiid":"B2094757D06FA2F44698","title":"California Pizza Kitchen(思南公馆店)","lon":"121.46871509","lat":"31.215263676","category":"94","category_name":"西餐厅","address":"卢湾区复兴中路507弄思南公馆3号2楼(近重庆南路)"},{"poiid":"B2094655D26EAAFC409C","title":"Richy(复兴公园店)","lon":"121.47016","lat":"31.2177","category":"260","category_name":"其他","address":"卢湾区皋兰路2号甲复兴公园内(近思南路)"},{"poiid":"B2094757D06FA3F8449A","title":"COSTA COFFEE(思南公馆店)","lon":"121.46997364","lat":"31.21457859","category":"65","category_name":"咖啡厅","address":"卢湾区复兴中路507弄5号1楼103室(近重庆南路)"},{"poiid":"B2094757D06FA0FC4493","title":"Shanghai Slim's","lon":"121.46852999","lat":"31.215135828","category":"94","category_name":"西餐厅","address":"卢湾区复兴中路523弄思南公馆10-12号26D"},{"poiid":"B2094750D26CA2FE4699","title":"安薇塔英国茶体系 复兴中路店","lon":"121.4684398","lat":"31.2151914","category":"260","category_name":"其他","address":"卢湾区复兴中路529号思南公馆27幢(近思南路)"},{"poiid":"B2094757D069AAFD4193","title":"labrioche拉普利奥","lon":"121.46821816","lat":"31.215114399","category":"500","category_name":"未知分类","address":"上海思南路51号思南公馆"},{"poiid":"B2094757DB6AA4F5439F","title":"猫的天空之城","lon":"121.470243","lat":"31.218327","category":"248","category_name":"生活娱乐","address":"马当路245号新天地时尚购物广场B112号(近自忠路)"},{"poiid":"B2094757D469A5F9479C","title":"鱼藏 思南公馆店 UoKura","lon":"121.468","lat":"31.21458","category":"95","category_name":"日本料理","address":"卢湾区复兴中路507弄思南公馆(近思南路)"},{"poiid":"B2094757D06FA1F9449C","title":"孙中山故居","lon":"121.46759796","lat":"31.216024398","category":"243","category_name":"纪念馆","address":"卢湾区香山路7号(近思南路)"},{"poiid":"B2094757D06FA0FF489C","title":"Alchemist Cocktail Kitchen","lon":"121.46824419","lat":"31.215264793","category":"260","category_name":"其他","address":"卢湾区思南路45号思南公馆32号楼1-2楼(近复兴中路)"},{"poiid":"B2094757D06FA7FB489E","title":"官邸","lon":"121.4676","lat":"31.21717","category":"47","category_name":"住宅区","address":"卢湾区皋兰路2号甲复兴公园内(近思南路)"},{"poiid":"B2094757D66EA7FC499F","title":"交通大学医学院","lon":"121.47045573","lat":"31.212595924","category":"253","category_name":"校园生活","address":"上海重庆南路280号"},{"poiid":"B2094757DA6EA7FA4898","title":"慧公馆(思南公馆店)","lon":"121.468108199999","lat":"31.2144047999999","category":"72","category_name":"广东菜","address":"卢湾区思南路59号(近复兴中路)"},{"poiid":"B2094750D26FABFF429F","title":"True color本色酒吧","lon":"121.469528","lat":"31.218008","category":"248","category_name":"生活娱乐","address":"复兴公园"},{"poiid":"B2094757D068A1FE409B","title":"The Funky Chicken","lon":"121.468556271","lat":"31.2149832923","category":"94","category_name":"西餐厅","address":"卢湾区思南路55号思南公馆26号楼1楼(近复兴中路)"},{"poiid":"B2094757D164A2FF449F","title":"南北高架","lon":"121.470309792","lat":"31.2140381135","category":"500","category_name":"未知分类","address":"上海卢湾"},{"poiid":"B2094655D36CA6FF4293","title":"复兴中路","lon":"121.47073","lat":"31.21609","category":"38","category_name":"公交车站","address":""},{"poiid":"B2094757D06FA3FC4399","title":"周公馆(周恩来故居)","lon":"121.4688193","lat":"31.213421744","category":"260","category_name":"其他","address":"上海卢湾区思南路73号"},{"poiid":"B2094757D16CA7F44999","title":"晶浦会(思南公馆店)","lon":"121.46982518","lat":"31.215764791","category":"72","category_name":"广东菜","address":"卢湾区思南路55号思南公馆35号2-3楼(近复兴中路)"},{"poiid":"B2094750D26AA3FB479D","title":"Annvita tea time","lon":"121.468894","lat":"31.215209","category":"500","category_name":"未知分类","address":"思南公馆59号"},{"poiid":"B2094757D06FABFE429A","title":"Chicha Lounge","lon":"121.46801629","lat":"31.214670398","category":"260","category_name":"其他","address":"卢湾区思南路55号思南公馆33号楼1-2楼(近复兴中路)"},{"poiid":"B2094757D06BA0FE4198","title":"橘(思南公馆)","lon":"121.468265738","lat":"31.2155129865","category":"95","category_name":"日本料理","address":"卢湾区思南路55号思南公馆26E(近复兴公园)"},{"poiid":"B2094757D06AA3FF499F","title":"魚蔵","lon":"121.47018573","lat":"31.215160979","category":"500","category_name":"未知分类","address":"上海思南路55号思南公馆1号3楼(近复兴中路)"},{"poiid":"B2094750DA64A7FE449B","title":"新锦江饭店","lon":"121.469696","lat":"31.21635","category":"247","category_name":"餐饮美食","address":null},{"poiid":"B2094654DB65A4F8479E","title":"复兴公园(南门)","lon":"121.47041","lat":"31.21575","category":"656","category_name":"大门","address":"上海卢湾区皋兰路2号甲(近思南路)"},{"poiid":"B2094654DA6DA5FE429B","title":"天主教上海教区圣伯多禄堂","lon":"121.46995","lat":"31.21339","category":"245","category_name":"教堂","address":"重庆南路270"},{"poiid":"B2094757D064A2FB439A","title":"思南公馆诗碧阁Specialty","lon":"121.47044173","lat":"31.214863972","category":"500","category_name":"未知分类","address":"上海市卢湾区南昌路"},{"poiid":"B2094753D76AA5FC439A","title":"树洞咖啡","lon":"121.47134","lat":"31.21385","category":"65","category_name":"咖啡厅","address":"上海市卢湾区合肥路636号(近重庆南路)"},{"poiid":"B2094757D469A3F84092","title":"拉普利奥 思南路店","lon":"121.46799","lat":"31.21458","category":"112","category_name":"糕饼店","address":"卢湾区复兴中路523弄思南公馆35号102单元(近复兴中路)"},{"poiid":"B2094757D06AA0FB409C","title":"品芳面馆","lon":"121.470912054","lat":"31.216979793","category":"68","category_name":"快餐厅","address":"卢湾区重庆南路183号(复兴中路重庆南路)"},{"poiid":"B2094750DB69ABFC4498","title":"光明村大酒楼","lon":"121.470329","lat":"31.215513","category":"247","category_name":"餐饮美食","address":null},{"poiid":"B2094654DA6DA5FD419C","title":"中共代表团驻沪办事处纪念馆(周公馆)","lon":"121.46852","lat":"31.2142","category":"243","category_name":"纪念馆","address":"卢湾区思南路73号(近建国中路)"},{"poiid":"B2094757D068ABFE4998","title":"Yucca by David Laris","lon":"121.46803783","lat":"31.214799104","category":"94","category_name":"西餐厅","address":"卢湾区思南路55号思南公馆26号楼3楼(近复兴中路)"},{"poiid":"B2094654DA6DABFA4698","title":"钱柜(重庆南路)","lon":"121.4701","lat":"31.21783","category":"68","category_name":"快餐厅","address":"瑞金二路"},{"poiid":"B2094757D468A4FD419E","title":"X Bistro & Rumbar","lon":"121.4683461","lat":"31.2139728","category":"94","category_name":"西餐厅","address":"卢湾区思南路47号33号楼3楼(近复兴中路)"},{"poiid":"B2094757D169A6FB479B","title":"思南公馆57号法餐厅","lon":"121.46886973","lat":"31.214605967","category":"500","category_name":"未知分类","address":"上海市卢湾区瑞金二路"},{"poiid":"B2094757D064A2FA419D","title":"LA BRIOCHE面包","lon":"121.46930773","lat":"31.215565987","category":"247","category_name":"餐饮美食","address":"上海市卢湾区思南公馆35号102单元"},{"poiid":"B2094757D169A5F9469D","title":"南北高架淮海路","lon":"121.47080473","lat":"31.21662301","category":"500","category_name":"未知分类","address":"上海市南北高架"},{"poiid":"B2094750DB6BABFA4498","title":"THE PUBLIC Food&Drinks","lon":"121.469001","lat":"31.215293","category":"94","category_name":"西餐厅","address":"卢湾区复兴中路507弄1号楼4楼(近重庆南路)"},{"poiid":"B2094655D268A3FF4898","title":"法国公园旧址","lon":"121.47017","lat":"31.2161","category":"196","category_name":"公园","address":"复兴中路516"},{"poiid":"B2094757D568ABFC4799","title":"交大医学院西校区","lon":"121.46739","lat":"31.21463","category":"52","category_name":"高等院校","address":"重庆南路280号"},{"poiid":"B2094655D26CA4F94699","title":"钱柜卢湾店(东门)","lon":"121.47074","lat":"31.21645","category":"68","category_name":"快餐厅","address":""},{"poiid":"B2094655D36DA7F9459E","title":"重庆南路复兴中路","lon":"121.47099","lat":"31.21581","category":"38","category_name":"公交车站","address":""},{"poiid":"B2094655D26CA1FE4599","title":"复兴公园(北门)","lon":"121.46957","lat":"31.21833","category":"656","category_name":"大门","address":"上海卢湾区皋兰路2号甲(近思南路)"},{"poiid":"B2094757D06EAAFE459D","title":"思南公馆","lon":"121.46813836607953","lat":"31.214518389031245","category":"172","category_name":"酒吧","address":"卢湾区思南路55号思南公馆63-95号楼(近复兴中路)"},{"poiid":"B2094654DB65A6FA409D","title":"复兴公园","lon":"121.46890775116913","lat":"31.216458585904284","category":"196","category_name":"公园","address":"卢湾区皋兰路2号甲(近思南路)"},{"poiid":"B2094757D06FA3F9439C","title":"拳击猫啤酒屋 Boxing Cat Brewery(思南路店)","lon":"121.46768783","lat":"31.215615828","category":"94","category_name":"西餐厅","address":"卢湾区复兴中路519号思南公馆26A栋(近思南路)"},{"poiid":"B2094753D76FAAFA449C","title":"上海滩国泰旗舰店","lon":"121.466011","lat":"31.216125","category":"249","category_name":"购物服务","address":"淮海中路868号"},{"poiid":"B209475CD564A7F84292","title":"上海滩新天地店","lon":"121.47463","lat":"31.22164","category":"119","category_name":"商场","address":"\"太仓路181弄新天地北里15号\r\n\""},{"poiid":"B209475CD564A7F8439E","title":"上海滩中信泰富店","lon":"121.45602","lat":"31.22851","category":"119","category_name":"商场","address":"\"南京西路1168号中信泰富广场，店铺号221.\r\n\""},{"poiid":"B2094757D06FA2F44698","title":"California Pizza Kitchen(思南公馆店)","lon":"121.46871509","lat":"31.215263676","category":"94","category_name":"西餐厅","address":"卢湾区复兴中路507弄思南公馆3号2楼(近重庆南路)"},{"poiid":"B2094655D26EAAFC409C","title":"Richy(复兴公园店)","lon":"121.47016","lat":"31.2177","category":"260","category_name":"其他","address":"卢湾区皋兰路2号甲复兴公园内(近思南路)"},{"poiid":"B2094757D06FA3F8449A","title":"COSTA COFFEE(思南公馆店)","lon":"121.46997364","lat":"31.21457859","category":"65","category_name":"咖啡厅","address":"卢湾区复兴中路507弄5号1楼103室(近重庆南路)"},{"poiid":"B2094757D06FA0FC4493","title":"Shanghai Slim's","lon":"121.46852999","lat":"31.215135828","category":"94","category_name":"西餐厅","address":"卢湾区复兴中路523弄思南公馆10-12号26D"},{"poiid":"B2094750D26CA2FE4699","title":"安薇塔英国茶体系 复兴中路店","lon":"121.4684398","lat":"31.2151914","category":"260","category_name":"其他","address":"卢湾区复兴中路529号思南公馆27幢(近思南路)"},{"poiid":"B2094757D069AAFD4193","title":"labrioche拉普利奥","lon":"121.46821816","lat":"31.215114399","category":"500","category_name":"未知分类","address":"上海思南路51号思南公馆"},{"poiid":"B2094757DB6AA4F5439F","title":"猫的天空之城","lon":"121.470243","lat":"31.218327","category":"248","category_name":"生活娱乐","address":"马当路245号新天地时尚购物广场B112号(近自忠路)"},{"poiid":"B2094757D469A5F9479C","title":"鱼藏 思南公馆店 UoKura","lon":"121.468","lat":"31.21458","category":"95","category_name":"日本料理","address":"卢湾区复兴中路507弄思南公馆(近思南路)"},{"poiid":"B2094757D06FA1F9449C","title":"孙中山故居","lon":"121.46759796","lat":"31.216024398","category":"243","category_name":"纪念馆","address":"卢湾区香山路7号(近思南路)"},{"poiid":"B2094757D06FA0FF489C","title":"Alchemist Cocktail Kitchen","lon":"121.46824419","lat":"31.215264793","category":"260","category_name":"其他","address":"卢湾区思南路45号思南公馆32号楼1-2楼(近复兴中路)"},{"poiid":"B2094757D06FA7FB489E","title":"官邸","lon":"121.4676","lat":"31.21717","category":"47","category_name":"住宅区","address":"卢湾区皋兰路2号甲复兴公园内(近思南路)"},{"poiid":"B2094757D66EA7FC499F","title":"交通大学医学院","lon":"121.47045573","lat":"31.212595924","category":"253","category_name":"校园生活","address":"上海重庆南路280号"},{"poiid":"B2094757DA6EA7FA4898","title":"慧公馆(思南公馆店)","lon":"121.468108199999","lat":"31.2144047999999","category":"72","category_name":"广东菜","address":"卢湾区思南路59号(近复兴中路)"},{"poiid":"B2094750D26FABFF429F","title":"True color本色酒吧","lon":"121.469528","lat":"31.218008","category":"248","category_name":"生活娱乐","address":"复兴公园"},{"poiid":"B2094757D068A1FE409B","title":"The Funky Chicken","lon":"121.468556271","lat":"31.2149832923","category":"94","category_name":"西餐厅","address":"卢湾区思南路55号思南公馆26号楼1楼(近复兴中路)"},{"poiid":"B2094757D164A2FF449F","title":"南北高架","lon":"121.470309792","lat":"31.2140381135","category":"500","category_name":"未知分类","address":"上海卢湾"},{"poiid":"B2094655D36CA6FF4293","title":"复兴中路","lon":"121.47073","lat":"31.21609","category":"38","category_name":"公交车站","address":""},{"poiid":"B2094757D06FA3FC4399","title":"周公馆(周恩来故居)","lon":"121.4688193","lat":"31.213421744","category":"260","category_name":"其他","address":"上海卢湾区思南路73号"},{"poiid":"B2094757D16CA7F44999","title":"晶浦会(思南公馆店)","lon":"121.46982518","lat":"31.215764791","category":"72","category_name":"广东菜","address":"卢湾区思南路55号思南公馆35号2-3楼(近复兴中路)"},{"poiid":"B2094750D26AA3FB479D","title":"Annvita tea time","lon":"121.468894","lat":"31.215209","category":"500","category_name":"未知分类","address":"思南公馆59号"},{"poiid":"B2094757D06FABFE429A","title":"Chicha Lounge","lon":"121.46801629","lat":"31.214670398","category":"260","category_name":"其他","address":"卢湾区思南路55号思南公馆33号楼1-2楼(近复兴中路)"},{"poiid":"B2094757D06BA0FE4198","title":"橘(思南公馆)","lon":"121.468265738","lat":"31.2155129865","category":"95","category_name":"日本料理","address":"卢湾区思南路55号思南公馆26E(近复兴公园)"},{"poiid":"B2094757D06AA3FF499F","title":"魚蔵","lon":"121.47018573","lat":"31.215160979","category":"500","category_name":"未知分类","address":"上海思南路55号思南公馆1号3楼(近复兴中路)"},{"poiid":"B2094750DA64A7FE449B","title":"新锦江饭店","lon":"121.469696","lat":"31.21635","category":"247","category_name":"餐饮美食","address":null},{"poiid":"B2094654DB65A4F8479E","title":"复兴公园(南门)","lon":"121.47041","lat":"31.21575","category":"656","category_name":"大门","address":"上海卢湾区皋兰路2号甲(近思南路)"},{"poiid":"B2094654DA6DA5FE429B","title":"天主教上海教区圣伯多禄堂","lon":"121.46995","lat":"31.21339","category":"245","category_name":"教堂","address":"重庆南路270"},{"poiid":"B2094757D064A2FB439A","title":"思南公馆诗碧阁Specialty","lon":"121.47044173","lat":"31.214863972","category":"500","category_name":"未知分类","address":"上海市卢湾区南昌路"},{"poiid":"B2094753D76AA5FC439A","title":"树洞咖啡","lon":"121.47134","lat":"31.21385","category":"65","category_name":"咖啡厅","address":"上海市卢湾区合肥路636号(近重庆南路)"},{"poiid":"B2094757D469A3F84092","title":"拉普利奥 思南路店","lon":"121.46799","lat":"31.21458","category":"112","category_name":"糕饼店","address":"卢湾区复兴中路523弄思南公馆35号102单元(近复兴中路)"},{"poiid":"B2094757D06AA0FB409C","title":"品芳面馆","lon":"121.470912054","lat":"31.216979793","category":"68","category_name":"快餐厅","address":"卢湾区重庆南路183号(复兴中路重庆南路)"},{"poiid":"B2094750DB69ABFC4498","title":"光明村大酒楼","lon":"121.470329","lat":"31.215513","category":"247","category_name":"餐饮美食","address":null},{"poiid":"B2094654DA6DA5FD419C","title":"中共代表团驻沪办事处纪念馆(周公馆)","lon":"121.46852","lat":"31.2142","category":"243","category_name":"纪念馆","address":"卢湾区思南路73号(近建国中路)"},{"poiid":"B2094757D068ABFE4998","title":"Yucca by David Laris","lon":"121.46803783","lat":"31.214799104","category":"94","category_name":"西餐厅","address":"卢湾区思南路55号思南公馆26号楼3楼(近复兴中路)"},{"poiid":"B2094654DA6DABFA4698","title":"钱柜(重庆南路)","lon":"121.4701","lat":"31.21783","category":"68","category_name":"快餐厅","address":"瑞金二路"},{"poiid":"B2094757D468A4FD419E","title":"X Bistro & Rumbar","lon":"121.4683461","lat":"31.2139728","category":"94","category_name":"西餐厅","address":"卢湾区思南路47号33号楼3楼(近复兴中路)"},{"poiid":"B2094757D169A6FB479B","title":"思南公馆57号法餐厅","lon":"121.46886973","lat":"31.214605967","category":"500","category_name":"未知分类","address":"上海市卢湾区瑞金二路"},{"poiid":"B2094757D064A2FA419D","title":"LA BRIOCHE面包","lon":"121.46930773","lat":"31.215565987","category":"247","category_name":"餐饮美食","address":"上海市卢湾区思南公馆35号102单元"},{"poiid":"B2094757D169A5F9469D","title":"南北高架淮海路","lon":"121.47080473","lat":"31.21662301","category":"500","category_name":"未知分类","address":"上海市南北高架"},{"poiid":"B2094750DB6BABFA4498","title":"THE PUBLIC Food&Drinks","lon":"121.469001","lat":"31.215293","category":"94","category_name":"西餐厅","address":"卢湾区复兴中路507弄1号楼4楼(近重庆南路)"},{"poiid":"B2094655D268A3FF4898","title":"法国公园旧址","lon":"121.47017","lat":"31.2161","category":"196","category_name":"公园","address":"复兴中路516"},{"poiid":"B2094757D568ABFC4799","title":"交大医学院西校区","lon":"121.46739","lat":"31.21463","category":"52","category_name":"高等院校","address":"重庆南路280号"},{"poiid":"B2094655D26CA4F94699","title":"钱柜卢湾店(东门)","lon":"121.47074","lat":"31.21645","category":"68","category_name":"快餐厅","address":""},{"poiid":"B2094655D36DA7F9459E","title":"重庆南路复兴中路","lon":"121.47099","lat":"31.21581","category":"38","category_name":"公交车站","address":""},{"poiid":"B2094655D26CA1FE4599","title":"复兴公园(北门)","lon":"121.46957","lat":"31.21833","category":"656","category_name":"大门","address":"上海卢湾区皋兰路2号甲(近思南路)"},{"poiid":"B2094757D06EAAFE459D","title":"思南公馆","lon":"121.46813836607953","lat":"31.214518389031245","category":"172","category_name":"酒吧","address":"卢湾区思南路55号思南公馆63-95号楼(近复兴中路)"},{"poiid":"B2094654DB65A6FA409D","title":"复兴公园","lon":"121.46890775116913","lat":"31.216458585904284","category":"196","category_name":"公园","address":"卢湾区皋兰路2号甲(近思南路)"},{"poiid":"B2094757D06FA3F9439C","title":"拳击猫啤酒屋 Boxing Cat Brewery(思南路店)","lon":"121.46768783","lat":"31.215615828","category":"94","category_name":"西餐厅","address":"卢湾区复兴中路519号思南公馆26A栋(近思南路)"},{"poiid":"B2094753D76FAAFA449C","title":"上海滩国泰旗舰店","lon":"121.466011","lat":"31.216125","category":"249","category_name":"购物服务","address":"淮海中路868号"},{"poiid":"B209475CD564A7F84292","title":"上海滩新天地店","lon":"121.47463","lat":"31.22164","category":"119","category_name":"商场","address":"\"太仓路181弄新天地北里15号\r\n\""},{"poiid":"B209475CD564A7F8439E","title":"上海滩中信泰富店","lon":"121.45602","lat":"31.22851","category":"119","category_name":"商场","address":"\"南京西路1168号中信泰富广场，店铺号221.\r\n\""},{"poiid":"B2094757D06FA2F44698","title":"California Pizza Kitchen(思南公馆店)","lon":"121.46871509","lat":"31.215263676","category":"94","category_name":"西餐厅","address":"卢湾区复兴中路507弄思南公馆3号2楼(近重庆南路)"},{"poiid":"B2094655D26EAAFC409C","title":"Richy(复兴公园店)","lon":"121.47016","lat":"31.2177","category":"260","category_name":"其他","address":"卢湾区皋兰路2号甲复兴公园内(近思南路)"},{"poiid":"B2094757D06FA3F8449A","title":"COSTA COFFEE(思南公馆店)","lon":"121.46997364","lat":"31.21457859","category":"65","category_name":"咖啡厅","address":"卢湾区复兴中路507弄5号1楼103室(近重庆南路)"},{"poiid":"B2094757D06FA0FC4493","title":"Shanghai Slim's","lon":"121.46852999","lat":"31.215135828","category":"94","category_name":"西餐厅","address":"卢湾区复兴中路523弄思南公馆10-12号26D"},{"poiid":"B2094750D26CA2FE4699","title":"安薇塔英国茶体系 复兴中路店","lon":"121.4684398","lat":"31.2151914","category":"260","category_name":"其他","address":"卢湾区复兴中路529号思南公馆27幢(近思南路)"},{"poiid":"B2094757D069AAFD4193","title":"labrioche拉普利奥","lon":"121.46821816","lat":"31.215114399","category":"500","category_name":"未知分类","address":"上海思南路51号思南公馆"},{"poiid":"B2094757DB6AA4F5439F","title":"猫的天空之城","lon":"121.470243","lat":"31.218327","category":"248","category_name":"生活娱乐","address":"马当路245号新天地时尚购物广场B112号(近自忠路)"},{"poiid":"B2094757D469A5F9479C","title":"鱼藏 思南公馆店 UoKura","lon":"121.468","lat":"31.21458","category":"95","category_name":"日本料理","address":"卢湾区复兴中路507弄思南公馆(近思南路)"},{"poiid":"B2094757D06FA1F9449C","title":"孙中山故居","lon":"121.46759796","lat":"31.216024398","category":"243","category_name":"纪念馆","address":"卢湾区香山路7号(近思南路)"},{"poiid":"B2094757D06FA0FF489C","title":"Alchemist Cocktail Kitchen","lon":"121.46824419","lat":"31.215264793","category":"260","category_name":"其他","address":"卢湾区思南路45号思南公馆32号楼1-2楼(近复兴中路)"},{"poiid":"B2094757D06FA7FB489E","title":"官邸","lon":"121.4676","lat":"31.21717","category":"47","category_name":"住宅区","address":"卢湾区皋兰路2号甲复兴公园内(近思南路)"},{"poiid":"B2094757D66EA7FC499F","title":"交通大学医学院","lon":"121.47045573","lat":"31.212595924","category":"253","category_name":"校园生活","address":"上海重庆南路280号"},{"poiid":"B2094757DA6EA7FA4898","title":"慧公馆(思南公馆店)","lon":"121.468108199999","lat":"31.2144047999999","category":"72","category_name":"广东菜","address":"卢湾区思南路59号(近复兴中路)"},{"poiid":"B2094750D26FABFF429F","title":"True color本色酒吧","lon":"121.469528","lat":"31.218008","category":"248","category_name":"生活娱乐","address":"复兴公园"},{"poiid":"B2094757D068A1FE409B","title":"The Funky Chicken","lon":"121.468556271","lat":"31.2149832923","category":"94","category_name":"西餐厅","address":"卢湾区思南路55号思南公馆26号楼1楼(近复兴中路)"},{"poiid":"B2094757D164A2FF449F","title":"南北高架","lon":"121.470309792","lat":"31.2140381135","category":"500","category_name":"未知分类","address":"上海卢湾"},{"poiid":"B2094655D36CA6FF4293","title":"复兴中路","lon":"121.47073","lat":"31.21609","category":"38","category_name":"公交车站","address":""},{"poiid":"B2094757D06FA3FC4399","title":"周公馆(周恩来故居)","lon":"121.4688193","lat":"31.213421744","category":"260","category_name":"其他","address":"上海卢湾区思南路73号"},{"poiid":"B2094757D16CA7F44999","title":"晶浦会(思南公馆店)","lon":"121.46982518","lat":"31.215764791","category":"72","category_name":"广东菜","address":"卢湾区思南路55号思南公馆35号2-3楼(近复兴中路)"},{"poiid":"B2094750D26AA3FB479D","title":"Annvita tea time","lon":"121.468894","lat":"31.215209","category":"500","category_name":"未知分类","address":"思南公馆59号"},{"poiid":"B2094757D06FABFE429A","title":"Chicha Lounge","lon":"121.46801629","lat":"31.214670398","category":"260","category_name":"其他","address":"卢湾区思南路55号思南公馆33号楼1-2楼(近复兴中路)"},{"poiid":"B2094757D06BA0FE4198","title":"橘(思南公馆)","lon":"121.468265738","lat":"31.2155129865","category":"95","category_name":"日本料理","address":"卢湾区思南路55号思南公馆26E(近复兴公园)"},{"poiid":"B2094757D06AA3FF499F","title":"魚蔵","lon":"121.47018573","lat":"31.215160979","category":"500","category_name":"未知分类","address":"上海思南路55号思南公馆1号3楼(近复兴中路)"},{"poiid":"B2094750DA64A7FE449B","title":"新锦江饭店","lon":"121.469696","lat":"31.21635","category":"247","category_name":"餐饮美食","address":null},{"poiid":"B2094654DB65A4F8479E","title":"复兴公园(南门)","lon":"121.47041","lat":"31.21575","category":"656","category_name":"大门","address":"上海卢湾区皋兰路2号甲(近思南路)"},{"poiid":"B2094654DA6DA5FE429B","title":"天主教上海教区圣伯多禄堂","lon":"121.46995","lat":"31.21339","category":"245","category_name":"教堂","address":"重庆南路270"},{"poiid":"B2094757D064A2FB439A","title":"思南公馆诗碧阁Specialty","lon":"121.47044173","lat":"31.214863972","category":"500","category_name":"未知分类","address":"上海市卢湾区南昌路"},{"poiid":"B2094753D76AA5FC439A","title":"树洞咖啡","lon":"121.47134","lat":"31.21385","category":"65","category_name":"咖啡厅","address":"上海市卢湾区合肥路636号(近重庆南路)"},{"poiid":"B2094757D469A3F84092","title":"拉普利奥 思南路店","lon":"121.46799","lat":"31.21458","category":"112","category_name":"糕饼店","address":"卢湾区复兴中路523弄思南公馆35号102单元(近复兴中路)"},{"poiid":"B2094757D06AA0FB409C","title":"品芳面馆","lon":"121.470912054","lat":"31.216979793","category":"68","category_name":"快餐厅","address":"卢湾区重庆南路183号(复兴中路重庆南路)"},{"poiid":"B2094750DB69ABFC4498","title":"光明村大酒楼","lon":"121.470329","lat":"31.215513","category":"247","category_name":"餐饮美食","address":null},{"poiid":"B2094654DA6DA5FD419C","title":"中共代表团驻沪办事处纪念馆(周公馆)","lon":"121.46852","lat":"31.2142","category":"243","category_name":"纪念馆","address":"卢湾区思南路73号(近建国中路)"},{"poiid":"B2094757D068ABFE4998","title":"Yucca by David Laris","lon":"121.46803783","lat":"31.214799104","category":"94","category_name":"西餐厅","address":"卢湾区思南路55号思南公馆26号楼3楼(近复兴中路)"},{"poiid":"B2094654DA6DABFA4698","title":"钱柜(重庆南路)","lon":"121.4701","lat":"31.21783","category":"68","category_name":"快餐厅","address":"瑞金二路"},{"poiid":"B2094757D468A4FD419E","title":"X Bistro & Rumbar","lon":"121.4683461","lat":"31.2139728","category":"94","category_name":"西餐厅","address":"卢湾区思南路47号33号楼3楼(近复兴中路)"},{"poiid":"B2094757D169A6FB479B","title":"思南公馆57号法餐厅","lon":"121.46886973","lat":"31.214605967","category":"500","category_name":"未知分类","address":"上海市卢湾区瑞金二路"},{"poiid":"B2094757D064A2FA419D","title":"LA BRIOCHE面包","lon":"121.46930773","lat":"31.215565987","category":"247","category_name":"餐饮美食","address":"上海市卢湾区思南公馆35号102单元"},{"poiid":"B2094757D169A5F9469D","title":"南北高架淮海路","lon":"121.47080473","lat":"31.21662301","category":"500","category_name":"未知分类","address":"上海市南北高架"},{"poiid":"B2094750DB6BABFA4498","title":"THE PUBLIC Food&Drinks","lon":"121.469001","lat":"31.215293","category":"94","category_name":"西餐厅","address":"卢湾区复兴中路507弄1号楼4楼(近重庆南路)"},{"poiid":"B2094655D268A3FF4898","title":"法国公园旧址","lon":"121.47017","lat":"31.2161","category":"196","category_name":"公园","address":"复兴中路516"},{"poiid":"B2094757D568ABFC4799","title":"交大医学院西校区","lon":"121.46739","lat":"31.21463","category":"52","category_name":"高等院校","address":"重庆南路280号"},{"poiid":"B2094655D26CA4F94699","title":"钱柜卢湾店(东门)","lon":"121.47074","lat":"31.21645","category":"68","category_name":"快餐厅","address":""},{"poiid":"B2094655D36DA7F9459E","title":"重庆南路复兴中路","lon":"121.47099","lat":"31.21581","category":"38","category_name":"公交车站","address":""},{"poiid":"B2094655D26CA1FE4599","title":"复兴公园(北门)","lon":"121.46957","lat":"31.21833","category":"656","category_name":"大门","address":"上海卢湾区皋兰路2号甲(近思南路)"}]