[{"poiid":"B2094757D06FA0FA429E","title":"壹品饼家","lon":"121.44700095","lat":"31.288922421","category":"67","category_name":"甜品店","address":"闸北区永和路118弄42号102室(近共和新路)"},{"poiid":"B2094654DB6AA4FA4498","title":"大润发闸北店","lon":"121.44825","lat":"31.29763","category":"118","category_name":"超级市场","address":"闸北区共和新路3318号(近江场西路)"},{"poiid":"B2094757D66FA6FA4698","title":"市北高新技术服务业园区","lon":"121.43696805","lat":"31.2951550841","category":"46","category_name":"楼宇","address":"上海江场西路江场三路"},{"poiid":"B2094757D06FA1FD409D","title":"迪卡侬(共和新路店)","lon":"121.44788303","lat":"31.2964660291","category":"140","category_name":"体育用品店","address":"闸北区共和新路3228号21幢1楼(近江场西路)"},{"poiid":"B2094757D06FABFF449F","title":"汶水路","lon":"121.44763946","lat":"31.292690277","category":"500","category_name":"未知分类","address":"上海汶水路共和新路"},{"poiid":"B2094751DA65A4F84499","title":"17.5影城闸北祥腾店","lon":"121.44711","lat":"31.29346","category":"248","category_name":"生活娱乐","address":"共和新路3088弄2号楼205室"},{"poiid":"B2094757D064A0FD409B","title":"咏樂府大酒店","lon":"121.44084595","lat":"31.2911914648","category":"217","category_name":"旅馆招待所","address":"上海市汶水路273～275號"},{"poiid":"B2094654D464A6FE409F","title":"万荣小区","lon":"121.44358451726","lat":"31.291095590555","category":"47","category_name":"住宅区","address":"上海市灵石路737弄"},{"poiid":"B2094757D568A4F54298","title":"中铁中环时代广场","lon":"121.439695","lat":"31.29509056","category":"46","category_name":"楼宇","address":"闸北江场西路、万荣路"},{"poiid":"B2094757D06AA6FD4798","title":"大润发总公司","lon":"121.44454155","lat":"31.2980341956","category":"46","category_name":"楼宇","address":"上海市江场西路255号"},{"poiid":"B2094757D06FAAFB459E","title":"鼎中鼎澳门豆捞(共和新路店)","lon":"121.44859","lat":"31.29727","category":"86","category_name":"火锅店","address":"闸北区共和新路3318号大润发超市2楼(近江场西路)"},{"poiid":"B2094757D66CA4F94893","title":"大华阳城","lon":"121.43742","lat":"31.295259","category":"252","category_name":"楼宇机构","address":"上海市宝山区新村路新滬路"},{"poiid":"B2094757D069ABFF4898","title":"协通福特4s店","lon":"121.449394395","lat":"31.2950059539","category":"500","category_name":"未知分类","address":"上海共和新路"},{"poiid":"B2094757D469A7F94499","title":"阿香米线","lon":"121.44724","lat":"31.29718","category":"68","category_name":"快餐厅","address":"闸北区共和新路3318号大润发2楼(近江场西路)"},{"poiid":"B2094757D16AA6FE4299","title":"地铁一号线汶水路站","lon":"121.44784195","lat":"31.2906964554","category":"500","category_name":"未知分类","address":"上海共和新路汶水路"},{"poiid":"B2094654D464A3FA449D","title":"上海协通百联别克","lon":"121.44893","lat":"31.29561","category":"158","category_name":"汽车销售","address":"详细地址，共和新路3200号"},{"poiid":"B2094654D464A3FA4392","title":"科勒","lon":"121.43713","lat":"31.29324","category":"46","category_name":"楼宇","address":"江场三路156"},{"poiid":"B2094757D069AAF8449D","title":"上海宝尊电子有限公司","lon":"121.43965195","lat":"31.2929974993","category":"46","category_name":"楼宇","address":"上海汶水路万荣路"},{"poiid":"B2094757D06FA4FD4492","title":"赛科斯信息技术(上海)有限公司","lon":"121.437567649","lat":"31.2951535267","category":"46","category_name":"楼宇","address":"上海江场三路221号"},{"poiid":"B2094752D06CA0FA479F","title":"上海17.5影城(闸北店)","lon":"121.4471","lat":"31.29347","category":"178","category_name":"电影院","address":"闸北区共和新路3088号祥腾财富广场2号楼205-208室(近地铁1号线汶水路站)"},{"poiid":"B2094654D464A3FA469A","title":"上海第十机动车安全检测站","lon":"121.43985","lat":"31.29639","category":"250","category_name":"公园户外","address":"上海万荣路1298号"},{"poiid":"B2094757D068A2FB4892","title":"聚能湾大厦","lon":"121.436895","lat":"31.292047","category":"252","category_name":"楼宇机构","address":"松江区工业区鼎源路广富林路路口"},{"poiid":"B2094757D16EA5FD439F","title":"上海市机动车物损交通事故保险理赔服务中心沪仑分中心","lon":"121.44139895","lat":"31.300468642","category":"500","category_name":"未知分类","address":"上海市万荣路1559号"},{"poiid":"B2094757D66EA0FE4798","title":"永和苑","lon":"121.44273660632","lat":"31.294164711448","category":"47","category_name":"住宅区","address":"上海永和路580弄"},{"poiid":"B2094654D464A3FB409B","title":"市北工业园区","lon":"121.43766","lat":"31.29488","category":"45","category_name":"产业园区","address":"江场三路219"},{"poiid":"B2094757D06FABFE439E","title":"百安居(闸北店)","lon":"121.44958","lat":"31.29525","category":"123","category_name":"家具建材市场","address":"闸北区共和新路3228号(近场中路)"},{"poiid":"B2094757D165A3F84992","title":"伊诺咖啡","lon":"121.44345925","lat":"31.29726228","category":"260","category_name":"其他","address":"闸北区江场西路188号(近共和新路)"},{"poiid":"B2094757D069A1FE489D","title":"永乐府","lon":"121.44078767","lat":"31.2906811031","category":"75","category_name":"浙江菜","address":"上海闸北区汶水路275号(万荣路口)"},{"poiid":"B2094757D068A7F5419D","title":"荣和苑","lon":"121.44025","lat":"31.288475","category":"47","category_name":"住宅区","address":"上海闸北区万荣路970弄"},{"poiid":"B2094757D06AA4FC489B","title":"上海汇众汽车制造有限公司轿车底盘厂","lon":"121.445129","lat":"31.293909","category":"46","category_name":"楼宇","address":"上海汶水路251号"},{"poiid":"B2094757D068A3FA499B","title":"万荣街坊","lon":"121.446","lat":"31.2897","category":"47","category_name":"住宅区","address":"上海灵石路733弄-739弄"},{"poiid":"B2094654DB69A5F5419D","title":"大娘水饺 共和新路店","lon":"121.448917054","lat":"31.298265793","category":"68","category_name":"快餐厅","address":"闸北区共和新路3318号大润发2楼(近江场西路)"},{"poiid":"B2094654DB6AA4FA459B","title":"上海百联沪北汽车销售有限公司","lon":"121.44666","lat":"31.30107","category":"159","category_name":"汽车维修","address":"闸北区共和新路3550号(近场中路)"},{"poiid":"B2094751D365A2FB4998","title":"17.5影院","lon":"121.447638","lat":"31.296489","category":"178","category_name":"电影院","address":"祥腾财富广场2号楼"},{"poiid":"B2094655D36CA0F9469A","title":"江场西路万荣路","lon":"121.44168","lat":"31.29779","category":"38","category_name":"公交车站","address":""},{"poiid":"B2094757D065A6F84999","title":"芝麻精致面馆","lon":"121.44544359","lat":"31.2945108583","category":"247","category_name":"餐饮美食","address":"上海延长中路558号"},{"poiid":"B2094757D065A5FF409A","title":"上海移动万荣大楼","lon":"121.440473","lat":"31.297186","category":"46","category_name":"楼宇","address":"上海江场西路355号"},{"poiid":"B2094757D168A2F94198","title":"和典创意园","lon":"121.44352045","lat":"31.2973300822","category":"500","category_name":"未知分类","address":"上海闸北区江场西路180号7幢"},{"poiid":"B2094654D464A3FA4598","title":"锦森欧洲大楼","lon":"121.44405","lat":"31.29705","category":"46","category_name":"楼宇","address":"江场二路19"},{"poiid":"B2094757D064A3FF4199","title":"田仓米粉(江场西路)","lon":"121.44562295","lat":"31.297987594","category":"68","category_name":"快餐厅","address":"闸北区江场西路190号(大润发对面)"},{"poiid":"B2094654DB6AA2FC4798","title":"味之都 共和店","lon":"121.448828054","lat":"31.298277793","category":"68","category_name":"快餐厅","address":"闸北区共和新路3318号大润发2楼(近江场西路)"},{"poiid":"B2094757D568A7F4499F","title":"汉庭快捷酒店(上海市北工业园区店)","lon":"121.4402236","lat":"31.29125277","category":"216","category_name":"经济型连锁酒店","address":"上海市闸北区汶水路273号(近万荣路)"},{"poiid":"B2094757D16BA7F94099","title":"顾村公园海盗船","lon":"121.4372459","lat":"31.291924228","category":"196","category_name":"公园","address":"上海市宝山区顾村公园"},{"poiid":"B2094757D06FAAFF419D","title":"上海信息服务外包产业园","lon":"121.440414","lat":"31.292657","category":"500","category_name":"未知分类","address":"上海闸北区万荣路1188号"},{"poiid":"B2094757D66FA6FC4998","title":"市北高新园区","lon":"121.43760095","lat":"31.2914054689","category":"500","category_name":"未知分类","address":"上海市闸北区江场三路"},{"poiid":"B2094757D16DA0FD4493","title":"联通江场机房","lon":"121.44286584","lat":"31.293942697","category":"500","category_name":"未知分类","address":"上海江场西路"},{"poiid":"B2094750D76CA0FA459E","title":"钻巴黎海鲜大酒楼","lon":"121.437","lat":"31.2921","category":"72","category_name":"广东菜","address":"闸北区江场三路76-78号3楼(近市北工业园区)"},{"poiid":"B2094655D36DA7F44892","title":"汶水路万荣路","lon":"121.44033","lat":"31.29101","category":"38","category_name":"公交车站","address":""},{"poiid":"B2094757D06BA1FF489C","title":"coco都可茶饮(闸北大润发店)","lon":"121.44734202","lat":"31.2972239534","category":"113","category_name":"冷饮店","address":"闸北区共和新路3318号大润发1楼(近江场西路)"},{"poiid":"B2094750D26FA0FD459F","title":"蓝山咖啡BLUEMOUNTAIN","lon":"121.447166","lat":"31.293525","category":"247","category_name":"餐饮美食","address":"共和新路3088号2号楼103室"},{"poiid":"B2094757D06FA0FA429E","title":"壹品饼家","lon":"121.44700095","lat":"31.288922421","category":"67","category_name":"甜品店","address":"闸北区永和路118弄42号102室(近共和新路)"},{"poiid":"B2094654DB6AA4FA4498","title":"大润发闸北店","lon":"121.44825","lat":"31.29763","category":"118","category_name":"超级市场","address":"闸北区共和新路3318号(近江场西路)"},{"poiid":"B2094757D66FA6FA4698","title":"市北高新技术服务业园区","lon":"121.43696805","lat":"31.2951550841","category":"46","category_name":"楼宇","address":"上海江场西路江场三路"},{"poiid":"B2094757D06FA1FD409D","title":"迪卡侬(共和新路店)","lon":"121.44788303","lat":"31.2964660291","category":"140","category_name":"体育用品店","address":"闸北区共和新路3228号21幢1楼(近江场西路)"},{"poiid":"B2094757D06FABFF449F","title":"汶水路","lon":"121.44763946","lat":"31.292690277","category":"500","category_name":"未知分类","address":"上海汶水路共和新路"},{"poiid":"B2094751DA65A4F84499","title":"17.5影城闸北祥腾店","lon":"121.44711","lat":"31.29346","category":"248","category_name":"生活娱乐","address":"共和新路3088弄2号楼205室"},{"poiid":"B2094757D064A0FD409B","title":"咏樂府大酒店","lon":"121.44084595","lat":"31.2911914648","category":"217","category_name":"旅馆招待所","address":"上海市汶水路273～275號"},{"poiid":"B2094654D464A6FE409F","title":"万荣小区","lon":"121.44358451726","lat":"31.291095590555","category":"47","category_name":"住宅区","address":"上海市灵石路737弄"},{"poiid":"B2094757D568A4F54298","title":"中铁中环时代广场","lon":"121.439695","lat":"31.29509056","category":"46","category_name":"楼宇","address":"闸北江场西路、万荣路"},{"poiid":"B2094757D06AA6FD4798","title":"大润发总公司","lon":"121.44454155","lat":"31.2980341956","category":"46","category_name":"楼宇","address":"上海市江场西路255号"},{"poiid":"B2094757D06FAAFB459E","title":"鼎中鼎澳门豆捞(共和新路店)","lon":"121.44859","lat":"31.29727","category":"86","category_name":"火锅店","address":"闸北区共和新路3318号大润发超市2楼(近江场西路)"},{"poiid":"B2094757D66CA4F94893","title":"大华阳城","lon":"121.43742","lat":"31.295259","category":"252","category_name":"楼宇机构","address":"上海市宝山区新村路新滬路"},{"poiid":"B2094757D069ABFF4898","title":"协通福特4s店","lon":"121.449394395","lat":"31.2950059539","category":"500","category_name":"未知分类","address":"上海共和新路"},{"poiid":"B2094757D469A7F94499","title":"阿香米线","lon":"121.44724","lat":"31.29718","category":"68","category_name":"快餐厅","address":"闸北区共和新路3318号大润发2楼(近江场西路)"},{"poiid":"B2094757D16AA6FE4299","title":"地铁一号线汶水路站","lon":"121.44784195","lat":"31.2906964554","category":"500","category_name":"未知分类","address":"上海共和新路汶水路"},{"poiid":"B2094654D464A3FA449D","title":"上海协通百联别克","lon":"121.44893","lat":"31.29561","category":"158","category_name":"汽车销售","address":"详细地址，共和新路3200号"},{"poiid":"B2094654D464A3FA4392","title":"科勒","lon":"121.43713","lat":"31.29324","category":"46","category_name":"楼宇","address":"江场三路156"},{"poiid":"B2094757D069AAF8449D","title":"上海宝尊电子有限公司","lon":"121.43965195","lat":"31.2929974993","category":"46","category_name":"楼宇","address":"上海汶水路万荣路"},{"poiid":"B2094757D06FA4FD4492","title":"赛科斯信息技术(上海)有限公司","lon":"121.437567649","lat":"31.2951535267","category":"46","category_name":"楼宇","address":"上海江场三路221号"},{"poiid":"B2094752D06CA0FA479F","title":"上海17.5影城(闸北店)","lon":"121.4471","lat":"31.29347","category":"178","category_name":"电影院","address":"闸北区共和新路3088号祥腾财富广场2号楼205-208室(近地铁1号线汶水路站)"},{"poiid":"B2094654D464A3FA469A","title":"上海第十机动车安全检测站","lon":"121.43985","lat":"31.29639","category":"250","category_name":"公园户外","address":"上海万荣路1298号"},{"poiid":"B2094757D068A2FB4892","title":"聚能湾大厦","lon":"121.436895","lat":"31.292047","category":"252","category_name":"楼宇机构","address":"松江区工业区鼎源路广富林路路口"},{"poiid":"B2094757D16EA5FD439F","title":"上海市机动车物损交通事故保险理赔服务中心沪仑分中心","lon":"121.44139895","lat":"31.300468642","category":"500","category_name":"未知分类","address":"上海市万荣路1559号"},{"poiid":"B2094757D66EA0FE4798","title":"永和苑","lon":"121.44273660632","lat":"31.294164711448","category":"47","category_name":"住宅区","address":"上海永和路580弄"},{"poiid":"B2094654D464A3FB409B","title":"市北工业园区","lon":"121.43766","lat":"31.29488","category":"45","category_name":"产业园区","address":"江场三路219"},{"poiid":"B2094757D06FABFE439E","title":"百安居(闸北店)","lon":"121.44958","lat":"31.29525","category":"123","category_name":"家具建材市场","address":"闸北区共和新路3228号(近场中路)"},{"poiid":"B2094757D165A3F84992","title":"伊诺咖啡","lon":"121.44345925","lat":"31.29726228","category":"260","category_name":"其他","address":"闸北区江场西路188号(近共和新路)"},{"poiid":"B2094757D069A1FE489D","title":"永乐府","lon":"121.44078767","lat":"31.2906811031","category":"75","category_name":"浙江菜","address":"上海闸北区汶水路275号(万荣路口)"},{"poiid":"B2094757D068A7F5419D","title":"荣和苑","lon":"121.44025","lat":"31.288475","category":"47","category_name":"住宅区","address":"上海闸北区万荣路970弄"},{"poiid":"B2094757D06AA4FC489B","title":"上海汇众汽车制造有限公司轿车底盘厂","lon":"121.445129","lat":"31.293909","category":"46","category_name":"楼宇","address":"上海汶水路251号"},{"poiid":"B2094757D068A3FA499B","title":"万荣街坊","lon":"121.446","lat":"31.2897","category":"47","category_name":"住宅区","address":"上海灵石路733弄-739弄"},{"poiid":"B2094654DB69A5F5419D","title":"大娘水饺 共和新路店","lon":"121.448917054","lat":"31.298265793","category":"68","category_name":"快餐厅","address":"闸北区共和新路3318号大润发2楼(近江场西路)"},{"poiid":"B2094654DB6AA4FA459B","title":"上海百联沪北汽车销售有限公司","lon":"121.44666","lat":"31.30107","category":"159","category_name":"汽车维修","address":"闸北区共和新路3550号(近场中路)"},{"poiid":"B2094751D365A2FB4998","title":"17.5影院","lon":"121.447638","lat":"31.296489","category":"178","category_name":"电影院","address":"祥腾财富广场2号楼"},{"poiid":"B2094655D36CA0F9469A","title":"江场西路万荣路","lon":"121.44168","lat":"31.29779","category":"38","category_name":"公交车站","address":""},{"poiid":"B2094757D065A6F84999","title":"芝麻精致面馆","lon":"121.44544359","lat":"31.2945108583","category":"247","category_name":"餐饮美食","address":"上海延长中路558号"},{"poiid":"B2094757D065A5FF409A","title":"上海移动万荣大楼","lon":"121.440473","lat":"31.297186","category":"46","category_name":"楼宇","address":"上海江场西路355号"},{"poiid":"B2094757D168A2F94198","title":"和典创意园","lon":"121.44352045","lat":"31.2973300822","category":"500","category_name":"未知分类","address":"上海闸北区江场西路180号7幢"},{"poiid":"B2094654D464A3FA4598","title":"锦森欧洲大楼","lon":"121.44405","lat":"31.29705","category":"46","category_name":"楼宇","address":"江场二路19"},{"poiid":"B2094757D064A3FF4199","title":"田仓米粉(江场西路)","lon":"121.44562295","lat":"31.297987594","category":"68","category_name":"快餐厅","address":"闸北区江场西路190号(大润发对面)"},{"poiid":"B2094654DB6AA2FC4798","title":"味之都 共和店","lon":"121.448828054","lat":"31.298277793","category":"68","category_name":"快餐厅","address":"闸北区共和新路3318号大润发2楼(近江场西路)"},{"poiid":"B2094757D568A7F4499F","title":"汉庭快捷酒店(上海市北工业园区店)","lon":"121.4402236","lat":"31.29125277","category":"216","category_name":"经济型连锁酒店","address":"上海市闸北区汶水路273号(近万荣路)"},{"poiid":"B2094757D16BA7F94099","title":"顾村公园海盗船","lon":"121.4372459","lat":"31.291924228","category":"196","category_name":"公园","address":"上海市宝山区顾村公园"},{"poiid":"B2094757D06FAAFF419D","title":"上海信息服务外包产业园","lon":"121.440414","lat":"31.292657","category":"500","category_name":"未知分类","address":"上海闸北区万荣路1188号"},{"poiid":"B2094757D66FA6FC4998","title":"市北高新园区","lon":"121.43760095","lat":"31.2914054689","category":"500","category_name":"未知分类","address":"上海市闸北区江场三路"},{"poiid":"B2094757D16DA0FD4493","title":"联通江场机房","lon":"121.44286584","lat":"31.293942697","category":"500","category_name":"未知分类","address":"上海江场西路"},{"poiid":"B2094750D76CA0FA459E","title":"钻巴黎海鲜大酒楼","lon":"121.437","lat":"31.2921","category":"72","category_name":"广东菜","address":"闸北区江场三路76-78号3楼(近市北工业园区)"},{"poiid":"B2094655D36DA7F44892","title":"汶水路万荣路","lon":"121.44033","lat":"31.29101","category":"38","category_name":"公交车站","address":""},{"poiid":"B2094757D06BA1FF489C","title":"coco都可茶饮(闸北大润发店)","lon":"121.44734202","lat":"31.2972239534","category":"113","category_name":"冷饮店","address":"闸北区共和新路3318号大润发1楼(近江场西路)"},{"poiid":"B2094750D26FA0FD459F","title":"蓝山咖啡BLUEMOUNTAIN","lon":"121.447166","lat":"31.293525","category":"247","category_name":"餐饮美食","address":"共和新路3088号2号楼103室"},{"poiid":"B2094757D06FA0FA429E","title":"壹品饼家","lon":"121.44700095","lat":"31.288922421","category":"67","category_name":"甜品店","address":"闸北区永和路118弄42号102室(近共和新路)"},{"poiid":"B2094654DB6AA4FA4498","title":"大润发闸北店","lon":"121.44825","lat":"31.29763","category":"118","category_name":"超级市场","address":"闸北区共和新路3318号(近江场西路)"},{"poiid":"B2094757D66FA6FA4698","title":"市北高新技术服务业园区","lon":"121.43696805","lat":"31.2951550841","category":"46","category_name":"楼宇","address":"上海江场西路江场三路"},{"poiid":"B2094757D06FA1FD409D","title":"迪卡侬(共和新路店)","lon":"121.44788303","lat":"31.2964660291","category":"140","category_name":"体育用品店","address":"闸北区共和新路3228号21幢1楼(近江场西路)"},{"poiid":"B2094757D06FABFF449F","title":"汶水路","lon":"121.44763946","lat":"31.292690277","category":"500","category_name":"未知分类","address":"上海汶水路共和新路"},{"poiid":"B2094751DA65A4F84499","title":"17.5影城闸北祥腾店","lon":"121.44711","lat":"31.29346","category":"248","category_name":"生活娱乐","address":"共和新路3088弄2号楼205室"},{"poiid":"B2094757D064A0FD409B","title":"咏樂府大酒店","lon":"121.44084595","lat":"31.2911914648","category":"217","category_name":"旅馆招待所","address":"上海市汶水路273～275號"},{"poiid":"B2094654D464A6FE409F","title":"万荣小区","lon":"121.44358451726","lat":"31.291095590555","category":"47","category_name":"住宅区","address":"上海市灵石路737弄"},{"poiid":"B2094757D568A4F54298","title":"中铁中环时代广场","lon":"121.439695","lat":"31.29509056","category":"46","category_name":"楼宇","address":"闸北江场西路、万荣路"},{"poiid":"B2094757D06AA6FD4798","title":"大润发总公司","lon":"121.44454155","lat":"31.2980341956","category":"46","category_name":"楼宇","address":"上海市江场西路255号"},{"poiid":"B2094757D06FAAFB459E","title":"鼎中鼎澳门豆捞(共和新路店)","lon":"121.44859","lat":"31.29727","category":"86","category_name":"火锅店","address":"闸北区共和新路3318号大润发超市2楼(近江场西路)"},{"poiid":"B2094757D66CA4F94893","title":"大华阳城","lon":"121.43742","lat":"31.295259","category":"252","category_name":"楼宇机构","address":"上海市宝山区新村路新滬路"},{"poiid":"B2094757D069ABFF4898","title":"协通福特4s店","lon":"121.449394395","lat":"31.2950059539","category":"500","category_name":"未知分类","address":"上海共和新路"},{"poiid":"B2094757D469A7F94499","title":"阿香米线","lon":"121.44724","lat":"31.29718","category":"68","category_name":"快餐厅","address":"闸北区共和新路3318号大润发2楼(近江场西路)"},{"poiid":"B2094757D16AA6FE4299","title":"地铁一号线汶水路站","lon":"121.44784195","lat":"31.2906964554","category":"500","category_name":"未知分类","address":"上海共和新路汶水路"},{"poiid":"B2094654D464A3FA449D","title":"上海协通百联别克","lon":"121.44893","lat":"31.29561","category":"158","category_name":"汽车销售","address":"详细地址，共和新路3200号"},{"poiid":"B2094654D464A3FA4392","title":"科勒","lon":"121.43713","lat":"31.29324","category":"46","category_name":"楼宇","address":"江场三路156"},{"poiid":"B2094757D069AAF8449D","title":"上海宝尊电子有限公司","lon":"121.43965195","lat":"31.2929974993","category":"46","category_name":"楼宇","address":"上海汶水路万荣路"},{"poiid":"B2094757D06FA4FD4492","title":"赛科斯信息技术(上海)有限公司","lon":"121.437567649","lat":"31.2951535267","category":"46","category_name":"楼宇","address":"上海江场三路221号"},{"poiid":"B2094752D06CA0FA479F","title":"上海17.5影城(闸北店)","lon":"121.4471","lat":"31.29347","category":"178","category_name":"电影院","address":"闸北区共和新路3088号祥腾财富广场2号楼205-208室(近地铁1号线汶水路站)"},{"poiid":"B2094654D464A3FA469A","title":"上海第十机动车安全检测站","lon":"121.43985","lat":"31.29639","category":"250","category_name":"公园户外","address":"上海万荣路1298号"},{"poiid":"B2094757D068A2FB4892","title":"聚能湾大厦","lon":"121.436895","lat":"31.292047","category":"252","category_name":"楼宇机构","address":"松江区工业区鼎源路广富林路路口"},{"poiid":"B2094757D16EA5FD439F","title":"上海市机动车物损交通事故保险理赔服务中心沪仑分中心","lon":"121.44139895","lat":"31.300468642","category":"500","category_name":"未知分类","address":"上海市万荣路1559号"},{"poiid":"B2094757D66EA0FE4798","title":"永和苑","lon":"121.44273660632","lat":"31.294164711448","category":"47","category_name":"住宅区","address":"上海永和路580弄"},{"poiid":"B2094654D464A3FB409B","title":"市北工业园区","lon":"121.43766","lat":"31.29488","category":"45","category_name":"产业园区","address":"江场三路219"},{"poiid":"B2094757D06FABFE439E","title":"百安居(闸北店)","lon":"121.44958","lat":"31.29525","category":"123","category_name":"家具建材市场","address":"闸北区共和新路3228号(近场中路)"},{"poiid":"B2094757D165A3F84992","title":"伊诺咖啡","lon":"121.44345925","lat":"31.29726228","category":"260","category_name":"其他","address":"闸北区江场西路188号(近共和新路)"},{"poiid":"B2094757D069A1FE489D","title":"永乐府","lon":"121.44078767","lat":"31.2906811031","category":"75","category_name":"浙江菜","address":"上海闸北区汶水路275号(万荣路口)"},{"poiid":"B2094757D068A7F5419D","title":"荣和苑","lon":"121.44025","lat":"31.288475","category":"47","category_name":"住宅区","address":"上海闸北区万荣路970弄"},{"poiid":"B2094757D06AA4FC489B","title":"上海汇众汽车制造有限公司轿车底盘厂","lon":"121.445129","lat":"31.293909","category":"46","category_name":"楼宇","address":"上海汶水路251号"},{"poiid":"B2094757D068A3FA499B","title":"万荣街坊","lon":"121.446","lat":"31.2897","category":"47","category_name":"住宅区","address":"上海灵石路733弄-739弄"},{"poiid":"B2094654DB69A5F5419D","title":"大娘水饺 共和新路店","lon":"121.448917054","lat":"31.298265793","category":"68","category_name":"快餐厅","address":"闸北区共和新路3318号大润发2楼(近江场西路)"},{"poiid":"B2094654DB6AA4FA459B","title":"上海百联沪北汽车销售有限公司","lon":"121.44666","lat":"31.30107","category":"159","category_name":"汽车维修","address":"闸北区共和新路3550号(近场中路)"},{"poiid":"B2094751D365A2FB4998","title":"17.5影院","lon":"121.447638","lat":"31.296489","category":"178","category_name":"电影院","address":"祥腾财富广场2号楼"},{"poiid":"B2094655D36CA0F9469A","title":"江场西路万荣路","lon":"121.44168","lat":"31.29779","category":"38","category_name":"公交车站","address":""},{"poiid":"B2094757D065A6F84999","title":"芝麻精致面馆","lon":"121.44544359","lat":"31.2945108583","category":"247","category_name":"餐饮美食","address":"上海延长中路558号"},{"poiid":"B2094757D065A5FF409A","title":"上海移动万荣大楼","lon":"121.440473","lat":"31.297186","category":"46","category_name":"楼宇","address":"上海江场西路355号"},{"poiid":"B2094757D168A2F94198","title":"和典创意园","lon":"121.44352045","lat":"31.2973300822","category":"500","category_name":"未知分类","address":"上海闸北区江场西路180号7幢"},{"poiid":"B2094654D464A3FA4598","title":"锦森欧洲大楼","lon":"121.44405","lat":"31.29705","category":"46","category_name":"楼宇","address":"江场二路19"},{"poiid":"B2094757D064A3FF4199","title":"田仓米粉(江场西路)","lon":"121.44562295","lat":"31.297987594","category":"68","category_name":"快餐厅","address":"闸北区江场西路190号(大润发对面)"},{"poiid":"B2094654DB6AA2FC4798","title":"味之都 共和店","lon":"121.448828054","lat":"31.298277793","category":"68","category_name":"快餐厅","address":"闸北区共和新路3318号大润发2楼(近江场西路)"},{"poiid":"B2094757D568A7F4499F","title":"汉庭快捷酒店(上海市北工业园区店)","lon":"121.4402236","lat":"31.29125277","category":"216","category_name":"经济型连锁酒店","address":"上海市闸北区汶水路273号(近万荣路)"},{"poiid":"B2094757D16BA7F94099","title":"顾村公园海盗船","lon":"121.4372459","lat":"31.291924228","category":"196","category_name":"公园","address":"上海市宝山区顾村公园"},{"poiid":"B2094757D06FAAFF419D","title":"上海信息服务外包产业园","lon":"121.440414","lat":"31.292657","category":"500","category_name":"未知分类","address":"上海闸北区万荣路1188号"},{"poiid":"B2094757D66FA6FC4998","title":"市北高新园区","lon":"121.43760095","lat":"31.2914054689","category":"500","category_name":"未知分类","address":"上海市闸北区江场三路"},{"poiid":"B2094757D16DA0FD4493","title":"联通江场机房","lon":"121.44286584","lat":"31.293942697","category":"500","category_name":"未知分类","address":"上海江场西路"},{"poiid":"B2094750D76CA0FA459E","title":"钻巴黎海鲜大酒楼","lon":"121.437","lat":"31.2921","category":"72","category_name":"广东菜","address":"闸北区江场三路76-78号3楼(近市北工业园区)"},{"poiid":"B2094655D36DA7F44892","title":"汶水路万荣路","lon":"121.44033","lat":"31.29101","category":"38","category_name":"公交车站","address":""},{"poiid":"B2094757D06BA1FF489C","title":"coco都可茶饮(闸北大润发店)","lon":"121.44734202","lat":"31.2972239534","category":"113","category_name":"冷饮店","address":"闸北区共和新路3318号大润发1楼(近江场西路)"},{"poiid":"B2094750D26FA0FD459F","title":"蓝山咖啡BLUEMOUNTAIN","lon":"121.447166","lat":"31.293525","category":"247","category_name":"餐饮美食","address":"共和新路3088号2号楼103室"},{"poiid":"B2094757D06FA0FA429E","title":"壹品饼家","lon":"121.44700095","lat":"31.288922421","category":"67","category_name":"甜品店","address":"闸北区永和路118弄42号102室(近共和新路)"},{"poiid":"B2094654DB6AA4FA4498","title":"大润发闸北店","lon":"121.44825","lat":"31.29763","category":"118","category_name":"超级市场","address":"闸北区共和新路3318号(近江场西路)"},{"poiid":"B2094757D66FA6FA4698","title":"市北高新技术服务业园区","lon":"121.43696805","lat":"31.2951550841","category":"46","category_name":"楼宇","address":"上海江场西路江场三路"},{"poiid":"B2094757D06FA1FD409D","title":"迪卡侬(共和新路店)","lon":"121.44788303","lat":"31.2964660291","category":"140","category_name":"体育用品店","address":"闸北区共和新路3228号21幢1楼(近江场西路)"},{"poiid":"B2094757D06FABFF449F","title":"汶水路","lon":"121.44763946","lat":"31.292690277","category":"500","category_name":"未知分类","address":"上海汶水路共和新路"},{"poiid":"B2094751DA65A4F84499","title":"17.5影城闸北祥腾店","lon":"121.44711","lat":"31.29346","category":"248","category_name":"生活娱乐","address":"共和新路3088弄2号楼205室"},{"poiid":"B2094757D064A0FD409B","title":"咏樂府大酒店","lon":"121.44084595","lat":"31.2911914648","category":"217","category_name":"旅馆招待所","address":"上海市汶水路273～275號"},{"poiid":"B2094654D464A6FE409F","title":"万荣小区","lon":"121.44358451726","lat":"31.291095590555","category":"47","category_name":"住宅区","address":"上海市灵石路737弄"},{"poiid":"B2094757D568A4F54298","title":"中铁中环时代广场","lon":"121.439695","lat":"31.29509056","category":"46","category_name":"楼宇","address":"闸北江场西路、万荣路"},{"poiid":"B2094757D06AA6FD4798","title":"大润发总公司","lon":"121.44454155","lat":"31.2980341956","category":"46","category_name":"楼宇","address":"上海市江场西路255号"},{"poiid":"B2094757D06FAAFB459E","title":"鼎中鼎澳门豆捞(共和新路店)","lon":"121.44859","lat":"31.29727","category":"86","category_name":"火锅店","address":"闸北区共和新路3318号大润发超市2楼(近江场西路)"},{"poiid":"B2094757D66CA4F94893","title":"大华阳城","lon":"121.43742","lat":"31.295259","category":"252","category_name":"楼宇机构","address":"上海市宝山区新村路新滬路"},{"poiid":"B2094757D069ABFF4898","title":"协通福特4s店","lon":"121.449394395","lat":"31.2950059539","category":"500","category_name":"未知分类","address":"上海共和新路"},{"poiid":"B2094757D469A7F94499","title":"阿香米线","lon":"121.44724","lat":"31.29718","category":"68","category_name":"快餐厅","address":"闸北区共和新路3318号大润发2楼(近江场西路)"},{"poiid":"B2094757D16AA6FE4299","title":"地铁一号线汶水路站","lon":"121.44784195","lat":"31.2906964554","category":"500","category_name":"未知分类","address":"上海共和新路汶水路"},{"poiid":"B2094654D464A3FA449D","title":"上海协通百联别克","lon":"121.44893","lat":"31.29561","category":"158","category_name":"汽车销售","address":"详细地址，共和新路3200号"},{"poiid":"B2094654D464A3FA4392","title":"科勒","lon":"121.43713","lat":"31.29324","category":"46","category_name":"楼宇","address":"江场三路156"},{"poiid":"B2094757D069AAF8449D","title":"上海宝尊电子有限公司","lon":"121.43965195","lat":"31.2929974993","category":"46","category_name":"楼宇","address":"上海汶水路万荣路"},{"poiid":"B2094757D06FA4FD4492","title":"赛科斯信息技术(上海)有限公司","lon":"121.437567649","lat":"31.2951535267","category":"46","category_name":"楼宇","address":"上海江场三路221号"},{"poiid":"B2094752D06CA0FA479F","title":"上海17.5影城(闸北店)","lon":"121.4471","lat":"31.29347","category":"178","category_name":"电影院","address":"闸北区共和新路3088号祥腾财富广场2号楼205-208室(近地铁1号线汶水路站)"},{"poiid":"B2094654D464A3FA469A","title":"上海第十机动车安全检测站","lon":"121.43985","lat":"31.29639","category":"250","category_name":"公园户外","address":"上海万荣路1298号"},{"poiid":"B2094757D068A2FB4892","title":"聚能湾大厦","lon":"121.436895","lat":"31.292047","category":"252","category_name":"楼宇机构","address":"松江区工业区鼎源路广富林路路口"},{"poiid":"B2094757D16EA5FD439F","title":"上海市机动车物损交通事故保险理赔服务中心沪仑分中心","lon":"121.44139895","lat":"31.300468642","category":"500","category_name":"未知分类","address":"上海市万荣路1559号"},{"poiid":"B2094757D66EA0FE4798","title":"永和苑","lon":"121.44273660632","lat":"31.294164711448","category":"47","category_name":"住宅区","address":"上海永和路580弄"},{"poiid":"B2094654D464A3FB409B","title":"市北工业园区","lon":"121.43766","lat":"31.29488","category":"45","category_name":"产业园区","address":"江场三路219"},{"poiid":"B2094757D06FABFE439E","title":"百安居(闸北店)","lon":"121.44958","lat":"31.29525","category":"123","category_name":"家具建材市场","address":"闸北区共和新路3228号(近场中路)"},{"poiid":"B2094757D165A3F84992","title":"伊诺咖啡","lon":"121.44345925","lat":"31.29726228","category":"260","category_name":"其他","address":"闸北区江场西路188号(近共和新路)"},{"poiid":"B2094757D069A1FE489D","title":"永乐府","lon":"121.44078767","lat":"31.2906811031","category":"75","category_name":"浙江菜","address":"上海闸北区汶水路275号(万荣路口)"},{"poiid":"B2094757D068A7F5419D","title":"荣和苑","lon":"121.44025","lat":"31.288475","category":"47","category_name":"住宅区","address":"上海闸北区万荣路970弄"},{"poiid":"B2094757D06AA4FC489B","title":"上海汇众汽车制造有限公司轿车底盘厂","lon":"121.445129","lat":"31.293909","category":"46","category_name":"楼宇","address":"上海汶水路251号"},{"poiid":"B2094757D068A3FA499B","title":"万荣街坊","lon":"121.446","lat":"31.2897","category":"47","category_name":"住宅区","address":"上海灵石路733弄-739弄"},{"poiid":"B2094654DB69A5F5419D","title":"大娘水饺 共和新路店","lon":"121.448917054","lat":"31.298265793","category":"68","category_name":"快餐厅","address":"闸北区共和新路3318号大润发2楼(近江场西路)"},{"poiid":"B2094654DB6AA4FA459B","title":"上海百联沪北汽车销售有限公司","lon":"121.44666","lat":"31.30107","category":"159","category_name":"汽车维修","address":"闸北区共和新路3550号(近场中路)"},{"poiid":"B2094751D365A2FB4998","title":"17.5影院","lon":"121.447638","lat":"31.296489","category":"178","category_name":"电影院","address":"祥腾财富广场2号楼"},{"poiid":"B2094655D36CA0F9469A","title":"江场西路万荣路","lon":"121.44168","lat":"31.29779","category":"38","category_name":"公交车站","address":""},{"poiid":"B2094757D065A6F84999","title":"芝麻精致面馆","lon":"121.44544359","lat":"31.2945108583","category":"247","category_name":"餐饮美食","address":"上海延长中路558号"},{"poiid":"B2094757D065A5FF409A","title":"上海移动万荣大楼","lon":"121.440473","lat":"31.297186","category":"46","category_name":"楼宇","address":"上海江场西路355号"},{"poiid":"B2094757D168A2F94198","title":"和典创意园","lon":"121.44352045","lat":"31.2973300822","category":"500","category_name":"未知分类","address":"上海闸北区江场西路180号7幢"},{"poiid":"B2094654D464A3FA4598","title":"锦森欧洲大楼","lon":"121.44405","lat":"31.29705","category":"46","category_name":"楼宇","address":"江场二路19"},{"poiid":"B2094757D064A3FF4199","title":"田仓米粉(江场西路)","lon":"121.44562295","lat":"31.297987594","category":"68","category_name":"快餐厅","address":"闸北区江场西路190号(大润发对面)"},{"poiid":"B2094654DB6AA2FC4798","title":"味之都 共和店","lon":"121.448828054","lat":"31.298277793","category":"68","category_name":"快餐厅","address":"闸北区共和新路3318号大润发2楼(近江场西路)"},{"poiid":"B2094757D568A7F4499F","title":"汉庭快捷酒店(上海市北工业园区店)","lon":"121.4402236","lat":"31.29125277","category":"216","category_name":"经济型连锁酒店","address":"上海市闸北区汶水路273号(近万荣路)"},{"poiid":"B2094757D16BA7F94099","title":"顾村公园海盗船","lon":"121.4372459","lat":"31.291924228","category":"196","category_name":"公园","address":"上海市宝山区顾村公园"},{"poiid":"B2094757D06FAAFF419D","title":"上海信息服务外包产业园","lon":"121.440414","lat":"31.292657","category":"500","category_name":"未知分类","address":"上海闸北区万荣路1188号"},{"poiid":"B2094757D66FA6FC4998","title":"市北高新园区","lon":"121.43760095","lat":"31.2914054689","category":"500","category_name":"未知分类","address":"上海市闸北区江场三路"},{"poiid":"B2094757D16DA0FD4493","title":"联通江场机房","lon":"121.44286584","lat":"31.293942697","category":"500","category_name":"未知分类","address":"上海江场西路"},{"poiid":"B2094750D76CA0FA459E","title":"钻巴黎海鲜大酒楼","lon":"121.437","lat":"31.2921","category":"72","category_name":"广东菜","address":"闸北区江场三路76-78号3楼(近市北工业园区)"},{"poiid":"B2094655D36DA7F44892","title":"汶水路万荣路","lon":"121.44033","lat":"31.29101","category":"38","category_name":"公交车站","address":""},{"poiid":"B2094757D06BA1FF489C","title":"coco都可茶饮(闸北大润发店)","lon":"121.44734202","lat":"31.2972239534","category":"113","category_name":"冷饮店","address":"闸北区共和新路3318号大润发1楼(近江场西路)"},{"poiid":"B2094750D26FA0FD459F","title":"蓝山咖啡BLUEMOUNTAIN","lon":"121.447166","lat":"31.293525","category":"247","category_name":"餐饮美食","address":"共和新路3088号2号楼103室"}]