[{"poiid":"B2094757D069A3F8459F","title":"炮台湾湿地森林公园","lon":"121.50571413","lat":"31.393478751","category":"500","category_name":"未知分类","address":"上海宝山区塘后路"},{"poiid":"B2094757D06FABFE459A","title":"海江二村","lon":"121.50371","lat":"31.393312","category":"47","category_name":"住宅区","address":"永乐路222弄"},{"poiid":"B2094757D66CA4F54498","title":"众所粥滋(潮州海鲜粥)","lon":"121.50136","lat":"31.38392","category":"72","category_name":"广东菜","address":"宝山区淞宝路268号(近永清路)"},{"poiid":"B2094757D06AA4FE4499","title":"海军博物馆","lon":"121.50643","lat":"31.3887963487","category":"182","category_name":"博物馆","address":"宝山区塘后路68号(近淞宝路)"},{"poiid":"B2094757D064A1F84793","title":"宝山三村","lon":"121.49794","lat":"31.39304","category":"47","category_name":"住宅区","address":"上海市宝山区永清路双城路"},{"poiid":"B2094757D06FA4FE469E","title":"永清路双城路","lon":"121.49533939","lat":"31.390468051","category":"500","category_name":"未知分类","address":"上海站点"},{"poiid":"B2094654D46AA4FE4198","title":"宝山六村","lon":"121.502","lat":"31.397743","category":"47","category_name":"住宅区","address":"上海市宝山区永乐路115弄"},{"poiid":"B2094757D16FA1FD4298","title":"海滨三村奉贤","lon":"121.49931404461","lat":"31.387000274504","category":"46","category_name":"楼宇","address":"上海牡丹江路水产路"},{"poiid":"B2094654D46AA4FD4398","title":"上海交通大学医学附属卫生学校宝山分校","lon":"121.49748","lat":"31.3955","category":"52","category_name":"高等院校","address":"永乐路399"},{"poiid":"B2094655D268A3FE499B","title":"前三营房","lon":"121.5051420877","lat":"31.391444050309","category":"47","category_name":"住宅区","address":"永清路98号"},{"poiid":"B2094654D46BA2FC4293","title":"新叶公寓","lon":"121.50488","lat":"31.391869","category":"47","category_name":"住宅区","address":"上海市宝山区塘后路231号"},{"poiid":"B2094654DB6AA6FF4192","title":"海滨八村","lon":"121.507","lat":"31.3884","category":"47","category_name":"住宅区","address":"上海宝山区牡丹江路海滨八村46号"},{"poiid":"B2094655D26BA6FB4498","title":"吴淞炮台纪念遗址","lon":"121.5083","lat":"31.39336","category":"250","category_name":"公园户外","address":"塘后路206"},{"poiid":"B2094757D068A7F44393","title":"宝山七村","lon":"121.49985","lat":"31.396515","category":"252","category_name":"楼宇机构","address":"上海宝山区海江路永乐路"},{"poiid":"B2094757D16CAAFB439B","title":"阿良海鲜","lon":"121.501203","lat":"31.393635","category":"247","category_name":"餐饮美食","address":"上海宝山区双城路116号"},{"poiid":"B2094757D16EABFC4198","title":"小主人幼兒園","lon":"121.503705","lat":"31.393312","category":"57","category_name":"幼儿园","address":"上海海江二村"},{"poiid":"B2094757D069ABF5409A","title":"万家灯火酒店","lon":"121.502034061","lat":"31.3856950811","category":"75","category_name":"浙江菜","address":"宝山区淞宝路358号"},{"poiid":"B2094655D36DA0F44399","title":"永清新村","lon":"121.50102","lat":"31.39143","category":"38","category_name":"公交车站","address":"永清新村54幢188号"},{"poiid":"B2094757D164A5F5449A","title":"邻家小菜","lon":"121.50175","lat":"31.39066","category":"76","category_name":"上海菜","address":"宝山区淞宝路(淞宝路淞青路)"},{"poiid":"B2094757D769A4FE469C","title":"双城小吃","lon":"121.5001403","lat":"31.3935328","category":"68","category_name":"快餐厅","address":"宝山区双城路139号(近淞宝路)"},{"poiid":"B2094654D46AA5FC459F","title":"农家粗菜馆(淞宝路)","lon":"121.50243","lat":"31.38975","category":"76","category_name":"上海菜","address":"宝山区淞宝路578-582号(水产路淞宝路)"},{"poiid":"B2094654D46AA5FC4198","title":"永清路171弄","lon":"121.503","lat":"31.3937","category":"47","category_name":"住宅区","address":"永清路171弄1-12号"},{"poiid":"B2094654D46AA7FB4299","title":"宝龙酒家","lon":"121.49949","lat":"31.392","category":"76","category_name":"上海菜","address":"宝山区凇宝路740号(双城路淞宝路)"},{"poiid":"B2094654D46BA2FC4393","title":"快客NO.6985","lon":"121.50638","lat":"31.39348","category":"117","category_name":"便民商店/便利店","address":""},{"poiid":"B2094750D16BA0F84992","title":"宝山体育中心羽毛球馆","lon":"121.498832","lat":"31.398883","category":"250","category_name":"公园户外","address":"宝山区永清路700号(近海江路)"},{"poiid":"B2094757D064A6F5479B","title":"永清公园","lon":"121.49863","lat":"31.39242","category":"196","category_name":"公园","address":"宝山区双城路234号(双城路淞宝路)"},{"poiid":"B2094654DB6AA5F8499A","title":"快客","lon":"121.50242","lat":"31.39451","category":"117","category_name":"便民商店/便利店","address":"双城路81"},{"poiid":"B2094654D46AA4FE439C","title":"中艺花园","lon":"121.49869","lat":"31.3999","category":"47","category_name":"住宅区","address":"中艺花园位于宝山海江路9号"},{"poiid":"B2094757DB6FA5FE469A","title":"吴淞古炮台公园","lon":"121.5022320674001","lat":"31.39532357457224","category":"196","category_name":"公园","address":"双城路"},{"poiid":"B2094655D26FABFA429C","title":"海江二村(一号门)","lon":"121.50415","lat":"31.39466","category":"47","category_name":"住宅区","address":""},{"poiid":"B2094655D36DA7F5489F","title":"淞青路淞宝路","lon":"121.50223","lat":"31.39021","category":"38","category_name":"公交车站","address":""},{"poiid":"B2094750D665A2F84599","title":"胡子烧烤店","lon":"121.496","lat":"31.3897","category":"68","category_name":"快餐厅","address":"宝山区永清路349号"},{"poiid":"B2094750D26CA3F4429C","title":"老刘野生大鱼坊 宝山店","lon":"121.502523054","lat":"31.385492793","category":"82","category_name":"东北菜","address":"宝山区凇宝路406号(化成路淞宝路)"},{"poiid":"B2094757D06BA4F94298","title":"马拉戈壁","lon":"121.50718433","lat":"31.391325507","category":"247","category_name":"餐饮美食","address":"上海dkkskf"},{"poiid":"B2094655D26FABFA4899","title":"双城路2弄小区(西门)","lon":"121.50557","lat":"31.39492","category":"47","category_name":"住宅区","address":"双城路2弄1-22号"},{"poiid":"B2094654D46AA4FD449A","title":"乐天川菜馆","lon":"121.497541054","lat":"31.396002793","category":"71","category_name":"四川菜","address":"宝山区淞宝路永乐路路口(淞宝路永乐路)"},{"poiid":"B2094655D36CA1FE439E","title":"双城路淞宝路","lon":"121.49974","lat":"31.3934","category":"38","category_name":"公交车站","address":""},{"poiid":"B2094654D46AA7FB4698","title":"永清路337弄小区","lon":"121.50261513212","lat":"31.394884022499","category":"47","category_name":"住宅区","address":"永清路337弄1-6号"},{"poiid":"B2094757D16BA0FD4598","title":"江边","lon":"121.50009583","lat":"31.394929081","category":"500","category_name":"未知分类","address":"上海盘古路江堤"},{"poiid":"B2094757D66AA6FC4492","title":"永兴私房菜","lon":"121.500214054","lat":"31.392708793","category":"88","category_name":"海鲜酒楼","address":"宝山区淞宝路618号(近公交90路终点站)"},{"poiid":"B2094757D469A7F5489B","title":"亨通酒楼","lon":"121.499317","lat":"31.389716","category":"76","category_name":"上海菜","address":"宝山区淞青路98号(近淞宝路)"},{"poiid":"B2094655D268A0F8449D","title":"光明便利(新新门窗装潢北)","lon":"121.50289","lat":"31.38984","category":"117","category_name":"便民商店/便利店","address":"淞宝路677"},{"poiid":"B2094757D568ABF54292","title":"中美格润恩生物技术公司(宝山店)","lon":"121.50239285","lat":"31.39031928","category":"162","category_name":"医院","address":"中国上海市宝山区凇宝路"},{"poiid":"B2094757D06BA4FE499D","title":"永健和汤包馆","lon":"121.496387439","lat":"31.3896782052","category":"247","category_name":"餐饮美食","address":"宝山区永清路349号(近淞清路)"},{"poiid":"B2094655D268A1F54392","title":"宝山二村(南门)","lon":"121.50077","lat":"31.39391","category":"47","category_name":"住宅区","address":""},{"poiid":"B2094654DB69A5F4419C","title":"重庆鸡公煲 永乐路店","lon":"121.498148054","lat":"31.395452793","category":"71","category_name":"四川菜","address":"宝山区永乐路369号(近淞宝路)"},{"poiid":"B2094654D46BA2FC4498","title":"双城路二弄小区","lon":"121.50777","lat":"31.39484","category":"47","category_name":"住宅区","address":"上海市宝山区双城路塘后路"},{"poiid":"B2094654D46AA4FE419F","title":"海江公寓","lon":"121.5037","lat":"31.399063","category":"47","category_name":"住宅区","address":"塘后路285弄"},{"poiid":"B2094757D568ABF94193","title":"光明便利店(永清新村东)","lon":"121.50109999","lat":"31.3916059","category":"117","category_name":"便民商店/便利店","address":"宝山区永清路331号(淞青路永清路)"},{"poiid":"B2094757D568A7F8469F","title":"星岛食府(海淞苑东北)","lon":"121.50215956","lat":"31.3861046","category":"257","category_name":"中餐厅","address":"中国上海市宝山区凇宝路"},{"poiid":"B2094757D069A3F8459F","title":"炮台湾湿地森林公园","lon":"121.50571413","lat":"31.393478751","category":"500","category_name":"未知分类","address":"上海宝山区塘后路"},{"poiid":"B2094757D06FABFE459A","title":"海江二村","lon":"121.50371","lat":"31.393312","category":"47","category_name":"住宅区","address":"永乐路222弄"},{"poiid":"B2094757D66CA4F54498","title":"众所粥滋(潮州海鲜粥)","lon":"121.50136","lat":"31.38392","category":"72","category_name":"广东菜","address":"宝山区淞宝路268号(近永清路)"},{"poiid":"B2094757D06AA4FE4499","title":"海军博物馆","lon":"121.50643","lat":"31.3887963487","category":"182","category_name":"博物馆","address":"宝山区塘后路68号(近淞宝路)"},{"poiid":"B2094757D064A1F84793","title":"宝山三村","lon":"121.49794","lat":"31.39304","category":"47","category_name":"住宅区","address":"上海市宝山区永清路双城路"},{"poiid":"B2094757D06FA4FE469E","title":"永清路双城路","lon":"121.49533939","lat":"31.390468051","category":"500","category_name":"未知分类","address":"上海站点"},{"poiid":"B2094654D46AA4FE4198","title":"宝山六村","lon":"121.502","lat":"31.397743","category":"47","category_name":"住宅区","address":"上海市宝山区永乐路115弄"},{"poiid":"B2094757D16FA1FD4298","title":"海滨三村奉贤","lon":"121.49931404461","lat":"31.387000274504","category":"46","category_name":"楼宇","address":"上海牡丹江路水产路"},{"poiid":"B2094654D46AA4FD4398","title":"上海交通大学医学附属卫生学校宝山分校","lon":"121.49748","lat":"31.3955","category":"52","category_name":"高等院校","address":"永乐路399"},{"poiid":"B2094655D268A3FE499B","title":"前三营房","lon":"121.5051420877","lat":"31.391444050309","category":"47","category_name":"住宅区","address":"永清路98号"},{"poiid":"B2094654D46BA2FC4293","title":"新叶公寓","lon":"121.50488","lat":"31.391869","category":"47","category_name":"住宅区","address":"上海市宝山区塘后路231号"},{"poiid":"B2094654DB6AA6FF4192","title":"海滨八村","lon":"121.507","lat":"31.3884","category":"47","category_name":"住宅区","address":"上海宝山区牡丹江路海滨八村46号"},{"poiid":"B2094655D26BA6FB4498","title":"吴淞炮台纪念遗址","lon":"121.5083","lat":"31.39336","category":"250","category_name":"公园户外","address":"塘后路206"},{"poiid":"B2094757D068A7F44393","title":"宝山七村","lon":"121.49985","lat":"31.396515","category":"252","category_name":"楼宇机构","address":"上海宝山区海江路永乐路"},{"poiid":"B2094757D16CAAFB439B","title":"阿良海鲜","lon":"121.501203","lat":"31.393635","category":"247","category_name":"餐饮美食","address":"上海宝山区双城路116号"},{"poiid":"B2094757D16EABFC4198","title":"小主人幼兒園","lon":"121.503705","lat":"31.393312","category":"57","category_name":"幼儿园","address":"上海海江二村"},{"poiid":"B2094757D069ABF5409A","title":"万家灯火酒店","lon":"121.502034061","lat":"31.3856950811","category":"75","category_name":"浙江菜","address":"宝山区淞宝路358号"},{"poiid":"B2094655D36DA0F44399","title":"永清新村","lon":"121.50102","lat":"31.39143","category":"38","category_name":"公交车站","address":"永清新村54幢188号"},{"poiid":"B2094757D164A5F5449A","title":"邻家小菜","lon":"121.50175","lat":"31.39066","category":"76","category_name":"上海菜","address":"宝山区淞宝路(淞宝路淞青路)"},{"poiid":"B2094757D769A4FE469C","title":"双城小吃","lon":"121.5001403","lat":"31.3935328","category":"68","category_name":"快餐厅","address":"宝山区双城路139号(近淞宝路)"},{"poiid":"B2094654D46AA5FC459F","title":"农家粗菜馆(淞宝路)","lon":"121.50243","lat":"31.38975","category":"76","category_name":"上海菜","address":"宝山区淞宝路578-582号(水产路淞宝路)"},{"poiid":"B2094654D46AA5FC4198","title":"永清路171弄","lon":"121.503","lat":"31.3937","category":"47","category_name":"住宅区","address":"永清路171弄1-12号"},{"poiid":"B2094654D46AA7FB4299","title":"宝龙酒家","lon":"121.49949","lat":"31.392","category":"76","category_name":"上海菜","address":"宝山区凇宝路740号(双城路淞宝路)"},{"poiid":"B2094654D46BA2FC4393","title":"快客NO.6985","lon":"121.50638","lat":"31.39348","category":"117","category_name":"便民商店/便利店","address":""},{"poiid":"B2094750D16BA0F84992","title":"宝山体育中心羽毛球馆","lon":"121.498832","lat":"31.398883","category":"250","category_name":"公园户外","address":"宝山区永清路700号(近海江路)"},{"poiid":"B2094757D064A6F5479B","title":"永清公园","lon":"121.49863","lat":"31.39242","category":"196","category_name":"公园","address":"宝山区双城路234号(双城路淞宝路)"},{"poiid":"B2094654DB6AA5F8499A","title":"快客","lon":"121.50242","lat":"31.39451","category":"117","category_name":"便民商店/便利店","address":"双城路81"},{"poiid":"B2094654D46AA4FE439C","title":"中艺花园","lon":"121.49869","lat":"31.3999","category":"47","category_name":"住宅区","address":"中艺花园位于宝山海江路9号"},{"poiid":"B2094757DB6FA5FE469A","title":"吴淞古炮台公园","lon":"121.5022320674001","lat":"31.39532357457224","category":"196","category_name":"公园","address":"双城路"},{"poiid":"B2094655D26FABFA429C","title":"海江二村(一号门)","lon":"121.50415","lat":"31.39466","category":"47","category_name":"住宅区","address":""},{"poiid":"B2094655D36DA7F5489F","title":"淞青路淞宝路","lon":"121.50223","lat":"31.39021","category":"38","category_name":"公交车站","address":""},{"poiid":"B2094750D665A2F84599","title":"胡子烧烤店","lon":"121.496","lat":"31.3897","category":"68","category_name":"快餐厅","address":"宝山区永清路349号"},{"poiid":"B2094750D26CA3F4429C","title":"老刘野生大鱼坊 宝山店","lon":"121.502523054","lat":"31.385492793","category":"82","category_name":"东北菜","address":"宝山区凇宝路406号(化成路淞宝路)"},{"poiid":"B2094757D06BA4F94298","title":"马拉戈壁","lon":"121.50718433","lat":"31.391325507","category":"247","category_name":"餐饮美食","address":"上海dkkskf"},{"poiid":"B2094655D26FABFA4899","title":"双城路2弄小区(西门)","lon":"121.50557","lat":"31.39492","category":"47","category_name":"住宅区","address":"双城路2弄1-22号"},{"poiid":"B2094654D46AA4FD449A","title":"乐天川菜馆","lon":"121.497541054","lat":"31.396002793","category":"71","category_name":"四川菜","address":"宝山区淞宝路永乐路路口(淞宝路永乐路)"},{"poiid":"B2094655D36CA1FE439E","title":"双城路淞宝路","lon":"121.49974","lat":"31.3934","category":"38","category_name":"公交车站","address":""},{"poiid":"B2094654D46AA7FB4698","title":"永清路337弄小区","lon":"121.50261513212","lat":"31.394884022499","category":"47","category_name":"住宅区","address":"永清路337弄1-6号"},{"poiid":"B2094757D16BA0FD4598","title":"江边","lon":"121.50009583","lat":"31.394929081","category":"500","category_name":"未知分类","address":"上海盘古路江堤"},{"poiid":"B2094757D66AA6FC4492","title":"永兴私房菜","lon":"121.500214054","lat":"31.392708793","category":"88","category_name":"海鲜酒楼","address":"宝山区淞宝路618号(近公交90路终点站)"},{"poiid":"B2094757D469A7F5489B","title":"亨通酒楼","lon":"121.499317","lat":"31.389716","category":"76","category_name":"上海菜","address":"宝山区淞青路98号(近淞宝路)"},{"poiid":"B2094655D268A0F8449D","title":"光明便利(新新门窗装潢北)","lon":"121.50289","lat":"31.38984","category":"117","category_name":"便民商店/便利店","address":"淞宝路677"},{"poiid":"B2094757D568ABF54292","title":"中美格润恩生物技术公司(宝山店)","lon":"121.50239285","lat":"31.39031928","category":"162","category_name":"医院","address":"中国上海市宝山区凇宝路"},{"poiid":"B2094757D06BA4FE499D","title":"永健和汤包馆","lon":"121.496387439","lat":"31.3896782052","category":"247","category_name":"餐饮美食","address":"宝山区永清路349号(近淞清路)"},{"poiid":"B2094655D268A1F54392","title":"宝山二村(南门)","lon":"121.50077","lat":"31.39391","category":"47","category_name":"住宅区","address":""},{"poiid":"B2094654DB69A5F4419C","title":"重庆鸡公煲 永乐路店","lon":"121.498148054","lat":"31.395452793","category":"71","category_name":"四川菜","address":"宝山区永乐路369号(近淞宝路)"},{"poiid":"B2094654D46BA2FC4498","title":"双城路二弄小区","lon":"121.50777","lat":"31.39484","category":"47","category_name":"住宅区","address":"上海市宝山区双城路塘后路"},{"poiid":"B2094654D46AA4FE419F","title":"海江公寓","lon":"121.5037","lat":"31.399063","category":"47","category_name":"住宅区","address":"塘后路285弄"},{"poiid":"B2094757D568ABF94193","title":"光明便利店(永清新村东)","lon":"121.50109999","lat":"31.3916059","category":"117","category_name":"便民商店/便利店","address":"宝山区永清路331号(淞青路永清路)"},{"poiid":"B2094757D568A7F8469F","title":"星岛食府(海淞苑东北)","lon":"121.50215956","lat":"31.3861046","category":"257","category_name":"中餐厅","address":"中国上海市宝山区凇宝路"},{"poiid":"B2094757D069A3F8459F","title":"炮台湾湿地森林公园","lon":"121.50571413","lat":"31.393478751","category":"500","category_name":"未知分类","address":"上海宝山区塘后路"},{"poiid":"B2094757D06FABFE459A","title":"海江二村","lon":"121.50371","lat":"31.393312","category":"47","category_name":"住宅区","address":"永乐路222弄"},{"poiid":"B2094757D66CA4F54498","title":"众所粥滋(潮州海鲜粥)","lon":"121.50136","lat":"31.38392","category":"72","category_name":"广东菜","address":"宝山区淞宝路268号(近永清路)"},{"poiid":"B2094757D06AA4FE4499","title":"海军博物馆","lon":"121.50643","lat":"31.3887963487","category":"182","category_name":"博物馆","address":"宝山区塘后路68号(近淞宝路)"},{"poiid":"B2094757D064A1F84793","title":"宝山三村","lon":"121.49794","lat":"31.39304","category":"47","category_name":"住宅区","address":"上海市宝山区永清路双城路"},{"poiid":"B2094757D06FA4FE469E","title":"永清路双城路","lon":"121.49533939","lat":"31.390468051","category":"500","category_name":"未知分类","address":"上海站点"},{"poiid":"B2094654D46AA4FE4198","title":"宝山六村","lon":"121.502","lat":"31.397743","category":"47","category_name":"住宅区","address":"上海市宝山区永乐路115弄"},{"poiid":"B2094757D16FA1FD4298","title":"海滨三村奉贤","lon":"121.49931404461","lat":"31.387000274504","category":"46","category_name":"楼宇","address":"上海牡丹江路水产路"},{"poiid":"B2094654D46AA4FD4398","title":"上海交通大学医学附属卫生学校宝山分校","lon":"121.49748","lat":"31.3955","category":"52","category_name":"高等院校","address":"永乐路399"},{"poiid":"B2094655D268A3FE499B","title":"前三营房","lon":"121.5051420877","lat":"31.391444050309","category":"47","category_name":"住宅区","address":"永清路98号"},{"poiid":"B2094654D46BA2FC4293","title":"新叶公寓","lon":"121.50488","lat":"31.391869","category":"47","category_name":"住宅区","address":"上海市宝山区塘后路231号"},{"poiid":"B2094654DB6AA6FF4192","title":"海滨八村","lon":"121.507","lat":"31.3884","category":"47","category_name":"住宅区","address":"上海宝山区牡丹江路海滨八村46号"},{"poiid":"B2094655D26BA6FB4498","title":"吴淞炮台纪念遗址","lon":"121.5083","lat":"31.39336","category":"250","category_name":"公园户外","address":"塘后路206"},{"poiid":"B2094757D068A7F44393","title":"宝山七村","lon":"121.49985","lat":"31.396515","category":"252","category_name":"楼宇机构","address":"上海宝山区海江路永乐路"},{"poiid":"B2094757D16CAAFB439B","title":"阿良海鲜","lon":"121.501203","lat":"31.393635","category":"247","category_name":"餐饮美食","address":"上海宝山区双城路116号"},{"poiid":"B2094757D16EABFC4198","title":"小主人幼兒園","lon":"121.503705","lat":"31.393312","category":"57","category_name":"幼儿园","address":"上海海江二村"},{"poiid":"B2094757D069ABF5409A","title":"万家灯火酒店","lon":"121.502034061","lat":"31.3856950811","category":"75","category_name":"浙江菜","address":"宝山区淞宝路358号"},{"poiid":"B2094655D36DA0F44399","title":"永清新村","lon":"121.50102","lat":"31.39143","category":"38","category_name":"公交车站","address":"永清新村54幢188号"},{"poiid":"B2094757D164A5F5449A","title":"邻家小菜","lon":"121.50175","lat":"31.39066","category":"76","category_name":"上海菜","address":"宝山区淞宝路(淞宝路淞青路)"},{"poiid":"B2094757D769A4FE469C","title":"双城小吃","lon":"121.5001403","lat":"31.3935328","category":"68","category_name":"快餐厅","address":"宝山区双城路139号(近淞宝路)"},{"poiid":"B2094654D46AA5FC459F","title":"农家粗菜馆(淞宝路)","lon":"121.50243","lat":"31.38975","category":"76","category_name":"上海菜","address":"宝山区淞宝路578-582号(水产路淞宝路)"},{"poiid":"B2094654D46AA5FC4198","title":"永清路171弄","lon":"121.503","lat":"31.3937","category":"47","category_name":"住宅区","address":"永清路171弄1-12号"},{"poiid":"B2094654D46AA7FB4299","title":"宝龙酒家","lon":"121.49949","lat":"31.392","category":"76","category_name":"上海菜","address":"宝山区凇宝路740号(双城路淞宝路)"},{"poiid":"B2094654D46BA2FC4393","title":"快客NO.6985","lon":"121.50638","lat":"31.39348","category":"117","category_name":"便民商店/便利店","address":""},{"poiid":"B2094750D16BA0F84992","title":"宝山体育中心羽毛球馆","lon":"121.498832","lat":"31.398883","category":"250","category_name":"公园户外","address":"宝山区永清路700号(近海江路)"},{"poiid":"B2094757D064A6F5479B","title":"永清公园","lon":"121.49863","lat":"31.39242","category":"196","category_name":"公园","address":"宝山区双城路234号(双城路淞宝路)"},{"poiid":"B2094654DB6AA5F8499A","title":"快客","lon":"121.50242","lat":"31.39451","category":"117","category_name":"便民商店/便利店","address":"双城路81"},{"poiid":"B2094654D46AA4FE439C","title":"中艺花园","lon":"121.49869","lat":"31.3999","category":"47","category_name":"住宅区","address":"中艺花园位于宝山海江路9号"},{"poiid":"B2094757DB6FA5FE469A","title":"吴淞古炮台公园","lon":"121.5022320674001","lat":"31.39532357457224","category":"196","category_name":"公园","address":"双城路"},{"poiid":"B2094655D26FABFA429C","title":"海江二村(一号门)","lon":"121.50415","lat":"31.39466","category":"47","category_name":"住宅区","address":""},{"poiid":"B2094655D36DA7F5489F","title":"淞青路淞宝路","lon":"121.50223","lat":"31.39021","category":"38","category_name":"公交车站","address":""},{"poiid":"B2094750D665A2F84599","title":"胡子烧烤店","lon":"121.496","lat":"31.3897","category":"68","category_name":"快餐厅","address":"宝山区永清路349号"},{"poiid":"B2094750D26CA3F4429C","title":"老刘野生大鱼坊 宝山店","lon":"121.502523054","lat":"31.385492793","category":"82","category_name":"东北菜","address":"宝山区凇宝路406号(化成路淞宝路)"},{"poiid":"B2094757D06BA4F94298","title":"马拉戈壁","lon":"121.50718433","lat":"31.391325507","category":"247","category_name":"餐饮美食","address":"上海dkkskf"},{"poiid":"B2094655D26FABFA4899","title":"双城路2弄小区(西门)","lon":"121.50557","lat":"31.39492","category":"47","category_name":"住宅区","address":"双城路2弄1-22号"},{"poiid":"B2094654D46AA4FD449A","title":"乐天川菜馆","lon":"121.497541054","lat":"31.396002793","category":"71","category_name":"四川菜","address":"宝山区淞宝路永乐路路口(淞宝路永乐路)"},{"poiid":"B2094655D36CA1FE439E","title":"双城路淞宝路","lon":"121.49974","lat":"31.3934","category":"38","category_name":"公交车站","address":""},{"poiid":"B2094654D46AA7FB4698","title":"永清路337弄小区","lon":"121.50261513212","lat":"31.394884022499","category":"47","category_name":"住宅区","address":"永清路337弄1-6号"},{"poiid":"B2094757D16BA0FD4598","title":"江边","lon":"121.50009583","lat":"31.394929081","category":"500","category_name":"未知分类","address":"上海盘古路江堤"},{"poiid":"B2094757D66AA6FC4492","title":"永兴私房菜","lon":"121.500214054","lat":"31.392708793","category":"88","category_name":"海鲜酒楼","address":"宝山区淞宝路618号(近公交90路终点站)"},{"poiid":"B2094757D469A7F5489B","title":"亨通酒楼","lon":"121.499317","lat":"31.389716","category":"76","category_name":"上海菜","address":"宝山区淞青路98号(近淞宝路)"},{"poiid":"B2094655D268A0F8449D","title":"光明便利(新新门窗装潢北)","lon":"121.50289","lat":"31.38984","category":"117","category_name":"便民商店/便利店","address":"淞宝路677"},{"poiid":"B2094757D568ABF54292","title":"中美格润恩生物技术公司(宝山店)","lon":"121.50239285","lat":"31.39031928","category":"162","category_name":"医院","address":"中国上海市宝山区凇宝路"},{"poiid":"B2094757D06BA4FE499D","title":"永健和汤包馆","lon":"121.496387439","lat":"31.3896782052","category":"247","category_name":"餐饮美食","address":"宝山区永清路349号(近淞清路)"},{"poiid":"B2094655D268A1F54392","title":"宝山二村(南门)","lon":"121.50077","lat":"31.39391","category":"47","category_name":"住宅区","address":""},{"poiid":"B2094654DB69A5F4419C","title":"重庆鸡公煲 永乐路店","lon":"121.498148054","lat":"31.395452793","category":"71","category_name":"四川菜","address":"宝山区永乐路369号(近淞宝路)"},{"poiid":"B2094654D46BA2FC4498","title":"双城路二弄小区","lon":"121.50777","lat":"31.39484","category":"47","category_name":"住宅区","address":"上海市宝山区双城路塘后路"},{"poiid":"B2094654D46AA4FE419F","title":"海江公寓","lon":"121.5037","lat":"31.399063","category":"47","category_name":"住宅区","address":"塘后路285弄"},{"poiid":"B2094757D568ABF94193","title":"光明便利店(永清新村东)","lon":"121.50109999","lat":"31.3916059","category":"117","category_name":"便民商店/便利店","address":"宝山区永清路331号(淞青路永清路)"},{"poiid":"B2094757D568A7F8469F","title":"星岛食府(海淞苑东北)","lon":"121.50215956","lat":"31.3861046","category":"257","category_name":"中餐厅","address":"中国上海市宝山区凇宝路"},{"poiid":"B2094757D069A3F8459F","title":"炮台湾湿地森林公园","lon":"121.50571413","lat":"31.393478751","category":"500","category_name":"未知分类","address":"上海宝山区塘后路"},{"poiid":"B2094757D06FABFE459A","title":"海江二村","lon":"121.50371","lat":"31.393312","category":"47","category_name":"住宅区","address":"永乐路222弄"},{"poiid":"B2094757D66CA4F54498","title":"众所粥滋(潮州海鲜粥)","lon":"121.50136","lat":"31.38392","category":"72","category_name":"广东菜","address":"宝山区淞宝路268号(近永清路)"},{"poiid":"B2094757D06AA4FE4499","title":"海军博物馆","lon":"121.50643","lat":"31.3887963487","category":"182","category_name":"博物馆","address":"宝山区塘后路68号(近淞宝路)"},{"poiid":"B2094757D064A1F84793","title":"宝山三村","lon":"121.49794","lat":"31.39304","category":"47","category_name":"住宅区","address":"上海市宝山区永清路双城路"},{"poiid":"B2094757D06FA4FE469E","title":"永清路双城路","lon":"121.49533939","lat":"31.390468051","category":"500","category_name":"未知分类","address":"上海站点"},{"poiid":"B2094654D46AA4FE4198","title":"宝山六村","lon":"121.502","lat":"31.397743","category":"47","category_name":"住宅区","address":"上海市宝山区永乐路115弄"},{"poiid":"B2094757D16FA1FD4298","title":"海滨三村奉贤","lon":"121.49931404461","lat":"31.387000274504","category":"46","category_name":"楼宇","address":"上海牡丹江路水产路"},{"poiid":"B2094654D46AA4FD4398","title":"上海交通大学医学附属卫生学校宝山分校","lon":"121.49748","lat":"31.3955","category":"52","category_name":"高等院校","address":"永乐路399"},{"poiid":"B2094655D268A3FE499B","title":"前三营房","lon":"121.5051420877","lat":"31.391444050309","category":"47","category_name":"住宅区","address":"永清路98号"},{"poiid":"B2094654D46BA2FC4293","title":"新叶公寓","lon":"121.50488","lat":"31.391869","category":"47","category_name":"住宅区","address":"上海市宝山区塘后路231号"},{"poiid":"B2094654DB6AA6FF4192","title":"海滨八村","lon":"121.507","lat":"31.3884","category":"47","category_name":"住宅区","address":"上海宝山区牡丹江路海滨八村46号"},{"poiid":"B2094655D26BA6FB4498","title":"吴淞炮台纪念遗址","lon":"121.5083","lat":"31.39336","category":"250","category_name":"公园户外","address":"塘后路206"},{"poiid":"B2094757D068A7F44393","title":"宝山七村","lon":"121.49985","lat":"31.396515","category":"252","category_name":"楼宇机构","address":"上海宝山区海江路永乐路"},{"poiid":"B2094757D16CAAFB439B","title":"阿良海鲜","lon":"121.501203","lat":"31.393635","category":"247","category_name":"餐饮美食","address":"上海宝山区双城路116号"},{"poiid":"B2094757D16EABFC4198","title":"小主人幼兒園","lon":"121.503705","lat":"31.393312","category":"57","category_name":"幼儿园","address":"上海海江二村"},{"poiid":"B2094757D069ABF5409A","title":"万家灯火酒店","lon":"121.502034061","lat":"31.3856950811","category":"75","category_name":"浙江菜","address":"宝山区淞宝路358号"},{"poiid":"B2094655D36DA0F44399","title":"永清新村","lon":"121.50102","lat":"31.39143","category":"38","category_name":"公交车站","address":"永清新村54幢188号"},{"poiid":"B2094757D164A5F5449A","title":"邻家小菜","lon":"121.50175","lat":"31.39066","category":"76","category_name":"上海菜","address":"宝山区淞宝路(淞宝路淞青路)"},{"poiid":"B2094757D769A4FE469C","title":"双城小吃","lon":"121.5001403","lat":"31.3935328","category":"68","category_name":"快餐厅","address":"宝山区双城路139号(近淞宝路)"},{"poiid":"B2094654D46AA5FC459F","title":"农家粗菜馆(淞宝路)","lon":"121.50243","lat":"31.38975","category":"76","category_name":"上海菜","address":"宝山区淞宝路578-582号(水产路淞宝路)"},{"poiid":"B2094654D46AA5FC4198","title":"永清路171弄","lon":"121.503","lat":"31.3937","category":"47","category_name":"住宅区","address":"永清路171弄1-12号"},{"poiid":"B2094654D46AA7FB4299","title":"宝龙酒家","lon":"121.49949","lat":"31.392","category":"76","category_name":"上海菜","address":"宝山区凇宝路740号(双城路淞宝路)"},{"poiid":"B2094654D46BA2FC4393","title":"快客NO.6985","lon":"121.50638","lat":"31.39348","category":"117","category_name":"便民商店/便利店","address":""},{"poiid":"B2094750D16BA0F84992","title":"宝山体育中心羽毛球馆","lon":"121.498832","lat":"31.398883","category":"250","category_name":"公园户外","address":"宝山区永清路700号(近海江路)"},{"poiid":"B2094757D064A6F5479B","title":"永清公园","lon":"121.49863","lat":"31.39242","category":"196","category_name":"公园","address":"宝山区双城路234号(双城路淞宝路)"},{"poiid":"B2094654DB6AA5F8499A","title":"快客","lon":"121.50242","lat":"31.39451","category":"117","category_name":"便民商店/便利店","address":"双城路81"},{"poiid":"B2094654D46AA4FE439C","title":"中艺花园","lon":"121.49869","lat":"31.3999","category":"47","category_name":"住宅区","address":"中艺花园位于宝山海江路9号"},{"poiid":"B2094757DB6FA5FE469A","title":"吴淞古炮台公园","lon":"121.5022320674001","lat":"31.39532357457224","category":"196","category_name":"公园","address":"双城路"},{"poiid":"B2094655D26FABFA429C","title":"海江二村(一号门)","lon":"121.50415","lat":"31.39466","category":"47","category_name":"住宅区","address":""},{"poiid":"B2094655D36DA7F5489F","title":"淞青路淞宝路","lon":"121.50223","lat":"31.39021","category":"38","category_name":"公交车站","address":""},{"poiid":"B2094750D665A2F84599","title":"胡子烧烤店","lon":"121.496","lat":"31.3897","category":"68","category_name":"快餐厅","address":"宝山区永清路349号"},{"poiid":"B2094750D26CA3F4429C","title":"老刘野生大鱼坊 宝山店","lon":"121.502523054","lat":"31.385492793","category":"82","category_name":"东北菜","address":"宝山区凇宝路406号(化成路淞宝路)"},{"poiid":"B2094757D06BA4F94298","title":"马拉戈壁","lon":"121.50718433","lat":"31.391325507","category":"247","category_name":"餐饮美食","address":"上海dkkskf"},{"poiid":"B2094655D26FABFA4899","title":"双城路2弄小区(西门)","lon":"121.50557","lat":"31.39492","category":"47","category_name":"住宅区","address":"双城路2弄1-22号"},{"poiid":"B2094654D46AA4FD449A","title":"乐天川菜馆","lon":"121.497541054","lat":"31.396002793","category":"71","category_name":"四川菜","address":"宝山区淞宝路永乐路路口(淞宝路永乐路)"},{"poiid":"B2094655D36CA1FE439E","title":"双城路淞宝路","lon":"121.49974","lat":"31.3934","category":"38","category_name":"公交车站","address":""},{"poiid":"B2094654D46AA7FB4698","title":"永清路337弄小区","lon":"121.50261513212","lat":"31.394884022499","category":"47","category_name":"住宅区","address":"永清路337弄1-6号"},{"poiid":"B2094757D16BA0FD4598","title":"江边","lon":"121.50009583","lat":"31.394929081","category":"500","category_name":"未知分类","address":"上海盘古路江堤"},{"poiid":"B2094757D66AA6FC4492","title":"永兴私房菜","lon":"121.500214054","lat":"31.392708793","category":"88","category_name":"海鲜酒楼","address":"宝山区淞宝路618号(近公交90路终点站)"},{"poiid":"B2094757D469A7F5489B","title":"亨通酒楼","lon":"121.499317","lat":"31.389716","category":"76","category_name":"上海菜","address":"宝山区淞青路98号(近淞宝路)"},{"poiid":"B2094655D268A0F8449D","title":"光明便利(新新门窗装潢北)","lon":"121.50289","lat":"31.38984","category":"117","category_name":"便民商店/便利店","address":"淞宝路677"},{"poiid":"B2094757D568ABF54292","title":"中美格润恩生物技术公司(宝山店)","lon":"121.50239285","lat":"31.39031928","category":"162","category_name":"医院","address":"中国上海市宝山区凇宝路"},{"poiid":"B2094757D06BA4FE499D","title":"永健和汤包馆","lon":"121.496387439","lat":"31.3896782052","category":"247","category_name":"餐饮美食","address":"宝山区永清路349号(近淞清路)"},{"poiid":"B2094655D268A1F54392","title":"宝山二村(南门)","lon":"121.50077","lat":"31.39391","category":"47","category_name":"住宅区","address":""},{"poiid":"B2094654DB69A5F4419C","title":"重庆鸡公煲 永乐路店","lon":"121.498148054","lat":"31.395452793","category":"71","category_name":"四川菜","address":"宝山区永乐路369号(近淞宝路)"},{"poiid":"B2094654D46BA2FC4498","title":"双城路二弄小区","lon":"121.50777","lat":"31.39484","category":"47","category_name":"住宅区","address":"上海市宝山区双城路塘后路"},{"poiid":"B2094654D46AA4FE419F","title":"海江公寓","lon":"121.5037","lat":"31.399063","category":"47","category_name":"住宅区","address":"塘后路285弄"},{"poiid":"B2094757D568ABF94193","title":"光明便利店(永清新村东)","lon":"121.50109999","lat":"31.3916059","category":"117","category_name":"便民商店/便利店","address":"宝山区永清路331号(淞青路永清路)"},{"poiid":"B2094757D568A7F8469F","title":"星岛食府(海淞苑东北)","lon":"121.50215956","lat":"31.3861046","category":"257","category_name":"中餐厅","address":"中国上海市宝山区凇宝路"}]