[{"poiid":"B2094654DB6BA4FD4592","title":"上海音乐学院","lon":"121.45487","lat":"31.21309","category":"671","category_name":"高校中心点","address":"徐汇区汾阳路20号(近复兴中路)"},{"poiid":"B2094757D06EAAFD4692","title":"Whisk","lon":"121.45298","lat":"31.21402","category":"67","category_name":"甜品店","address":"徐汇区淮海中路1250号(地铁1号线常熟路地铁站2号出口对面)"},{"poiid":"B2094757D06EAAF9409E","title":"常熟路地铁站","lon":"121.451084","lat":"31.213396","category":"36","category_name":"地铁站","address":"上海轨道交通 一号线 七号线 轨交常熟路站 1 7"},{"poiid":"B2094753D76FAAFA449C","title":"上海滩国泰旗舰店","lon":"121.466011","lat":"31.216125","category":"249","category_name":"购物服务","address":"淮海中路868号"},{"poiid":"B209475CD564A7F84292","title":"上海滩新天地店","lon":"121.47463","lat":"31.22164","category":"119","category_name":"商场","address":"\"太仓路181弄新天地北里15号\r\n\""},{"poiid":"B209475CD564A7F8439E","title":"上海滩中信泰富店","lon":"121.45602","lat":"31.22851","category":"119","category_name":"商场","address":"\"南京西路1168号中信泰富广场，店铺号221.\r\n\""},{"poiid":"B2094654DB65A5F8479D","title":"贺绿汀音乐厅","lon":"121.45461","lat":"31.21331","category":"179","category_name":"音乐厅","address":"徐汇区汾阳路20号上海音乐学院内(近淮海中路)"},{"poiid":"B2094757D06BA7F54593","title":"五官科医院特约耳鼻喉科门诊","lon":"121.453332","lat":"31.20965","category":"162","category_name":"医院","address":"上海徐汇区汾阳路83号3楼(太原路口)"},{"poiid":"B2094654DB69A5F9449A","title":"星巴克(汾阳路店)","lon":"121.4530533","lat":"31.2097278","category":"65","category_name":"咖啡厅","address":"徐汇区汾阳路138号1楼03单元(太原路)"},{"poiid":"B2094757D069A3FA429E","title":"Aura Restaurant","lon":"121.45183358","lat":"31.212174077","category":"500","category_name":"未知分类","address":"上海市 汾阳路 复兴中路"},{"poiid":"B2094757D16AAAFD459A","title":"上海汾陽花園酒店","lon":"121.455160738","lat":"31.212530923","category":"217","category_name":"旅馆招待所","address":"上海汾陽45號"},{"poiid":"B2094757D069A3F54799","title":"El Patio","lon":"121.45368458","lat":"31.210532045","category":"94","category_name":"西餐厅","address":"徐汇区汾阳路110号(近太原路)"},{"poiid":"B2094757D06FA4F94799","title":"淮海中路常熟路","lon":"121.451735","lat":"31.21375","category":"38","category_name":"公交车站","address":"上海911, 920, 926, 911区间车, 320路 公交车站"},{"poiid":"B2094757D468A4FE439C","title":"埃哇餐厅 汾阳路店 AURA","lon":"121.454274","lat":"31.2113792","category":"94","category_name":"西餐厅","address":"徐汇区汾阳路64弄4号(近复兴中路)"},{"poiid":"B2094757D06AA3FB4292","title":"上海工艺美术博物馆","lon":"121.45460284","lat":"31.210373083","category":"182","category_name":"博物馆","address":"徐汇区汾阳路79号(永康路与太原路之间)"},{"poiid":"B2094750D26EA7FE479D","title":"人民广场地铁站","lon":"121.452407","lat":"31.213254","category":"36","category_name":"地铁站","address":null},{"poiid":"B2094757D068A6F8449D","title":"邮电医院南部","lon":"121.45559842","lat":"31.211518436","category":"162","category_name":"医院","address":"徐汇区复兴中路1315号(近汾阳路)"},{"poiid":"B2094757D06FA4F84599","title":"上方花园","lon":"121.45129","lat":"31.212694","category":"47","category_name":"住宅区","address":"淮海中路1285弄1-77号"},{"poiid":"B2094655D265A7FF429F","title":"上海音乐学院(南门)","lon":"121.45434","lat":"31.21193","category":"52","category_name":"高等院校","address":"复兴中路1330"},{"poiid":"B2094757D065A3F94398","title":"茜茜莉亚音乐咖啡","lon":"121.4542747","lat":"31.211379","category":"65","category_name":"咖啡厅","address":"徐汇区汾阳路64弄2号(近复兴中路)"},{"poiid":"B2094753D464AAF8489D","title":"上海交响乐团音乐厅","lon":"121.451896","lat":"31.21169","category":"500","category_name":"未知分类","address":"复兴中路1380号"},{"poiid":"B2094757D068A3FC4398","title":"轻科大厦","lon":"121.452919","lat":"31.209844589","category":"46","category_name":"楼宇","address":"西城区金融街A区3号地南部"},{"poiid":"B2094757D06FA7FA4998","title":"Memo bar & restaurant","lon":"121.4543","lat":"31.21143","category":"94","category_name":"西餐厅","address":"嘉善路259弄旁嘉善老市内（建国西路和永嘉路之间）"},{"poiid":"B2094757D568A0F4459D","title":"汾阳花园酒店","lon":"121.45546767","lat":"31.21291558","category":"214","category_name":"四星级宾馆","address":"上海徐汇区汾阳路45号(近复兴中路)"},{"poiid":"B2094757D568AAFE4892","title":"上海音乐学院餐厅","lon":"121.4545131","lat":"31.21272194","category":"68","category_name":"快餐厅","address":"徐汇区汾阳路20号上海音乐学院内(近复兴中路)"},{"poiid":"B2094757D06EAAFD4392","title":"磨咕咖啡馆 mogoo cafe","lon":"121.454309054","lat":"31.211203793","category":"260","category_name":"其他","address":"徐汇区汾阳路77号(近音乐学院)"},{"poiid":"B2094757D16FA6F44099","title":"上海音乐学院 北楼","lon":"121.45405058","lat":"31.213074095","category":"500","category_name":"未知分类","address":"上海汾阳路二十号 新教学楼"},{"poiid":"B2094750DA6AABFC429C","title":"上海国际F1赛车场","lon":"121.454673","lat":"31.214015","category":"500","category_name":"未知分类","address":null},{"poiid":"B2094654DB65A4FB4098","title":"上音小区","lon":"121.45383","lat":"31.212023","category":"47","category_name":"住宅区","address":"复兴中路1340弄1-2号"},{"poiid":"B2094757D56DA6F54093","title":"上海音乐学院","lon":"121.454287","lat":"31.213444","category":"52","category_name":"高等院校","address":"汾阳路20号"},{"poiid":"B2094753D569A4F44798","title":"DoroqGarden 多洛库花园","lon":"121.453735","lat":"31.212795","category":"47","category_name":"住宅区","address":"上海市 上海市徐汇区延庆路140号"},{"poiid":"B2094757D069A7FC489F","title":"十号名邸","lon":"121.45163243","lat":"31.212480733","category":"47","category_name":"住宅区","address":"宝庆路10号2-4楼近复兴中路"},{"poiid":"B2094757DB6CA3FC4699","title":"上海汾阳花园酒店","lon":"121.455148","lat":"31.212659","category":"213","category_name":"五星级宾馆","address":"上海市徐汇区汾阳路45号(近复兴中路)"},{"poiid":"B2094757D06EAAFE469F","title":"微听Waiting Cafe(复兴中路近汾阳路)","lon":"121.453418","lat":"31.211411","category":"65","category_name":"咖啡厅","address":"上海复兴中路1323号，近汾阳路"},{"poiid":"B2094757D068A4F8409F","title":"柏斯琴行(汾阳路店)","lon":"121.454502218","lat":"31.2121623067","category":"260","category_name":"其他","address":"徐汇区汾阳路30号(近复兴西路)"},{"poiid":"B2094655D268A2FA469D","title":"音苑小区","lon":"121.45316","lat":"31.211926","category":"47","category_name":"住宅区","address":"复兴中路1350弄1-23号"},{"poiid":"B2094654DA6DA4F4499C","title":"杰天阁随意小吃","lon":"121.4542","lat":"31.21141","category":"76","category_name":"上海菜","address":"徐汇区汾阳路64弄1号"},{"poiid":"B2094750D36BABFA4692","title":"致尚生活的爱","lon":"121.45278908724","lat":"31.211112767704","category":"247","category_name":"餐饮美食","address":"徐汇区复兴中路1335号(近音乐学院)"},{"poiid":"B2094654DA6DA4F5409B","title":"罗森复兴中路店","lon":"121.45378","lat":"31.21152","category":"117","category_name":"便民商店/便利店","address":"复兴中路1319"},{"poiid":"B2094654DB6BA5FB4093","title":"巴比馒头 汾阳路店 Babi Food","lon":"121.454144054","lat":"31.211533793","category":"68","category_name":"快餐厅","address":"徐汇区汾阳路57号(近复兴路)"},{"poiid":"B2094752D668A4FD489A","title":"查餐厅","lon":"121.455439","lat":"31.211717","category":"247","category_name":"餐饮美食","address":"思南路"},{"poiid":"B2094752D76CA3FF4698","title":"Casa Cafe","lon":"121.452558","lat":"31.211965","category":"247","category_name":"餐饮美食","address":"63 永康路"},{"poiid":"B2094655D264A0FB419D","title":"淮海公寓","lon":"121.45298","lat":"31.214819","category":"47","category_name":"住宅区","address":"上海市卢湾区淮海中路1202号"},{"poiid":"B2094757D16BABF8469A","title":"El Gato Verde","lon":"121.454563586","lat":"31.2111980588","category":"94","category_name":"西餐厅","address":"徐汇区汾阳路74号(近复兴中路)"},{"poiid":"B2094757D165A7FC4892","title":"上海音乐学院 北楼报告厅","lon":"121.454496638","lat":"31.2131364359","category":"500","category_name":"未知分类","address":"上海汾阳路20号"},{"poiid":"B2094655D268A2FA4692","title":"音苑小区(南门)","lon":"121.45324","lat":"31.2116","category":"47","category_name":"住宅区","address":"复兴中路1350弄1-23号"},{"poiid":"B2094654DA6EA2FB4493","title":"复兴音乐书店","lon":"121.45348","lat":"31.21175","category":"125","category_name":"书店","address":"复兴中路1350号"},{"poiid":"B2094757D06AA1FC4293","title":"小绿猫墨西哥风味卷饼店","lon":"121.454086","lat":"31.211154","category":"247","category_name":"餐饮美食","address":"上海市徐汇区汾阳路74号"},{"poiid":"B2094655D265A7FB4798","title":"悟茶茶馆","lon":"121.45489","lat":"31.21179","category":"66","category_name":"茶艺馆","address":"复兴中路1315-2临"},{"poiid":"B2094655D26FA7F8459F","title":"新康花园","lon":"121.45245","lat":"31.21299","category":"47","category_name":"住宅区","address":"淮海中路1273弄1-25,26,28号"},{"poiid":"B2094654DB6BA4FD4592","title":"上海音乐学院","lon":"121.45487","lat":"31.21309","category":"671","category_name":"高校中心点","address":"徐汇区汾阳路20号(近复兴中路)"},{"poiid":"B2094757D06EAAFD4692","title":"Whisk","lon":"121.45298","lat":"31.21402","category":"67","category_name":"甜品店","address":"徐汇区淮海中路1250号(地铁1号线常熟路地铁站2号出口对面)"},{"poiid":"B2094757D06EAAF9409E","title":"常熟路地铁站","lon":"121.451084","lat":"31.213396","category":"36","category_name":"地铁站","address":"上海轨道交通 一号线 七号线 轨交常熟路站 1 7"},{"poiid":"B2094753D76FAAFA449C","title":"上海滩国泰旗舰店","lon":"121.466011","lat":"31.216125","category":"249","category_name":"购物服务","address":"淮海中路868号"},{"poiid":"B209475CD564A7F84292","title":"上海滩新天地店","lon":"121.47463","lat":"31.22164","category":"119","category_name":"商场","address":"\"太仓路181弄新天地北里15号\r\n\""},{"poiid":"B209475CD564A7F8439E","title":"上海滩中信泰富店","lon":"121.45602","lat":"31.22851","category":"119","category_name":"商场","address":"\"南京西路1168号中信泰富广场，店铺号221.\r\n\""},{"poiid":"B2094654DB65A5F8479D","title":"贺绿汀音乐厅","lon":"121.45461","lat":"31.21331","category":"179","category_name":"音乐厅","address":"徐汇区汾阳路20号上海音乐学院内(近淮海中路)"},{"poiid":"B2094757D06BA7F54593","title":"五官科医院特约耳鼻喉科门诊","lon":"121.453332","lat":"31.20965","category":"162","category_name":"医院","address":"上海徐汇区汾阳路83号3楼(太原路口)"},{"poiid":"B2094654DB69A5F9449A","title":"星巴克(汾阳路店)","lon":"121.4530533","lat":"31.2097278","category":"65","category_name":"咖啡厅","address":"徐汇区汾阳路138号1楼03单元(太原路)"},{"poiid":"B2094757D069A3FA429E","title":"Aura Restaurant","lon":"121.45183358","lat":"31.212174077","category":"500","category_name":"未知分类","address":"上海市 汾阳路 复兴中路"},{"poiid":"B2094757D16AAAFD459A","title":"上海汾陽花園酒店","lon":"121.455160738","lat":"31.212530923","category":"217","category_name":"旅馆招待所","address":"上海汾陽45號"},{"poiid":"B2094757D069A3F54799","title":"El Patio","lon":"121.45368458","lat":"31.210532045","category":"94","category_name":"西餐厅","address":"徐汇区汾阳路110号(近太原路)"},{"poiid":"B2094757D06FA4F94799","title":"淮海中路常熟路","lon":"121.451735","lat":"31.21375","category":"38","category_name":"公交车站","address":"上海911, 920, 926, 911区间车, 320路 公交车站"},{"poiid":"B2094757D468A4FE439C","title":"埃哇餐厅 汾阳路店 AURA","lon":"121.454274","lat":"31.2113792","category":"94","category_name":"西餐厅","address":"徐汇区汾阳路64弄4号(近复兴中路)"},{"poiid":"B2094757D06AA3FB4292","title":"上海工艺美术博物馆","lon":"121.45460284","lat":"31.210373083","category":"182","category_name":"博物馆","address":"徐汇区汾阳路79号(永康路与太原路之间)"},{"poiid":"B2094750D26EA7FE479D","title":"人民广场地铁站","lon":"121.452407","lat":"31.213254","category":"36","category_name":"地铁站","address":null},{"poiid":"B2094757D068A6F8449D","title":"邮电医院南部","lon":"121.45559842","lat":"31.211518436","category":"162","category_name":"医院","address":"徐汇区复兴中路1315号(近汾阳路)"},{"poiid":"B2094757D06FA4F84599","title":"上方花园","lon":"121.45129","lat":"31.212694","category":"47","category_name":"住宅区","address":"淮海中路1285弄1-77号"},{"poiid":"B2094655D265A7FF429F","title":"上海音乐学院(南门)","lon":"121.45434","lat":"31.21193","category":"52","category_name":"高等院校","address":"复兴中路1330"},{"poiid":"B2094757D065A3F94398","title":"茜茜莉亚音乐咖啡","lon":"121.4542747","lat":"31.211379","category":"65","category_name":"咖啡厅","address":"徐汇区汾阳路64弄2号(近复兴中路)"},{"poiid":"B2094753D464AAF8489D","title":"上海交响乐团音乐厅","lon":"121.451896","lat":"31.21169","category":"500","category_name":"未知分类","address":"复兴中路1380号"},{"poiid":"B2094757D068A3FC4398","title":"轻科大厦","lon":"121.452919","lat":"31.209844589","category":"46","category_name":"楼宇","address":"西城区金融街A区3号地南部"},{"poiid":"B2094757D06FA7FA4998","title":"Memo bar & restaurant","lon":"121.4543","lat":"31.21143","category":"94","category_name":"西餐厅","address":"嘉善路259弄旁嘉善老市内（建国西路和永嘉路之间）"},{"poiid":"B2094757D568A0F4459D","title":"汾阳花园酒店","lon":"121.45546767","lat":"31.21291558","category":"214","category_name":"四星级宾馆","address":"上海徐汇区汾阳路45号(近复兴中路)"},{"poiid":"B2094757D568AAFE4892","title":"上海音乐学院餐厅","lon":"121.4545131","lat":"31.21272194","category":"68","category_name":"快餐厅","address":"徐汇区汾阳路20号上海音乐学院内(近复兴中路)"},{"poiid":"B2094757D06EAAFD4392","title":"磨咕咖啡馆 mogoo cafe","lon":"121.454309054","lat":"31.211203793","category":"260","category_name":"其他","address":"徐汇区汾阳路77号(近音乐学院)"},{"poiid":"B2094757D16FA6F44099","title":"上海音乐学院 北楼","lon":"121.45405058","lat":"31.213074095","category":"500","category_name":"未知分类","address":"上海汾阳路二十号 新教学楼"},{"poiid":"B2094750DA6AABFC429C","title":"上海国际F1赛车场","lon":"121.454673","lat":"31.214015","category":"500","category_name":"未知分类","address":null},{"poiid":"B2094654DB65A4FB4098","title":"上音小区","lon":"121.45383","lat":"31.212023","category":"47","category_name":"住宅区","address":"复兴中路1340弄1-2号"},{"poiid":"B2094757D56DA6F54093","title":"上海音乐学院","lon":"121.454287","lat":"31.213444","category":"52","category_name":"高等院校","address":"汾阳路20号"},{"poiid":"B2094753D569A4F44798","title":"DoroqGarden 多洛库花园","lon":"121.453735","lat":"31.212795","category":"47","category_name":"住宅区","address":"上海市 上海市徐汇区延庆路140号"},{"poiid":"B2094757D069A7FC489F","title":"十号名邸","lon":"121.45163243","lat":"31.212480733","category":"47","category_name":"住宅区","address":"宝庆路10号2-4楼近复兴中路"},{"poiid":"B2094757DB6CA3FC4699","title":"上海汾阳花园酒店","lon":"121.455148","lat":"31.212659","category":"213","category_name":"五星级宾馆","address":"上海市徐汇区汾阳路45号(近复兴中路)"},{"poiid":"B2094757D06EAAFE469F","title":"微听Waiting Cafe(复兴中路近汾阳路)","lon":"121.453418","lat":"31.211411","category":"65","category_name":"咖啡厅","address":"上海复兴中路1323号，近汾阳路"},{"poiid":"B2094757D068A4F8409F","title":"柏斯琴行(汾阳路店)","lon":"121.454502218","lat":"31.2121623067","category":"260","category_name":"其他","address":"徐汇区汾阳路30号(近复兴西路)"},{"poiid":"B2094655D268A2FA469D","title":"音苑小区","lon":"121.45316","lat":"31.211926","category":"47","category_name":"住宅区","address":"复兴中路1350弄1-23号"},{"poiid":"B2094654DA6DA4F4499C","title":"杰天阁随意小吃","lon":"121.4542","lat":"31.21141","category":"76","category_name":"上海菜","address":"徐汇区汾阳路64弄1号"},{"poiid":"B2094750D36BABFA4692","title":"致尚生活的爱","lon":"121.45278908724","lat":"31.211112767704","category":"247","category_name":"餐饮美食","address":"徐汇区复兴中路1335号(近音乐学院)"},{"poiid":"B2094654DA6DA4F5409B","title":"罗森复兴中路店","lon":"121.45378","lat":"31.21152","category":"117","category_name":"便民商店/便利店","address":"复兴中路1319"},{"poiid":"B2094654DB6BA5FB4093","title":"巴比馒头 汾阳路店 Babi Food","lon":"121.454144054","lat":"31.211533793","category":"68","category_name":"快餐厅","address":"徐汇区汾阳路57号(近复兴路)"},{"poiid":"B2094752D668A4FD489A","title":"查餐厅","lon":"121.455439","lat":"31.211717","category":"247","category_name":"餐饮美食","address":"思南路"},{"poiid":"B2094752D76CA3FF4698","title":"Casa Cafe","lon":"121.452558","lat":"31.211965","category":"247","category_name":"餐饮美食","address":"63 永康路"},{"poiid":"B2094655D264A0FB419D","title":"淮海公寓","lon":"121.45298","lat":"31.214819","category":"47","category_name":"住宅区","address":"上海市卢湾区淮海中路1202号"},{"poiid":"B2094757D16BABF8469A","title":"El Gato Verde","lon":"121.454563586","lat":"31.2111980588","category":"94","category_name":"西餐厅","address":"徐汇区汾阳路74号(近复兴中路)"},{"poiid":"B2094757D165A7FC4892","title":"上海音乐学院 北楼报告厅","lon":"121.454496638","lat":"31.2131364359","category":"500","category_name":"未知分类","address":"上海汾阳路20号"},{"poiid":"B2094655D268A2FA4692","title":"音苑小区(南门)","lon":"121.45324","lat":"31.2116","category":"47","category_name":"住宅区","address":"复兴中路1350弄1-23号"},{"poiid":"B2094654DA6EA2FB4493","title":"复兴音乐书店","lon":"121.45348","lat":"31.21175","category":"125","category_name":"书店","address":"复兴中路1350号"},{"poiid":"B2094757D06AA1FC4293","title":"小绿猫墨西哥风味卷饼店","lon":"121.454086","lat":"31.211154","category":"247","category_name":"餐饮美食","address":"上海市徐汇区汾阳路74号"},{"poiid":"B2094655D265A7FB4798","title":"悟茶茶馆","lon":"121.45489","lat":"31.21179","category":"66","category_name":"茶艺馆","address":"复兴中路1315-2临"},{"poiid":"B2094655D26FA7F8459F","title":"新康花园","lon":"121.45245","lat":"31.21299","category":"47","category_name":"住宅区","address":"淮海中路1273弄1-25,26,28号"},{"poiid":"B2094654DB6BA4FD4592","title":"上海音乐学院","lon":"121.45487","lat":"31.21309","category":"671","category_name":"高校中心点","address":"徐汇区汾阳路20号(近复兴中路)"},{"poiid":"B2094757D06EAAFD4692","title":"Whisk","lon":"121.45298","lat":"31.21402","category":"67","category_name":"甜品店","address":"徐汇区淮海中路1250号(地铁1号线常熟路地铁站2号出口对面)"},{"poiid":"B2094757D06EAAF9409E","title":"常熟路地铁站","lon":"121.451084","lat":"31.213396","category":"36","category_name":"地铁站","address":"上海轨道交通 一号线 七号线 轨交常熟路站 1 7"},{"poiid":"B2094753D76FAAFA449C","title":"上海滩国泰旗舰店","lon":"121.466011","lat":"31.216125","category":"249","category_name":"购物服务","address":"淮海中路868号"},{"poiid":"B209475CD564A7F84292","title":"上海滩新天地店","lon":"121.47463","lat":"31.22164","category":"119","category_name":"商场","address":"\"太仓路181弄新天地北里15号\r\n\""},{"poiid":"B209475CD564A7F8439E","title":"上海滩中信泰富店","lon":"121.45602","lat":"31.22851","category":"119","category_name":"商场","address":"\"南京西路1168号中信泰富广场，店铺号221.\r\n\""},{"poiid":"B2094654DB65A5F8479D","title":"贺绿汀音乐厅","lon":"121.45461","lat":"31.21331","category":"179","category_name":"音乐厅","address":"徐汇区汾阳路20号上海音乐学院内(近淮海中路)"},{"poiid":"B2094757D06BA7F54593","title":"五官科医院特约耳鼻喉科门诊","lon":"121.453332","lat":"31.20965","category":"162","category_name":"医院","address":"上海徐汇区汾阳路83号3楼(太原路口)"},{"poiid":"B2094654DB69A5F9449A","title":"星巴克(汾阳路店)","lon":"121.4530533","lat":"31.2097278","category":"65","category_name":"咖啡厅","address":"徐汇区汾阳路138号1楼03单元(太原路)"},{"poiid":"B2094757D069A3FA429E","title":"Aura Restaurant","lon":"121.45183358","lat":"31.212174077","category":"500","category_name":"未知分类","address":"上海市 汾阳路 复兴中路"},{"poiid":"B2094757D16AAAFD459A","title":"上海汾陽花園酒店","lon":"121.455160738","lat":"31.212530923","category":"217","category_name":"旅馆招待所","address":"上海汾陽45號"},{"poiid":"B2094757D069A3F54799","title":"El Patio","lon":"121.45368458","lat":"31.210532045","category":"94","category_name":"西餐厅","address":"徐汇区汾阳路110号(近太原路)"},{"poiid":"B2094757D06FA4F94799","title":"淮海中路常熟路","lon":"121.451735","lat":"31.21375","category":"38","category_name":"公交车站","address":"上海911, 920, 926, 911区间车, 320路 公交车站"},{"poiid":"B2094757D468A4FE439C","title":"埃哇餐厅 汾阳路店 AURA","lon":"121.454274","lat":"31.2113792","category":"94","category_name":"西餐厅","address":"徐汇区汾阳路64弄4号(近复兴中路)"},{"poiid":"B2094757D06AA3FB4292","title":"上海工艺美术博物馆","lon":"121.45460284","lat":"31.210373083","category":"182","category_name":"博物馆","address":"徐汇区汾阳路79号(永康路与太原路之间)"},{"poiid":"B2094750D26EA7FE479D","title":"人民广场地铁站","lon":"121.452407","lat":"31.213254","category":"36","category_name":"地铁站","address":null},{"poiid":"B2094757D068A6F8449D","title":"邮电医院南部","lon":"121.45559842","lat":"31.211518436","category":"162","category_name":"医院","address":"徐汇区复兴中路1315号(近汾阳路)"},{"poiid":"B2094757D06FA4F84599","title":"上方花园","lon":"121.45129","lat":"31.212694","category":"47","category_name":"住宅区","address":"淮海中路1285弄1-77号"},{"poiid":"B2094655D265A7FF429F","title":"上海音乐学院(南门)","lon":"121.45434","lat":"31.21193","category":"52","category_name":"高等院校","address":"复兴中路1330"},{"poiid":"B2094757D065A3F94398","title":"茜茜莉亚音乐咖啡","lon":"121.4542747","lat":"31.211379","category":"65","category_name":"咖啡厅","address":"徐汇区汾阳路64弄2号(近复兴中路)"},{"poiid":"B2094753D464AAF8489D","title":"上海交响乐团音乐厅","lon":"121.451896","lat":"31.21169","category":"500","category_name":"未知分类","address":"复兴中路1380号"},{"poiid":"B2094757D068A3FC4398","title":"轻科大厦","lon":"121.452919","lat":"31.209844589","category":"46","category_name":"楼宇","address":"西城区金融街A区3号地南部"},{"poiid":"B2094757D06FA7FA4998","title":"Memo bar & restaurant","lon":"121.4543","lat":"31.21143","category":"94","category_name":"西餐厅","address":"嘉善路259弄旁嘉善老市内（建国西路和永嘉路之间）"},{"poiid":"B2094757D568A0F4459D","title":"汾阳花园酒店","lon":"121.45546767","lat":"31.21291558","category":"214","category_name":"四星级宾馆","address":"上海徐汇区汾阳路45号(近复兴中路)"},{"poiid":"B2094757D568AAFE4892","title":"上海音乐学院餐厅","lon":"121.4545131","lat":"31.21272194","category":"68","category_name":"快餐厅","address":"徐汇区汾阳路20号上海音乐学院内(近复兴中路)"},{"poiid":"B2094757D06EAAFD4392","title":"磨咕咖啡馆 mogoo cafe","lon":"121.454309054","lat":"31.211203793","category":"260","category_name":"其他","address":"徐汇区汾阳路77号(近音乐学院)"},{"poiid":"B2094757D16FA6F44099","title":"上海音乐学院 北楼","lon":"121.45405058","lat":"31.213074095","category":"500","category_name":"未知分类","address":"上海汾阳路二十号 新教学楼"},{"poiid":"B2094750DA6AABFC429C","title":"上海国际F1赛车场","lon":"121.454673","lat":"31.214015","category":"500","category_name":"未知分类","address":null},{"poiid":"B2094654DB65A4FB4098","title":"上音小区","lon":"121.45383","lat":"31.212023","category":"47","category_name":"住宅区","address":"复兴中路1340弄1-2号"},{"poiid":"B2094757D56DA6F54093","title":"上海音乐学院","lon":"121.454287","lat":"31.213444","category":"52","category_name":"高等院校","address":"汾阳路20号"},{"poiid":"B2094753D569A4F44798","title":"DoroqGarden 多洛库花园","lon":"121.453735","lat":"31.212795","category":"47","category_name":"住宅区","address":"上海市 上海市徐汇区延庆路140号"},{"poiid":"B2094757D069A7FC489F","title":"十号名邸","lon":"121.45163243","lat":"31.212480733","category":"47","category_name":"住宅区","address":"宝庆路10号2-4楼近复兴中路"},{"poiid":"B2094757DB6CA3FC4699","title":"上海汾阳花园酒店","lon":"121.455148","lat":"31.212659","category":"213","category_name":"五星级宾馆","address":"上海市徐汇区汾阳路45号(近复兴中路)"},{"poiid":"B2094757D06EAAFE469F","title":"微听Waiting Cafe(复兴中路近汾阳路)","lon":"121.453418","lat":"31.211411","category":"65","category_name":"咖啡厅","address":"上海复兴中路1323号，近汾阳路"},{"poiid":"B2094757D068A4F8409F","title":"柏斯琴行(汾阳路店)","lon":"121.454502218","lat":"31.2121623067","category":"260","category_name":"其他","address":"徐汇区汾阳路30号(近复兴西路)"},{"poiid":"B2094655D268A2FA469D","title":"音苑小区","lon":"121.45316","lat":"31.211926","category":"47","category_name":"住宅区","address":"复兴中路1350弄1-23号"},{"poiid":"B2094654DA6DA4F4499C","title":"杰天阁随意小吃","lon":"121.4542","lat":"31.21141","category":"76","category_name":"上海菜","address":"徐汇区汾阳路64弄1号"},{"poiid":"B2094750D36BABFA4692","title":"致尚生活的爱","lon":"121.45278908724","lat":"31.211112767704","category":"247","category_name":"餐饮美食","address":"徐汇区复兴中路1335号(近音乐学院)"},{"poiid":"B2094654DA6DA4F5409B","title":"罗森复兴中路店","lon":"121.45378","lat":"31.21152","category":"117","category_name":"便民商店/便利店","address":"复兴中路1319"},{"poiid":"B2094654DB6BA5FB4093","title":"巴比馒头 汾阳路店 Babi Food","lon":"121.454144054","lat":"31.211533793","category":"68","category_name":"快餐厅","address":"徐汇区汾阳路57号(近复兴路)"},{"poiid":"B2094752D668A4FD489A","title":"查餐厅","lon":"121.455439","lat":"31.211717","category":"247","category_name":"餐饮美食","address":"思南路"},{"poiid":"B2094752D76CA3FF4698","title":"Casa Cafe","lon":"121.452558","lat":"31.211965","category":"247","category_name":"餐饮美食","address":"63 永康路"},{"poiid":"B2094655D264A0FB419D","title":"淮海公寓","lon":"121.45298","lat":"31.214819","category":"47","category_name":"住宅区","address":"上海市卢湾区淮海中路1202号"},{"poiid":"B2094757D16BABF8469A","title":"El Gato Verde","lon":"121.454563586","lat":"31.2111980588","category":"94","category_name":"西餐厅","address":"徐汇区汾阳路74号(近复兴中路)"},{"poiid":"B2094757D165A7FC4892","title":"上海音乐学院 北楼报告厅","lon":"121.454496638","lat":"31.2131364359","category":"500","category_name":"未知分类","address":"上海汾阳路20号"},{"poiid":"B2094655D268A2FA4692","title":"音苑小区(南门)","lon":"121.45324","lat":"31.2116","category":"47","category_name":"住宅区","address":"复兴中路1350弄1-23号"},{"poiid":"B2094654DA6EA2FB4493","title":"复兴音乐书店","lon":"121.45348","lat":"31.21175","category":"125","category_name":"书店","address":"复兴中路1350号"},{"poiid":"B2094757D06AA1FC4293","title":"小绿猫墨西哥风味卷饼店","lon":"121.454086","lat":"31.211154","category":"247","category_name":"餐饮美食","address":"上海市徐汇区汾阳路74号"},{"poiid":"B2094655D265A7FB4798","title":"悟茶茶馆","lon":"121.45489","lat":"31.21179","category":"66","category_name":"茶艺馆","address":"复兴中路1315-2临"},{"poiid":"B2094655D26FA7F8459F","title":"新康花园","lon":"121.45245","lat":"31.21299","category":"47","category_name":"住宅区","address":"淮海中路1273弄1-25,26,28号"},{"poiid":"B2094654DB6BA4FD4592","title":"上海音乐学院","lon":"121.45487","lat":"31.21309","category":"671","category_name":"高校中心点","address":"徐汇区汾阳路20号(近复兴中路)"},{"poiid":"B2094757D06EAAFD4692","title":"Whisk","lon":"121.45298","lat":"31.21402","category":"67","category_name":"甜品店","address":"徐汇区淮海中路1250号(地铁1号线常熟路地铁站2号出口对面)"},{"poiid":"B2094757D06EAAF9409E","title":"常熟路地铁站","lon":"121.451084","lat":"31.213396","category":"36","category_name":"地铁站","address":"上海轨道交通 一号线 七号线 轨交常熟路站 1 7"},{"poiid":"B2094753D76FAAFA449C","title":"上海滩国泰旗舰店","lon":"121.466011","lat":"31.216125","category":"249","category_name":"购物服务","address":"淮海中路868号"},{"poiid":"B209475CD564A7F84292","title":"上海滩新天地店","lon":"121.47463","lat":"31.22164","category":"119","category_name":"商场","address":"\"太仓路181弄新天地北里15号\r\n\""},{"poiid":"B209475CD564A7F8439E","title":"上海滩中信泰富店","lon":"121.45602","lat":"31.22851","category":"119","category_name":"商场","address":"\"南京西路1168号中信泰富广场，店铺号221.\r\n\""},{"poiid":"B2094654DB65A5F8479D","title":"贺绿汀音乐厅","lon":"121.45461","lat":"31.21331","category":"179","category_name":"音乐厅","address":"徐汇区汾阳路20号上海音乐学院内(近淮海中路)"},{"poiid":"B2094757D06BA7F54593","title":"五官科医院特约耳鼻喉科门诊","lon":"121.453332","lat":"31.20965","category":"162","category_name":"医院","address":"上海徐汇区汾阳路83号3楼(太原路口)"},{"poiid":"B2094654DB69A5F9449A","title":"星巴克(汾阳路店)","lon":"121.4530533","lat":"31.2097278","category":"65","category_name":"咖啡厅","address":"徐汇区汾阳路138号1楼03单元(太原路)"},{"poiid":"B2094757D069A3FA429E","title":"Aura Restaurant","lon":"121.45183358","lat":"31.212174077","category":"500","category_name":"未知分类","address":"上海市 汾阳路 复兴中路"},{"poiid":"B2094757D16AAAFD459A","title":"上海汾陽花園酒店","lon":"121.455160738","lat":"31.212530923","category":"217","category_name":"旅馆招待所","address":"上海汾陽45號"},{"poiid":"B2094757D069A3F54799","title":"El Patio","lon":"121.45368458","lat":"31.210532045","category":"94","category_name":"西餐厅","address":"徐汇区汾阳路110号(近太原路)"},{"poiid":"B2094757D06FA4F94799","title":"淮海中路常熟路","lon":"121.451735","lat":"31.21375","category":"38","category_name":"公交车站","address":"上海911, 920, 926, 911区间车, 320路 公交车站"},{"poiid":"B2094757D468A4FE439C","title":"埃哇餐厅 汾阳路店 AURA","lon":"121.454274","lat":"31.2113792","category":"94","category_name":"西餐厅","address":"徐汇区汾阳路64弄4号(近复兴中路)"},{"poiid":"B2094757D06AA3FB4292","title":"上海工艺美术博物馆","lon":"121.45460284","lat":"31.210373083","category":"182","category_name":"博物馆","address":"徐汇区汾阳路79号(永康路与太原路之间)"},{"poiid":"B2094750D26EA7FE479D","title":"人民广场地铁站","lon":"121.452407","lat":"31.213254","category":"36","category_name":"地铁站","address":null},{"poiid":"B2094757D068A6F8449D","title":"邮电医院南部","lon":"121.45559842","lat":"31.211518436","category":"162","category_name":"医院","address":"徐汇区复兴中路1315号(近汾阳路)"},{"poiid":"B2094757D06FA4F84599","title":"上方花园","lon":"121.45129","lat":"31.212694","category":"47","category_name":"住宅区","address":"淮海中路1285弄1-77号"},{"poiid":"B2094655D265A7FF429F","title":"上海音乐学院(南门)","lon":"121.45434","lat":"31.21193","category":"52","category_name":"高等院校","address":"复兴中路1330"},{"poiid":"B2094757D065A3F94398","title":"茜茜莉亚音乐咖啡","lon":"121.4542747","lat":"31.211379","category":"65","category_name":"咖啡厅","address":"徐汇区汾阳路64弄2号(近复兴中路)"},{"poiid":"B2094753D464AAF8489D","title":"上海交响乐团音乐厅","lon":"121.451896","lat":"31.21169","category":"500","category_name":"未知分类","address":"复兴中路1380号"},{"poiid":"B2094757D068A3FC4398","title":"轻科大厦","lon":"121.452919","lat":"31.209844589","category":"46","category_name":"楼宇","address":"西城区金融街A区3号地南部"},{"poiid":"B2094757D06FA7FA4998","title":"Memo bar & restaurant","lon":"121.4543","lat":"31.21143","category":"94","category_name":"西餐厅","address":"嘉善路259弄旁嘉善老市内（建国西路和永嘉路之间）"},{"poiid":"B2094757D568A0F4459D","title":"汾阳花园酒店","lon":"121.45546767","lat":"31.21291558","category":"214","category_name":"四星级宾馆","address":"上海徐汇区汾阳路45号(近复兴中路)"},{"poiid":"B2094757D568AAFE4892","title":"上海音乐学院餐厅","lon":"121.4545131","lat":"31.21272194","category":"68","category_name":"快餐厅","address":"徐汇区汾阳路20号上海音乐学院内(近复兴中路)"},{"poiid":"B2094757D06EAAFD4392","title":"磨咕咖啡馆 mogoo cafe","lon":"121.454309054","lat":"31.211203793","category":"260","category_name":"其他","address":"徐汇区汾阳路77号(近音乐学院)"},{"poiid":"B2094757D16FA6F44099","title":"上海音乐学院 北楼","lon":"121.45405058","lat":"31.213074095","category":"500","category_name":"未知分类","address":"上海汾阳路二十号 新教学楼"},{"poiid":"B2094750DA6AABFC429C","title":"上海国际F1赛车场","lon":"121.454673","lat":"31.214015","category":"500","category_name":"未知分类","address":null},{"poiid":"B2094654DB65A4FB4098","title":"上音小区","lon":"121.45383","lat":"31.212023","category":"47","category_name":"住宅区","address":"复兴中路1340弄1-2号"},{"poiid":"B2094757D56DA6F54093","title":"上海音乐学院","lon":"121.454287","lat":"31.213444","category":"52","category_name":"高等院校","address":"汾阳路20号"},{"poiid":"B2094753D569A4F44798","title":"DoroqGarden 多洛库花园","lon":"121.453735","lat":"31.212795","category":"47","category_name":"住宅区","address":"上海市 上海市徐汇区延庆路140号"},{"poiid":"B2094757D069A7FC489F","title":"十号名邸","lon":"121.45163243","lat":"31.212480733","category":"47","category_name":"住宅区","address":"宝庆路10号2-4楼近复兴中路"},{"poiid":"B2094757DB6CA3FC4699","title":"上海汾阳花园酒店","lon":"121.455148","lat":"31.212659","category":"213","category_name":"五星级宾馆","address":"上海市徐汇区汾阳路45号(近复兴中路)"},{"poiid":"B2094757D06EAAFE469F","title":"微听Waiting Cafe(复兴中路近汾阳路)","lon":"121.453418","lat":"31.211411","category":"65","category_name":"咖啡厅","address":"上海复兴中路1323号，近汾阳路"},{"poiid":"B2094757D068A4F8409F","title":"柏斯琴行(汾阳路店)","lon":"121.454502218","lat":"31.2121623067","category":"260","category_name":"其他","address":"徐汇区汾阳路30号(近复兴西路)"},{"poiid":"B2094655D268A2FA469D","title":"音苑小区","lon":"121.45316","lat":"31.211926","category":"47","category_name":"住宅区","address":"复兴中路1350弄1-23号"},{"poiid":"B2094654DA6DA4F4499C","title":"杰天阁随意小吃","lon":"121.4542","lat":"31.21141","category":"76","category_name":"上海菜","address":"徐汇区汾阳路64弄1号"},{"poiid":"B2094750D36BABFA4692","title":"致尚生活的爱","lon":"121.45278908724","lat":"31.211112767704","category":"247","category_name":"餐饮美食","address":"徐汇区复兴中路1335号(近音乐学院)"},{"poiid":"B2094654DA6DA4F5409B","title":"罗森复兴中路店","lon":"121.45378","lat":"31.21152","category":"117","category_name":"便民商店/便利店","address":"复兴中路1319"},{"poiid":"B2094654DB6BA5FB4093","title":"巴比馒头 汾阳路店 Babi Food","lon":"121.454144054","lat":"31.211533793","category":"68","category_name":"快餐厅","address":"徐汇区汾阳路57号(近复兴路)"},{"poiid":"B2094752D668A4FD489A","title":"查餐厅","lon":"121.455439","lat":"31.211717","category":"247","category_name":"餐饮美食","address":"思南路"},{"poiid":"B2094752D76CA3FF4698","title":"Casa Cafe","lon":"121.452558","lat":"31.211965","category":"247","category_name":"餐饮美食","address":"63 永康路"},{"poiid":"B2094655D264A0FB419D","title":"淮海公寓","lon":"121.45298","lat":"31.214819","category":"47","category_name":"住宅区","address":"上海市卢湾区淮海中路1202号"},{"poiid":"B2094757D16BABF8469A","title":"El Gato Verde","lon":"121.454563586","lat":"31.2111980588","category":"94","category_name":"西餐厅","address":"徐汇区汾阳路74号(近复兴中路)"},{"poiid":"B2094757D165A7FC4892","title":"上海音乐学院 北楼报告厅","lon":"121.454496638","lat":"31.2131364359","category":"500","category_name":"未知分类","address":"上海汾阳路20号"},{"poiid":"B2094655D268A2FA4692","title":"音苑小区(南门)","lon":"121.45324","lat":"31.2116","category":"47","category_name":"住宅区","address":"复兴中路1350弄1-23号"},{"poiid":"B2094654DA6EA2FB4493","title":"复兴音乐书店","lon":"121.45348","lat":"31.21175","category":"125","category_name":"书店","address":"复兴中路1350号"},{"poiid":"B2094757D06AA1FC4293","title":"小绿猫墨西哥风味卷饼店","lon":"121.454086","lat":"31.211154","category":"247","category_name":"餐饮美食","address":"上海市徐汇区汾阳路74号"},{"poiid":"B2094655D265A7FB4798","title":"悟茶茶馆","lon":"121.45489","lat":"31.21179","category":"66","category_name":"茶艺馆","address":"复兴中路1315-2临"},{"poiid":"B2094655D26FA7F8459F","title":"新康花园","lon":"121.45245","lat":"31.21299","category":"47","category_name":"住宅区","address":"淮海中路1273弄1-25,26,28号"}]