[{"poiid":"B2094757D66FA7F44199","title":"泖港镇","lon":"121.220139503","lat":"30.9324176412","category":"500","category_name":"未知分类","address":"上海泖港镇"},{"poiid":"B2094757D168AAF4469E","title":"叶新公路","lon":"121.246394103","lat":"30.9392766957","category":"500","category_name":"未知分类","address":"上海市松江区叶新公路"},{"poiid":"B2094654DB6FABF94992","title":"上海同争服饰有限公司","lon":"121.23526","lat":"30.9435","category":"263","category_name":"公司","address":""},{"poiid":"B2094654DB6FABFE469B","title":"港湾别墅","lon":"121.219","lat":"30.9378","category":"47","category_name":"住宅区","address":"中天路299号"},{"poiid":"B2094654DB6FABFA4393","title":"松江区国家税务局第十税务所","lon":"121.21969","lat":"30.93128","category":"250","category_name":"公园户外","address":"中南路"},{"poiid":"B2094654DB6FABFE459C","title":"绿宇农庄","lon":"121.24986","lat":"30.9388","category":"248","category_name":"生活娱乐","address":"张泽镇"},{"poiid":"B2094654DB6FABFF4198","title":"上海天禄园艺有限公司","lon":"121.24983","lat":"30.94018","category":"263","category_name":"公司","address":"叶新公路806号"},{"poiid":"B2094654DB6FABFA479F","title":"泖星酒家","lon":"121.2192","lat":"30.93289","category":"257","category_name":"中餐厅","address":""},{"poiid":"B2094654DB6FABFA449B","title":"家园酒家","lon":"121.21966","lat":"30.93143","category":"257","category_name":"中餐厅","address":""},{"poiid":"B2094655D36CA0FF439B","title":"金家浜","lon":"121.2355","lat":"30.91822","category":"38","category_name":"公交车站","address":""},{"poiid":"B2094654DB69A5FA4598","title":"中国电信(泖港营业厅)","lon":"121.21765","lat":"30.93291","category":"151","category_name":"电讯营业厅","address":"松江区泖港镇宾乐路115号(近泖港电信局)"},{"poiid":"B2094654DB6FABF94199","title":"泖港汽车站","lon":"121.2172","lat":"30.93565","category":"35","category_name":"长途汽车站","address":""},{"poiid":"B2094655D26BA3F54392","title":"城市丽园","lon":"121.21781","lat":"30.933","category":"47","category_name":"住宅区","address":"新宾路88弄"},{"poiid":"B2094654DB6FABFF4099","title":"松江区泖港镇图书馆","lon":"121.21778","lat":"30.93194","category":"181","category_name":"图书馆","address":""},{"poiid":"B2094654DB6FABF8499C","title":"松江区泖港学校","lon":"121.21701","lat":"30.93099","category":"55","category_name":"中学","address":""},{"poiid":"B2094654DB6FABFA4599","title":"上海园民华联超市","lon":"121.21717","lat":"30.93141","category":"118","category_name":"超级市场","address":"泖港镇"},{"poiid":"B2094654DB6FABFE499A","title":"上海光宇电缆制造有限公司(叶新公路)","lon":"121.2191","lat":"30.93564","category":"263","category_name":"公司","address":"叶新公路3336"}]