[{"poiid":"B2094654D469A4FD429E","title":"嘉定紫藤园","lon":"121.25816","lat":"31.37908","category":"196","category_name":"公园","address":"博乐路45"},{"poiid":"B2094757D06FABFF459A","title":"上海科学技术职业学院","lon":"121.25723515","lat":"31.385574228","category":"671","category_name":"高校中心点","address":"嘉定区金沙路280号"},{"poiid":"B2094757D06AA1F54392","title":"蓝宫大饭店","lon":"121.26272","lat":"31.376016","category":"247","category_name":"餐饮美食","address":"上海市嘉定区博乐南路125号"},{"poiid":"B2094757D068A1F9419F","title":"汇龙潭","lon":"121.25354","lat":"31.38189","category":"196","category_name":"公园","address":"嘉定区沙霞路68号(近孔庙)"},{"poiid":"B2094654D469A0FF429E","title":"嘉定孔庙","lon":"121.25323","lat":"31.38096","category":"244","category_name":"寺庙道观","address":"地址：嘉定南大街183号"},{"poiid":"B2094654DB69ABF44392","title":"添欢夜昙(嘉定店)","lon":"121.25585","lat":"31.38365","category":"170","category_name":"KTV","address":"嘉定区塔城路297号(近博乐路)"},{"poiid":"B2094757D06AA3FD479C","title":"七欣天迷宗蟹","lon":"121.25685915","lat":"31.380669106","category":"86","category_name":"火锅店","address":"嘉定区博乐路85号(近中信银行)"},{"poiid":"B2094757D06AA3F54093","title":"明成缘","lon":"121.25831910488","lat":"31.384932781958","category":"96","category_name":"韩国料理","address":"嘉定区金沙路201号(近塔城路)"},{"poiid":"B2094654D469A4FD499A","title":"两岸咖啡嘉定店","lon":"121.25592","lat":"31.38369","category":"260","category_name":"其他","address":"嘉定区塔城路295号添欢夜昙旁(近博乐路)"},{"poiid":"B2094654D469A4FD4698","title":"榕港海鲜大酒楼(嘉定店)","lon":"121.2549486588955","lat":"31.382355724579902","category":"88","category_name":"海鲜酒楼","address":"嘉定区塔城路297-38号(近博乐路)"},{"poiid":"B2094757D66BA7FD429F","title":"肯德基 博乐店 KFC","lon":"121.254760054","lat":"31.383034793","category":"68","category_name":"快餐厅","address":"嘉定区博乐路99号欧尚超市旁(近博乐广场)"},{"poiid":"B2094757D065A7FA469A","title":"今夜酒吧","lon":"121.258167","lat":"31.37908","category":"260","category_name":"其他","address":"嘉定区博乐路45号紫藤园内(近金沙路)"},{"poiid":"B2094757D06AAAF5439B","title":"嘉定社保基金管理中心","lon":"121.257152","lat":"31.37966","category":"252","category_name":"楼宇机构","address":"上海嘉定区博乐路69号"},{"poiid":"B2094757D06BA1F4409A","title":"嘉定区委党校","lon":"121.257233","lat":"31.38462","category":"500","category_name":"未知分类","address":"上海嘉定区塔城路265号"},{"poiid":"B2094757D465A1FF449C","title":"故乡","lon":"121.25620269775","lat":"31.383838653564","category":"269","category_name":"烧烤","address":"嘉定区塔城路290号"},{"poiid":"B209475CDB6CA2F54892","title":"疁城新天地","lon":"121.255213","lat":"31.382237","category":"116","category_name":"特色商业街","address":"上海市 博乐路"},{"poiid":"B2094654D469A4FD489D","title":"浜名湖日本烧肉","lon":"121.25572","lat":"31.38358","category":"269","category_name":"烧烤","address":"嘉定区塔城路277弄2号(近博乐路)"},{"poiid":"B2094757D06AABFC489D","title":"新招鲜本地鸡窝(塔城路店)","lon":"121.256573653","lat":"31.3843191806","category":"86","category_name":"火锅店","address":"嘉定区塔城路283-6号(近金沙路)"},{"poiid":"B2094752D564A7FF499C","title":"江南公社","lon":"121.254337","lat":"31.383078","category":"247","category_name":"餐饮美食","address":"嘉定区塔城路297号-21-2楼"},{"poiid":"B2094757D065A6F8489D","title":"雪岳山韩国烧烤(嘉定店)","lon":"121.25825","lat":"31.38453","category":"96","category_name":"韩国料理","address":"嘉定区塔城路257号(近金沙路)"},{"poiid":"B2094757D16CA0FE469E","title":"阿娥汤圆店(金沙路店)","lon":"121.25817","lat":"31.3831844","category":"68","category_name":"快餐厅","address":"嘉定区金沙路(近仓场路)"},{"poiid":"B2094654D469A4FD4599","title":"世海缘大饭店","lon":"121.254974054","lat":"31.382776793","category":"76","category_name":"上海菜","address":"嘉定区金沙路85号(近博乐路嘉定房地产局)"},{"poiid":"B2094654D469A4FE449C","title":"上海外国语大学嘉定外国语实验学校","lon":"121.25979","lat":"31.38351","category":"52","category_name":"高等院校","address":"嘉定区金沙路168号(近欧尚超市)"},{"poiid":"B2094655D268A4FE409C","title":"嘉定紫藤园(西北门)","lon":"121.25795","lat":"31.37935","category":"47","category_name":"住宅区","address":""},{"poiid":"B2094654D469A4FD4892","title":"四海游龙 塔城路店 OVERSEAS DRAGON","lon":"121.25687","lat":"31.38441","category":"68","category_name":"快餐厅","address":"嘉定区塔城路277弄5号(近博乐路)"},{"poiid":"B209475CD469A4F4469D","title":"星巴克（嘉定疁城国际店）","lon":"121.25518","lat":"31.383516","category":"500","category_name":"未知分类","address":"上海市 上海市嘉定区塔城路295号"},{"poiid":"B209475DDB64AAF5429C","title":"古丽仙西域风情餐厅","lon":"121.258934","lat":"31.380994","category":"247","category_name":"餐饮美食","address":"上海市 嘉定新天地"},{"poiid":"B2094654D469A4FA4199","title":"上海汽车工业活动中心","lon":"121.26267","lat":"31.37614","category":"45","category_name":"产业园区","address":"博乐南路125"},{"poiid":"B2094750DA6BA7F9489E","title":"紫藤公园","lon":"121.258432","lat":"31.379333","category":"250","category_name":"公园户外","address":null},{"poiid":"B2094655D268A5FE469F","title":"泰宸汇金商务楼","lon":"121.25598","lat":"31.38115","category":"46","category_name":"楼宇","address":"金沙路75"},{"poiid":"B2094757D164A6FA499B","title":"嘉定区财政局","lon":"121.257836218","lat":"31.3814845977","category":"46","category_name":"楼宇","address":"上海嘉定区仓场路3333号"},{"poiid":"B2094655D36CA0FE4698","title":"金沙路博乐路","lon":"121.25639","lat":"31.38106","category":"38","category_name":"公交车站","address":""},{"poiid":"B2094757D16CAAFD4792","title":"上海汽车变速器有限公司","lon":"121.259014","lat":"31.37632","category":"46","category_name":"楼宇","address":"上海嘉定区疁南街105号"},{"poiid":"B2094757D064A0FE489E","title":"嘉定区人力资源和社会保障局","lon":"121.257086","lat":"31.381059","category":"500","category_name":"未知分类","address":"上海金沙路28号"},{"poiid":"B2094757D16DA3F4439A","title":"大宋足浴(嘉定店)","lon":"121.26133316","lat":"31.375959509","category":"149","category_name":"洗浴推拿场所","address":"上海近郊嘉定区博乐南路158号泰宸商务楼2楼(近宝嘉路)  "},{"poiid":"B2094757D06AA0FE4398","title":"夏天形象设计中心(金沙路店)","lon":"121.25784","lat":"31.38462","category":"148","category_name":"美容美发店","address":"嘉定区金沙路(近塔城路)"},{"poiid":"B2094654D469A4FF499F","title":"三家村","lon":"121.253915054","lat":"31.379824793","category":"76","category_name":"上海菜","address":"嘉定区沙霞路78号(博乐路沙霞路)"},{"poiid":"B2094757D065A6FB4193","title":"珍品(嘉罗公路店)","lon":"121.26207","lat":"31.38376","category":"76","category_name":"上海菜","address":"嘉定区嘉罗公路453号(宝嘉公路迎园中路)"},{"poiid":"B2094654D469A4FE439A","title":"和幸日本料理","lon":"121.257507","lat":"31.385252","category":"95","category_name":"日本料理","address":"嘉定区金沙路207号(近塔城路)"},{"poiid":"B2094757D069ABF54698","title":"巴麦隆自助烤肉嘉定店","lon":"121.257041","lat":"31.384297","category":"257","category_name":"中餐厅","address":"嘉定区嘉定区塔城路267号(金沙路欧尚超市对面)"},{"poiid":"B2094757D66BA2FB469D","title":"道草日本料理","lon":"121.25798","lat":"31.3848","category":"95","category_name":"日本料理","address":"嘉定区塔城路257号(金沙路口)"},{"poiid":"B2094757D065AAFB449D","title":"南翔小笼孔庙店","lon":"121.25283","lat":"31.38017","category":"68","category_name":"快餐厅","address":"嘉定区南大街194号(近汇龙潭公园)"},{"poiid":"B2094757D66AABFF4592","title":"旺晖新概念川菜馆 塔城路店","lon":"121.255338054","lat":"31.383364793","category":"71","category_name":"四川菜","address":"嘉定区塔城路297号(近博乐路)"},{"poiid":"B2094654D469A4FD429F","title":"上海市嘉定区土地储备开发中心","lon":"121.25846","lat":"31.38018","category":"263","category_name":"公司","address":""},{"poiid":"B2094757DA64A3F4479E","title":"嘉华国际","lon":"121.261479","lat":"31.381399","category":"47","category_name":"住宅区","address":"大兴黄村清源北路与兴华大街交叉口西北角"},{"poiid":"B2094752D269AAFA439B","title":"添欢纯k","lon":"121.257552","lat":"31.381656","category":"500","category_name":"未知分类","address":null},{"poiid":"B2094750DB68A3FE429B","title":"东方绿洲","lon":"121.253097","lat":"31.380004","category":"47","category_name":"住宅区","address":null},{"poiid":"B209475CDB6EABF44292","title":"疁城新天地","lon":"121.261199","lat":"31.380073","category":"500","category_name":"未知分类","address":"上海市 上海市嘉定区博乐路"},{"poiid":"B2094654D469ABFC469E","title":"普通小学","lon":"121.25544","lat":"31.38451","category":"56","category_name":"小学","address":"嘉定区塔城路278号"},{"poiid":"B2094655D268A4FE409E","title":"嘉华山庄(东门)","lon":"121.26184","lat":"31.3791","category":"47","category_name":"住宅区","address":"嘉罗公路351号"},{"poiid":"B2094654D469A4FD429E","title":"嘉定紫藤园","lon":"121.25816","lat":"31.37908","category":"196","category_name":"公园","address":"博乐路45"},{"poiid":"B2094757D06FABFF459A","title":"上海科学技术职业学院","lon":"121.25723515","lat":"31.385574228","category":"671","category_name":"高校中心点","address":"嘉定区金沙路280号"},{"poiid":"B2094757D06AA1F54392","title":"蓝宫大饭店","lon":"121.26272","lat":"31.376016","category":"247","category_name":"餐饮美食","address":"上海市嘉定区博乐南路125号"},{"poiid":"B2094757D068A1F9419F","title":"汇龙潭","lon":"121.25354","lat":"31.38189","category":"196","category_name":"公园","address":"嘉定区沙霞路68号(近孔庙)"},{"poiid":"B2094654D469A0FF429E","title":"嘉定孔庙","lon":"121.25323","lat":"31.38096","category":"244","category_name":"寺庙道观","address":"地址：嘉定南大街183号"},{"poiid":"B2094654DB69ABF44392","title":"添欢夜昙(嘉定店)","lon":"121.25585","lat":"31.38365","category":"170","category_name":"KTV","address":"嘉定区塔城路297号(近博乐路)"},{"poiid":"B2094757D06AA3FD479C","title":"七欣天迷宗蟹","lon":"121.25685915","lat":"31.380669106","category":"86","category_name":"火锅店","address":"嘉定区博乐路85号(近中信银行)"},{"poiid":"B2094757D06AA3F54093","title":"明成缘","lon":"121.25831910488","lat":"31.384932781958","category":"96","category_name":"韩国料理","address":"嘉定区金沙路201号(近塔城路)"},{"poiid":"B2094654D469A4FD499A","title":"两岸咖啡嘉定店","lon":"121.25592","lat":"31.38369","category":"260","category_name":"其他","address":"嘉定区塔城路295号添欢夜昙旁(近博乐路)"},{"poiid":"B2094654D469A4FD4698","title":"榕港海鲜大酒楼(嘉定店)","lon":"121.2549486588955","lat":"31.382355724579902","category":"88","category_name":"海鲜酒楼","address":"嘉定区塔城路297-38号(近博乐路)"},{"poiid":"B2094757D66BA7FD429F","title":"肯德基 博乐店 KFC","lon":"121.254760054","lat":"31.383034793","category":"68","category_name":"快餐厅","address":"嘉定区博乐路99号欧尚超市旁(近博乐广场)"},{"poiid":"B2094757D065A7FA469A","title":"今夜酒吧","lon":"121.258167","lat":"31.37908","category":"260","category_name":"其他","address":"嘉定区博乐路45号紫藤园内(近金沙路)"},{"poiid":"B2094757D06AAAF5439B","title":"嘉定社保基金管理中心","lon":"121.257152","lat":"31.37966","category":"252","category_name":"楼宇机构","address":"上海嘉定区博乐路69号"},{"poiid":"B2094757D06BA1F4409A","title":"嘉定区委党校","lon":"121.257233","lat":"31.38462","category":"500","category_name":"未知分类","address":"上海嘉定区塔城路265号"},{"poiid":"B2094757D465A1FF449C","title":"故乡","lon":"121.25620269775","lat":"31.383838653564","category":"269","category_name":"烧烤","address":"嘉定区塔城路290号"},{"poiid":"B209475CDB6CA2F54892","title":"疁城新天地","lon":"121.255213","lat":"31.382237","category":"116","category_name":"特色商业街","address":"上海市 博乐路"},{"poiid":"B2094654D469A4FD489D","title":"浜名湖日本烧肉","lon":"121.25572","lat":"31.38358","category":"269","category_name":"烧烤","address":"嘉定区塔城路277弄2号(近博乐路)"},{"poiid":"B2094757D06AABFC489D","title":"新招鲜本地鸡窝(塔城路店)","lon":"121.256573653","lat":"31.3843191806","category":"86","category_name":"火锅店","address":"嘉定区塔城路283-6号(近金沙路)"},{"poiid":"B2094752D564A7FF499C","title":"江南公社","lon":"121.254337","lat":"31.383078","category":"247","category_name":"餐饮美食","address":"嘉定区塔城路297号-21-2楼"},{"poiid":"B2094757D065A6F8489D","title":"雪岳山韩国烧烤(嘉定店)","lon":"121.25825","lat":"31.38453","category":"96","category_name":"韩国料理","address":"嘉定区塔城路257号(近金沙路)"},{"poiid":"B2094757D16CA0FE469E","title":"阿娥汤圆店(金沙路店)","lon":"121.25817","lat":"31.3831844","category":"68","category_name":"快餐厅","address":"嘉定区金沙路(近仓场路)"},{"poiid":"B2094654D469A4FD4599","title":"世海缘大饭店","lon":"121.254974054","lat":"31.382776793","category":"76","category_name":"上海菜","address":"嘉定区金沙路85号(近博乐路嘉定房地产局)"},{"poiid":"B2094654D469A4FE449C","title":"上海外国语大学嘉定外国语实验学校","lon":"121.25979","lat":"31.38351","category":"52","category_name":"高等院校","address":"嘉定区金沙路168号(近欧尚超市)"},{"poiid":"B2094655D268A4FE409C","title":"嘉定紫藤园(西北门)","lon":"121.25795","lat":"31.37935","category":"47","category_name":"住宅区","address":""},{"poiid":"B2094654D469A4FD4892","title":"四海游龙 塔城路店 OVERSEAS DRAGON","lon":"121.25687","lat":"31.38441","category":"68","category_name":"快餐厅","address":"嘉定区塔城路277弄5号(近博乐路)"},{"poiid":"B209475CD469A4F4469D","title":"星巴克（嘉定疁城国际店）","lon":"121.25518","lat":"31.383516","category":"500","category_name":"未知分类","address":"上海市 上海市嘉定区塔城路295号"},{"poiid":"B209475DDB64AAF5429C","title":"古丽仙西域风情餐厅","lon":"121.258934","lat":"31.380994","category":"247","category_name":"餐饮美食","address":"上海市 嘉定新天地"},{"poiid":"B2094654D469A4FA4199","title":"上海汽车工业活动中心","lon":"121.26267","lat":"31.37614","category":"45","category_name":"产业园区","address":"博乐南路125"},{"poiid":"B2094750DA6BA7F9489E","title":"紫藤公园","lon":"121.258432","lat":"31.379333","category":"250","category_name":"公园户外","address":null},{"poiid":"B2094655D268A5FE469F","title":"泰宸汇金商务楼","lon":"121.25598","lat":"31.38115","category":"46","category_name":"楼宇","address":"金沙路75"},{"poiid":"B2094757D164A6FA499B","title":"嘉定区财政局","lon":"121.257836218","lat":"31.3814845977","category":"46","category_name":"楼宇","address":"上海嘉定区仓场路3333号"},{"poiid":"B2094655D36CA0FE4698","title":"金沙路博乐路","lon":"121.25639","lat":"31.38106","category":"38","category_name":"公交车站","address":""},{"poiid":"B2094757D16CAAFD4792","title":"上海汽车变速器有限公司","lon":"121.259014","lat":"31.37632","category":"46","category_name":"楼宇","address":"上海嘉定区疁南街105号"},{"poiid":"B2094757D064A0FE489E","title":"嘉定区人力资源和社会保障局","lon":"121.257086","lat":"31.381059","category":"500","category_name":"未知分类","address":"上海金沙路28号"},{"poiid":"B2094757D16DA3F4439A","title":"大宋足浴(嘉定店)","lon":"121.26133316","lat":"31.375959509","category":"149","category_name":"洗浴推拿场所","address":"上海近郊嘉定区博乐南路158号泰宸商务楼2楼(近宝嘉路)  "},{"poiid":"B2094757D06AA0FE4398","title":"夏天形象设计中心(金沙路店)","lon":"121.25784","lat":"31.38462","category":"148","category_name":"美容美发店","address":"嘉定区金沙路(近塔城路)"},{"poiid":"B2094654D469A4FF499F","title":"三家村","lon":"121.253915054","lat":"31.379824793","category":"76","category_name":"上海菜","address":"嘉定区沙霞路78号(博乐路沙霞路)"},{"poiid":"B2094757D065A6FB4193","title":"珍品(嘉罗公路店)","lon":"121.26207","lat":"31.38376","category":"76","category_name":"上海菜","address":"嘉定区嘉罗公路453号(宝嘉公路迎园中路)"},{"poiid":"B2094654D469A4FE439A","title":"和幸日本料理","lon":"121.257507","lat":"31.385252","category":"95","category_name":"日本料理","address":"嘉定区金沙路207号(近塔城路)"},{"poiid":"B2094757D069ABF54698","title":"巴麦隆自助烤肉嘉定店","lon":"121.257041","lat":"31.384297","category":"257","category_name":"中餐厅","address":"嘉定区嘉定区塔城路267号(金沙路欧尚超市对面)"},{"poiid":"B2094757D66BA2FB469D","title":"道草日本料理","lon":"121.25798","lat":"31.3848","category":"95","category_name":"日本料理","address":"嘉定区塔城路257号(金沙路口)"},{"poiid":"B2094757D065AAFB449D","title":"南翔小笼孔庙店","lon":"121.25283","lat":"31.38017","category":"68","category_name":"快餐厅","address":"嘉定区南大街194号(近汇龙潭公园)"},{"poiid":"B2094757D66AABFF4592","title":"旺晖新概念川菜馆 塔城路店","lon":"121.255338054","lat":"31.383364793","category":"71","category_name":"四川菜","address":"嘉定区塔城路297号(近博乐路)"},{"poiid":"B2094654D469A4FD429F","title":"上海市嘉定区土地储备开发中心","lon":"121.25846","lat":"31.38018","category":"263","category_name":"公司","address":""},{"poiid":"B2094757DA64A3F4479E","title":"嘉华国际","lon":"121.261479","lat":"31.381399","category":"47","category_name":"住宅区","address":"大兴黄村清源北路与兴华大街交叉口西北角"},{"poiid":"B2094752D269AAFA439B","title":"添欢纯k","lon":"121.257552","lat":"31.381656","category":"500","category_name":"未知分类","address":null},{"poiid":"B2094750DB68A3FE429B","title":"东方绿洲","lon":"121.253097","lat":"31.380004","category":"47","category_name":"住宅区","address":null},{"poiid":"B209475CDB6EABF44292","title":"疁城新天地","lon":"121.261199","lat":"31.380073","category":"500","category_name":"未知分类","address":"上海市 上海市嘉定区博乐路"},{"poiid":"B2094654D469ABFC469E","title":"普通小学","lon":"121.25544","lat":"31.38451","category":"56","category_name":"小学","address":"嘉定区塔城路278号"},{"poiid":"B2094655D268A4FE409E","title":"嘉华山庄(东门)","lon":"121.26184","lat":"31.3791","category":"47","category_name":"住宅区","address":"嘉罗公路351号"},{"poiid":"B2094654D469A4FD429E","title":"嘉定紫藤园","lon":"121.25816","lat":"31.37908","category":"196","category_name":"公园","address":"博乐路45"},{"poiid":"B2094757D06FABFF459A","title":"上海科学技术职业学院","lon":"121.25723515","lat":"31.385574228","category":"671","category_name":"高校中心点","address":"嘉定区金沙路280号"},{"poiid":"B2094757D06AA1F54392","title":"蓝宫大饭店","lon":"121.26272","lat":"31.376016","category":"247","category_name":"餐饮美食","address":"上海市嘉定区博乐南路125号"},{"poiid":"B2094757D068A1F9419F","title":"汇龙潭","lon":"121.25354","lat":"31.38189","category":"196","category_name":"公园","address":"嘉定区沙霞路68号(近孔庙)"},{"poiid":"B2094654D469A0FF429E","title":"嘉定孔庙","lon":"121.25323","lat":"31.38096","category":"244","category_name":"寺庙道观","address":"地址：嘉定南大街183号"},{"poiid":"B2094654DB69ABF44392","title":"添欢夜昙(嘉定店)","lon":"121.25585","lat":"31.38365","category":"170","category_name":"KTV","address":"嘉定区塔城路297号(近博乐路)"},{"poiid":"B2094757D06AA3FD479C","title":"七欣天迷宗蟹","lon":"121.25685915","lat":"31.380669106","category":"86","category_name":"火锅店","address":"嘉定区博乐路85号(近中信银行)"},{"poiid":"B2094757D06AA3F54093","title":"明成缘","lon":"121.25831910488","lat":"31.384932781958","category":"96","category_name":"韩国料理","address":"嘉定区金沙路201号(近塔城路)"},{"poiid":"B2094654D469A4FD499A","title":"两岸咖啡嘉定店","lon":"121.25592","lat":"31.38369","category":"260","category_name":"其他","address":"嘉定区塔城路295号添欢夜昙旁(近博乐路)"},{"poiid":"B2094654D469A4FD4698","title":"榕港海鲜大酒楼(嘉定店)","lon":"121.2549486588955","lat":"31.382355724579902","category":"88","category_name":"海鲜酒楼","address":"嘉定区塔城路297-38号(近博乐路)"},{"poiid":"B2094757D66BA7FD429F","title":"肯德基 博乐店 KFC","lon":"121.254760054","lat":"31.383034793","category":"68","category_name":"快餐厅","address":"嘉定区博乐路99号欧尚超市旁(近博乐广场)"},{"poiid":"B2094757D065A7FA469A","title":"今夜酒吧","lon":"121.258167","lat":"31.37908","category":"260","category_name":"其他","address":"嘉定区博乐路45号紫藤园内(近金沙路)"},{"poiid":"B2094757D06AAAF5439B","title":"嘉定社保基金管理中心","lon":"121.257152","lat":"31.37966","category":"252","category_name":"楼宇机构","address":"上海嘉定区博乐路69号"},{"poiid":"B2094757D06BA1F4409A","title":"嘉定区委党校","lon":"121.257233","lat":"31.38462","category":"500","category_name":"未知分类","address":"上海嘉定区塔城路265号"},{"poiid":"B2094757D465A1FF449C","title":"故乡","lon":"121.25620269775","lat":"31.383838653564","category":"269","category_name":"烧烤","address":"嘉定区塔城路290号"},{"poiid":"B209475CDB6CA2F54892","title":"疁城新天地","lon":"121.255213","lat":"31.382237","category":"116","category_name":"特色商业街","address":"上海市 博乐路"},{"poiid":"B2094654D469A4FD489D","title":"浜名湖日本烧肉","lon":"121.25572","lat":"31.38358","category":"269","category_name":"烧烤","address":"嘉定区塔城路277弄2号(近博乐路)"},{"poiid":"B2094757D06AABFC489D","title":"新招鲜本地鸡窝(塔城路店)","lon":"121.256573653","lat":"31.3843191806","category":"86","category_name":"火锅店","address":"嘉定区塔城路283-6号(近金沙路)"},{"poiid":"B2094752D564A7FF499C","title":"江南公社","lon":"121.254337","lat":"31.383078","category":"247","category_name":"餐饮美食","address":"嘉定区塔城路297号-21-2楼"},{"poiid":"B2094757D065A6F8489D","title":"雪岳山韩国烧烤(嘉定店)","lon":"121.25825","lat":"31.38453","category":"96","category_name":"韩国料理","address":"嘉定区塔城路257号(近金沙路)"},{"poiid":"B2094757D16CA0FE469E","title":"阿娥汤圆店(金沙路店)","lon":"121.25817","lat":"31.3831844","category":"68","category_name":"快餐厅","address":"嘉定区金沙路(近仓场路)"},{"poiid":"B2094654D469A4FD4599","title":"世海缘大饭店","lon":"121.254974054","lat":"31.382776793","category":"76","category_name":"上海菜","address":"嘉定区金沙路85号(近博乐路嘉定房地产局)"},{"poiid":"B2094654D469A4FE449C","title":"上海外国语大学嘉定外国语实验学校","lon":"121.25979","lat":"31.38351","category":"52","category_name":"高等院校","address":"嘉定区金沙路168号(近欧尚超市)"},{"poiid":"B2094655D268A4FE409C","title":"嘉定紫藤园(西北门)","lon":"121.25795","lat":"31.37935","category":"47","category_name":"住宅区","address":""},{"poiid":"B2094654D469A4FD4892","title":"四海游龙 塔城路店 OVERSEAS DRAGON","lon":"121.25687","lat":"31.38441","category":"68","category_name":"快餐厅","address":"嘉定区塔城路277弄5号(近博乐路)"},{"poiid":"B209475CD469A4F4469D","title":"星巴克（嘉定疁城国际店）","lon":"121.25518","lat":"31.383516","category":"500","category_name":"未知分类","address":"上海市 上海市嘉定区塔城路295号"},{"poiid":"B209475DDB64AAF5429C","title":"古丽仙西域风情餐厅","lon":"121.258934","lat":"31.380994","category":"247","category_name":"餐饮美食","address":"上海市 嘉定新天地"},{"poiid":"B2094654D469A4FA4199","title":"上海汽车工业活动中心","lon":"121.26267","lat":"31.37614","category":"45","category_name":"产业园区","address":"博乐南路125"},{"poiid":"B2094750DA6BA7F9489E","title":"紫藤公园","lon":"121.258432","lat":"31.379333","category":"250","category_name":"公园户外","address":null},{"poiid":"B2094655D268A5FE469F","title":"泰宸汇金商务楼","lon":"121.25598","lat":"31.38115","category":"46","category_name":"楼宇","address":"金沙路75"},{"poiid":"B2094757D164A6FA499B","title":"嘉定区财政局","lon":"121.257836218","lat":"31.3814845977","category":"46","category_name":"楼宇","address":"上海嘉定区仓场路3333号"},{"poiid":"B2094655D36CA0FE4698","title":"金沙路博乐路","lon":"121.25639","lat":"31.38106","category":"38","category_name":"公交车站","address":""},{"poiid":"B2094757D16CAAFD4792","title":"上海汽车变速器有限公司","lon":"121.259014","lat":"31.37632","category":"46","category_name":"楼宇","address":"上海嘉定区疁南街105号"},{"poiid":"B2094757D064A0FE489E","title":"嘉定区人力资源和社会保障局","lon":"121.257086","lat":"31.381059","category":"500","category_name":"未知分类","address":"上海金沙路28号"},{"poiid":"B2094757D16DA3F4439A","title":"大宋足浴(嘉定店)","lon":"121.26133316","lat":"31.375959509","category":"149","category_name":"洗浴推拿场所","address":"上海近郊嘉定区博乐南路158号泰宸商务楼2楼(近宝嘉路)  "},{"poiid":"B2094757D06AA0FE4398","title":"夏天形象设计中心(金沙路店)","lon":"121.25784","lat":"31.38462","category":"148","category_name":"美容美发店","address":"嘉定区金沙路(近塔城路)"},{"poiid":"B2094654D469A4FF499F","title":"三家村","lon":"121.253915054","lat":"31.379824793","category":"76","category_name":"上海菜","address":"嘉定区沙霞路78号(博乐路沙霞路)"},{"poiid":"B2094757D065A6FB4193","title":"珍品(嘉罗公路店)","lon":"121.26207","lat":"31.38376","category":"76","category_name":"上海菜","address":"嘉定区嘉罗公路453号(宝嘉公路迎园中路)"},{"poiid":"B2094654D469A4FE439A","title":"和幸日本料理","lon":"121.257507","lat":"31.385252","category":"95","category_name":"日本料理","address":"嘉定区金沙路207号(近塔城路)"},{"poiid":"B2094757D069ABF54698","title":"巴麦隆自助烤肉嘉定店","lon":"121.257041","lat":"31.384297","category":"257","category_name":"中餐厅","address":"嘉定区嘉定区塔城路267号(金沙路欧尚超市对面)"},{"poiid":"B2094757D66BA2FB469D","title":"道草日本料理","lon":"121.25798","lat":"31.3848","category":"95","category_name":"日本料理","address":"嘉定区塔城路257号(金沙路口)"},{"poiid":"B2094757D065AAFB449D","title":"南翔小笼孔庙店","lon":"121.25283","lat":"31.38017","category":"68","category_name":"快餐厅","address":"嘉定区南大街194号(近汇龙潭公园)"},{"poiid":"B2094757D66AABFF4592","title":"旺晖新概念川菜馆 塔城路店","lon":"121.255338054","lat":"31.383364793","category":"71","category_name":"四川菜","address":"嘉定区塔城路297号(近博乐路)"},{"poiid":"B2094654D469A4FD429F","title":"上海市嘉定区土地储备开发中心","lon":"121.25846","lat":"31.38018","category":"263","category_name":"公司","address":""},{"poiid":"B2094757DA64A3F4479E","title":"嘉华国际","lon":"121.261479","lat":"31.381399","category":"47","category_name":"住宅区","address":"大兴黄村清源北路与兴华大街交叉口西北角"},{"poiid":"B2094752D269AAFA439B","title":"添欢纯k","lon":"121.257552","lat":"31.381656","category":"500","category_name":"未知分类","address":null},{"poiid":"B2094750DB68A3FE429B","title":"东方绿洲","lon":"121.253097","lat":"31.380004","category":"47","category_name":"住宅区","address":null},{"poiid":"B209475CDB6EABF44292","title":"疁城新天地","lon":"121.261199","lat":"31.380073","category":"500","category_name":"未知分类","address":"上海市 上海市嘉定区博乐路"},{"poiid":"B2094654D469ABFC469E","title":"普通小学","lon":"121.25544","lat":"31.38451","category":"56","category_name":"小学","address":"嘉定区塔城路278号"},{"poiid":"B2094655D268A4FE409E","title":"嘉华山庄(东门)","lon":"121.26184","lat":"31.3791","category":"47","category_name":"住宅区","address":"嘉罗公路351号"},{"poiid":"B2094654D469A4FD429E","title":"嘉定紫藤园","lon":"121.25816","lat":"31.37908","category":"196","category_name":"公园","address":"博乐路45"},{"poiid":"B2094757D06FABFF459A","title":"上海科学技术职业学院","lon":"121.25723515","lat":"31.385574228","category":"671","category_name":"高校中心点","address":"嘉定区金沙路280号"},{"poiid":"B2094757D06AA1F54392","title":"蓝宫大饭店","lon":"121.26272","lat":"31.376016","category":"247","category_name":"餐饮美食","address":"上海市嘉定区博乐南路125号"},{"poiid":"B2094757D068A1F9419F","title":"汇龙潭","lon":"121.25354","lat":"31.38189","category":"196","category_name":"公园","address":"嘉定区沙霞路68号(近孔庙)"},{"poiid":"B2094654D469A0FF429E","title":"嘉定孔庙","lon":"121.25323","lat":"31.38096","category":"244","category_name":"寺庙道观","address":"地址：嘉定南大街183号"},{"poiid":"B2094654DB69ABF44392","title":"添欢夜昙(嘉定店)","lon":"121.25585","lat":"31.38365","category":"170","category_name":"KTV","address":"嘉定区塔城路297号(近博乐路)"},{"poiid":"B2094757D06AA3FD479C","title":"七欣天迷宗蟹","lon":"121.25685915","lat":"31.380669106","category":"86","category_name":"火锅店","address":"嘉定区博乐路85号(近中信银行)"},{"poiid":"B2094757D06AA3F54093","title":"明成缘","lon":"121.25831910488","lat":"31.384932781958","category":"96","category_name":"韩国料理","address":"嘉定区金沙路201号(近塔城路)"},{"poiid":"B2094654D469A4FD499A","title":"两岸咖啡嘉定店","lon":"121.25592","lat":"31.38369","category":"260","category_name":"其他","address":"嘉定区塔城路295号添欢夜昙旁(近博乐路)"},{"poiid":"B2094654D469A4FD4698","title":"榕港海鲜大酒楼(嘉定店)","lon":"121.2549486588955","lat":"31.382355724579902","category":"88","category_name":"海鲜酒楼","address":"嘉定区塔城路297-38号(近博乐路)"},{"poiid":"B2094757D66BA7FD429F","title":"肯德基 博乐店 KFC","lon":"121.254760054","lat":"31.383034793","category":"68","category_name":"快餐厅","address":"嘉定区博乐路99号欧尚超市旁(近博乐广场)"},{"poiid":"B2094757D065A7FA469A","title":"今夜酒吧","lon":"121.258167","lat":"31.37908","category":"260","category_name":"其他","address":"嘉定区博乐路45号紫藤园内(近金沙路)"},{"poiid":"B2094757D06AAAF5439B","title":"嘉定社保基金管理中心","lon":"121.257152","lat":"31.37966","category":"252","category_name":"楼宇机构","address":"上海嘉定区博乐路69号"},{"poiid":"B2094757D06BA1F4409A","title":"嘉定区委党校","lon":"121.257233","lat":"31.38462","category":"500","category_name":"未知分类","address":"上海嘉定区塔城路265号"},{"poiid":"B2094757D465A1FF449C","title":"故乡","lon":"121.25620269775","lat":"31.383838653564","category":"269","category_name":"烧烤","address":"嘉定区塔城路290号"},{"poiid":"B209475CDB6CA2F54892","title":"疁城新天地","lon":"121.255213","lat":"31.382237","category":"116","category_name":"特色商业街","address":"上海市 博乐路"},{"poiid":"B2094654D469A4FD489D","title":"浜名湖日本烧肉","lon":"121.25572","lat":"31.38358","category":"269","category_name":"烧烤","address":"嘉定区塔城路277弄2号(近博乐路)"},{"poiid":"B2094757D06AABFC489D","title":"新招鲜本地鸡窝(塔城路店)","lon":"121.256573653","lat":"31.3843191806","category":"86","category_name":"火锅店","address":"嘉定区塔城路283-6号(近金沙路)"},{"poiid":"B2094752D564A7FF499C","title":"江南公社","lon":"121.254337","lat":"31.383078","category":"247","category_name":"餐饮美食","address":"嘉定区塔城路297号-21-2楼"},{"poiid":"B2094757D065A6F8489D","title":"雪岳山韩国烧烤(嘉定店)","lon":"121.25825","lat":"31.38453","category":"96","category_name":"韩国料理","address":"嘉定区塔城路257号(近金沙路)"},{"poiid":"B2094757D16CA0FE469E","title":"阿娥汤圆店(金沙路店)","lon":"121.25817","lat":"31.3831844","category":"68","category_name":"快餐厅","address":"嘉定区金沙路(近仓场路)"},{"poiid":"B2094654D469A4FD4599","title":"世海缘大饭店","lon":"121.254974054","lat":"31.382776793","category":"76","category_name":"上海菜","address":"嘉定区金沙路85号(近博乐路嘉定房地产局)"},{"poiid":"B2094654D469A4FE449C","title":"上海外国语大学嘉定外国语实验学校","lon":"121.25979","lat":"31.38351","category":"52","category_name":"高等院校","address":"嘉定区金沙路168号(近欧尚超市)"},{"poiid":"B2094655D268A4FE409C","title":"嘉定紫藤园(西北门)","lon":"121.25795","lat":"31.37935","category":"47","category_name":"住宅区","address":""},{"poiid":"B2094654D469A4FD4892","title":"四海游龙 塔城路店 OVERSEAS DRAGON","lon":"121.25687","lat":"31.38441","category":"68","category_name":"快餐厅","address":"嘉定区塔城路277弄5号(近博乐路)"},{"poiid":"B209475CD469A4F4469D","title":"星巴克（嘉定疁城国际店）","lon":"121.25518","lat":"31.383516","category":"500","category_name":"未知分类","address":"上海市 上海市嘉定区塔城路295号"},{"poiid":"B209475DDB64AAF5429C","title":"古丽仙西域风情餐厅","lon":"121.258934","lat":"31.380994","category":"247","category_name":"餐饮美食","address":"上海市 嘉定新天地"},{"poiid":"B2094654D469A4FA4199","title":"上海汽车工业活动中心","lon":"121.26267","lat":"31.37614","category":"45","category_name":"产业园区","address":"博乐南路125"},{"poiid":"B2094750DA6BA7F9489E","title":"紫藤公园","lon":"121.258432","lat":"31.379333","category":"250","category_name":"公园户外","address":null},{"poiid":"B2094655D268A5FE469F","title":"泰宸汇金商务楼","lon":"121.25598","lat":"31.38115","category":"46","category_name":"楼宇","address":"金沙路75"},{"poiid":"B2094757D164A6FA499B","title":"嘉定区财政局","lon":"121.257836218","lat":"31.3814845977","category":"46","category_name":"楼宇","address":"上海嘉定区仓场路3333号"},{"poiid":"B2094655D36CA0FE4698","title":"金沙路博乐路","lon":"121.25639","lat":"31.38106","category":"38","category_name":"公交车站","address":""},{"poiid":"B2094757D16CAAFD4792","title":"上海汽车变速器有限公司","lon":"121.259014","lat":"31.37632","category":"46","category_name":"楼宇","address":"上海嘉定区疁南街105号"},{"poiid":"B2094757D064A0FE489E","title":"嘉定区人力资源和社会保障局","lon":"121.257086","lat":"31.381059","category":"500","category_name":"未知分类","address":"上海金沙路28号"},{"poiid":"B2094757D16DA3F4439A","title":"大宋足浴(嘉定店)","lon":"121.26133316","lat":"31.375959509","category":"149","category_name":"洗浴推拿场所","address":"上海近郊嘉定区博乐南路158号泰宸商务楼2楼(近宝嘉路)  "},{"poiid":"B2094757D06AA0FE4398","title":"夏天形象设计中心(金沙路店)","lon":"121.25784","lat":"31.38462","category":"148","category_name":"美容美发店","address":"嘉定区金沙路(近塔城路)"},{"poiid":"B2094654D469A4FF499F","title":"三家村","lon":"121.253915054","lat":"31.379824793","category":"76","category_name":"上海菜","address":"嘉定区沙霞路78号(博乐路沙霞路)"},{"poiid":"B2094757D065A6FB4193","title":"珍品(嘉罗公路店)","lon":"121.26207","lat":"31.38376","category":"76","category_name":"上海菜","address":"嘉定区嘉罗公路453号(宝嘉公路迎园中路)"},{"poiid":"B2094654D469A4FE439A","title":"和幸日本料理","lon":"121.257507","lat":"31.385252","category":"95","category_name":"日本料理","address":"嘉定区金沙路207号(近塔城路)"},{"poiid":"B2094757D069ABF54698","title":"巴麦隆自助烤肉嘉定店","lon":"121.257041","lat":"31.384297","category":"257","category_name":"中餐厅","address":"嘉定区嘉定区塔城路267号(金沙路欧尚超市对面)"},{"poiid":"B2094757D66BA2FB469D","title":"道草日本料理","lon":"121.25798","lat":"31.3848","category":"95","category_name":"日本料理","address":"嘉定区塔城路257号(金沙路口)"},{"poiid":"B2094757D065AAFB449D","title":"南翔小笼孔庙店","lon":"121.25283","lat":"31.38017","category":"68","category_name":"快餐厅","address":"嘉定区南大街194号(近汇龙潭公园)"},{"poiid":"B2094757D66AABFF4592","title":"旺晖新概念川菜馆 塔城路店","lon":"121.255338054","lat":"31.383364793","category":"71","category_name":"四川菜","address":"嘉定区塔城路297号(近博乐路)"},{"poiid":"B2094654D469A4FD429F","title":"上海市嘉定区土地储备开发中心","lon":"121.25846","lat":"31.38018","category":"263","category_name":"公司","address":""},{"poiid":"B2094757DA64A3F4479E","title":"嘉华国际","lon":"121.261479","lat":"31.381399","category":"47","category_name":"住宅区","address":"大兴黄村清源北路与兴华大街交叉口西北角"},{"poiid":"B2094752D269AAFA439B","title":"添欢纯k","lon":"121.257552","lat":"31.381656","category":"500","category_name":"未知分类","address":null},{"poiid":"B2094750DB68A3FE429B","title":"东方绿洲","lon":"121.253097","lat":"31.380004","category":"47","category_name":"住宅区","address":null},{"poiid":"B209475CDB6EABF44292","title":"疁城新天地","lon":"121.261199","lat":"31.380073","category":"500","category_name":"未知分类","address":"上海市 上海市嘉定区博乐路"},{"poiid":"B2094654D469ABFC469E","title":"普通小学","lon":"121.25544","lat":"31.38451","category":"56","category_name":"小学","address":"嘉定区塔城路278号"},{"poiid":"B2094655D268A4FE409E","title":"嘉华山庄(东门)","lon":"121.26184","lat":"31.3791","category":"47","category_name":"住宅区","address":"嘉罗公路351号"}]