[{"poiid":"B2094654D468A5FC419F","title":"上海市崇明岛八一路步行街","lon":"121.39627","lat":"31.62607","category":"116","category_name":"特色商业街","address":""},{"poiid":"B2094757D06FA2F94393","title":"南门码头","lon":"121.39254598","lat":"31.6150031","category":"35","category_name":"长途汽车站","address":"近郊崇明县南门路93号(崇明南门路崇明西门路)"},{"poiid":"B2094757D064A4FC499E","title":"崇明岛","lon":"121.395029773","lat":"31.6211386151","category":"500","category_name":"未知分类","address":"上海市崇明县，长江入海口"},{"poiid":"B2094757D069A4F4499F","title":"新华医院(崇明分院)","lon":"121.39975485","lat":"31.617747801","category":"162","category_name":"医院","address":"近郊崇明县南门港街25号"},{"poiid":"B2094757D069A2F4449E","title":"天鹤大酒店","lon":"121.395997","lat":"31.619362","category":"215","category_name":"三星级宾馆","address":"近郊崇明县南门路178号(近西门路)"},{"poiid":"B2094752D265A6FF469F","title":"星巴克","lon":"121.399594","lat":"31.621763","category":"247","category_name":"餐饮美食","address":"近郊崇明县城桥镇八一路206号(近富民路)"},{"poiid":"B2094757D068A4F8449D","title":"肯德基 KFC (崇明店)","lon":"121.395886","lat":"31.619948","category":"68","category_name":"快餐厅","address":"近郊崇明城桥镇八一路118号(富民街新崇南路)"},{"poiid":"B2094654D468A7FF4993","title":"瀛洲公园","lon":"121.40169","lat":"31.61769","category":"196","category_name":"公园","address":"近郊崇明城桥镇鳌山路1号(崇明东门路崇明南门路)"},{"poiid":"B2094752D26EA5FF4892","title":"八一广场","lon":"121.395859","lat":"31.620726","category":"247","category_name":"餐饮美食","address":"八一路192"},{"poiid":"B2094757D068AAF5439E","title":"上海瀛通大酒店","lon":"121.39709519","lat":"31.626996549","category":"213","category_name":"五星级宾馆","address":"上海崇明县北门路190号"},{"poiid":"B2094654D468A7F4409F","title":"一只菜","lon":"121.400824054","lat":"31.619583793","category":"76","category_name":"上海菜","address":"上海近郊崇明区城桥东门路119号(近新崇南路)  "},{"poiid":"B2094757D06AA3F94493","title":"锦绣宾馆","lon":"121.399420773","lat":"31.6221266336","category":"217","category_name":"旅馆招待所","address":"上海市崇明县新崇南路"},{"poiid":"B2094757D568ABF9479F","title":"南门景观大堤","lon":"121.40000515","lat":"31.61587755","category":"250","category_name":"公园户外","address":"中国上海市崇明县东门路"},{"poiid":"B2094757D064AAFB479B","title":"麦盛莉酒楼(崇明店)","lon":"121.40300887","lat":"31.624452777","category":"76","category_name":"上海菜","address":"上海近郊崇明县东门路268号(近一江山路)  "},{"poiid":"B2094654D468A7F84298","title":"南门港","lon":"121.39334","lat":"31.61755","category":"34","category_name":"港口码头","address":"城桥镇"},{"poiid":"B2094757D064A5FD4293","title":"绿色时代生态大酒店","lon":"121.40224786","lat":"31.620648793","category":"76","category_name":"上海菜","address":"近郊崇明学宫路38号(东门路口)"},{"poiid":"B2094654DB6AA6FF4493","title":"上海顺利大酒店","lon":"121.39971","lat":"31.62037","category":"215","category_name":"三星级宾馆","address":"近郊崇明县新崇南路38号(近锦绣宾馆)"},{"poiid":"B2094757D16DA7FE4492","title":"崇明县中心医院","lon":"121.400120739","lat":"31.618085368","category":"162","category_name":"医院","address":"近郊崇明县南门路25号(永乐家电旁)"},{"poiid":"B2094654DB65A6F54298","title":"肯德基(北门路店)","lon":"121.39693","lat":"31.62637","category":"68","category_name":"快餐厅","address":"近郊崇明城桥镇八一路(崇明电影院旁)"},{"poiid":"B2094757D065A1FC4598","title":"老板娘大酒店(崇明店)","lon":"121.39662785","lat":"31.61854281","category":"75","category_name":"浙江菜","address":"近郊崇明县城桥镇南门路166号(八一路崇明南门路)"},{"poiid":"B2094757D069AAFE479D","title":"鼓浪屿路","lon":"121.415303","lat":"31.624593","category":"148","category_name":"美容美发店","address":"上海市崇明县城桥镇鼓浪屿路"},{"poiid":"B2094654D468A7F8409A","title":"崇明影剧院","lon":"121.39693","lat":"31.62637","category":"178","category_name":"电影院","address":"近郊崇明县城桥镇八一路488号(近北门路)"},{"poiid":"B2094757D069A0FC439F","title":"崇明西门汽车站","lon":"121.39247107","lat":"31.619557028","category":"35","category_name":"长途汽车站","address":"上海申崇三线(西门汽车站~汶水路)，世博37路"},{"poiid":"B2094757D06BA5FE489A","title":"崇明南门汽车站","lon":"121.393346","lat":"31.61755","category":"35","category_name":"长途汽车站","address":"上海崇明南门"},{"poiid":"B2094654D468A7FF479C","title":"崇明县博物馆","lon":"121.40175","lat":"31.61871","category":"182","category_name":"博物馆","address":"近郊崇明县鳌山路696号(近南门码头)"},{"poiid":"B2094757D66CA4F94898","title":"鳌山瞑园","lon":"121.403909","lat":"31.616372","category":"500","category_name":"未知分类","address":"上海鳌山路"},{"poiid":"B2094654D468A7FF489F","title":"崇明学宫","lon":"121.40167","lat":"31.61871","category":"250","category_name":"公园户外","address":"鳌山路696号"},{"poiid":"B2094757D165A4F84299","title":"釜山料理","lon":"121.39616597","lat":"31.619519184","category":"96","category_name":"韩国料理","address":"近郊崇明南门八一路36号"},{"poiid":"B2094654D468A6FA4798","title":"上海市扬子中学","lon":"121.40152","lat":"31.62665","category":"55","category_name":"中学","address":"近郊崇明县城桥镇北门路58号(崇明北门路崇明西门路)"},{"poiid":"B2094654D468A5FC4892","title":"上海第二医科大学附属仁济医院崇明分院","lon":"121.40016","lat":"31.61665","category":"162","category_name":"医院","address":"东门路1"},{"poiid":"B2094757D164A3FF4299","title":"崇明体育馆","lon":"121.400255189","lat":"31.6266484615","category":"500","category_name":"未知分类","address":"上海崇明县北门路"},{"poiid":"B2094757D465A1FF459E","title":"锦绣宾馆餐厅","lon":"121.399527054","lat":"31.620261793","category":"76","category_name":"上海菜","address":"近郊崇明县城内新崇南路4号(近朝阳门)"},{"poiid":"B2094757D66EA5FC4792","title":"绝对好迪","lon":"121.401529773","lat":"31.6234996593","category":"170","category_name":"KTV","address":"上海近郊崇明县南门东门  "},{"poiid":"B2094757D168A1F8499C","title":"学宫路","lon":"121.40210786","lat":"31.620377794","category":"47","category_name":"住宅区","address":"上海东门路"},{"poiid":"B2094752D269A4FB439E","title":"星巴克八一广场店","lon":"121.3944146","lat":"31.6230179","category":"247","category_name":"餐饮美食","address":"八一路"},{"poiid":"B2094654D468A6FE4198","title":"上海交通大学医学院附属仁济医院崇明分院","lon":"121.39958","lat":"31.61833","category":"162","category_name":"医院","address":"城桥镇南门港街25号"},{"poiid":"B2094757D568ABF94493","title":"上岛咖啡(崇明店总工会店)","lon":"121.39902534","lat":"31.61941542","category":"260","category_name":"其他","address":"近郊崇明县城桥镇朝阳门路17号总工会大楼2楼(中心医院对面)"},{"poiid":"B2094655D26AA3F9429E","title":"莫泰168八一路店","lon":"121.39659","lat":"31.62372","category":"247","category_name":"餐饮美食","address":"上海近郊崇明城桥镇八一路338号  "},{"poiid":"B2094654D468A7FF4892","title":"寒山寺","lon":"121.40216","lat":"31.62354","category":"244","category_name":"寺庙道观","address":"东门路187号"},{"poiid":"B2094757D169A2FB409B","title":"陆港小镇","lon":"121.40377","lat":"31.62579","category":"76","category_name":"上海菜","address":"近郊崇明城桥镇东门路143号(崇明北门路一江山路)"},{"poiid":"B2094654D468A5FE4693","title":"城隍庙小吃世界 新崇南路店","lon":"121.396356054","lat":"31.620203793","category":"68","category_name":"快餐厅","address":"近郊崇明县新崇南路203号(富民街新崇南路)"},{"poiid":"B2094757D168ABFD479D","title":"崇明县总工会大楼","lon":"121.399225773","lat":"31.6197005883","category":"252","category_name":"楼宇机构","address":"上海南门路118号"},{"poiid":"B2094654D468A6FE489F","title":"夏记火锅","lon":"121.396505054","lat":"31.620264793","category":"86","category_name":"火锅店","address":"近郊崇明县新崇南路201号(近八一路)"},{"poiid":"B2094757D16DA1FF4993","title":"迪欧咖啡 崇明八一店 DIO CAFE","lon":"121.39661239429","lat":"31.624734805345","category":"260","category_name":"其他","address":"近郊崇明县城桥镇八一路308号(八一路新崇北路)"},{"poiid":"B2094654D468A6FE469B","title":"小八路面菜馆","lon":"121.39741","lat":"31.61993","category":"76","category_name":"上海菜","address":"近郊崇明新崇南路145号(近八一路)"},{"poiid":"B2094654D468A7F44192","title":"百爱口腔门诊部","lon":"121.39964","lat":"31.61884","category":"162","category_name":"医院","address":""},{"poiid":"B2094757DB6CA3FF4293","title":"上海紫京大酒店","lon":"121.409869194","lat":"31.621073084","category":"215","category_name":"三星级宾馆","address":"上海市崇明县寒山寺路88号,t"},{"poiid":"B2094654D468A7FA439C","title":"崇明信息大楼","lon":"121.39785","lat":"31.619","category":"46","category_name":"楼宇","address":"城桥镇"},{"poiid":"B2094757D168A3FC419C","title":"小绍兴(崇明店)","lon":"121.395078773","lat":"31.618940074","category":"68","category_name":"快餐厅","address":"近郊崇明县新崇南路178号(富民街新崇南路)"},{"poiid":"B2094654D468A6FE489D","title":"外经大楼","lon":"121.40017","lat":"31.62029","category":"46","category_name":"楼宇","address":"新崇南路28号"},{"poiid":"B2094654D468A5FC419F","title":"上海市崇明岛八一路步行街","lon":"121.39627","lat":"31.62607","category":"116","category_name":"特色商业街","address":""},{"poiid":"B2094757D06FA2F94393","title":"南门码头","lon":"121.39254598","lat":"31.6150031","category":"35","category_name":"长途汽车站","address":"近郊崇明县南门路93号(崇明南门路崇明西门路)"},{"poiid":"B2094757D064A4FC499E","title":"崇明岛","lon":"121.395029773","lat":"31.6211386151","category":"500","category_name":"未知分类","address":"上海市崇明县，长江入海口"},{"poiid":"B2094757D069A4F4499F","title":"新华医院(崇明分院)","lon":"121.39975485","lat":"31.617747801","category":"162","category_name":"医院","address":"近郊崇明县南门港街25号"},{"poiid":"B2094757D069A2F4449E","title":"天鹤大酒店","lon":"121.395997","lat":"31.619362","category":"215","category_name":"三星级宾馆","address":"近郊崇明县南门路178号(近西门路)"},{"poiid":"B2094752D265A6FF469F","title":"星巴克","lon":"121.399594","lat":"31.621763","category":"247","category_name":"餐饮美食","address":"近郊崇明县城桥镇八一路206号(近富民路)"},{"poiid":"B2094757D068A4F8449D","title":"肯德基 KFC (崇明店)","lon":"121.395886","lat":"31.619948","category":"68","category_name":"快餐厅","address":"近郊崇明城桥镇八一路118号(富民街新崇南路)"},{"poiid":"B2094654D468A7FF4993","title":"瀛洲公园","lon":"121.40169","lat":"31.61769","category":"196","category_name":"公园","address":"近郊崇明城桥镇鳌山路1号(崇明东门路崇明南门路)"},{"poiid":"B2094752D26EA5FF4892","title":"八一广场","lon":"121.395859","lat":"31.620726","category":"247","category_name":"餐饮美食","address":"八一路192"},{"poiid":"B2094757D068AAF5439E","title":"上海瀛通大酒店","lon":"121.39709519","lat":"31.626996549","category":"213","category_name":"五星级宾馆","address":"上海崇明县北门路190号"},{"poiid":"B2094654D468A7F4409F","title":"一只菜","lon":"121.400824054","lat":"31.619583793","category":"76","category_name":"上海菜","address":"上海近郊崇明区城桥东门路119号(近新崇南路)  "},{"poiid":"B2094757D06AA3F94493","title":"锦绣宾馆","lon":"121.399420773","lat":"31.6221266336","category":"217","category_name":"旅馆招待所","address":"上海市崇明县新崇南路"},{"poiid":"B2094757D568ABF9479F","title":"南门景观大堤","lon":"121.40000515","lat":"31.61587755","category":"250","category_name":"公园户外","address":"中国上海市崇明县东门路"},{"poiid":"B2094757D064AAFB479B","title":"麦盛莉酒楼(崇明店)","lon":"121.40300887","lat":"31.624452777","category":"76","category_name":"上海菜","address":"上海近郊崇明县东门路268号(近一江山路)  "},{"poiid":"B2094654D468A7F84298","title":"南门港","lon":"121.39334","lat":"31.61755","category":"34","category_name":"港口码头","address":"城桥镇"},{"poiid":"B2094757D064A5FD4293","title":"绿色时代生态大酒店","lon":"121.40224786","lat":"31.620648793","category":"76","category_name":"上海菜","address":"近郊崇明学宫路38号(东门路口)"},{"poiid":"B2094654DB6AA6FF4493","title":"上海顺利大酒店","lon":"121.39971","lat":"31.62037","category":"215","category_name":"三星级宾馆","address":"近郊崇明县新崇南路38号(近锦绣宾馆)"},{"poiid":"B2094757D16DA7FE4492","title":"崇明县中心医院","lon":"121.400120739","lat":"31.618085368","category":"162","category_name":"医院","address":"近郊崇明县南门路25号(永乐家电旁)"},{"poiid":"B2094654DB65A6F54298","title":"肯德基(北门路店)","lon":"121.39693","lat":"31.62637","category":"68","category_name":"快餐厅","address":"近郊崇明城桥镇八一路(崇明电影院旁)"},{"poiid":"B2094757D065A1FC4598","title":"老板娘大酒店(崇明店)","lon":"121.39662785","lat":"31.61854281","category":"75","category_name":"浙江菜","address":"近郊崇明县城桥镇南门路166号(八一路崇明南门路)"},{"poiid":"B2094757D069AAFE479D","title":"鼓浪屿路","lon":"121.415303","lat":"31.624593","category":"148","category_name":"美容美发店","address":"上海市崇明县城桥镇鼓浪屿路"},{"poiid":"B2094654D468A7F8409A","title":"崇明影剧院","lon":"121.39693","lat":"31.62637","category":"178","category_name":"电影院","address":"近郊崇明县城桥镇八一路488号(近北门路)"},{"poiid":"B2094757D069A0FC439F","title":"崇明西门汽车站","lon":"121.39247107","lat":"31.619557028","category":"35","category_name":"长途汽车站","address":"上海申崇三线(西门汽车站~汶水路)，世博37路"},{"poiid":"B2094757D06BA5FE489A","title":"崇明南门汽车站","lon":"121.393346","lat":"31.61755","category":"35","category_name":"长途汽车站","address":"上海崇明南门"},{"poiid":"B2094654D468A7FF479C","title":"崇明县博物馆","lon":"121.40175","lat":"31.61871","category":"182","category_name":"博物馆","address":"近郊崇明县鳌山路696号(近南门码头)"},{"poiid":"B2094757D66CA4F94898","title":"鳌山瞑园","lon":"121.403909","lat":"31.616372","category":"500","category_name":"未知分类","address":"上海鳌山路"},{"poiid":"B2094654D468A7FF489F","title":"崇明学宫","lon":"121.40167","lat":"31.61871","category":"250","category_name":"公园户外","address":"鳌山路696号"},{"poiid":"B2094757D165A4F84299","title":"釜山料理","lon":"121.39616597","lat":"31.619519184","category":"96","category_name":"韩国料理","address":"近郊崇明南门八一路36号"},{"poiid":"B2094654D468A6FA4798","title":"上海市扬子中学","lon":"121.40152","lat":"31.62665","category":"55","category_name":"中学","address":"近郊崇明县城桥镇北门路58号(崇明北门路崇明西门路)"},{"poiid":"B2094654D468A5FC4892","title":"上海第二医科大学附属仁济医院崇明分院","lon":"121.40016","lat":"31.61665","category":"162","category_name":"医院","address":"东门路1"},{"poiid":"B2094757D164A3FF4299","title":"崇明体育馆","lon":"121.400255189","lat":"31.6266484615","category":"500","category_name":"未知分类","address":"上海崇明县北门路"},{"poiid":"B2094757D465A1FF459E","title":"锦绣宾馆餐厅","lon":"121.399527054","lat":"31.620261793","category":"76","category_name":"上海菜","address":"近郊崇明县城内新崇南路4号(近朝阳门)"},{"poiid":"B2094757D66EA5FC4792","title":"绝对好迪","lon":"121.401529773","lat":"31.6234996593","category":"170","category_name":"KTV","address":"上海近郊崇明县南门东门  "},{"poiid":"B2094757D168A1F8499C","title":"学宫路","lon":"121.40210786","lat":"31.620377794","category":"47","category_name":"住宅区","address":"上海东门路"},{"poiid":"B2094752D269A4FB439E","title":"星巴克八一广场店","lon":"121.3944146","lat":"31.6230179","category":"247","category_name":"餐饮美食","address":"八一路"},{"poiid":"B2094654D468A6FE4198","title":"上海交通大学医学院附属仁济医院崇明分院","lon":"121.39958","lat":"31.61833","category":"162","category_name":"医院","address":"城桥镇南门港街25号"},{"poiid":"B2094757D568ABF94493","title":"上岛咖啡(崇明店总工会店)","lon":"121.39902534","lat":"31.61941542","category":"260","category_name":"其他","address":"近郊崇明县城桥镇朝阳门路17号总工会大楼2楼(中心医院对面)"},{"poiid":"B2094655D26AA3F9429E","title":"莫泰168八一路店","lon":"121.39659","lat":"31.62372","category":"247","category_name":"餐饮美食","address":"上海近郊崇明城桥镇八一路338号  "},{"poiid":"B2094654D468A7FF4892","title":"寒山寺","lon":"121.40216","lat":"31.62354","category":"244","category_name":"寺庙道观","address":"东门路187号"},{"poiid":"B2094757D169A2FB409B","title":"陆港小镇","lon":"121.40377","lat":"31.62579","category":"76","category_name":"上海菜","address":"近郊崇明城桥镇东门路143号(崇明北门路一江山路)"},{"poiid":"B2094654D468A5FE4693","title":"城隍庙小吃世界 新崇南路店","lon":"121.396356054","lat":"31.620203793","category":"68","category_name":"快餐厅","address":"近郊崇明县新崇南路203号(富民街新崇南路)"},{"poiid":"B2094757D168ABFD479D","title":"崇明县总工会大楼","lon":"121.399225773","lat":"31.6197005883","category":"252","category_name":"楼宇机构","address":"上海南门路118号"},{"poiid":"B2094654D468A6FE489F","title":"夏记火锅","lon":"121.396505054","lat":"31.620264793","category":"86","category_name":"火锅店","address":"近郊崇明县新崇南路201号(近八一路)"},{"poiid":"B2094757D16DA1FF4993","title":"迪欧咖啡 崇明八一店 DIO CAFE","lon":"121.39661239429","lat":"31.624734805345","category":"260","category_name":"其他","address":"近郊崇明县城桥镇八一路308号(八一路新崇北路)"},{"poiid":"B2094654D468A6FE469B","title":"小八路面菜馆","lon":"121.39741","lat":"31.61993","category":"76","category_name":"上海菜","address":"近郊崇明新崇南路145号(近八一路)"},{"poiid":"B2094654D468A7F44192","title":"百爱口腔门诊部","lon":"121.39964","lat":"31.61884","category":"162","category_name":"医院","address":""},{"poiid":"B2094757DB6CA3FF4293","title":"上海紫京大酒店","lon":"121.409869194","lat":"31.621073084","category":"215","category_name":"三星级宾馆","address":"上海市崇明县寒山寺路88号,t"},{"poiid":"B2094654D468A7FA439C","title":"崇明信息大楼","lon":"121.39785","lat":"31.619","category":"46","category_name":"楼宇","address":"城桥镇"},{"poiid":"B2094757D168A3FC419C","title":"小绍兴(崇明店)","lon":"121.395078773","lat":"31.618940074","category":"68","category_name":"快餐厅","address":"近郊崇明县新崇南路178号(富民街新崇南路)"},{"poiid":"B2094654D468A6FE489D","title":"外经大楼","lon":"121.40017","lat":"31.62029","category":"46","category_name":"楼宇","address":"新崇南路28号"},{"poiid":"B2094654D468A5FC419F","title":"上海市崇明岛八一路步行街","lon":"121.39627","lat":"31.62607","category":"116","category_name":"特色商业街","address":""},{"poiid":"B2094757D06FA2F94393","title":"南门码头","lon":"121.39254598","lat":"31.6150031","category":"35","category_name":"长途汽车站","address":"近郊崇明县南门路93号(崇明南门路崇明西门路)"},{"poiid":"B2094757D064A4FC499E","title":"崇明岛","lon":"121.395029773","lat":"31.6211386151","category":"500","category_name":"未知分类","address":"上海市崇明县，长江入海口"},{"poiid":"B2094757D069A4F4499F","title":"新华医院(崇明分院)","lon":"121.39975485","lat":"31.617747801","category":"162","category_name":"医院","address":"近郊崇明县南门港街25号"},{"poiid":"B2094757D069A2F4449E","title":"天鹤大酒店","lon":"121.395997","lat":"31.619362","category":"215","category_name":"三星级宾馆","address":"近郊崇明县南门路178号(近西门路)"},{"poiid":"B2094752D265A6FF469F","title":"星巴克","lon":"121.399594","lat":"31.621763","category":"247","category_name":"餐饮美食","address":"近郊崇明县城桥镇八一路206号(近富民路)"},{"poiid":"B2094757D068A4F8449D","title":"肯德基 KFC (崇明店)","lon":"121.395886","lat":"31.619948","category":"68","category_name":"快餐厅","address":"近郊崇明城桥镇八一路118号(富民街新崇南路)"},{"poiid":"B2094654D468A7FF4993","title":"瀛洲公园","lon":"121.40169","lat":"31.61769","category":"196","category_name":"公园","address":"近郊崇明城桥镇鳌山路1号(崇明东门路崇明南门路)"},{"poiid":"B2094752D26EA5FF4892","title":"八一广场","lon":"121.395859","lat":"31.620726","category":"247","category_name":"餐饮美食","address":"八一路192"},{"poiid":"B2094757D068AAF5439E","title":"上海瀛通大酒店","lon":"121.39709519","lat":"31.626996549","category":"213","category_name":"五星级宾馆","address":"上海崇明县北门路190号"},{"poiid":"B2094654D468A7F4409F","title":"一只菜","lon":"121.400824054","lat":"31.619583793","category":"76","category_name":"上海菜","address":"上海近郊崇明区城桥东门路119号(近新崇南路)  "},{"poiid":"B2094757D06AA3F94493","title":"锦绣宾馆","lon":"121.399420773","lat":"31.6221266336","category":"217","category_name":"旅馆招待所","address":"上海市崇明县新崇南路"},{"poiid":"B2094757D568ABF9479F","title":"南门景观大堤","lon":"121.40000515","lat":"31.61587755","category":"250","category_name":"公园户外","address":"中国上海市崇明县东门路"},{"poiid":"B2094757D064AAFB479B","title":"麦盛莉酒楼(崇明店)","lon":"121.40300887","lat":"31.624452777","category":"76","category_name":"上海菜","address":"上海近郊崇明县东门路268号(近一江山路)  "},{"poiid":"B2094654D468A7F84298","title":"南门港","lon":"121.39334","lat":"31.61755","category":"34","category_name":"港口码头","address":"城桥镇"},{"poiid":"B2094757D064A5FD4293","title":"绿色时代生态大酒店","lon":"121.40224786","lat":"31.620648793","category":"76","category_name":"上海菜","address":"近郊崇明学宫路38号(东门路口)"},{"poiid":"B2094654DB6AA6FF4493","title":"上海顺利大酒店","lon":"121.39971","lat":"31.62037","category":"215","category_name":"三星级宾馆","address":"近郊崇明县新崇南路38号(近锦绣宾馆)"},{"poiid":"B2094757D16DA7FE4492","title":"崇明县中心医院","lon":"121.400120739","lat":"31.618085368","category":"162","category_name":"医院","address":"近郊崇明县南门路25号(永乐家电旁)"},{"poiid":"B2094654DB65A6F54298","title":"肯德基(北门路店)","lon":"121.39693","lat":"31.62637","category":"68","category_name":"快餐厅","address":"近郊崇明城桥镇八一路(崇明电影院旁)"},{"poiid":"B2094757D065A1FC4598","title":"老板娘大酒店(崇明店)","lon":"121.39662785","lat":"31.61854281","category":"75","category_name":"浙江菜","address":"近郊崇明县城桥镇南门路166号(八一路崇明南门路)"},{"poiid":"B2094757D069AAFE479D","title":"鼓浪屿路","lon":"121.415303","lat":"31.624593","category":"148","category_name":"美容美发店","address":"上海市崇明县城桥镇鼓浪屿路"},{"poiid":"B2094654D468A7F8409A","title":"崇明影剧院","lon":"121.39693","lat":"31.62637","category":"178","category_name":"电影院","address":"近郊崇明县城桥镇八一路488号(近北门路)"},{"poiid":"B2094757D069A0FC439F","title":"崇明西门汽车站","lon":"121.39247107","lat":"31.619557028","category":"35","category_name":"长途汽车站","address":"上海申崇三线(西门汽车站~汶水路)，世博37路"},{"poiid":"B2094757D06BA5FE489A","title":"崇明南门汽车站","lon":"121.393346","lat":"31.61755","category":"35","category_name":"长途汽车站","address":"上海崇明南门"},{"poiid":"B2094654D468A7FF479C","title":"崇明县博物馆","lon":"121.40175","lat":"31.61871","category":"182","category_name":"博物馆","address":"近郊崇明县鳌山路696号(近南门码头)"},{"poiid":"B2094757D66CA4F94898","title":"鳌山瞑园","lon":"121.403909","lat":"31.616372","category":"500","category_name":"未知分类","address":"上海鳌山路"},{"poiid":"B2094654D468A7FF489F","title":"崇明学宫","lon":"121.40167","lat":"31.61871","category":"250","category_name":"公园户外","address":"鳌山路696号"},{"poiid":"B2094757D165A4F84299","title":"釜山料理","lon":"121.39616597","lat":"31.619519184","category":"96","category_name":"韩国料理","address":"近郊崇明南门八一路36号"},{"poiid":"B2094654D468A6FA4798","title":"上海市扬子中学","lon":"121.40152","lat":"31.62665","category":"55","category_name":"中学","address":"近郊崇明县城桥镇北门路58号(崇明北门路崇明西门路)"},{"poiid":"B2094654D468A5FC4892","title":"上海第二医科大学附属仁济医院崇明分院","lon":"121.40016","lat":"31.61665","category":"162","category_name":"医院","address":"东门路1"},{"poiid":"B2094757D164A3FF4299","title":"崇明体育馆","lon":"121.400255189","lat":"31.6266484615","category":"500","category_name":"未知分类","address":"上海崇明县北门路"},{"poiid":"B2094757D465A1FF459E","title":"锦绣宾馆餐厅","lon":"121.399527054","lat":"31.620261793","category":"76","category_name":"上海菜","address":"近郊崇明县城内新崇南路4号(近朝阳门)"},{"poiid":"B2094757D66EA5FC4792","title":"绝对好迪","lon":"121.401529773","lat":"31.6234996593","category":"170","category_name":"KTV","address":"上海近郊崇明县南门东门  "},{"poiid":"B2094757D168A1F8499C","title":"学宫路","lon":"121.40210786","lat":"31.620377794","category":"47","category_name":"住宅区","address":"上海东门路"},{"poiid":"B2094752D269A4FB439E","title":"星巴克八一广场店","lon":"121.3944146","lat":"31.6230179","category":"247","category_name":"餐饮美食","address":"八一路"},{"poiid":"B2094654D468A6FE4198","title":"上海交通大学医学院附属仁济医院崇明分院","lon":"121.39958","lat":"31.61833","category":"162","category_name":"医院","address":"城桥镇南门港街25号"},{"poiid":"B2094757D568ABF94493","title":"上岛咖啡(崇明店总工会店)","lon":"121.39902534","lat":"31.61941542","category":"260","category_name":"其他","address":"近郊崇明县城桥镇朝阳门路17号总工会大楼2楼(中心医院对面)"},{"poiid":"B2094655D26AA3F9429E","title":"莫泰168八一路店","lon":"121.39659","lat":"31.62372","category":"247","category_name":"餐饮美食","address":"上海近郊崇明城桥镇八一路338号  "},{"poiid":"B2094654D468A7FF4892","title":"寒山寺","lon":"121.40216","lat":"31.62354","category":"244","category_name":"寺庙道观","address":"东门路187号"},{"poiid":"B2094757D169A2FB409B","title":"陆港小镇","lon":"121.40377","lat":"31.62579","category":"76","category_name":"上海菜","address":"近郊崇明城桥镇东门路143号(崇明北门路一江山路)"},{"poiid":"B2094654D468A5FE4693","title":"城隍庙小吃世界 新崇南路店","lon":"121.396356054","lat":"31.620203793","category":"68","category_name":"快餐厅","address":"近郊崇明县新崇南路203号(富民街新崇南路)"},{"poiid":"B2094757D168ABFD479D","title":"崇明县总工会大楼","lon":"121.399225773","lat":"31.6197005883","category":"252","category_name":"楼宇机构","address":"上海南门路118号"},{"poiid":"B2094654D468A6FE489F","title":"夏记火锅","lon":"121.396505054","lat":"31.620264793","category":"86","category_name":"火锅店","address":"近郊崇明县新崇南路201号(近八一路)"},{"poiid":"B2094757D16DA1FF4993","title":"迪欧咖啡 崇明八一店 DIO CAFE","lon":"121.39661239429","lat":"31.624734805345","category":"260","category_name":"其他","address":"近郊崇明县城桥镇八一路308号(八一路新崇北路)"},{"poiid":"B2094654D468A6FE469B","title":"小八路面菜馆","lon":"121.39741","lat":"31.61993","category":"76","category_name":"上海菜","address":"近郊崇明新崇南路145号(近八一路)"},{"poiid":"B2094654D468A7F44192","title":"百爱口腔门诊部","lon":"121.39964","lat":"31.61884","category":"162","category_name":"医院","address":""},{"poiid":"B2094757DB6CA3FF4293","title":"上海紫京大酒店","lon":"121.409869194","lat":"31.621073084","category":"215","category_name":"三星级宾馆","address":"上海市崇明县寒山寺路88号,t"},{"poiid":"B2094654D468A7FA439C","title":"崇明信息大楼","lon":"121.39785","lat":"31.619","category":"46","category_name":"楼宇","address":"城桥镇"},{"poiid":"B2094757D168A3FC419C","title":"小绍兴(崇明店)","lon":"121.395078773","lat":"31.618940074","category":"68","category_name":"快餐厅","address":"近郊崇明县新崇南路178号(富民街新崇南路)"},{"poiid":"B2094654D468A6FE489D","title":"外经大楼","lon":"121.40017","lat":"31.62029","category":"46","category_name":"楼宇","address":"新崇南路28号"},{"poiid":"B2094654D468A5FC419F","title":"上海市崇明岛八一路步行街","lon":"121.39627","lat":"31.62607","category":"116","category_name":"特色商业街","address":""},{"poiid":"B2094757D06FA2F94393","title":"南门码头","lon":"121.39254598","lat":"31.6150031","category":"35","category_name":"长途汽车站","address":"近郊崇明县南门路93号(崇明南门路崇明西门路)"},{"poiid":"B2094757D064A4FC499E","title":"崇明岛","lon":"121.395029773","lat":"31.6211386151","category":"500","category_name":"未知分类","address":"上海市崇明县，长江入海口"},{"poiid":"B2094757D069A4F4499F","title":"新华医院(崇明分院)","lon":"121.39975485","lat":"31.617747801","category":"162","category_name":"医院","address":"近郊崇明县南门港街25号"},{"poiid":"B2094757D069A2F4449E","title":"天鹤大酒店","lon":"121.395997","lat":"31.619362","category":"215","category_name":"三星级宾馆","address":"近郊崇明县南门路178号(近西门路)"},{"poiid":"B2094752D265A6FF469F","title":"星巴克","lon":"121.399594","lat":"31.621763","category":"247","category_name":"餐饮美食","address":"近郊崇明县城桥镇八一路206号(近富民路)"},{"poiid":"B2094757D068A4F8449D","title":"肯德基 KFC (崇明店)","lon":"121.395886","lat":"31.619948","category":"68","category_name":"快餐厅","address":"近郊崇明城桥镇八一路118号(富民街新崇南路)"},{"poiid":"B2094654D468A7FF4993","title":"瀛洲公园","lon":"121.40169","lat":"31.61769","category":"196","category_name":"公园","address":"近郊崇明城桥镇鳌山路1号(崇明东门路崇明南门路)"},{"poiid":"B2094752D26EA5FF4892","title":"八一广场","lon":"121.395859","lat":"31.620726","category":"247","category_name":"餐饮美食","address":"八一路192"},{"poiid":"B2094757D068AAF5439E","title":"上海瀛通大酒店","lon":"121.39709519","lat":"31.626996549","category":"213","category_name":"五星级宾馆","address":"上海崇明县北门路190号"},{"poiid":"B2094654D468A7F4409F","title":"一只菜","lon":"121.400824054","lat":"31.619583793","category":"76","category_name":"上海菜","address":"上海近郊崇明区城桥东门路119号(近新崇南路)  "},{"poiid":"B2094757D06AA3F94493","title":"锦绣宾馆","lon":"121.399420773","lat":"31.6221266336","category":"217","category_name":"旅馆招待所","address":"上海市崇明县新崇南路"},{"poiid":"B2094757D568ABF9479F","title":"南门景观大堤","lon":"121.40000515","lat":"31.61587755","category":"250","category_name":"公园户外","address":"中国上海市崇明县东门路"},{"poiid":"B2094757D064AAFB479B","title":"麦盛莉酒楼(崇明店)","lon":"121.40300887","lat":"31.624452777","category":"76","category_name":"上海菜","address":"上海近郊崇明县东门路268号(近一江山路)  "},{"poiid":"B2094654D468A7F84298","title":"南门港","lon":"121.39334","lat":"31.61755","category":"34","category_name":"港口码头","address":"城桥镇"},{"poiid":"B2094757D064A5FD4293","title":"绿色时代生态大酒店","lon":"121.40224786","lat":"31.620648793","category":"76","category_name":"上海菜","address":"近郊崇明学宫路38号(东门路口)"},{"poiid":"B2094654DB6AA6FF4493","title":"上海顺利大酒店","lon":"121.39971","lat":"31.62037","category":"215","category_name":"三星级宾馆","address":"近郊崇明县新崇南路38号(近锦绣宾馆)"},{"poiid":"B2094757D16DA7FE4492","title":"崇明县中心医院","lon":"121.400120739","lat":"31.618085368","category":"162","category_name":"医院","address":"近郊崇明县南门路25号(永乐家电旁)"},{"poiid":"B2094654DB65A6F54298","title":"肯德基(北门路店)","lon":"121.39693","lat":"31.62637","category":"68","category_name":"快餐厅","address":"近郊崇明城桥镇八一路(崇明电影院旁)"},{"poiid":"B2094757D065A1FC4598","title":"老板娘大酒店(崇明店)","lon":"121.39662785","lat":"31.61854281","category":"75","category_name":"浙江菜","address":"近郊崇明县城桥镇南门路166号(八一路崇明南门路)"},{"poiid":"B2094757D069AAFE479D","title":"鼓浪屿路","lon":"121.415303","lat":"31.624593","category":"148","category_name":"美容美发店","address":"上海市崇明县城桥镇鼓浪屿路"},{"poiid":"B2094654D468A7F8409A","title":"崇明影剧院","lon":"121.39693","lat":"31.62637","category":"178","category_name":"电影院","address":"近郊崇明县城桥镇八一路488号(近北门路)"},{"poiid":"B2094757D069A0FC439F","title":"崇明西门汽车站","lon":"121.39247107","lat":"31.619557028","category":"35","category_name":"长途汽车站","address":"上海申崇三线(西门汽车站~汶水路)，世博37路"},{"poiid":"B2094757D06BA5FE489A","title":"崇明南门汽车站","lon":"121.393346","lat":"31.61755","category":"35","category_name":"长途汽车站","address":"上海崇明南门"},{"poiid":"B2094654D468A7FF479C","title":"崇明县博物馆","lon":"121.40175","lat":"31.61871","category":"182","category_name":"博物馆","address":"近郊崇明县鳌山路696号(近南门码头)"},{"poiid":"B2094757D66CA4F94898","title":"鳌山瞑园","lon":"121.403909","lat":"31.616372","category":"500","category_name":"未知分类","address":"上海鳌山路"},{"poiid":"B2094654D468A7FF489F","title":"崇明学宫","lon":"121.40167","lat":"31.61871","category":"250","category_name":"公园户外","address":"鳌山路696号"},{"poiid":"B2094757D165A4F84299","title":"釜山料理","lon":"121.39616597","lat":"31.619519184","category":"96","category_name":"韩国料理","address":"近郊崇明南门八一路36号"},{"poiid":"B2094654D468A6FA4798","title":"上海市扬子中学","lon":"121.40152","lat":"31.62665","category":"55","category_name":"中学","address":"近郊崇明县城桥镇北门路58号(崇明北门路崇明西门路)"},{"poiid":"B2094654D468A5FC4892","title":"上海第二医科大学附属仁济医院崇明分院","lon":"121.40016","lat":"31.61665","category":"162","category_name":"医院","address":"东门路1"},{"poiid":"B2094757D164A3FF4299","title":"崇明体育馆","lon":"121.400255189","lat":"31.6266484615","category":"500","category_name":"未知分类","address":"上海崇明县北门路"},{"poiid":"B2094757D465A1FF459E","title":"锦绣宾馆餐厅","lon":"121.399527054","lat":"31.620261793","category":"76","category_name":"上海菜","address":"近郊崇明县城内新崇南路4号(近朝阳门)"},{"poiid":"B2094757D66EA5FC4792","title":"绝对好迪","lon":"121.401529773","lat":"31.6234996593","category":"170","category_name":"KTV","address":"上海近郊崇明县南门东门  "},{"poiid":"B2094757D168A1F8499C","title":"学宫路","lon":"121.40210786","lat":"31.620377794","category":"47","category_name":"住宅区","address":"上海东门路"},{"poiid":"B2094752D269A4FB439E","title":"星巴克八一广场店","lon":"121.3944146","lat":"31.6230179","category":"247","category_name":"餐饮美食","address":"八一路"},{"poiid":"B2094654D468A6FE4198","title":"上海交通大学医学院附属仁济医院崇明分院","lon":"121.39958","lat":"31.61833","category":"162","category_name":"医院","address":"城桥镇南门港街25号"},{"poiid":"B2094757D568ABF94493","title":"上岛咖啡(崇明店总工会店)","lon":"121.39902534","lat":"31.61941542","category":"260","category_name":"其他","address":"近郊崇明县城桥镇朝阳门路17号总工会大楼2楼(中心医院对面)"},{"poiid":"B2094655D26AA3F9429E","title":"莫泰168八一路店","lon":"121.39659","lat":"31.62372","category":"247","category_name":"餐饮美食","address":"上海近郊崇明城桥镇八一路338号  "},{"poiid":"B2094654D468A7FF4892","title":"寒山寺","lon":"121.40216","lat":"31.62354","category":"244","category_name":"寺庙道观","address":"东门路187号"},{"poiid":"B2094757D169A2FB409B","title":"陆港小镇","lon":"121.40377","lat":"31.62579","category":"76","category_name":"上海菜","address":"近郊崇明城桥镇东门路143号(崇明北门路一江山路)"},{"poiid":"B2094654D468A5FE4693","title":"城隍庙小吃世界 新崇南路店","lon":"121.396356054","lat":"31.620203793","category":"68","category_name":"快餐厅","address":"近郊崇明县新崇南路203号(富民街新崇南路)"},{"poiid":"B2094757D168ABFD479D","title":"崇明县总工会大楼","lon":"121.399225773","lat":"31.6197005883","category":"252","category_name":"楼宇机构","address":"上海南门路118号"},{"poiid":"B2094654D468A6FE489F","title":"夏记火锅","lon":"121.396505054","lat":"31.620264793","category":"86","category_name":"火锅店","address":"近郊崇明县新崇南路201号(近八一路)"},{"poiid":"B2094757D16DA1FF4993","title":"迪欧咖啡 崇明八一店 DIO CAFE","lon":"121.39661239429","lat":"31.624734805345","category":"260","category_name":"其他","address":"近郊崇明县城桥镇八一路308号(八一路新崇北路)"},{"poiid":"B2094654D468A6FE469B","title":"小八路面菜馆","lon":"121.39741","lat":"31.61993","category":"76","category_name":"上海菜","address":"近郊崇明新崇南路145号(近八一路)"},{"poiid":"B2094654D468A7F44192","title":"百爱口腔门诊部","lon":"121.39964","lat":"31.61884","category":"162","category_name":"医院","address":""},{"poiid":"B2094757DB6CA3FF4293","title":"上海紫京大酒店","lon":"121.409869194","lat":"31.621073084","category":"215","category_name":"三星级宾馆","address":"上海市崇明县寒山寺路88号,t"},{"poiid":"B2094654D468A7FA439C","title":"崇明信息大楼","lon":"121.39785","lat":"31.619","category":"46","category_name":"楼宇","address":"城桥镇"},{"poiid":"B2094757D168A3FC419C","title":"小绍兴(崇明店)","lon":"121.395078773","lat":"31.618940074","category":"68","category_name":"快餐厅","address":"近郊崇明县新崇南路178号(富民街新崇南路)"},{"poiid":"B2094654D468A6FE489D","title":"外经大楼","lon":"121.40017","lat":"31.62029","category":"46","category_name":"楼宇","address":"新崇南路28号"}]