[{"poiid":"B2094757D06FA0F8439B","title":"前卫村农家乐","lon":"121.51021","lat":"31.71782","category":"260","category_name":"其他","address":"近郊崇明县林风公路前卫村"},{"poiid":"B2094654D468A7FF4692","title":"前卫生态村","lon":"121.50971","lat":"31.71724","category":"250","category_name":"公园户外","address":"前卫村"},{"poiid":"B2094757D16CA7FE4198","title":"崇明瀛鼎生态农庄","lon":"121.511552","lat":"31.71877","category":"247","category_name":"餐饮美食","address":"近郊崇明竖新镇前卫村882号"},{"poiid":"B2094757D165A2FE4999","title":"骁泖轩农庄","lon":"121.502663753","lat":"31.7151215709","category":"247","category_name":"餐饮美食","address":"近郊崇明县东风农场北首(近前卫生态村)"},{"poiid":"B2094654D468A7FF4693","title":"前卫生态农业旅游区","lon":"121.50942","lat":"31.71773","category":"250","category_name":"公园户外","address":""},{"poiid":"B2094757D468A4FB469B","title":"香林丽舍有机农庄","lon":"121.511552","lat":"31.71877","category":"76","category_name":"上海菜","address":"近郊崇明区前卫村878号(前卫生态景区门口)"},{"poiid":"B2094655D26BA6FC449F","title":"前卫新天地","lon":"121.50971","lat":"31.71725","category":"76","category_name":"上海菜","address":"近郊崇明县前卫生态村502号"},{"poiid":"B2094757DB6DA5F8409F","title":"上海崇明龙裔度假村","lon":"121.5101704","lat":"31.719027567","category":"215","category_name":"三星级宾馆","address":"近郊崇明县前卫生态村1号"},{"poiid":"B2094655D265AAF5419D","title":"佳佳农家乐","lon":"121.50971","lat":"31.71725","category":"247","category_name":"餐饮美食","address":"近郊崇明前卫生态村521号(崇明大新镇上)"},{"poiid":"B2094757D068ABF9479C","title":"崇明青少年社会实践基地","lon":"121.511421","lat":"31.71999","category":"249","category_name":"购物服务","address":"上海崇明县南部竖新镇前卫村"},{"poiid":"B2094757D165ABFD4798","title":"瀛春农家乐","lon":"121.51000015","lat":"31.717838726","category":"247","category_name":"餐饮美食","address":"近郊崇明前卫村"},{"poiid":"B2094757D468A4FB459D","title":"崇明老宋农家乐","lon":"121.509719","lat":"31.717244","category":"87","category_name":"特色／地方风味餐厅","address":"林风公路前卫村520号近森林公园近北沿公路"},{"poiid":"B2094655D264A6F54598","title":"老宋农家屋","lon":"121.50971","lat":"31.71725","category":"257","category_name":"中餐厅","address":"前卫生态村537号"},{"poiid":"B2094655D26BAAF4469B","title":"前卫一号桥","lon":"121.51092","lat":"31.72786","category":"250","category_name":"公园户外","address":""},{"poiid":"B2094757D165ABFE429C","title":"蛮灵格农家乐","lon":"121.50271465","lat":"31.715293174","category":"500","category_name":"未知分类","address":"近郊崇明前卫生态村568号"},{"poiid":"B2094655D264A3FC4899","title":"良种场桥","lon":"121.49747","lat":"31.71808","category":"250","category_name":"公园户外","address":""},{"poiid":"B2094655D36DA1F4469F","title":"县良种场","lon":"121.49562","lat":"31.70966","category":"38","category_name":"公交车站","address":""}]