[{"poiid":"B2094757D06FA5F84498","title":"上海电机学院","lon":"121.4006195","lat":"31.000602722","category":"671","category_name":"高校中心点","address":"闵行区江川路690号(近华宁路)"},{"poiid":"B2094655D26FA3FD4099","title":"上海电机学院西区(文井路)","lon":"121.38424","lat":"30.99687","category":"52","category_name":"高等院校","address":"江川路690号"},{"poiid":"B2094757D069A2FB499C","title":"上海三菱电梯有限公司","lon":"121.39488475","lat":"30.999481334","category":"263","category_name":"公司","address":"上海江川路811号"},{"poiid":"B2094654DB6FA2FE409E","title":"上海电气集团上海电机厂有限公司3号门","lon":"121.4043","lat":"30.99938","category":"263","category_name":"公司","address":"上海市闵行区江川路555号"},{"poiid":"B2094757D16CA1FA479D","title":"上海商学院图文信息楼","lon":"121.403294728","lat":"30.9800367754","category":"253","category_name":"校园生活","address":"上海近郊奉浦大道123号(近奉浦大厦)"},{"poiid":"B2094757D16EA3F9479B","title":"上海电力股份有限公司","lon":"121.38883562","lat":"30.988347679","category":"263","category_name":"公司","address":"上海丽江路2号"},{"poiid":"B2094757D069A1FB489C","title":"上海电机学院西区第四教学楼","lon":"121.386949","lat":"30.990837","category":"52","category_name":"高等院校","address":"上海市闵行区文井路88号"},{"poiid":"B2094654DB6FAAFA4693","title":"圣戈班韩格拉斯世固锐特玻璃(上海)有限公司","lon":"121.38667","lat":"30.99093","category":"263","category_name":"公司","address":"文井路18号"},{"poiid":"B2094654DB6FA3FA4398","title":"上海电机学院第三教学楼","lon":"121.39937","lat":"31.0024","category":"46","category_name":"楼宇","address":""},{"poiid":"B2094654DB64A0FF489E","title":"花园酒家","lon":"121.40678","lat":"31.00114","category":"76","category_name":"上海菜","address":"闵行区江川路595号"},{"poiid":"B2094757D16DA3F8449C","title":"闵行发电厂","lon":"121.3831216","lat":"30.9915388","category":"500","category_name":"未知分类","address":"上海市闵行区丽江路2号"},{"poiid":"B2094654DB6FAAFA4892","title":"上海闵行友好板箱厂","lon":"121.39421","lat":"30.99641","category":"263","category_name":"公司","address":"江川路823号"},{"poiid":"B2094654DB6FAAFA489B","title":"三菱电机上海机电电梯有限公司","lon":"121.38859","lat":"30.99516","category":"263","category_name":"公司","address":"元阳路128"},{"poiid":"B2094655D36CA0F94492","title":"江川路华宁路","lon":"121.39823","lat":"31.00037","category":"38","category_name":"公交车站","address":""},{"poiid":"B2094654DB6FAAFA469F","title":"上海菱迅电梯配件有限公司","lon":"121.38552","lat":"30.99271","category":"263","category_name":"公司","address":"文井路23号"},{"poiid":"B2094757D569A1FF459B","title":"贝银大酒店","lon":"121.38304335","lat":"30.9975453","category":"76","category_name":"上海菜","address":"闵行区江川路1370号(近文井路)"},{"poiid":"B2094654DB6FAAF84998","title":"上海三菱电梯工程技术有限公司","lon":"121.38845","lat":"30.99543","category":"263","category_name":"公司","address":""},{"poiid":"B2094757D069A3FD4193","title":"上海电机学院西区14宿","lon":"121.38824441","lat":"30.999710732","category":"253","category_name":"校园生活","address":"上海电机学院西区14宿"},{"poiid":"B2094757D168A6F54792","title":"圣戈班研发（上海）有限公司","lon":"121.38446807","lat":"30.995197296","category":"263","category_name":"公司","address":"上海文井路55号"},{"poiid":"B2094654DB6FA2FE4093","title":"上海电气李斌技师学院分院","lon":"121.40062","lat":"31.00081","category":"52","category_name":"高等院校","address":"闵行区江川路690号"},{"poiid":"B2094757D068A1FA4992","title":"上海电机学院西区TD9","lon":"121.384254","lat":"30.996874","category":"500","category_name":"未知分类","address":"上海文井路88号"},{"poiid":"B2094757D569A2F54699","title":"上海电机学院闵行东校区食堂","lon":"121.39568","lat":"31.00261","category":"247","category_name":"餐饮美食","address":"闵行区江川路690号(近华宁路)"},{"poiid":"B2094757D569A2FF499A","title":"电机学院闵行东校区","lon":"121.3836257","lat":"30.99713218","category":"52","category_name":"高等院校","address":"江川路690号"},{"poiid":"B2094654DB6FA3FA439B","title":"上海电机学院报告厅","lon":"121.39925","lat":"31.00276","category":"52","category_name":"高等院校","address":""},{"poiid":"B2094655D36CA0F94499","title":"江川路文井路","lon":"121.3833","lat":"30.99736","category":"38","category_name":"公交车站","address":""},{"poiid":"B2094654DB6FA2F54898","title":"紫藤商厦","lon":"121.38336","lat":"30.99805","category":"46","category_name":"楼宇","address":"文井路105"},{"poiid":"B2094654DB6FAAFA469E","title":"上海胜家缝纫机有限公司","lon":"121.38601","lat":"30.99514","category":"263","category_name":"公司","address":"大姚路1078号"},{"poiid":"B2094654DB6FAAFA499D","title":"快客NO.6827","lon":"121.38298","lat":"30.99753","category":"117","category_name":"便民商店/便利店","address":"碧江路"},{"poiid":"B2094757D065A4FC499E","title":"上海电机学院 一教","lon":"121.400621","lat":"31.000603","category":"253","category_name":"校园生活","address":"上海江川路690号"},{"poiid":"B2094757D168A4FD429C","title":"瑞扬美容美发","lon":"121.39815352","lat":"31.001347913","category":"148","category_name":"美容美发店","address":"闵行区碧江路319号"},{"poiid":"B2094654DB6EAAFD409E","title":"上海机电技术专科学校","lon":"121.40053","lat":"31.00158","category":"52","category_name":"高等院校","address":"碧江路"},{"poiid":"B2094654DB6FA2FD4992","title":"兰州正宗牛肉拉面(上海上电电机维修有限公司北)","lon":"121.4042","lat":"31.00077","category":"90","category_name":"清真餐馆","address":""},{"poiid":"B2094757D064ABFC439F","title":"上海电机学院九宿","lon":"121.39991312","lat":"31.003962266","category":"500","category_name":"未知分类","address":"上海江川路690号"},{"poiid":"B2094757D66FA3FC489B","title":"上海电机学院总校篮球场","lon":"121.40089","lat":"31.00033","category":"220","category_name":"运动场所","address":"闵行区江川路690号上海电机学院总校内(近5号线江川路站)"},{"poiid":"B2094757D16FA2F44693","title":"电机学院技术中心","lon":"121.40017699","lat":"31.002938235","category":"500","category_name":"未知分类","address":"上海电机学院技术中心"},{"poiid":"B2094654DB6FA2FE419E","title":"上海碧江家具装饰有限公司","lon":"121.39674","lat":"31.00032","category":"263","category_name":"公司","address":"江川路820号(乙)"},{"poiid":"B2094654DB6FAAFC4899","title":"中国电力投资集团公司","lon":"121.37825","lat":"30.98855","category":"263","category_name":"公司","address":""},{"poiid":"B2094654DB6FA2FE4099","title":"上海上电电机维修有限公司","lon":"121.40431","lat":"30.99938","category":"263","category_name":"公司","address":""},{"poiid":"B2094757DB6DA2FE449D","title":"友好佳苑","lon":"121.40153","lat":"31.001884","category":"627","category_name":"一般地点标志","address":"江川路680弄"},{"poiid":"B2094654DB6FA2FE4698","title":"天瑞网吧No.0571","lon":"121.40316","lat":"31.00075","category":"176","category_name":"网吧","address":""},{"poiid":"B2094654DB6FAAFA4593","title":"中国银行上海市闵行开发区支行","lon":"121.38393","lat":"30.99777","category":"150","category_name":"银行","address":"闵行区文井路106号(江川路文井路)"},{"poiid":"B2094654DB6FA2F5489C","title":"上海神明电机有限公司(南沙路)","lon":"121.38584","lat":"30.99895","category":"263","category_name":"公司","address":"南沙路1号"},{"poiid":"B2094654DB6FA2F5499E","title":"新华控制工程有限公司","lon":"121.38359","lat":"30.99868","category":"263","category_name":"公司","address":"文井路160"},{"poiid":"B2094750D26CA2F54292","title":"上海电气电站设备有限公司发电机厂GVPI车间","lon":"121.39918","lat":"31.003669","category":"263","category_name":"公司","address":"江川路555号"},{"poiid":"B2094757D168AAFD499B","title":"电子信息职业技术学院H2","lon":"121.40956332","lat":"30.999375472","category":"500","category_name":"未知分类","address":"上海奉贤区洪庙瓦洪公路3098号H2"},{"poiid":"B2094757D16DABFF4493","title":"中国工商银行江川支行","lon":"121.3839569","lat":"30.998348236","category":"260","category_name":"其他","address":"闵行区文井路125号近江川路(南沙路文井路)"}]