[{"poiid":"B2094655D26AA0F94299","title":"地铁江湾镇站","lon":"121.48507","lat":"31.3052","category":"36","category_name":"地铁站","address":"上海轨道交通 三号线 轨交江湾镇站 轻轨 3"},{"poiid":"B2094757D06FA3FB439D","title":"麦当劳(江湾镇店)","lon":"121.48502779","lat":"31.305216005","category":"68","category_name":"快餐厅","address":"虹口区地铁3号线江湾镇站1楼(仁德路新市北路)"},{"poiid":"B2094757D06FA2FF469B","title":"乐购(三门店)","lon":"121.4911","lat":"31.31117","category":"118","category_name":"超级市场","address":"宝山区三门路501号(近吉浦路)"},{"poiid":"B2094757D069A0F44299","title":"上海财经大学 会计学院","lon":"121.49037188","lat":"31.306741198","category":"253","category_name":"校园生活","address":"上海武川路111弄"},{"poiid":"B2094757DA65A2FC439C","title":"上海财经大学皇家图书馆","lon":"121.491082","lat":"31.307629","category":"253","category_name":"校园生活","address":"杨浦区武川路111号"},{"poiid":"B2094757D16EA1F94699","title":"上海市虹口区场中路逸仙路口","lon":"121.485471103","lat":"31.306616179","category":"500","category_name":"未知分类","address":"上海市虹口区场中路逸仙路口"},{"poiid":"B2094757D164A5FA449B","title":"宁国府","lon":"121.48960089","lat":"31.304209778","category":"76","category_name":"上海菜","address":"杨浦区吉浦路309号(近武东路)"},{"poiid":"B2094757D06BAAFE469A","title":"文化名园","lon":"121.49146","lat":"31.307182","category":"47","category_name":"住宅区","address":"上海市杨浦区吉浦路375号"},{"poiid":"B2094757D068ABF54398","title":"德克士(三门路店)","lon":"121.490526936","lat":"31.3117085287","category":"68","category_name":"快餐厅","address":"宝山区三门路501号乐购1楼(近吉浦路)"},{"poiid":"B2094757D064A7FA419F","title":"燕嘉缘鲍鱼馆","lon":"121.484901428","lat":"31.3083438873","category":"72","category_name":"广东菜","address":"虹口区场中路7号(场中路逸仙路)"},{"poiid":"B2094757D06AA2FF469C","title":"肯德基　江湾镇","lon":"121.484652","lat":"31.304772","category":"68","category_name":"快餐厅","address":"虹口区逸仙路580号吉买盛1楼(近仁德路)"},{"poiid":"B2094757D06AA7FD479E","title":"三门路吉浦路","lon":"121.4906571","lat":"31.308799224","category":"500","category_name":"未知分类","address":"上海三门路510弄"},{"poiid":"B2094757D664A7FA419F","title":"DQ冰雪皇后 江湾店 Dairy Queen","lon":"121.48463","lat":"31.30467","category":"113","category_name":"冷饮店","address":"虹口区逸仙路580号华联吉买盛1楼(近3号线江湾镇站)"},{"poiid":"B2094757D66DA0FD439F","title":"家","lon":"121.486833103","lat":"31.3115472822","category":"500","category_name":"未知分类","address":null},{"poiid":"B2094655D36DA7FF4499","title":"政立路逸仙路","lon":"121.48794","lat":"31.3081","category":"38","category_name":"公交车站","address":""},{"poiid":"B2094757DA65A2F8489C","title":"长海医院","lon":"121.4855970363322","lat":"31.30845593838493","category":"162","category_name":"医院","address":"上海杨浦区长海路168好"},{"poiid":"B2094757D06AA1F84693","title":"新亚大包 三门店","lon":"121.49095981658","lat":"31.311868191055","category":"68","category_name":"快餐厅","address":"宝山区三门路519号(近吉浦路)"},{"poiid":"B2094750D565A0FD4998","title":"NANA造型","lon":"121.488815","lat":"31.308073","category":"249","category_name":"购物服务","address":"杨浦区政立路1575号"},{"poiid":"B2094654D56CABF9429C","title":"吉浦小区","lon":"121.49139","lat":"31.308838","category":"47","category_name":"住宅区","address":"吉浦路395弄"},{"poiid":"B2094654D465AAF5429F","title":"乾阳佳园","lon":"121.48849","lat":"31.310379","category":"47","category_name":"住宅区","address":"上海市杨浦区三门路588弄"},{"poiid":"B2094654D56CA4F94792","title":"逸仙小区(场中路)","lon":"121.4842","lat":"31.30709","category":"47","category_name":"住宅区","address":"逸仙路1321弄1支弄1-60号"},{"poiid":"B2094654D465AAF44792","title":"哈哈宠物乐园","lon":"121.48781","lat":"31.3083","category":"129","category_name":"宠物用品店","address":"杨浦区政立路1607号"},{"poiid":"B2094757D068A2FC449D","title":"SWEETY DIY 烘焙坊","lon":"121.48516","lat":"31.30882","category":"67","category_name":"甜品店","address":"虹口区逸仙路836号(近场中路)"},{"poiid":"B2094654D465AAF44998","title":"华氏大药房政立店","lon":"121.48944","lat":"31.30829","category":"162","category_name":"医院","address":"政立路1547"},{"poiid":"B2094654DB6AAAFB449D","title":"景瑞花园","lon":"121.485","lat":"31.3067","category":"47","category_name":"住宅区","address":"万安路669弄1-32号"},{"poiid":"B2094757D16FA1FA4999","title":"502路","lon":"121.4880422","lat":"31.308956828","category":"500","category_name":"未知分类","address":"上海等待无比久的公交车"},{"poiid":"B2094757D16EA5F5489F","title":"吉浦路","lon":"121.486022943","lat":"31.3081117003","category":"500","category_name":"未知分类","address":"上海三门路吉浦路"},{"poiid":"B2094654D465AAF44898","title":"21世纪不动产政立路加盟店","lon":"121.48818","lat":"31.30831","category":"248","category_name":"生活娱乐","address":"政立路1591"},{"poiid":"B2094655D36DA7FF4392","title":"政立路","lon":"121.49018","lat":"31.30922","category":"38","category_name":"公交车站","address":""},{"poiid":"B2094655D26CA0FC409E","title":"仁德路67弄10支弄小区","lon":"121.48786","lat":"31.30645","category":"47","category_name":"住宅区","address":"仁德路67弄10支弄"},{"poiid":"B2094757D16BA3FF439A","title":"100路政立路逸仙路站","lon":"121.488843","lat":"31.308161","category":"500","category_name":"未知分类","address":"上海政立路逸仙路"},{"poiid":"B2094654D56CAAFD4793","title":"小绍兴大酒店(吉浦路)","lon":"121.48985","lat":"31.30483","category":"257","category_name":"中餐厅","address":"杨浦区武东路350号(吉浦路口)"},{"poiid":"B2094654D465AAF44893","title":"东巨宠物诊所","lon":"121.48899","lat":"31.3083","category":"668","category_name":"诊所","address":"杨浦区政立路1559号(近吉浦路)"},{"poiid":"B2094655D36CA0FB459C","title":"吉浦路政立路","lon":"121.49015","lat":"31.30969","category":"38","category_name":"公交车站","address":""},{"poiid":"B2094654D56CABFC4892","title":"虹教小区","lon":"121.486","lat":"31.3075","category":"47","category_name":"住宅区","address":"公安街11弄1-3号"},{"poiid":"B2094751D36EA0FA4692","title":"买卖提红玫瑰烤涮龙虾馆(吉浦路店)","lon":"121.49003","lat":"31.31149","category":"68","category_name":"快餐厅","address":"杨浦区吉浦路494号(近三门路)"},{"poiid":"B2094757D16BA4FC409E","title":"60路逸仙路终点站","lon":"121.485515003","lat":"31.3066919806","category":"38","category_name":"公交车站","address":"上海逸仙路场中路口"},{"poiid":"B2094655D26DA5FB4899","title":"五角场社区卫生服务中心","lon":"121.48805","lat":"31.30642","category":"162","category_name":"医院","address":""},{"poiid":"B2094655D36DA0FA4692","title":"逸仙路场中路","lon":"121.48548","lat":"31.30711","category":"38","category_name":"公交车站","address":""},{"poiid":"B2094655D26CA1F5449A","title":"三门路510弄小区","lon":"121.49076","lat":"31.31072","category":"47","category_name":"住宅区","address":"三门路743弄"},{"poiid":"B2094654D465AAF44999","title":"舒而雅足浴政立路店","lon":"121.48955","lat":"31.3083","category":"149","category_name":"洗浴推拿场所","address":"杨浦区政立路1539号(吉浦路政立路)"},{"poiid":"B2094654D465AAF54792","title":"时鲜水果行(逸仙路)","lon":"121.48581","lat":"31.3094","category":"117","category_name":"便民商店/便利店","address":"逸仙路1049-1"},{"poiid":"B2094757D164A5FA499E","title":"豪大大鸡排(三星路店)","lon":"121.490438103","lat":"31.3077772033","category":"247","category_name":"餐饮美食","address":"上海市杨浦区三星路4号"},{"poiid":"B2094654DB6AAAF44298","title":"仁德苑","lon":"121.48949","lat":"31.305323","category":"47","category_name":"住宅区","address":"仁德路101弄"},{"poiid":"B2094654D56CA4FA4493","title":"莉莲蛋挞 江湾店 Lillian Cake Shop","lon":"121.484144054","lat":"31.305755793","category":"67","category_name":"甜品店","address":"虹口区轨道交通3号线江湾镇站1楼"},{"poiid":"B2094655D26DA4F4409A","title":"仁德路67弄10支弄小区(南门)","lon":"121.48833","lat":"31.30594","category":"47","category_name":"住宅区","address":"仁德路67弄10支弄"},{"poiid":"B2094752D465A3FF4399","title":"顾村公园","lon":"121.486406","lat":"31.310972","category":"250","category_name":"公园户外","address":"上海宝山"},{"poiid":"B2094757D168A4FF439E","title":"场中路4弄","lon":"121.484806645","lat":"31.3080416951","category":"47","category_name":"住宅区","address":"上海市宝山区逸仙路"},{"poiid":"B2094654D465AAFF499C","title":"虹口开业园区","lon":"121.48431","lat":"31.30834","category":"46","category_name":"楼宇","address":"场中路7"},{"poiid":"B2094654DB69A5F8439B","title":"文峰美容美发(吉普路店)","lon":"121.49007","lat":"31.30536","category":"148","category_name":"美容美发店","address":"杨浦区吉普路280号(近仁德路)"},{"poiid":"B2094655D26AA0F94299","title":"地铁江湾镇站","lon":"121.48507","lat":"31.3052","category":"36","category_name":"地铁站","address":"上海轨道交通 三号线 轨交江湾镇站 轻轨 3"},{"poiid":"B2094757D06FA3FB439D","title":"麦当劳(江湾镇店)","lon":"121.48502779","lat":"31.305216005","category":"68","category_name":"快餐厅","address":"虹口区地铁3号线江湾镇站1楼(仁德路新市北路)"},{"poiid":"B2094757D06FA2FF469B","title":"乐购(三门店)","lon":"121.4911","lat":"31.31117","category":"118","category_name":"超级市场","address":"宝山区三门路501号(近吉浦路)"},{"poiid":"B2094757D069A0F44299","title":"上海财经大学 会计学院","lon":"121.49037188","lat":"31.306741198","category":"253","category_name":"校园生活","address":"上海武川路111弄"},{"poiid":"B2094757DA65A2FC439C","title":"上海财经大学皇家图书馆","lon":"121.491082","lat":"31.307629","category":"253","category_name":"校园生活","address":"杨浦区武川路111号"},{"poiid":"B2094757D16EA1F94699","title":"上海市虹口区场中路逸仙路口","lon":"121.485471103","lat":"31.306616179","category":"500","category_name":"未知分类","address":"上海市虹口区场中路逸仙路口"},{"poiid":"B2094757D164A5FA449B","title":"宁国府","lon":"121.48960089","lat":"31.304209778","category":"76","category_name":"上海菜","address":"杨浦区吉浦路309号(近武东路)"},{"poiid":"B2094757D06BAAFE469A","title":"文化名园","lon":"121.49146","lat":"31.307182","category":"47","category_name":"住宅区","address":"上海市杨浦区吉浦路375号"},{"poiid":"B2094757D068ABF54398","title":"德克士(三门路店)","lon":"121.490526936","lat":"31.3117085287","category":"68","category_name":"快餐厅","address":"宝山区三门路501号乐购1楼(近吉浦路)"},{"poiid":"B2094757D064A7FA419F","title":"燕嘉缘鲍鱼馆","lon":"121.484901428","lat":"31.3083438873","category":"72","category_name":"广东菜","address":"虹口区场中路7号(场中路逸仙路)"},{"poiid":"B2094757D06AA2FF469C","title":"肯德基　江湾镇","lon":"121.484652","lat":"31.304772","category":"68","category_name":"快餐厅","address":"虹口区逸仙路580号吉买盛1楼(近仁德路)"},{"poiid":"B2094757D06AA7FD479E","title":"三门路吉浦路","lon":"121.4906571","lat":"31.308799224","category":"500","category_name":"未知分类","address":"上海三门路510弄"},{"poiid":"B2094757D664A7FA419F","title":"DQ冰雪皇后 江湾店 Dairy Queen","lon":"121.48463","lat":"31.30467","category":"113","category_name":"冷饮店","address":"虹口区逸仙路580号华联吉买盛1楼(近3号线江湾镇站)"},{"poiid":"B2094757D66DA0FD439F","title":"家","lon":"121.486833103","lat":"31.3115472822","category":"500","category_name":"未知分类","address":null},{"poiid":"B2094655D36DA7FF4499","title":"政立路逸仙路","lon":"121.48794","lat":"31.3081","category":"38","category_name":"公交车站","address":""},{"poiid":"B2094757DA65A2F8489C","title":"长海医院","lon":"121.4855970363322","lat":"31.30845593838493","category":"162","category_name":"医院","address":"上海杨浦区长海路168好"},{"poiid":"B2094757D06AA1F84693","title":"新亚大包 三门店","lon":"121.49095981658","lat":"31.311868191055","category":"68","category_name":"快餐厅","address":"宝山区三门路519号(近吉浦路)"},{"poiid":"B2094750D565A0FD4998","title":"NANA造型","lon":"121.488815","lat":"31.308073","category":"249","category_name":"购物服务","address":"杨浦区政立路1575号"},{"poiid":"B2094654D56CABF9429C","title":"吉浦小区","lon":"121.49139","lat":"31.308838","category":"47","category_name":"住宅区","address":"吉浦路395弄"},{"poiid":"B2094654D465AAF5429F","title":"乾阳佳园","lon":"121.48849","lat":"31.310379","category":"47","category_name":"住宅区","address":"上海市杨浦区三门路588弄"},{"poiid":"B2094654D56CA4F94792","title":"逸仙小区(场中路)","lon":"121.4842","lat":"31.30709","category":"47","category_name":"住宅区","address":"逸仙路1321弄1支弄1-60号"},{"poiid":"B2094654D465AAF44792","title":"哈哈宠物乐园","lon":"121.48781","lat":"31.3083","category":"129","category_name":"宠物用品店","address":"杨浦区政立路1607号"},{"poiid":"B2094757D068A2FC449D","title":"SWEETY DIY 烘焙坊","lon":"121.48516","lat":"31.30882","category":"67","category_name":"甜品店","address":"虹口区逸仙路836号(近场中路)"},{"poiid":"B2094654D465AAF44998","title":"华氏大药房政立店","lon":"121.48944","lat":"31.30829","category":"162","category_name":"医院","address":"政立路1547"},{"poiid":"B2094654DB6AAAFB449D","title":"景瑞花园","lon":"121.485","lat":"31.3067","category":"47","category_name":"住宅区","address":"万安路669弄1-32号"},{"poiid":"B2094757D16FA1FA4999","title":"502路","lon":"121.4880422","lat":"31.308956828","category":"500","category_name":"未知分类","address":"上海等待无比久的公交车"},{"poiid":"B2094757D16EA5F5489F","title":"吉浦路","lon":"121.486022943","lat":"31.3081117003","category":"500","category_name":"未知分类","address":"上海三门路吉浦路"},{"poiid":"B2094654D465AAF44898","title":"21世纪不动产政立路加盟店","lon":"121.48818","lat":"31.30831","category":"248","category_name":"生活娱乐","address":"政立路1591"},{"poiid":"B2094655D36DA7FF4392","title":"政立路","lon":"121.49018","lat":"31.30922","category":"38","category_name":"公交车站","address":""},{"poiid":"B2094655D26CA0FC409E","title":"仁德路67弄10支弄小区","lon":"121.48786","lat":"31.30645","category":"47","category_name":"住宅区","address":"仁德路67弄10支弄"},{"poiid":"B2094757D16BA3FF439A","title":"100路政立路逸仙路站","lon":"121.488843","lat":"31.308161","category":"500","category_name":"未知分类","address":"上海政立路逸仙路"},{"poiid":"B2094654D56CAAFD4793","title":"小绍兴大酒店(吉浦路)","lon":"121.48985","lat":"31.30483","category":"257","category_name":"中餐厅","address":"杨浦区武东路350号(吉浦路口)"},{"poiid":"B2094654D465AAF44893","title":"东巨宠物诊所","lon":"121.48899","lat":"31.3083","category":"668","category_name":"诊所","address":"杨浦区政立路1559号(近吉浦路)"},{"poiid":"B2094655D36CA0FB459C","title":"吉浦路政立路","lon":"121.49015","lat":"31.30969","category":"38","category_name":"公交车站","address":""},{"poiid":"B2094654D56CABFC4892","title":"虹教小区","lon":"121.486","lat":"31.3075","category":"47","category_name":"住宅区","address":"公安街11弄1-3号"},{"poiid":"B2094751D36EA0FA4692","title":"买卖提红玫瑰烤涮龙虾馆(吉浦路店)","lon":"121.49003","lat":"31.31149","category":"68","category_name":"快餐厅","address":"杨浦区吉浦路494号(近三门路)"},{"poiid":"B2094757D16BA4FC409E","title":"60路逸仙路终点站","lon":"121.485515003","lat":"31.3066919806","category":"38","category_name":"公交车站","address":"上海逸仙路场中路口"},{"poiid":"B2094655D26DA5FB4899","title":"五角场社区卫生服务中心","lon":"121.48805","lat":"31.30642","category":"162","category_name":"医院","address":""},{"poiid":"B2094655D36DA0FA4692","title":"逸仙路场中路","lon":"121.48548","lat":"31.30711","category":"38","category_name":"公交车站","address":""},{"poiid":"B2094655D26CA1F5449A","title":"三门路510弄小区","lon":"121.49076","lat":"31.31072","category":"47","category_name":"住宅区","address":"三门路743弄"},{"poiid":"B2094654D465AAF44999","title":"舒而雅足浴政立路店","lon":"121.48955","lat":"31.3083","category":"149","category_name":"洗浴推拿场所","address":"杨浦区政立路1539号(吉浦路政立路)"},{"poiid":"B2094654D465AAF54792","title":"时鲜水果行(逸仙路)","lon":"121.48581","lat":"31.3094","category":"117","category_name":"便民商店/便利店","address":"逸仙路1049-1"},{"poiid":"B2094757D164A5FA499E","title":"豪大大鸡排(三星路店)","lon":"121.490438103","lat":"31.3077772033","category":"247","category_name":"餐饮美食","address":"上海市杨浦区三星路4号"},{"poiid":"B2094654DB6AAAF44298","title":"仁德苑","lon":"121.48949","lat":"31.305323","category":"47","category_name":"住宅区","address":"仁德路101弄"},{"poiid":"B2094654D56CA4FA4493","title":"莉莲蛋挞 江湾店 Lillian Cake Shop","lon":"121.484144054","lat":"31.305755793","category":"67","category_name":"甜品店","address":"虹口区轨道交通3号线江湾镇站1楼"},{"poiid":"B2094655D26DA4F4409A","title":"仁德路67弄10支弄小区(南门)","lon":"121.48833","lat":"31.30594","category":"47","category_name":"住宅区","address":"仁德路67弄10支弄"},{"poiid":"B2094752D465A3FF4399","title":"顾村公园","lon":"121.486406","lat":"31.310972","category":"250","category_name":"公园户外","address":"上海宝山"},{"poiid":"B2094757D168A4FF439E","title":"场中路4弄","lon":"121.484806645","lat":"31.3080416951","category":"47","category_name":"住宅区","address":"上海市宝山区逸仙路"},{"poiid":"B2094654D465AAFF499C","title":"虹口开业园区","lon":"121.48431","lat":"31.30834","category":"46","category_name":"楼宇","address":"场中路7"},{"poiid":"B2094654DB69A5F8439B","title":"文峰美容美发(吉普路店)","lon":"121.49007","lat":"31.30536","category":"148","category_name":"美容美发店","address":"杨浦区吉普路280号(近仁德路)"},{"poiid":"B2094655D26AA0F94299","title":"地铁江湾镇站","lon":"121.48507","lat":"31.3052","category":"36","category_name":"地铁站","address":"上海轨道交通 三号线 轨交江湾镇站 轻轨 3"},{"poiid":"B2094757D06FA3FB439D","title":"麦当劳(江湾镇店)","lon":"121.48502779","lat":"31.305216005","category":"68","category_name":"快餐厅","address":"虹口区地铁3号线江湾镇站1楼(仁德路新市北路)"},{"poiid":"B2094757D06FA2FF469B","title":"乐购(三门店)","lon":"121.4911","lat":"31.31117","category":"118","category_name":"超级市场","address":"宝山区三门路501号(近吉浦路)"},{"poiid":"B2094757D069A0F44299","title":"上海财经大学 会计学院","lon":"121.49037188","lat":"31.306741198","category":"253","category_name":"校园生活","address":"上海武川路111弄"},{"poiid":"B2094757DA65A2FC439C","title":"上海财经大学皇家图书馆","lon":"121.491082","lat":"31.307629","category":"253","category_name":"校园生活","address":"杨浦区武川路111号"},{"poiid":"B2094757D16EA1F94699","title":"上海市虹口区场中路逸仙路口","lon":"121.485471103","lat":"31.306616179","category":"500","category_name":"未知分类","address":"上海市虹口区场中路逸仙路口"},{"poiid":"B2094757D164A5FA449B","title":"宁国府","lon":"121.48960089","lat":"31.304209778","category":"76","category_name":"上海菜","address":"杨浦区吉浦路309号(近武东路)"},{"poiid":"B2094757D06BAAFE469A","title":"文化名园","lon":"121.49146","lat":"31.307182","category":"47","category_name":"住宅区","address":"上海市杨浦区吉浦路375号"},{"poiid":"B2094757D068ABF54398","title":"德克士(三门路店)","lon":"121.490526936","lat":"31.3117085287","category":"68","category_name":"快餐厅","address":"宝山区三门路501号乐购1楼(近吉浦路)"},{"poiid":"B2094757D064A7FA419F","title":"燕嘉缘鲍鱼馆","lon":"121.484901428","lat":"31.3083438873","category":"72","category_name":"广东菜","address":"虹口区场中路7号(场中路逸仙路)"},{"poiid":"B2094757D06AA2FF469C","title":"肯德基　江湾镇","lon":"121.484652","lat":"31.304772","category":"68","category_name":"快餐厅","address":"虹口区逸仙路580号吉买盛1楼(近仁德路)"},{"poiid":"B2094757D06AA7FD479E","title":"三门路吉浦路","lon":"121.4906571","lat":"31.308799224","category":"500","category_name":"未知分类","address":"上海三门路510弄"},{"poiid":"B2094757D664A7FA419F","title":"DQ冰雪皇后 江湾店 Dairy Queen","lon":"121.48463","lat":"31.30467","category":"113","category_name":"冷饮店","address":"虹口区逸仙路580号华联吉买盛1楼(近3号线江湾镇站)"},{"poiid":"B2094757D66DA0FD439F","title":"家","lon":"121.486833103","lat":"31.3115472822","category":"500","category_name":"未知分类","address":null},{"poiid":"B2094655D36DA7FF4499","title":"政立路逸仙路","lon":"121.48794","lat":"31.3081","category":"38","category_name":"公交车站","address":""},{"poiid":"B2094757DA65A2F8489C","title":"长海医院","lon":"121.4855970363322","lat":"31.30845593838493","category":"162","category_name":"医院","address":"上海杨浦区长海路168好"},{"poiid":"B2094757D06AA1F84693","title":"新亚大包 三门店","lon":"121.49095981658","lat":"31.311868191055","category":"68","category_name":"快餐厅","address":"宝山区三门路519号(近吉浦路)"},{"poiid":"B2094750D565A0FD4998","title":"NANA造型","lon":"121.488815","lat":"31.308073","category":"249","category_name":"购物服务","address":"杨浦区政立路1575号"},{"poiid":"B2094654D56CABF9429C","title":"吉浦小区","lon":"121.49139","lat":"31.308838","category":"47","category_name":"住宅区","address":"吉浦路395弄"},{"poiid":"B2094654D465AAF5429F","title":"乾阳佳园","lon":"121.48849","lat":"31.310379","category":"47","category_name":"住宅区","address":"上海市杨浦区三门路588弄"},{"poiid":"B2094654D56CA4F94792","title":"逸仙小区(场中路)","lon":"121.4842","lat":"31.30709","category":"47","category_name":"住宅区","address":"逸仙路1321弄1支弄1-60号"},{"poiid":"B2094654D465AAF44792","title":"哈哈宠物乐园","lon":"121.48781","lat":"31.3083","category":"129","category_name":"宠物用品店","address":"杨浦区政立路1607号"},{"poiid":"B2094757D068A2FC449D","title":"SWEETY DIY 烘焙坊","lon":"121.48516","lat":"31.30882","category":"67","category_name":"甜品店","address":"虹口区逸仙路836号(近场中路)"},{"poiid":"B2094654D465AAF44998","title":"华氏大药房政立店","lon":"121.48944","lat":"31.30829","category":"162","category_name":"医院","address":"政立路1547"},{"poiid":"B2094654DB6AAAFB449D","title":"景瑞花园","lon":"121.485","lat":"31.3067","category":"47","category_name":"住宅区","address":"万安路669弄1-32号"},{"poiid":"B2094757D16FA1FA4999","title":"502路","lon":"121.4880422","lat":"31.308956828","category":"500","category_name":"未知分类","address":"上海等待无比久的公交车"},{"poiid":"B2094757D16EA5F5489F","title":"吉浦路","lon":"121.486022943","lat":"31.3081117003","category":"500","category_name":"未知分类","address":"上海三门路吉浦路"},{"poiid":"B2094654D465AAF44898","title":"21世纪不动产政立路加盟店","lon":"121.48818","lat":"31.30831","category":"248","category_name":"生活娱乐","address":"政立路1591"},{"poiid":"B2094655D36DA7FF4392","title":"政立路","lon":"121.49018","lat":"31.30922","category":"38","category_name":"公交车站","address":""},{"poiid":"B2094655D26CA0FC409E","title":"仁德路67弄10支弄小区","lon":"121.48786","lat":"31.30645","category":"47","category_name":"住宅区","address":"仁德路67弄10支弄"},{"poiid":"B2094757D16BA3FF439A","title":"100路政立路逸仙路站","lon":"121.488843","lat":"31.308161","category":"500","category_name":"未知分类","address":"上海政立路逸仙路"},{"poiid":"B2094654D56CAAFD4793","title":"小绍兴大酒店(吉浦路)","lon":"121.48985","lat":"31.30483","category":"257","category_name":"中餐厅","address":"杨浦区武东路350号(吉浦路口)"},{"poiid":"B2094654D465AAF44893","title":"东巨宠物诊所","lon":"121.48899","lat":"31.3083","category":"668","category_name":"诊所","address":"杨浦区政立路1559号(近吉浦路)"},{"poiid":"B2094655D36CA0FB459C","title":"吉浦路政立路","lon":"121.49015","lat":"31.30969","category":"38","category_name":"公交车站","address":""},{"poiid":"B2094654D56CABFC4892","title":"虹教小区","lon":"121.486","lat":"31.3075","category":"47","category_name":"住宅区","address":"公安街11弄1-3号"},{"poiid":"B2094751D36EA0FA4692","title":"买卖提红玫瑰烤涮龙虾馆(吉浦路店)","lon":"121.49003","lat":"31.31149","category":"68","category_name":"快餐厅","address":"杨浦区吉浦路494号(近三门路)"},{"poiid":"B2094757D16BA4FC409E","title":"60路逸仙路终点站","lon":"121.485515003","lat":"31.3066919806","category":"38","category_name":"公交车站","address":"上海逸仙路场中路口"},{"poiid":"B2094655D26DA5FB4899","title":"五角场社区卫生服务中心","lon":"121.48805","lat":"31.30642","category":"162","category_name":"医院","address":""},{"poiid":"B2094655D36DA0FA4692","title":"逸仙路场中路","lon":"121.48548","lat":"31.30711","category":"38","category_name":"公交车站","address":""},{"poiid":"B2094655D26CA1F5449A","title":"三门路510弄小区","lon":"121.49076","lat":"31.31072","category":"47","category_name":"住宅区","address":"三门路743弄"},{"poiid":"B2094654D465AAF44999","title":"舒而雅足浴政立路店","lon":"121.48955","lat":"31.3083","category":"149","category_name":"洗浴推拿场所","address":"杨浦区政立路1539号(吉浦路政立路)"},{"poiid":"B2094654D465AAF54792","title":"时鲜水果行(逸仙路)","lon":"121.48581","lat":"31.3094","category":"117","category_name":"便民商店/便利店","address":"逸仙路1049-1"},{"poiid":"B2094757D164A5FA499E","title":"豪大大鸡排(三星路店)","lon":"121.490438103","lat":"31.3077772033","category":"247","category_name":"餐饮美食","address":"上海市杨浦区三星路4号"},{"poiid":"B2094654DB6AAAF44298","title":"仁德苑","lon":"121.48949","lat":"31.305323","category":"47","category_name":"住宅区","address":"仁德路101弄"},{"poiid":"B2094654D56CA4FA4493","title":"莉莲蛋挞 江湾店 Lillian Cake Shop","lon":"121.484144054","lat":"31.305755793","category":"67","category_name":"甜品店","address":"虹口区轨道交通3号线江湾镇站1楼"},{"poiid":"B2094655D26DA4F4409A","title":"仁德路67弄10支弄小区(南门)","lon":"121.48833","lat":"31.30594","category":"47","category_name":"住宅区","address":"仁德路67弄10支弄"},{"poiid":"B2094752D465A3FF4399","title":"顾村公园","lon":"121.486406","lat":"31.310972","category":"250","category_name":"公园户外","address":"上海宝山"},{"poiid":"B2094757D168A4FF439E","title":"场中路4弄","lon":"121.484806645","lat":"31.3080416951","category":"47","category_name":"住宅区","address":"上海市宝山区逸仙路"},{"poiid":"B2094654D465AAFF499C","title":"虹口开业园区","lon":"121.48431","lat":"31.30834","category":"46","category_name":"楼宇","address":"场中路7"},{"poiid":"B2094654DB69A5F8439B","title":"文峰美容美发(吉普路店)","lon":"121.49007","lat":"31.30536","category":"148","category_name":"美容美发店","address":"杨浦区吉普路280号(近仁德路)"},{"poiid":"B2094655D26AA0F94299","title":"地铁江湾镇站","lon":"121.48507","lat":"31.3052","category":"36","category_name":"地铁站","address":"上海轨道交通 三号线 轨交江湾镇站 轻轨 3"},{"poiid":"B2094757D06FA3FB439D","title":"麦当劳(江湾镇店)","lon":"121.48502779","lat":"31.305216005","category":"68","category_name":"快餐厅","address":"虹口区地铁3号线江湾镇站1楼(仁德路新市北路)"},{"poiid":"B2094757D06FA2FF469B","title":"乐购(三门店)","lon":"121.4911","lat":"31.31117","category":"118","category_name":"超级市场","address":"宝山区三门路501号(近吉浦路)"},{"poiid":"B2094757D069A0F44299","title":"上海财经大学 会计学院","lon":"121.49037188","lat":"31.306741198","category":"253","category_name":"校园生活","address":"上海武川路111弄"},{"poiid":"B2094757DA65A2FC439C","title":"上海财经大学皇家图书馆","lon":"121.491082","lat":"31.307629","category":"253","category_name":"校园生活","address":"杨浦区武川路111号"},{"poiid":"B2094757D16EA1F94699","title":"上海市虹口区场中路逸仙路口","lon":"121.485471103","lat":"31.306616179","category":"500","category_name":"未知分类","address":"上海市虹口区场中路逸仙路口"},{"poiid":"B2094757D164A5FA449B","title":"宁国府","lon":"121.48960089","lat":"31.304209778","category":"76","category_name":"上海菜","address":"杨浦区吉浦路309号(近武东路)"},{"poiid":"B2094757D06BAAFE469A","title":"文化名园","lon":"121.49146","lat":"31.307182","category":"47","category_name":"住宅区","address":"上海市杨浦区吉浦路375号"},{"poiid":"B2094757D068ABF54398","title":"德克士(三门路店)","lon":"121.490526936","lat":"31.3117085287","category":"68","category_name":"快餐厅","address":"宝山区三门路501号乐购1楼(近吉浦路)"},{"poiid":"B2094757D064A7FA419F","title":"燕嘉缘鲍鱼馆","lon":"121.484901428","lat":"31.3083438873","category":"72","category_name":"广东菜","address":"虹口区场中路7号(场中路逸仙路)"},{"poiid":"B2094757D06AA2FF469C","title":"肯德基　江湾镇","lon":"121.484652","lat":"31.304772","category":"68","category_name":"快餐厅","address":"虹口区逸仙路580号吉买盛1楼(近仁德路)"},{"poiid":"B2094757D06AA7FD479E","title":"三门路吉浦路","lon":"121.4906571","lat":"31.308799224","category":"500","category_name":"未知分类","address":"上海三门路510弄"},{"poiid":"B2094757D664A7FA419F","title":"DQ冰雪皇后 江湾店 Dairy Queen","lon":"121.48463","lat":"31.30467","category":"113","category_name":"冷饮店","address":"虹口区逸仙路580号华联吉买盛1楼(近3号线江湾镇站)"},{"poiid":"B2094757D66DA0FD439F","title":"家","lon":"121.486833103","lat":"31.3115472822","category":"500","category_name":"未知分类","address":null},{"poiid":"B2094655D36DA7FF4499","title":"政立路逸仙路","lon":"121.48794","lat":"31.3081","category":"38","category_name":"公交车站","address":""},{"poiid":"B2094757DA65A2F8489C","title":"长海医院","lon":"121.4855970363322","lat":"31.30845593838493","category":"162","category_name":"医院","address":"上海杨浦区长海路168好"},{"poiid":"B2094757D06AA1F84693","title":"新亚大包 三门店","lon":"121.49095981658","lat":"31.311868191055","category":"68","category_name":"快餐厅","address":"宝山区三门路519号(近吉浦路)"},{"poiid":"B2094750D565A0FD4998","title":"NANA造型","lon":"121.488815","lat":"31.308073","category":"249","category_name":"购物服务","address":"杨浦区政立路1575号"},{"poiid":"B2094654D56CABF9429C","title":"吉浦小区","lon":"121.49139","lat":"31.308838","category":"47","category_name":"住宅区","address":"吉浦路395弄"},{"poiid":"B2094654D465AAF5429F","title":"乾阳佳园","lon":"121.48849","lat":"31.310379","category":"47","category_name":"住宅区","address":"上海市杨浦区三门路588弄"},{"poiid":"B2094654D56CA4F94792","title":"逸仙小区(场中路)","lon":"121.4842","lat":"31.30709","category":"47","category_name":"住宅区","address":"逸仙路1321弄1支弄1-60号"},{"poiid":"B2094654D465AAF44792","title":"哈哈宠物乐园","lon":"121.48781","lat":"31.3083","category":"129","category_name":"宠物用品店","address":"杨浦区政立路1607号"},{"poiid":"B2094757D068A2FC449D","title":"SWEETY DIY 烘焙坊","lon":"121.48516","lat":"31.30882","category":"67","category_name":"甜品店","address":"虹口区逸仙路836号(近场中路)"},{"poiid":"B2094654D465AAF44998","title":"华氏大药房政立店","lon":"121.48944","lat":"31.30829","category":"162","category_name":"医院","address":"政立路1547"},{"poiid":"B2094654DB6AAAFB449D","title":"景瑞花园","lon":"121.485","lat":"31.3067","category":"47","category_name":"住宅区","address":"万安路669弄1-32号"},{"poiid":"B2094757D16FA1FA4999","title":"502路","lon":"121.4880422","lat":"31.308956828","category":"500","category_name":"未知分类","address":"上海等待无比久的公交车"},{"poiid":"B2094757D16EA5F5489F","title":"吉浦路","lon":"121.486022943","lat":"31.3081117003","category":"500","category_name":"未知分类","address":"上海三门路吉浦路"},{"poiid":"B2094654D465AAF44898","title":"21世纪不动产政立路加盟店","lon":"121.48818","lat":"31.30831","category":"248","category_name":"生活娱乐","address":"政立路1591"},{"poiid":"B2094655D36DA7FF4392","title":"政立路","lon":"121.49018","lat":"31.30922","category":"38","category_name":"公交车站","address":""},{"poiid":"B2094655D26CA0FC409E","title":"仁德路67弄10支弄小区","lon":"121.48786","lat":"31.30645","category":"47","category_name":"住宅区","address":"仁德路67弄10支弄"},{"poiid":"B2094757D16BA3FF439A","title":"100路政立路逸仙路站","lon":"121.488843","lat":"31.308161","category":"500","category_name":"未知分类","address":"上海政立路逸仙路"},{"poiid":"B2094654D56CAAFD4793","title":"小绍兴大酒店(吉浦路)","lon":"121.48985","lat":"31.30483","category":"257","category_name":"中餐厅","address":"杨浦区武东路350号(吉浦路口)"},{"poiid":"B2094654D465AAF44893","title":"东巨宠物诊所","lon":"121.48899","lat":"31.3083","category":"668","category_name":"诊所","address":"杨浦区政立路1559号(近吉浦路)"},{"poiid":"B2094655D36CA0FB459C","title":"吉浦路政立路","lon":"121.49015","lat":"31.30969","category":"38","category_name":"公交车站","address":""},{"poiid":"B2094654D56CABFC4892","title":"虹教小区","lon":"121.486","lat":"31.3075","category":"47","category_name":"住宅区","address":"公安街11弄1-3号"},{"poiid":"B2094751D36EA0FA4692","title":"买卖提红玫瑰烤涮龙虾馆(吉浦路店)","lon":"121.49003","lat":"31.31149","category":"68","category_name":"快餐厅","address":"杨浦区吉浦路494号(近三门路)"},{"poiid":"B2094757D16BA4FC409E","title":"60路逸仙路终点站","lon":"121.485515003","lat":"31.3066919806","category":"38","category_name":"公交车站","address":"上海逸仙路场中路口"},{"poiid":"B2094655D26DA5FB4899","title":"五角场社区卫生服务中心","lon":"121.48805","lat":"31.30642","category":"162","category_name":"医院","address":""},{"poiid":"B2094655D36DA0FA4692","title":"逸仙路场中路","lon":"121.48548","lat":"31.30711","category":"38","category_name":"公交车站","address":""},{"poiid":"B2094655D26CA1F5449A","title":"三门路510弄小区","lon":"121.49076","lat":"31.31072","category":"47","category_name":"住宅区","address":"三门路743弄"},{"poiid":"B2094654D465AAF44999","title":"舒而雅足浴政立路店","lon":"121.48955","lat":"31.3083","category":"149","category_name":"洗浴推拿场所","address":"杨浦区政立路1539号(吉浦路政立路)"},{"poiid":"B2094654D465AAF54792","title":"时鲜水果行(逸仙路)","lon":"121.48581","lat":"31.3094","category":"117","category_name":"便民商店/便利店","address":"逸仙路1049-1"},{"poiid":"B2094757D164A5FA499E","title":"豪大大鸡排(三星路店)","lon":"121.490438103","lat":"31.3077772033","category":"247","category_name":"餐饮美食","address":"上海市杨浦区三星路4号"},{"poiid":"B2094654DB6AAAF44298","title":"仁德苑","lon":"121.48949","lat":"31.305323","category":"47","category_name":"住宅区","address":"仁德路101弄"},{"poiid":"B2094654D56CA4FA4493","title":"莉莲蛋挞 江湾店 Lillian Cake Shop","lon":"121.484144054","lat":"31.305755793","category":"67","category_name":"甜品店","address":"虹口区轨道交通3号线江湾镇站1楼"},{"poiid":"B2094655D26DA4F4409A","title":"仁德路67弄10支弄小区(南门)","lon":"121.48833","lat":"31.30594","category":"47","category_name":"住宅区","address":"仁德路67弄10支弄"},{"poiid":"B2094752D465A3FF4399","title":"顾村公园","lon":"121.486406","lat":"31.310972","category":"250","category_name":"公园户外","address":"上海宝山"},{"poiid":"B2094757D168A4FF439E","title":"场中路4弄","lon":"121.484806645","lat":"31.3080416951","category":"47","category_name":"住宅区","address":"上海市宝山区逸仙路"},{"poiid":"B2094654D465AAFF499C","title":"虹口开业园区","lon":"121.48431","lat":"31.30834","category":"46","category_name":"楼宇","address":"场中路7"},{"poiid":"B2094654DB69A5F8439B","title":"文峰美容美发(吉普路店)","lon":"121.49007","lat":"31.30536","category":"148","category_name":"美容美发店","address":"杨浦区吉普路280号(近仁德路)"}]