[{"poiid":"B2094654D56FABF54198","title":"上海长海医院","lon":"121.5256","lat":"31.30936","category":"162","category_name":"医院","address":"上海杨浦区长海路168-174号(长海路)"},{"poiid":"B2094757D06FA3FD419E","title":"上海体育学院","lon":"121.52434","lat":"31.31238","category":"671","category_name":"高校中心点","address":"杨浦区长海路345号上海体育学院内(近嫩江路)"},{"poiid":"B2094654D56FAAFC4499","title":"上海体育学院学生宿舍区","lon":"121.52332","lat":"31.31174","category":"47","category_name":"住宅区","address":"恒仁路200"},{"poiid":"B2094757D068A7F4469B","title":"长海医院住院部","lon":"121.527867794","lat":"31.3088527016","category":"162","category_name":"医院","address":"上海杨浦区长海路174号(中原路)"},{"poiid":"B2094757D06FA7FF469A","title":"榕港海鲜大酒楼(杨浦店)","lon":"121.5190717330238","lat":"31.310897096007913","category":"88","category_name":"海鲜酒楼","address":"杨浦区国和路488号(近长海路)"},{"poiid":"B2094757D16BABFC429D","title":"第二军医大学校园","lon":"121.5283081","lat":"31.309152232","category":"500","category_name":"未知分类","address":"上海市杨浦区长海路174号"},{"poiid":"B2094757D06FA3F54692","title":"江湾游泳池","lon":"121.51884","lat":"31.30675","category":"220","category_name":"运动场所","address":"杨浦区国和路346号(近政立路)"},{"poiid":"B2094750D26DA2F84699","title":"五角场","lon":"121.5277200893403","lat":"31.30725801490106","category":"500","category_name":"未知分类","address":null},{"poiid":"B2094757D169A7F8489B","title":"长海医院六号楼","lon":"121.523173103","lat":"31.3084360171","category":"162","category_name":"医院","address":"上海长海路168号"},{"poiid":"B2094757D06FA4FD4393","title":"上海体育学院综合馆","lon":"121.52752","lat":"31.30951","category":"221","category_name":"健身中心","address":"杨浦区长海路345号上海体育学院内(近嫩江路)"},{"poiid":"B2094757D16CA5FD4699","title":"五角场镇","lon":"121.519556103","lat":"31.3113422779","category":"500","category_name":"未知分类","address":"上海市杨浦区政立路55号"},{"poiid":"B2094654D56FA1F9419B","title":"上海基督教沪东堂","lon":"121.51884","lat":"31.30827","category":"245","category_name":"教堂","address":"杨浦区国和路350号(国和路政立路)"},{"poiid":"B2094655D26AAAFA449D","title":"五角场万达广场","lon":"121.520106","lat":"31.305715","category":"72","category_name":"广东菜","address":"杨浦区邯郸路600号万达广场第一食品店5楼近淞沪路国宾路;;"},{"poiid":"B2094757D069A3FD469E","title":"85度C(长海店)","lon":"121.5244098","lat":"31.3096843","category":"112","category_name":"糕饼店","address":"杨浦区长海路469号(近恒仁路)"},{"poiid":"B2094757D068A4F94099","title":"肯德基 KFC (长海店)","lon":"121.52692775","lat":"31.309974424","category":"68","category_name":"快餐厅","address":"杨浦区长海路361号(近嫩江路)"},{"poiid":"B2094654D56FAAFC449D","title":"永和大王(长海路)","lon":"121.52509","lat":"31.30982","category":"68","category_name":"快餐厅","address":"杨浦区长海路399号(近长海医院)"},{"poiid":"B2094757D068A0FB459E","title":"红宝石(长海路店)","lon":"121.52468","lat":"31.309458","category":"67","category_name":"甜品店","address":"杨浦区长海路268号(近长海医院)"},{"poiid":"B2094757D06BA0F9439A","title":"第二军医大学继续教育学院","lon":"121.520428","lat":"31.305016","category":"253","category_name":"校园生活","address":"上海政通路41号"},{"poiid":"B2094654D56FABF84092","title":"沪东金融大厦","lon":"121.523","lat":"31.307","category":"46","category_name":"楼宇","address":"越秀区环市东路362-366号"},{"poiid":"B2094655D26CA6FE469F","title":"上海体育学院宿舍区(北一门)","lon":"121.52105","lat":"31.31241","category":"47","category_name":"住宅区","address":"清源环路501"},{"poiid":"B2094757D06FABFE4399","title":"五角场花鸟市场","lon":"121.52073","lat":"31.31018","category":"249","category_name":"购物服务","address":"上海杨浦区国和路493号(近长海医院)  "},{"poiid":"B2094654D56FABF4489E","title":"同济中学(政立路)","lon":"121.52196","lat":"31.3076","category":"55","category_name":"中学","address":"政立路20号"},{"poiid":"B2094655D26AA7FB449F","title":"江湾体育场足球场","lon":"121.51909","lat":"31.30708","category":"247","category_name":"餐饮美食","address":"杨浦区国和路346号江湾体育馆(近政立路)"},{"poiid":"B2094654D56EA4FC4198","title":"中环国际大厦","lon":"121.52","lat":"31.3093","category":"46","category_name":"楼宇","address":"上海市四川北路1851号"},{"poiid":"B2094757D16CA2FD4499","title":"长海路","lon":"121.523313103","lat":"31.3106352631","category":"500","category_name":"未知分类","address":"上海市杨浦区长海路"},{"poiid":"B2094757D06FA4FB4892","title":"天行健瑜伽健身会所","lon":"121.51888","lat":"31.30732","category":"221","category_name":"健身中心","address":"杨浦区国和路346号江湾体育场内10号看台152号(近邯郸路)"},{"poiid":"B2094654D56FABF8499B","title":"平盛大厦","lon":"121.522","lat":"31.3087","category":"46","category_name":"楼宇","address":"丰台学城海鹰路1号,3号"},{"poiid":"B2094751DA6CA0FE469B","title":"长海医院急诊输液室","lon":"121.52372","lat":"31.308737","category":"162","category_name":"医院","address":"长海路168号"},{"poiid":"B2094654DB69A4FB4199","title":"重庆鸡公煲(长海店)","lon":"121.52284","lat":"31.30943","category":"71","category_name":"四川菜","address":"杨浦区长海路436号(黑山路)"},{"poiid":"B2094750D768A0F54793","title":"喜达石锅饭","lon":"121.525","lat":"31.3098","category":"96","category_name":"韩国料理","address":"杨浦区长海路437号(近长海医院)"},{"poiid":"B2094654DB64A6F94492","title":"上岛咖啡 长海路店 UBC Coffee","lon":"121.520090054","lat":"31.309342793","category":"260","category_name":"其他","address":"杨浦区长海路560号(国和路)"},{"poiid":"B2094757D66FA1FC419B","title":"第二军医大学附属长海医院中医科","lon":"121.527223997","lat":"31.3081795348","category":"162","category_name":"医院","address":"上海长海医院4楼"},{"poiid":"B2094757D568AAF5409C","title":"百联购物又一城","lon":"121.522566","lat":"31.306448","category":"249","category_name":"购物服务","address":"杨浦区淞沪路8号(近邯郸路)"},{"poiid":"B2094654D56FABFB4598","title":"政通路100弄小区","lon":"121.524","lat":"31.3102","category":"47","category_name":"住宅区","address":"政通路100弄"},{"poiid":"B2094654D56FAAFC4493","title":"上海体育学院(南门)","lon":"121.52511","lat":"31.30989","category":"656","category_name":"大门","address":"杨浦区长海路399"},{"poiid":"B2094655D26FA2FA429A","title":"同济中学东部校区","lon":"121.52309","lat":"31.30882","category":"52","category_name":"高等院校","address":"政立路20号(近同济中学体育馆)"},{"poiid":"B2094757D169A6FC4198","title":"云南米线","lon":"121.5228","lat":"31.30923","category":"68","category_name":"快餐厅","address":"杨浦区黑山路217号(近长海路)"},{"poiid":"B2094655D36CA5F9459D","title":"长海路黑山路","lon":"121.52231","lat":"31.30968","category":"38","category_name":"公交车站","address":""},{"poiid":"B2094757D068A1FF479D","title":"长恒花苑","lon":"121.524627103","lat":"31.3087202231","category":"47","category_name":"住宅区","address":"上海杨浦区恒仁路25弄"},{"poiid":"B2094654D56FABF44993","title":"好德便利No.977","lon":"121.52416","lat":"31.30943","category":"117","category_name":"便民商店/便利店","address":"恒仁路51号"},{"poiid":"B2094757D16DA5FA429E","title":"二军大聚贤阁","lon":"121.525574103","lat":"31.3066491797","category":"247","category_name":"餐饮美食","address":"上海青山路2号"},{"poiid":"B2094757D06AAAF84692","title":"长海三村","lon":"121.52231","lat":"31.309682","category":"252","category_name":"楼宇机构","address":"上海长海路黑山路"},{"poiid":"B2094654DB6BA2FB409D","title":"上海体育学院宿舍区(二号门)","lon":"121.52229","lat":"31.31236","category":"52","category_name":"高等院校","address":"杨浦区清源环路531"},{"poiid":"B2094750D26CA5F44593","title":"避风塘","lon":"121.5204989651532","lat":"31.30947483559236","category":"68","category_name":"快餐厅","address":"杨浦区政立路56号(近国和路)"},{"poiid":"B2094654D56FAAFC419F","title":"银叶苑","lon":"121.52207","lat":"31.309196","category":"47","category_name":"住宅区","address":"上海市杨浦区长海路442弄"},{"poiid":"B2094654DB65AAF8459A","title":"上海外国语大学夜大学五角场分部","lon":"121.52265","lat":"31.30958","category":"52","category_name":"高等院校","address":"杨浦区黑山路184号"},{"poiid":"B2094757D164A7FD4092","title":"长海医院口腔科","lon":"121.52552157","lat":"31.309668842","category":"162","category_name":"医院","address":"上海长海医院"},{"poiid":"B2094654D56FABF4489D","title":"长海四村(西门)","lon":"121.52411","lat":"31.30824","category":"47","category_name":"住宅区","address":"长海四村1-25号"},{"poiid":"B2094757D66DA7F84698","title":"兰州拉面 长海路","lon":"121.523166","lat":"31.309795","category":"247","category_name":"餐饮美食","address":"上海长海路507号"},{"poiid":"B2094654D56FABF4489F","title":"政立路6弄住宅小区(北门)","lon":"121.52387","lat":"31.30794","category":"47","category_name":"住宅区","address":"政立路6弄1-27号"},{"poiid":"B2094654D56FABF54198","title":"上海长海医院","lon":"121.5256","lat":"31.30936","category":"162","category_name":"医院","address":"上海杨浦区长海路168-174号(长海路)"},{"poiid":"B2094757D06FA3FD419E","title":"上海体育学院","lon":"121.52434","lat":"31.31238","category":"671","category_name":"高校中心点","address":"杨浦区长海路345号上海体育学院内(近嫩江路)"},{"poiid":"B2094654D56FAAFC4499","title":"上海体育学院学生宿舍区","lon":"121.52332","lat":"31.31174","category":"47","category_name":"住宅区","address":"恒仁路200"},{"poiid":"B2094757D068A7F4469B","title":"长海医院住院部","lon":"121.527867794","lat":"31.3088527016","category":"162","category_name":"医院","address":"上海杨浦区长海路174号(中原路)"},{"poiid":"B2094757D06FA7FF469A","title":"榕港海鲜大酒楼(杨浦店)","lon":"121.5190717330238","lat":"31.310897096007913","category":"88","category_name":"海鲜酒楼","address":"杨浦区国和路488号(近长海路)"},{"poiid":"B2094757D16BABFC429D","title":"第二军医大学校园","lon":"121.5283081","lat":"31.309152232","category":"500","category_name":"未知分类","address":"上海市杨浦区长海路174号"},{"poiid":"B2094757D06FA3F54692","title":"江湾游泳池","lon":"121.51884","lat":"31.30675","category":"220","category_name":"运动场所","address":"杨浦区国和路346号(近政立路)"},{"poiid":"B2094750D26DA2F84699","title":"五角场","lon":"121.5277200893403","lat":"31.30725801490106","category":"500","category_name":"未知分类","address":null},{"poiid":"B2094757D169A7F8489B","title":"长海医院六号楼","lon":"121.523173103","lat":"31.3084360171","category":"162","category_name":"医院","address":"上海长海路168号"},{"poiid":"B2094757D06FA4FD4393","title":"上海体育学院综合馆","lon":"121.52752","lat":"31.30951","category":"221","category_name":"健身中心","address":"杨浦区长海路345号上海体育学院内(近嫩江路)"},{"poiid":"B2094757D16CA5FD4699","title":"五角场镇","lon":"121.519556103","lat":"31.3113422779","category":"500","category_name":"未知分类","address":"上海市杨浦区政立路55号"},{"poiid":"B2094654D56FA1F9419B","title":"上海基督教沪东堂","lon":"121.51884","lat":"31.30827","category":"245","category_name":"教堂","address":"杨浦区国和路350号(国和路政立路)"},{"poiid":"B2094655D26AAAFA449D","title":"五角场万达广场","lon":"121.520106","lat":"31.305715","category":"72","category_name":"广东菜","address":"杨浦区邯郸路600号万达广场第一食品店5楼近淞沪路国宾路;;"},{"poiid":"B2094757D069A3FD469E","title":"85度C(长海店)","lon":"121.5244098","lat":"31.3096843","category":"112","category_name":"糕饼店","address":"杨浦区长海路469号(近恒仁路)"},{"poiid":"B2094757D068A4F94099","title":"肯德基 KFC (长海店)","lon":"121.52692775","lat":"31.309974424","category":"68","category_name":"快餐厅","address":"杨浦区长海路361号(近嫩江路)"},{"poiid":"B2094654D56FAAFC449D","title":"永和大王(长海路)","lon":"121.52509","lat":"31.30982","category":"68","category_name":"快餐厅","address":"杨浦区长海路399号(近长海医院)"},{"poiid":"B2094757D068A0FB459E","title":"红宝石(长海路店)","lon":"121.52468","lat":"31.309458","category":"67","category_name":"甜品店","address":"杨浦区长海路268号(近长海医院)"},{"poiid":"B2094757D06BA0F9439A","title":"第二军医大学继续教育学院","lon":"121.520428","lat":"31.305016","category":"253","category_name":"校园生活","address":"上海政通路41号"},{"poiid":"B2094654D56FABF84092","title":"沪东金融大厦","lon":"121.523","lat":"31.307","category":"46","category_name":"楼宇","address":"越秀区环市东路362-366号"},{"poiid":"B2094655D26CA6FE469F","title":"上海体育学院宿舍区(北一门)","lon":"121.52105","lat":"31.31241","category":"47","category_name":"住宅区","address":"清源环路501"},{"poiid":"B2094757D06FABFE4399","title":"五角场花鸟市场","lon":"121.52073","lat":"31.31018","category":"249","category_name":"购物服务","address":"上海杨浦区国和路493号(近长海医院)  "},{"poiid":"B2094654D56FABF4489E","title":"同济中学(政立路)","lon":"121.52196","lat":"31.3076","category":"55","category_name":"中学","address":"政立路20号"},{"poiid":"B2094655D26AA7FB449F","title":"江湾体育场足球场","lon":"121.51909","lat":"31.30708","category":"247","category_name":"餐饮美食","address":"杨浦区国和路346号江湾体育馆(近政立路)"},{"poiid":"B2094654D56EA4FC4198","title":"中环国际大厦","lon":"121.52","lat":"31.3093","category":"46","category_name":"楼宇","address":"上海市四川北路1851号"},{"poiid":"B2094757D16CA2FD4499","title":"长海路","lon":"121.523313103","lat":"31.3106352631","category":"500","category_name":"未知分类","address":"上海市杨浦区长海路"},{"poiid":"B2094757D06FA4FB4892","title":"天行健瑜伽健身会所","lon":"121.51888","lat":"31.30732","category":"221","category_name":"健身中心","address":"杨浦区国和路346号江湾体育场内10号看台152号(近邯郸路)"},{"poiid":"B2094654D56FABF8499B","title":"平盛大厦","lon":"121.522","lat":"31.3087","category":"46","category_name":"楼宇","address":"丰台学城海鹰路1号,3号"},{"poiid":"B2094751DA6CA0FE469B","title":"长海医院急诊输液室","lon":"121.52372","lat":"31.308737","category":"162","category_name":"医院","address":"长海路168号"},{"poiid":"B2094654DB69A4FB4199","title":"重庆鸡公煲(长海店)","lon":"121.52284","lat":"31.30943","category":"71","category_name":"四川菜","address":"杨浦区长海路436号(黑山路)"},{"poiid":"B2094750D768A0F54793","title":"喜达石锅饭","lon":"121.525","lat":"31.3098","category":"96","category_name":"韩国料理","address":"杨浦区长海路437号(近长海医院)"},{"poiid":"B2094654DB64A6F94492","title":"上岛咖啡 长海路店 UBC Coffee","lon":"121.520090054","lat":"31.309342793","category":"260","category_name":"其他","address":"杨浦区长海路560号(国和路)"},{"poiid":"B2094757D66FA1FC419B","title":"第二军医大学附属长海医院中医科","lon":"121.527223997","lat":"31.3081795348","category":"162","category_name":"医院","address":"上海长海医院4楼"},{"poiid":"B2094757D568AAF5409C","title":"百联购物又一城","lon":"121.522566","lat":"31.306448","category":"249","category_name":"购物服务","address":"杨浦区淞沪路8号(近邯郸路)"},{"poiid":"B2094654D56FABFB4598","title":"政通路100弄小区","lon":"121.524","lat":"31.3102","category":"47","category_name":"住宅区","address":"政通路100弄"},{"poiid":"B2094654D56FAAFC4493","title":"上海体育学院(南门)","lon":"121.52511","lat":"31.30989","category":"656","category_name":"大门","address":"杨浦区长海路399"},{"poiid":"B2094655D26FA2FA429A","title":"同济中学东部校区","lon":"121.52309","lat":"31.30882","category":"52","category_name":"高等院校","address":"政立路20号(近同济中学体育馆)"},{"poiid":"B2094757D169A6FC4198","title":"云南米线","lon":"121.5228","lat":"31.30923","category":"68","category_name":"快餐厅","address":"杨浦区黑山路217号(近长海路)"},{"poiid":"B2094655D36CA5F9459D","title":"长海路黑山路","lon":"121.52231","lat":"31.30968","category":"38","category_name":"公交车站","address":""},{"poiid":"B2094757D068A1FF479D","title":"长恒花苑","lon":"121.524627103","lat":"31.3087202231","category":"47","category_name":"住宅区","address":"上海杨浦区恒仁路25弄"},{"poiid":"B2094654D56FABF44993","title":"好德便利No.977","lon":"121.52416","lat":"31.30943","category":"117","category_name":"便民商店/便利店","address":"恒仁路51号"},{"poiid":"B2094757D16DA5FA429E","title":"二军大聚贤阁","lon":"121.525574103","lat":"31.3066491797","category":"247","category_name":"餐饮美食","address":"上海青山路2号"},{"poiid":"B2094757D06AAAF84692","title":"长海三村","lon":"121.52231","lat":"31.309682","category":"252","category_name":"楼宇机构","address":"上海长海路黑山路"},{"poiid":"B2094654DB6BA2FB409D","title":"上海体育学院宿舍区(二号门)","lon":"121.52229","lat":"31.31236","category":"52","category_name":"高等院校","address":"杨浦区清源环路531"},{"poiid":"B2094750D26CA5F44593","title":"避风塘","lon":"121.5204989651532","lat":"31.30947483559236","category":"68","category_name":"快餐厅","address":"杨浦区政立路56号(近国和路)"},{"poiid":"B2094654D56FAAFC419F","title":"银叶苑","lon":"121.52207","lat":"31.309196","category":"47","category_name":"住宅区","address":"上海市杨浦区长海路442弄"},{"poiid":"B2094654DB65AAF8459A","title":"上海外国语大学夜大学五角场分部","lon":"121.52265","lat":"31.30958","category":"52","category_name":"高等院校","address":"杨浦区黑山路184号"},{"poiid":"B2094757D164A7FD4092","title":"长海医院口腔科","lon":"121.52552157","lat":"31.309668842","category":"162","category_name":"医院","address":"上海长海医院"},{"poiid":"B2094654D56FABF4489D","title":"长海四村(西门)","lon":"121.52411","lat":"31.30824","category":"47","category_name":"住宅区","address":"长海四村1-25号"},{"poiid":"B2094757D66DA7F84698","title":"兰州拉面 长海路","lon":"121.523166","lat":"31.309795","category":"247","category_name":"餐饮美食","address":"上海长海路507号"},{"poiid":"B2094654D56FABF4489F","title":"政立路6弄住宅小区(北门)","lon":"121.52387","lat":"31.30794","category":"47","category_name":"住宅区","address":"政立路6弄1-27号"},{"poiid":"B2094654D56FABF54198","title":"上海长海医院","lon":"121.5256","lat":"31.30936","category":"162","category_name":"医院","address":"上海杨浦区长海路168-174号(长海路)"},{"poiid":"B2094757D06FA3FD419E","title":"上海体育学院","lon":"121.52434","lat":"31.31238","category":"671","category_name":"高校中心点","address":"杨浦区长海路345号上海体育学院内(近嫩江路)"},{"poiid":"B2094654D56FAAFC4499","title":"上海体育学院学生宿舍区","lon":"121.52332","lat":"31.31174","category":"47","category_name":"住宅区","address":"恒仁路200"},{"poiid":"B2094757D068A7F4469B","title":"长海医院住院部","lon":"121.527867794","lat":"31.3088527016","category":"162","category_name":"医院","address":"上海杨浦区长海路174号(中原路)"},{"poiid":"B2094757D06FA7FF469A","title":"榕港海鲜大酒楼(杨浦店)","lon":"121.5190717330238","lat":"31.310897096007913","category":"88","category_name":"海鲜酒楼","address":"杨浦区国和路488号(近长海路)"},{"poiid":"B2094757D16BABFC429D","title":"第二军医大学校园","lon":"121.5283081","lat":"31.309152232","category":"500","category_name":"未知分类","address":"上海市杨浦区长海路174号"},{"poiid":"B2094757D06FA3F54692","title":"江湾游泳池","lon":"121.51884","lat":"31.30675","category":"220","category_name":"运动场所","address":"杨浦区国和路346号(近政立路)"},{"poiid":"B2094750D26DA2F84699","title":"五角场","lon":"121.5277200893403","lat":"31.30725801490106","category":"500","category_name":"未知分类","address":null},{"poiid":"B2094757D169A7F8489B","title":"长海医院六号楼","lon":"121.523173103","lat":"31.3084360171","category":"162","category_name":"医院","address":"上海长海路168号"},{"poiid":"B2094757D06FA4FD4393","title":"上海体育学院综合馆","lon":"121.52752","lat":"31.30951","category":"221","category_name":"健身中心","address":"杨浦区长海路345号上海体育学院内(近嫩江路)"},{"poiid":"B2094757D16CA5FD4699","title":"五角场镇","lon":"121.519556103","lat":"31.3113422779","category":"500","category_name":"未知分类","address":"上海市杨浦区政立路55号"},{"poiid":"B2094654D56FA1F9419B","title":"上海基督教沪东堂","lon":"121.51884","lat":"31.30827","category":"245","category_name":"教堂","address":"杨浦区国和路350号(国和路政立路)"},{"poiid":"B2094655D26AAAFA449D","title":"五角场万达广场","lon":"121.520106","lat":"31.305715","category":"72","category_name":"广东菜","address":"杨浦区邯郸路600号万达广场第一食品店5楼近淞沪路国宾路;;"},{"poiid":"B2094757D069A3FD469E","title":"85度C(长海店)","lon":"121.5244098","lat":"31.3096843","category":"112","category_name":"糕饼店","address":"杨浦区长海路469号(近恒仁路)"},{"poiid":"B2094757D068A4F94099","title":"肯德基 KFC (长海店)","lon":"121.52692775","lat":"31.309974424","category":"68","category_name":"快餐厅","address":"杨浦区长海路361号(近嫩江路)"},{"poiid":"B2094654D56FAAFC449D","title":"永和大王(长海路)","lon":"121.52509","lat":"31.30982","category":"68","category_name":"快餐厅","address":"杨浦区长海路399号(近长海医院)"},{"poiid":"B2094757D068A0FB459E","title":"红宝石(长海路店)","lon":"121.52468","lat":"31.309458","category":"67","category_name":"甜品店","address":"杨浦区长海路268号(近长海医院)"},{"poiid":"B2094757D06BA0F9439A","title":"第二军医大学继续教育学院","lon":"121.520428","lat":"31.305016","category":"253","category_name":"校园生活","address":"上海政通路41号"},{"poiid":"B2094654D56FABF84092","title":"沪东金融大厦","lon":"121.523","lat":"31.307","category":"46","category_name":"楼宇","address":"越秀区环市东路362-366号"},{"poiid":"B2094655D26CA6FE469F","title":"上海体育学院宿舍区(北一门)","lon":"121.52105","lat":"31.31241","category":"47","category_name":"住宅区","address":"清源环路501"},{"poiid":"B2094757D06FABFE4399","title":"五角场花鸟市场","lon":"121.52073","lat":"31.31018","category":"249","category_name":"购物服务","address":"上海杨浦区国和路493号(近长海医院)  "},{"poiid":"B2094654D56FABF4489E","title":"同济中学(政立路)","lon":"121.52196","lat":"31.3076","category":"55","category_name":"中学","address":"政立路20号"},{"poiid":"B2094655D26AA7FB449F","title":"江湾体育场足球场","lon":"121.51909","lat":"31.30708","category":"247","category_name":"餐饮美食","address":"杨浦区国和路346号江湾体育馆(近政立路)"},{"poiid":"B2094654D56EA4FC4198","title":"中环国际大厦","lon":"121.52","lat":"31.3093","category":"46","category_name":"楼宇","address":"上海市四川北路1851号"},{"poiid":"B2094757D16CA2FD4499","title":"长海路","lon":"121.523313103","lat":"31.3106352631","category":"500","category_name":"未知分类","address":"上海市杨浦区长海路"},{"poiid":"B2094757D06FA4FB4892","title":"天行健瑜伽健身会所","lon":"121.51888","lat":"31.30732","category":"221","category_name":"健身中心","address":"杨浦区国和路346号江湾体育场内10号看台152号(近邯郸路)"},{"poiid":"B2094654D56FABF8499B","title":"平盛大厦","lon":"121.522","lat":"31.3087","category":"46","category_name":"楼宇","address":"丰台学城海鹰路1号,3号"},{"poiid":"B2094751DA6CA0FE469B","title":"长海医院急诊输液室","lon":"121.52372","lat":"31.308737","category":"162","category_name":"医院","address":"长海路168号"},{"poiid":"B2094654DB69A4FB4199","title":"重庆鸡公煲(长海店)","lon":"121.52284","lat":"31.30943","category":"71","category_name":"四川菜","address":"杨浦区长海路436号(黑山路)"},{"poiid":"B2094750D768A0F54793","title":"喜达石锅饭","lon":"121.525","lat":"31.3098","category":"96","category_name":"韩国料理","address":"杨浦区长海路437号(近长海医院)"},{"poiid":"B2094654DB64A6F94492","title":"上岛咖啡 长海路店 UBC Coffee","lon":"121.520090054","lat":"31.309342793","category":"260","category_name":"其他","address":"杨浦区长海路560号(国和路)"},{"poiid":"B2094757D66FA1FC419B","title":"第二军医大学附属长海医院中医科","lon":"121.527223997","lat":"31.3081795348","category":"162","category_name":"医院","address":"上海长海医院4楼"},{"poiid":"B2094757D568AAF5409C","title":"百联购物又一城","lon":"121.522566","lat":"31.306448","category":"249","category_name":"购物服务","address":"杨浦区淞沪路8号(近邯郸路)"},{"poiid":"B2094654D56FABFB4598","title":"政通路100弄小区","lon":"121.524","lat":"31.3102","category":"47","category_name":"住宅区","address":"政通路100弄"},{"poiid":"B2094654D56FAAFC4493","title":"上海体育学院(南门)","lon":"121.52511","lat":"31.30989","category":"656","category_name":"大门","address":"杨浦区长海路399"},{"poiid":"B2094655D26FA2FA429A","title":"同济中学东部校区","lon":"121.52309","lat":"31.30882","category":"52","category_name":"高等院校","address":"政立路20号(近同济中学体育馆)"},{"poiid":"B2094757D169A6FC4198","title":"云南米线","lon":"121.5228","lat":"31.30923","category":"68","category_name":"快餐厅","address":"杨浦区黑山路217号(近长海路)"},{"poiid":"B2094655D36CA5F9459D","title":"长海路黑山路","lon":"121.52231","lat":"31.30968","category":"38","category_name":"公交车站","address":""},{"poiid":"B2094757D068A1FF479D","title":"长恒花苑","lon":"121.524627103","lat":"31.3087202231","category":"47","category_name":"住宅区","address":"上海杨浦区恒仁路25弄"},{"poiid":"B2094654D56FABF44993","title":"好德便利No.977","lon":"121.52416","lat":"31.30943","category":"117","category_name":"便民商店/便利店","address":"恒仁路51号"},{"poiid":"B2094757D16DA5FA429E","title":"二军大聚贤阁","lon":"121.525574103","lat":"31.3066491797","category":"247","category_name":"餐饮美食","address":"上海青山路2号"},{"poiid":"B2094757D06AAAF84692","title":"长海三村","lon":"121.52231","lat":"31.309682","category":"252","category_name":"楼宇机构","address":"上海长海路黑山路"},{"poiid":"B2094654DB6BA2FB409D","title":"上海体育学院宿舍区(二号门)","lon":"121.52229","lat":"31.31236","category":"52","category_name":"高等院校","address":"杨浦区清源环路531"},{"poiid":"B2094750D26CA5F44593","title":"避风塘","lon":"121.5204989651532","lat":"31.30947483559236","category":"68","category_name":"快餐厅","address":"杨浦区政立路56号(近国和路)"},{"poiid":"B2094654D56FAAFC419F","title":"银叶苑","lon":"121.52207","lat":"31.309196","category":"47","category_name":"住宅区","address":"上海市杨浦区长海路442弄"},{"poiid":"B2094654DB65AAF8459A","title":"上海外国语大学夜大学五角场分部","lon":"121.52265","lat":"31.30958","category":"52","category_name":"高等院校","address":"杨浦区黑山路184号"},{"poiid":"B2094757D164A7FD4092","title":"长海医院口腔科","lon":"121.52552157","lat":"31.309668842","category":"162","category_name":"医院","address":"上海长海医院"},{"poiid":"B2094654D56FABF4489D","title":"长海四村(西门)","lon":"121.52411","lat":"31.30824","category":"47","category_name":"住宅区","address":"长海四村1-25号"},{"poiid":"B2094757D66DA7F84698","title":"兰州拉面 长海路","lon":"121.523166","lat":"31.309795","category":"247","category_name":"餐饮美食","address":"上海长海路507号"},{"poiid":"B2094654D56FABF4489F","title":"政立路6弄住宅小区(北门)","lon":"121.52387","lat":"31.30794","category":"47","category_name":"住宅区","address":"政立路6弄1-27号"},{"poiid":"B2094654D56FABF54198","title":"上海长海医院","lon":"121.5256","lat":"31.30936","category":"162","category_name":"医院","address":"上海杨浦区长海路168-174号(长海路)"},{"poiid":"B2094757D06FA3FD419E","title":"上海体育学院","lon":"121.52434","lat":"31.31238","category":"671","category_name":"高校中心点","address":"杨浦区长海路345号上海体育学院内(近嫩江路)"},{"poiid":"B2094654D56FAAFC4499","title":"上海体育学院学生宿舍区","lon":"121.52332","lat":"31.31174","category":"47","category_name":"住宅区","address":"恒仁路200"},{"poiid":"B2094757D068A7F4469B","title":"长海医院住院部","lon":"121.527867794","lat":"31.3088527016","category":"162","category_name":"医院","address":"上海杨浦区长海路174号(中原路)"},{"poiid":"B2094757D06FA7FF469A","title":"榕港海鲜大酒楼(杨浦店)","lon":"121.5190717330238","lat":"31.310897096007913","category":"88","category_name":"海鲜酒楼","address":"杨浦区国和路488号(近长海路)"},{"poiid":"B2094757D16BABFC429D","title":"第二军医大学校园","lon":"121.5283081","lat":"31.309152232","category":"500","category_name":"未知分类","address":"上海市杨浦区长海路174号"},{"poiid":"B2094757D06FA3F54692","title":"江湾游泳池","lon":"121.51884","lat":"31.30675","category":"220","category_name":"运动场所","address":"杨浦区国和路346号(近政立路)"},{"poiid":"B2094750D26DA2F84699","title":"五角场","lon":"121.5277200893403","lat":"31.30725801490106","category":"500","category_name":"未知分类","address":null},{"poiid":"B2094757D169A7F8489B","title":"长海医院六号楼","lon":"121.523173103","lat":"31.3084360171","category":"162","category_name":"医院","address":"上海长海路168号"},{"poiid":"B2094757D06FA4FD4393","title":"上海体育学院综合馆","lon":"121.52752","lat":"31.30951","category":"221","category_name":"健身中心","address":"杨浦区长海路345号上海体育学院内(近嫩江路)"},{"poiid":"B2094757D16CA5FD4699","title":"五角场镇","lon":"121.519556103","lat":"31.3113422779","category":"500","category_name":"未知分类","address":"上海市杨浦区政立路55号"},{"poiid":"B2094654D56FA1F9419B","title":"上海基督教沪东堂","lon":"121.51884","lat":"31.30827","category":"245","category_name":"教堂","address":"杨浦区国和路350号(国和路政立路)"},{"poiid":"B2094655D26AAAFA449D","title":"五角场万达广场","lon":"121.520106","lat":"31.305715","category":"72","category_name":"广东菜","address":"杨浦区邯郸路600号万达广场第一食品店5楼近淞沪路国宾路;;"},{"poiid":"B2094757D069A3FD469E","title":"85度C(长海店)","lon":"121.5244098","lat":"31.3096843","category":"112","category_name":"糕饼店","address":"杨浦区长海路469号(近恒仁路)"},{"poiid":"B2094757D068A4F94099","title":"肯德基 KFC (长海店)","lon":"121.52692775","lat":"31.309974424","category":"68","category_name":"快餐厅","address":"杨浦区长海路361号(近嫩江路)"},{"poiid":"B2094654D56FAAFC449D","title":"永和大王(长海路)","lon":"121.52509","lat":"31.30982","category":"68","category_name":"快餐厅","address":"杨浦区长海路399号(近长海医院)"},{"poiid":"B2094757D068A0FB459E","title":"红宝石(长海路店)","lon":"121.52468","lat":"31.309458","category":"67","category_name":"甜品店","address":"杨浦区长海路268号(近长海医院)"},{"poiid":"B2094757D06BA0F9439A","title":"第二军医大学继续教育学院","lon":"121.520428","lat":"31.305016","category":"253","category_name":"校园生活","address":"上海政通路41号"},{"poiid":"B2094654D56FABF84092","title":"沪东金融大厦","lon":"121.523","lat":"31.307","category":"46","category_name":"楼宇","address":"越秀区环市东路362-366号"},{"poiid":"B2094655D26CA6FE469F","title":"上海体育学院宿舍区(北一门)","lon":"121.52105","lat":"31.31241","category":"47","category_name":"住宅区","address":"清源环路501"},{"poiid":"B2094757D06FABFE4399","title":"五角场花鸟市场","lon":"121.52073","lat":"31.31018","category":"249","category_name":"购物服务","address":"上海杨浦区国和路493号(近长海医院)  "},{"poiid":"B2094654D56FABF4489E","title":"同济中学(政立路)","lon":"121.52196","lat":"31.3076","category":"55","category_name":"中学","address":"政立路20号"},{"poiid":"B2094655D26AA7FB449F","title":"江湾体育场足球场","lon":"121.51909","lat":"31.30708","category":"247","category_name":"餐饮美食","address":"杨浦区国和路346号江湾体育馆(近政立路)"},{"poiid":"B2094654D56EA4FC4198","title":"中环国际大厦","lon":"121.52","lat":"31.3093","category":"46","category_name":"楼宇","address":"上海市四川北路1851号"},{"poiid":"B2094757D16CA2FD4499","title":"长海路","lon":"121.523313103","lat":"31.3106352631","category":"500","category_name":"未知分类","address":"上海市杨浦区长海路"},{"poiid":"B2094757D06FA4FB4892","title":"天行健瑜伽健身会所","lon":"121.51888","lat":"31.30732","category":"221","category_name":"健身中心","address":"杨浦区国和路346号江湾体育场内10号看台152号(近邯郸路)"},{"poiid":"B2094654D56FABF8499B","title":"平盛大厦","lon":"121.522","lat":"31.3087","category":"46","category_name":"楼宇","address":"丰台学城海鹰路1号,3号"},{"poiid":"B2094751DA6CA0FE469B","title":"长海医院急诊输液室","lon":"121.52372","lat":"31.308737","category":"162","category_name":"医院","address":"长海路168号"},{"poiid":"B2094654DB69A4FB4199","title":"重庆鸡公煲(长海店)","lon":"121.52284","lat":"31.30943","category":"71","category_name":"四川菜","address":"杨浦区长海路436号(黑山路)"},{"poiid":"B2094750D768A0F54793","title":"喜达石锅饭","lon":"121.525","lat":"31.3098","category":"96","category_name":"韩国料理","address":"杨浦区长海路437号(近长海医院)"},{"poiid":"B2094654DB64A6F94492","title":"上岛咖啡 长海路店 UBC Coffee","lon":"121.520090054","lat":"31.309342793","category":"260","category_name":"其他","address":"杨浦区长海路560号(国和路)"},{"poiid":"B2094757D66FA1FC419B","title":"第二军医大学附属长海医院中医科","lon":"121.527223997","lat":"31.3081795348","category":"162","category_name":"医院","address":"上海长海医院4楼"},{"poiid":"B2094757D568AAF5409C","title":"百联购物又一城","lon":"121.522566","lat":"31.306448","category":"249","category_name":"购物服务","address":"杨浦区淞沪路8号(近邯郸路)"},{"poiid":"B2094654D56FABFB4598","title":"政通路100弄小区","lon":"121.524","lat":"31.3102","category":"47","category_name":"住宅区","address":"政通路100弄"},{"poiid":"B2094654D56FAAFC4493","title":"上海体育学院(南门)","lon":"121.52511","lat":"31.30989","category":"656","category_name":"大门","address":"杨浦区长海路399"},{"poiid":"B2094655D26FA2FA429A","title":"同济中学东部校区","lon":"121.52309","lat":"31.30882","category":"52","category_name":"高等院校","address":"政立路20号(近同济中学体育馆)"},{"poiid":"B2094757D169A6FC4198","title":"云南米线","lon":"121.5228","lat":"31.30923","category":"68","category_name":"快餐厅","address":"杨浦区黑山路217号(近长海路)"},{"poiid":"B2094655D36CA5F9459D","title":"长海路黑山路","lon":"121.52231","lat":"31.30968","category":"38","category_name":"公交车站","address":""},{"poiid":"B2094757D068A1FF479D","title":"长恒花苑","lon":"121.524627103","lat":"31.3087202231","category":"47","category_name":"住宅区","address":"上海杨浦区恒仁路25弄"},{"poiid":"B2094654D56FABF44993","title":"好德便利No.977","lon":"121.52416","lat":"31.30943","category":"117","category_name":"便民商店/便利店","address":"恒仁路51号"},{"poiid":"B2094757D16DA5FA429E","title":"二军大聚贤阁","lon":"121.525574103","lat":"31.3066491797","category":"247","category_name":"餐饮美食","address":"上海青山路2号"},{"poiid":"B2094757D06AAAF84692","title":"长海三村","lon":"121.52231","lat":"31.309682","category":"252","category_name":"楼宇机构","address":"上海长海路黑山路"},{"poiid":"B2094654DB6BA2FB409D","title":"上海体育学院宿舍区(二号门)","lon":"121.52229","lat":"31.31236","category":"52","category_name":"高等院校","address":"杨浦区清源环路531"},{"poiid":"B2094750D26CA5F44593","title":"避风塘","lon":"121.5204989651532","lat":"31.30947483559236","category":"68","category_name":"快餐厅","address":"杨浦区政立路56号(近国和路)"},{"poiid":"B2094654D56FAAFC419F","title":"银叶苑","lon":"121.52207","lat":"31.309196","category":"47","category_name":"住宅区","address":"上海市杨浦区长海路442弄"},{"poiid":"B2094654DB65AAF8459A","title":"上海外国语大学夜大学五角场分部","lon":"121.52265","lat":"31.30958","category":"52","category_name":"高等院校","address":"杨浦区黑山路184号"},{"poiid":"B2094757D164A7FD4092","title":"长海医院口腔科","lon":"121.52552157","lat":"31.309668842","category":"162","category_name":"医院","address":"上海长海医院"},{"poiid":"B2094654D56FABF4489D","title":"长海四村(西门)","lon":"121.52411","lat":"31.30824","category":"47","category_name":"住宅区","address":"长海四村1-25号"},{"poiid":"B2094757D66DA7F84698","title":"兰州拉面 长海路","lon":"121.523166","lat":"31.309795","category":"247","category_name":"餐饮美食","address":"上海长海路507号"},{"poiid":"B2094654D56FABF4489F","title":"政立路6弄住宅小区(北门)","lon":"121.52387","lat":"31.30794","category":"47","category_name":"住宅区","address":"政立路6弄1-27号"}]