[{"poiid":"B2094757D06EAAFF499E","title":"查餐厅(思南路店)","lon":"121.466037406","lat":"31.2186370109","category":"72","category_name":"广东菜","address":"卢湾区思南路30-4号(淮海中路南昌路间)"},{"poiid":"B2094757D66FA6FA489E","title":"光明邨大酒家","lon":"121.46748133","lat":"31.220763235","category":"76","category_name":"上海菜","address":"卢湾区淮海中路588号(近成都南路)"},{"poiid":"B2094757D06EAAFC4893","title":"hoF(思南路店)","lon":"121.46590428","lat":"31.218748659","category":"260","category_name":"其他","address":"卢湾区思南路30-1号(近淮海中路)"},{"poiid":"B2094753D76FAAFA449C","title":"上海滩国泰旗舰店","lon":"121.466011","lat":"31.216125","category":"249","category_name":"购物服务","address":"淮海中路868号"},{"poiid":"B209475CD564A7F84292","title":"上海滩新天地店","lon":"121.47463","lat":"31.22164","category":"119","category_name":"商场","address":"\"太仓路181弄新天地北里15号\r\n\""},{"poiid":"B209475CD564A7F8439E","title":"上海滩中信泰富店","lon":"121.45602","lat":"31.22851","category":"119","category_name":"商场","address":"\"南京西路1168号中信泰富广场，店铺号221.\r\n\""},{"poiid":"B2094757D06EAAFB449E","title":"Brick","lon":"121.466325054","lat":"31.218668793","category":"94","category_name":"西餐厅","address":"卢湾区思南路30号(近淮海中路)"},{"poiid":"B2094757D06EAAFE489E","title":"麻辣诱惑(淮海中路店)","lon":"121.46677","lat":"31.21946","category":"71","category_name":"四川菜","address":"淮海中路627-635号雪豹商城4-6楼近思南路"},{"poiid":"B2094757DB68A4FC439A","title":"香港谭仔三哥餐厅 成都南路店","lon":"121.468113","lat":"31.220826","category":"72","category_name":"广东菜","address":"卢湾区成都南路160号3楼(淮海中路口)"},{"poiid":"B2094757D66EA4FC4692","title":"上海歌城","lon":"121.46619473","lat":"31.219792077","category":"170","category_name":"KTV","address":"上海淮海路"},{"poiid":"B2094757D06FA1FA4793","title":"雕刻时光咖啡馆(南昌路店)","lon":"121.46835673","lat":"31.21899006","category":"260","category_name":"其他","address":"卢湾区南昌路116号(近雁荡路)"},{"poiid":"B2094757D06EAAFF449A","title":"万得城(淮海店)","lon":"121.46826372","lat":"31.220509474","category":"138","category_name":"家电电子卖场","address":"上海卢湾区淮海中路527号锦江国际购物中心1至6层"},{"poiid":"B2094757D06EAAFE4899","title":"阿迪达斯魔方(品牌旗舰店)","lon":"121.465890042","lat":"31.2197844069","category":"140","category_name":"体育用品店","address":"卢湾区淮海中路691号(近思南路)"},{"poiid":"B2094757D06FA1FA4593","title":"原庐餐厅","lon":"121.46624973","lat":"31.218654053","category":"260","category_name":"其他","address":"卢湾区思南路30号3楼(近淮海中路)"},{"poiid":"B2094654DB69A5FD4099","title":"好乐迪(顺昌路旗舰店)","lon":"121.46782","lat":"31.22111","category":"170","category_name":"KTV","address":"卢湾区顺昌路2号(近太仓路新天地)"},{"poiid":"B2094757D06FA3FB4698","title":"NPC(New Project Center)","lon":"121.466313665","lat":"31.2212256013","category":"141","category_name":"服装鞋帽皮具店","address":"上海卢湾区长乐路139号11室(近成都南路)"},{"poiid":"B2094757D06EAAFA4992","title":"H&amp;M(淮海中路店)","lon":"121.4661","lat":"31.21939","category":"141","category_name":"服装鞋帽皮具店","address":"上海卢湾区淮海中路645-659号B1-3F(近思南路)"},{"poiid":"B2094654DB6BA4FE4393","title":"瑞金大厦","lon":"121.469","lat":"31.2198","category":"46","category_name":"楼宇","address":"上海茂名南路205号"},{"poiid":"B2094757D06FA0FE409B","title":"Bricco cafe(淮海路店)","lon":"121.46821","lat":"31.22075","category":"94","category_name":"西餐厅","address":"卢湾区成都南路158号甲(近淮海中路)"},{"poiid":"B2094757D06FABF4439F","title":"windows bar","lon":"121.46728327","lat":"31.22062747","category":"172","category_name":"酒吧","address":"上海淮海中路万得城11楼"},{"poiid":"B2094654D564A5F94292","title":"上海社会科学院(淮海中路)","lon":"121.46636","lat":"31.2213","category":"191","category_name":"科研机构","address":"卢湾区淮海中路622弄7号(长春食品店对面)"},{"poiid":"B2094750DA64AAF44893","title":"TAP","lon":"121.467506","lat":"31.21873","category":"247","category_name":"餐饮美食","address":"卢湾区南昌路150号(近思南路)"},{"poiid":"B2094757D06FA4FD4299","title":"天香火锅楼(淮海店)","lon":"121.46836","lat":"31.22093","category":"86","category_name":"火锅店","address":"卢湾区淮海中路542弄103室(近成都南路)"},{"poiid":"B2094757D06FA5F94599","title":"上海弄堂餐厅","lon":"121.4663","lat":"31.21856","category":"75","category_name":"浙江菜","address":"卢湾区思南路8号(近淮海中路)"},{"poiid":"B2094455DA65A3F94993","title":"很高兴遇见你","lon":"121.46669","lat":"31.21983","category":"247","category_name":"餐饮美食","address":"上海市 淮海中路776号3楼"},{"poiid":"B2094654DA6DABFB4498","title":"科学会堂国际会议厅","lon":"121.4671","lat":"31.21827","category":"185","category_name":"会展中心","address":"南昌路57甲"},{"poiid":"B2094757D069A7FA4793","title":"新割烹小熊屋","lon":"121.467968054","lat":"31.221256793","category":"95","category_name":"日本料理","address":"卢湾区成都南路105-117号(近淮海中路)"},{"poiid":"B2094757D06AA6FD4099","title":"共青团中央机关旧址纪念馆","lon":"121.46864","lat":"31.22028","category":"179","category_name":"音乐厅","address":"上海卢湾区淮海中路567弄2号(近成都南路)"},{"poiid":"B2094757D06FA7F8419B","title":"长春食品商店(淮海路店)","lon":"121.46634","lat":"31.21909","category":"119","category_name":"商场","address":"卢湾区淮海中路615号(近思南路)"},{"poiid":"B2094757D06FAAFB479D","title":"哈尔滨食品厂(淮海中路店)","lon":"121.46718","lat":"31.21948","category":"112","category_name":"糕饼店","address":"卢湾区淮海中路613号(近思南路)"},{"poiid":"B2094750D269A0FD4593","title":"恒基海鲜火锅","lon":"121.4681","lat":"31.22087","category":"86","category_name":"火锅店","address":"卢湾区成都南路127号(近淮海路)"},{"poiid":"B209475CD769A2FC4899","title":"咖咖奥咖啡店（淮海店）","lon":"121.466003","lat":"31.2187","category":"500","category_name":"未知分类","address":"上海市 上海市思南路8号"},{"poiid":"B2094757D664A4FF4492","title":"丝袜奶茶 南京西路店 Denny House","lon":"121.46797","lat":"31.22142","category":"67","category_name":"甜品店","address":"静安区南京西路1025弄静安别墅128号(近南汇路)"},{"poiid":"B2094757D069A3FD499C","title":"屋里香食府","lon":"121.46633599591","lat":"31.218219436369","category":"76","category_name":"上海菜","address":"卢湾区南昌路164号(近思南路)"},{"poiid":"B2094757D06FA4F8479A","title":"City Shop 城市超市(时代广场店)","lon":"121.46779018","lat":"31.22007985","category":"118","category_name":"超级市场","address":"上海卢湾区淮海中路99号大上海时代广场B1楼(近柳林路)"},{"poiid":"B2094757D069AAF5419A","title":"公主婚纱摄影","lon":"121.46825","lat":"31.22044","category":"249","category_name":"购物服务","address":"卢湾区淮海中路566号(近成都南路)查看地图"},{"poiid":"B2094757D06FABFC4298","title":"食尚食屋 华狮店 YOI-TEKO","lon":"121.465295054","lat":"31.219463793","category":"95","category_name":"日本料理","address":"卢湾区淮海中路688号华狮购物中心B1楼04单元(近思南路)"},{"poiid":"B2094757D464A7FC4499","title":"本杰比餐厅 淮海中路店 PUNJABI","lon":"121.466376","lat":"31.219755","category":"102","category_name":"印度风味","address":"卢湾区淮海中路627号5楼(近思南路)"},{"poiid":"B2094757D069A1F84293","title":"GOD HANDS 日系发型设计(长乐店)","lon":"121.46659","lat":"31.22159","category":"148","category_name":"美容美发店","address":"上海卢湾区长乐路139号9小号2楼(近成都南路)"},{"poiid":"B2094757D068A1F54192","title":"香港三联书店","lon":"121.46689","lat":"31.21987","category":"125","category_name":"书店","address":"卢湾区淮海中路624号(近思南路)"},{"poiid":"B2094750DB6FA4FD429B","title":"上海书城淮海路店","lon":"121.466621","lat":"31.219999","category":"249","category_name":"购物服务","address":null},{"poiid":"B2094655D26AABFF4998","title":"上海御花园酒店","lon":"121.46636","lat":"31.2213","category":"250","category_name":"公园户外","address":"卢湾区淮海中路622弄7号(近思南路)"},{"poiid":"B2094757D06FA7F4469A","title":"85度C(成都店)","lon":"121.46835","lat":"31.22084","category":"112","category_name":"糕饼店","address":"卢湾区成都南路127号(近淮海中路)"},{"poiid":"B2094757D06FA2FB4798","title":"C&amp;A(淮海路店)","lon":"121.46745","lat":"31.21959","category":"141","category_name":"服装鞋帽皮具店","address":"上海卢湾区淮海中路627-641号(近思南路)  "},{"poiid":"B2094757D065A3FA4999","title":"南昌路雁荡路","lon":"121.46713473","lat":"31.218317046","category":"500","category_name":"未知分类","address":"上海市卢湾区南昌路"},{"poiid":"B209475CDA64A1FE489C","title":"the cafe kacao","lon":"121.465904","lat":"31.219303","category":"500","category_name":"未知分类","address":"上海市 思南路18号"},{"poiid":"B2094757D069A0F4459C","title":"上海科学会堂","lon":"121.46645073","lat":"31.221138106","category":"500","category_name":"未知分类","address":"上海市卢湾区南昌路59号"},{"poiid":"B2094757D66CABF8479C","title":"火山碳烤鱼","lon":"121.46700273","lat":"31.218205043","category":"247","category_name":"餐饮美食","address":"上海市卢湾区思南路雁荡路"},{"poiid":"B2094750D36FA0FE449F","title":"宫一美发沙龙","lon":"121.46743","lat":"31.218681","category":"263","category_name":"公司","address":"思南路南昌路152号"},{"poiid":"B2094750DB69A7FC4199","title":"查餐厅","lon":"121.466995","lat":"31.218326","category":"500","category_name":"未知分类","address":null},{"poiid":"B2094757D06EAAFF499E","title":"查餐厅(思南路店)","lon":"121.466037406","lat":"31.2186370109","category":"72","category_name":"广东菜","address":"卢湾区思南路30-4号(淮海中路南昌路间)"},{"poiid":"B2094757D66FA6FA489E","title":"光明邨大酒家","lon":"121.46748133","lat":"31.220763235","category":"76","category_name":"上海菜","address":"卢湾区淮海中路588号(近成都南路)"},{"poiid":"B2094757D06EAAFC4893","title":"hoF(思南路店)","lon":"121.46590428","lat":"31.218748659","category":"260","category_name":"其他","address":"卢湾区思南路30-1号(近淮海中路)"},{"poiid":"B2094753D76FAAFA449C","title":"上海滩国泰旗舰店","lon":"121.466011","lat":"31.216125","category":"249","category_name":"购物服务","address":"淮海中路868号"},{"poiid":"B209475CD564A7F84292","title":"上海滩新天地店","lon":"121.47463","lat":"31.22164","category":"119","category_name":"商场","address":"\"太仓路181弄新天地北里15号\r\n\""},{"poiid":"B209475CD564A7F8439E","title":"上海滩中信泰富店","lon":"121.45602","lat":"31.22851","category":"119","category_name":"商场","address":"\"南京西路1168号中信泰富广场，店铺号221.\r\n\""},{"poiid":"B2094757D06EAAFB449E","title":"Brick","lon":"121.466325054","lat":"31.218668793","category":"94","category_name":"西餐厅","address":"卢湾区思南路30号(近淮海中路)"},{"poiid":"B2094757D06EAAFE489E","title":"麻辣诱惑(淮海中路店)","lon":"121.46677","lat":"31.21946","category":"71","category_name":"四川菜","address":"淮海中路627-635号雪豹商城4-6楼近思南路"},{"poiid":"B2094757DB68A4FC439A","title":"香港谭仔三哥餐厅 成都南路店","lon":"121.468113","lat":"31.220826","category":"72","category_name":"广东菜","address":"卢湾区成都南路160号3楼(淮海中路口)"},{"poiid":"B2094757D66EA4FC4692","title":"上海歌城","lon":"121.46619473","lat":"31.219792077","category":"170","category_name":"KTV","address":"上海淮海路"},{"poiid":"B2094757D06FA1FA4793","title":"雕刻时光咖啡馆(南昌路店)","lon":"121.46835673","lat":"31.21899006","category":"260","category_name":"其他","address":"卢湾区南昌路116号(近雁荡路)"},{"poiid":"B2094757D06EAAFF449A","title":"万得城(淮海店)","lon":"121.46826372","lat":"31.220509474","category":"138","category_name":"家电电子卖场","address":"上海卢湾区淮海中路527号锦江国际购物中心1至6层"},{"poiid":"B2094757D06EAAFE4899","title":"阿迪达斯魔方(品牌旗舰店)","lon":"121.465890042","lat":"31.2197844069","category":"140","category_name":"体育用品店","address":"卢湾区淮海中路691号(近思南路)"},{"poiid":"B2094757D06FA1FA4593","title":"原庐餐厅","lon":"121.46624973","lat":"31.218654053","category":"260","category_name":"其他","address":"卢湾区思南路30号3楼(近淮海中路)"},{"poiid":"B2094654DB69A5FD4099","title":"好乐迪(顺昌路旗舰店)","lon":"121.46782","lat":"31.22111","category":"170","category_name":"KTV","address":"卢湾区顺昌路2号(近太仓路新天地)"},{"poiid":"B2094757D06FA3FB4698","title":"NPC(New Project Center)","lon":"121.466313665","lat":"31.2212256013","category":"141","category_name":"服装鞋帽皮具店","address":"上海卢湾区长乐路139号11室(近成都南路)"},{"poiid":"B2094757D06EAAFA4992","title":"H&amp;M(淮海中路店)","lon":"121.4661","lat":"31.21939","category":"141","category_name":"服装鞋帽皮具店","address":"上海卢湾区淮海中路645-659号B1-3F(近思南路)"},{"poiid":"B2094654DB6BA4FE4393","title":"瑞金大厦","lon":"121.469","lat":"31.2198","category":"46","category_name":"楼宇","address":"上海茂名南路205号"},{"poiid":"B2094757D06FA0FE409B","title":"Bricco cafe(淮海路店)","lon":"121.46821","lat":"31.22075","category":"94","category_name":"西餐厅","address":"卢湾区成都南路158号甲(近淮海中路)"},{"poiid":"B2094757D06FABF4439F","title":"windows bar","lon":"121.46728327","lat":"31.22062747","category":"172","category_name":"酒吧","address":"上海淮海中路万得城11楼"},{"poiid":"B2094654D564A5F94292","title":"上海社会科学院(淮海中路)","lon":"121.46636","lat":"31.2213","category":"191","category_name":"科研机构","address":"卢湾区淮海中路622弄7号(长春食品店对面)"},{"poiid":"B2094750DA64AAF44893","title":"TAP","lon":"121.467506","lat":"31.21873","category":"247","category_name":"餐饮美食","address":"卢湾区南昌路150号(近思南路)"},{"poiid":"B2094757D06FA4FD4299","title":"天香火锅楼(淮海店)","lon":"121.46836","lat":"31.22093","category":"86","category_name":"火锅店","address":"卢湾区淮海中路542弄103室(近成都南路)"},{"poiid":"B2094757D06FA5F94599","title":"上海弄堂餐厅","lon":"121.4663","lat":"31.21856","category":"75","category_name":"浙江菜","address":"卢湾区思南路8号(近淮海中路)"},{"poiid":"B2094455DA65A3F94993","title":"很高兴遇见你","lon":"121.46669","lat":"31.21983","category":"247","category_name":"餐饮美食","address":"上海市 淮海中路776号3楼"},{"poiid":"B2094654DA6DABFB4498","title":"科学会堂国际会议厅","lon":"121.4671","lat":"31.21827","category":"185","category_name":"会展中心","address":"南昌路57甲"},{"poiid":"B2094757D069A7FA4793","title":"新割烹小熊屋","lon":"121.467968054","lat":"31.221256793","category":"95","category_name":"日本料理","address":"卢湾区成都南路105-117号(近淮海中路)"},{"poiid":"B2094757D06AA6FD4099","title":"共青团中央机关旧址纪念馆","lon":"121.46864","lat":"31.22028","category":"179","category_name":"音乐厅","address":"上海卢湾区淮海中路567弄2号(近成都南路)"},{"poiid":"B2094757D06FA7F8419B","title":"长春食品商店(淮海路店)","lon":"121.46634","lat":"31.21909","category":"119","category_name":"商场","address":"卢湾区淮海中路615号(近思南路)"},{"poiid":"B2094757D06FAAFB479D","title":"哈尔滨食品厂(淮海中路店)","lon":"121.46718","lat":"31.21948","category":"112","category_name":"糕饼店","address":"卢湾区淮海中路613号(近思南路)"},{"poiid":"B2094750D269A0FD4593","title":"恒基海鲜火锅","lon":"121.4681","lat":"31.22087","category":"86","category_name":"火锅店","address":"卢湾区成都南路127号(近淮海路)"},{"poiid":"B209475CD769A2FC4899","title":"咖咖奥咖啡店（淮海店）","lon":"121.466003","lat":"31.2187","category":"500","category_name":"未知分类","address":"上海市 上海市思南路8号"},{"poiid":"B2094757D664A4FF4492","title":"丝袜奶茶 南京西路店 Denny House","lon":"121.46797","lat":"31.22142","category":"67","category_name":"甜品店","address":"静安区南京西路1025弄静安别墅128号(近南汇路)"},{"poiid":"B2094757D069A3FD499C","title":"屋里香食府","lon":"121.46633599591","lat":"31.218219436369","category":"76","category_name":"上海菜","address":"卢湾区南昌路164号(近思南路)"},{"poiid":"B2094757D06FA4F8479A","title":"City Shop 城市超市(时代广场店)","lon":"121.46779018","lat":"31.22007985","category":"118","category_name":"超级市场","address":"上海卢湾区淮海中路99号大上海时代广场B1楼(近柳林路)"},{"poiid":"B2094757D069AAF5419A","title":"公主婚纱摄影","lon":"121.46825","lat":"31.22044","category":"249","category_name":"购物服务","address":"卢湾区淮海中路566号(近成都南路)查看地图"},{"poiid":"B2094757D06FABFC4298","title":"食尚食屋 华狮店 YOI-TEKO","lon":"121.465295054","lat":"31.219463793","category":"95","category_name":"日本料理","address":"卢湾区淮海中路688号华狮购物中心B1楼04单元(近思南路)"},{"poiid":"B2094757D464A7FC4499","title":"本杰比餐厅 淮海中路店 PUNJABI","lon":"121.466376","lat":"31.219755","category":"102","category_name":"印度风味","address":"卢湾区淮海中路627号5楼(近思南路)"},{"poiid":"B2094757D069A1F84293","title":"GOD HANDS 日系发型设计(长乐店)","lon":"121.46659","lat":"31.22159","category":"148","category_name":"美容美发店","address":"上海卢湾区长乐路139号9小号2楼(近成都南路)"},{"poiid":"B2094757D068A1F54192","title":"香港三联书店","lon":"121.46689","lat":"31.21987","category":"125","category_name":"书店","address":"卢湾区淮海中路624号(近思南路)"},{"poiid":"B2094750DB6FA4FD429B","title":"上海书城淮海路店","lon":"121.466621","lat":"31.219999","category":"249","category_name":"购物服务","address":null},{"poiid":"B2094655D26AABFF4998","title":"上海御花园酒店","lon":"121.46636","lat":"31.2213","category":"250","category_name":"公园户外","address":"卢湾区淮海中路622弄7号(近思南路)"},{"poiid":"B2094757D06FA7F4469A","title":"85度C(成都店)","lon":"121.46835","lat":"31.22084","category":"112","category_name":"糕饼店","address":"卢湾区成都南路127号(近淮海中路)"},{"poiid":"B2094757D06FA2FB4798","title":"C&amp;A(淮海路店)","lon":"121.46745","lat":"31.21959","category":"141","category_name":"服装鞋帽皮具店","address":"上海卢湾区淮海中路627-641号(近思南路)  "},{"poiid":"B2094757D065A3FA4999","title":"南昌路雁荡路","lon":"121.46713473","lat":"31.218317046","category":"500","category_name":"未知分类","address":"上海市卢湾区南昌路"},{"poiid":"B209475CDA64A1FE489C","title":"the cafe kacao","lon":"121.465904","lat":"31.219303","category":"500","category_name":"未知分类","address":"上海市 思南路18号"},{"poiid":"B2094757D069A0F4459C","title":"上海科学会堂","lon":"121.46645073","lat":"31.221138106","category":"500","category_name":"未知分类","address":"上海市卢湾区南昌路59号"},{"poiid":"B2094757D66CABF8479C","title":"火山碳烤鱼","lon":"121.46700273","lat":"31.218205043","category":"247","category_name":"餐饮美食","address":"上海市卢湾区思南路雁荡路"},{"poiid":"B2094750D36FA0FE449F","title":"宫一美发沙龙","lon":"121.46743","lat":"31.218681","category":"263","category_name":"公司","address":"思南路南昌路152号"},{"poiid":"B2094750DB69A7FC4199","title":"查餐厅","lon":"121.466995","lat":"31.218326","category":"500","category_name":"未知分类","address":null},{"poiid":"B2094757D06EAAFF499E","title":"查餐厅(思南路店)","lon":"121.466037406","lat":"31.2186370109","category":"72","category_name":"广东菜","address":"卢湾区思南路30-4号(淮海中路南昌路间)"},{"poiid":"B2094757D66FA6FA489E","title":"光明邨大酒家","lon":"121.46748133","lat":"31.220763235","category":"76","category_name":"上海菜","address":"卢湾区淮海中路588号(近成都南路)"},{"poiid":"B2094757D06EAAFC4893","title":"hoF(思南路店)","lon":"121.46590428","lat":"31.218748659","category":"260","category_name":"其他","address":"卢湾区思南路30-1号(近淮海中路)"},{"poiid":"B2094753D76FAAFA449C","title":"上海滩国泰旗舰店","lon":"121.466011","lat":"31.216125","category":"249","category_name":"购物服务","address":"淮海中路868号"},{"poiid":"B209475CD564A7F84292","title":"上海滩新天地店","lon":"121.47463","lat":"31.22164","category":"119","category_name":"商场","address":"\"太仓路181弄新天地北里15号\r\n\""},{"poiid":"B209475CD564A7F8439E","title":"上海滩中信泰富店","lon":"121.45602","lat":"31.22851","category":"119","category_name":"商场","address":"\"南京西路1168号中信泰富广场，店铺号221.\r\n\""},{"poiid":"B2094757D06EAAFB449E","title":"Brick","lon":"121.466325054","lat":"31.218668793","category":"94","category_name":"西餐厅","address":"卢湾区思南路30号(近淮海中路)"},{"poiid":"B2094757D06EAAFE489E","title":"麻辣诱惑(淮海中路店)","lon":"121.46677","lat":"31.21946","category":"71","category_name":"四川菜","address":"淮海中路627-635号雪豹商城4-6楼近思南路"},{"poiid":"B2094757DB68A4FC439A","title":"香港谭仔三哥餐厅 成都南路店","lon":"121.468113","lat":"31.220826","category":"72","category_name":"广东菜","address":"卢湾区成都南路160号3楼(淮海中路口)"},{"poiid":"B2094757D66EA4FC4692","title":"上海歌城","lon":"121.46619473","lat":"31.219792077","category":"170","category_name":"KTV","address":"上海淮海路"},{"poiid":"B2094757D06FA1FA4793","title":"雕刻时光咖啡馆(南昌路店)","lon":"121.46835673","lat":"31.21899006","category":"260","category_name":"其他","address":"卢湾区南昌路116号(近雁荡路)"},{"poiid":"B2094757D06EAAFF449A","title":"万得城(淮海店)","lon":"121.46826372","lat":"31.220509474","category":"138","category_name":"家电电子卖场","address":"上海卢湾区淮海中路527号锦江国际购物中心1至6层"},{"poiid":"B2094757D06EAAFE4899","title":"阿迪达斯魔方(品牌旗舰店)","lon":"121.465890042","lat":"31.2197844069","category":"140","category_name":"体育用品店","address":"卢湾区淮海中路691号(近思南路)"},{"poiid":"B2094757D06FA1FA4593","title":"原庐餐厅","lon":"121.46624973","lat":"31.218654053","category":"260","category_name":"其他","address":"卢湾区思南路30号3楼(近淮海中路)"},{"poiid":"B2094654DB69A5FD4099","title":"好乐迪(顺昌路旗舰店)","lon":"121.46782","lat":"31.22111","category":"170","category_name":"KTV","address":"卢湾区顺昌路2号(近太仓路新天地)"},{"poiid":"B2094757D06FA3FB4698","title":"NPC(New Project Center)","lon":"121.466313665","lat":"31.2212256013","category":"141","category_name":"服装鞋帽皮具店","address":"上海卢湾区长乐路139号11室(近成都南路)"},{"poiid":"B2094757D06EAAFA4992","title":"H&amp;M(淮海中路店)","lon":"121.4661","lat":"31.21939","category":"141","category_name":"服装鞋帽皮具店","address":"上海卢湾区淮海中路645-659号B1-3F(近思南路)"},{"poiid":"B2094654DB6BA4FE4393","title":"瑞金大厦","lon":"121.469","lat":"31.2198","category":"46","category_name":"楼宇","address":"上海茂名南路205号"},{"poiid":"B2094757D06FA0FE409B","title":"Bricco cafe(淮海路店)","lon":"121.46821","lat":"31.22075","category":"94","category_name":"西餐厅","address":"卢湾区成都南路158号甲(近淮海中路)"},{"poiid":"B2094757D06FABF4439F","title":"windows bar","lon":"121.46728327","lat":"31.22062747","category":"172","category_name":"酒吧","address":"上海淮海中路万得城11楼"},{"poiid":"B2094654D564A5F94292","title":"上海社会科学院(淮海中路)","lon":"121.46636","lat":"31.2213","category":"191","category_name":"科研机构","address":"卢湾区淮海中路622弄7号(长春食品店对面)"},{"poiid":"B2094750DA64AAF44893","title":"TAP","lon":"121.467506","lat":"31.21873","category":"247","category_name":"餐饮美食","address":"卢湾区南昌路150号(近思南路)"},{"poiid":"B2094757D06FA4FD4299","title":"天香火锅楼(淮海店)","lon":"121.46836","lat":"31.22093","category":"86","category_name":"火锅店","address":"卢湾区淮海中路542弄103室(近成都南路)"},{"poiid":"B2094757D06FA5F94599","title":"上海弄堂餐厅","lon":"121.4663","lat":"31.21856","category":"75","category_name":"浙江菜","address":"卢湾区思南路8号(近淮海中路)"},{"poiid":"B2094455DA65A3F94993","title":"很高兴遇见你","lon":"121.46669","lat":"31.21983","category":"247","category_name":"餐饮美食","address":"上海市 淮海中路776号3楼"},{"poiid":"B2094654DA6DABFB4498","title":"科学会堂国际会议厅","lon":"121.4671","lat":"31.21827","category":"185","category_name":"会展中心","address":"南昌路57甲"},{"poiid":"B2094757D069A7FA4793","title":"新割烹小熊屋","lon":"121.467968054","lat":"31.221256793","category":"95","category_name":"日本料理","address":"卢湾区成都南路105-117号(近淮海中路)"},{"poiid":"B2094757D06AA6FD4099","title":"共青团中央机关旧址纪念馆","lon":"121.46864","lat":"31.22028","category":"179","category_name":"音乐厅","address":"上海卢湾区淮海中路567弄2号(近成都南路)"},{"poiid":"B2094757D06FA7F8419B","title":"长春食品商店(淮海路店)","lon":"121.46634","lat":"31.21909","category":"119","category_name":"商场","address":"卢湾区淮海中路615号(近思南路)"},{"poiid":"B2094757D06FAAFB479D","title":"哈尔滨食品厂(淮海中路店)","lon":"121.46718","lat":"31.21948","category":"112","category_name":"糕饼店","address":"卢湾区淮海中路613号(近思南路)"},{"poiid":"B2094750D269A0FD4593","title":"恒基海鲜火锅","lon":"121.4681","lat":"31.22087","category":"86","category_name":"火锅店","address":"卢湾区成都南路127号(近淮海路)"},{"poiid":"B209475CD769A2FC4899","title":"咖咖奥咖啡店（淮海店）","lon":"121.466003","lat":"31.2187","category":"500","category_name":"未知分类","address":"上海市 上海市思南路8号"},{"poiid":"B2094757D664A4FF4492","title":"丝袜奶茶 南京西路店 Denny House","lon":"121.46797","lat":"31.22142","category":"67","category_name":"甜品店","address":"静安区南京西路1025弄静安别墅128号(近南汇路)"},{"poiid":"B2094757D069A3FD499C","title":"屋里香食府","lon":"121.46633599591","lat":"31.218219436369","category":"76","category_name":"上海菜","address":"卢湾区南昌路164号(近思南路)"},{"poiid":"B2094757D06FA4F8479A","title":"City Shop 城市超市(时代广场店)","lon":"121.46779018","lat":"31.22007985","category":"118","category_name":"超级市场","address":"上海卢湾区淮海中路99号大上海时代广场B1楼(近柳林路)"},{"poiid":"B2094757D069AAF5419A","title":"公主婚纱摄影","lon":"121.46825","lat":"31.22044","category":"249","category_name":"购物服务","address":"卢湾区淮海中路566号(近成都南路)查看地图"},{"poiid":"B2094757D06FABFC4298","title":"食尚食屋 华狮店 YOI-TEKO","lon":"121.465295054","lat":"31.219463793","category":"95","category_name":"日本料理","address":"卢湾区淮海中路688号华狮购物中心B1楼04单元(近思南路)"},{"poiid":"B2094757D464A7FC4499","title":"本杰比餐厅 淮海中路店 PUNJABI","lon":"121.466376","lat":"31.219755","category":"102","category_name":"印度风味","address":"卢湾区淮海中路627号5楼(近思南路)"},{"poiid":"B2094757D069A1F84293","title":"GOD HANDS 日系发型设计(长乐店)","lon":"121.46659","lat":"31.22159","category":"148","category_name":"美容美发店","address":"上海卢湾区长乐路139号9小号2楼(近成都南路)"},{"poiid":"B2094757D068A1F54192","title":"香港三联书店","lon":"121.46689","lat":"31.21987","category":"125","category_name":"书店","address":"卢湾区淮海中路624号(近思南路)"},{"poiid":"B2094750DB6FA4FD429B","title":"上海书城淮海路店","lon":"121.466621","lat":"31.219999","category":"249","category_name":"购物服务","address":null},{"poiid":"B2094655D26AABFF4998","title":"上海御花园酒店","lon":"121.46636","lat":"31.2213","category":"250","category_name":"公园户外","address":"卢湾区淮海中路622弄7号(近思南路)"},{"poiid":"B2094757D06FA7F4469A","title":"85度C(成都店)","lon":"121.46835","lat":"31.22084","category":"112","category_name":"糕饼店","address":"卢湾区成都南路127号(近淮海中路)"},{"poiid":"B2094757D06FA2FB4798","title":"C&amp;A(淮海路店)","lon":"121.46745","lat":"31.21959","category":"141","category_name":"服装鞋帽皮具店","address":"上海卢湾区淮海中路627-641号(近思南路)  "},{"poiid":"B2094757D065A3FA4999","title":"南昌路雁荡路","lon":"121.46713473","lat":"31.218317046","category":"500","category_name":"未知分类","address":"上海市卢湾区南昌路"},{"poiid":"B209475CDA64A1FE489C","title":"the cafe kacao","lon":"121.465904","lat":"31.219303","category":"500","category_name":"未知分类","address":"上海市 思南路18号"},{"poiid":"B2094757D069A0F4459C","title":"上海科学会堂","lon":"121.46645073","lat":"31.221138106","category":"500","category_name":"未知分类","address":"上海市卢湾区南昌路59号"},{"poiid":"B2094757D66CABF8479C","title":"火山碳烤鱼","lon":"121.46700273","lat":"31.218205043","category":"247","category_name":"餐饮美食","address":"上海市卢湾区思南路雁荡路"},{"poiid":"B2094750D36FA0FE449F","title":"宫一美发沙龙","lon":"121.46743","lat":"31.218681","category":"263","category_name":"公司","address":"思南路南昌路152号"},{"poiid":"B2094750DB69A7FC4199","title":"查餐厅","lon":"121.466995","lat":"31.218326","category":"500","category_name":"未知分类","address":null},{"poiid":"B2094757D06EAAFF499E","title":"查餐厅(思南路店)","lon":"121.466037406","lat":"31.2186370109","category":"72","category_name":"广东菜","address":"卢湾区思南路30-4号(淮海中路南昌路间)"},{"poiid":"B2094757D66FA6FA489E","title":"光明邨大酒家","lon":"121.46748133","lat":"31.220763235","category":"76","category_name":"上海菜","address":"卢湾区淮海中路588号(近成都南路)"},{"poiid":"B2094757D06EAAFC4893","title":"hoF(思南路店)","lon":"121.46590428","lat":"31.218748659","category":"260","category_name":"其他","address":"卢湾区思南路30-1号(近淮海中路)"},{"poiid":"B2094753D76FAAFA449C","title":"上海滩国泰旗舰店","lon":"121.466011","lat":"31.216125","category":"249","category_name":"购物服务","address":"淮海中路868号"},{"poiid":"B209475CD564A7F84292","title":"上海滩新天地店","lon":"121.47463","lat":"31.22164","category":"119","category_name":"商场","address":"\"太仓路181弄新天地北里15号\r\n\""},{"poiid":"B209475CD564A7F8439E","title":"上海滩中信泰富店","lon":"121.45602","lat":"31.22851","category":"119","category_name":"商场","address":"\"南京西路1168号中信泰富广场，店铺号221.\r\n\""},{"poiid":"B2094757D06EAAFB449E","title":"Brick","lon":"121.466325054","lat":"31.218668793","category":"94","category_name":"西餐厅","address":"卢湾区思南路30号(近淮海中路)"},{"poiid":"B2094757D06EAAFE489E","title":"麻辣诱惑(淮海中路店)","lon":"121.46677","lat":"31.21946","category":"71","category_name":"四川菜","address":"淮海中路627-635号雪豹商城4-6楼近思南路"},{"poiid":"B2094757DB68A4FC439A","title":"香港谭仔三哥餐厅 成都南路店","lon":"121.468113","lat":"31.220826","category":"72","category_name":"广东菜","address":"卢湾区成都南路160号3楼(淮海中路口)"},{"poiid":"B2094757D66EA4FC4692","title":"上海歌城","lon":"121.46619473","lat":"31.219792077","category":"170","category_name":"KTV","address":"上海淮海路"},{"poiid":"B2094757D06FA1FA4793","title":"雕刻时光咖啡馆(南昌路店)","lon":"121.46835673","lat":"31.21899006","category":"260","category_name":"其他","address":"卢湾区南昌路116号(近雁荡路)"},{"poiid":"B2094757D06EAAFF449A","title":"万得城(淮海店)","lon":"121.46826372","lat":"31.220509474","category":"138","category_name":"家电电子卖场","address":"上海卢湾区淮海中路527号锦江国际购物中心1至6层"},{"poiid":"B2094757D06EAAFE4899","title":"阿迪达斯魔方(品牌旗舰店)","lon":"121.465890042","lat":"31.2197844069","category":"140","category_name":"体育用品店","address":"卢湾区淮海中路691号(近思南路)"},{"poiid":"B2094757D06FA1FA4593","title":"原庐餐厅","lon":"121.46624973","lat":"31.218654053","category":"260","category_name":"其他","address":"卢湾区思南路30号3楼(近淮海中路)"},{"poiid":"B2094654DB69A5FD4099","title":"好乐迪(顺昌路旗舰店)","lon":"121.46782","lat":"31.22111","category":"170","category_name":"KTV","address":"卢湾区顺昌路2号(近太仓路新天地)"},{"poiid":"B2094757D06FA3FB4698","title":"NPC(New Project Center)","lon":"121.466313665","lat":"31.2212256013","category":"141","category_name":"服装鞋帽皮具店","address":"上海卢湾区长乐路139号11室(近成都南路)"},{"poiid":"B2094757D06EAAFA4992","title":"H&amp;M(淮海中路店)","lon":"121.4661","lat":"31.21939","category":"141","category_name":"服装鞋帽皮具店","address":"上海卢湾区淮海中路645-659号B1-3F(近思南路)"},{"poiid":"B2094654DB6BA4FE4393","title":"瑞金大厦","lon":"121.469","lat":"31.2198","category":"46","category_name":"楼宇","address":"上海茂名南路205号"},{"poiid":"B2094757D06FA0FE409B","title":"Bricco cafe(淮海路店)","lon":"121.46821","lat":"31.22075","category":"94","category_name":"西餐厅","address":"卢湾区成都南路158号甲(近淮海中路)"},{"poiid":"B2094757D06FABF4439F","title":"windows bar","lon":"121.46728327","lat":"31.22062747","category":"172","category_name":"酒吧","address":"上海淮海中路万得城11楼"},{"poiid":"B2094654D564A5F94292","title":"上海社会科学院(淮海中路)","lon":"121.46636","lat":"31.2213","category":"191","category_name":"科研机构","address":"卢湾区淮海中路622弄7号(长春食品店对面)"},{"poiid":"B2094750DA64AAF44893","title":"TAP","lon":"121.467506","lat":"31.21873","category":"247","category_name":"餐饮美食","address":"卢湾区南昌路150号(近思南路)"},{"poiid":"B2094757D06FA4FD4299","title":"天香火锅楼(淮海店)","lon":"121.46836","lat":"31.22093","category":"86","category_name":"火锅店","address":"卢湾区淮海中路542弄103室(近成都南路)"},{"poiid":"B2094757D06FA5F94599","title":"上海弄堂餐厅","lon":"121.4663","lat":"31.21856","category":"75","category_name":"浙江菜","address":"卢湾区思南路8号(近淮海中路)"},{"poiid":"B2094455DA65A3F94993","title":"很高兴遇见你","lon":"121.46669","lat":"31.21983","category":"247","category_name":"餐饮美食","address":"上海市 淮海中路776号3楼"},{"poiid":"B2094654DA6DABFB4498","title":"科学会堂国际会议厅","lon":"121.4671","lat":"31.21827","category":"185","category_name":"会展中心","address":"南昌路57甲"},{"poiid":"B2094757D069A7FA4793","title":"新割烹小熊屋","lon":"121.467968054","lat":"31.221256793","category":"95","category_name":"日本料理","address":"卢湾区成都南路105-117号(近淮海中路)"},{"poiid":"B2094757D06AA6FD4099","title":"共青团中央机关旧址纪念馆","lon":"121.46864","lat":"31.22028","category":"179","category_name":"音乐厅","address":"上海卢湾区淮海中路567弄2号(近成都南路)"},{"poiid":"B2094757D06FA7F8419B","title":"长春食品商店(淮海路店)","lon":"121.46634","lat":"31.21909","category":"119","category_name":"商场","address":"卢湾区淮海中路615号(近思南路)"},{"poiid":"B2094757D06FAAFB479D","title":"哈尔滨食品厂(淮海中路店)","lon":"121.46718","lat":"31.21948","category":"112","category_name":"糕饼店","address":"卢湾区淮海中路613号(近思南路)"},{"poiid":"B2094750D269A0FD4593","title":"恒基海鲜火锅","lon":"121.4681","lat":"31.22087","category":"86","category_name":"火锅店","address":"卢湾区成都南路127号(近淮海路)"},{"poiid":"B209475CD769A2FC4899","title":"咖咖奥咖啡店（淮海店）","lon":"121.466003","lat":"31.2187","category":"500","category_name":"未知分类","address":"上海市 上海市思南路8号"},{"poiid":"B2094757D664A4FF4492","title":"丝袜奶茶 南京西路店 Denny House","lon":"121.46797","lat":"31.22142","category":"67","category_name":"甜品店","address":"静安区南京西路1025弄静安别墅128号(近南汇路)"},{"poiid":"B2094757D069A3FD499C","title":"屋里香食府","lon":"121.46633599591","lat":"31.218219436369","category":"76","category_name":"上海菜","address":"卢湾区南昌路164号(近思南路)"},{"poiid":"B2094757D06FA4F8479A","title":"City Shop 城市超市(时代广场店)","lon":"121.46779018","lat":"31.22007985","category":"118","category_name":"超级市场","address":"上海卢湾区淮海中路99号大上海时代广场B1楼(近柳林路)"},{"poiid":"B2094757D069AAF5419A","title":"公主婚纱摄影","lon":"121.46825","lat":"31.22044","category":"249","category_name":"购物服务","address":"卢湾区淮海中路566号(近成都南路)查看地图"},{"poiid":"B2094757D06FABFC4298","title":"食尚食屋 华狮店 YOI-TEKO","lon":"121.465295054","lat":"31.219463793","category":"95","category_name":"日本料理","address":"卢湾区淮海中路688号华狮购物中心B1楼04单元(近思南路)"},{"poiid":"B2094757D464A7FC4499","title":"本杰比餐厅 淮海中路店 PUNJABI","lon":"121.466376","lat":"31.219755","category":"102","category_name":"印度风味","address":"卢湾区淮海中路627号5楼(近思南路)"},{"poiid":"B2094757D069A1F84293","title":"GOD HANDS 日系发型设计(长乐店)","lon":"121.46659","lat":"31.22159","category":"148","category_name":"美容美发店","address":"上海卢湾区长乐路139号9小号2楼(近成都南路)"},{"poiid":"B2094757D068A1F54192","title":"香港三联书店","lon":"121.46689","lat":"31.21987","category":"125","category_name":"书店","address":"卢湾区淮海中路624号(近思南路)"},{"poiid":"B2094750DB6FA4FD429B","title":"上海书城淮海路店","lon":"121.466621","lat":"31.219999","category":"249","category_name":"购物服务","address":null},{"poiid":"B2094655D26AABFF4998","title":"上海御花园酒店","lon":"121.46636","lat":"31.2213","category":"250","category_name":"公园户外","address":"卢湾区淮海中路622弄7号(近思南路)"},{"poiid":"B2094757D06FA7F4469A","title":"85度C(成都店)","lon":"121.46835","lat":"31.22084","category":"112","category_name":"糕饼店","address":"卢湾区成都南路127号(近淮海中路)"},{"poiid":"B2094757D06FA2FB4798","title":"C&amp;A(淮海路店)","lon":"121.46745","lat":"31.21959","category":"141","category_name":"服装鞋帽皮具店","address":"上海卢湾区淮海中路627-641号(近思南路)  "},{"poiid":"B2094757D065A3FA4999","title":"南昌路雁荡路","lon":"121.46713473","lat":"31.218317046","category":"500","category_name":"未知分类","address":"上海市卢湾区南昌路"},{"poiid":"B209475CDA64A1FE489C","title":"the cafe kacao","lon":"121.465904","lat":"31.219303","category":"500","category_name":"未知分类","address":"上海市 思南路18号"},{"poiid":"B2094757D069A0F4459C","title":"上海科学会堂","lon":"121.46645073","lat":"31.221138106","category":"500","category_name":"未知分类","address":"上海市卢湾区南昌路59号"},{"poiid":"B2094757D66CABF8479C","title":"火山碳烤鱼","lon":"121.46700273","lat":"31.218205043","category":"247","category_name":"餐饮美食","address":"上海市卢湾区思南路雁荡路"},{"poiid":"B2094750D36FA0FE449F","title":"宫一美发沙龙","lon":"121.46743","lat":"31.218681","category":"263","category_name":"公司","address":"思南路南昌路152号"},{"poiid":"B2094750DB69A7FC4199","title":"查餐厅","lon":"121.466995","lat":"31.218326","category":"500","category_name":"未知分类","address":null},{"poiid":"B2094757D06EAAFF499E","title":"查餐厅(思南路店)","lon":"121.466037406","lat":"31.2186370109","category":"72","category_name":"广东菜","address":"卢湾区思南路30-4号(淮海中路南昌路间)"},{"poiid":"B2094757D66FA6FA489E","title":"光明邨大酒家","lon":"121.46748133","lat":"31.220763235","category":"76","category_name":"上海菜","address":"卢湾区淮海中路588号(近成都南路)"},{"poiid":"B2094757D06EAAFC4893","title":"hoF(思南路店)","lon":"121.46590428","lat":"31.218748659","category":"260","category_name":"其他","address":"卢湾区思南路30-1号(近淮海中路)"},{"poiid":"B2094753D76FAAFA449C","title":"上海滩国泰旗舰店","lon":"121.466011","lat":"31.216125","category":"249","category_name":"购物服务","address":"淮海中路868号"},{"poiid":"B209475CD564A7F84292","title":"上海滩新天地店","lon":"121.47463","lat":"31.22164","category":"119","category_name":"商场","address":"\"太仓路181弄新天地北里15号\r\n\""},{"poiid":"B209475CD564A7F8439E","title":"上海滩中信泰富店","lon":"121.45602","lat":"31.22851","category":"119","category_name":"商场","address":"\"南京西路1168号中信泰富广场，店铺号221.\r\n\""},{"poiid":"B2094757D06EAAFB449E","title":"Brick","lon":"121.466325054","lat":"31.218668793","category":"94","category_name":"西餐厅","address":"卢湾区思南路30号(近淮海中路)"},{"poiid":"B2094757D06EAAFE489E","title":"麻辣诱惑(淮海中路店)","lon":"121.46677","lat":"31.21946","category":"71","category_name":"四川菜","address":"淮海中路627-635号雪豹商城4-6楼近思南路"},{"poiid":"B2094757DB68A4FC439A","title":"香港谭仔三哥餐厅 成都南路店","lon":"121.468113","lat":"31.220826","category":"72","category_name":"广东菜","address":"卢湾区成都南路160号3楼(淮海中路口)"},{"poiid":"B2094757D66EA4FC4692","title":"上海歌城","lon":"121.46619473","lat":"31.219792077","category":"170","category_name":"KTV","address":"上海淮海路"},{"poiid":"B2094757D06FA1FA4793","title":"雕刻时光咖啡馆(南昌路店)","lon":"121.46835673","lat":"31.21899006","category":"260","category_name":"其他","address":"卢湾区南昌路116号(近雁荡路)"},{"poiid":"B2094757D06EAAFF449A","title":"万得城(淮海店)","lon":"121.46826372","lat":"31.220509474","category":"138","category_name":"家电电子卖场","address":"上海卢湾区淮海中路527号锦江国际购物中心1至6层"},{"poiid":"B2094757D06EAAFE4899","title":"阿迪达斯魔方(品牌旗舰店)","lon":"121.465890042","lat":"31.2197844069","category":"140","category_name":"体育用品店","address":"卢湾区淮海中路691号(近思南路)"},{"poiid":"B2094757D06FA1FA4593","title":"原庐餐厅","lon":"121.46624973","lat":"31.218654053","category":"260","category_name":"其他","address":"卢湾区思南路30号3楼(近淮海中路)"},{"poiid":"B2094654DB69A5FD4099","title":"好乐迪(顺昌路旗舰店)","lon":"121.46782","lat":"31.22111","category":"170","category_name":"KTV","address":"卢湾区顺昌路2号(近太仓路新天地)"},{"poiid":"B2094757D06FA3FB4698","title":"NPC(New Project Center)","lon":"121.466313665","lat":"31.2212256013","category":"141","category_name":"服装鞋帽皮具店","address":"上海卢湾区长乐路139号11室(近成都南路)"},{"poiid":"B2094757D06EAAFA4992","title":"H&amp;M(淮海中路店)","lon":"121.4661","lat":"31.21939","category":"141","category_name":"服装鞋帽皮具店","address":"上海卢湾区淮海中路645-659号B1-3F(近思南路)"},{"poiid":"B2094654DB6BA4FE4393","title":"瑞金大厦","lon":"121.469","lat":"31.2198","category":"46","category_name":"楼宇","address":"上海茂名南路205号"},{"poiid":"B2094757D06FA0FE409B","title":"Bricco cafe(淮海路店)","lon":"121.46821","lat":"31.22075","category":"94","category_name":"西餐厅","address":"卢湾区成都南路158号甲(近淮海中路)"},{"poiid":"B2094757D06FABF4439F","title":"windows bar","lon":"121.46728327","lat":"31.22062747","category":"172","category_name":"酒吧","address":"上海淮海中路万得城11楼"},{"poiid":"B2094654D564A5F94292","title":"上海社会科学院(淮海中路)","lon":"121.46636","lat":"31.2213","category":"191","category_name":"科研机构","address":"卢湾区淮海中路622弄7号(长春食品店对面)"},{"poiid":"B2094750DA64AAF44893","title":"TAP","lon":"121.467506","lat":"31.21873","category":"247","category_name":"餐饮美食","address":"卢湾区南昌路150号(近思南路)"},{"poiid":"B2094757D06FA4FD4299","title":"天香火锅楼(淮海店)","lon":"121.46836","lat":"31.22093","category":"86","category_name":"火锅店","address":"卢湾区淮海中路542弄103室(近成都南路)"},{"poiid":"B2094757D06FA5F94599","title":"上海弄堂餐厅","lon":"121.4663","lat":"31.21856","category":"75","category_name":"浙江菜","address":"卢湾区思南路8号(近淮海中路)"},{"poiid":"B2094455DA65A3F94993","title":"很高兴遇见你","lon":"121.46669","lat":"31.21983","category":"247","category_name":"餐饮美食","address":"上海市 淮海中路776号3楼"},{"poiid":"B2094654DA6DABFB4498","title":"科学会堂国际会议厅","lon":"121.4671","lat":"31.21827","category":"185","category_name":"会展中心","address":"南昌路57甲"},{"poiid":"B2094757D069A7FA4793","title":"新割烹小熊屋","lon":"121.467968054","lat":"31.221256793","category":"95","category_name":"日本料理","address":"卢湾区成都南路105-117号(近淮海中路)"},{"poiid":"B2094757D06AA6FD4099","title":"共青团中央机关旧址纪念馆","lon":"121.46864","lat":"31.22028","category":"179","category_name":"音乐厅","address":"上海卢湾区淮海中路567弄2号(近成都南路)"},{"poiid":"B2094757D06FA7F8419B","title":"长春食品商店(淮海路店)","lon":"121.46634","lat":"31.21909","category":"119","category_name":"商场","address":"卢湾区淮海中路615号(近思南路)"},{"poiid":"B2094757D06FAAFB479D","title":"哈尔滨食品厂(淮海中路店)","lon":"121.46718","lat":"31.21948","category":"112","category_name":"糕饼店","address":"卢湾区淮海中路613号(近思南路)"},{"poiid":"B2094750D269A0FD4593","title":"恒基海鲜火锅","lon":"121.4681","lat":"31.22087","category":"86","category_name":"火锅店","address":"卢湾区成都南路127号(近淮海路)"},{"poiid":"B209475CD769A2FC4899","title":"咖咖奥咖啡店（淮海店）","lon":"121.466003","lat":"31.2187","category":"500","category_name":"未知分类","address":"上海市 上海市思南路8号"},{"poiid":"B2094757D664A4FF4492","title":"丝袜奶茶 南京西路店 Denny House","lon":"121.46797","lat":"31.22142","category":"67","category_name":"甜品店","address":"静安区南京西路1025弄静安别墅128号(近南汇路)"},{"poiid":"B2094757D069A3FD499C","title":"屋里香食府","lon":"121.46633599591","lat":"31.218219436369","category":"76","category_name":"上海菜","address":"卢湾区南昌路164号(近思南路)"},{"poiid":"B2094757D06FA4F8479A","title":"City Shop 城市超市(时代广场店)","lon":"121.46779018","lat":"31.22007985","category":"118","category_name":"超级市场","address":"上海卢湾区淮海中路99号大上海时代广场B1楼(近柳林路)"},{"poiid":"B2094757D069AAF5419A","title":"公主婚纱摄影","lon":"121.46825","lat":"31.22044","category":"249","category_name":"购物服务","address":"卢湾区淮海中路566号(近成都南路)查看地图"},{"poiid":"B2094757D06FABFC4298","title":"食尚食屋 华狮店 YOI-TEKO","lon":"121.465295054","lat":"31.219463793","category":"95","category_name":"日本料理","address":"卢湾区淮海中路688号华狮购物中心B1楼04单元(近思南路)"},{"poiid":"B2094757D464A7FC4499","title":"本杰比餐厅 淮海中路店 PUNJABI","lon":"121.466376","lat":"31.219755","category":"102","category_name":"印度风味","address":"卢湾区淮海中路627号5楼(近思南路)"},{"poiid":"B2094757D069A1F84293","title":"GOD HANDS 日系发型设计(长乐店)","lon":"121.46659","lat":"31.22159","category":"148","category_name":"美容美发店","address":"上海卢湾区长乐路139号9小号2楼(近成都南路)"},{"poiid":"B2094757D068A1F54192","title":"香港三联书店","lon":"121.46689","lat":"31.21987","category":"125","category_name":"书店","address":"卢湾区淮海中路624号(近思南路)"},{"poiid":"B2094750DB6FA4FD429B","title":"上海书城淮海路店","lon":"121.466621","lat":"31.219999","category":"249","category_name":"购物服务","address":null},{"poiid":"B2094655D26AABFF4998","title":"上海御花园酒店","lon":"121.46636","lat":"31.2213","category":"250","category_name":"公园户外","address":"卢湾区淮海中路622弄7号(近思南路)"},{"poiid":"B2094757D06FA7F4469A","title":"85度C(成都店)","lon":"121.46835","lat":"31.22084","category":"112","category_name":"糕饼店","address":"卢湾区成都南路127号(近淮海中路)"},{"poiid":"B2094757D06FA2FB4798","title":"C&amp;A(淮海路店)","lon":"121.46745","lat":"31.21959","category":"141","category_name":"服装鞋帽皮具店","address":"上海卢湾区淮海中路627-641号(近思南路)  "},{"poiid":"B2094757D065A3FA4999","title":"南昌路雁荡路","lon":"121.46713473","lat":"31.218317046","category":"500","category_name":"未知分类","address":"上海市卢湾区南昌路"},{"poiid":"B209475CDA64A1FE489C","title":"the cafe kacao","lon":"121.465904","lat":"31.219303","category":"500","category_name":"未知分类","address":"上海市 思南路18号"},{"poiid":"B2094757D069A0F4459C","title":"上海科学会堂","lon":"121.46645073","lat":"31.221138106","category":"500","category_name":"未知分类","address":"上海市卢湾区南昌路59号"},{"poiid":"B2094757D66CABF8479C","title":"火山碳烤鱼","lon":"121.46700273","lat":"31.218205043","category":"247","category_name":"餐饮美食","address":"上海市卢湾区思南路雁荡路"},{"poiid":"B2094750D36FA0FE449F","title":"宫一美发沙龙","lon":"121.46743","lat":"31.218681","category":"263","category_name":"公司","address":"思南路南昌路152号"},{"poiid":"B2094750DB69A7FC4199","title":"查餐厅","lon":"121.466995","lat":"31.218326","category":"500","category_name":"未知分类","address":null}]