[{"poiid":"B2094655D26BA7FC469A","title":"1933老场坊","lon":"121.49146","lat":"31.25448","category":"247","category_name":"餐饮美食","address":"虹口区溧阳路611号"},{"poiid":"B2094654D56EA3FB469A","title":"海泰时代大厦","lon":"121.492","lat":"31.2576","category":"46","category_name":"楼宇","address":"丰台学城海鹰路1号,3号"},{"poiid":"B2094757D068ABFE4599","title":"中信广场","lon":"121.49155956183","lat":"31.253803450588","category":"46","category_name":"楼宇","address":"虹口区四川北路859号(近海宁路)"},{"poiid":"B209475CD564A7F84392","title":"上海滩浦东香格里拉店","lon":"121.50058","lat":"31.23634","category":"119","category_name":"商场","address":"浦东富成路33号香格里拉酒店内大堂层"},{"poiid":"B2094757D06FA0FC459A","title":"苏浙汇（1933店）","lon":"121.49207337","lat":"31.254523102","category":"75","category_name":"浙江菜","address":"虹口区沙泾路10号1933老场坊3楼(近溧阳路)"},{"poiid":"B2094757D06FA3F8409E","title":"森林湾大厦","lon":"121.494","lat":"31.2562","category":"46","category_name":"楼宇","address":"铁西卫工南街8―5号"},{"poiid":"B2094757D06FA7F9409F","title":"上汽培训中心","lon":"121.491014","lat":"31.258986","category":"253","category_name":"校园生活","address":"上海同嘉路79号"},{"poiid":"B2094757D168A5F8439D","title":"老洋行1913创意园区","lon":"121.491155103","lat":"31.2548950978","category":"46","category_name":"楼宇","address":"虹口区哈尔滨路160号(近海伦路)"},{"poiid":"B2094655D26AABFA469C","title":"上海九龙宾馆","lon":"121.49209","lat":"31.25397","category":"250","category_name":"公园户外","address":"上海虹口区溧阳路601号(近吴淞路)"},{"poiid":"B2094752D26BABFC419F","title":"星梦剧场（SNH48专属剧场）","lon":"121.490448","lat":"31.256707","category":"180","category_name":"剧场","address":"上海市 嘉兴路267号近哈尔滨路"},{"poiid":"B2094757D06FA0FC419C","title":"海泰国际大厦","lon":"121.491952","lat":"31.255121","category":"46","category_name":"楼宇","address":"朝阳区北三环东路与京顺路交接处路口北侧"},{"poiid":"B2094757D16AA5FC4392","title":"1933老杨坊—空中剧场","lon":"121.492348103","lat":"31.2545270902","category":"500","category_name":"未知分类","address":"上海市虹口区沙径路10号1933老杨坊四楼"},{"poiid":"B2094757D66DA3FF499F","title":"1933","lon":"121.492579103","lat":"31.2544390883","category":"500","category_name":"未知分类","address":"上海市虹口区四平路"},{"poiid":"B2094757D66CA3F9469D","title":"红场俄式西餐厅","lon":"121.491549803","lat":"31.2556281132","category":"94","category_name":"西餐厅","address":"虹口区沙泾路10号1933老场坊1号楼308室(近九龙宾馆)"},{"poiid":"B2094757D069A3F5489C","title":"上海汽车工业(集团)总公司培训中心","lon":"121.491016723","lat":"31.25898445","category":"46","category_name":"楼宇","address":"上海虹口区同嘉路79号"},{"poiid":"B2094757D06FA6FC4392","title":"La Douceur","lon":"121.49150192","lat":"31.254127613","category":"67","category_name":"甜品店","address":"虹口区溧阳路611号上海1933老场坊105单元(近周家嘴路)"},{"poiid":"B2094757D068A3FF4098","title":"狠牛独创牛肉面馆 沙泾路店 Noodle Bull","lon":"121.492426054","lat":"31.256805793","category":"68","category_name":"快餐厅","address":"虹口区沙泾路10号1933老场坊1号楼234室(近溧阳路)"},{"poiid":"B2094752D36DA5F94793","title":"上海星美国际影城(虹口国际店)","lon":"121.49265","lat":"31.25661","category":"178","category_name":"电影院","address":"上海市虹口区海宁路330号"},{"poiid":"B2094654DB6AA7FE459F","title":"豪龙阁舟山渔村(周家嘴路店)","lon":"121.49253","lat":"31.25324","category":"75","category_name":"浙江菜","address":"虹口区周家嘴路2号(溧阳路口)"},{"poiid":"B2094757D068A2F94998","title":"国际商厦","lon":"121.49205205017","lat":"31.256364309751","category":"46","category_name":"楼宇","address":"虹口区海宁路,吴淞路口"},{"poiid":"B2094757D068A2F44199","title":"四平路海伦路","lon":"121.488717","lat":"31.257259","category":"260","category_name":"其他","address":"上海四平路海伦路嘉兴路"},{"poiid":"B2094757D16AA2FB449B","title":"上海市第一人民医院12F","lon":"121.4913274","lat":"31.25310036","category":"162","category_name":"医院","address":"上海海宁路100号"},{"poiid":"B2094750D76DA4FD439F","title":"之会所","lon":"121.492","lat":"31.2567","category":"72","category_name":"广东菜","address":"虹口区辽宁路46号D座国家音乐产业基地内(近1933老场坊)"},{"poiid":"B2094750D464ABF8409A","title":"central perk","lon":"121.489921","lat":"31.255508","category":"247","category_name":"餐饮美食","address":"1913,老洋行"},{"poiid":"B2094654D56DAAFE469B","title":"凯虹家园","lon":"121.49252","lat":"31.255821","category":"47","category_name":"住宅区","address":"梧州路299弄1-11号"},{"poiid":"B2094655D26CA0FF459E","title":"1933购物中心","lon":"121.49207","lat":"31.25452","category":"119","category_name":"商场","address":"沙泾路10"},{"poiid":"B2094757D16CA7FE429E","title":"崇明私房菜","lon":"121.494195403","lat":"31.2537960749","category":"76","category_name":"上海菜","address":"虹口区周家嘴路328号(近新建路)"},{"poiid":"B2094757D068A2F5499E","title":"新亚大包(海宁路店)","lon":"121.49153","lat":"31.25322","category":"68","category_name":"快餐厅","address":"虹口区海宁路6-8号(近九龙路)"},{"poiid":"B2094757D568AAF4409C","title":"红意艺术主题意大利餐厅","lon":"121.49145209","lat":"31.25446615","category":"94","category_name":"西餐厅","address":"虹口区溧阳路611号1933老场坊1栋2楼(近九龙宾馆)"},{"poiid":"B2094654D56EA1FD4199","title":"爱思大厦","lon":"121.494","lat":"31.2564","category":"46","category_name":"楼宇","address":"上海海宁路307号"},{"poiid":"B2094655D26DA6F84192","title":"1930鑫鑫创意园","lon":"121.49142","lat":"31.25516","category":"46","category_name":"楼宇","address":"虹口区辽宁路244号(近沙泾路)"},{"poiid":"B2094654D56DAAFE449C","title":"中皇广场","lon":"121.49439","lat":"31.25442","category":"47","category_name":"住宅区","address":"中皇广场(中皇.外滩)位于虹口周家嘴路(近金田路,梧州路)"},{"poiid":"B2094757D068AAFA479D","title":"Formula Pilota","lon":"121.492148103","lat":"31.2547370945","category":"68","category_name":"快餐厅","address":"虹口区溧阳路611号1933老场坊1-108号铺(近九龙宾馆)"},{"poiid":"B2094753DA6AA6FA4393","title":"SNH48星梦剧院","lon":"121.490242","lat":"31.258754","category":"500","category_name":"未知分类","address":"上海市 嘉兴路267号"},{"poiid":"B2094757D16CA5F9419F","title":"上海一柴发电机有限公司","lon":"121.491400769","lat":"31.2563601284","category":"46","category_name":"楼宇","address":"上海海伦路178号1405室"},{"poiid":"B2094757D568A0FB4592","title":"牛市","lon":"121.49145833","lat":"31.25447754","category":"260","category_name":"其他","address":"虹口区溧阳路611号1933老场坊1-203号铺(溧阳路沙泾路)"},{"poiid":"B2094750DA6CA1F5459B","title":"国家音乐产业基地","lon":"121.491798","lat":"31.256912","category":"252","category_name":"楼宇机构","address":"辽宁路46号"},{"poiid":"B209475CD76AA7FD489E","title":"虹口足球场","lon":"121.49224","lat":"31.256166","category":"220","category_name":"运动场所","address":"上海市 东体育会路"},{"poiid":"B209475DDA6DABF5459F","title":"天真蓝照相馆","lon":"121.489831","lat":"31.255537","category":"611","category_name":"照相馆","address":"虹口区哈尔滨路159号（近海伦路地铁站）"},{"poiid":"B2094752D56BA7FD4998","title":"陆家嘴正大广场","lon":"121.493009","lat":"31.254678","category":"500","category_name":"未知分类","address":null},{"poiid":"B2094757D06AA5FB4698","title":"红意意大利餐厅","lon":"121.4919041","lat":"31.25405408","category":"500","category_name":"未知分类","address":"1933老场坊 上海市虹口区虬江路"},{"poiid":"B2094654D56DAAFF4693","title":"大东饭店","lon":"121.49034","lat":"31.25649","category":"68","category_name":"快餐厅","address":"虹口区嘉兴路(近哈尔滨路)"},{"poiid":"B2094454D36BA3FE449F","title":"zoo coffee","lon":"121.493743","lat":"31.258939","category":"247","category_name":"餐饮美食","address":"上海市 四平路150号"},{"poiid":"B2094654D56DAAF9409F","title":"上海交通大学附属第一人民医院国际医疗保健中心","lon":"121.49018","lat":"31.25374","category":"162","category_name":"医院","address":"九龙路585"},{"poiid":"B2094654DB64A4FC479A","title":"福海商厦","lon":"121.491","lat":"31.2571","category":"46","category_name":"楼宇","address":"四川北路1318号"},{"poiid":"B2094654D56DAAFF4192","title":"上海音像公司","lon":"121.4917","lat":"31.25666","category":"263","category_name":"公司","address":"辽宁路46"},{"poiid":"B209475DD06AA4FB4392","title":"来福士","lon":"121.49234","lat":"31.256427","category":"500","category_name":"未知分类","address":"上海市 人民广场"},{"poiid":"B2094757D16FA6F4459E","title":"597路大连路长阳路站","lon":"121.4915077","lat":"31.257439051","category":"38","category_name":"公交车站","address":"上海大连路(近长阳路)"},{"poiid":"B209475CDA6AA6FA409A","title":"SNH48星梦剧院","lon":"121.490661","lat":"31.256475","category":"500","category_name":"未知分类","address":"上海市 上海市虹口区嘉兴路267号"},{"poiid":"B2094757D06AA1FE4892","title":"福德商务中心","lon":"121.49136338984","lat":"31.256703426905","category":"500","category_name":"未知分类","address":"上海四川北路1688号"},{"poiid":"B2094655D26BA7FC469A","title":"1933老场坊","lon":"121.49146","lat":"31.25448","category":"247","category_name":"餐饮美食","address":"虹口区溧阳路611号"},{"poiid":"B2094654D56EA3FB469A","title":"海泰时代大厦","lon":"121.492","lat":"31.2576","category":"46","category_name":"楼宇","address":"丰台学城海鹰路1号,3号"},{"poiid":"B2094757D068ABFE4599","title":"中信广场","lon":"121.49155956183","lat":"31.253803450588","category":"46","category_name":"楼宇","address":"虹口区四川北路859号(近海宁路)"},{"poiid":"B209475CD564A7F84392","title":"上海滩浦东香格里拉店","lon":"121.50058","lat":"31.23634","category":"119","category_name":"商场","address":"浦东富成路33号香格里拉酒店内大堂层"},{"poiid":"B2094757D06FA0FC459A","title":"苏浙汇（1933店）","lon":"121.49207337","lat":"31.254523102","category":"75","category_name":"浙江菜","address":"虹口区沙泾路10号1933老场坊3楼(近溧阳路)"},{"poiid":"B2094757D06FA3F8409E","title":"森林湾大厦","lon":"121.494","lat":"31.2562","category":"46","category_name":"楼宇","address":"铁西卫工南街8―5号"},{"poiid":"B2094757D06FA7F9409F","title":"上汽培训中心","lon":"121.491014","lat":"31.258986","category":"253","category_name":"校园生活","address":"上海同嘉路79号"},{"poiid":"B2094757D168A5F8439D","title":"老洋行1913创意园区","lon":"121.491155103","lat":"31.2548950978","category":"46","category_name":"楼宇","address":"虹口区哈尔滨路160号(近海伦路)"},{"poiid":"B2094655D26AABFA469C","title":"上海九龙宾馆","lon":"121.49209","lat":"31.25397","category":"250","category_name":"公园户外","address":"上海虹口区溧阳路601号(近吴淞路)"},{"poiid":"B2094752D26BABFC419F","title":"星梦剧场（SNH48专属剧场）","lon":"121.490448","lat":"31.256707","category":"180","category_name":"剧场","address":"上海市 嘉兴路267号近哈尔滨路"},{"poiid":"B2094757D06FA0FC419C","title":"海泰国际大厦","lon":"121.491952","lat":"31.255121","category":"46","category_name":"楼宇","address":"朝阳区北三环东路与京顺路交接处路口北侧"},{"poiid":"B2094757D16AA5FC4392","title":"1933老杨坊—空中剧场","lon":"121.492348103","lat":"31.2545270902","category":"500","category_name":"未知分类","address":"上海市虹口区沙径路10号1933老杨坊四楼"},{"poiid":"B2094757D66DA3FF499F","title":"1933","lon":"121.492579103","lat":"31.2544390883","category":"500","category_name":"未知分类","address":"上海市虹口区四平路"},{"poiid":"B2094757D66CA3F9469D","title":"红场俄式西餐厅","lon":"121.491549803","lat":"31.2556281132","category":"94","category_name":"西餐厅","address":"虹口区沙泾路10号1933老场坊1号楼308室(近九龙宾馆)"},{"poiid":"B2094757D069A3F5489C","title":"上海汽车工业(集团)总公司培训中心","lon":"121.491016723","lat":"31.25898445","category":"46","category_name":"楼宇","address":"上海虹口区同嘉路79号"},{"poiid":"B2094757D06FA6FC4392","title":"La Douceur","lon":"121.49150192","lat":"31.254127613","category":"67","category_name":"甜品店","address":"虹口区溧阳路611号上海1933老场坊105单元(近周家嘴路)"},{"poiid":"B2094757D068A3FF4098","title":"狠牛独创牛肉面馆 沙泾路店 Noodle Bull","lon":"121.492426054","lat":"31.256805793","category":"68","category_name":"快餐厅","address":"虹口区沙泾路10号1933老场坊1号楼234室(近溧阳路)"},{"poiid":"B2094752D36DA5F94793","title":"上海星美国际影城(虹口国际店)","lon":"121.49265","lat":"31.25661","category":"178","category_name":"电影院","address":"上海市虹口区海宁路330号"},{"poiid":"B2094654DB6AA7FE459F","title":"豪龙阁舟山渔村(周家嘴路店)","lon":"121.49253","lat":"31.25324","category":"75","category_name":"浙江菜","address":"虹口区周家嘴路2号(溧阳路口)"},{"poiid":"B2094757D068A2F94998","title":"国际商厦","lon":"121.49205205017","lat":"31.256364309751","category":"46","category_name":"楼宇","address":"虹口区海宁路,吴淞路口"},{"poiid":"B2094757D068A2F44199","title":"四平路海伦路","lon":"121.488717","lat":"31.257259","category":"260","category_name":"其他","address":"上海四平路海伦路嘉兴路"},{"poiid":"B2094757D16AA2FB449B","title":"上海市第一人民医院12F","lon":"121.4913274","lat":"31.25310036","category":"162","category_name":"医院","address":"上海海宁路100号"},{"poiid":"B2094750D76DA4FD439F","title":"之会所","lon":"121.492","lat":"31.2567","category":"72","category_name":"广东菜","address":"虹口区辽宁路46号D座国家音乐产业基地内(近1933老场坊)"},{"poiid":"B2094750D464ABF8409A","title":"central perk","lon":"121.489921","lat":"31.255508","category":"247","category_name":"餐饮美食","address":"1913,老洋行"},{"poiid":"B2094654D56DAAFE469B","title":"凯虹家园","lon":"121.49252","lat":"31.255821","category":"47","category_name":"住宅区","address":"梧州路299弄1-11号"},{"poiid":"B2094655D26CA0FF459E","title":"1933购物中心","lon":"121.49207","lat":"31.25452","category":"119","category_name":"商场","address":"沙泾路10"},{"poiid":"B2094757D16CA7FE429E","title":"崇明私房菜","lon":"121.494195403","lat":"31.2537960749","category":"76","category_name":"上海菜","address":"虹口区周家嘴路328号(近新建路)"},{"poiid":"B2094757D068A2F5499E","title":"新亚大包(海宁路店)","lon":"121.49153","lat":"31.25322","category":"68","category_name":"快餐厅","address":"虹口区海宁路6-8号(近九龙路)"},{"poiid":"B2094757D568AAF4409C","title":"红意艺术主题意大利餐厅","lon":"121.49145209","lat":"31.25446615","category":"94","category_name":"西餐厅","address":"虹口区溧阳路611号1933老场坊1栋2楼(近九龙宾馆)"},{"poiid":"B2094654D56EA1FD4199","title":"爱思大厦","lon":"121.494","lat":"31.2564","category":"46","category_name":"楼宇","address":"上海海宁路307号"},{"poiid":"B2094655D26DA6F84192","title":"1930鑫鑫创意园","lon":"121.49142","lat":"31.25516","category":"46","category_name":"楼宇","address":"虹口区辽宁路244号(近沙泾路)"},{"poiid":"B2094654D56DAAFE449C","title":"中皇广场","lon":"121.49439","lat":"31.25442","category":"47","category_name":"住宅区","address":"中皇广场(中皇.外滩)位于虹口周家嘴路(近金田路,梧州路)"},{"poiid":"B2094757D068AAFA479D","title":"Formula Pilota","lon":"121.492148103","lat":"31.2547370945","category":"68","category_name":"快餐厅","address":"虹口区溧阳路611号1933老场坊1-108号铺(近九龙宾馆)"},{"poiid":"B2094753DA6AA6FA4393","title":"SNH48星梦剧院","lon":"121.490242","lat":"31.258754","category":"500","category_name":"未知分类","address":"上海市 嘉兴路267号"},{"poiid":"B2094757D16CA5F9419F","title":"上海一柴发电机有限公司","lon":"121.491400769","lat":"31.2563601284","category":"46","category_name":"楼宇","address":"上海海伦路178号1405室"},{"poiid":"B2094757D568A0FB4592","title":"牛市","lon":"121.49145833","lat":"31.25447754","category":"260","category_name":"其他","address":"虹口区溧阳路611号1933老场坊1-203号铺(溧阳路沙泾路)"},{"poiid":"B2094750DA6CA1F5459B","title":"国家音乐产业基地","lon":"121.491798","lat":"31.256912","category":"252","category_name":"楼宇机构","address":"辽宁路46号"},{"poiid":"B209475CD76AA7FD489E","title":"虹口足球场","lon":"121.49224","lat":"31.256166","category":"220","category_name":"运动场所","address":"上海市 东体育会路"},{"poiid":"B209475DDA6DABF5459F","title":"天真蓝照相馆","lon":"121.489831","lat":"31.255537","category":"611","category_name":"照相馆","address":"虹口区哈尔滨路159号（近海伦路地铁站）"},{"poiid":"B2094752D56BA7FD4998","title":"陆家嘴正大广场","lon":"121.493009","lat":"31.254678","category":"500","category_name":"未知分类","address":null},{"poiid":"B2094757D06AA5FB4698","title":"红意意大利餐厅","lon":"121.4919041","lat":"31.25405408","category":"500","category_name":"未知分类","address":"1933老场坊 上海市虹口区虬江路"},{"poiid":"B2094654D56DAAFF4693","title":"大东饭店","lon":"121.49034","lat":"31.25649","category":"68","category_name":"快餐厅","address":"虹口区嘉兴路(近哈尔滨路)"},{"poiid":"B2094454D36BA3FE449F","title":"zoo coffee","lon":"121.493743","lat":"31.258939","category":"247","category_name":"餐饮美食","address":"上海市 四平路150号"},{"poiid":"B2094654D56DAAF9409F","title":"上海交通大学附属第一人民医院国际医疗保健中心","lon":"121.49018","lat":"31.25374","category":"162","category_name":"医院","address":"九龙路585"},{"poiid":"B2094654DB64A4FC479A","title":"福海商厦","lon":"121.491","lat":"31.2571","category":"46","category_name":"楼宇","address":"四川北路1318号"},{"poiid":"B2094654D56DAAFF4192","title":"上海音像公司","lon":"121.4917","lat":"31.25666","category":"263","category_name":"公司","address":"辽宁路46"},{"poiid":"B209475DD06AA4FB4392","title":"来福士","lon":"121.49234","lat":"31.256427","category":"500","category_name":"未知分类","address":"上海市 人民广场"},{"poiid":"B2094757D16FA6F4459E","title":"597路大连路长阳路站","lon":"121.4915077","lat":"31.257439051","category":"38","category_name":"公交车站","address":"上海大连路(近长阳路)"},{"poiid":"B209475CDA6AA6FA409A","title":"SNH48星梦剧院","lon":"121.490661","lat":"31.256475","category":"500","category_name":"未知分类","address":"上海市 上海市虹口区嘉兴路267号"},{"poiid":"B2094757D06AA1FE4892","title":"福德商务中心","lon":"121.49136338984","lat":"31.256703426905","category":"500","category_name":"未知分类","address":"上海四川北路1688号"},{"poiid":"B2094655D26BA7FC469A","title":"1933老场坊","lon":"121.49146","lat":"31.25448","category":"247","category_name":"餐饮美食","address":"虹口区溧阳路611号"},{"poiid":"B2094654D56EA3FB469A","title":"海泰时代大厦","lon":"121.492","lat":"31.2576","category":"46","category_name":"楼宇","address":"丰台学城海鹰路1号,3号"},{"poiid":"B2094757D068ABFE4599","title":"中信广场","lon":"121.49155956183","lat":"31.253803450588","category":"46","category_name":"楼宇","address":"虹口区四川北路859号(近海宁路)"},{"poiid":"B209475CD564A7F84392","title":"上海滩浦东香格里拉店","lon":"121.50058","lat":"31.23634","category":"119","category_name":"商场","address":"浦东富成路33号香格里拉酒店内大堂层"},{"poiid":"B2094757D06FA0FC459A","title":"苏浙汇（1933店）","lon":"121.49207337","lat":"31.254523102","category":"75","category_name":"浙江菜","address":"虹口区沙泾路10号1933老场坊3楼(近溧阳路)"},{"poiid":"B2094757D06FA3F8409E","title":"森林湾大厦","lon":"121.494","lat":"31.2562","category":"46","category_name":"楼宇","address":"铁西卫工南街8―5号"},{"poiid":"B2094757D06FA7F9409F","title":"上汽培训中心","lon":"121.491014","lat":"31.258986","category":"253","category_name":"校园生活","address":"上海同嘉路79号"},{"poiid":"B2094757D168A5F8439D","title":"老洋行1913创意园区","lon":"121.491155103","lat":"31.2548950978","category":"46","category_name":"楼宇","address":"虹口区哈尔滨路160号(近海伦路)"},{"poiid":"B2094655D26AABFA469C","title":"上海九龙宾馆","lon":"121.49209","lat":"31.25397","category":"250","category_name":"公园户外","address":"上海虹口区溧阳路601号(近吴淞路)"},{"poiid":"B2094752D26BABFC419F","title":"星梦剧场（SNH48专属剧场）","lon":"121.490448","lat":"31.256707","category":"180","category_name":"剧场","address":"上海市 嘉兴路267号近哈尔滨路"},{"poiid":"B2094757D06FA0FC419C","title":"海泰国际大厦","lon":"121.491952","lat":"31.255121","category":"46","category_name":"楼宇","address":"朝阳区北三环东路与京顺路交接处路口北侧"},{"poiid":"B2094757D16AA5FC4392","title":"1933老杨坊—空中剧场","lon":"121.492348103","lat":"31.2545270902","category":"500","category_name":"未知分类","address":"上海市虹口区沙径路10号1933老杨坊四楼"},{"poiid":"B2094757D66DA3FF499F","title":"1933","lon":"121.492579103","lat":"31.2544390883","category":"500","category_name":"未知分类","address":"上海市虹口区四平路"},{"poiid":"B2094757D66CA3F9469D","title":"红场俄式西餐厅","lon":"121.491549803","lat":"31.2556281132","category":"94","category_name":"西餐厅","address":"虹口区沙泾路10号1933老场坊1号楼308室(近九龙宾馆)"},{"poiid":"B2094757D069A3F5489C","title":"上海汽车工业(集团)总公司培训中心","lon":"121.491016723","lat":"31.25898445","category":"46","category_name":"楼宇","address":"上海虹口区同嘉路79号"},{"poiid":"B2094757D06FA6FC4392","title":"La Douceur","lon":"121.49150192","lat":"31.254127613","category":"67","category_name":"甜品店","address":"虹口区溧阳路611号上海1933老场坊105单元(近周家嘴路)"},{"poiid":"B2094757D068A3FF4098","title":"狠牛独创牛肉面馆 沙泾路店 Noodle Bull","lon":"121.492426054","lat":"31.256805793","category":"68","category_name":"快餐厅","address":"虹口区沙泾路10号1933老场坊1号楼234室(近溧阳路)"},{"poiid":"B2094752D36DA5F94793","title":"上海星美国际影城(虹口国际店)","lon":"121.49265","lat":"31.25661","category":"178","category_name":"电影院","address":"上海市虹口区海宁路330号"},{"poiid":"B2094654DB6AA7FE459F","title":"豪龙阁舟山渔村(周家嘴路店)","lon":"121.49253","lat":"31.25324","category":"75","category_name":"浙江菜","address":"虹口区周家嘴路2号(溧阳路口)"},{"poiid":"B2094757D068A2F94998","title":"国际商厦","lon":"121.49205205017","lat":"31.256364309751","category":"46","category_name":"楼宇","address":"虹口区海宁路,吴淞路口"},{"poiid":"B2094757D068A2F44199","title":"四平路海伦路","lon":"121.488717","lat":"31.257259","category":"260","category_name":"其他","address":"上海四平路海伦路嘉兴路"},{"poiid":"B2094757D16AA2FB449B","title":"上海市第一人民医院12F","lon":"121.4913274","lat":"31.25310036","category":"162","category_name":"医院","address":"上海海宁路100号"},{"poiid":"B2094750D76DA4FD439F","title":"之会所","lon":"121.492","lat":"31.2567","category":"72","category_name":"广东菜","address":"虹口区辽宁路46号D座国家音乐产业基地内(近1933老场坊)"},{"poiid":"B2094750D464ABF8409A","title":"central perk","lon":"121.489921","lat":"31.255508","category":"247","category_name":"餐饮美食","address":"1913,老洋行"},{"poiid":"B2094654D56DAAFE469B","title":"凯虹家园","lon":"121.49252","lat":"31.255821","category":"47","category_name":"住宅区","address":"梧州路299弄1-11号"},{"poiid":"B2094655D26CA0FF459E","title":"1933购物中心","lon":"121.49207","lat":"31.25452","category":"119","category_name":"商场","address":"沙泾路10"},{"poiid":"B2094757D16CA7FE429E","title":"崇明私房菜","lon":"121.494195403","lat":"31.2537960749","category":"76","category_name":"上海菜","address":"虹口区周家嘴路328号(近新建路)"},{"poiid":"B2094757D068A2F5499E","title":"新亚大包(海宁路店)","lon":"121.49153","lat":"31.25322","category":"68","category_name":"快餐厅","address":"虹口区海宁路6-8号(近九龙路)"},{"poiid":"B2094757D568AAF4409C","title":"红意艺术主题意大利餐厅","lon":"121.49145209","lat":"31.25446615","category":"94","category_name":"西餐厅","address":"虹口区溧阳路611号1933老场坊1栋2楼(近九龙宾馆)"},{"poiid":"B2094654D56EA1FD4199","title":"爱思大厦","lon":"121.494","lat":"31.2564","category":"46","category_name":"楼宇","address":"上海海宁路307号"},{"poiid":"B2094655D26DA6F84192","title":"1930鑫鑫创意园","lon":"121.49142","lat":"31.25516","category":"46","category_name":"楼宇","address":"虹口区辽宁路244号(近沙泾路)"},{"poiid":"B2094654D56DAAFE449C","title":"中皇广场","lon":"121.49439","lat":"31.25442","category":"47","category_name":"住宅区","address":"中皇广场(中皇.外滩)位于虹口周家嘴路(近金田路,梧州路)"},{"poiid":"B2094757D068AAFA479D","title":"Formula Pilota","lon":"121.492148103","lat":"31.2547370945","category":"68","category_name":"快餐厅","address":"虹口区溧阳路611号1933老场坊1-108号铺(近九龙宾馆)"},{"poiid":"B2094753DA6AA6FA4393","title":"SNH48星梦剧院","lon":"121.490242","lat":"31.258754","category":"500","category_name":"未知分类","address":"上海市 嘉兴路267号"},{"poiid":"B2094757D16CA5F9419F","title":"上海一柴发电机有限公司","lon":"121.491400769","lat":"31.2563601284","category":"46","category_name":"楼宇","address":"上海海伦路178号1405室"},{"poiid":"B2094757D568A0FB4592","title":"牛市","lon":"121.49145833","lat":"31.25447754","category":"260","category_name":"其他","address":"虹口区溧阳路611号1933老场坊1-203号铺(溧阳路沙泾路)"},{"poiid":"B2094750DA6CA1F5459B","title":"国家音乐产业基地","lon":"121.491798","lat":"31.256912","category":"252","category_name":"楼宇机构","address":"辽宁路46号"},{"poiid":"B209475CD76AA7FD489E","title":"虹口足球场","lon":"121.49224","lat":"31.256166","category":"220","category_name":"运动场所","address":"上海市 东体育会路"},{"poiid":"B209475DDA6DABF5459F","title":"天真蓝照相馆","lon":"121.489831","lat":"31.255537","category":"611","category_name":"照相馆","address":"虹口区哈尔滨路159号（近海伦路地铁站）"},{"poiid":"B2094752D56BA7FD4998","title":"陆家嘴正大广场","lon":"121.493009","lat":"31.254678","category":"500","category_name":"未知分类","address":null},{"poiid":"B2094757D06AA5FB4698","title":"红意意大利餐厅","lon":"121.4919041","lat":"31.25405408","category":"500","category_name":"未知分类","address":"1933老场坊 上海市虹口区虬江路"},{"poiid":"B2094654D56DAAFF4693","title":"大东饭店","lon":"121.49034","lat":"31.25649","category":"68","category_name":"快餐厅","address":"虹口区嘉兴路(近哈尔滨路)"},{"poiid":"B2094454D36BA3FE449F","title":"zoo coffee","lon":"121.493743","lat":"31.258939","category":"247","category_name":"餐饮美食","address":"上海市 四平路150号"},{"poiid":"B2094654D56DAAF9409F","title":"上海交通大学附属第一人民医院国际医疗保健中心","lon":"121.49018","lat":"31.25374","category":"162","category_name":"医院","address":"九龙路585"},{"poiid":"B2094654DB64A4FC479A","title":"福海商厦","lon":"121.491","lat":"31.2571","category":"46","category_name":"楼宇","address":"四川北路1318号"},{"poiid":"B2094654D56DAAFF4192","title":"上海音像公司","lon":"121.4917","lat":"31.25666","category":"263","category_name":"公司","address":"辽宁路46"},{"poiid":"B209475DD06AA4FB4392","title":"来福士","lon":"121.49234","lat":"31.256427","category":"500","category_name":"未知分类","address":"上海市 人民广场"},{"poiid":"B2094757D16FA6F4459E","title":"597路大连路长阳路站","lon":"121.4915077","lat":"31.257439051","category":"38","category_name":"公交车站","address":"上海大连路(近长阳路)"},{"poiid":"B209475CDA6AA6FA409A","title":"SNH48星梦剧院","lon":"121.490661","lat":"31.256475","category":"500","category_name":"未知分类","address":"上海市 上海市虹口区嘉兴路267号"},{"poiid":"B2094757D06AA1FE4892","title":"福德商务中心","lon":"121.49136338984","lat":"31.256703426905","category":"500","category_name":"未知分类","address":"上海四川北路1688号"},{"poiid":"B2094655D26BA7FC469A","title":"1933老场坊","lon":"121.49146","lat":"31.25448","category":"247","category_name":"餐饮美食","address":"虹口区溧阳路611号"},{"poiid":"B2094654D56EA3FB469A","title":"海泰时代大厦","lon":"121.492","lat":"31.2576","category":"46","category_name":"楼宇","address":"丰台学城海鹰路1号,3号"},{"poiid":"B2094757D068ABFE4599","title":"中信广场","lon":"121.49155956183","lat":"31.253803450588","category":"46","category_name":"楼宇","address":"虹口区四川北路859号(近海宁路)"},{"poiid":"B209475CD564A7F84392","title":"上海滩浦东香格里拉店","lon":"121.50058","lat":"31.23634","category":"119","category_name":"商场","address":"浦东富成路33号香格里拉酒店内大堂层"},{"poiid":"B2094757D06FA0FC459A","title":"苏浙汇（1933店）","lon":"121.49207337","lat":"31.254523102","category":"75","category_name":"浙江菜","address":"虹口区沙泾路10号1933老场坊3楼(近溧阳路)"},{"poiid":"B2094757D06FA3F8409E","title":"森林湾大厦","lon":"121.494","lat":"31.2562","category":"46","category_name":"楼宇","address":"铁西卫工南街8―5号"},{"poiid":"B2094757D06FA7F9409F","title":"上汽培训中心","lon":"121.491014","lat":"31.258986","category":"253","category_name":"校园生活","address":"上海同嘉路79号"},{"poiid":"B2094757D168A5F8439D","title":"老洋行1913创意园区","lon":"121.491155103","lat":"31.2548950978","category":"46","category_name":"楼宇","address":"虹口区哈尔滨路160号(近海伦路)"},{"poiid":"B2094655D26AABFA469C","title":"上海九龙宾馆","lon":"121.49209","lat":"31.25397","category":"250","category_name":"公园户外","address":"上海虹口区溧阳路601号(近吴淞路)"},{"poiid":"B2094752D26BABFC419F","title":"星梦剧场（SNH48专属剧场）","lon":"121.490448","lat":"31.256707","category":"180","category_name":"剧场","address":"上海市 嘉兴路267号近哈尔滨路"},{"poiid":"B2094757D06FA0FC419C","title":"海泰国际大厦","lon":"121.491952","lat":"31.255121","category":"46","category_name":"楼宇","address":"朝阳区北三环东路与京顺路交接处路口北侧"},{"poiid":"B2094757D16AA5FC4392","title":"1933老杨坊—空中剧场","lon":"121.492348103","lat":"31.2545270902","category":"500","category_name":"未知分类","address":"上海市虹口区沙径路10号1933老杨坊四楼"},{"poiid":"B2094757D66DA3FF499F","title":"1933","lon":"121.492579103","lat":"31.2544390883","category":"500","category_name":"未知分类","address":"上海市虹口区四平路"},{"poiid":"B2094757D66CA3F9469D","title":"红场俄式西餐厅","lon":"121.491549803","lat":"31.2556281132","category":"94","category_name":"西餐厅","address":"虹口区沙泾路10号1933老场坊1号楼308室(近九龙宾馆)"},{"poiid":"B2094757D069A3F5489C","title":"上海汽车工业(集团)总公司培训中心","lon":"121.491016723","lat":"31.25898445","category":"46","category_name":"楼宇","address":"上海虹口区同嘉路79号"},{"poiid":"B2094757D06FA6FC4392","title":"La Douceur","lon":"121.49150192","lat":"31.254127613","category":"67","category_name":"甜品店","address":"虹口区溧阳路611号上海1933老场坊105单元(近周家嘴路)"},{"poiid":"B2094757D068A3FF4098","title":"狠牛独创牛肉面馆 沙泾路店 Noodle Bull","lon":"121.492426054","lat":"31.256805793","category":"68","category_name":"快餐厅","address":"虹口区沙泾路10号1933老场坊1号楼234室(近溧阳路)"},{"poiid":"B2094752D36DA5F94793","title":"上海星美国际影城(虹口国际店)","lon":"121.49265","lat":"31.25661","category":"178","category_name":"电影院","address":"上海市虹口区海宁路330号"},{"poiid":"B2094654DB6AA7FE459F","title":"豪龙阁舟山渔村(周家嘴路店)","lon":"121.49253","lat":"31.25324","category":"75","category_name":"浙江菜","address":"虹口区周家嘴路2号(溧阳路口)"},{"poiid":"B2094757D068A2F94998","title":"国际商厦","lon":"121.49205205017","lat":"31.256364309751","category":"46","category_name":"楼宇","address":"虹口区海宁路,吴淞路口"},{"poiid":"B2094757D068A2F44199","title":"四平路海伦路","lon":"121.488717","lat":"31.257259","category":"260","category_name":"其他","address":"上海四平路海伦路嘉兴路"},{"poiid":"B2094757D16AA2FB449B","title":"上海市第一人民医院12F","lon":"121.4913274","lat":"31.25310036","category":"162","category_name":"医院","address":"上海海宁路100号"},{"poiid":"B2094750D76DA4FD439F","title":"之会所","lon":"121.492","lat":"31.2567","category":"72","category_name":"广东菜","address":"虹口区辽宁路46号D座国家音乐产业基地内(近1933老场坊)"},{"poiid":"B2094750D464ABF8409A","title":"central perk","lon":"121.489921","lat":"31.255508","category":"247","category_name":"餐饮美食","address":"1913,老洋行"},{"poiid":"B2094654D56DAAFE469B","title":"凯虹家园","lon":"121.49252","lat":"31.255821","category":"47","category_name":"住宅区","address":"梧州路299弄1-11号"},{"poiid":"B2094655D26CA0FF459E","title":"1933购物中心","lon":"121.49207","lat":"31.25452","category":"119","category_name":"商场","address":"沙泾路10"},{"poiid":"B2094757D16CA7FE429E","title":"崇明私房菜","lon":"121.494195403","lat":"31.2537960749","category":"76","category_name":"上海菜","address":"虹口区周家嘴路328号(近新建路)"},{"poiid":"B2094757D068A2F5499E","title":"新亚大包(海宁路店)","lon":"121.49153","lat":"31.25322","category":"68","category_name":"快餐厅","address":"虹口区海宁路6-8号(近九龙路)"},{"poiid":"B2094757D568AAF4409C","title":"红意艺术主题意大利餐厅","lon":"121.49145209","lat":"31.25446615","category":"94","category_name":"西餐厅","address":"虹口区溧阳路611号1933老场坊1栋2楼(近九龙宾馆)"},{"poiid":"B2094654D56EA1FD4199","title":"爱思大厦","lon":"121.494","lat":"31.2564","category":"46","category_name":"楼宇","address":"上海海宁路307号"},{"poiid":"B2094655D26DA6F84192","title":"1930鑫鑫创意园","lon":"121.49142","lat":"31.25516","category":"46","category_name":"楼宇","address":"虹口区辽宁路244号(近沙泾路)"},{"poiid":"B2094654D56DAAFE449C","title":"中皇广场","lon":"121.49439","lat":"31.25442","category":"47","category_name":"住宅区","address":"中皇广场(中皇.外滩)位于虹口周家嘴路(近金田路,梧州路)"},{"poiid":"B2094757D068AAFA479D","title":"Formula Pilota","lon":"121.492148103","lat":"31.2547370945","category":"68","category_name":"快餐厅","address":"虹口区溧阳路611号1933老场坊1-108号铺(近九龙宾馆)"},{"poiid":"B2094753DA6AA6FA4393","title":"SNH48星梦剧院","lon":"121.490242","lat":"31.258754","category":"500","category_name":"未知分类","address":"上海市 嘉兴路267号"},{"poiid":"B2094757D16CA5F9419F","title":"上海一柴发电机有限公司","lon":"121.491400769","lat":"31.2563601284","category":"46","category_name":"楼宇","address":"上海海伦路178号1405室"},{"poiid":"B2094757D568A0FB4592","title":"牛市","lon":"121.49145833","lat":"31.25447754","category":"260","category_name":"其他","address":"虹口区溧阳路611号1933老场坊1-203号铺(溧阳路沙泾路)"},{"poiid":"B2094750DA6CA1F5459B","title":"国家音乐产业基地","lon":"121.491798","lat":"31.256912","category":"252","category_name":"楼宇机构","address":"辽宁路46号"},{"poiid":"B209475CD76AA7FD489E","title":"虹口足球场","lon":"121.49224","lat":"31.256166","category":"220","category_name":"运动场所","address":"上海市 东体育会路"},{"poiid":"B209475DDA6DABF5459F","title":"天真蓝照相馆","lon":"121.489831","lat":"31.255537","category":"611","category_name":"照相馆","address":"虹口区哈尔滨路159号（近海伦路地铁站）"},{"poiid":"B2094752D56BA7FD4998","title":"陆家嘴正大广场","lon":"121.493009","lat":"31.254678","category":"500","category_name":"未知分类","address":null},{"poiid":"B2094757D06AA5FB4698","title":"红意意大利餐厅","lon":"121.4919041","lat":"31.25405408","category":"500","category_name":"未知分类","address":"1933老场坊 上海市虹口区虬江路"},{"poiid":"B2094654D56DAAFF4693","title":"大东饭店","lon":"121.49034","lat":"31.25649","category":"68","category_name":"快餐厅","address":"虹口区嘉兴路(近哈尔滨路)"},{"poiid":"B2094454D36BA3FE449F","title":"zoo coffee","lon":"121.493743","lat":"31.258939","category":"247","category_name":"餐饮美食","address":"上海市 四平路150号"},{"poiid":"B2094654D56DAAF9409F","title":"上海交通大学附属第一人民医院国际医疗保健中心","lon":"121.49018","lat":"31.25374","category":"162","category_name":"医院","address":"九龙路585"},{"poiid":"B2094654DB64A4FC479A","title":"福海商厦","lon":"121.491","lat":"31.2571","category":"46","category_name":"楼宇","address":"四川北路1318号"},{"poiid":"B2094654D56DAAFF4192","title":"上海音像公司","lon":"121.4917","lat":"31.25666","category":"263","category_name":"公司","address":"辽宁路46"},{"poiid":"B209475DD06AA4FB4392","title":"来福士","lon":"121.49234","lat":"31.256427","category":"500","category_name":"未知分类","address":"上海市 人民广场"},{"poiid":"B2094757D16FA6F4459E","title":"597路大连路长阳路站","lon":"121.4915077","lat":"31.257439051","category":"38","category_name":"公交车站","address":"上海大连路(近长阳路)"},{"poiid":"B209475CDA6AA6FA409A","title":"SNH48星梦剧院","lon":"121.490661","lat":"31.256475","category":"500","category_name":"未知分类","address":"上海市 上海市虹口区嘉兴路267号"},{"poiid":"B2094757D06AA1FE4892","title":"福德商务中心","lon":"121.49136338984","lat":"31.256703426905","category":"500","category_name":"未知分类","address":"上海四川北路1688号"}]