[{"poiid":"B2094655D26DA7FE4793","title":"南京路步行街(东门)","lon":"121.48473","lat":"31.23754","category":"116","category_name":"特色商业街","address":""},{"poiid":"B2094654DA6FA5F84498","title":"港丽餐厅 宏伊店 Charme Restaurant","lon":"121.484328054","lat":"31.237211793","category":"72","category_name":"广东菜","address":"黄浦区南京东路299号宏伊国际广场411号(河南中路口)"},{"poiid":"B2094757D06EAAF8499E","title":"南京东路地铁站","lon":"121.484855","lat":"31.237632","category":"36","category_name":"地铁站","address":"上海轨道交通 二号线 十号线 轨交南京东路站 2 10"},{"poiid":"B209475CD564A7F84292","title":"上海滩新天地店","lon":"121.47463","lat":"31.22164","category":"119","category_name":"商场","address":"\"太仓路181弄新天地北里15号\r\n\""},{"poiid":"B209475CD564A7F84392","title":"上海滩浦东香格里拉店","lon":"121.50058","lat":"31.23634","category":"119","category_name":"商场","address":"浦东富成路33号香格里拉酒店内大堂层"},{"poiid":"B2094757D06FA3FC4092","title":"PANKOO釜山料理(南京东路店)","lon":"121.48495","lat":"31.23672","category":"96","category_name":"韩国料理","address":"上海黄浦区南京东路299号宏伊广场6楼(河南中路口)"},{"poiid":"B2094757D068A2F8479B","title":"老克勒上海菜(宏伊广场店)","lon":"121.484859711","lat":"31.2365955457","category":"76","category_name":"上海菜","address":"黄浦区南京东路299号宏伊国际广场3楼(近河南中路)"},{"poiid":"B2094757D665A5FA439E","title":"星巴克 河南中路店 Starbucks Cafe","lon":"121.48512","lat":"31.23655","category":"260","category_name":"其他","address":"黄浦区河南中路371号申大厦1楼(河南中路九江路)"},{"poiid":"B2094757D06FA3F4409A","title":"望湘园(宏伊店)","lon":"121.48487","lat":"31.23661","category":"77","category_name":"湖南菜","address":"上海黄浦区南京东路299号宏伊国际广场6楼(河南中路口)  "},{"poiid":"B2094757D06FA0FC479A","title":"尚一汤(名人店)","lon":"121.484609045","lat":"31.2375079839","category":"72","category_name":"广东菜","address":"黄浦区南京东路300号名人购物中心4楼420单元(河南中路口)"},{"poiid":"B2094654DA6FAAFD499A","title":"港泰广场","lon":"121.486","lat":"31.2358","category":"46","category_name":"楼宇","address":"延安东路700号"},{"poiid":"B2094655D26BA1FF479F","title":"南京东路","lon":"121.48534","lat":"31.23632","category":"38","category_name":"公交车站","address":""},{"poiid":"B2094654DA6FA5F8439D","title":"Wagas","lon":"121.48456","lat":"31.23697","category":"248","category_name":"生活娱乐","address":"南京东路299号宏伊国际广场S-116"},{"poiid":"B2094757D068A4F9469A","title":"成隆行蟹王府","lon":"121.485942537","lat":"31.2369416306","category":"257","category_name":"中餐厅","address":"黄浦区九江路216号(河南中路口)"},{"poiid":"B2094757D068A0FB449B","title":"大家乐(南京东路店)","lon":"121.484654738","lat":"31.2374831547","category":"500","category_name":"未知分类","address":"上海市黄浦区南京东路300号名人商业大厦L317-18单元"},{"poiid":"B2094757D06FA6F44893","title":"东瀛国际造型(宏伊店)","lon":"121.484558105","lat":"31.237039566","category":"148","category_name":"美容美发店","address":"黄浦区南京东路299号宏伊广场5楼(河南中路口)"},{"poiid":"B2094655D26DA3FE419B","title":"上海外滩花园酒店(南门)","lon":"121.48571","lat":"31.2361","category":"250","category_name":"公园户外","address":"上海市黄浦区汉口路200号（河南中路路口）"},{"poiid":"B2094757D469A5F84698","title":"亚洲蕉叶 南京东路店","lon":"121.4848452","lat":"31.2375642","category":"110","category_name":"其他亚洲菜","address":"黄浦区南京东路300号名人购物中心5楼"},{"poiid":"B2094654DA6FABF4409F","title":"海通证券大厦","lon":"121.485","lat":"31.2368","category":"46","category_name":"楼宇","address":"浦东临港新城主城区申港大道200号"},{"poiid":"B2094757D469A7FA449C","title":"龙记茶餐厅 南京东路店","lon":"121.48559","lat":"31.23748","category":"257","category_name":"中餐厅","address":"黄浦区南京东路233号南京大楼5楼(近河南中路)"},{"poiid":"B2094757D16DA0FD429F","title":"苹果旗舰店南京东路","lon":"121.485093338","lat":"31.2374578541","category":"500","category_name":"未知分类","address":"上海南京东路300号"},{"poiid":"B2094757D06FA3FD459F","title":"沃歌斯 宏伊国际广场店 Wagas","lon":"121.48542245119","lat":"31.237844437551","category":"94","category_name":"西餐厅","address":"黄浦区九江路288号G116(近河南中路)"},{"poiid":"B2094752DA65A2F8419B","title":"上海外滩","lon":"121.484815","lat":"31.237563","category":"500","category_name":"未知分类","address":"上海市 外滩18号"},{"poiid":"B2094751D36EA3F9459A","title":"云上云源生态云南菜","lon":"121.48562","lat":"31.23753","category":"76","category_name":"上海菜","address":"黄浦区南京东路233号南京大厦5楼(近河南路)"},{"poiid":"B2094757D06FABF5429F","title":"新发记港式茶餐厅","lon":"121.4876","lat":"31.23866","category":"72","category_name":"广东菜","address":"上海黄浦区四川中路417号(近南京东路)"},{"poiid":"B2094757D06EAAFE409B","title":"ANNA BANANA 爱酸奶","lon":"121.48458173","lat":"31.237558456","category":"67","category_name":"甜品店","address":"上海黄浦区河南中路88号威斯汀大饭店101室(广东路口)"},{"poiid":"B2094757D06FA3FE4698","title":"蜀府(宏伊广场店)","lon":"121.484555","lat":"31.237039","category":"71","category_name":"四川菜","address":"黄浦区南京东路299号宏伊广场7楼(近河南中路)"},{"poiid":"B2094654DA6FA4FB4199","title":"香港仔码头茶餐厅(河南中路店)","lon":"121.48529","lat":"31.2369","category":"72","category_name":"广东菜","address":"上海黄浦区河南中路368号(近南京东路)"},{"poiid":"B2094655D26AA7FD439B","title":"钻石小鸟 | 上海体验中心","lon":"121.48455","lat":"31.23697","category":"247","category_name":"餐饮美食","address":"黄浦区南京东路299号宏伊国际广场8楼(河南中路口)查看地图"},{"poiid":"B2094757DA6FA3F5499C","title":"金装大家乐茶餐厅(南京东路店)","lon":"121.487614100001","lat":"31.2384557","category":"72","category_name":"广东菜","address":"黄浦区南京东路300号名人购物中心3楼(近苹果南京路旗舰店)"},{"poiid":"B2094655D26AABFD4799","title":"越味风 宏伊广场店 Pho Yummy","lon":"121.484305054","lat":"31.237211793","category":"99","category_name":"泰国／越南菜品餐厅","address":"黄浦区南京东路299号宏伊国际广场B1楼(河南中路口)"},{"poiid":"B2094655D264A4FC459B","title":"巴贝拉(南京东路店)","lon":"121.48456","lat":"31.23697","category":"94","category_name":"西餐厅","address":"黄浦区南京东路299号宏伊国际广场6楼S-602号(河南中路口)"},{"poiid":"B2094757D06AA5FA4993","title":"华东建筑设计研究院有限公司","lon":"121.487157492","lat":"31.2361457026","category":"46","category_name":"楼宇","address":"上海市黄浦区汉口路151号"},{"poiid":"B2094654DB69A4F4479A","title":"九江路营业厅","lon":"121.48819","lat":"31.23781","category":"151","category_name":"电讯营业厅","address":"黄浦区四川中路324号"},{"poiid":"B2094757D068A3FB469A","title":"交通银行上海市分行","lon":"121.487329","lat":"31.235579","category":"46","category_name":"楼宇","address":"上海黄浦区江西中路200号"},{"poiid":"B2094757D069A1F4489B","title":"申大厦","lon":"121.48487108","lat":"31.236241463","category":"46","category_name":"楼宇","address":"上海汉口路266号"},{"poiid":"B2094757D06FA0F4489D","title":"味千拉面(宏伊店)","lon":"121.48457943","lat":"31.237201398","category":"95","category_name":"日本料理","address":"黄浦区南京东路830号第一百货新楼B1楼(近西藏中路)"},{"poiid":"B2094751D468ABFB469B","title":"环球金融中心100层","lon":"121.486472","lat":"31.236774","category":"500","category_name":"未知分类","address":null},{"poiid":"B2094757D069A6F4479B","title":"上海市民政局","lon":"121.48800659","lat":"31.236328125","category":"252","category_name":"楼宇机构","address":"上海江西中路215号汉口路口"},{"poiid":"B2094752D56FABFC4198","title":"洪師傅牛肉麵","lon":"121.484581","lat":"31.236609","category":"247","category_name":"餐饮美食","address":"九江路287號"},{"poiid":"B2094757D064ABFE4899","title":"中国银行外滩多媒体教室","lon":"121.48706973","lat":"31.23868248","category":"500","category_name":"未知分类","address":"上海滇池路74号540室"},{"poiid":"B2094757D068A3FE409C","title":"DQ冰雪皇后(宏伊店)","lon":"121.484580204","lat":"31.2370502454","category":"113","category_name":"冷饮店","address":"黄浦区南京东路830号第一百货"},{"poiid":"B2094654DB6AA3FE469C","title":"大诚 宏伊店","lon":"121.484328054","lat":"31.237211793","category":"95","category_name":"日本料理","address":"黄浦区南京东路299号宏伊国际广场6楼(河南中路口)"},{"poiid":"B2094655D26BA4F8489F","title":"外滩艺术馆(边门)","lon":"121.4864","lat":"31.23599","category":"183","category_name":"展览馆","address":"汉口路193"},{"poiid":"B2094757D16AA5F54698","title":"珂兰钻石","lon":"121.484550738","lat":"31.2375184554","category":"249","category_name":"购物服务","address":"黄浦区南京东路300号名人商厦503-504室(近河南中路)查看地图"},{"poiid":"B2094757D16DA3FA469C","title":"大块头面菜馆","lon":"121.485606738","lat":"31.2383654735","category":"68","category_name":"快餐厅","address":"黄浦区宁波路190号(近河南中路)"},{"poiid":"B2094655D26FA6FB4898","title":"美伦大楼","lon":"121.48694","lat":"31.23808","category":"46","category_name":"楼宇","address":"昌平区回龙观镇国际信息产业基地高新二街"},{"poiid":"B2094750D76CA6FC489E","title":"AnnaBanana爱酸奶(南京东路店)","lon":"121.485","lat":"31.2376","category":"68","category_name":"快餐厅","address":"南京东路300号名人购物中心1楼L115室(近河南中路)"},{"poiid":"B2094757D06AAAFE4699","title":"49路汉口路江西中路终点站","lon":"121.48606126","lat":"31.236072386","category":"38","category_name":"公交车站","address":"上海黄浦区汉口路201号(对面)"},{"poiid":"B2094757DB68A6FD469A","title":"上海华尔道夫酒店","lon":"121.485093","lat":"31.235814","category":"500","category_name":"未知分类","address":"中山东一路2号"},{"poiid":"B2094655D26DA7FE4793","title":"南京路步行街(东门)","lon":"121.48473","lat":"31.23754","category":"116","category_name":"特色商业街","address":""},{"poiid":"B2094654DA6FA5F84498","title":"港丽餐厅 宏伊店 Charme Restaurant","lon":"121.484328054","lat":"31.237211793","category":"72","category_name":"广东菜","address":"黄浦区南京东路299号宏伊国际广场411号(河南中路口)"},{"poiid":"B2094757D06EAAF8499E","title":"南京东路地铁站","lon":"121.484855","lat":"31.237632","category":"36","category_name":"地铁站","address":"上海轨道交通 二号线 十号线 轨交南京东路站 2 10"},{"poiid":"B209475CD564A7F84292","title":"上海滩新天地店","lon":"121.47463","lat":"31.22164","category":"119","category_name":"商场","address":"\"太仓路181弄新天地北里15号\r\n\""},{"poiid":"B209475CD564A7F84392","title":"上海滩浦东香格里拉店","lon":"121.50058","lat":"31.23634","category":"119","category_name":"商场","address":"浦东富成路33号香格里拉酒店内大堂层"},{"poiid":"B2094757D06FA3FC4092","title":"PANKOO釜山料理(南京东路店)","lon":"121.48495","lat":"31.23672","category":"96","category_name":"韩国料理","address":"上海黄浦区南京东路299号宏伊广场6楼(河南中路口)"},{"poiid":"B2094757D068A2F8479B","title":"老克勒上海菜(宏伊广场店)","lon":"121.484859711","lat":"31.2365955457","category":"76","category_name":"上海菜","address":"黄浦区南京东路299号宏伊国际广场3楼(近河南中路)"},{"poiid":"B2094757D665A5FA439E","title":"星巴克 河南中路店 Starbucks Cafe","lon":"121.48512","lat":"31.23655","category":"260","category_name":"其他","address":"黄浦区河南中路371号申大厦1楼(河南中路九江路)"},{"poiid":"B2094757D06FA3F4409A","title":"望湘园(宏伊店)","lon":"121.48487","lat":"31.23661","category":"77","category_name":"湖南菜","address":"上海黄浦区南京东路299号宏伊国际广场6楼(河南中路口)  "},{"poiid":"B2094757D06FA0FC479A","title":"尚一汤(名人店)","lon":"121.484609045","lat":"31.2375079839","category":"72","category_name":"广东菜","address":"黄浦区南京东路300号名人购物中心4楼420单元(河南中路口)"},{"poiid":"B2094654DA6FAAFD499A","title":"港泰广场","lon":"121.486","lat":"31.2358","category":"46","category_name":"楼宇","address":"延安东路700号"},{"poiid":"B2094655D26BA1FF479F","title":"南京东路","lon":"121.48534","lat":"31.23632","category":"38","category_name":"公交车站","address":""},{"poiid":"B2094654DA6FA5F8439D","title":"Wagas","lon":"121.48456","lat":"31.23697","category":"248","category_name":"生活娱乐","address":"南京东路299号宏伊国际广场S-116"},{"poiid":"B2094757D068A4F9469A","title":"成隆行蟹王府","lon":"121.485942537","lat":"31.2369416306","category":"257","category_name":"中餐厅","address":"黄浦区九江路216号(河南中路口)"},{"poiid":"B2094757D068A0FB449B","title":"大家乐(南京东路店)","lon":"121.484654738","lat":"31.2374831547","category":"500","category_name":"未知分类","address":"上海市黄浦区南京东路300号名人商业大厦L317-18单元"},{"poiid":"B2094757D06FA6F44893","title":"东瀛国际造型(宏伊店)","lon":"121.484558105","lat":"31.237039566","category":"148","category_name":"美容美发店","address":"黄浦区南京东路299号宏伊广场5楼(河南中路口)"},{"poiid":"B2094655D26DA3FE419B","title":"上海外滩花园酒店(南门)","lon":"121.48571","lat":"31.2361","category":"250","category_name":"公园户外","address":"上海市黄浦区汉口路200号（河南中路路口）"},{"poiid":"B2094757D469A5F84698","title":"亚洲蕉叶 南京东路店","lon":"121.4848452","lat":"31.2375642","category":"110","category_name":"其他亚洲菜","address":"黄浦区南京东路300号名人购物中心5楼"},{"poiid":"B2094654DA6FABF4409F","title":"海通证券大厦","lon":"121.485","lat":"31.2368","category":"46","category_name":"楼宇","address":"浦东临港新城主城区申港大道200号"},{"poiid":"B2094757D469A7FA449C","title":"龙记茶餐厅 南京东路店","lon":"121.48559","lat":"31.23748","category":"257","category_name":"中餐厅","address":"黄浦区南京东路233号南京大楼5楼(近河南中路)"},{"poiid":"B2094757D16DA0FD429F","title":"苹果旗舰店南京东路","lon":"121.485093338","lat":"31.2374578541","category":"500","category_name":"未知分类","address":"上海南京东路300号"},{"poiid":"B2094757D06FA3FD459F","title":"沃歌斯 宏伊国际广场店 Wagas","lon":"121.48542245119","lat":"31.237844437551","category":"94","category_name":"西餐厅","address":"黄浦区九江路288号G116(近河南中路)"},{"poiid":"B2094752DA65A2F8419B","title":"上海外滩","lon":"121.484815","lat":"31.237563","category":"500","category_name":"未知分类","address":"上海市 外滩18号"},{"poiid":"B2094751D36EA3F9459A","title":"云上云源生态云南菜","lon":"121.48562","lat":"31.23753","category":"76","category_name":"上海菜","address":"黄浦区南京东路233号南京大厦5楼(近河南路)"},{"poiid":"B2094757D06FABF5429F","title":"新发记港式茶餐厅","lon":"121.4876","lat":"31.23866","category":"72","category_name":"广东菜","address":"上海黄浦区四川中路417号(近南京东路)"},{"poiid":"B2094757D06EAAFE409B","title":"ANNA BANANA 爱酸奶","lon":"121.48458173","lat":"31.237558456","category":"67","category_name":"甜品店","address":"上海黄浦区河南中路88号威斯汀大饭店101室(广东路口)"},{"poiid":"B2094757D06FA3FE4698","title":"蜀府(宏伊广场店)","lon":"121.484555","lat":"31.237039","category":"71","category_name":"四川菜","address":"黄浦区南京东路299号宏伊广场7楼(近河南中路)"},{"poiid":"B2094654DA6FA4FB4199","title":"香港仔码头茶餐厅(河南中路店)","lon":"121.48529","lat":"31.2369","category":"72","category_name":"广东菜","address":"上海黄浦区河南中路368号(近南京东路)"},{"poiid":"B2094655D26AA7FD439B","title":"钻石小鸟 | 上海体验中心","lon":"121.48455","lat":"31.23697","category":"247","category_name":"餐饮美食","address":"黄浦区南京东路299号宏伊国际广场8楼(河南中路口)查看地图"},{"poiid":"B2094757DA6FA3F5499C","title":"金装大家乐茶餐厅(南京东路店)","lon":"121.487614100001","lat":"31.2384557","category":"72","category_name":"广东菜","address":"黄浦区南京东路300号名人购物中心3楼(近苹果南京路旗舰店)"},{"poiid":"B2094655D26AABFD4799","title":"越味风 宏伊广场店 Pho Yummy","lon":"121.484305054","lat":"31.237211793","category":"99","category_name":"泰国／越南菜品餐厅","address":"黄浦区南京东路299号宏伊国际广场B1楼(河南中路口)"},{"poiid":"B2094655D264A4FC459B","title":"巴贝拉(南京东路店)","lon":"121.48456","lat":"31.23697","category":"94","category_name":"西餐厅","address":"黄浦区南京东路299号宏伊国际广场6楼S-602号(河南中路口)"},{"poiid":"B2094757D06AA5FA4993","title":"华东建筑设计研究院有限公司","lon":"121.487157492","lat":"31.2361457026","category":"46","category_name":"楼宇","address":"上海市黄浦区汉口路151号"},{"poiid":"B2094654DB69A4F4479A","title":"九江路营业厅","lon":"121.48819","lat":"31.23781","category":"151","category_name":"电讯营业厅","address":"黄浦区四川中路324号"},{"poiid":"B2094757D068A3FB469A","title":"交通银行上海市分行","lon":"121.487329","lat":"31.235579","category":"46","category_name":"楼宇","address":"上海黄浦区江西中路200号"},{"poiid":"B2094757D069A1F4489B","title":"申大厦","lon":"121.48487108","lat":"31.236241463","category":"46","category_name":"楼宇","address":"上海汉口路266号"},{"poiid":"B2094757D06FA0F4489D","title":"味千拉面(宏伊店)","lon":"121.48457943","lat":"31.237201398","category":"95","category_name":"日本料理","address":"黄浦区南京东路830号第一百货新楼B1楼(近西藏中路)"},{"poiid":"B2094751D468ABFB469B","title":"环球金融中心100层","lon":"121.486472","lat":"31.236774","category":"500","category_name":"未知分类","address":null},{"poiid":"B2094757D069A6F4479B","title":"上海市民政局","lon":"121.48800659","lat":"31.236328125","category":"252","category_name":"楼宇机构","address":"上海江西中路215号汉口路口"},{"poiid":"B2094752D56FABFC4198","title":"洪師傅牛肉麵","lon":"121.484581","lat":"31.236609","category":"247","category_name":"餐饮美食","address":"九江路287號"},{"poiid":"B2094757D064ABFE4899","title":"中国银行外滩多媒体教室","lon":"121.48706973","lat":"31.23868248","category":"500","category_name":"未知分类","address":"上海滇池路74号540室"},{"poiid":"B2094757D068A3FE409C","title":"DQ冰雪皇后(宏伊店)","lon":"121.484580204","lat":"31.2370502454","category":"113","category_name":"冷饮店","address":"黄浦区南京东路830号第一百货"},{"poiid":"B2094654DB6AA3FE469C","title":"大诚 宏伊店","lon":"121.484328054","lat":"31.237211793","category":"95","category_name":"日本料理","address":"黄浦区南京东路299号宏伊国际广场6楼(河南中路口)"},{"poiid":"B2094655D26BA4F8489F","title":"外滩艺术馆(边门)","lon":"121.4864","lat":"31.23599","category":"183","category_name":"展览馆","address":"汉口路193"},{"poiid":"B2094757D16AA5F54698","title":"珂兰钻石","lon":"121.484550738","lat":"31.2375184554","category":"249","category_name":"购物服务","address":"黄浦区南京东路300号名人商厦503-504室(近河南中路)查看地图"},{"poiid":"B2094757D16DA3FA469C","title":"大块头面菜馆","lon":"121.485606738","lat":"31.2383654735","category":"68","category_name":"快餐厅","address":"黄浦区宁波路190号(近河南中路)"},{"poiid":"B2094655D26FA6FB4898","title":"美伦大楼","lon":"121.48694","lat":"31.23808","category":"46","category_name":"楼宇","address":"昌平区回龙观镇国际信息产业基地高新二街"},{"poiid":"B2094750D76CA6FC489E","title":"AnnaBanana爱酸奶(南京东路店)","lon":"121.485","lat":"31.2376","category":"68","category_name":"快餐厅","address":"南京东路300号名人购物中心1楼L115室(近河南中路)"},{"poiid":"B2094757D06AAAFE4699","title":"49路汉口路江西中路终点站","lon":"121.48606126","lat":"31.236072386","category":"38","category_name":"公交车站","address":"上海黄浦区汉口路201号(对面)"},{"poiid":"B2094757DB68A6FD469A","title":"上海华尔道夫酒店","lon":"121.485093","lat":"31.235814","category":"500","category_name":"未知分类","address":"中山东一路2号"},{"poiid":"B2094655D26DA7FE4793","title":"南京路步行街(东门)","lon":"121.48473","lat":"31.23754","category":"116","category_name":"特色商业街","address":""},{"poiid":"B2094654DA6FA5F84498","title":"港丽餐厅 宏伊店 Charme Restaurant","lon":"121.484328054","lat":"31.237211793","category":"72","category_name":"广东菜","address":"黄浦区南京东路299号宏伊国际广场411号(河南中路口)"},{"poiid":"B2094757D06EAAF8499E","title":"南京东路地铁站","lon":"121.484855","lat":"31.237632","category":"36","category_name":"地铁站","address":"上海轨道交通 二号线 十号线 轨交南京东路站 2 10"},{"poiid":"B209475CD564A7F84292","title":"上海滩新天地店","lon":"121.47463","lat":"31.22164","category":"119","category_name":"商场","address":"\"太仓路181弄新天地北里15号\r\n\""},{"poiid":"B209475CD564A7F84392","title":"上海滩浦东香格里拉店","lon":"121.50058","lat":"31.23634","category":"119","category_name":"商场","address":"浦东富成路33号香格里拉酒店内大堂层"},{"poiid":"B2094757D06FA3FC4092","title":"PANKOO釜山料理(南京东路店)","lon":"121.48495","lat":"31.23672","category":"96","category_name":"韩国料理","address":"上海黄浦区南京东路299号宏伊广场6楼(河南中路口)"},{"poiid":"B2094757D068A2F8479B","title":"老克勒上海菜(宏伊广场店)","lon":"121.484859711","lat":"31.2365955457","category":"76","category_name":"上海菜","address":"黄浦区南京东路299号宏伊国际广场3楼(近河南中路)"},{"poiid":"B2094757D665A5FA439E","title":"星巴克 河南中路店 Starbucks Cafe","lon":"121.48512","lat":"31.23655","category":"260","category_name":"其他","address":"黄浦区河南中路371号申大厦1楼(河南中路九江路)"},{"poiid":"B2094757D06FA3F4409A","title":"望湘园(宏伊店)","lon":"121.48487","lat":"31.23661","category":"77","category_name":"湖南菜","address":"上海黄浦区南京东路299号宏伊国际广场6楼(河南中路口)  "},{"poiid":"B2094757D06FA0FC479A","title":"尚一汤(名人店)","lon":"121.484609045","lat":"31.2375079839","category":"72","category_name":"广东菜","address":"黄浦区南京东路300号名人购物中心4楼420单元(河南中路口)"},{"poiid":"B2094654DA6FAAFD499A","title":"港泰广场","lon":"121.486","lat":"31.2358","category":"46","category_name":"楼宇","address":"延安东路700号"},{"poiid":"B2094655D26BA1FF479F","title":"南京东路","lon":"121.48534","lat":"31.23632","category":"38","category_name":"公交车站","address":""},{"poiid":"B2094654DA6FA5F8439D","title":"Wagas","lon":"121.48456","lat":"31.23697","category":"248","category_name":"生活娱乐","address":"南京东路299号宏伊国际广场S-116"},{"poiid":"B2094757D068A4F9469A","title":"成隆行蟹王府","lon":"121.485942537","lat":"31.2369416306","category":"257","category_name":"中餐厅","address":"黄浦区九江路216号(河南中路口)"},{"poiid":"B2094757D068A0FB449B","title":"大家乐(南京东路店)","lon":"121.484654738","lat":"31.2374831547","category":"500","category_name":"未知分类","address":"上海市黄浦区南京东路300号名人商业大厦L317-18单元"},{"poiid":"B2094757D06FA6F44893","title":"东瀛国际造型(宏伊店)","lon":"121.484558105","lat":"31.237039566","category":"148","category_name":"美容美发店","address":"黄浦区南京东路299号宏伊广场5楼(河南中路口)"},{"poiid":"B2094655D26DA3FE419B","title":"上海外滩花园酒店(南门)","lon":"121.48571","lat":"31.2361","category":"250","category_name":"公园户外","address":"上海市黄浦区汉口路200号（河南中路路口）"},{"poiid":"B2094757D469A5F84698","title":"亚洲蕉叶 南京东路店","lon":"121.4848452","lat":"31.2375642","category":"110","category_name":"其他亚洲菜","address":"黄浦区南京东路300号名人购物中心5楼"},{"poiid":"B2094654DA6FABF4409F","title":"海通证券大厦","lon":"121.485","lat":"31.2368","category":"46","category_name":"楼宇","address":"浦东临港新城主城区申港大道200号"},{"poiid":"B2094757D469A7FA449C","title":"龙记茶餐厅 南京东路店","lon":"121.48559","lat":"31.23748","category":"257","category_name":"中餐厅","address":"黄浦区南京东路233号南京大楼5楼(近河南中路)"},{"poiid":"B2094757D16DA0FD429F","title":"苹果旗舰店南京东路","lon":"121.485093338","lat":"31.2374578541","category":"500","category_name":"未知分类","address":"上海南京东路300号"},{"poiid":"B2094757D06FA3FD459F","title":"沃歌斯 宏伊国际广场店 Wagas","lon":"121.48542245119","lat":"31.237844437551","category":"94","category_name":"西餐厅","address":"黄浦区九江路288号G116(近河南中路)"},{"poiid":"B2094752DA65A2F8419B","title":"上海外滩","lon":"121.484815","lat":"31.237563","category":"500","category_name":"未知分类","address":"上海市 外滩18号"},{"poiid":"B2094751D36EA3F9459A","title":"云上云源生态云南菜","lon":"121.48562","lat":"31.23753","category":"76","category_name":"上海菜","address":"黄浦区南京东路233号南京大厦5楼(近河南路)"},{"poiid":"B2094757D06FABF5429F","title":"新发记港式茶餐厅","lon":"121.4876","lat":"31.23866","category":"72","category_name":"广东菜","address":"上海黄浦区四川中路417号(近南京东路)"},{"poiid":"B2094757D06EAAFE409B","title":"ANNA BANANA 爱酸奶","lon":"121.48458173","lat":"31.237558456","category":"67","category_name":"甜品店","address":"上海黄浦区河南中路88号威斯汀大饭店101室(广东路口)"},{"poiid":"B2094757D06FA3FE4698","title":"蜀府(宏伊广场店)","lon":"121.484555","lat":"31.237039","category":"71","category_name":"四川菜","address":"黄浦区南京东路299号宏伊广场7楼(近河南中路)"},{"poiid":"B2094654DA6FA4FB4199","title":"香港仔码头茶餐厅(河南中路店)","lon":"121.48529","lat":"31.2369","category":"72","category_name":"广东菜","address":"上海黄浦区河南中路368号(近南京东路)"},{"poiid":"B2094655D26AA7FD439B","title":"钻石小鸟 | 上海体验中心","lon":"121.48455","lat":"31.23697","category":"247","category_name":"餐饮美食","address":"黄浦区南京东路299号宏伊国际广场8楼(河南中路口)查看地图"},{"poiid":"B2094757DA6FA3F5499C","title":"金装大家乐茶餐厅(南京东路店)","lon":"121.487614100001","lat":"31.2384557","category":"72","category_name":"广东菜","address":"黄浦区南京东路300号名人购物中心3楼(近苹果南京路旗舰店)"},{"poiid":"B2094655D26AABFD4799","title":"越味风 宏伊广场店 Pho Yummy","lon":"121.484305054","lat":"31.237211793","category":"99","category_name":"泰国／越南菜品餐厅","address":"黄浦区南京东路299号宏伊国际广场B1楼(河南中路口)"},{"poiid":"B2094655D264A4FC459B","title":"巴贝拉(南京东路店)","lon":"121.48456","lat":"31.23697","category":"94","category_name":"西餐厅","address":"黄浦区南京东路299号宏伊国际广场6楼S-602号(河南中路口)"},{"poiid":"B2094757D06AA5FA4993","title":"华东建筑设计研究院有限公司","lon":"121.487157492","lat":"31.2361457026","category":"46","category_name":"楼宇","address":"上海市黄浦区汉口路151号"},{"poiid":"B2094654DB69A4F4479A","title":"九江路营业厅","lon":"121.48819","lat":"31.23781","category":"151","category_name":"电讯营业厅","address":"黄浦区四川中路324号"},{"poiid":"B2094757D068A3FB469A","title":"交通银行上海市分行","lon":"121.487329","lat":"31.235579","category":"46","category_name":"楼宇","address":"上海黄浦区江西中路200号"},{"poiid":"B2094757D069A1F4489B","title":"申大厦","lon":"121.48487108","lat":"31.236241463","category":"46","category_name":"楼宇","address":"上海汉口路266号"},{"poiid":"B2094757D06FA0F4489D","title":"味千拉面(宏伊店)","lon":"121.48457943","lat":"31.237201398","category":"95","category_name":"日本料理","address":"黄浦区南京东路830号第一百货新楼B1楼(近西藏中路)"},{"poiid":"B2094751D468ABFB469B","title":"环球金融中心100层","lon":"121.486472","lat":"31.236774","category":"500","category_name":"未知分类","address":null},{"poiid":"B2094757D069A6F4479B","title":"上海市民政局","lon":"121.48800659","lat":"31.236328125","category":"252","category_name":"楼宇机构","address":"上海江西中路215号汉口路口"},{"poiid":"B2094752D56FABFC4198","title":"洪師傅牛肉麵","lon":"121.484581","lat":"31.236609","category":"247","category_name":"餐饮美食","address":"九江路287號"},{"poiid":"B2094757D064ABFE4899","title":"中国银行外滩多媒体教室","lon":"121.48706973","lat":"31.23868248","category":"500","category_name":"未知分类","address":"上海滇池路74号540室"},{"poiid":"B2094757D068A3FE409C","title":"DQ冰雪皇后(宏伊店)","lon":"121.484580204","lat":"31.2370502454","category":"113","category_name":"冷饮店","address":"黄浦区南京东路830号第一百货"},{"poiid":"B2094654DB6AA3FE469C","title":"大诚 宏伊店","lon":"121.484328054","lat":"31.237211793","category":"95","category_name":"日本料理","address":"黄浦区南京东路299号宏伊国际广场6楼(河南中路口)"},{"poiid":"B2094655D26BA4F8489F","title":"外滩艺术馆(边门)","lon":"121.4864","lat":"31.23599","category":"183","category_name":"展览馆","address":"汉口路193"},{"poiid":"B2094757D16AA5F54698","title":"珂兰钻石","lon":"121.484550738","lat":"31.2375184554","category":"249","category_name":"购物服务","address":"黄浦区南京东路300号名人商厦503-504室(近河南中路)查看地图"},{"poiid":"B2094757D16DA3FA469C","title":"大块头面菜馆","lon":"121.485606738","lat":"31.2383654735","category":"68","category_name":"快餐厅","address":"黄浦区宁波路190号(近河南中路)"},{"poiid":"B2094655D26FA6FB4898","title":"美伦大楼","lon":"121.48694","lat":"31.23808","category":"46","category_name":"楼宇","address":"昌平区回龙观镇国际信息产业基地高新二街"},{"poiid":"B2094750D76CA6FC489E","title":"AnnaBanana爱酸奶(南京东路店)","lon":"121.485","lat":"31.2376","category":"68","category_name":"快餐厅","address":"南京东路300号名人购物中心1楼L115室(近河南中路)"},{"poiid":"B2094757D06AAAFE4699","title":"49路汉口路江西中路终点站","lon":"121.48606126","lat":"31.236072386","category":"38","category_name":"公交车站","address":"上海黄浦区汉口路201号(对面)"},{"poiid":"B2094757DB68A6FD469A","title":"上海华尔道夫酒店","lon":"121.485093","lat":"31.235814","category":"500","category_name":"未知分类","address":"中山东一路2号"},{"poiid":"B2094655D26DA7FE4793","title":"南京路步行街(东门)","lon":"121.48473","lat":"31.23754","category":"116","category_name":"特色商业街","address":""},{"poiid":"B2094654DA6FA5F84498","title":"港丽餐厅 宏伊店 Charme Restaurant","lon":"121.484328054","lat":"31.237211793","category":"72","category_name":"广东菜","address":"黄浦区南京东路299号宏伊国际广场411号(河南中路口)"},{"poiid":"B2094757D06EAAF8499E","title":"南京东路地铁站","lon":"121.484855","lat":"31.237632","category":"36","category_name":"地铁站","address":"上海轨道交通 二号线 十号线 轨交南京东路站 2 10"},{"poiid":"B209475CD564A7F84292","title":"上海滩新天地店","lon":"121.47463","lat":"31.22164","category":"119","category_name":"商场","address":"\"太仓路181弄新天地北里15号\r\n\""},{"poiid":"B209475CD564A7F84392","title":"上海滩浦东香格里拉店","lon":"121.50058","lat":"31.23634","category":"119","category_name":"商场","address":"浦东富成路33号香格里拉酒店内大堂层"},{"poiid":"B2094757D06FA3FC4092","title":"PANKOO釜山料理(南京东路店)","lon":"121.48495","lat":"31.23672","category":"96","category_name":"韩国料理","address":"上海黄浦区南京东路299号宏伊广场6楼(河南中路口)"},{"poiid":"B2094757D068A2F8479B","title":"老克勒上海菜(宏伊广场店)","lon":"121.484859711","lat":"31.2365955457","category":"76","category_name":"上海菜","address":"黄浦区南京东路299号宏伊国际广场3楼(近河南中路)"},{"poiid":"B2094757D665A5FA439E","title":"星巴克 河南中路店 Starbucks Cafe","lon":"121.48512","lat":"31.23655","category":"260","category_name":"其他","address":"黄浦区河南中路371号申大厦1楼(河南中路九江路)"},{"poiid":"B2094757D06FA3F4409A","title":"望湘园(宏伊店)","lon":"121.48487","lat":"31.23661","category":"77","category_name":"湖南菜","address":"上海黄浦区南京东路299号宏伊国际广场6楼(河南中路口)  "},{"poiid":"B2094757D06FA0FC479A","title":"尚一汤(名人店)","lon":"121.484609045","lat":"31.2375079839","category":"72","category_name":"广东菜","address":"黄浦区南京东路300号名人购物中心4楼420单元(河南中路口)"},{"poiid":"B2094654DA6FAAFD499A","title":"港泰广场","lon":"121.486","lat":"31.2358","category":"46","category_name":"楼宇","address":"延安东路700号"},{"poiid":"B2094655D26BA1FF479F","title":"南京东路","lon":"121.48534","lat":"31.23632","category":"38","category_name":"公交车站","address":""},{"poiid":"B2094654DA6FA5F8439D","title":"Wagas","lon":"121.48456","lat":"31.23697","category":"248","category_name":"生活娱乐","address":"南京东路299号宏伊国际广场S-116"},{"poiid":"B2094757D068A4F9469A","title":"成隆行蟹王府","lon":"121.485942537","lat":"31.2369416306","category":"257","category_name":"中餐厅","address":"黄浦区九江路216号(河南中路口)"},{"poiid":"B2094757D068A0FB449B","title":"大家乐(南京东路店)","lon":"121.484654738","lat":"31.2374831547","category":"500","category_name":"未知分类","address":"上海市黄浦区南京东路300号名人商业大厦L317-18单元"},{"poiid":"B2094757D06FA6F44893","title":"东瀛国际造型(宏伊店)","lon":"121.484558105","lat":"31.237039566","category":"148","category_name":"美容美发店","address":"黄浦区南京东路299号宏伊广场5楼(河南中路口)"},{"poiid":"B2094655D26DA3FE419B","title":"上海外滩花园酒店(南门)","lon":"121.48571","lat":"31.2361","category":"250","category_name":"公园户外","address":"上海市黄浦区汉口路200号（河南中路路口）"},{"poiid":"B2094757D469A5F84698","title":"亚洲蕉叶 南京东路店","lon":"121.4848452","lat":"31.2375642","category":"110","category_name":"其他亚洲菜","address":"黄浦区南京东路300号名人购物中心5楼"},{"poiid":"B2094654DA6FABF4409F","title":"海通证券大厦","lon":"121.485","lat":"31.2368","category":"46","category_name":"楼宇","address":"浦东临港新城主城区申港大道200号"},{"poiid":"B2094757D469A7FA449C","title":"龙记茶餐厅 南京东路店","lon":"121.48559","lat":"31.23748","category":"257","category_name":"中餐厅","address":"黄浦区南京东路233号南京大楼5楼(近河南中路)"},{"poiid":"B2094757D16DA0FD429F","title":"苹果旗舰店南京东路","lon":"121.485093338","lat":"31.2374578541","category":"500","category_name":"未知分类","address":"上海南京东路300号"},{"poiid":"B2094757D06FA3FD459F","title":"沃歌斯 宏伊国际广场店 Wagas","lon":"121.48542245119","lat":"31.237844437551","category":"94","category_name":"西餐厅","address":"黄浦区九江路288号G116(近河南中路)"},{"poiid":"B2094752DA65A2F8419B","title":"上海外滩","lon":"121.484815","lat":"31.237563","category":"500","category_name":"未知分类","address":"上海市 外滩18号"},{"poiid":"B2094751D36EA3F9459A","title":"云上云源生态云南菜","lon":"121.48562","lat":"31.23753","category":"76","category_name":"上海菜","address":"黄浦区南京东路233号南京大厦5楼(近河南路)"},{"poiid":"B2094757D06FABF5429F","title":"新发记港式茶餐厅","lon":"121.4876","lat":"31.23866","category":"72","category_name":"广东菜","address":"上海黄浦区四川中路417号(近南京东路)"},{"poiid":"B2094757D06EAAFE409B","title":"ANNA BANANA 爱酸奶","lon":"121.48458173","lat":"31.237558456","category":"67","category_name":"甜品店","address":"上海黄浦区河南中路88号威斯汀大饭店101室(广东路口)"},{"poiid":"B2094757D06FA3FE4698","title":"蜀府(宏伊广场店)","lon":"121.484555","lat":"31.237039","category":"71","category_name":"四川菜","address":"黄浦区南京东路299号宏伊广场7楼(近河南中路)"},{"poiid":"B2094654DA6FA4FB4199","title":"香港仔码头茶餐厅(河南中路店)","lon":"121.48529","lat":"31.2369","category":"72","category_name":"广东菜","address":"上海黄浦区河南中路368号(近南京东路)"},{"poiid":"B2094655D26AA7FD439B","title":"钻石小鸟 | 上海体验中心","lon":"121.48455","lat":"31.23697","category":"247","category_name":"餐饮美食","address":"黄浦区南京东路299号宏伊国际广场8楼(河南中路口)查看地图"},{"poiid":"B2094757DA6FA3F5499C","title":"金装大家乐茶餐厅(南京东路店)","lon":"121.487614100001","lat":"31.2384557","category":"72","category_name":"广东菜","address":"黄浦区南京东路300号名人购物中心3楼(近苹果南京路旗舰店)"},{"poiid":"B2094655D26AABFD4799","title":"越味风 宏伊广场店 Pho Yummy","lon":"121.484305054","lat":"31.237211793","category":"99","category_name":"泰国／越南菜品餐厅","address":"黄浦区南京东路299号宏伊国际广场B1楼(河南中路口)"},{"poiid":"B2094655D264A4FC459B","title":"巴贝拉(南京东路店)","lon":"121.48456","lat":"31.23697","category":"94","category_name":"西餐厅","address":"黄浦区南京东路299号宏伊国际广场6楼S-602号(河南中路口)"},{"poiid":"B2094757D06AA5FA4993","title":"华东建筑设计研究院有限公司","lon":"121.487157492","lat":"31.2361457026","category":"46","category_name":"楼宇","address":"上海市黄浦区汉口路151号"},{"poiid":"B2094654DB69A4F4479A","title":"九江路营业厅","lon":"121.48819","lat":"31.23781","category":"151","category_name":"电讯营业厅","address":"黄浦区四川中路324号"},{"poiid":"B2094757D068A3FB469A","title":"交通银行上海市分行","lon":"121.487329","lat":"31.235579","category":"46","category_name":"楼宇","address":"上海黄浦区江西中路200号"},{"poiid":"B2094757D069A1F4489B","title":"申大厦","lon":"121.48487108","lat":"31.236241463","category":"46","category_name":"楼宇","address":"上海汉口路266号"},{"poiid":"B2094757D06FA0F4489D","title":"味千拉面(宏伊店)","lon":"121.48457943","lat":"31.237201398","category":"95","category_name":"日本料理","address":"黄浦区南京东路830号第一百货新楼B1楼(近西藏中路)"},{"poiid":"B2094751D468ABFB469B","title":"环球金融中心100层","lon":"121.486472","lat":"31.236774","category":"500","category_name":"未知分类","address":null},{"poiid":"B2094757D069A6F4479B","title":"上海市民政局","lon":"121.48800659","lat":"31.236328125","category":"252","category_name":"楼宇机构","address":"上海江西中路215号汉口路口"},{"poiid":"B2094752D56FABFC4198","title":"洪師傅牛肉麵","lon":"121.484581","lat":"31.236609","category":"247","category_name":"餐饮美食","address":"九江路287號"},{"poiid":"B2094757D064ABFE4899","title":"中国银行外滩多媒体教室","lon":"121.48706973","lat":"31.23868248","category":"500","category_name":"未知分类","address":"上海滇池路74号540室"},{"poiid":"B2094757D068A3FE409C","title":"DQ冰雪皇后(宏伊店)","lon":"121.484580204","lat":"31.2370502454","category":"113","category_name":"冷饮店","address":"黄浦区南京东路830号第一百货"},{"poiid":"B2094654DB6AA3FE469C","title":"大诚 宏伊店","lon":"121.484328054","lat":"31.237211793","category":"95","category_name":"日本料理","address":"黄浦区南京东路299号宏伊国际广场6楼(河南中路口)"},{"poiid":"B2094655D26BA4F8489F","title":"外滩艺术馆(边门)","lon":"121.4864","lat":"31.23599","category":"183","category_name":"展览馆","address":"汉口路193"},{"poiid":"B2094757D16AA5F54698","title":"珂兰钻石","lon":"121.484550738","lat":"31.2375184554","category":"249","category_name":"购物服务","address":"黄浦区南京东路300号名人商厦503-504室(近河南中路)查看地图"},{"poiid":"B2094757D16DA3FA469C","title":"大块头面菜馆","lon":"121.485606738","lat":"31.2383654735","category":"68","category_name":"快餐厅","address":"黄浦区宁波路190号(近河南中路)"},{"poiid":"B2094655D26FA6FB4898","title":"美伦大楼","lon":"121.48694","lat":"31.23808","category":"46","category_name":"楼宇","address":"昌平区回龙观镇国际信息产业基地高新二街"},{"poiid":"B2094750D76CA6FC489E","title":"AnnaBanana爱酸奶(南京东路店)","lon":"121.485","lat":"31.2376","category":"68","category_name":"快餐厅","address":"南京东路300号名人购物中心1楼L115室(近河南中路)"},{"poiid":"B2094757D06AAAFE4699","title":"49路汉口路江西中路终点站","lon":"121.48606126","lat":"31.236072386","category":"38","category_name":"公交车站","address":"上海黄浦区汉口路201号(对面)"},{"poiid":"B2094757DB68A6FD469A","title":"上海华尔道夫酒店","lon":"121.485093","lat":"31.235814","category":"500","category_name":"未知分类","address":"中山东一路2号"},{"poiid":"B2094655D26DA7FE4793","title":"南京路步行街(东门)","lon":"121.48473","lat":"31.23754","category":"116","category_name":"特色商业街","address":""},{"poiid":"B2094654DA6FA5F84498","title":"港丽餐厅 宏伊店 Charme Restaurant","lon":"121.484328054","lat":"31.237211793","category":"72","category_name":"广东菜","address":"黄浦区南京东路299号宏伊国际广场411号(河南中路口)"},{"poiid":"B2094757D06EAAF8499E","title":"南京东路地铁站","lon":"121.484855","lat":"31.237632","category":"36","category_name":"地铁站","address":"上海轨道交通 二号线 十号线 轨交南京东路站 2 10"},{"poiid":"B209475CD564A7F84292","title":"上海滩新天地店","lon":"121.47463","lat":"31.22164","category":"119","category_name":"商场","address":"\"太仓路181弄新天地北里15号\r\n\""},{"poiid":"B209475CD564A7F84392","title":"上海滩浦东香格里拉店","lon":"121.50058","lat":"31.23634","category":"119","category_name":"商场","address":"浦东富成路33号香格里拉酒店内大堂层"},{"poiid":"B2094757D06FA3FC4092","title":"PANKOO釜山料理(南京东路店)","lon":"121.48495","lat":"31.23672","category":"96","category_name":"韩国料理","address":"上海黄浦区南京东路299号宏伊广场6楼(河南中路口)"},{"poiid":"B2094757D068A2F8479B","title":"老克勒上海菜(宏伊广场店)","lon":"121.484859711","lat":"31.2365955457","category":"76","category_name":"上海菜","address":"黄浦区南京东路299号宏伊国际广场3楼(近河南中路)"},{"poiid":"B2094757D665A5FA439E","title":"星巴克 河南中路店 Starbucks Cafe","lon":"121.48512","lat":"31.23655","category":"260","category_name":"其他","address":"黄浦区河南中路371号申大厦1楼(河南中路九江路)"},{"poiid":"B2094757D06FA3F4409A","title":"望湘园(宏伊店)","lon":"121.48487","lat":"31.23661","category":"77","category_name":"湖南菜","address":"上海黄浦区南京东路299号宏伊国际广场6楼(河南中路口)  "},{"poiid":"B2094757D06FA0FC479A","title":"尚一汤(名人店)","lon":"121.484609045","lat":"31.2375079839","category":"72","category_name":"广东菜","address":"黄浦区南京东路300号名人购物中心4楼420单元(河南中路口)"},{"poiid":"B2094654DA6FAAFD499A","title":"港泰广场","lon":"121.486","lat":"31.2358","category":"46","category_name":"楼宇","address":"延安东路700号"},{"poiid":"B2094655D26BA1FF479F","title":"南京东路","lon":"121.48534","lat":"31.23632","category":"38","category_name":"公交车站","address":""},{"poiid":"B2094654DA6FA5F8439D","title":"Wagas","lon":"121.48456","lat":"31.23697","category":"248","category_name":"生活娱乐","address":"南京东路299号宏伊国际广场S-116"},{"poiid":"B2094757D068A4F9469A","title":"成隆行蟹王府","lon":"121.485942537","lat":"31.2369416306","category":"257","category_name":"中餐厅","address":"黄浦区九江路216号(河南中路口)"},{"poiid":"B2094757D068A0FB449B","title":"大家乐(南京东路店)","lon":"121.484654738","lat":"31.2374831547","category":"500","category_name":"未知分类","address":"上海市黄浦区南京东路300号名人商业大厦L317-18单元"},{"poiid":"B2094757D06FA6F44893","title":"东瀛国际造型(宏伊店)","lon":"121.484558105","lat":"31.237039566","category":"148","category_name":"美容美发店","address":"黄浦区南京东路299号宏伊广场5楼(河南中路口)"},{"poiid":"B2094655D26DA3FE419B","title":"上海外滩花园酒店(南门)","lon":"121.48571","lat":"31.2361","category":"250","category_name":"公园户外","address":"上海市黄浦区汉口路200号（河南中路路口）"},{"poiid":"B2094757D469A5F84698","title":"亚洲蕉叶 南京东路店","lon":"121.4848452","lat":"31.2375642","category":"110","category_name":"其他亚洲菜","address":"黄浦区南京东路300号名人购物中心5楼"},{"poiid":"B2094654DA6FABF4409F","title":"海通证券大厦","lon":"121.485","lat":"31.2368","category":"46","category_name":"楼宇","address":"浦东临港新城主城区申港大道200号"},{"poiid":"B2094757D469A7FA449C","title":"龙记茶餐厅 南京东路店","lon":"121.48559","lat":"31.23748","category":"257","category_name":"中餐厅","address":"黄浦区南京东路233号南京大楼5楼(近河南中路)"},{"poiid":"B2094757D16DA0FD429F","title":"苹果旗舰店南京东路","lon":"121.485093338","lat":"31.2374578541","category":"500","category_name":"未知分类","address":"上海南京东路300号"},{"poiid":"B2094757D06FA3FD459F","title":"沃歌斯 宏伊国际广场店 Wagas","lon":"121.48542245119","lat":"31.237844437551","category":"94","category_name":"西餐厅","address":"黄浦区九江路288号G116(近河南中路)"},{"poiid":"B2094752DA65A2F8419B","title":"上海外滩","lon":"121.484815","lat":"31.237563","category":"500","category_name":"未知分类","address":"上海市 外滩18号"},{"poiid":"B2094751D36EA3F9459A","title":"云上云源生态云南菜","lon":"121.48562","lat":"31.23753","category":"76","category_name":"上海菜","address":"黄浦区南京东路233号南京大厦5楼(近河南路)"},{"poiid":"B2094757D06FABF5429F","title":"新发记港式茶餐厅","lon":"121.4876","lat":"31.23866","category":"72","category_name":"广东菜","address":"上海黄浦区四川中路417号(近南京东路)"},{"poiid":"B2094757D06EAAFE409B","title":"ANNA BANANA 爱酸奶","lon":"121.48458173","lat":"31.237558456","category":"67","category_name":"甜品店","address":"上海黄浦区河南中路88号威斯汀大饭店101室(广东路口)"},{"poiid":"B2094757D06FA3FE4698","title":"蜀府(宏伊广场店)","lon":"121.484555","lat":"31.237039","category":"71","category_name":"四川菜","address":"黄浦区南京东路299号宏伊广场7楼(近河南中路)"},{"poiid":"B2094654DA6FA4FB4199","title":"香港仔码头茶餐厅(河南中路店)","lon":"121.48529","lat":"31.2369","category":"72","category_name":"广东菜","address":"上海黄浦区河南中路368号(近南京东路)"},{"poiid":"B2094655D26AA7FD439B","title":"钻石小鸟 | 上海体验中心","lon":"121.48455","lat":"31.23697","category":"247","category_name":"餐饮美食","address":"黄浦区南京东路299号宏伊国际广场8楼(河南中路口)查看地图"},{"poiid":"B2094757DA6FA3F5499C","title":"金装大家乐茶餐厅(南京东路店)","lon":"121.487614100001","lat":"31.2384557","category":"72","category_name":"广东菜","address":"黄浦区南京东路300号名人购物中心3楼(近苹果南京路旗舰店)"},{"poiid":"B2094655D26AABFD4799","title":"越味风 宏伊广场店 Pho Yummy","lon":"121.484305054","lat":"31.237211793","category":"99","category_name":"泰国／越南菜品餐厅","address":"黄浦区南京东路299号宏伊国际广场B1楼(河南中路口)"},{"poiid":"B2094655D264A4FC459B","title":"巴贝拉(南京东路店)","lon":"121.48456","lat":"31.23697","category":"94","category_name":"西餐厅","address":"黄浦区南京东路299号宏伊国际广场6楼S-602号(河南中路口)"},{"poiid":"B2094757D06AA5FA4993","title":"华东建筑设计研究院有限公司","lon":"121.487157492","lat":"31.2361457026","category":"46","category_name":"楼宇","address":"上海市黄浦区汉口路151号"},{"poiid":"B2094654DB69A4F4479A","title":"九江路营业厅","lon":"121.48819","lat":"31.23781","category":"151","category_name":"电讯营业厅","address":"黄浦区四川中路324号"},{"poiid":"B2094757D068A3FB469A","title":"交通银行上海市分行","lon":"121.487329","lat":"31.235579","category":"46","category_name":"楼宇","address":"上海黄浦区江西中路200号"},{"poiid":"B2094757D069A1F4489B","title":"申大厦","lon":"121.48487108","lat":"31.236241463","category":"46","category_name":"楼宇","address":"上海汉口路266号"},{"poiid":"B2094757D06FA0F4489D","title":"味千拉面(宏伊店)","lon":"121.48457943","lat":"31.237201398","category":"95","category_name":"日本料理","address":"黄浦区南京东路830号第一百货新楼B1楼(近西藏中路)"},{"poiid":"B2094751D468ABFB469B","title":"环球金融中心100层","lon":"121.486472","lat":"31.236774","category":"500","category_name":"未知分类","address":null},{"poiid":"B2094757D069A6F4479B","title":"上海市民政局","lon":"121.48800659","lat":"31.236328125","category":"252","category_name":"楼宇机构","address":"上海江西中路215号汉口路口"},{"poiid":"B2094752D56FABFC4198","title":"洪師傅牛肉麵","lon":"121.484581","lat":"31.236609","category":"247","category_name":"餐饮美食","address":"九江路287號"},{"poiid":"B2094757D064ABFE4899","title":"中国银行外滩多媒体教室","lon":"121.48706973","lat":"31.23868248","category":"500","category_name":"未知分类","address":"上海滇池路74号540室"},{"poiid":"B2094757D068A3FE409C","title":"DQ冰雪皇后(宏伊店)","lon":"121.484580204","lat":"31.2370502454","category":"113","category_name":"冷饮店","address":"黄浦区南京东路830号第一百货"},{"poiid":"B2094654DB6AA3FE469C","title":"大诚 宏伊店","lon":"121.484328054","lat":"31.237211793","category":"95","category_name":"日本料理","address":"黄浦区南京东路299号宏伊国际广场6楼(河南中路口)"},{"poiid":"B2094655D26BA4F8489F","title":"外滩艺术馆(边门)","lon":"121.4864","lat":"31.23599","category":"183","category_name":"展览馆","address":"汉口路193"},{"poiid":"B2094757D16AA5F54698","title":"珂兰钻石","lon":"121.484550738","lat":"31.2375184554","category":"249","category_name":"购物服务","address":"黄浦区南京东路300号名人商厦503-504室(近河南中路)查看地图"},{"poiid":"B2094757D16DA3FA469C","title":"大块头面菜馆","lon":"121.485606738","lat":"31.2383654735","category":"68","category_name":"快餐厅","address":"黄浦区宁波路190号(近河南中路)"},{"poiid":"B2094655D26FA6FB4898","title":"美伦大楼","lon":"121.48694","lat":"31.23808","category":"46","category_name":"楼宇","address":"昌平区回龙观镇国际信息产业基地高新二街"},{"poiid":"B2094750D76CA6FC489E","title":"AnnaBanana爱酸奶(南京东路店)","lon":"121.485","lat":"31.2376","category":"68","category_name":"快餐厅","address":"南京东路300号名人购物中心1楼L115室(近河南中路)"},{"poiid":"B2094757D06AAAFE4699","title":"49路汉口路江西中路终点站","lon":"121.48606126","lat":"31.236072386","category":"38","category_name":"公交车站","address":"上海黄浦区汉口路201号(对面)"},{"poiid":"B2094757DB68A6FD469A","title":"上海华尔道夫酒店","lon":"121.485093","lat":"31.235814","category":"500","category_name":"未知分类","address":"中山东一路2号"}]