[{"poiid":"B2094654D56FABF54198","title":"上海长海医院","lon":"121.5256","lat":"31.30936","category":"162","category_name":"医院","address":"上海杨浦区长海路168-174号(长海路)"},{"poiid":"B2094654D56FA0FB499D","title":"欧尚(中原路店)","lon":"121.53256","lat":"31.31432","category":"118","category_name":"超级市场","address":"杨浦区中原路102号(近嫩江路)"},{"poiid":"B2094757D068A7F4469B","title":"长海医院住院部","lon":"121.527867794","lat":"31.3088527016","category":"162","category_name":"医院","address":"上海杨浦区长海路174号(中原路)"},{"poiid":"B2094757D06FA1FD499D","title":"麦当劳(中原路店)","lon":"121.53259","lat":"31.31467","category":"68","category_name":"快餐厅","address":"杨浦区中原路126号欧尚对面(嫩江路)"},{"poiid":"B2094757D16BABFC429D","title":"第二军医大学校园","lon":"121.5283081","lat":"31.309152232","category":"500","category_name":"未知分类","address":"上海市杨浦区长海路174号"},{"poiid":"B2094757D068A1FD4699","title":"第二军医大学附属东方肝胆外科医院","lon":"121.52937","lat":"31.30994","category":"162","category_name":"医院","address":"杨浦区长海路225号(近中原路)"},{"poiid":"B2094757D06EAAFE419F","title":"嫩江路地铁站","lon":"121.53196744","lat":"31.31512529","category":"36","category_name":"地铁站","address":"上海轨道交通 八号线 轨交嫩江路站 8"},{"poiid":"B2094757D06FA4FD4393","title":"上海体育学院综合馆","lon":"121.52752","lat":"31.30951","category":"221","category_name":"健身中心","address":"杨浦区长海路345号上海体育学院内(近嫩江路)"},{"poiid":"B2094757D068A0F94699","title":"有家川菜(民星路店)","lon":"121.534144","lat":"31.311687","category":"71","category_name":"四川菜","address":"杨浦区民星路560号(近中原路)"},{"poiid":"B2094750DA65A3FA409B","title":"鲜芋仙（中原欧尚店）","lon":"121.532402","lat":"31.314386","category":"67","category_name":"甜品店","address":"杨浦区中原路102号中原欧尚106-107店铺(近嫩江路)"},{"poiid":"B2094757D068A4F94099","title":"肯德基 KFC (长海店)","lon":"121.52692775","lat":"31.309974424","category":"68","category_name":"快餐厅","address":"杨浦区长海路361号(近嫩江路)"},{"poiid":"B2094750D76EABFD459D","title":"小笠原家の私厨料理","lon":"121.53","lat":"31.3153","category":"95","category_name":"日本料理","address":"杨浦区嫩江路国和一村20号102室B(近中原路嫩江路)"},{"poiid":"B2094757D068AAF4439E","title":"上海电视大学(中原分部)","lon":"121.53246","lat":"31.31066","category":"52","category_name":"高等院校","address":"杨浦区中原路42号(近民星路)"},{"poiid":"B2094757D069A0FD409A","title":"中原路民星路","lon":"121.532111","lat":"31.313224","category":"500","category_name":"未知分类","address":"上海中原路民星路"},{"poiid":"B2094757D06FAAF9489E","title":"肯德基 KFC (嫩江店)","lon":"121.532601","lat":"31.313729","category":"68","category_name":"快餐厅","address":"杨浦区中原路102号欧尚超市内(近嫩江路)"},{"poiid":"B2094655D26FA2FB4392","title":"85度C 中原路店","lon":"121.532335054","lat":"31.314038793","category":"112","category_name":"糕饼店","address":"杨浦区中原路102号欧尚超市内(近嫩江路)"},{"poiid":"B2094654D56FA7FE439A","title":"天工麻辣烫 中原路","lon":"121.53218","lat":"31.31378","category":"68","category_name":"快餐厅","address":"杨浦区中原路58号欧尚超市旁(近民星路)"},{"poiid":"B2094757D76AA2FB4492","title":"深井大叔港式烧腊 中原店","lon":"121.53232","lat":"31.315372","category":"72","category_name":"广东菜","address":"杨浦区中原路102号欧尚超市内(近嫩江路)"},{"poiid":"B2094654D56FAAFC499A","title":"长海一村","lon":"121.53006","lat":"31.311691","category":"47","category_name":"住宅区","address":"长海一村1-62号"},{"poiid":"B2094654D56FA7F94999","title":"组合发型顾问嫩江店(嫩江路)","lon":"121.53262","lat":"31.315","category":"148","category_name":"美容美发店","address":"杨浦区嫩江路1240号"},{"poiid":"B2094654D56FAAFE4498","title":"长海新村","lon":"121.53296","lat":"31.309042","category":"47","category_name":"住宅区","address":"上海市杨浦区中原路32弄"},{"poiid":"B2094750D76EA6FC459F","title":"呀咪咖喱屋(中原路店)","lon":"121.533","lat":"31.3142","category":"94","category_name":"西餐厅","address":"杨浦区中原路102号欧尚超市2楼(近嫩江路)"},{"poiid":"B2094757D66BABFF4993","title":"蜀膳传火锅传奇 民星路店","lon":"121.534531","lat":"31.311895","category":"86","category_name":"火锅店","address":"杨浦区民星路560号(近中原路)"},{"poiid":"B2094757D064AAFF479F","title":"重庆鸡公煲(中原路店)","lon":"121.53243","lat":"31.31144","category":"71","category_name":"四川菜","address":"杨浦区中原路(近民星路)"},{"poiid":"B2094655D26FA6FF429F","title":"中原路99弄小区","lon":"121.53087","lat":"31.3136","category":"47","category_name":"住宅区","address":""},{"poiid":"B2094757D068ABF4429C","title":"民星二村","lon":"121.53406","lat":"31.31246","category":"47","category_name":"住宅区","address":"上海杨浦区"},{"poiid":"B2094757D66FA1FC419B","title":"第二军医大学附属长海医院中医科","lon":"121.527223997","lat":"31.3081795348","category":"162","category_name":"医院","address":"上海长海医院4楼"},{"poiid":"B2094757D06BA0FE4798","title":"大娘水饺(中原店)","lon":"121.53241216","lat":"31.314170167","category":"68","category_name":"快餐厅","address":"杨浦区中原路102号欧尚超市1楼(近嫩江路)"},{"poiid":"B2094757D66BA6FF4292","title":"真功夫 长海路店","lon":"121.528162","lat":"31.309826","category":"68","category_name":"快餐厅","address":"杨浦区长海路长海医院门口"},{"poiid":"B2094757D069AAF9409B","title":"伊加伊 中原店","lon":"121.532258054","lat":"31.311365793","category":"68","category_name":"快餐厅","address":"杨浦区中原路83号(近民星路)"},{"poiid":"B2094757D165ABF5449C","title":"爆爆虾","lon":"121.5325151","lat":"31.312795308","category":"247","category_name":"餐饮美食","address":"上海五角场"},{"poiid":"B2094753D26FA3FA479D","title":"长海医院","lon":"121.531996","lat":"31.311724","category":"162","category_name":"医院","address":"上海市 杨浦区长海路168号"},{"poiid":"B2094757D66FA6FE419B","title":"釜山料理","lon":"121.5322341","lat":"31.312596304","category":"247","category_name":"餐饮美食","address":"上海五角场"},{"poiid":"B2094757D16DA7FC4093","title":"第二军医大学长海医院临床教学中心","lon":"121.5320321","lat":"31.309430237","category":"162","category_name":"医院","address":"上海市杨浦区长海路"},{"poiid":"B2094654DB64A6F9419A","title":"味之都 中原店 Wish Doing","lon":"121.53231523643","lat":"31.314660233268","category":"68","category_name":"快餐厅","address":"杨浦区中原路102号欧尚超市2楼(近嫩江路)"},{"poiid":"B2094655D36DA7F9439E","title":"中原路嫩江路","lon":"121.53201","lat":"31.31223","category":"38","category_name":"公交车站","address":""},{"poiid":"B2094757D069A3FF459F","title":"一兆韦德(嫩江路店)","lon":"121.52994","lat":"31.31417","category":"221","category_name":"健身中心","address":"上海杨浦区嫩江路1155号(近中原路)  "},{"poiid":"B2094757D06AA0F8429F","title":"上海体育学院足球场","lon":"121.52598","lat":"31.31292","category":"220","category_name":"运动场所","address":"杨浦区长海路399号(近长海医院)"},{"poiid":"B2094752D268A7FE4192","title":"豆捞坊","lon":"121.53115","lat":"31.311854","category":"500","category_name":"未知分类","address":"五角场万达广场"},{"poiid":"B2094655D36CA5F9459F","title":"地铁长海医院站","lon":"121.52765","lat":"31.30965","category":"38","category_name":"公交车站","address":""},{"poiid":"B2094655D26EA3F84893","title":"长海二村(中原路)","lon":"121.52898","lat":"31.31246","category":"47","category_name":"住宅区","address":""},{"poiid":"B2094753D66FA4FC409D","title":"博纳影城","lon":"121.531158","lat":"31.311874","category":"178","category_name":"电影院","address":"上海市 中原城市广场"},{"poiid":"B2094655D26DA4F5429F","title":"中国武术博物馆","lon":"121.52751","lat":"31.31417","category":"182","category_name":"博物馆","address":"上海市杨浦区长海路399号"},{"poiid":"B2094757D06AABFD4893","title":"上海体育学院游泳馆","lon":"121.52718","lat":"31.30937","category":"253","category_name":"校园生活","address":"杨浦区长海路345号上海体育学院综合馆1楼(近嫩江路)"},{"poiid":"B2094654D56FABF4489C","title":"政立路6弄住宅小区","lon":"121.53","lat":"31.3137","category":"47","category_name":"住宅区","address":"政立路6弄1-27号"},{"poiid":"B2094757D068A6FB4993","title":"COCO 都可会饮 (中原欧尚店)","lon":"121.532511","lat":"31.31436","category":"113","category_name":"冷饮店","address":"上海杨浦区中原路102号欧尚超市1F"},{"poiid":"B2094751D46AA6FC429E","title":"长海医院门诊部","lon":"121.531145","lat":"31.311854","category":"162","category_name":"医院","address":null},{"poiid":"B2094752D46AA3FD4498","title":"上海市杨浦区市东医院","lon":"121.531141","lat":"31.311856","category":"162","category_name":"医院","address":"上海市杨浦区市光路999号"},{"poiid":"B2094753D56CA7F8449E","title":"阿木龙虾","lon":"121.531158","lat":"31.31187","category":"247","category_name":"餐饮美食","address":"上海市 包头南路97号"},{"poiid":"B2094654D56FAAFC489F","title":"好德便利No.929","lon":"121.53062","lat":"31.31231","category":"117","category_name":"便民商店/便利店","address":"长海一村59号"},{"poiid":"B2094654D56FABF54198","title":"上海长海医院","lon":"121.5256","lat":"31.30936","category":"162","category_name":"医院","address":"上海杨浦区长海路168-174号(长海路)"},{"poiid":"B2094654D56FA0FB499D","title":"欧尚(中原路店)","lon":"121.53256","lat":"31.31432","category":"118","category_name":"超级市场","address":"杨浦区中原路102号(近嫩江路)"},{"poiid":"B2094757D068A7F4469B","title":"长海医院住院部","lon":"121.527867794","lat":"31.3088527016","category":"162","category_name":"医院","address":"上海杨浦区长海路174号(中原路)"},{"poiid":"B2094757D06FA1FD499D","title":"麦当劳(中原路店)","lon":"121.53259","lat":"31.31467","category":"68","category_name":"快餐厅","address":"杨浦区中原路126号欧尚对面(嫩江路)"},{"poiid":"B2094757D16BABFC429D","title":"第二军医大学校园","lon":"121.5283081","lat":"31.309152232","category":"500","category_name":"未知分类","address":"上海市杨浦区长海路174号"},{"poiid":"B2094757D068A1FD4699","title":"第二军医大学附属东方肝胆外科医院","lon":"121.52937","lat":"31.30994","category":"162","category_name":"医院","address":"杨浦区长海路225号(近中原路)"},{"poiid":"B2094757D06EAAFE419F","title":"嫩江路地铁站","lon":"121.53196744","lat":"31.31512529","category":"36","category_name":"地铁站","address":"上海轨道交通 八号线 轨交嫩江路站 8"},{"poiid":"B2094757D06FA4FD4393","title":"上海体育学院综合馆","lon":"121.52752","lat":"31.30951","category":"221","category_name":"健身中心","address":"杨浦区长海路345号上海体育学院内(近嫩江路)"},{"poiid":"B2094757D068A0F94699","title":"有家川菜(民星路店)","lon":"121.534144","lat":"31.311687","category":"71","category_name":"四川菜","address":"杨浦区民星路560号(近中原路)"},{"poiid":"B2094750DA65A3FA409B","title":"鲜芋仙（中原欧尚店）","lon":"121.532402","lat":"31.314386","category":"67","category_name":"甜品店","address":"杨浦区中原路102号中原欧尚106-107店铺(近嫩江路)"},{"poiid":"B2094757D068A4F94099","title":"肯德基 KFC (长海店)","lon":"121.52692775","lat":"31.309974424","category":"68","category_name":"快餐厅","address":"杨浦区长海路361号(近嫩江路)"},{"poiid":"B2094750D76EABFD459D","title":"小笠原家の私厨料理","lon":"121.53","lat":"31.3153","category":"95","category_name":"日本料理","address":"杨浦区嫩江路国和一村20号102室B(近中原路嫩江路)"},{"poiid":"B2094757D068AAF4439E","title":"上海电视大学(中原分部)","lon":"121.53246","lat":"31.31066","category":"52","category_name":"高等院校","address":"杨浦区中原路42号(近民星路)"},{"poiid":"B2094757D069A0FD409A","title":"中原路民星路","lon":"121.532111","lat":"31.313224","category":"500","category_name":"未知分类","address":"上海中原路民星路"},{"poiid":"B2094757D06FAAF9489E","title":"肯德基 KFC (嫩江店)","lon":"121.532601","lat":"31.313729","category":"68","category_name":"快餐厅","address":"杨浦区中原路102号欧尚超市内(近嫩江路)"},{"poiid":"B2094655D26FA2FB4392","title":"85度C 中原路店","lon":"121.532335054","lat":"31.314038793","category":"112","category_name":"糕饼店","address":"杨浦区中原路102号欧尚超市内(近嫩江路)"},{"poiid":"B2094654D56FA7FE439A","title":"天工麻辣烫 中原路","lon":"121.53218","lat":"31.31378","category":"68","category_name":"快餐厅","address":"杨浦区中原路58号欧尚超市旁(近民星路)"},{"poiid":"B2094757D76AA2FB4492","title":"深井大叔港式烧腊 中原店","lon":"121.53232","lat":"31.315372","category":"72","category_name":"广东菜","address":"杨浦区中原路102号欧尚超市内(近嫩江路)"},{"poiid":"B2094654D56FAAFC499A","title":"长海一村","lon":"121.53006","lat":"31.311691","category":"47","category_name":"住宅区","address":"长海一村1-62号"},{"poiid":"B2094654D56FA7F94999","title":"组合发型顾问嫩江店(嫩江路)","lon":"121.53262","lat":"31.315","category":"148","category_name":"美容美发店","address":"杨浦区嫩江路1240号"},{"poiid":"B2094654D56FAAFE4498","title":"长海新村","lon":"121.53296","lat":"31.309042","category":"47","category_name":"住宅区","address":"上海市杨浦区中原路32弄"},{"poiid":"B2094750D76EA6FC459F","title":"呀咪咖喱屋(中原路店)","lon":"121.533","lat":"31.3142","category":"94","category_name":"西餐厅","address":"杨浦区中原路102号欧尚超市2楼(近嫩江路)"},{"poiid":"B2094757D66BABFF4993","title":"蜀膳传火锅传奇 民星路店","lon":"121.534531","lat":"31.311895","category":"86","category_name":"火锅店","address":"杨浦区民星路560号(近中原路)"},{"poiid":"B2094757D064AAFF479F","title":"重庆鸡公煲(中原路店)","lon":"121.53243","lat":"31.31144","category":"71","category_name":"四川菜","address":"杨浦区中原路(近民星路)"},{"poiid":"B2094655D26FA6FF429F","title":"中原路99弄小区","lon":"121.53087","lat":"31.3136","category":"47","category_name":"住宅区","address":""},{"poiid":"B2094757D068ABF4429C","title":"民星二村","lon":"121.53406","lat":"31.31246","category":"47","category_name":"住宅区","address":"上海杨浦区"},{"poiid":"B2094757D66FA1FC419B","title":"第二军医大学附属长海医院中医科","lon":"121.527223997","lat":"31.3081795348","category":"162","category_name":"医院","address":"上海长海医院4楼"},{"poiid":"B2094757D06BA0FE4798","title":"大娘水饺(中原店)","lon":"121.53241216","lat":"31.314170167","category":"68","category_name":"快餐厅","address":"杨浦区中原路102号欧尚超市1楼(近嫩江路)"},{"poiid":"B2094757D66BA6FF4292","title":"真功夫 长海路店","lon":"121.528162","lat":"31.309826","category":"68","category_name":"快餐厅","address":"杨浦区长海路长海医院门口"},{"poiid":"B2094757D069AAF9409B","title":"伊加伊 中原店","lon":"121.532258054","lat":"31.311365793","category":"68","category_name":"快餐厅","address":"杨浦区中原路83号(近民星路)"},{"poiid":"B2094757D165ABF5449C","title":"爆爆虾","lon":"121.5325151","lat":"31.312795308","category":"247","category_name":"餐饮美食","address":"上海五角场"},{"poiid":"B2094753D26FA3FA479D","title":"长海医院","lon":"121.531996","lat":"31.311724","category":"162","category_name":"医院","address":"上海市 杨浦区长海路168号"},{"poiid":"B2094757D66FA6FE419B","title":"釜山料理","lon":"121.5322341","lat":"31.312596304","category":"247","category_name":"餐饮美食","address":"上海五角场"},{"poiid":"B2094757D16DA7FC4093","title":"第二军医大学长海医院临床教学中心","lon":"121.5320321","lat":"31.309430237","category":"162","category_name":"医院","address":"上海市杨浦区长海路"},{"poiid":"B2094654DB64A6F9419A","title":"味之都 中原店 Wish Doing","lon":"121.53231523643","lat":"31.314660233268","category":"68","category_name":"快餐厅","address":"杨浦区中原路102号欧尚超市2楼(近嫩江路)"},{"poiid":"B2094655D36DA7F9439E","title":"中原路嫩江路","lon":"121.53201","lat":"31.31223","category":"38","category_name":"公交车站","address":""},{"poiid":"B2094757D069A3FF459F","title":"一兆韦德(嫩江路店)","lon":"121.52994","lat":"31.31417","category":"221","category_name":"健身中心","address":"上海杨浦区嫩江路1155号(近中原路)  "},{"poiid":"B2094757D06AA0F8429F","title":"上海体育学院足球场","lon":"121.52598","lat":"31.31292","category":"220","category_name":"运动场所","address":"杨浦区长海路399号(近长海医院)"},{"poiid":"B2094752D268A7FE4192","title":"豆捞坊","lon":"121.53115","lat":"31.311854","category":"500","category_name":"未知分类","address":"五角场万达广场"},{"poiid":"B2094655D36CA5F9459F","title":"地铁长海医院站","lon":"121.52765","lat":"31.30965","category":"38","category_name":"公交车站","address":""},{"poiid":"B2094655D26EA3F84893","title":"长海二村(中原路)","lon":"121.52898","lat":"31.31246","category":"47","category_name":"住宅区","address":""},{"poiid":"B2094753D66FA4FC409D","title":"博纳影城","lon":"121.531158","lat":"31.311874","category":"178","category_name":"电影院","address":"上海市 中原城市广场"},{"poiid":"B2094655D26DA4F5429F","title":"中国武术博物馆","lon":"121.52751","lat":"31.31417","category":"182","category_name":"博物馆","address":"上海市杨浦区长海路399号"},{"poiid":"B2094757D06AABFD4893","title":"上海体育学院游泳馆","lon":"121.52718","lat":"31.30937","category":"253","category_name":"校园生活","address":"杨浦区长海路345号上海体育学院综合馆1楼(近嫩江路)"},{"poiid":"B2094654D56FABF4489C","title":"政立路6弄住宅小区","lon":"121.53","lat":"31.3137","category":"47","category_name":"住宅区","address":"政立路6弄1-27号"},{"poiid":"B2094757D068A6FB4993","title":"COCO 都可会饮 (中原欧尚店)","lon":"121.532511","lat":"31.31436","category":"113","category_name":"冷饮店","address":"上海杨浦区中原路102号欧尚超市1F"},{"poiid":"B2094751D46AA6FC429E","title":"长海医院门诊部","lon":"121.531145","lat":"31.311854","category":"162","category_name":"医院","address":null},{"poiid":"B2094752D46AA3FD4498","title":"上海市杨浦区市东医院","lon":"121.531141","lat":"31.311856","category":"162","category_name":"医院","address":"上海市杨浦区市光路999号"},{"poiid":"B2094753D56CA7F8449E","title":"阿木龙虾","lon":"121.531158","lat":"31.31187","category":"247","category_name":"餐饮美食","address":"上海市 包头南路97号"},{"poiid":"B2094654D56FAAFC489F","title":"好德便利No.929","lon":"121.53062","lat":"31.31231","category":"117","category_name":"便民商店/便利店","address":"长海一村59号"},{"poiid":"B2094654D56FABF54198","title":"上海长海医院","lon":"121.5256","lat":"31.30936","category":"162","category_name":"医院","address":"上海杨浦区长海路168-174号(长海路)"},{"poiid":"B2094654D56FA0FB499D","title":"欧尚(中原路店)","lon":"121.53256","lat":"31.31432","category":"118","category_name":"超级市场","address":"杨浦区中原路102号(近嫩江路)"},{"poiid":"B2094757D068A7F4469B","title":"长海医院住院部","lon":"121.527867794","lat":"31.3088527016","category":"162","category_name":"医院","address":"上海杨浦区长海路174号(中原路)"},{"poiid":"B2094757D06FA1FD499D","title":"麦当劳(中原路店)","lon":"121.53259","lat":"31.31467","category":"68","category_name":"快餐厅","address":"杨浦区中原路126号欧尚对面(嫩江路)"},{"poiid":"B2094757D16BABFC429D","title":"第二军医大学校园","lon":"121.5283081","lat":"31.309152232","category":"500","category_name":"未知分类","address":"上海市杨浦区长海路174号"},{"poiid":"B2094757D068A1FD4699","title":"第二军医大学附属东方肝胆外科医院","lon":"121.52937","lat":"31.30994","category":"162","category_name":"医院","address":"杨浦区长海路225号(近中原路)"},{"poiid":"B2094757D06EAAFE419F","title":"嫩江路地铁站","lon":"121.53196744","lat":"31.31512529","category":"36","category_name":"地铁站","address":"上海轨道交通 八号线 轨交嫩江路站 8"},{"poiid":"B2094757D06FA4FD4393","title":"上海体育学院综合馆","lon":"121.52752","lat":"31.30951","category":"221","category_name":"健身中心","address":"杨浦区长海路345号上海体育学院内(近嫩江路)"},{"poiid":"B2094757D068A0F94699","title":"有家川菜(民星路店)","lon":"121.534144","lat":"31.311687","category":"71","category_name":"四川菜","address":"杨浦区民星路560号(近中原路)"},{"poiid":"B2094750DA65A3FA409B","title":"鲜芋仙（中原欧尚店）","lon":"121.532402","lat":"31.314386","category":"67","category_name":"甜品店","address":"杨浦区中原路102号中原欧尚106-107店铺(近嫩江路)"},{"poiid":"B2094757D068A4F94099","title":"肯德基 KFC (长海店)","lon":"121.52692775","lat":"31.309974424","category":"68","category_name":"快餐厅","address":"杨浦区长海路361号(近嫩江路)"},{"poiid":"B2094750D76EABFD459D","title":"小笠原家の私厨料理","lon":"121.53","lat":"31.3153","category":"95","category_name":"日本料理","address":"杨浦区嫩江路国和一村20号102室B(近中原路嫩江路)"},{"poiid":"B2094757D068AAF4439E","title":"上海电视大学(中原分部)","lon":"121.53246","lat":"31.31066","category":"52","category_name":"高等院校","address":"杨浦区中原路42号(近民星路)"},{"poiid":"B2094757D069A0FD409A","title":"中原路民星路","lon":"121.532111","lat":"31.313224","category":"500","category_name":"未知分类","address":"上海中原路民星路"},{"poiid":"B2094757D06FAAF9489E","title":"肯德基 KFC (嫩江店)","lon":"121.532601","lat":"31.313729","category":"68","category_name":"快餐厅","address":"杨浦区中原路102号欧尚超市内(近嫩江路)"},{"poiid":"B2094655D26FA2FB4392","title":"85度C 中原路店","lon":"121.532335054","lat":"31.314038793","category":"112","category_name":"糕饼店","address":"杨浦区中原路102号欧尚超市内(近嫩江路)"},{"poiid":"B2094654D56FA7FE439A","title":"天工麻辣烫 中原路","lon":"121.53218","lat":"31.31378","category":"68","category_name":"快餐厅","address":"杨浦区中原路58号欧尚超市旁(近民星路)"},{"poiid":"B2094757D76AA2FB4492","title":"深井大叔港式烧腊 中原店","lon":"121.53232","lat":"31.315372","category":"72","category_name":"广东菜","address":"杨浦区中原路102号欧尚超市内(近嫩江路)"},{"poiid":"B2094654D56FAAFC499A","title":"长海一村","lon":"121.53006","lat":"31.311691","category":"47","category_name":"住宅区","address":"长海一村1-62号"},{"poiid":"B2094654D56FA7F94999","title":"组合发型顾问嫩江店(嫩江路)","lon":"121.53262","lat":"31.315","category":"148","category_name":"美容美发店","address":"杨浦区嫩江路1240号"},{"poiid":"B2094654D56FAAFE4498","title":"长海新村","lon":"121.53296","lat":"31.309042","category":"47","category_name":"住宅区","address":"上海市杨浦区中原路32弄"},{"poiid":"B2094750D76EA6FC459F","title":"呀咪咖喱屋(中原路店)","lon":"121.533","lat":"31.3142","category":"94","category_name":"西餐厅","address":"杨浦区中原路102号欧尚超市2楼(近嫩江路)"},{"poiid":"B2094757D66BABFF4993","title":"蜀膳传火锅传奇 民星路店","lon":"121.534531","lat":"31.311895","category":"86","category_name":"火锅店","address":"杨浦区民星路560号(近中原路)"},{"poiid":"B2094757D064AAFF479F","title":"重庆鸡公煲(中原路店)","lon":"121.53243","lat":"31.31144","category":"71","category_name":"四川菜","address":"杨浦区中原路(近民星路)"},{"poiid":"B2094655D26FA6FF429F","title":"中原路99弄小区","lon":"121.53087","lat":"31.3136","category":"47","category_name":"住宅区","address":""},{"poiid":"B2094757D068ABF4429C","title":"民星二村","lon":"121.53406","lat":"31.31246","category":"47","category_name":"住宅区","address":"上海杨浦区"},{"poiid":"B2094757D66FA1FC419B","title":"第二军医大学附属长海医院中医科","lon":"121.527223997","lat":"31.3081795348","category":"162","category_name":"医院","address":"上海长海医院4楼"},{"poiid":"B2094757D06BA0FE4798","title":"大娘水饺(中原店)","lon":"121.53241216","lat":"31.314170167","category":"68","category_name":"快餐厅","address":"杨浦区中原路102号欧尚超市1楼(近嫩江路)"},{"poiid":"B2094757D66BA6FF4292","title":"真功夫 长海路店","lon":"121.528162","lat":"31.309826","category":"68","category_name":"快餐厅","address":"杨浦区长海路长海医院门口"},{"poiid":"B2094757D069AAF9409B","title":"伊加伊 中原店","lon":"121.532258054","lat":"31.311365793","category":"68","category_name":"快餐厅","address":"杨浦区中原路83号(近民星路)"},{"poiid":"B2094757D165ABF5449C","title":"爆爆虾","lon":"121.5325151","lat":"31.312795308","category":"247","category_name":"餐饮美食","address":"上海五角场"},{"poiid":"B2094753D26FA3FA479D","title":"长海医院","lon":"121.531996","lat":"31.311724","category":"162","category_name":"医院","address":"上海市 杨浦区长海路168号"},{"poiid":"B2094757D66FA6FE419B","title":"釜山料理","lon":"121.5322341","lat":"31.312596304","category":"247","category_name":"餐饮美食","address":"上海五角场"},{"poiid":"B2094757D16DA7FC4093","title":"第二军医大学长海医院临床教学中心","lon":"121.5320321","lat":"31.309430237","category":"162","category_name":"医院","address":"上海市杨浦区长海路"},{"poiid":"B2094654DB64A6F9419A","title":"味之都 中原店 Wish Doing","lon":"121.53231523643","lat":"31.314660233268","category":"68","category_name":"快餐厅","address":"杨浦区中原路102号欧尚超市2楼(近嫩江路)"},{"poiid":"B2094655D36DA7F9439E","title":"中原路嫩江路","lon":"121.53201","lat":"31.31223","category":"38","category_name":"公交车站","address":""},{"poiid":"B2094757D069A3FF459F","title":"一兆韦德(嫩江路店)","lon":"121.52994","lat":"31.31417","category":"221","category_name":"健身中心","address":"上海杨浦区嫩江路1155号(近中原路)  "},{"poiid":"B2094757D06AA0F8429F","title":"上海体育学院足球场","lon":"121.52598","lat":"31.31292","category":"220","category_name":"运动场所","address":"杨浦区长海路399号(近长海医院)"},{"poiid":"B2094752D268A7FE4192","title":"豆捞坊","lon":"121.53115","lat":"31.311854","category":"500","category_name":"未知分类","address":"五角场万达广场"},{"poiid":"B2094655D36CA5F9459F","title":"地铁长海医院站","lon":"121.52765","lat":"31.30965","category":"38","category_name":"公交车站","address":""},{"poiid":"B2094655D26EA3F84893","title":"长海二村(中原路)","lon":"121.52898","lat":"31.31246","category":"47","category_name":"住宅区","address":""},{"poiid":"B2094753D66FA4FC409D","title":"博纳影城","lon":"121.531158","lat":"31.311874","category":"178","category_name":"电影院","address":"上海市 中原城市广场"},{"poiid":"B2094655D26DA4F5429F","title":"中国武术博物馆","lon":"121.52751","lat":"31.31417","category":"182","category_name":"博物馆","address":"上海市杨浦区长海路399号"},{"poiid":"B2094757D06AABFD4893","title":"上海体育学院游泳馆","lon":"121.52718","lat":"31.30937","category":"253","category_name":"校园生活","address":"杨浦区长海路345号上海体育学院综合馆1楼(近嫩江路)"},{"poiid":"B2094654D56FABF4489C","title":"政立路6弄住宅小区","lon":"121.53","lat":"31.3137","category":"47","category_name":"住宅区","address":"政立路6弄1-27号"},{"poiid":"B2094757D068A6FB4993","title":"COCO 都可会饮 (中原欧尚店)","lon":"121.532511","lat":"31.31436","category":"113","category_name":"冷饮店","address":"上海杨浦区中原路102号欧尚超市1F"},{"poiid":"B2094751D46AA6FC429E","title":"长海医院门诊部","lon":"121.531145","lat":"31.311854","category":"162","category_name":"医院","address":null},{"poiid":"B2094752D46AA3FD4498","title":"上海市杨浦区市东医院","lon":"121.531141","lat":"31.311856","category":"162","category_name":"医院","address":"上海市杨浦区市光路999号"},{"poiid":"B2094753D56CA7F8449E","title":"阿木龙虾","lon":"121.531158","lat":"31.31187","category":"247","category_name":"餐饮美食","address":"上海市 包头南路97号"},{"poiid":"B2094654D56FAAFC489F","title":"好德便利No.929","lon":"121.53062","lat":"31.31231","category":"117","category_name":"便民商店/便利店","address":"长海一村59号"},{"poiid":"B2094654D56FABF54198","title":"上海长海医院","lon":"121.5256","lat":"31.30936","category":"162","category_name":"医院","address":"上海杨浦区长海路168-174号(长海路)"},{"poiid":"B2094654D56FA0FB499D","title":"欧尚(中原路店)","lon":"121.53256","lat":"31.31432","category":"118","category_name":"超级市场","address":"杨浦区中原路102号(近嫩江路)"},{"poiid":"B2094757D068A7F4469B","title":"长海医院住院部","lon":"121.527867794","lat":"31.3088527016","category":"162","category_name":"医院","address":"上海杨浦区长海路174号(中原路)"},{"poiid":"B2094757D06FA1FD499D","title":"麦当劳(中原路店)","lon":"121.53259","lat":"31.31467","category":"68","category_name":"快餐厅","address":"杨浦区中原路126号欧尚对面(嫩江路)"},{"poiid":"B2094757D16BABFC429D","title":"第二军医大学校园","lon":"121.5283081","lat":"31.309152232","category":"500","category_name":"未知分类","address":"上海市杨浦区长海路174号"},{"poiid":"B2094757D068A1FD4699","title":"第二军医大学附属东方肝胆外科医院","lon":"121.52937","lat":"31.30994","category":"162","category_name":"医院","address":"杨浦区长海路225号(近中原路)"},{"poiid":"B2094757D06EAAFE419F","title":"嫩江路地铁站","lon":"121.53196744","lat":"31.31512529","category":"36","category_name":"地铁站","address":"上海轨道交通 八号线 轨交嫩江路站 8"},{"poiid":"B2094757D06FA4FD4393","title":"上海体育学院综合馆","lon":"121.52752","lat":"31.30951","category":"221","category_name":"健身中心","address":"杨浦区长海路345号上海体育学院内(近嫩江路)"},{"poiid":"B2094757D068A0F94699","title":"有家川菜(民星路店)","lon":"121.534144","lat":"31.311687","category":"71","category_name":"四川菜","address":"杨浦区民星路560号(近中原路)"},{"poiid":"B2094750DA65A3FA409B","title":"鲜芋仙（中原欧尚店）","lon":"121.532402","lat":"31.314386","category":"67","category_name":"甜品店","address":"杨浦区中原路102号中原欧尚106-107店铺(近嫩江路)"},{"poiid":"B2094757D068A4F94099","title":"肯德基 KFC (长海店)","lon":"121.52692775","lat":"31.309974424","category":"68","category_name":"快餐厅","address":"杨浦区长海路361号(近嫩江路)"},{"poiid":"B2094750D76EABFD459D","title":"小笠原家の私厨料理","lon":"121.53","lat":"31.3153","category":"95","category_name":"日本料理","address":"杨浦区嫩江路国和一村20号102室B(近中原路嫩江路)"},{"poiid":"B2094757D068AAF4439E","title":"上海电视大学(中原分部)","lon":"121.53246","lat":"31.31066","category":"52","category_name":"高等院校","address":"杨浦区中原路42号(近民星路)"},{"poiid":"B2094757D069A0FD409A","title":"中原路民星路","lon":"121.532111","lat":"31.313224","category":"500","category_name":"未知分类","address":"上海中原路民星路"},{"poiid":"B2094757D06FAAF9489E","title":"肯德基 KFC (嫩江店)","lon":"121.532601","lat":"31.313729","category":"68","category_name":"快餐厅","address":"杨浦区中原路102号欧尚超市内(近嫩江路)"},{"poiid":"B2094655D26FA2FB4392","title":"85度C 中原路店","lon":"121.532335054","lat":"31.314038793","category":"112","category_name":"糕饼店","address":"杨浦区中原路102号欧尚超市内(近嫩江路)"},{"poiid":"B2094654D56FA7FE439A","title":"天工麻辣烫 中原路","lon":"121.53218","lat":"31.31378","category":"68","category_name":"快餐厅","address":"杨浦区中原路58号欧尚超市旁(近民星路)"},{"poiid":"B2094757D76AA2FB4492","title":"深井大叔港式烧腊 中原店","lon":"121.53232","lat":"31.315372","category":"72","category_name":"广东菜","address":"杨浦区中原路102号欧尚超市内(近嫩江路)"},{"poiid":"B2094654D56FAAFC499A","title":"长海一村","lon":"121.53006","lat":"31.311691","category":"47","category_name":"住宅区","address":"长海一村1-62号"},{"poiid":"B2094654D56FA7F94999","title":"组合发型顾问嫩江店(嫩江路)","lon":"121.53262","lat":"31.315","category":"148","category_name":"美容美发店","address":"杨浦区嫩江路1240号"},{"poiid":"B2094654D56FAAFE4498","title":"长海新村","lon":"121.53296","lat":"31.309042","category":"47","category_name":"住宅区","address":"上海市杨浦区中原路32弄"},{"poiid":"B2094750D76EA6FC459F","title":"呀咪咖喱屋(中原路店)","lon":"121.533","lat":"31.3142","category":"94","category_name":"西餐厅","address":"杨浦区中原路102号欧尚超市2楼(近嫩江路)"},{"poiid":"B2094757D66BABFF4993","title":"蜀膳传火锅传奇 民星路店","lon":"121.534531","lat":"31.311895","category":"86","category_name":"火锅店","address":"杨浦区民星路560号(近中原路)"},{"poiid":"B2094757D064AAFF479F","title":"重庆鸡公煲(中原路店)","lon":"121.53243","lat":"31.31144","category":"71","category_name":"四川菜","address":"杨浦区中原路(近民星路)"},{"poiid":"B2094655D26FA6FF429F","title":"中原路99弄小区","lon":"121.53087","lat":"31.3136","category":"47","category_name":"住宅区","address":""},{"poiid":"B2094757D068ABF4429C","title":"民星二村","lon":"121.53406","lat":"31.31246","category":"47","category_name":"住宅区","address":"上海杨浦区"},{"poiid":"B2094757D66FA1FC419B","title":"第二军医大学附属长海医院中医科","lon":"121.527223997","lat":"31.3081795348","category":"162","category_name":"医院","address":"上海长海医院4楼"},{"poiid":"B2094757D06BA0FE4798","title":"大娘水饺(中原店)","lon":"121.53241216","lat":"31.314170167","category":"68","category_name":"快餐厅","address":"杨浦区中原路102号欧尚超市1楼(近嫩江路)"},{"poiid":"B2094757D66BA6FF4292","title":"真功夫 长海路店","lon":"121.528162","lat":"31.309826","category":"68","category_name":"快餐厅","address":"杨浦区长海路长海医院门口"},{"poiid":"B2094757D069AAF9409B","title":"伊加伊 中原店","lon":"121.532258054","lat":"31.311365793","category":"68","category_name":"快餐厅","address":"杨浦区中原路83号(近民星路)"},{"poiid":"B2094757D165ABF5449C","title":"爆爆虾","lon":"121.5325151","lat":"31.312795308","category":"247","category_name":"餐饮美食","address":"上海五角场"},{"poiid":"B2094753D26FA3FA479D","title":"长海医院","lon":"121.531996","lat":"31.311724","category":"162","category_name":"医院","address":"上海市 杨浦区长海路168号"},{"poiid":"B2094757D66FA6FE419B","title":"釜山料理","lon":"121.5322341","lat":"31.312596304","category":"247","category_name":"餐饮美食","address":"上海五角场"},{"poiid":"B2094757D16DA7FC4093","title":"第二军医大学长海医院临床教学中心","lon":"121.5320321","lat":"31.309430237","category":"162","category_name":"医院","address":"上海市杨浦区长海路"},{"poiid":"B2094654DB64A6F9419A","title":"味之都 中原店 Wish Doing","lon":"121.53231523643","lat":"31.314660233268","category":"68","category_name":"快餐厅","address":"杨浦区中原路102号欧尚超市2楼(近嫩江路)"},{"poiid":"B2094655D36DA7F9439E","title":"中原路嫩江路","lon":"121.53201","lat":"31.31223","category":"38","category_name":"公交车站","address":""},{"poiid":"B2094757D069A3FF459F","title":"一兆韦德(嫩江路店)","lon":"121.52994","lat":"31.31417","category":"221","category_name":"健身中心","address":"上海杨浦区嫩江路1155号(近中原路)  "},{"poiid":"B2094757D06AA0F8429F","title":"上海体育学院足球场","lon":"121.52598","lat":"31.31292","category":"220","category_name":"运动场所","address":"杨浦区长海路399号(近长海医院)"},{"poiid":"B2094752D268A7FE4192","title":"豆捞坊","lon":"121.53115","lat":"31.311854","category":"500","category_name":"未知分类","address":"五角场万达广场"},{"poiid":"B2094655D36CA5F9459F","title":"地铁长海医院站","lon":"121.52765","lat":"31.30965","category":"38","category_name":"公交车站","address":""},{"poiid":"B2094655D26EA3F84893","title":"长海二村(中原路)","lon":"121.52898","lat":"31.31246","category":"47","category_name":"住宅区","address":""},{"poiid":"B2094753D66FA4FC409D","title":"博纳影城","lon":"121.531158","lat":"31.311874","category":"178","category_name":"电影院","address":"上海市 中原城市广场"},{"poiid":"B2094655D26DA4F5429F","title":"中国武术博物馆","lon":"121.52751","lat":"31.31417","category":"182","category_name":"博物馆","address":"上海市杨浦区长海路399号"},{"poiid":"B2094757D06AABFD4893","title":"上海体育学院游泳馆","lon":"121.52718","lat":"31.30937","category":"253","category_name":"校园生活","address":"杨浦区长海路345号上海体育学院综合馆1楼(近嫩江路)"},{"poiid":"B2094654D56FABF4489C","title":"政立路6弄住宅小区","lon":"121.53","lat":"31.3137","category":"47","category_name":"住宅区","address":"政立路6弄1-27号"},{"poiid":"B2094757D068A6FB4993","title":"COCO 都可会饮 (中原欧尚店)","lon":"121.532511","lat":"31.31436","category":"113","category_name":"冷饮店","address":"上海杨浦区中原路102号欧尚超市1F"},{"poiid":"B2094751D46AA6FC429E","title":"长海医院门诊部","lon":"121.531145","lat":"31.311854","category":"162","category_name":"医院","address":null},{"poiid":"B2094752D46AA3FD4498","title":"上海市杨浦区市东医院","lon":"121.531141","lat":"31.311856","category":"162","category_name":"医院","address":"上海市杨浦区市光路999号"},{"poiid":"B2094753D56CA7F8449E","title":"阿木龙虾","lon":"121.531158","lat":"31.31187","category":"247","category_name":"餐饮美食","address":"上海市 包头南路97号"},{"poiid":"B2094654D56FAAFC489F","title":"好德便利No.929","lon":"121.53062","lat":"31.31231","category":"117","category_name":"便民商店/便利店","address":"长海一村59号"}]