[{"poiid":"B2094654DA6FA7FF4699","title":"海龙海鲜舫","lon":"121.50199","lat":"31.23107","category":"72","category_name":"广东菜","address":"浦东新区东昌路1号(近富城路拾步街)"},{"poiid":"B2094757D068A3FC499B","title":"天泰餐厅(国金店)","lon":"121.502658488","lat":"31.2353811506","category":"99","category_name":"泰国／越南菜品餐厅","address":"浦东新区世纪大道8号国金中心4楼(近浦东大道)"},{"poiid":"B2094750D26BAAFD439C","title":"正大广场陆家嘴西路168号","lon":"121.501686","lat":"31.234832","category":"249","category_name":"购物服务","address":"正大广场陆家嘴西路168号"},{"poiid":"B209475CD564A7F84392","title":"上海滩浦东香格里拉店","lon":"121.50058","lat":"31.23634","category":"119","category_name":"商场","address":"浦东富成路33号香格里拉酒店内大堂层"},{"poiid":"B2094750D26CA3FE4592","title":"鹿港小镇 正大店","lon":"121.5044996","lat":"31.2354647","category":"91","category_name":"台湾菜","address":"浦东新区陆家嘴西路168号正大广场8楼810室(近东方明珠)"},{"poiid":"B2094757D06FA2FE4493","title":"仁清•东京新怀石料理(金茂店)","lon":"121.50594","lat":"31.23477","category":"95","category_name":"日本料理","address":"浦东新区世纪大道88号金茂大厦裙楼3楼(近二号线陆家嘴站)"},{"poiid":"B2094757D06FA1FA4399","title":"外滩游艇会","lon":"121.50381","lat":"31.23071","category":"260","category_name":"其他","address":"浦东新区滨江大道3510号(近东昌路渡口)"},{"poiid":"B2094750DA6AA4F4489F","title":"一风堂拉面","lon":"121.505241","lat":"31.235317","category":"247","category_name":"餐饮美食","address":"国金商场LG1"},{"poiid":"B2094757D06FA0FE479A","title":"汤臣一品","lon":"121.50127","lat":"31.233383","category":"47","category_name":"住宅区","address":"朝阳区东四环慈云寺桥东北角,向东400米路南"},{"poiid":"B2094757D06FA7FC4598","title":"东昌路轮渡站","lon":"121.50315135","lat":"31.230164847","category":"35","category_name":"长途汽车站","address":"上海浦东新区东昌路1号"},{"poiid":"B2094757D068ABFD489C","title":"Kaefer滨江壹号","lon":"121.50282273","lat":"31.232060339","category":"47","category_name":"住宅区","address":"浦东新区滨江大道富城路拾步街由隆花园(近花园石桥路)"},{"poiid":"B2094750D569ABF4429A","title":"蒗葶泰式酒吧餐厅","lon":"121.501908","lat":"31.234731","category":"172","category_name":"酒吧","address":"世纪大道100号环球金融中心301室"},{"poiid":"B2094757D165A7F54999","title":"花旗银行大厦","lon":"121.500979701","lat":"31.2332134973","category":"46","category_name":"楼宇","address":"上海浦东新区花园石桥路33号"},{"poiid":"B2094654DA69A7FB4792","title":"拉图餐厅 La Tour","lon":"121.50515","lat":"31.23502","category":"94","category_name":"西餐厅","address":"浦东新区世纪大道88号金茂大厦裙楼5楼(近二号线陆家嘴站)"},{"poiid":"B2094751DA64A4FF489F","title":"炉边谈情","lon":"121.5009","lat":"31.234146","category":"247","category_name":"餐饮美食","address":"正大广场六楼"},{"poiid":"B2094750D268A4FC499B","title":"小金牛越南餐厅","lon":"121.5044996","lat":"31.2354647","category":"99","category_name":"泰国／越南菜品餐厅","address":"浦东新区陆家嘴西路168号正大广场8楼21号铺(近东方明珠)"},{"poiid":"B2094750D26BA1FA4898","title":"玛托 MATTO","lon":"121.5044996","lat":"31.2354647","category":"94","category_name":"西餐厅","address":"浦东新区陆家嘴西路168号正大广场1楼GF50铺(近富城路)"},{"poiid":"B2094757D06AA1FC409E","title":"上海国金中心二期写字楼","lon":"121.502999494","lat":"31.2355211523","category":"46","category_name":"楼宇","address":"上海浦东新区世纪大道8号(近陆家嘴环路)"},{"poiid":"B2094757D068A6F4499F","title":"君悦轩(花园石桥店)","lon":"121.50239","lat":"31.23334","category":"72","category_name":"广东菜","address":"浦东新区花园石桥路66号东亚银行金融大厦3楼(近陆家嘴环路)"},{"poiid":"B2094757D068A0F9449A","title":"上海国金中心苹果旗舰店","lon":"121.503650738","lat":"31.2357334174","category":"500","category_name":"未知分类","address":"上海"},{"poiid":"B2094750DB6DA0FC459A","title":"一風堂（IPPUDO SH）","lon":"121.50502","lat":"31.235397","category":"247","category_name":"餐饮美食","address":null},{"poiid":"B2094750D268A7F8449E","title":"滨江一号","lon":"121.501441","lat":"31.231658","category":"247","category_name":"餐饮美食","address":"浦东新区滨江一号滨江富城路拾步街由隆花园(近石桥路)"},{"poiid":"B2094757D065A7F9409F","title":"Pizzeria Alla Torre(陆家嘴店)","lon":"121.50102","lat":"31.23548","category":"94","category_name":"西餐厅","address":"上海浦东新区陆家嘴环路165号1楼(富城路名商路)"},{"poiid":"B2094757D16CAAFB489F","title":"浦东金贸君悦酒店","lon":"121.50241173","lat":"31.230401303","category":"217","category_name":"旅馆招待所","address":"上海市浦东新区富城路"},{"poiid":"B2094751D56DA6F4479F","title":"ifc 一风堂","lon":"121.504761","lat":"31.235413","category":"247","category_name":"餐饮美食","address":"上海浦东新区世纪大道8号国金中心LG1 79-80"},{"poiid":"B2094757D16BA4F54592","title":"STELLA LUNA(国金店)","lon":"121.501676738","lat":"31.2345953931","category":"500","category_name":"未知分类","address":"上海ifc国金商场"},{"poiid":"B2094757D06BA1FA459D","title":"上海中心","lon":"121.506470701","lat":"31.2333594809","category":"500","category_name":"未知分类","address":"上海银城中路501号"},{"poiid":"B2094757D069A4FB489E","title":"普京餐厅","lon":"121.50502014","lat":"31.234098434","category":"500","category_name":"未知分类","address":"上海正大广埸"},{"poiid":"B2094757D66CA0FD479E","title":"松鹤楼游船码头","lon":"121.502754738","lat":"31.2317393323","category":"500","category_name":"未知分类","address":"上海中山东二路505号"},{"poiid":"B2094654DB6BABFC429E","title":"上海鹏利辉盛阁公寓(银城中路)","lon":"121.50334","lat":"31.23164","category":"47","category_name":"住宅区","address":"上海市浦东新区陆家嘴银城中路600弄1号（陆家嘴环路）"},{"poiid":"B2094757D06FA6FE499F","title":"肯德基 KFC (浦南店)","lon":"121.50421566","lat":"31.234155366","category":"68","category_name":"快餐厅","address":"浦东新区浦东南路800号(近东昌路)"},{"poiid":"B2094750DA68A5F4449D","title":"金贸君悦大酒店","lon":"121.502555","lat":"31.234514","category":"500","category_name":"未知分类","address":null},{"poiid":"B2094757D16EA5FA4293","title":"安薇塔","lon":"121.502328738","lat":"31.2342943867","category":"500","category_name":"未知分类","address":"上海市 国金中心 LG2"},{"poiid":"B2094655D36DA0FB419A","title":"银城中路陆家嘴环路(环球中心)","lon":"121.50436","lat":"31.23193","category":"38","category_name":"公交车站","address":""},{"poiid":"B2094757D16AA1FF429E","title":"满记甜品","lon":"121.501566738","lat":"31.2345643925","category":"247","category_name":"餐饮美食","address":"上海市浦东新区陆家嘴西路"},{"poiid":"B2094757D065A7F9469C","title":"花旗大厦花旗银行","lon":"121.50367547","lat":"31.231474696","category":"500","category_name":"未知分类","address":"上海市"},{"poiid":"B2094654DA6EA4FC489D","title":"埃力生国际大厦","lon":"121.502","lat":"31.2333","category":"46","category_name":"楼宇","address":"上海市黄浦区南京东路409-459号"},{"poiid":"B2094757D06FA4F9449C","title":"轮渡线(东金线轮渡)","lon":"121.50343","lat":"31.22978","category":"260","category_name":"其他","address":"东昌路渡口－金陵东路渡口(滨江大道东昌路)"},{"poiid":"B209475DDB6CA0F94899","title":"糖纸","lon":"121.504615","lat":"31.235277","category":"247","category_name":"餐饮美食","address":"上海市 陆家嘴正大广场3楼"},{"poiid":"B2094757D069A3F4419C","title":"港泰风茶餐厅","lon":"121.50589822","lat":"31.230998536","category":"72","category_name":"广东菜","address":"浦东新区东昌路540号(近浦东南路)"},{"poiid":"B2094757D168A4FD4592","title":"船长2号","lon":"121.50327773","lat":"31.23165333","category":"247","category_name":"餐饮美食","address":"黄浦区延安东路外滩船长号游轮码头(中山东二路中山东一路)"},{"poiid":"B2094757D068A4FF489C","title":"华尔街英语上海金茂中心","lon":"121.50498875064852","lat":"31.234724185492258","category":"190","category_name":"培训机构","address":"浦东新区世纪大道88号金茂大厦3楼(近二号线陆家嘴站)"},{"poiid":"B2094757D164A3FB4699","title":"望香园（正大店）","lon":"121.50157181","lat":"31.233032489","category":"247","category_name":"餐饮美食","address":"上海正大广场四层"},{"poiid":"B2094757D568A5F44292","title":"鹏利海景公寓","lon":"121.5034558","lat":"31.23157278","category":"47","category_name":"住宅区","address":"上海浦东新区东昌路、银城路交界处"},{"poiid":"B2094655D26BA1F4409A","title":"陆家嘴环路花园石桥路(汤臣一品)","lon":"121.50118","lat":"31.2345","category":"38","category_name":"公交车站","address":""},{"poiid":"B2094757D66CABFA4898","title":"上海银行总行","lon":"121.504295","lat":"31.233946","category":"150","category_name":"银行","address":"浦东新区银城中路168号(近东园路)"},{"poiid":"B2094757D068A7FB439D","title":"盛大金磐","lon":"121.50597524","lat":"31.231531638","category":"500","category_name":"未知分类","address":"上海浦东新区东泰路200弄"},{"poiid":"B2094750DA6AAAFC459B","title":"广州蕉叶餐厅","lon":"121.501556","lat":"31.234323","category":"500","category_name":"未知分类","address":"浦東新區陸家嘴西路168號正大廣場西樓零"},{"poiid":"B2094751D568A4FB499E","title":"莫尓顿牛排坊","lon":"121.501602","lat":"31.234329","category":"247","category_name":"餐饮美食","address":null},{"poiid":"B2094757DA64A1F54393","title":"上海中心大厦","lon":"121.504746","lat":"31.233757","category":"252","category_name":"楼宇机构","address":"浦东新区银城中路501号(近花园石桥路)"},{"poiid":"B2094654DA6FA7FF4699","title":"海龙海鲜舫","lon":"121.50199","lat":"31.23107","category":"72","category_name":"广东菜","address":"浦东新区东昌路1号(近富城路拾步街)"},{"poiid":"B2094757D068A3FC499B","title":"天泰餐厅(国金店)","lon":"121.502658488","lat":"31.2353811506","category":"99","category_name":"泰国／越南菜品餐厅","address":"浦东新区世纪大道8号国金中心4楼(近浦东大道)"},{"poiid":"B2094750D26BAAFD439C","title":"正大广场陆家嘴西路168号","lon":"121.501686","lat":"31.234832","category":"249","category_name":"购物服务","address":"正大广场陆家嘴西路168号"},{"poiid":"B209475CD564A7F84392","title":"上海滩浦东香格里拉店","lon":"121.50058","lat":"31.23634","category":"119","category_name":"商场","address":"浦东富成路33号香格里拉酒店内大堂层"},{"poiid":"B2094750D26CA3FE4592","title":"鹿港小镇 正大店","lon":"121.5044996","lat":"31.2354647","category":"91","category_name":"台湾菜","address":"浦东新区陆家嘴西路168号正大广场8楼810室(近东方明珠)"},{"poiid":"B2094757D06FA2FE4493","title":"仁清•东京新怀石料理(金茂店)","lon":"121.50594","lat":"31.23477","category":"95","category_name":"日本料理","address":"浦东新区世纪大道88号金茂大厦裙楼3楼(近二号线陆家嘴站)"},{"poiid":"B2094757D06FA1FA4399","title":"外滩游艇会","lon":"121.50381","lat":"31.23071","category":"260","category_name":"其他","address":"浦东新区滨江大道3510号(近东昌路渡口)"},{"poiid":"B2094750DA6AA4F4489F","title":"一风堂拉面","lon":"121.505241","lat":"31.235317","category":"247","category_name":"餐饮美食","address":"国金商场LG1"},{"poiid":"B2094757D06FA0FE479A","title":"汤臣一品","lon":"121.50127","lat":"31.233383","category":"47","category_name":"住宅区","address":"朝阳区东四环慈云寺桥东北角,向东400米路南"},{"poiid":"B2094757D06FA7FC4598","title":"东昌路轮渡站","lon":"121.50315135","lat":"31.230164847","category":"35","category_name":"长途汽车站","address":"上海浦东新区东昌路1号"},{"poiid":"B2094757D068ABFD489C","title":"Kaefer滨江壹号","lon":"121.50282273","lat":"31.232060339","category":"47","category_name":"住宅区","address":"浦东新区滨江大道富城路拾步街由隆花园(近花园石桥路)"},{"poiid":"B2094750D569ABF4429A","title":"蒗葶泰式酒吧餐厅","lon":"121.501908","lat":"31.234731","category":"172","category_name":"酒吧","address":"世纪大道100号环球金融中心301室"},{"poiid":"B2094757D165A7F54999","title":"花旗银行大厦","lon":"121.500979701","lat":"31.2332134973","category":"46","category_name":"楼宇","address":"上海浦东新区花园石桥路33号"},{"poiid":"B2094654DA69A7FB4792","title":"拉图餐厅 La Tour","lon":"121.50515","lat":"31.23502","category":"94","category_name":"西餐厅","address":"浦东新区世纪大道88号金茂大厦裙楼5楼(近二号线陆家嘴站)"},{"poiid":"B2094751DA64A4FF489F","title":"炉边谈情","lon":"121.5009","lat":"31.234146","category":"247","category_name":"餐饮美食","address":"正大广场六楼"},{"poiid":"B2094750D268A4FC499B","title":"小金牛越南餐厅","lon":"121.5044996","lat":"31.2354647","category":"99","category_name":"泰国／越南菜品餐厅","address":"浦东新区陆家嘴西路168号正大广场8楼21号铺(近东方明珠)"},{"poiid":"B2094750D26BA1FA4898","title":"玛托 MATTO","lon":"121.5044996","lat":"31.2354647","category":"94","category_name":"西餐厅","address":"浦东新区陆家嘴西路168号正大广场1楼GF50铺(近富城路)"},{"poiid":"B2094757D06AA1FC409E","title":"上海国金中心二期写字楼","lon":"121.502999494","lat":"31.2355211523","category":"46","category_name":"楼宇","address":"上海浦东新区世纪大道8号(近陆家嘴环路)"},{"poiid":"B2094757D068A6F4499F","title":"君悦轩(花园石桥店)","lon":"121.50239","lat":"31.23334","category":"72","category_name":"广东菜","address":"浦东新区花园石桥路66号东亚银行金融大厦3楼(近陆家嘴环路)"},{"poiid":"B2094757D068A0F9449A","title":"上海国金中心苹果旗舰店","lon":"121.503650738","lat":"31.2357334174","category":"500","category_name":"未知分类","address":"上海"},{"poiid":"B2094750DB6DA0FC459A","title":"一風堂（IPPUDO SH）","lon":"121.50502","lat":"31.235397","category":"247","category_name":"餐饮美食","address":null},{"poiid":"B2094750D268A7F8449E","title":"滨江一号","lon":"121.501441","lat":"31.231658","category":"247","category_name":"餐饮美食","address":"浦东新区滨江一号滨江富城路拾步街由隆花园(近石桥路)"},{"poiid":"B2094757D065A7F9409F","title":"Pizzeria Alla Torre(陆家嘴店)","lon":"121.50102","lat":"31.23548","category":"94","category_name":"西餐厅","address":"上海浦东新区陆家嘴环路165号1楼(富城路名商路)"},{"poiid":"B2094757D16CAAFB489F","title":"浦东金贸君悦酒店","lon":"121.50241173","lat":"31.230401303","category":"217","category_name":"旅馆招待所","address":"上海市浦东新区富城路"},{"poiid":"B2094751D56DA6F4479F","title":"ifc 一风堂","lon":"121.504761","lat":"31.235413","category":"247","category_name":"餐饮美食","address":"上海浦东新区世纪大道8号国金中心LG1 79-80"},{"poiid":"B2094757D16BA4F54592","title":"STELLA LUNA(国金店)","lon":"121.501676738","lat":"31.2345953931","category":"500","category_name":"未知分类","address":"上海ifc国金商场"},{"poiid":"B2094757D06BA1FA459D","title":"上海中心","lon":"121.506470701","lat":"31.2333594809","category":"500","category_name":"未知分类","address":"上海银城中路501号"},{"poiid":"B2094757D069A4FB489E","title":"普京餐厅","lon":"121.50502014","lat":"31.234098434","category":"500","category_name":"未知分类","address":"上海正大广埸"},{"poiid":"B2094757D66CA0FD479E","title":"松鹤楼游船码头","lon":"121.502754738","lat":"31.2317393323","category":"500","category_name":"未知分类","address":"上海中山东二路505号"},{"poiid":"B2094654DB6BABFC429E","title":"上海鹏利辉盛阁公寓(银城中路)","lon":"121.50334","lat":"31.23164","category":"47","category_name":"住宅区","address":"上海市浦东新区陆家嘴银城中路600弄1号（陆家嘴环路）"},{"poiid":"B2094757D06FA6FE499F","title":"肯德基 KFC (浦南店)","lon":"121.50421566","lat":"31.234155366","category":"68","category_name":"快餐厅","address":"浦东新区浦东南路800号(近东昌路)"},{"poiid":"B2094750DA68A5F4449D","title":"金贸君悦大酒店","lon":"121.502555","lat":"31.234514","category":"500","category_name":"未知分类","address":null},{"poiid":"B2094757D16EA5FA4293","title":"安薇塔","lon":"121.502328738","lat":"31.2342943867","category":"500","category_name":"未知分类","address":"上海市 国金中心 LG2"},{"poiid":"B2094655D36DA0FB419A","title":"银城中路陆家嘴环路(环球中心)","lon":"121.50436","lat":"31.23193","category":"38","category_name":"公交车站","address":""},{"poiid":"B2094757D16AA1FF429E","title":"满记甜品","lon":"121.501566738","lat":"31.2345643925","category":"247","category_name":"餐饮美食","address":"上海市浦东新区陆家嘴西路"},{"poiid":"B2094757D065A7F9469C","title":"花旗大厦花旗银行","lon":"121.50367547","lat":"31.231474696","category":"500","category_name":"未知分类","address":"上海市"},{"poiid":"B2094654DA6EA4FC489D","title":"埃力生国际大厦","lon":"121.502","lat":"31.2333","category":"46","category_name":"楼宇","address":"上海市黄浦区南京东路409-459号"},{"poiid":"B2094757D06FA4F9449C","title":"轮渡线(东金线轮渡)","lon":"121.50343","lat":"31.22978","category":"260","category_name":"其他","address":"东昌路渡口－金陵东路渡口(滨江大道东昌路)"},{"poiid":"B209475DDB6CA0F94899","title":"糖纸","lon":"121.504615","lat":"31.235277","category":"247","category_name":"餐饮美食","address":"上海市 陆家嘴正大广场3楼"},{"poiid":"B2094757D069A3F4419C","title":"港泰风茶餐厅","lon":"121.50589822","lat":"31.230998536","category":"72","category_name":"广东菜","address":"浦东新区东昌路540号(近浦东南路)"},{"poiid":"B2094757D168A4FD4592","title":"船长2号","lon":"121.50327773","lat":"31.23165333","category":"247","category_name":"餐饮美食","address":"黄浦区延安东路外滩船长号游轮码头(中山东二路中山东一路)"},{"poiid":"B2094757D068A4FF489C","title":"华尔街英语上海金茂中心","lon":"121.50498875064852","lat":"31.234724185492258","category":"190","category_name":"培训机构","address":"浦东新区世纪大道88号金茂大厦3楼(近二号线陆家嘴站)"},{"poiid":"B2094757D164A3FB4699","title":"望香园（正大店）","lon":"121.50157181","lat":"31.233032489","category":"247","category_name":"餐饮美食","address":"上海正大广场四层"},{"poiid":"B2094757D568A5F44292","title":"鹏利海景公寓","lon":"121.5034558","lat":"31.23157278","category":"47","category_name":"住宅区","address":"上海浦东新区东昌路、银城路交界处"},{"poiid":"B2094655D26BA1F4409A","title":"陆家嘴环路花园石桥路(汤臣一品)","lon":"121.50118","lat":"31.2345","category":"38","category_name":"公交车站","address":""},{"poiid":"B2094757D66CABFA4898","title":"上海银行总行","lon":"121.504295","lat":"31.233946","category":"150","category_name":"银行","address":"浦东新区银城中路168号(近东园路)"},{"poiid":"B2094757D068A7FB439D","title":"盛大金磐","lon":"121.50597524","lat":"31.231531638","category":"500","category_name":"未知分类","address":"上海浦东新区东泰路200弄"},{"poiid":"B2094750DA6AAAFC459B","title":"广州蕉叶餐厅","lon":"121.501556","lat":"31.234323","category":"500","category_name":"未知分类","address":"浦東新區陸家嘴西路168號正大廣場西樓零"},{"poiid":"B2094751D568A4FB499E","title":"莫尓顿牛排坊","lon":"121.501602","lat":"31.234329","category":"247","category_name":"餐饮美食","address":null},{"poiid":"B2094757DA64A1F54393","title":"上海中心大厦","lon":"121.504746","lat":"31.233757","category":"252","category_name":"楼宇机构","address":"浦东新区银城中路501号(近花园石桥路)"},{"poiid":"B2094654DA6FA7FF4699","title":"海龙海鲜舫","lon":"121.50199","lat":"31.23107","category":"72","category_name":"广东菜","address":"浦东新区东昌路1号(近富城路拾步街)"},{"poiid":"B2094757D068A3FC499B","title":"天泰餐厅(国金店)","lon":"121.502658488","lat":"31.2353811506","category":"99","category_name":"泰国／越南菜品餐厅","address":"浦东新区世纪大道8号国金中心4楼(近浦东大道)"},{"poiid":"B2094750D26BAAFD439C","title":"正大广场陆家嘴西路168号","lon":"121.501686","lat":"31.234832","category":"249","category_name":"购物服务","address":"正大广场陆家嘴西路168号"},{"poiid":"B209475CD564A7F84392","title":"上海滩浦东香格里拉店","lon":"121.50058","lat":"31.23634","category":"119","category_name":"商场","address":"浦东富成路33号香格里拉酒店内大堂层"},{"poiid":"B2094750D26CA3FE4592","title":"鹿港小镇 正大店","lon":"121.5044996","lat":"31.2354647","category":"91","category_name":"台湾菜","address":"浦东新区陆家嘴西路168号正大广场8楼810室(近东方明珠)"},{"poiid":"B2094757D06FA2FE4493","title":"仁清•东京新怀石料理(金茂店)","lon":"121.50594","lat":"31.23477","category":"95","category_name":"日本料理","address":"浦东新区世纪大道88号金茂大厦裙楼3楼(近二号线陆家嘴站)"},{"poiid":"B2094757D06FA1FA4399","title":"外滩游艇会","lon":"121.50381","lat":"31.23071","category":"260","category_name":"其他","address":"浦东新区滨江大道3510号(近东昌路渡口)"},{"poiid":"B2094750DA6AA4F4489F","title":"一风堂拉面","lon":"121.505241","lat":"31.235317","category":"247","category_name":"餐饮美食","address":"国金商场LG1"},{"poiid":"B2094757D06FA0FE479A","title":"汤臣一品","lon":"121.50127","lat":"31.233383","category":"47","category_name":"住宅区","address":"朝阳区东四环慈云寺桥东北角,向东400米路南"},{"poiid":"B2094757D06FA7FC4598","title":"东昌路轮渡站","lon":"121.50315135","lat":"31.230164847","category":"35","category_name":"长途汽车站","address":"上海浦东新区东昌路1号"},{"poiid":"B2094757D068ABFD489C","title":"Kaefer滨江壹号","lon":"121.50282273","lat":"31.232060339","category":"47","category_name":"住宅区","address":"浦东新区滨江大道富城路拾步街由隆花园(近花园石桥路)"},{"poiid":"B2094750D569ABF4429A","title":"蒗葶泰式酒吧餐厅","lon":"121.501908","lat":"31.234731","category":"172","category_name":"酒吧","address":"世纪大道100号环球金融中心301室"},{"poiid":"B2094757D165A7F54999","title":"花旗银行大厦","lon":"121.500979701","lat":"31.2332134973","category":"46","category_name":"楼宇","address":"上海浦东新区花园石桥路33号"},{"poiid":"B2094654DA69A7FB4792","title":"拉图餐厅 La Tour","lon":"121.50515","lat":"31.23502","category":"94","category_name":"西餐厅","address":"浦东新区世纪大道88号金茂大厦裙楼5楼(近二号线陆家嘴站)"},{"poiid":"B2094751DA64A4FF489F","title":"炉边谈情","lon":"121.5009","lat":"31.234146","category":"247","category_name":"餐饮美食","address":"正大广场六楼"},{"poiid":"B2094750D268A4FC499B","title":"小金牛越南餐厅","lon":"121.5044996","lat":"31.2354647","category":"99","category_name":"泰国／越南菜品餐厅","address":"浦东新区陆家嘴西路168号正大广场8楼21号铺(近东方明珠)"},{"poiid":"B2094750D26BA1FA4898","title":"玛托 MATTO","lon":"121.5044996","lat":"31.2354647","category":"94","category_name":"西餐厅","address":"浦东新区陆家嘴西路168号正大广场1楼GF50铺(近富城路)"},{"poiid":"B2094757D06AA1FC409E","title":"上海国金中心二期写字楼","lon":"121.502999494","lat":"31.2355211523","category":"46","category_name":"楼宇","address":"上海浦东新区世纪大道8号(近陆家嘴环路)"},{"poiid":"B2094757D068A6F4499F","title":"君悦轩(花园石桥店)","lon":"121.50239","lat":"31.23334","category":"72","category_name":"广东菜","address":"浦东新区花园石桥路66号东亚银行金融大厦3楼(近陆家嘴环路)"},{"poiid":"B2094757D068A0F9449A","title":"上海国金中心苹果旗舰店","lon":"121.503650738","lat":"31.2357334174","category":"500","category_name":"未知分类","address":"上海"},{"poiid":"B2094750DB6DA0FC459A","title":"一風堂（IPPUDO SH）","lon":"121.50502","lat":"31.235397","category":"247","category_name":"餐饮美食","address":null},{"poiid":"B2094750D268A7F8449E","title":"滨江一号","lon":"121.501441","lat":"31.231658","category":"247","category_name":"餐饮美食","address":"浦东新区滨江一号滨江富城路拾步街由隆花园(近石桥路)"},{"poiid":"B2094757D065A7F9409F","title":"Pizzeria Alla Torre(陆家嘴店)","lon":"121.50102","lat":"31.23548","category":"94","category_name":"西餐厅","address":"上海浦东新区陆家嘴环路165号1楼(富城路名商路)"},{"poiid":"B2094757D16CAAFB489F","title":"浦东金贸君悦酒店","lon":"121.50241173","lat":"31.230401303","category":"217","category_name":"旅馆招待所","address":"上海市浦东新区富城路"},{"poiid":"B2094751D56DA6F4479F","title":"ifc 一风堂","lon":"121.504761","lat":"31.235413","category":"247","category_name":"餐饮美食","address":"上海浦东新区世纪大道8号国金中心LG1 79-80"},{"poiid":"B2094757D16BA4F54592","title":"STELLA LUNA(国金店)","lon":"121.501676738","lat":"31.2345953931","category":"500","category_name":"未知分类","address":"上海ifc国金商场"},{"poiid":"B2094757D06BA1FA459D","title":"上海中心","lon":"121.506470701","lat":"31.2333594809","category":"500","category_name":"未知分类","address":"上海银城中路501号"},{"poiid":"B2094757D069A4FB489E","title":"普京餐厅","lon":"121.50502014","lat":"31.234098434","category":"500","category_name":"未知分类","address":"上海正大广埸"},{"poiid":"B2094757D66CA0FD479E","title":"松鹤楼游船码头","lon":"121.502754738","lat":"31.2317393323","category":"500","category_name":"未知分类","address":"上海中山东二路505号"},{"poiid":"B2094654DB6BABFC429E","title":"上海鹏利辉盛阁公寓(银城中路)","lon":"121.50334","lat":"31.23164","category":"47","category_name":"住宅区","address":"上海市浦东新区陆家嘴银城中路600弄1号（陆家嘴环路）"},{"poiid":"B2094757D06FA6FE499F","title":"肯德基 KFC (浦南店)","lon":"121.50421566","lat":"31.234155366","category":"68","category_name":"快餐厅","address":"浦东新区浦东南路800号(近东昌路)"},{"poiid":"B2094750DA68A5F4449D","title":"金贸君悦大酒店","lon":"121.502555","lat":"31.234514","category":"500","category_name":"未知分类","address":null},{"poiid":"B2094757D16EA5FA4293","title":"安薇塔","lon":"121.502328738","lat":"31.2342943867","category":"500","category_name":"未知分类","address":"上海市 国金中心 LG2"},{"poiid":"B2094655D36DA0FB419A","title":"银城中路陆家嘴环路(环球中心)","lon":"121.50436","lat":"31.23193","category":"38","category_name":"公交车站","address":""},{"poiid":"B2094757D16AA1FF429E","title":"满记甜品","lon":"121.501566738","lat":"31.2345643925","category":"247","category_name":"餐饮美食","address":"上海市浦东新区陆家嘴西路"},{"poiid":"B2094757D065A7F9469C","title":"花旗大厦花旗银行","lon":"121.50367547","lat":"31.231474696","category":"500","category_name":"未知分类","address":"上海市"},{"poiid":"B2094654DA6EA4FC489D","title":"埃力生国际大厦","lon":"121.502","lat":"31.2333","category":"46","category_name":"楼宇","address":"上海市黄浦区南京东路409-459号"},{"poiid":"B2094757D06FA4F9449C","title":"轮渡线(东金线轮渡)","lon":"121.50343","lat":"31.22978","category":"260","category_name":"其他","address":"东昌路渡口－金陵东路渡口(滨江大道东昌路)"},{"poiid":"B209475DDB6CA0F94899","title":"糖纸","lon":"121.504615","lat":"31.235277","category":"247","category_name":"餐饮美食","address":"上海市 陆家嘴正大广场3楼"},{"poiid":"B2094757D069A3F4419C","title":"港泰风茶餐厅","lon":"121.50589822","lat":"31.230998536","category":"72","category_name":"广东菜","address":"浦东新区东昌路540号(近浦东南路)"},{"poiid":"B2094757D168A4FD4592","title":"船长2号","lon":"121.50327773","lat":"31.23165333","category":"247","category_name":"餐饮美食","address":"黄浦区延安东路外滩船长号游轮码头(中山东二路中山东一路)"},{"poiid":"B2094757D068A4FF489C","title":"华尔街英语上海金茂中心","lon":"121.50498875064852","lat":"31.234724185492258","category":"190","category_name":"培训机构","address":"浦东新区世纪大道88号金茂大厦3楼(近二号线陆家嘴站)"},{"poiid":"B2094757D164A3FB4699","title":"望香园（正大店）","lon":"121.50157181","lat":"31.233032489","category":"247","category_name":"餐饮美食","address":"上海正大广场四层"},{"poiid":"B2094757D568A5F44292","title":"鹏利海景公寓","lon":"121.5034558","lat":"31.23157278","category":"47","category_name":"住宅区","address":"上海浦东新区东昌路、银城路交界处"},{"poiid":"B2094655D26BA1F4409A","title":"陆家嘴环路花园石桥路(汤臣一品)","lon":"121.50118","lat":"31.2345","category":"38","category_name":"公交车站","address":""},{"poiid":"B2094757D66CABFA4898","title":"上海银行总行","lon":"121.504295","lat":"31.233946","category":"150","category_name":"银行","address":"浦东新区银城中路168号(近东园路)"},{"poiid":"B2094757D068A7FB439D","title":"盛大金磐","lon":"121.50597524","lat":"31.231531638","category":"500","category_name":"未知分类","address":"上海浦东新区东泰路200弄"},{"poiid":"B2094750DA6AAAFC459B","title":"广州蕉叶餐厅","lon":"121.501556","lat":"31.234323","category":"500","category_name":"未知分类","address":"浦東新區陸家嘴西路168號正大廣場西樓零"},{"poiid":"B2094751D568A4FB499E","title":"莫尓顿牛排坊","lon":"121.501602","lat":"31.234329","category":"247","category_name":"餐饮美食","address":null},{"poiid":"B2094757DA64A1F54393","title":"上海中心大厦","lon":"121.504746","lat":"31.233757","category":"252","category_name":"楼宇机构","address":"浦东新区银城中路501号(近花园石桥路)"},{"poiid":"B2094654DA6FA7FF4699","title":"海龙海鲜舫","lon":"121.50199","lat":"31.23107","category":"72","category_name":"广东菜","address":"浦东新区东昌路1号(近富城路拾步街)"},{"poiid":"B2094757D068A3FC499B","title":"天泰餐厅(国金店)","lon":"121.502658488","lat":"31.2353811506","category":"99","category_name":"泰国／越南菜品餐厅","address":"浦东新区世纪大道8号国金中心4楼(近浦东大道)"},{"poiid":"B2094750D26BAAFD439C","title":"正大广场陆家嘴西路168号","lon":"121.501686","lat":"31.234832","category":"249","category_name":"购物服务","address":"正大广场陆家嘴西路168号"},{"poiid":"B209475CD564A7F84392","title":"上海滩浦东香格里拉店","lon":"121.50058","lat":"31.23634","category":"119","category_name":"商场","address":"浦东富成路33号香格里拉酒店内大堂层"},{"poiid":"B2094750D26CA3FE4592","title":"鹿港小镇 正大店","lon":"121.5044996","lat":"31.2354647","category":"91","category_name":"台湾菜","address":"浦东新区陆家嘴西路168号正大广场8楼810室(近东方明珠)"},{"poiid":"B2094757D06FA2FE4493","title":"仁清•东京新怀石料理(金茂店)","lon":"121.50594","lat":"31.23477","category":"95","category_name":"日本料理","address":"浦东新区世纪大道88号金茂大厦裙楼3楼(近二号线陆家嘴站)"},{"poiid":"B2094757D06FA1FA4399","title":"外滩游艇会","lon":"121.50381","lat":"31.23071","category":"260","category_name":"其他","address":"浦东新区滨江大道3510号(近东昌路渡口)"},{"poiid":"B2094750DA6AA4F4489F","title":"一风堂拉面","lon":"121.505241","lat":"31.235317","category":"247","category_name":"餐饮美食","address":"国金商场LG1"},{"poiid":"B2094757D06FA0FE479A","title":"汤臣一品","lon":"121.50127","lat":"31.233383","category":"47","category_name":"住宅区","address":"朝阳区东四环慈云寺桥东北角,向东400米路南"},{"poiid":"B2094757D06FA7FC4598","title":"东昌路轮渡站","lon":"121.50315135","lat":"31.230164847","category":"35","category_name":"长途汽车站","address":"上海浦东新区东昌路1号"},{"poiid":"B2094757D068ABFD489C","title":"Kaefer滨江壹号","lon":"121.50282273","lat":"31.232060339","category":"47","category_name":"住宅区","address":"浦东新区滨江大道富城路拾步街由隆花园(近花园石桥路)"},{"poiid":"B2094750D569ABF4429A","title":"蒗葶泰式酒吧餐厅","lon":"121.501908","lat":"31.234731","category":"172","category_name":"酒吧","address":"世纪大道100号环球金融中心301室"},{"poiid":"B2094757D165A7F54999","title":"花旗银行大厦","lon":"121.500979701","lat":"31.2332134973","category":"46","category_name":"楼宇","address":"上海浦东新区花园石桥路33号"},{"poiid":"B2094654DA69A7FB4792","title":"拉图餐厅 La Tour","lon":"121.50515","lat":"31.23502","category":"94","category_name":"西餐厅","address":"浦东新区世纪大道88号金茂大厦裙楼5楼(近二号线陆家嘴站)"},{"poiid":"B2094751DA64A4FF489F","title":"炉边谈情","lon":"121.5009","lat":"31.234146","category":"247","category_name":"餐饮美食","address":"正大广场六楼"},{"poiid":"B2094750D268A4FC499B","title":"小金牛越南餐厅","lon":"121.5044996","lat":"31.2354647","category":"99","category_name":"泰国／越南菜品餐厅","address":"浦东新区陆家嘴西路168号正大广场8楼21号铺(近东方明珠)"},{"poiid":"B2094750D26BA1FA4898","title":"玛托 MATTO","lon":"121.5044996","lat":"31.2354647","category":"94","category_name":"西餐厅","address":"浦东新区陆家嘴西路168号正大广场1楼GF50铺(近富城路)"},{"poiid":"B2094757D06AA1FC409E","title":"上海国金中心二期写字楼","lon":"121.502999494","lat":"31.2355211523","category":"46","category_name":"楼宇","address":"上海浦东新区世纪大道8号(近陆家嘴环路)"},{"poiid":"B2094757D068A6F4499F","title":"君悦轩(花园石桥店)","lon":"121.50239","lat":"31.23334","category":"72","category_name":"广东菜","address":"浦东新区花园石桥路66号东亚银行金融大厦3楼(近陆家嘴环路)"},{"poiid":"B2094757D068A0F9449A","title":"上海国金中心苹果旗舰店","lon":"121.503650738","lat":"31.2357334174","category":"500","category_name":"未知分类","address":"上海"},{"poiid":"B2094750DB6DA0FC459A","title":"一風堂（IPPUDO SH）","lon":"121.50502","lat":"31.235397","category":"247","category_name":"餐饮美食","address":null},{"poiid":"B2094750D268A7F8449E","title":"滨江一号","lon":"121.501441","lat":"31.231658","category":"247","category_name":"餐饮美食","address":"浦东新区滨江一号滨江富城路拾步街由隆花园(近石桥路)"},{"poiid":"B2094757D065A7F9409F","title":"Pizzeria Alla Torre(陆家嘴店)","lon":"121.50102","lat":"31.23548","category":"94","category_name":"西餐厅","address":"上海浦东新区陆家嘴环路165号1楼(富城路名商路)"},{"poiid":"B2094757D16CAAFB489F","title":"浦东金贸君悦酒店","lon":"121.50241173","lat":"31.230401303","category":"217","category_name":"旅馆招待所","address":"上海市浦东新区富城路"},{"poiid":"B2094751D56DA6F4479F","title":"ifc 一风堂","lon":"121.504761","lat":"31.235413","category":"247","category_name":"餐饮美食","address":"上海浦东新区世纪大道8号国金中心LG1 79-80"},{"poiid":"B2094757D16BA4F54592","title":"STELLA LUNA(国金店)","lon":"121.501676738","lat":"31.2345953931","category":"500","category_name":"未知分类","address":"上海ifc国金商场"},{"poiid":"B2094757D06BA1FA459D","title":"上海中心","lon":"121.506470701","lat":"31.2333594809","category":"500","category_name":"未知分类","address":"上海银城中路501号"},{"poiid":"B2094757D069A4FB489E","title":"普京餐厅","lon":"121.50502014","lat":"31.234098434","category":"500","category_name":"未知分类","address":"上海正大广埸"},{"poiid":"B2094757D66CA0FD479E","title":"松鹤楼游船码头","lon":"121.502754738","lat":"31.2317393323","category":"500","category_name":"未知分类","address":"上海中山东二路505号"},{"poiid":"B2094654DB6BABFC429E","title":"上海鹏利辉盛阁公寓(银城中路)","lon":"121.50334","lat":"31.23164","category":"47","category_name":"住宅区","address":"上海市浦东新区陆家嘴银城中路600弄1号（陆家嘴环路）"},{"poiid":"B2094757D06FA6FE499F","title":"肯德基 KFC (浦南店)","lon":"121.50421566","lat":"31.234155366","category":"68","category_name":"快餐厅","address":"浦东新区浦东南路800号(近东昌路)"},{"poiid":"B2094750DA68A5F4449D","title":"金贸君悦大酒店","lon":"121.502555","lat":"31.234514","category":"500","category_name":"未知分类","address":null},{"poiid":"B2094757D16EA5FA4293","title":"安薇塔","lon":"121.502328738","lat":"31.2342943867","category":"500","category_name":"未知分类","address":"上海市 国金中心 LG2"},{"poiid":"B2094655D36DA0FB419A","title":"银城中路陆家嘴环路(环球中心)","lon":"121.50436","lat":"31.23193","category":"38","category_name":"公交车站","address":""},{"poiid":"B2094757D16AA1FF429E","title":"满记甜品","lon":"121.501566738","lat":"31.2345643925","category":"247","category_name":"餐饮美食","address":"上海市浦东新区陆家嘴西路"},{"poiid":"B2094757D065A7F9469C","title":"花旗大厦花旗银行","lon":"121.50367547","lat":"31.231474696","category":"500","category_name":"未知分类","address":"上海市"},{"poiid":"B2094654DA6EA4FC489D","title":"埃力生国际大厦","lon":"121.502","lat":"31.2333","category":"46","category_name":"楼宇","address":"上海市黄浦区南京东路409-459号"},{"poiid":"B2094757D06FA4F9449C","title":"轮渡线(东金线轮渡)","lon":"121.50343","lat":"31.22978","category":"260","category_name":"其他","address":"东昌路渡口－金陵东路渡口(滨江大道东昌路)"},{"poiid":"B209475DDB6CA0F94899","title":"糖纸","lon":"121.504615","lat":"31.235277","category":"247","category_name":"餐饮美食","address":"上海市 陆家嘴正大广场3楼"},{"poiid":"B2094757D069A3F4419C","title":"港泰风茶餐厅","lon":"121.50589822","lat":"31.230998536","category":"72","category_name":"广东菜","address":"浦东新区东昌路540号(近浦东南路)"},{"poiid":"B2094757D168A4FD4592","title":"船长2号","lon":"121.50327773","lat":"31.23165333","category":"247","category_name":"餐饮美食","address":"黄浦区延安东路外滩船长号游轮码头(中山东二路中山东一路)"},{"poiid":"B2094757D068A4FF489C","title":"华尔街英语上海金茂中心","lon":"121.50498875064852","lat":"31.234724185492258","category":"190","category_name":"培训机构","address":"浦东新区世纪大道88号金茂大厦3楼(近二号线陆家嘴站)"},{"poiid":"B2094757D164A3FB4699","title":"望香园（正大店）","lon":"121.50157181","lat":"31.233032489","category":"247","category_name":"餐饮美食","address":"上海正大广场四层"},{"poiid":"B2094757D568A5F44292","title":"鹏利海景公寓","lon":"121.5034558","lat":"31.23157278","category":"47","category_name":"住宅区","address":"上海浦东新区东昌路、银城路交界处"},{"poiid":"B2094655D26BA1F4409A","title":"陆家嘴环路花园石桥路(汤臣一品)","lon":"121.50118","lat":"31.2345","category":"38","category_name":"公交车站","address":""},{"poiid":"B2094757D66CABFA4898","title":"上海银行总行","lon":"121.504295","lat":"31.233946","category":"150","category_name":"银行","address":"浦东新区银城中路168号(近东园路)"},{"poiid":"B2094757D068A7FB439D","title":"盛大金磐","lon":"121.50597524","lat":"31.231531638","category":"500","category_name":"未知分类","address":"上海浦东新区东泰路200弄"},{"poiid":"B2094750DA6AAAFC459B","title":"广州蕉叶餐厅","lon":"121.501556","lat":"31.234323","category":"500","category_name":"未知分类","address":"浦東新區陸家嘴西路168號正大廣場西樓零"},{"poiid":"B2094751D568A4FB499E","title":"莫尓顿牛排坊","lon":"121.501602","lat":"31.234329","category":"247","category_name":"餐饮美食","address":null},{"poiid":"B2094757DA64A1F54393","title":"上海中心大厦","lon":"121.504746","lat":"31.233757","category":"252","category_name":"楼宇机构","address":"浦东新区银城中路501号(近花园石桥路)"}]