[{"poiid":"B2094757D06AAAFD479A","title":"浦东机场一号航站楼24号登机口","lon":"121.757336","lat":"31.153572","category":"21","category_name":"飞机场","address":"上海浦东新区机场镇启航路900号"},{"poiid":"B2094757D66CA4FF499B","title":"浦东新区机场镇","lon":"121.754978992","lat":"31.1632029709","category":"500","category_name":"未知分类","address":"上海浦东机场附近"},{"poiid":"B2094757D16EA3F94293","title":"浦东机场2号航站楼C94登机口","lon":"121.75227818","lat":"31.152032508","category":"21","category_name":"飞机场","address":"上海浦东国际机场"},{"poiid":"B2094757D069AAFF499F","title":"南航明珠大酒店","lon":"121.75699866","lat":"31.176889724","category":"76","category_name":"上海菜","address":"浦东新区晨阳路450号(江镇中学对面)"},{"poiid":"B2094757D069A1FC449E","title":"施湾镇","lon":"121.757073","lat":"31.153482","category":"500","category_name":"未知分类","address":"上海施湾镇"},{"poiid":"B2094757D06AA1FC4198","title":"川南奉公路晨阳路","lon":"121.746766277","lat":"31.175283311","category":"500","category_name":"未知分类","address":"上海川南奉公路晨阳路"},{"poiid":"B2094757D16CA7FF409A","title":"浦东丽豪国际大酒店","lon":"121.75841599","lat":"31.147969639","category":"217","category_name":"旅馆招待所","address":"浦东新区施新路958号(近川南奉公路)"},{"poiid":"B2094757D16CA4FE429E","title":"美聚汇(机场店)","lon":"121.75619","lat":"31.15479","category":"76","category_name":"上海菜","address":"浦东新区航城路508号(川南奉公路口)"},{"poiid":"B2094655D36CA1FF419E","title":"思凡小区","lon":"121.74662","lat":"31.14536","category":"47","category_name":"住宅区","address":"浦东新区施湾二路1026弄"},{"poiid":"B2094757D065ABFE4999","title":"沪渝农庄","lon":"121.74183","lat":"31.1569","category":"71","category_name":"四川菜","address":"浦东新区川六公路2386号尹塘路桥头"},{"poiid":"B2094757D165A7FB4193","title":"东方远航物流浦东东货运区","lon":"121.75264008","lat":"31.16047005","category":"46","category_name":"楼宇","address":"上海浦东新区东远航路"},{"poiid":"B2094654DB64A3FB439C","title":"百欣苑","lon":"121.75247","lat":"31.170876","category":"47","category_name":"住宅区","address":"东亭路836弄"},{"poiid":"B2094655D36CA0F84699","title":"江镇","lon":"121.74744","lat":"31.17429","category":"38","category_name":"公交车站","address":""},{"poiid":"B2094655D36CA5FE4499","title":"川南奉公路川六公路","lon":"121.75062","lat":"31.16169","category":"38","category_name":"公交车站","address":""},{"poiid":"B2094655D36CA7FF4492","title":"红星","lon":"121.74957","lat":"31.16079","category":"38","category_name":"公交车站","address":""},{"poiid":"B2094757D168A7FA449F","title":"盛世联弈苑","lon":"121.75737019","lat":"31.15350696","category":"500","category_name":"未知分类","address":"上海市浦东新区机场镇航城三路675弄"},{"poiid":"B2094655D36DA7F94393","title":"中圩","lon":"121.75366","lat":"31.15735","category":"38","category_name":"公交车站","address":""},{"poiid":"B2094757DA65A5FB4098","title":"景悦99客栈（上海浦东机场施湾店）","lon":"121.760053","lat":"31.15575195","category":"216","category_name":"经济型连锁酒店","address":"上海市浦东新区航城路60号（近施湾路）"},{"poiid":"B2094757D068A6FD4798","title":"川南奉公路","lon":"121.75279932","lat":"31.16186059","category":"260","category_name":"其他","address":"上海川南奉公路"},{"poiid":"B2094757D065A2FA4692","title":"上海浦东国际机场海关第二监管仓库","lon":"121.767762792","lat":"31.1565497262","category":"46","category_name":"楼宇","address":"上海机场大道180号"},{"poiid":"B2094757D568AAFB459B","title":"天和湖滨","lon":"121.752055","lat":"31.178147","category":"47","category_name":"住宅区","address":"浦东新区东亭路425号(近晚霞路口)"},{"poiid":"B2094655D36CA5FE4392","title":"川南奉公路航城路","lon":"121.75534","lat":"31.15566","category":"38","category_name":"公交车站","address":""},{"poiid":"B2094654DB6DA6FB449C","title":"上海大洪印务有限公司","lon":"121.75358","lat":"31.15971","category":"263","category_name":"公司","address":"道新南路8号"},{"poiid":"B2094654DB6DA6FB4599","title":"上海浦东红星建材批发市场","lon":"121.75083","lat":"31.16152","category":"123","category_name":"家具建材市场","address":"川南奉公路1933号"},{"poiid":"B2094757D065AAF54593","title":"航城园","lon":"121.74971","lat":"31.146696","category":"500","category_name":"未知分类","address":"上海市浦东新区施新路555弄"},{"poiid":"B2094655D36CA1FD409F","title":"施湾","lon":"121.75676","lat":"31.15364","category":"38","category_name":"公交车站","address":""},{"poiid":"B2094752D36CA0FC4492","title":"浦东机场二号航站楼","lon":"121.758773","lat":"31.158629","category":"500","category_name":"未知分类","address":null},{"poiid":"B2094757D168A4F54799","title":"中國檢驗檢疫","lon":"121.761442992","lat":"31.1540357715","category":"500","category_name":"未知分类","address":"上海航航路666號"},{"poiid":"B2094757D66EA2FC459C","title":"park97","lon":"121.754963992","lat":"31.1627199604","category":"500","category_name":"未知分类","address":"上海复兴公园"},{"poiid":"B2094753D569A2FB479F","title":"上海浦东国际机场","lon":"121.756866","lat":"31.157255","category":"500","category_name":"未知分类","address":"上海市 上海浦东国际机场1号航站楼"},{"poiid":"B2094655D36CA0FB469D","title":"机场镇","lon":"121.75746","lat":"31.15179","category":"38","category_name":"公交车站","address":"上海,上海市,机场镇航城五路施湾二路"},{"poiid":"B2094757D66EA7FC4499","title":"美聚会民间瓦罐煨汤","lon":"121.757360992","lat":"31.1546217842","category":"500","category_name":"未知分类","address":"上海浦东施湾航城路"},{"poiid":"B2094757D16EAAFA429A","title":"川南奉公路航程路","lon":"121.755033992","lat":"31.1553267996","category":"500","category_name":"未知分类","address":"上海川南奉公路航程路"},{"poiid":"B2094654DB6DA5FF409D","title":"豪客来酒家","lon":"121.75775","lat":"31.15213","category":"76","category_name":"上海菜","address":"浦东新区川南奉公路3271号(施湾车站对面)"},{"poiid":"B2094654DB64A6FD489B","title":"上海市施湾中学(川南奉公路)","lon":"121.75779","lat":"31.15343","category":"55","category_name":"中学","address":"浦东新区川南奉公路3211弄8号(川南奉公路中圩路)"},{"poiid":"B2094750D66AA1FD4593","title":"恒纬家苑","lon":"121.755905","lat":"31.151874","category":"47","category_name":"住宅区","address":"航城三路692弄"},{"poiid":"B2094655D36CA5FE439C","title":"川南奉公路军民路","lon":"121.74954","lat":"31.16877","category":"38","category_name":"公交车站","address":""},{"poiid":"B2094655D26FA5FC4492","title":"航城港海鲜大酒店","lon":"121.76196","lat":"31.15545","category":"88","category_name":"海鲜酒楼","address":"浦东新区航程路288号"},{"poiid":"B2094654DB6DA5FC499A","title":"浦东新区施湾中心小学","lon":"121.75695","lat":"31.15253","category":"56","category_name":"小学","address":"浦东新区机场镇川南奉公路3250号(川南奉公路施宏路)"},{"poiid":"B2094654DA6AA5F5419A","title":"六团综合商店","lon":"121.74554","lat":"31.16531","category":"117","category_name":"便民商店/便利店","address":"六团镇杜尹村"},{"poiid":"B2094757DB6DA5FC4398","title":"上海蓝舍酒店(浦东机场店）","lon":"121.7497","lat":"31.169174","category":"216","category_name":"经济型连锁酒店","address":"上海市浦东新区川沙新镇红旗村周家宅161号(川南奉公路军民路口)"},{"poiid":"B2094654DB64A1F4409A","title":"施宏小区(施宏路)","lon":"121.76086","lat":"31.1526","category":"47","category_name":"住宅区","address":"施宏路501、539弄"},{"poiid":"B2094655D36CA5FE4293","title":"川南奉公路施新路","lon":"121.75815","lat":"31.14926","category":"38","category_name":"公交车站","address":""},{"poiid":"B2094750D26DA1FA409C","title":"浦东机场停机坪","lon":"121.7659946","lat":"31.1554582","category":"500","category_name":"未知分类","address":null},{"poiid":"B2094757D16AA0FC4598","title":"沃尔玛","lon":"121.75665026","lat":"31.144802068","category":"500","category_name":"未知分类","address":"上海市浦东新区施新路"},{"poiid":"B2094757D16CA4FC439C","title":"东都豪苑","lon":"121.75303","lat":"31.177605","category":"47","category_name":"住宅区","address":"上海市浦东新区东亭路471弄"},{"poiid":"B2094757D66AA6F44899","title":"旭日酒店","lon":"121.74766","lat":"31.1739","category":"76","category_name":"上海菜","address":"浦东新区川沙镇川南奉公路1312号"},{"poiid":"B2094757DA65A5F54598","title":"上海星之悦浦东机场晨阳酒店","lon":"121.74934566","lat":"31.176240218","category":"215","category_name":"三星级宾馆","address":"上海浦东新区机场镇晨阳路75号"},{"poiid":"B2094654DA6AABFA479A","title":"百欣苑(2号门)","lon":"121.75126","lat":"31.16969","category":"47","category_name":"住宅区","address":""},{"poiid":"B2094757D064A3FF469D","title":"961","lon":"121.751092","lat":"31.16977","category":"38","category_name":"公交车站","address":"上海961公交车"},{"poiid":"B2094757D06AAAFD479A","title":"浦东机场一号航站楼24号登机口","lon":"121.757336","lat":"31.153572","category":"21","category_name":"飞机场","address":"上海浦东新区机场镇启航路900号"},{"poiid":"B2094757D66CA4FF499B","title":"浦东新区机场镇","lon":"121.754978992","lat":"31.1632029709","category":"500","category_name":"未知分类","address":"上海浦东机场附近"},{"poiid":"B2094757D16EA3F94293","title":"浦东机场2号航站楼C94登机口","lon":"121.75227818","lat":"31.152032508","category":"21","category_name":"飞机场","address":"上海浦东国际机场"},{"poiid":"B2094757D069AAFF499F","title":"南航明珠大酒店","lon":"121.75699866","lat":"31.176889724","category":"76","category_name":"上海菜","address":"浦东新区晨阳路450号(江镇中学对面)"},{"poiid":"B2094757D069A1FC449E","title":"施湾镇","lon":"121.757073","lat":"31.153482","category":"500","category_name":"未知分类","address":"上海施湾镇"},{"poiid":"B2094757D06AA1FC4198","title":"川南奉公路晨阳路","lon":"121.746766277","lat":"31.175283311","category":"500","category_name":"未知分类","address":"上海川南奉公路晨阳路"},{"poiid":"B2094757D16CA7FF409A","title":"浦东丽豪国际大酒店","lon":"121.75841599","lat":"31.147969639","category":"217","category_name":"旅馆招待所","address":"浦东新区施新路958号(近川南奉公路)"},{"poiid":"B2094757D16CA4FE429E","title":"美聚汇(机场店)","lon":"121.75619","lat":"31.15479","category":"76","category_name":"上海菜","address":"浦东新区航城路508号(川南奉公路口)"},{"poiid":"B2094655D36CA1FF419E","title":"思凡小区","lon":"121.74662","lat":"31.14536","category":"47","category_name":"住宅区","address":"浦东新区施湾二路1026弄"},{"poiid":"B2094757D065ABFE4999","title":"沪渝农庄","lon":"121.74183","lat":"31.1569","category":"71","category_name":"四川菜","address":"浦东新区川六公路2386号尹塘路桥头"},{"poiid":"B2094757D165A7FB4193","title":"东方远航物流浦东东货运区","lon":"121.75264008","lat":"31.16047005","category":"46","category_name":"楼宇","address":"上海浦东新区东远航路"},{"poiid":"B2094654DB64A3FB439C","title":"百欣苑","lon":"121.75247","lat":"31.170876","category":"47","category_name":"住宅区","address":"东亭路836弄"},{"poiid":"B2094655D36CA0F84699","title":"江镇","lon":"121.74744","lat":"31.17429","category":"38","category_name":"公交车站","address":""},{"poiid":"B2094655D36CA5FE4499","title":"川南奉公路川六公路","lon":"121.75062","lat":"31.16169","category":"38","category_name":"公交车站","address":""},{"poiid":"B2094655D36CA7FF4492","title":"红星","lon":"121.74957","lat":"31.16079","category":"38","category_name":"公交车站","address":""},{"poiid":"B2094757D168A7FA449F","title":"盛世联弈苑","lon":"121.75737019","lat":"31.15350696","category":"500","category_name":"未知分类","address":"上海市浦东新区机场镇航城三路675弄"},{"poiid":"B2094655D36DA7F94393","title":"中圩","lon":"121.75366","lat":"31.15735","category":"38","category_name":"公交车站","address":""},{"poiid":"B2094757DA65A5FB4098","title":"景悦99客栈（上海浦东机场施湾店）","lon":"121.760053","lat":"31.15575195","category":"216","category_name":"经济型连锁酒店","address":"上海市浦东新区航城路60号（近施湾路）"},{"poiid":"B2094757D068A6FD4798","title":"川南奉公路","lon":"121.75279932","lat":"31.16186059","category":"260","category_name":"其他","address":"上海川南奉公路"},{"poiid":"B2094757D065A2FA4692","title":"上海浦东国际机场海关第二监管仓库","lon":"121.767762792","lat":"31.1565497262","category":"46","category_name":"楼宇","address":"上海机场大道180号"},{"poiid":"B2094757D568AAFB459B","title":"天和湖滨","lon":"121.752055","lat":"31.178147","category":"47","category_name":"住宅区","address":"浦东新区东亭路425号(近晚霞路口)"},{"poiid":"B2094655D36CA5FE4392","title":"川南奉公路航城路","lon":"121.75534","lat":"31.15566","category":"38","category_name":"公交车站","address":""},{"poiid":"B2094654DB6DA6FB449C","title":"上海大洪印务有限公司","lon":"121.75358","lat":"31.15971","category":"263","category_name":"公司","address":"道新南路8号"},{"poiid":"B2094654DB6DA6FB4599","title":"上海浦东红星建材批发市场","lon":"121.75083","lat":"31.16152","category":"123","category_name":"家具建材市场","address":"川南奉公路1933号"},{"poiid":"B2094757D065AAF54593","title":"航城园","lon":"121.74971","lat":"31.146696","category":"500","category_name":"未知分类","address":"上海市浦东新区施新路555弄"},{"poiid":"B2094655D36CA1FD409F","title":"施湾","lon":"121.75676","lat":"31.15364","category":"38","category_name":"公交车站","address":""},{"poiid":"B2094752D36CA0FC4492","title":"浦东机场二号航站楼","lon":"121.758773","lat":"31.158629","category":"500","category_name":"未知分类","address":null},{"poiid":"B2094757D168A4F54799","title":"中國檢驗檢疫","lon":"121.761442992","lat":"31.1540357715","category":"500","category_name":"未知分类","address":"上海航航路666號"},{"poiid":"B2094757D66EA2FC459C","title":"park97","lon":"121.754963992","lat":"31.1627199604","category":"500","category_name":"未知分类","address":"上海复兴公园"},{"poiid":"B2094753D569A2FB479F","title":"上海浦东国际机场","lon":"121.756866","lat":"31.157255","category":"500","category_name":"未知分类","address":"上海市 上海浦东国际机场1号航站楼"},{"poiid":"B2094655D36CA0FB469D","title":"机场镇","lon":"121.75746","lat":"31.15179","category":"38","category_name":"公交车站","address":"上海,上海市,机场镇航城五路施湾二路"},{"poiid":"B2094757D66EA7FC4499","title":"美聚会民间瓦罐煨汤","lon":"121.757360992","lat":"31.1546217842","category":"500","category_name":"未知分类","address":"上海浦东施湾航城路"},{"poiid":"B2094757D16EAAFA429A","title":"川南奉公路航程路","lon":"121.755033992","lat":"31.1553267996","category":"500","category_name":"未知分类","address":"上海川南奉公路航程路"},{"poiid":"B2094654DB6DA5FF409D","title":"豪客来酒家","lon":"121.75775","lat":"31.15213","category":"76","category_name":"上海菜","address":"浦东新区川南奉公路3271号(施湾车站对面)"},{"poiid":"B2094654DB64A6FD489B","title":"上海市施湾中学(川南奉公路)","lon":"121.75779","lat":"31.15343","category":"55","category_name":"中学","address":"浦东新区川南奉公路3211弄8号(川南奉公路中圩路)"},{"poiid":"B2094750D66AA1FD4593","title":"恒纬家苑","lon":"121.755905","lat":"31.151874","category":"47","category_name":"住宅区","address":"航城三路692弄"},{"poiid":"B2094655D36CA5FE439C","title":"川南奉公路军民路","lon":"121.74954","lat":"31.16877","category":"38","category_name":"公交车站","address":""},{"poiid":"B2094655D26FA5FC4492","title":"航城港海鲜大酒店","lon":"121.76196","lat":"31.15545","category":"88","category_name":"海鲜酒楼","address":"浦东新区航程路288号"},{"poiid":"B2094654DB6DA5FC499A","title":"浦东新区施湾中心小学","lon":"121.75695","lat":"31.15253","category":"56","category_name":"小学","address":"浦东新区机场镇川南奉公路3250号(川南奉公路施宏路)"},{"poiid":"B2094654DA6AA5F5419A","title":"六团综合商店","lon":"121.74554","lat":"31.16531","category":"117","category_name":"便民商店/便利店","address":"六团镇杜尹村"},{"poiid":"B2094757DB6DA5FC4398","title":"上海蓝舍酒店(浦东机场店）","lon":"121.7497","lat":"31.169174","category":"216","category_name":"经济型连锁酒店","address":"上海市浦东新区川沙新镇红旗村周家宅161号(川南奉公路军民路口)"},{"poiid":"B2094654DB64A1F4409A","title":"施宏小区(施宏路)","lon":"121.76086","lat":"31.1526","category":"47","category_name":"住宅区","address":"施宏路501、539弄"},{"poiid":"B2094655D36CA5FE4293","title":"川南奉公路施新路","lon":"121.75815","lat":"31.14926","category":"38","category_name":"公交车站","address":""},{"poiid":"B2094750D26DA1FA409C","title":"浦东机场停机坪","lon":"121.7659946","lat":"31.1554582","category":"500","category_name":"未知分类","address":null},{"poiid":"B2094757D16AA0FC4598","title":"沃尔玛","lon":"121.75665026","lat":"31.144802068","category":"500","category_name":"未知分类","address":"上海市浦东新区施新路"},{"poiid":"B2094757D16CA4FC439C","title":"东都豪苑","lon":"121.75303","lat":"31.177605","category":"47","category_name":"住宅区","address":"上海市浦东新区东亭路471弄"},{"poiid":"B2094757D66AA6F44899","title":"旭日酒店","lon":"121.74766","lat":"31.1739","category":"76","category_name":"上海菜","address":"浦东新区川沙镇川南奉公路1312号"},{"poiid":"B2094757DA65A5F54598","title":"上海星之悦浦东机场晨阳酒店","lon":"121.74934566","lat":"31.176240218","category":"215","category_name":"三星级宾馆","address":"上海浦东新区机场镇晨阳路75号"},{"poiid":"B2094654DA6AABFA479A","title":"百欣苑(2号门)","lon":"121.75126","lat":"31.16969","category":"47","category_name":"住宅区","address":""},{"poiid":"B2094757D064A3FF469D","title":"961","lon":"121.751092","lat":"31.16977","category":"38","category_name":"公交车站","address":"上海961公交车"},{"poiid":"B2094757D06AAAFD479A","title":"浦东机场一号航站楼24号登机口","lon":"121.757336","lat":"31.153572","category":"21","category_name":"飞机场","address":"上海浦东新区机场镇启航路900号"},{"poiid":"B2094757D66CA4FF499B","title":"浦东新区机场镇","lon":"121.754978992","lat":"31.1632029709","category":"500","category_name":"未知分类","address":"上海浦东机场附近"},{"poiid":"B2094757D16EA3F94293","title":"浦东机场2号航站楼C94登机口","lon":"121.75227818","lat":"31.152032508","category":"21","category_name":"飞机场","address":"上海浦东国际机场"},{"poiid":"B2094757D069AAFF499F","title":"南航明珠大酒店","lon":"121.75699866","lat":"31.176889724","category":"76","category_name":"上海菜","address":"浦东新区晨阳路450号(江镇中学对面)"},{"poiid":"B2094757D069A1FC449E","title":"施湾镇","lon":"121.757073","lat":"31.153482","category":"500","category_name":"未知分类","address":"上海施湾镇"},{"poiid":"B2094757D06AA1FC4198","title":"川南奉公路晨阳路","lon":"121.746766277","lat":"31.175283311","category":"500","category_name":"未知分类","address":"上海川南奉公路晨阳路"},{"poiid":"B2094757D16CA7FF409A","title":"浦东丽豪国际大酒店","lon":"121.75841599","lat":"31.147969639","category":"217","category_name":"旅馆招待所","address":"浦东新区施新路958号(近川南奉公路)"},{"poiid":"B2094757D16CA4FE429E","title":"美聚汇(机场店)","lon":"121.75619","lat":"31.15479","category":"76","category_name":"上海菜","address":"浦东新区航城路508号(川南奉公路口)"},{"poiid":"B2094655D36CA1FF419E","title":"思凡小区","lon":"121.74662","lat":"31.14536","category":"47","category_name":"住宅区","address":"浦东新区施湾二路1026弄"},{"poiid":"B2094757D065ABFE4999","title":"沪渝农庄","lon":"121.74183","lat":"31.1569","category":"71","category_name":"四川菜","address":"浦东新区川六公路2386号尹塘路桥头"},{"poiid":"B2094757D165A7FB4193","title":"东方远航物流浦东东货运区","lon":"121.75264008","lat":"31.16047005","category":"46","category_name":"楼宇","address":"上海浦东新区东远航路"},{"poiid":"B2094654DB64A3FB439C","title":"百欣苑","lon":"121.75247","lat":"31.170876","category":"47","category_name":"住宅区","address":"东亭路836弄"},{"poiid":"B2094655D36CA0F84699","title":"江镇","lon":"121.74744","lat":"31.17429","category":"38","category_name":"公交车站","address":""},{"poiid":"B2094655D36CA5FE4499","title":"川南奉公路川六公路","lon":"121.75062","lat":"31.16169","category":"38","category_name":"公交车站","address":""},{"poiid":"B2094655D36CA7FF4492","title":"红星","lon":"121.74957","lat":"31.16079","category":"38","category_name":"公交车站","address":""},{"poiid":"B2094757D168A7FA449F","title":"盛世联弈苑","lon":"121.75737019","lat":"31.15350696","category":"500","category_name":"未知分类","address":"上海市浦东新区机场镇航城三路675弄"},{"poiid":"B2094655D36DA7F94393","title":"中圩","lon":"121.75366","lat":"31.15735","category":"38","category_name":"公交车站","address":""},{"poiid":"B2094757DA65A5FB4098","title":"景悦99客栈（上海浦东机场施湾店）","lon":"121.760053","lat":"31.15575195","category":"216","category_name":"经济型连锁酒店","address":"上海市浦东新区航城路60号（近施湾路）"},{"poiid":"B2094757D068A6FD4798","title":"川南奉公路","lon":"121.75279932","lat":"31.16186059","category":"260","category_name":"其他","address":"上海川南奉公路"},{"poiid":"B2094757D065A2FA4692","title":"上海浦东国际机场海关第二监管仓库","lon":"121.767762792","lat":"31.1565497262","category":"46","category_name":"楼宇","address":"上海机场大道180号"},{"poiid":"B2094757D568AAFB459B","title":"天和湖滨","lon":"121.752055","lat":"31.178147","category":"47","category_name":"住宅区","address":"浦东新区东亭路425号(近晚霞路口)"},{"poiid":"B2094655D36CA5FE4392","title":"川南奉公路航城路","lon":"121.75534","lat":"31.15566","category":"38","category_name":"公交车站","address":""},{"poiid":"B2094654DB6DA6FB449C","title":"上海大洪印务有限公司","lon":"121.75358","lat":"31.15971","category":"263","category_name":"公司","address":"道新南路8号"},{"poiid":"B2094654DB6DA6FB4599","title":"上海浦东红星建材批发市场","lon":"121.75083","lat":"31.16152","category":"123","category_name":"家具建材市场","address":"川南奉公路1933号"},{"poiid":"B2094757D065AAF54593","title":"航城园","lon":"121.74971","lat":"31.146696","category":"500","category_name":"未知分类","address":"上海市浦东新区施新路555弄"},{"poiid":"B2094655D36CA1FD409F","title":"施湾","lon":"121.75676","lat":"31.15364","category":"38","category_name":"公交车站","address":""},{"poiid":"B2094752D36CA0FC4492","title":"浦东机场二号航站楼","lon":"121.758773","lat":"31.158629","category":"500","category_name":"未知分类","address":null},{"poiid":"B2094757D168A4F54799","title":"中國檢驗檢疫","lon":"121.761442992","lat":"31.1540357715","category":"500","category_name":"未知分类","address":"上海航航路666號"},{"poiid":"B2094757D66EA2FC459C","title":"park97","lon":"121.754963992","lat":"31.1627199604","category":"500","category_name":"未知分类","address":"上海复兴公园"},{"poiid":"B2094753D569A2FB479F","title":"上海浦东国际机场","lon":"121.756866","lat":"31.157255","category":"500","category_name":"未知分类","address":"上海市 上海浦东国际机场1号航站楼"},{"poiid":"B2094655D36CA0FB469D","title":"机场镇","lon":"121.75746","lat":"31.15179","category":"38","category_name":"公交车站","address":"上海,上海市,机场镇航城五路施湾二路"},{"poiid":"B2094757D66EA7FC4499","title":"美聚会民间瓦罐煨汤","lon":"121.757360992","lat":"31.1546217842","category":"500","category_name":"未知分类","address":"上海浦东施湾航城路"},{"poiid":"B2094757D16EAAFA429A","title":"川南奉公路航程路","lon":"121.755033992","lat":"31.1553267996","category":"500","category_name":"未知分类","address":"上海川南奉公路航程路"},{"poiid":"B2094654DB6DA5FF409D","title":"豪客来酒家","lon":"121.75775","lat":"31.15213","category":"76","category_name":"上海菜","address":"浦东新区川南奉公路3271号(施湾车站对面)"},{"poiid":"B2094654DB64A6FD489B","title":"上海市施湾中学(川南奉公路)","lon":"121.75779","lat":"31.15343","category":"55","category_name":"中学","address":"浦东新区川南奉公路3211弄8号(川南奉公路中圩路)"},{"poiid":"B2094750D66AA1FD4593","title":"恒纬家苑","lon":"121.755905","lat":"31.151874","category":"47","category_name":"住宅区","address":"航城三路692弄"},{"poiid":"B2094655D36CA5FE439C","title":"川南奉公路军民路","lon":"121.74954","lat":"31.16877","category":"38","category_name":"公交车站","address":""},{"poiid":"B2094655D26FA5FC4492","title":"航城港海鲜大酒店","lon":"121.76196","lat":"31.15545","category":"88","category_name":"海鲜酒楼","address":"浦东新区航程路288号"},{"poiid":"B2094654DB6DA5FC499A","title":"浦东新区施湾中心小学","lon":"121.75695","lat":"31.15253","category":"56","category_name":"小学","address":"浦东新区机场镇川南奉公路3250号(川南奉公路施宏路)"},{"poiid":"B2094654DA6AA5F5419A","title":"六团综合商店","lon":"121.74554","lat":"31.16531","category":"117","category_name":"便民商店/便利店","address":"六团镇杜尹村"},{"poiid":"B2094757DB6DA5FC4398","title":"上海蓝舍酒店(浦东机场店）","lon":"121.7497","lat":"31.169174","category":"216","category_name":"经济型连锁酒店","address":"上海市浦东新区川沙新镇红旗村周家宅161号(川南奉公路军民路口)"},{"poiid":"B2094654DB64A1F4409A","title":"施宏小区(施宏路)","lon":"121.76086","lat":"31.1526","category":"47","category_name":"住宅区","address":"施宏路501、539弄"},{"poiid":"B2094655D36CA5FE4293","title":"川南奉公路施新路","lon":"121.75815","lat":"31.14926","category":"38","category_name":"公交车站","address":""},{"poiid":"B2094750D26DA1FA409C","title":"浦东机场停机坪","lon":"121.7659946","lat":"31.1554582","category":"500","category_name":"未知分类","address":null},{"poiid":"B2094757D16AA0FC4598","title":"沃尔玛","lon":"121.75665026","lat":"31.144802068","category":"500","category_name":"未知分类","address":"上海市浦东新区施新路"},{"poiid":"B2094757D16CA4FC439C","title":"东都豪苑","lon":"121.75303","lat":"31.177605","category":"47","category_name":"住宅区","address":"上海市浦东新区东亭路471弄"},{"poiid":"B2094757D66AA6F44899","title":"旭日酒店","lon":"121.74766","lat":"31.1739","category":"76","category_name":"上海菜","address":"浦东新区川沙镇川南奉公路1312号"},{"poiid":"B2094757DA65A5F54598","title":"上海星之悦浦东机场晨阳酒店","lon":"121.74934566","lat":"31.176240218","category":"215","category_name":"三星级宾馆","address":"上海浦东新区机场镇晨阳路75号"},{"poiid":"B2094654DA6AABFA479A","title":"百欣苑(2号门)","lon":"121.75126","lat":"31.16969","category":"47","category_name":"住宅区","address":""},{"poiid":"B2094757D064A3FF469D","title":"961","lon":"121.751092","lat":"31.16977","category":"38","category_name":"公交车站","address":"上海961公交车"},{"poiid":"B2094757D06AAAFD479A","title":"浦东机场一号航站楼24号登机口","lon":"121.757336","lat":"31.153572","category":"21","category_name":"飞机场","address":"上海浦东新区机场镇启航路900号"},{"poiid":"B2094757D66CA4FF499B","title":"浦东新区机场镇","lon":"121.754978992","lat":"31.1632029709","category":"500","category_name":"未知分类","address":"上海浦东机场附近"},{"poiid":"B2094757D16EA3F94293","title":"浦东机场2号航站楼C94登机口","lon":"121.75227818","lat":"31.152032508","category":"21","category_name":"飞机场","address":"上海浦东国际机场"},{"poiid":"B2094757D069AAFF499F","title":"南航明珠大酒店","lon":"121.75699866","lat":"31.176889724","category":"76","category_name":"上海菜","address":"浦东新区晨阳路450号(江镇中学对面)"},{"poiid":"B2094757D069A1FC449E","title":"施湾镇","lon":"121.757073","lat":"31.153482","category":"500","category_name":"未知分类","address":"上海施湾镇"},{"poiid":"B2094757D06AA1FC4198","title":"川南奉公路晨阳路","lon":"121.746766277","lat":"31.175283311","category":"500","category_name":"未知分类","address":"上海川南奉公路晨阳路"},{"poiid":"B2094757D16CA7FF409A","title":"浦东丽豪国际大酒店","lon":"121.75841599","lat":"31.147969639","category":"217","category_name":"旅馆招待所","address":"浦东新区施新路958号(近川南奉公路)"},{"poiid":"B2094757D16CA4FE429E","title":"美聚汇(机场店)","lon":"121.75619","lat":"31.15479","category":"76","category_name":"上海菜","address":"浦东新区航城路508号(川南奉公路口)"},{"poiid":"B2094655D36CA1FF419E","title":"思凡小区","lon":"121.74662","lat":"31.14536","category":"47","category_name":"住宅区","address":"浦东新区施湾二路1026弄"},{"poiid":"B2094757D065ABFE4999","title":"沪渝农庄","lon":"121.74183","lat":"31.1569","category":"71","category_name":"四川菜","address":"浦东新区川六公路2386号尹塘路桥头"},{"poiid":"B2094757D165A7FB4193","title":"东方远航物流浦东东货运区","lon":"121.75264008","lat":"31.16047005","category":"46","category_name":"楼宇","address":"上海浦东新区东远航路"},{"poiid":"B2094654DB64A3FB439C","title":"百欣苑","lon":"121.75247","lat":"31.170876","category":"47","category_name":"住宅区","address":"东亭路836弄"},{"poiid":"B2094655D36CA0F84699","title":"江镇","lon":"121.74744","lat":"31.17429","category":"38","category_name":"公交车站","address":""},{"poiid":"B2094655D36CA5FE4499","title":"川南奉公路川六公路","lon":"121.75062","lat":"31.16169","category":"38","category_name":"公交车站","address":""},{"poiid":"B2094655D36CA7FF4492","title":"红星","lon":"121.74957","lat":"31.16079","category":"38","category_name":"公交车站","address":""},{"poiid":"B2094757D168A7FA449F","title":"盛世联弈苑","lon":"121.75737019","lat":"31.15350696","category":"500","category_name":"未知分类","address":"上海市浦东新区机场镇航城三路675弄"},{"poiid":"B2094655D36DA7F94393","title":"中圩","lon":"121.75366","lat":"31.15735","category":"38","category_name":"公交车站","address":""},{"poiid":"B2094757DA65A5FB4098","title":"景悦99客栈（上海浦东机场施湾店）","lon":"121.760053","lat":"31.15575195","category":"216","category_name":"经济型连锁酒店","address":"上海市浦东新区航城路60号（近施湾路）"},{"poiid":"B2094757D068A6FD4798","title":"川南奉公路","lon":"121.75279932","lat":"31.16186059","category":"260","category_name":"其他","address":"上海川南奉公路"},{"poiid":"B2094757D065A2FA4692","title":"上海浦东国际机场海关第二监管仓库","lon":"121.767762792","lat":"31.1565497262","category":"46","category_name":"楼宇","address":"上海机场大道180号"},{"poiid":"B2094757D568AAFB459B","title":"天和湖滨","lon":"121.752055","lat":"31.178147","category":"47","category_name":"住宅区","address":"浦东新区东亭路425号(近晚霞路口)"},{"poiid":"B2094655D36CA5FE4392","title":"川南奉公路航城路","lon":"121.75534","lat":"31.15566","category":"38","category_name":"公交车站","address":""},{"poiid":"B2094654DB6DA6FB449C","title":"上海大洪印务有限公司","lon":"121.75358","lat":"31.15971","category":"263","category_name":"公司","address":"道新南路8号"},{"poiid":"B2094654DB6DA6FB4599","title":"上海浦东红星建材批发市场","lon":"121.75083","lat":"31.16152","category":"123","category_name":"家具建材市场","address":"川南奉公路1933号"},{"poiid":"B2094757D065AAF54593","title":"航城园","lon":"121.74971","lat":"31.146696","category":"500","category_name":"未知分类","address":"上海市浦东新区施新路555弄"},{"poiid":"B2094655D36CA1FD409F","title":"施湾","lon":"121.75676","lat":"31.15364","category":"38","category_name":"公交车站","address":""},{"poiid":"B2094752D36CA0FC4492","title":"浦东机场二号航站楼","lon":"121.758773","lat":"31.158629","category":"500","category_name":"未知分类","address":null},{"poiid":"B2094757D168A4F54799","title":"中國檢驗檢疫","lon":"121.761442992","lat":"31.1540357715","category":"500","category_name":"未知分类","address":"上海航航路666號"},{"poiid":"B2094757D66EA2FC459C","title":"park97","lon":"121.754963992","lat":"31.1627199604","category":"500","category_name":"未知分类","address":"上海复兴公园"},{"poiid":"B2094753D569A2FB479F","title":"上海浦东国际机场","lon":"121.756866","lat":"31.157255","category":"500","category_name":"未知分类","address":"上海市 上海浦东国际机场1号航站楼"},{"poiid":"B2094655D36CA0FB469D","title":"机场镇","lon":"121.75746","lat":"31.15179","category":"38","category_name":"公交车站","address":"上海,上海市,机场镇航城五路施湾二路"},{"poiid":"B2094757D66EA7FC4499","title":"美聚会民间瓦罐煨汤","lon":"121.757360992","lat":"31.1546217842","category":"500","category_name":"未知分类","address":"上海浦东施湾航城路"},{"poiid":"B2094757D16EAAFA429A","title":"川南奉公路航程路","lon":"121.755033992","lat":"31.1553267996","category":"500","category_name":"未知分类","address":"上海川南奉公路航程路"},{"poiid":"B2094654DB6DA5FF409D","title":"豪客来酒家","lon":"121.75775","lat":"31.15213","category":"76","category_name":"上海菜","address":"浦东新区川南奉公路3271号(施湾车站对面)"},{"poiid":"B2094654DB64A6FD489B","title":"上海市施湾中学(川南奉公路)","lon":"121.75779","lat":"31.15343","category":"55","category_name":"中学","address":"浦东新区川南奉公路3211弄8号(川南奉公路中圩路)"},{"poiid":"B2094750D66AA1FD4593","title":"恒纬家苑","lon":"121.755905","lat":"31.151874","category":"47","category_name":"住宅区","address":"航城三路692弄"},{"poiid":"B2094655D36CA5FE439C","title":"川南奉公路军民路","lon":"121.74954","lat":"31.16877","category":"38","category_name":"公交车站","address":""},{"poiid":"B2094655D26FA5FC4492","title":"航城港海鲜大酒店","lon":"121.76196","lat":"31.15545","category":"88","category_name":"海鲜酒楼","address":"浦东新区航程路288号"},{"poiid":"B2094654DB6DA5FC499A","title":"浦东新区施湾中心小学","lon":"121.75695","lat":"31.15253","category":"56","category_name":"小学","address":"浦东新区机场镇川南奉公路3250号(川南奉公路施宏路)"},{"poiid":"B2094654DA6AA5F5419A","title":"六团综合商店","lon":"121.74554","lat":"31.16531","category":"117","category_name":"便民商店/便利店","address":"六团镇杜尹村"},{"poiid":"B2094757DB6DA5FC4398","title":"上海蓝舍酒店(浦东机场店）","lon":"121.7497","lat":"31.169174","category":"216","category_name":"经济型连锁酒店","address":"上海市浦东新区川沙新镇红旗村周家宅161号(川南奉公路军民路口)"},{"poiid":"B2094654DB64A1F4409A","title":"施宏小区(施宏路)","lon":"121.76086","lat":"31.1526","category":"47","category_name":"住宅区","address":"施宏路501、539弄"},{"poiid":"B2094655D36CA5FE4293","title":"川南奉公路施新路","lon":"121.75815","lat":"31.14926","category":"38","category_name":"公交车站","address":""},{"poiid":"B2094750D26DA1FA409C","title":"浦东机场停机坪","lon":"121.7659946","lat":"31.1554582","category":"500","category_name":"未知分类","address":null},{"poiid":"B2094757D16AA0FC4598","title":"沃尔玛","lon":"121.75665026","lat":"31.144802068","category":"500","category_name":"未知分类","address":"上海市浦东新区施新路"},{"poiid":"B2094757D16CA4FC439C","title":"东都豪苑","lon":"121.75303","lat":"31.177605","category":"47","category_name":"住宅区","address":"上海市浦东新区东亭路471弄"},{"poiid":"B2094757D66AA6F44899","title":"旭日酒店","lon":"121.74766","lat":"31.1739","category":"76","category_name":"上海菜","address":"浦东新区川沙镇川南奉公路1312号"},{"poiid":"B2094757DA65A5F54598","title":"上海星之悦浦东机场晨阳酒店","lon":"121.74934566","lat":"31.176240218","category":"215","category_name":"三星级宾馆","address":"上海浦东新区机场镇晨阳路75号"},{"poiid":"B2094654DA6AABFA479A","title":"百欣苑(2号门)","lon":"121.75126","lat":"31.16969","category":"47","category_name":"住宅区","address":""},{"poiid":"B2094757D064A3FF469D","title":"961","lon":"121.751092","lat":"31.16977","category":"38","category_name":"公交车站","address":"上海961公交车"}]