[{"poiid":"B2094757D06EAAFA469A","title":"镇坪路地铁站","lon":"121.43005","lat":"31.246428","category":"36","category_name":"地铁站","address":"上海轨道交通 三号线 四号线 七号线 轨交镇坪路站 轻轨 3 4 7"},{"poiid":"B2094757D06FA3FA4999","title":"敦煌楼","lon":"121.42885","lat":"31.24624","category":"84","category_name":"西北菜","address":"上海普陀区中山北路2212号"},{"poiid":"B2094654DA6CA6F44798","title":"上海市经济管理学校","lon":"121.43595","lat":"31.24326","category":"52","category_name":"高等院校","address":"普陀区澳门路726号(澳门路西康路)"},{"poiid":"B209475CD564A7F8439E","title":"上海滩中信泰富店","lon":"121.45602","lat":"31.22851","category":"119","category_name":"商场","address":"\"南京西路1168号中信泰富广场，店铺号221.\r\n\""},{"poiid":"B2094750D26DA1F84793","title":"巴黎春天陕西路店","lon":"121.433885","lat":"31.240546","category":"249","category_name":"购物服务","address":"普陀区长寿路155号(近陕西北路)"},{"poiid":"B2094655D36CA4FD459A","title":"澳门路","lon":"121.4364","lat":"31.24344","category":"38","category_name":"公交车站","address":""},{"poiid":"B2094757D068A6FC489F","title":"地铁三、四号线镇坪路站","lon":"121.433522486","lat":"31.2447511152","category":"500","category_name":"未知分类","address":"上海轨道交通三、四号线镇坪路站"},{"poiid":"B2094757DB6CA4FF439D","title":"柒寿司（安远路店）","lon":"121.433802","lat":"31.239488","category":"95","category_name":"日本料理","address":"静安区安远路561-2号(近常德路)"},{"poiid":"B2094757D06FAAFC4798","title":"长寿路胶州路","lon":"121.433341","lat":"31.239481","category":"260","category_name":"其他","address":"上海长寿路胶州路路口"},{"poiid":"B2094757D069A0F84592","title":"上海第二工业大学普陀分校","lon":"121.43386241","lat":"31.243561991","category":"52","category_name":"高等院校","address":"普陀区宜昌路575号(近常德路)"},{"poiid":"B2094655D26AA0F94092","title":"地铁镇坪路站","lon":"121.43005","lat":"31.24644","category":"36","category_name":"地铁站","address":""},{"poiid":"B2094757D06AA4FB419D","title":"西康路","lon":"121.434728","lat":"31.24471","category":"250","category_name":"公园户外","address":"上海西康路"},{"poiid":"B2094757D06FA5FA4293","title":"大上海城市花园","lon":"121.43078258","lat":"31.244194704","category":"47","category_name":"住宅区","address":"上海市普陀区宜昌路588弄(常德路口)"},{"poiid":"B2094750D66DA1FF4393","title":"中山公园龙之梦","lon":"121.433601","lat":"31.239887","category":"249","category_name":"购物服务","address":"G-STAR店"},{"poiid":"B2094757D068A4F5419D","title":"长寿新村","lon":"121.435475","lat":"31.24206","category":"47","category_name":"住宅区","address":"上海普陀区常德路常德路1298弄"},{"poiid":"B2094654DA6CA6FB499B","title":"德怡苑","lon":"121.43269","lat":"31.242489","category":"47","category_name":"住宅区","address":"上海常德路1393弄"},{"poiid":"B2094757D06BA6F84098","title":"上青佳园","lon":"121.43655","lat":"31.241903","category":"47","category_name":"住宅区","address":"上海市普陀区常德路1258弄"},{"poiid":"B2094655D36CA4FD459B","title":"澳门路常德路","lon":"121.43599","lat":"31.24244","category":"38","category_name":"公交车站","address":""},{"poiid":"B2094757D068A3FD4593","title":"绿洲城市花园","lon":"121.43385","lat":"31.24065","category":"47","category_name":"住宅区","address":"上海市普陀区延长西路781弄"},{"poiid":"B2094757D069A6FA419B","title":"半岛花园游泳馆","lon":"121.4347","lat":"31.24511","category":"220","category_name":"运动场所","address":"上海普陀区西康路1518弄半岛花园14号(近宜昌路)"},{"poiid":"B2094751D364AAFD469C","title":"极致汉堡","lon":"121.4339437504553","lat":"31.23931926777246","category":"247","category_name":"餐饮美食","address":"静安区安远路555号(近胶州路)"},{"poiid":"B2094757D068A4FF489B","title":"麦田婚纱摄影","lon":"121.43061","lat":"31.24565","category":"249","category_name":"购物服务","address":"光复西路197号芙蓉花苑小区40-50号"},{"poiid":"B2094655D36CA6FA4599","title":"东新路","lon":"121.42875","lat":"31.24245","category":"38","category_name":"公交车站","address":""},{"poiid":"B2094750D66AA4FF429E","title":"虹口足球场","lon":"121.429321","lat":"31.245471","category":"220","category_name":"运动场所","address":null},{"poiid":"B2094654DA6CA6F9479F","title":"大众河滨大厦","lon":"121.436","lat":"31.2409","category":"47","category_name":"住宅区","address":"上海市普陀区宁夏路335号"},{"poiid":"B2094757D16FA4FA429E","title":"一茶一座(静安店)","lon":"121.432664586","lat":"31.2463167458","category":"47","category_name":"住宅区","address":"上海愚园路"},{"poiid":"B2094757D469A0FF429B","title":"心琪粥店 西康路店","lon":"121.4360933","lat":"31.2441246","category":"68","category_name":"快餐厅","address":"普陀区西康路1400号附近(近澳门路)"},{"poiid":"B2094757D069ABFE4993","title":"长寿路派出所","lon":"121.434285","lat":"31.244636","category":"609","category_name":"警察局","address":"上海常德路1399号"},{"poiid":"B2094757D16BA3FF429C","title":"康怡苑","lon":"121.43366","lat":"31.243172","category":"47","category_name":"住宅区","address":"常德路1344弄1-3号"},{"poiid":"B2094750D664A7F9489B","title":"大佛串串香","lon":"121.436","lat":"31.2436","category":"68","category_name":"快餐厅","address":"普陀区澳门路701号(近西康路华厦银行)"},{"poiid":"B2094757D06AA1FF459D","title":"新疆风味营养馕烤肉","lon":"121.42974","lat":"31.2462","category":"90","category_name":"清真餐馆","address":"普陀区镇坪路轻轨站3号口对面"},{"poiid":"B2094757D569A6FE419E","title":"村夫烤鱼吉祥店","lon":"121.436111","lat":"31.242195","category":"71","category_name":"四川菜","address":"普陀区澳门路739号(近常德路)"},{"poiid":"B2094757D065A7FD479F","title":"E仓创意产业园","lon":"121.430287586","lat":"31.2425916729","category":"500","category_name":"未知分类","address":"上海普陀区宜昌路751号"},{"poiid":"B2094757D568A5FA479E","title":"金昌商务中心","lon":"121.4347917","lat":"31.24172092","category":"46","category_name":"楼宇","address":"常德路1339号"},{"poiid":"B2094752D06DA7FD4692","title":"外婆家","lon":"121.435825","lat":"31.244639","category":"247","category_name":"餐饮美食","address":"长寿路巴黎春天"},{"poiid":"B2094757D06AA7FD469D","title":"京世美容美发连锁机构(澳门店)","lon":"121.43608","lat":"31.24184","category":"148","category_name":"美容美发店","address":"上海普陀区澳门路729号(近常德路)  "},{"poiid":"B2094752D268ABF94098","title":"Exit真人密室逃脱（亚新广场店）","lon":"121.432611","lat":"31.241022","category":"248","category_name":"生活娱乐","address":"上海市普陀区长寿路393号昆仑大厦1107室"},{"poiid":"B2094654DB65A6FB489D","title":"上海第二工业大学普陀分校(西门)","lon":"121.43373","lat":"31.24399","category":"52","category_name":"高等院校","address":"宜昌路575"},{"poiid":"B2094757DA6BA6FA429A","title":"双子杰座","lon":"121.434494","lat":"31.24304","category":"47","category_name":"住宅区","address":"嘉定区金沙江路3131号(近新郁路)"},{"poiid":"B2094757D06AA4F4479F","title":"芙蓉花苑","lon":"121.43077358","lat":"31.246468748","category":"252","category_name":"楼宇机构","address":"上海市普陀区镇坪路"},{"poiid":"B2094655D36DA0FA4398","title":"宜昌路","lon":"121.43411","lat":"31.24468","category":"38","category_name":"公交车站","address":""},{"poiid":"B2094757D16FA0FA4693","title":"上海市儿童医院特需门诊部","lon":"121.43410358","lat":"31.239340609","category":"162","category_name":"医院","address":"上海市北京西路1400弄24号"},{"poiid":"B2094752D169A0FA469E","title":"江边城外","lon":"121.43213","lat":"31.242036","category":"247","category_name":"餐饮美食","address":"虹口龙之梦"},{"poiid":"B2094655D26DA3FC479A","title":"乐怡苑","lon":"121.43205","lat":"31.24299","category":"47","category_name":"住宅区","address":""},{"poiid":"B2094757D16CABFE4993","title":"莫泰168(澳门路店)","lon":"121.436391","lat":"31.242958","category":"500","category_name":"未知分类","address":"普陀区澳门路715号(近常德路)"},{"poiid":"B2094757D16DABF8489F","title":"品味轩","lon":"121.43612","lat":"31.24413","category":"76","category_name":"上海菜","address":"普陀区西康路1430号(近澳门路)"},{"poiid":"B2094757D569A1F94892","title":"回民幼儿园(常德路)","lon":"121.43427789","lat":"31.24296956","category":"57","category_name":"幼儿园","address":"普陀区常德路1328弄4号(近长寿路)"},{"poiid":"B2094654DA6CA6F4429D","title":"中南财经政法大学成才教学点","lon":"121.43347","lat":"31.24433","category":"52","category_name":"高等院校","address":"普陀区宜昌路470号德诚大厦3A层3A-16室"},{"poiid":"B2094757DA6BA6FE4298","title":"上海A座","lon":"121.433292","lat":"31.243334","category":"252","category_name":"楼宇机构","address":"嘉定区金沙江路3131号(近新郁路)"},{"poiid":"B2094750D26DABF5419F","title":"酒吞","lon":"121.43158","lat":"31.241753","category":"247","category_name":"餐饮美食","address":"先锋路85号"},{"poiid":"B2094757D06EAAFA469A","title":"镇坪路地铁站","lon":"121.43005","lat":"31.246428","category":"36","category_name":"地铁站","address":"上海轨道交通 三号线 四号线 七号线 轨交镇坪路站 轻轨 3 4 7"},{"poiid":"B2094757D06FA3FA4999","title":"敦煌楼","lon":"121.42885","lat":"31.24624","category":"84","category_name":"西北菜","address":"上海普陀区中山北路2212号"},{"poiid":"B2094654DA6CA6F44798","title":"上海市经济管理学校","lon":"121.43595","lat":"31.24326","category":"52","category_name":"高等院校","address":"普陀区澳门路726号(澳门路西康路)"},{"poiid":"B209475CD564A7F8439E","title":"上海滩中信泰富店","lon":"121.45602","lat":"31.22851","category":"119","category_name":"商场","address":"\"南京西路1168号中信泰富广场，店铺号221.\r\n\""},{"poiid":"B2094750D26DA1F84793","title":"巴黎春天陕西路店","lon":"121.433885","lat":"31.240546","category":"249","category_name":"购物服务","address":"普陀区长寿路155号(近陕西北路)"},{"poiid":"B2094655D36CA4FD459A","title":"澳门路","lon":"121.4364","lat":"31.24344","category":"38","category_name":"公交车站","address":""},{"poiid":"B2094757D068A6FC489F","title":"地铁三、四号线镇坪路站","lon":"121.433522486","lat":"31.2447511152","category":"500","category_name":"未知分类","address":"上海轨道交通三、四号线镇坪路站"},{"poiid":"B2094757DB6CA4FF439D","title":"柒寿司（安远路店）","lon":"121.433802","lat":"31.239488","category":"95","category_name":"日本料理","address":"静安区安远路561-2号(近常德路)"},{"poiid":"B2094757D06FAAFC4798","title":"长寿路胶州路","lon":"121.433341","lat":"31.239481","category":"260","category_name":"其他","address":"上海长寿路胶州路路口"},{"poiid":"B2094757D069A0F84592","title":"上海第二工业大学普陀分校","lon":"121.43386241","lat":"31.243561991","category":"52","category_name":"高等院校","address":"普陀区宜昌路575号(近常德路)"},{"poiid":"B2094655D26AA0F94092","title":"地铁镇坪路站","lon":"121.43005","lat":"31.24644","category":"36","category_name":"地铁站","address":""},{"poiid":"B2094757D06AA4FB419D","title":"西康路","lon":"121.434728","lat":"31.24471","category":"250","category_name":"公园户外","address":"上海西康路"},{"poiid":"B2094757D06FA5FA4293","title":"大上海城市花园","lon":"121.43078258","lat":"31.244194704","category":"47","category_name":"住宅区","address":"上海市普陀区宜昌路588弄(常德路口)"},{"poiid":"B2094750D66DA1FF4393","title":"中山公园龙之梦","lon":"121.433601","lat":"31.239887","category":"249","category_name":"购物服务","address":"G-STAR店"},{"poiid":"B2094757D068A4F5419D","title":"长寿新村","lon":"121.435475","lat":"31.24206","category":"47","category_name":"住宅区","address":"上海普陀区常德路常德路1298弄"},{"poiid":"B2094654DA6CA6FB499B","title":"德怡苑","lon":"121.43269","lat":"31.242489","category":"47","category_name":"住宅区","address":"上海常德路1393弄"},{"poiid":"B2094757D06BA6F84098","title":"上青佳园","lon":"121.43655","lat":"31.241903","category":"47","category_name":"住宅区","address":"上海市普陀区常德路1258弄"},{"poiid":"B2094655D36CA4FD459B","title":"澳门路常德路","lon":"121.43599","lat":"31.24244","category":"38","category_name":"公交车站","address":""},{"poiid":"B2094757D068A3FD4593","title":"绿洲城市花园","lon":"121.43385","lat":"31.24065","category":"47","category_name":"住宅区","address":"上海市普陀区延长西路781弄"},{"poiid":"B2094757D069A6FA419B","title":"半岛花园游泳馆","lon":"121.4347","lat":"31.24511","category":"220","category_name":"运动场所","address":"上海普陀区西康路1518弄半岛花园14号(近宜昌路)"},{"poiid":"B2094751D364AAFD469C","title":"极致汉堡","lon":"121.4339437504553","lat":"31.23931926777246","category":"247","category_name":"餐饮美食","address":"静安区安远路555号(近胶州路)"},{"poiid":"B2094757D068A4FF489B","title":"麦田婚纱摄影","lon":"121.43061","lat":"31.24565","category":"249","category_name":"购物服务","address":"光复西路197号芙蓉花苑小区40-50号"},{"poiid":"B2094655D36CA6FA4599","title":"东新路","lon":"121.42875","lat":"31.24245","category":"38","category_name":"公交车站","address":""},{"poiid":"B2094750D66AA4FF429E","title":"虹口足球场","lon":"121.429321","lat":"31.245471","category":"220","category_name":"运动场所","address":null},{"poiid":"B2094654DA6CA6F9479F","title":"大众河滨大厦","lon":"121.436","lat":"31.2409","category":"47","category_name":"住宅区","address":"上海市普陀区宁夏路335号"},{"poiid":"B2094757D16FA4FA429E","title":"一茶一座(静安店)","lon":"121.432664586","lat":"31.2463167458","category":"47","category_name":"住宅区","address":"上海愚园路"},{"poiid":"B2094757D469A0FF429B","title":"心琪粥店 西康路店","lon":"121.4360933","lat":"31.2441246","category":"68","category_name":"快餐厅","address":"普陀区西康路1400号附近(近澳门路)"},{"poiid":"B2094757D069ABFE4993","title":"长寿路派出所","lon":"121.434285","lat":"31.244636","category":"609","category_name":"警察局","address":"上海常德路1399号"},{"poiid":"B2094757D16BA3FF429C","title":"康怡苑","lon":"121.43366","lat":"31.243172","category":"47","category_name":"住宅区","address":"常德路1344弄1-3号"},{"poiid":"B2094750D664A7F9489B","title":"大佛串串香","lon":"121.436","lat":"31.2436","category":"68","category_name":"快餐厅","address":"普陀区澳门路701号(近西康路华厦银行)"},{"poiid":"B2094757D06AA1FF459D","title":"新疆风味营养馕烤肉","lon":"121.42974","lat":"31.2462","category":"90","category_name":"清真餐馆","address":"普陀区镇坪路轻轨站3号口对面"},{"poiid":"B2094757D569A6FE419E","title":"村夫烤鱼吉祥店","lon":"121.436111","lat":"31.242195","category":"71","category_name":"四川菜","address":"普陀区澳门路739号(近常德路)"},{"poiid":"B2094757D065A7FD479F","title":"E仓创意产业园","lon":"121.430287586","lat":"31.2425916729","category":"500","category_name":"未知分类","address":"上海普陀区宜昌路751号"},{"poiid":"B2094757D568A5FA479E","title":"金昌商务中心","lon":"121.4347917","lat":"31.24172092","category":"46","category_name":"楼宇","address":"常德路1339号"},{"poiid":"B2094752D06DA7FD4692","title":"外婆家","lon":"121.435825","lat":"31.244639","category":"247","category_name":"餐饮美食","address":"长寿路巴黎春天"},{"poiid":"B2094757D06AA7FD469D","title":"京世美容美发连锁机构(澳门店)","lon":"121.43608","lat":"31.24184","category":"148","category_name":"美容美发店","address":"上海普陀区澳门路729号(近常德路)  "},{"poiid":"B2094752D268ABF94098","title":"Exit真人密室逃脱（亚新广场店）","lon":"121.432611","lat":"31.241022","category":"248","category_name":"生活娱乐","address":"上海市普陀区长寿路393号昆仑大厦1107室"},{"poiid":"B2094654DB65A6FB489D","title":"上海第二工业大学普陀分校(西门)","lon":"121.43373","lat":"31.24399","category":"52","category_name":"高等院校","address":"宜昌路575"},{"poiid":"B2094757DA6BA6FA429A","title":"双子杰座","lon":"121.434494","lat":"31.24304","category":"47","category_name":"住宅区","address":"嘉定区金沙江路3131号(近新郁路)"},{"poiid":"B2094757D06AA4F4479F","title":"芙蓉花苑","lon":"121.43077358","lat":"31.246468748","category":"252","category_name":"楼宇机构","address":"上海市普陀区镇坪路"},{"poiid":"B2094655D36DA0FA4398","title":"宜昌路","lon":"121.43411","lat":"31.24468","category":"38","category_name":"公交车站","address":""},{"poiid":"B2094757D16FA0FA4693","title":"上海市儿童医院特需门诊部","lon":"121.43410358","lat":"31.239340609","category":"162","category_name":"医院","address":"上海市北京西路1400弄24号"},{"poiid":"B2094752D169A0FA469E","title":"江边城外","lon":"121.43213","lat":"31.242036","category":"247","category_name":"餐饮美食","address":"虹口龙之梦"},{"poiid":"B2094655D26DA3FC479A","title":"乐怡苑","lon":"121.43205","lat":"31.24299","category":"47","category_name":"住宅区","address":""},{"poiid":"B2094757D16CABFE4993","title":"莫泰168(澳门路店)","lon":"121.436391","lat":"31.242958","category":"500","category_name":"未知分类","address":"普陀区澳门路715号(近常德路)"},{"poiid":"B2094757D16DABF8489F","title":"品味轩","lon":"121.43612","lat":"31.24413","category":"76","category_name":"上海菜","address":"普陀区西康路1430号(近澳门路)"},{"poiid":"B2094757D569A1F94892","title":"回民幼儿园(常德路)","lon":"121.43427789","lat":"31.24296956","category":"57","category_name":"幼儿园","address":"普陀区常德路1328弄4号(近长寿路)"},{"poiid":"B2094654DA6CA6F4429D","title":"中南财经政法大学成才教学点","lon":"121.43347","lat":"31.24433","category":"52","category_name":"高等院校","address":"普陀区宜昌路470号德诚大厦3A层3A-16室"},{"poiid":"B2094757DA6BA6FE4298","title":"上海A座","lon":"121.433292","lat":"31.243334","category":"252","category_name":"楼宇机构","address":"嘉定区金沙江路3131号(近新郁路)"},{"poiid":"B2094750D26DABF5419F","title":"酒吞","lon":"121.43158","lat":"31.241753","category":"247","category_name":"餐饮美食","address":"先锋路85号"},{"poiid":"B2094757D06EAAFA469A","title":"镇坪路地铁站","lon":"121.43005","lat":"31.246428","category":"36","category_name":"地铁站","address":"上海轨道交通 三号线 四号线 七号线 轨交镇坪路站 轻轨 3 4 7"},{"poiid":"B2094757D06FA3FA4999","title":"敦煌楼","lon":"121.42885","lat":"31.24624","category":"84","category_name":"西北菜","address":"上海普陀区中山北路2212号"},{"poiid":"B2094654DA6CA6F44798","title":"上海市经济管理学校","lon":"121.43595","lat":"31.24326","category":"52","category_name":"高等院校","address":"普陀区澳门路726号(澳门路西康路)"},{"poiid":"B209475CD564A7F8439E","title":"上海滩中信泰富店","lon":"121.45602","lat":"31.22851","category":"119","category_name":"商场","address":"\"南京西路1168号中信泰富广场，店铺号221.\r\n\""},{"poiid":"B2094750D26DA1F84793","title":"巴黎春天陕西路店","lon":"121.433885","lat":"31.240546","category":"249","category_name":"购物服务","address":"普陀区长寿路155号(近陕西北路)"},{"poiid":"B2094655D36CA4FD459A","title":"澳门路","lon":"121.4364","lat":"31.24344","category":"38","category_name":"公交车站","address":""},{"poiid":"B2094757D068A6FC489F","title":"地铁三、四号线镇坪路站","lon":"121.433522486","lat":"31.2447511152","category":"500","category_name":"未知分类","address":"上海轨道交通三、四号线镇坪路站"},{"poiid":"B2094757DB6CA4FF439D","title":"柒寿司（安远路店）","lon":"121.433802","lat":"31.239488","category":"95","category_name":"日本料理","address":"静安区安远路561-2号(近常德路)"},{"poiid":"B2094757D06FAAFC4798","title":"长寿路胶州路","lon":"121.433341","lat":"31.239481","category":"260","category_name":"其他","address":"上海长寿路胶州路路口"},{"poiid":"B2094757D069A0F84592","title":"上海第二工业大学普陀分校","lon":"121.43386241","lat":"31.243561991","category":"52","category_name":"高等院校","address":"普陀区宜昌路575号(近常德路)"},{"poiid":"B2094655D26AA0F94092","title":"地铁镇坪路站","lon":"121.43005","lat":"31.24644","category":"36","category_name":"地铁站","address":""},{"poiid":"B2094757D06AA4FB419D","title":"西康路","lon":"121.434728","lat":"31.24471","category":"250","category_name":"公园户外","address":"上海西康路"},{"poiid":"B2094757D06FA5FA4293","title":"大上海城市花园","lon":"121.43078258","lat":"31.244194704","category":"47","category_name":"住宅区","address":"上海市普陀区宜昌路588弄(常德路口)"},{"poiid":"B2094750D66DA1FF4393","title":"中山公园龙之梦","lon":"121.433601","lat":"31.239887","category":"249","category_name":"购物服务","address":"G-STAR店"},{"poiid":"B2094757D068A4F5419D","title":"长寿新村","lon":"121.435475","lat":"31.24206","category":"47","category_name":"住宅区","address":"上海普陀区常德路常德路1298弄"},{"poiid":"B2094654DA6CA6FB499B","title":"德怡苑","lon":"121.43269","lat":"31.242489","category":"47","category_name":"住宅区","address":"上海常德路1393弄"},{"poiid":"B2094757D06BA6F84098","title":"上青佳园","lon":"121.43655","lat":"31.241903","category":"47","category_name":"住宅区","address":"上海市普陀区常德路1258弄"},{"poiid":"B2094655D36CA4FD459B","title":"澳门路常德路","lon":"121.43599","lat":"31.24244","category":"38","category_name":"公交车站","address":""},{"poiid":"B2094757D068A3FD4593","title":"绿洲城市花园","lon":"121.43385","lat":"31.24065","category":"47","category_name":"住宅区","address":"上海市普陀区延长西路781弄"},{"poiid":"B2094757D069A6FA419B","title":"半岛花园游泳馆","lon":"121.4347","lat":"31.24511","category":"220","category_name":"运动场所","address":"上海普陀区西康路1518弄半岛花园14号(近宜昌路)"},{"poiid":"B2094751D364AAFD469C","title":"极致汉堡","lon":"121.4339437504553","lat":"31.23931926777246","category":"247","category_name":"餐饮美食","address":"静安区安远路555号(近胶州路)"},{"poiid":"B2094757D068A4FF489B","title":"麦田婚纱摄影","lon":"121.43061","lat":"31.24565","category":"249","category_name":"购物服务","address":"光复西路197号芙蓉花苑小区40-50号"},{"poiid":"B2094655D36CA6FA4599","title":"东新路","lon":"121.42875","lat":"31.24245","category":"38","category_name":"公交车站","address":""},{"poiid":"B2094750D66AA4FF429E","title":"虹口足球场","lon":"121.429321","lat":"31.245471","category":"220","category_name":"运动场所","address":null},{"poiid":"B2094654DA6CA6F9479F","title":"大众河滨大厦","lon":"121.436","lat":"31.2409","category":"47","category_name":"住宅区","address":"上海市普陀区宁夏路335号"},{"poiid":"B2094757D16FA4FA429E","title":"一茶一座(静安店)","lon":"121.432664586","lat":"31.2463167458","category":"47","category_name":"住宅区","address":"上海愚园路"},{"poiid":"B2094757D469A0FF429B","title":"心琪粥店 西康路店","lon":"121.4360933","lat":"31.2441246","category":"68","category_name":"快餐厅","address":"普陀区西康路1400号附近(近澳门路)"},{"poiid":"B2094757D069ABFE4993","title":"长寿路派出所","lon":"121.434285","lat":"31.244636","category":"609","category_name":"警察局","address":"上海常德路1399号"},{"poiid":"B2094757D16BA3FF429C","title":"康怡苑","lon":"121.43366","lat":"31.243172","category":"47","category_name":"住宅区","address":"常德路1344弄1-3号"},{"poiid":"B2094750D664A7F9489B","title":"大佛串串香","lon":"121.436","lat":"31.2436","category":"68","category_name":"快餐厅","address":"普陀区澳门路701号(近西康路华厦银行)"},{"poiid":"B2094757D06AA1FF459D","title":"新疆风味营养馕烤肉","lon":"121.42974","lat":"31.2462","category":"90","category_name":"清真餐馆","address":"普陀区镇坪路轻轨站3号口对面"},{"poiid":"B2094757D569A6FE419E","title":"村夫烤鱼吉祥店","lon":"121.436111","lat":"31.242195","category":"71","category_name":"四川菜","address":"普陀区澳门路739号(近常德路)"},{"poiid":"B2094757D065A7FD479F","title":"E仓创意产业园","lon":"121.430287586","lat":"31.2425916729","category":"500","category_name":"未知分类","address":"上海普陀区宜昌路751号"},{"poiid":"B2094757D568A5FA479E","title":"金昌商务中心","lon":"121.4347917","lat":"31.24172092","category":"46","category_name":"楼宇","address":"常德路1339号"},{"poiid":"B2094752D06DA7FD4692","title":"外婆家","lon":"121.435825","lat":"31.244639","category":"247","category_name":"餐饮美食","address":"长寿路巴黎春天"},{"poiid":"B2094757D06AA7FD469D","title":"京世美容美发连锁机构(澳门店)","lon":"121.43608","lat":"31.24184","category":"148","category_name":"美容美发店","address":"上海普陀区澳门路729号(近常德路)  "},{"poiid":"B2094752D268ABF94098","title":"Exit真人密室逃脱（亚新广场店）","lon":"121.432611","lat":"31.241022","category":"248","category_name":"生活娱乐","address":"上海市普陀区长寿路393号昆仑大厦1107室"},{"poiid":"B2094654DB65A6FB489D","title":"上海第二工业大学普陀分校(西门)","lon":"121.43373","lat":"31.24399","category":"52","category_name":"高等院校","address":"宜昌路575"},{"poiid":"B2094757DA6BA6FA429A","title":"双子杰座","lon":"121.434494","lat":"31.24304","category":"47","category_name":"住宅区","address":"嘉定区金沙江路3131号(近新郁路)"},{"poiid":"B2094757D06AA4F4479F","title":"芙蓉花苑","lon":"121.43077358","lat":"31.246468748","category":"252","category_name":"楼宇机构","address":"上海市普陀区镇坪路"},{"poiid":"B2094655D36DA0FA4398","title":"宜昌路","lon":"121.43411","lat":"31.24468","category":"38","category_name":"公交车站","address":""},{"poiid":"B2094757D16FA0FA4693","title":"上海市儿童医院特需门诊部","lon":"121.43410358","lat":"31.239340609","category":"162","category_name":"医院","address":"上海市北京西路1400弄24号"},{"poiid":"B2094752D169A0FA469E","title":"江边城外","lon":"121.43213","lat":"31.242036","category":"247","category_name":"餐饮美食","address":"虹口龙之梦"},{"poiid":"B2094655D26DA3FC479A","title":"乐怡苑","lon":"121.43205","lat":"31.24299","category":"47","category_name":"住宅区","address":""},{"poiid":"B2094757D16CABFE4993","title":"莫泰168(澳门路店)","lon":"121.436391","lat":"31.242958","category":"500","category_name":"未知分类","address":"普陀区澳门路715号(近常德路)"},{"poiid":"B2094757D16DABF8489F","title":"品味轩","lon":"121.43612","lat":"31.24413","category":"76","category_name":"上海菜","address":"普陀区西康路1430号(近澳门路)"},{"poiid":"B2094757D569A1F94892","title":"回民幼儿园(常德路)","lon":"121.43427789","lat":"31.24296956","category":"57","category_name":"幼儿园","address":"普陀区常德路1328弄4号(近长寿路)"},{"poiid":"B2094654DA6CA6F4429D","title":"中南财经政法大学成才教学点","lon":"121.43347","lat":"31.24433","category":"52","category_name":"高等院校","address":"普陀区宜昌路470号德诚大厦3A层3A-16室"},{"poiid":"B2094757DA6BA6FE4298","title":"上海A座","lon":"121.433292","lat":"31.243334","category":"252","category_name":"楼宇机构","address":"嘉定区金沙江路3131号(近新郁路)"},{"poiid":"B2094750D26DABF5419F","title":"酒吞","lon":"121.43158","lat":"31.241753","category":"247","category_name":"餐饮美食","address":"先锋路85号"},{"poiid":"B2094757D06EAAFA469A","title":"镇坪路地铁站","lon":"121.43005","lat":"31.246428","category":"36","category_name":"地铁站","address":"上海轨道交通 三号线 四号线 七号线 轨交镇坪路站 轻轨 3 4 7"},{"poiid":"B2094757D06FA3FA4999","title":"敦煌楼","lon":"121.42885","lat":"31.24624","category":"84","category_name":"西北菜","address":"上海普陀区中山北路2212号"},{"poiid":"B2094654DA6CA6F44798","title":"上海市经济管理学校","lon":"121.43595","lat":"31.24326","category":"52","category_name":"高等院校","address":"普陀区澳门路726号(澳门路西康路)"},{"poiid":"B209475CD564A7F8439E","title":"上海滩中信泰富店","lon":"121.45602","lat":"31.22851","category":"119","category_name":"商场","address":"\"南京西路1168号中信泰富广场，店铺号221.\r\n\""},{"poiid":"B2094750D26DA1F84793","title":"巴黎春天陕西路店","lon":"121.433885","lat":"31.240546","category":"249","category_name":"购物服务","address":"普陀区长寿路155号(近陕西北路)"},{"poiid":"B2094655D36CA4FD459A","title":"澳门路","lon":"121.4364","lat":"31.24344","category":"38","category_name":"公交车站","address":""},{"poiid":"B2094757D068A6FC489F","title":"地铁三、四号线镇坪路站","lon":"121.433522486","lat":"31.2447511152","category":"500","category_name":"未知分类","address":"上海轨道交通三、四号线镇坪路站"},{"poiid":"B2094757DB6CA4FF439D","title":"柒寿司（安远路店）","lon":"121.433802","lat":"31.239488","category":"95","category_name":"日本料理","address":"静安区安远路561-2号(近常德路)"},{"poiid":"B2094757D06FAAFC4798","title":"长寿路胶州路","lon":"121.433341","lat":"31.239481","category":"260","category_name":"其他","address":"上海长寿路胶州路路口"},{"poiid":"B2094757D069A0F84592","title":"上海第二工业大学普陀分校","lon":"121.43386241","lat":"31.243561991","category":"52","category_name":"高等院校","address":"普陀区宜昌路575号(近常德路)"},{"poiid":"B2094655D26AA0F94092","title":"地铁镇坪路站","lon":"121.43005","lat":"31.24644","category":"36","category_name":"地铁站","address":""},{"poiid":"B2094757D06AA4FB419D","title":"西康路","lon":"121.434728","lat":"31.24471","category":"250","category_name":"公园户外","address":"上海西康路"},{"poiid":"B2094757D06FA5FA4293","title":"大上海城市花园","lon":"121.43078258","lat":"31.244194704","category":"47","category_name":"住宅区","address":"上海市普陀区宜昌路588弄(常德路口)"},{"poiid":"B2094750D66DA1FF4393","title":"中山公园龙之梦","lon":"121.433601","lat":"31.239887","category":"249","category_name":"购物服务","address":"G-STAR店"},{"poiid":"B2094757D068A4F5419D","title":"长寿新村","lon":"121.435475","lat":"31.24206","category":"47","category_name":"住宅区","address":"上海普陀区常德路常德路1298弄"},{"poiid":"B2094654DA6CA6FB499B","title":"德怡苑","lon":"121.43269","lat":"31.242489","category":"47","category_name":"住宅区","address":"上海常德路1393弄"},{"poiid":"B2094757D06BA6F84098","title":"上青佳园","lon":"121.43655","lat":"31.241903","category":"47","category_name":"住宅区","address":"上海市普陀区常德路1258弄"},{"poiid":"B2094655D36CA4FD459B","title":"澳门路常德路","lon":"121.43599","lat":"31.24244","category":"38","category_name":"公交车站","address":""},{"poiid":"B2094757D068A3FD4593","title":"绿洲城市花园","lon":"121.43385","lat":"31.24065","category":"47","category_name":"住宅区","address":"上海市普陀区延长西路781弄"},{"poiid":"B2094757D069A6FA419B","title":"半岛花园游泳馆","lon":"121.4347","lat":"31.24511","category":"220","category_name":"运动场所","address":"上海普陀区西康路1518弄半岛花园14号(近宜昌路)"},{"poiid":"B2094751D364AAFD469C","title":"极致汉堡","lon":"121.4339437504553","lat":"31.23931926777246","category":"247","category_name":"餐饮美食","address":"静安区安远路555号(近胶州路)"},{"poiid":"B2094757D068A4FF489B","title":"麦田婚纱摄影","lon":"121.43061","lat":"31.24565","category":"249","category_name":"购物服务","address":"光复西路197号芙蓉花苑小区40-50号"},{"poiid":"B2094655D36CA6FA4599","title":"东新路","lon":"121.42875","lat":"31.24245","category":"38","category_name":"公交车站","address":""},{"poiid":"B2094750D66AA4FF429E","title":"虹口足球场","lon":"121.429321","lat":"31.245471","category":"220","category_name":"运动场所","address":null},{"poiid":"B2094654DA6CA6F9479F","title":"大众河滨大厦","lon":"121.436","lat":"31.2409","category":"47","category_name":"住宅区","address":"上海市普陀区宁夏路335号"},{"poiid":"B2094757D16FA4FA429E","title":"一茶一座(静安店)","lon":"121.432664586","lat":"31.2463167458","category":"47","category_name":"住宅区","address":"上海愚园路"},{"poiid":"B2094757D469A0FF429B","title":"心琪粥店 西康路店","lon":"121.4360933","lat":"31.2441246","category":"68","category_name":"快餐厅","address":"普陀区西康路1400号附近(近澳门路)"},{"poiid":"B2094757D069ABFE4993","title":"长寿路派出所","lon":"121.434285","lat":"31.244636","category":"609","category_name":"警察局","address":"上海常德路1399号"},{"poiid":"B2094757D16BA3FF429C","title":"康怡苑","lon":"121.43366","lat":"31.243172","category":"47","category_name":"住宅区","address":"常德路1344弄1-3号"},{"poiid":"B2094750D664A7F9489B","title":"大佛串串香","lon":"121.436","lat":"31.2436","category":"68","category_name":"快餐厅","address":"普陀区澳门路701号(近西康路华厦银行)"},{"poiid":"B2094757D06AA1FF459D","title":"新疆风味营养馕烤肉","lon":"121.42974","lat":"31.2462","category":"90","category_name":"清真餐馆","address":"普陀区镇坪路轻轨站3号口对面"},{"poiid":"B2094757D569A6FE419E","title":"村夫烤鱼吉祥店","lon":"121.436111","lat":"31.242195","category":"71","category_name":"四川菜","address":"普陀区澳门路739号(近常德路)"},{"poiid":"B2094757D065A7FD479F","title":"E仓创意产业园","lon":"121.430287586","lat":"31.2425916729","category":"500","category_name":"未知分类","address":"上海普陀区宜昌路751号"},{"poiid":"B2094757D568A5FA479E","title":"金昌商务中心","lon":"121.4347917","lat":"31.24172092","category":"46","category_name":"楼宇","address":"常德路1339号"},{"poiid":"B2094752D06DA7FD4692","title":"外婆家","lon":"121.435825","lat":"31.244639","category":"247","category_name":"餐饮美食","address":"长寿路巴黎春天"},{"poiid":"B2094757D06AA7FD469D","title":"京世美容美发连锁机构(澳门店)","lon":"121.43608","lat":"31.24184","category":"148","category_name":"美容美发店","address":"上海普陀区澳门路729号(近常德路)  "},{"poiid":"B2094752D268ABF94098","title":"Exit真人密室逃脱（亚新广场店）","lon":"121.432611","lat":"31.241022","category":"248","category_name":"生活娱乐","address":"上海市普陀区长寿路393号昆仑大厦1107室"},{"poiid":"B2094654DB65A6FB489D","title":"上海第二工业大学普陀分校(西门)","lon":"121.43373","lat":"31.24399","category":"52","category_name":"高等院校","address":"宜昌路575"},{"poiid":"B2094757DA6BA6FA429A","title":"双子杰座","lon":"121.434494","lat":"31.24304","category":"47","category_name":"住宅区","address":"嘉定区金沙江路3131号(近新郁路)"},{"poiid":"B2094757D06AA4F4479F","title":"芙蓉花苑","lon":"121.43077358","lat":"31.246468748","category":"252","category_name":"楼宇机构","address":"上海市普陀区镇坪路"},{"poiid":"B2094655D36DA0FA4398","title":"宜昌路","lon":"121.43411","lat":"31.24468","category":"38","category_name":"公交车站","address":""},{"poiid":"B2094757D16FA0FA4693","title":"上海市儿童医院特需门诊部","lon":"121.43410358","lat":"31.239340609","category":"162","category_name":"医院","address":"上海市北京西路1400弄24号"},{"poiid":"B2094752D169A0FA469E","title":"江边城外","lon":"121.43213","lat":"31.242036","category":"247","category_name":"餐饮美食","address":"虹口龙之梦"},{"poiid":"B2094655D26DA3FC479A","title":"乐怡苑","lon":"121.43205","lat":"31.24299","category":"47","category_name":"住宅区","address":""},{"poiid":"B2094757D16CABFE4993","title":"莫泰168(澳门路店)","lon":"121.436391","lat":"31.242958","category":"500","category_name":"未知分类","address":"普陀区澳门路715号(近常德路)"},{"poiid":"B2094757D16DABF8489F","title":"品味轩","lon":"121.43612","lat":"31.24413","category":"76","category_name":"上海菜","address":"普陀区西康路1430号(近澳门路)"},{"poiid":"B2094757D569A1F94892","title":"回民幼儿园(常德路)","lon":"121.43427789","lat":"31.24296956","category":"57","category_name":"幼儿园","address":"普陀区常德路1328弄4号(近长寿路)"},{"poiid":"B2094654DA6CA6F4429D","title":"中南财经政法大学成才教学点","lon":"121.43347","lat":"31.24433","category":"52","category_name":"高等院校","address":"普陀区宜昌路470号德诚大厦3A层3A-16室"},{"poiid":"B2094757DA6BA6FE4298","title":"上海A座","lon":"121.433292","lat":"31.243334","category":"252","category_name":"楼宇机构","address":"嘉定区金沙江路3131号(近新郁路)"},{"poiid":"B2094750D26DABF5419F","title":"酒吞","lon":"121.43158","lat":"31.241753","category":"247","category_name":"餐饮美食","address":"先锋路85号"},{"poiid":"B2094757D06EAAFA469A","title":"镇坪路地铁站","lon":"121.43005","lat":"31.246428","category":"36","category_name":"地铁站","address":"上海轨道交通 三号线 四号线 七号线 轨交镇坪路站 轻轨 3 4 7"},{"poiid":"B2094757D06FA3FA4999","title":"敦煌楼","lon":"121.42885","lat":"31.24624","category":"84","category_name":"西北菜","address":"上海普陀区中山北路2212号"},{"poiid":"B2094654DA6CA6F44798","title":"上海市经济管理学校","lon":"121.43595","lat":"31.24326","category":"52","category_name":"高等院校","address":"普陀区澳门路726号(澳门路西康路)"},{"poiid":"B209475CD564A7F8439E","title":"上海滩中信泰富店","lon":"121.45602","lat":"31.22851","category":"119","category_name":"商场","address":"\"南京西路1168号中信泰富广场，店铺号221.\r\n\""},{"poiid":"B2094750D26DA1F84793","title":"巴黎春天陕西路店","lon":"121.433885","lat":"31.240546","category":"249","category_name":"购物服务","address":"普陀区长寿路155号(近陕西北路)"},{"poiid":"B2094655D36CA4FD459A","title":"澳门路","lon":"121.4364","lat":"31.24344","category":"38","category_name":"公交车站","address":""},{"poiid":"B2094757D068A6FC489F","title":"地铁三、四号线镇坪路站","lon":"121.433522486","lat":"31.2447511152","category":"500","category_name":"未知分类","address":"上海轨道交通三、四号线镇坪路站"},{"poiid":"B2094757DB6CA4FF439D","title":"柒寿司（安远路店）","lon":"121.433802","lat":"31.239488","category":"95","category_name":"日本料理","address":"静安区安远路561-2号(近常德路)"},{"poiid":"B2094757D06FAAFC4798","title":"长寿路胶州路","lon":"121.433341","lat":"31.239481","category":"260","category_name":"其他","address":"上海长寿路胶州路路口"},{"poiid":"B2094757D069A0F84592","title":"上海第二工业大学普陀分校","lon":"121.43386241","lat":"31.243561991","category":"52","category_name":"高等院校","address":"普陀区宜昌路575号(近常德路)"},{"poiid":"B2094655D26AA0F94092","title":"地铁镇坪路站","lon":"121.43005","lat":"31.24644","category":"36","category_name":"地铁站","address":""},{"poiid":"B2094757D06AA4FB419D","title":"西康路","lon":"121.434728","lat":"31.24471","category":"250","category_name":"公园户外","address":"上海西康路"},{"poiid":"B2094757D06FA5FA4293","title":"大上海城市花园","lon":"121.43078258","lat":"31.244194704","category":"47","category_name":"住宅区","address":"上海市普陀区宜昌路588弄(常德路口)"},{"poiid":"B2094750D66DA1FF4393","title":"中山公园龙之梦","lon":"121.433601","lat":"31.239887","category":"249","category_name":"购物服务","address":"G-STAR店"},{"poiid":"B2094757D068A4F5419D","title":"长寿新村","lon":"121.435475","lat":"31.24206","category":"47","category_name":"住宅区","address":"上海普陀区常德路常德路1298弄"},{"poiid":"B2094654DA6CA6FB499B","title":"德怡苑","lon":"121.43269","lat":"31.242489","category":"47","category_name":"住宅区","address":"上海常德路1393弄"},{"poiid":"B2094757D06BA6F84098","title":"上青佳园","lon":"121.43655","lat":"31.241903","category":"47","category_name":"住宅区","address":"上海市普陀区常德路1258弄"},{"poiid":"B2094655D36CA4FD459B","title":"澳门路常德路","lon":"121.43599","lat":"31.24244","category":"38","category_name":"公交车站","address":""},{"poiid":"B2094757D068A3FD4593","title":"绿洲城市花园","lon":"121.43385","lat":"31.24065","category":"47","category_name":"住宅区","address":"上海市普陀区延长西路781弄"},{"poiid":"B2094757D069A6FA419B","title":"半岛花园游泳馆","lon":"121.4347","lat":"31.24511","category":"220","category_name":"运动场所","address":"上海普陀区西康路1518弄半岛花园14号(近宜昌路)"},{"poiid":"B2094751D364AAFD469C","title":"极致汉堡","lon":"121.4339437504553","lat":"31.23931926777246","category":"247","category_name":"餐饮美食","address":"静安区安远路555号(近胶州路)"},{"poiid":"B2094757D068A4FF489B","title":"麦田婚纱摄影","lon":"121.43061","lat":"31.24565","category":"249","category_name":"购物服务","address":"光复西路197号芙蓉花苑小区40-50号"},{"poiid":"B2094655D36CA6FA4599","title":"东新路","lon":"121.42875","lat":"31.24245","category":"38","category_name":"公交车站","address":""},{"poiid":"B2094750D66AA4FF429E","title":"虹口足球场","lon":"121.429321","lat":"31.245471","category":"220","category_name":"运动场所","address":null},{"poiid":"B2094654DA6CA6F9479F","title":"大众河滨大厦","lon":"121.436","lat":"31.2409","category":"47","category_name":"住宅区","address":"上海市普陀区宁夏路335号"},{"poiid":"B2094757D16FA4FA429E","title":"一茶一座(静安店)","lon":"121.432664586","lat":"31.2463167458","category":"47","category_name":"住宅区","address":"上海愚园路"},{"poiid":"B2094757D469A0FF429B","title":"心琪粥店 西康路店","lon":"121.4360933","lat":"31.2441246","category":"68","category_name":"快餐厅","address":"普陀区西康路1400号附近(近澳门路)"},{"poiid":"B2094757D069ABFE4993","title":"长寿路派出所","lon":"121.434285","lat":"31.244636","category":"609","category_name":"警察局","address":"上海常德路1399号"},{"poiid":"B2094757D16BA3FF429C","title":"康怡苑","lon":"121.43366","lat":"31.243172","category":"47","category_name":"住宅区","address":"常德路1344弄1-3号"},{"poiid":"B2094750D664A7F9489B","title":"大佛串串香","lon":"121.436","lat":"31.2436","category":"68","category_name":"快餐厅","address":"普陀区澳门路701号(近西康路华厦银行)"},{"poiid":"B2094757D06AA1FF459D","title":"新疆风味营养馕烤肉","lon":"121.42974","lat":"31.2462","category":"90","category_name":"清真餐馆","address":"普陀区镇坪路轻轨站3号口对面"},{"poiid":"B2094757D569A6FE419E","title":"村夫烤鱼吉祥店","lon":"121.436111","lat":"31.242195","category":"71","category_name":"四川菜","address":"普陀区澳门路739号(近常德路)"},{"poiid":"B2094757D065A7FD479F","title":"E仓创意产业园","lon":"121.430287586","lat":"31.2425916729","category":"500","category_name":"未知分类","address":"上海普陀区宜昌路751号"},{"poiid":"B2094757D568A5FA479E","title":"金昌商务中心","lon":"121.4347917","lat":"31.24172092","category":"46","category_name":"楼宇","address":"常德路1339号"},{"poiid":"B2094752D06DA7FD4692","title":"外婆家","lon":"121.435825","lat":"31.244639","category":"247","category_name":"餐饮美食","address":"长寿路巴黎春天"},{"poiid":"B2094757D06AA7FD469D","title":"京世美容美发连锁机构(澳门店)","lon":"121.43608","lat":"31.24184","category":"148","category_name":"美容美发店","address":"上海普陀区澳门路729号(近常德路)  "},{"poiid":"B2094752D268ABF94098","title":"Exit真人密室逃脱（亚新广场店）","lon":"121.432611","lat":"31.241022","category":"248","category_name":"生活娱乐","address":"上海市普陀区长寿路393号昆仑大厦1107室"},{"poiid":"B2094654DB65A6FB489D","title":"上海第二工业大学普陀分校(西门)","lon":"121.43373","lat":"31.24399","category":"52","category_name":"高等院校","address":"宜昌路575"},{"poiid":"B2094757DA6BA6FA429A","title":"双子杰座","lon":"121.434494","lat":"31.24304","category":"47","category_name":"住宅区","address":"嘉定区金沙江路3131号(近新郁路)"},{"poiid":"B2094757D06AA4F4479F","title":"芙蓉花苑","lon":"121.43077358","lat":"31.246468748","category":"252","category_name":"楼宇机构","address":"上海市普陀区镇坪路"},{"poiid":"B2094655D36DA0FA4398","title":"宜昌路","lon":"121.43411","lat":"31.24468","category":"38","category_name":"公交车站","address":""},{"poiid":"B2094757D16FA0FA4693","title":"上海市儿童医院特需门诊部","lon":"121.43410358","lat":"31.239340609","category":"162","category_name":"医院","address":"上海市北京西路1400弄24号"},{"poiid":"B2094752D169A0FA469E","title":"江边城外","lon":"121.43213","lat":"31.242036","category":"247","category_name":"餐饮美食","address":"虹口龙之梦"},{"poiid":"B2094655D26DA3FC479A","title":"乐怡苑","lon":"121.43205","lat":"31.24299","category":"47","category_name":"住宅区","address":""},{"poiid":"B2094757D16CABFE4993","title":"莫泰168(澳门路店)","lon":"121.436391","lat":"31.242958","category":"500","category_name":"未知分类","address":"普陀区澳门路715号(近常德路)"},{"poiid":"B2094757D16DABF8489F","title":"品味轩","lon":"121.43612","lat":"31.24413","category":"76","category_name":"上海菜","address":"普陀区西康路1430号(近澳门路)"},{"poiid":"B2094757D569A1F94892","title":"回民幼儿园(常德路)","lon":"121.43427789","lat":"31.24296956","category":"57","category_name":"幼儿园","address":"普陀区常德路1328弄4号(近长寿路)"},{"poiid":"B2094654DA6CA6F4429D","title":"中南财经政法大学成才教学点","lon":"121.43347","lat":"31.24433","category":"52","category_name":"高等院校","address":"普陀区宜昌路470号德诚大厦3A层3A-16室"},{"poiid":"B2094757DA6BA6FE4298","title":"上海A座","lon":"121.433292","lat":"31.243334","category":"252","category_name":"楼宇机构","address":"嘉定区金沙江路3131号(近新郁路)"},{"poiid":"B2094750D26DABF5419F","title":"酒吞","lon":"121.43158","lat":"31.241753","category":"247","category_name":"餐饮美食","address":"先锋路85号"}]