[{"poiid":"B2094654DA6EA1F54893","title":"卢湾体育馆","lon":"121.46395","lat":"31.20441","category":"224","category_name":"综合体育馆","address":"徐汇区肇嘉浜路128号(近陕西南路)"},{"poiid":"B2094757D06FA3FE439E","title":"天辣绿色时尚餐厅","lon":"121.46432","lat":"31.20454","category":"71","category_name":"四川菜","address":"卢湾区徐家汇路618号日月光广场4楼(近瑞金二路)"},{"poiid":"B2094757D06FA2F9449C","title":"卢湾体育场","lon":"121.46271","lat":"31.2064","category":"220","category_name":"运动场所","address":"卢湾区肇嘉浜路128号卢湾体育馆内(近陕西南路)"},{"poiid":"B2094753D76FAAFA449C","title":"上海滩国泰旗舰店","lon":"121.466011","lat":"31.216125","category":"249","category_name":"购物服务","address":"淮海中路868号"},{"poiid":"B209475CD564A7F84292","title":"上海滩新天地店","lon":"121.47463","lat":"31.22164","category":"119","category_name":"商场","address":"\"太仓路181弄新天地北里15号\r\n\""},{"poiid":"B209475CD564A7F8439E","title":"上海滩中信泰富店","lon":"121.45602","lat":"31.22851","category":"119","category_name":"商场","address":"\"南京西路1168号中信泰富广场，店铺号221.\r\n\""},{"poiid":"B2094757D06AA2F9479F","title":"湘轩(日月光广场店)","lon":"121.465701738","lat":"31.2072998116","category":"247","category_name":"餐饮美食","address":"上海市黄浦区徐家汇路618号(近瑞金一路)"},{"poiid":"B2094750D26EA4FE4093","title":"八重樱寿喜锅","lon":"121.465231","lat":"31.203457","category":"95","category_name":"日本料理","address":"徐汇区肇嘉浜路93号(近瑞金南路)"},{"poiid":"B2094654DB6BA4FE459A","title":"卢湾区体育中心(建国西路)","lon":"121.4641","lat":"31.20682","category":"224","category_name":"综合体育馆","address":"建国西路135号"},{"poiid":"B2094654DA6EA1FA4898","title":"得和茶馆(建国西路店)","lon":"121.4638","lat":"31.20696","category":"260","category_name":"其他","address":"卢湾区建国西路135号卢湾体育馆2楼(近瑞金二路)"},{"poiid":"B2094757D068ABFA469E","title":"望乡楼江浙精菜坊","lon":"121.46813","lat":"31.20648","category":"76","category_name":"上海菜","address":"卢湾区徐家汇路618号日月光中心广场5楼03号(近瑞金二路)"},{"poiid":"B2094757D068A6FE469D","title":"卢湾区青少年活动中心","lon":"121.46331762","lat":"31.20653461","category":"249","category_name":"购物服务","address":"上海卢湾区建国西路137号(近陕西南路)"},{"poiid":"B2094757D06FA4F44492","title":"K Thai","lon":"121.464097","lat":"31.206825","category":"99","category_name":"泰国／越南菜品餐厅","address":"卢湾区建国西路135号(近陕西南路)"},{"poiid":"B2094757D06FABFD409D","title":"宝珠奶酪 泰康路店","lon":"121.46822","lat":"31.20902","category":"67","category_name":"甜品店","address":"卢湾区泰康路248弄田子坊31号后门(近瑞金二路)"},{"poiid":"B2094757D06FA1FF4599","title":"星之健身(卢湾店)","lon":"121.46462","lat":"31.20721","category":"221","category_name":"健身中心","address":"卢湾区建国西路135号卢湾体育馆3楼、5楼(近陕西南路)"},{"poiid":"B2094750D26EA7F44493","title":"costa coffee","lon":"121.465827","lat":"31.207408","category":"65","category_name":"咖啡厅","address":"卢湾区徐家汇路618号日月光中心广场1楼(近瑞金二路)"},{"poiid":"B2094654DA6EA1FA4793","title":"上海电视大学卢湾分校","lon":"121.46333","lat":"31.2076","category":"53","category_name":"成人教育","address":"卢湾区建国西路154号(近陕西南路)"},{"poiid":"B2094757DB6FA5FB4598","title":"蔡家法式","lon":"121.464036","lat":"31.208159","category":"247","category_name":"餐饮美食","address":"日月光"},{"poiid":"B2094654DA6EA2FD449F","title":"天亿大厦","lon":"121.465","lat":"31.2038","category":"46","category_name":"楼宇","address":"徐汇区小木桥路251号"},{"poiid":"B2094750DA6EA6FB449A","title":"喜多屋","lon":"121.465812","lat":"31.207374","category":"247","category_name":"餐饮美食","address":"日月光"},{"poiid":"B209475CD46EA0FB469C","title":"年代秀（日月光店）","lon":"121.466468","lat":"31.204427","category":"249","category_name":"购物服务","address":"上海市 打浦橋日月光廣場五樓"},{"poiid":"B2094654DA6EA1F54793","title":"瑞金商务中心","lon":"121.46536","lat":"31.20435","category":"46","category_name":"楼宇","address":"黄浦区外滩23号，中山东一路，南京东路"},{"poiid":"B2094757D06BAAF84698","title":"东泰祥生煎馒头馆 陕西南路店","lon":"121.462313","lat":"31.205948","category":"68","category_name":"快餐厅","address":"卢湾区陕西南路309号(近建国西路)"},{"poiid":"B2094655D268A4FF449A","title":"上海市卢湾区业余大学","lon":"121.46333","lat":"31.2076","category":"53","category_name":"成人教育","address":"建国西路154号"},{"poiid":"B2094757DB68AAFF4599","title":"sugar box","lon":"121.4640398044557","lat":"31.20811991048077","category":"247","category_name":"餐饮美食","address":"卢湾区徐家汇路618号日月光中心广场1楼F01号铺(近瑞金二路)"},{"poiid":"B209475DD669ABF94298","title":"哥老官","lon":"121.466033","lat":"31.207187","category":"247","category_name":"餐饮美食","address":"上海市 上海日月光广场"},{"poiid":"B2094757D06FAAF94998","title":"卢湾体育馆羽毛球馆","lon":"121.463957239","lat":"31.2043254117","category":"220","category_name":"运动场所","address":"卢湾区肇嘉浜路128号卢湾体育馆内(近陕西南路)"},{"poiid":"B2094654DB6BA4FE4692","title":"格林豪泰(上海肇嘉浜路店)","lon":"121.46511","lat":"31.2045","category":"216","category_name":"经济型连锁酒店","address":"上海市黄浦区肇嘉浜路100号(卢湾体育馆旁)"},{"poiid":"B2094757D068A6FB409C","title":"红宝石(肇嘉浜路店)","lon":"121.46661","lat":"31.205228","category":"67","category_name":"甜品店","address":"卢湾区肇嘉浜路12号(近瑞金南路)"},{"poiid":"B2094757D169A5FC479E","title":"熊猫餐厅&amp;酒吧","lon":"121.46622473","lat":"31.207437814","category":"500","category_name":"未知分类","address":"三亚上海市泰康路田子坊"},{"poiid":"B2094757D06FAAFA489E","title":"唱响量贩式KTV","lon":"121.46539","lat":"31.20393","category":"170","category_name":"KTV","address":"卢湾区肇嘉浜路96号2楼(近卢湾体育馆)"},{"poiid":"B2094752D268AAF4409F","title":"争鲜","lon":"121.464681","lat":"31.207802","category":"247","category_name":"餐饮美食","address":"日月光中心广场B2（徐家汇路618号）"},{"poiid":"B2094655D26EA2F54293","title":"卢湾体育活动中心","lon":"121.46409","lat":"31.20682","category":"221","category_name":"健身中心","address":"卢湾区建国西路135号卢湾体育中心"},{"poiid":"B2094654DB69A4FE409E","title":"乐购(卢湾店)","lon":"121.46438","lat":"31.20411","category":"118","category_name":"超级市场","address":"卢湾区肇嘉浜路128号卢湾体育馆内(近陕西南路)"},{"poiid":"B2094751D269A3FC499D","title":"Marina 德玛星空餐厅酒吧","lon":"121.465942","lat":"31.207447","category":"248","category_name":"生活娱乐","address":"卢湾区泰康路248弄田子坊23号1-4楼(近瑞金二路)"},{"poiid":"B2094750D664A5FF469D","title":"酸奶工坊(田子坊店)","lon":"121.465","lat":"31.2044","category":"113","category_name":"冷饮店","address":"卢湾区建国中路155弄田子坊15号甲(近日月光广场)"},{"poiid":"B2094757D064A7FA469A","title":"瑞金花园","lon":"121.465138738","lat":"31.2062517893","category":"47","category_name":"住宅区","address":"建国西路91弄,瑞金二路158号"},{"poiid":"B2094757D16AA4FC489C","title":"sapori意味餐厅","lon":"121.465645738","lat":"31.2068698024","category":"94","category_name":"西餐厅","address":"卢湾区建国西路148-2号(近陕西南路)"},{"poiid":"B2094654DA6EA1FA489A","title":"天才宝贝","lon":"121.46379","lat":"31.20695","category":"57","category_name":"幼儿园","address":""},{"poiid":"B2094757D068ABF4429E","title":"井源日本料理","lon":"121.465050278","lat":"31.2081087088","category":"95","category_name":"日本料理","address":"上海卢湾区日月光中心B2"},{"poiid":"B2094757DB6CA4FB439B","title":"FC造型","lon":"121.464194","lat":"31.208283","category":"148","category_name":"美容美发店","address":"日月光B2—S01"},{"poiid":"B2094757D165ABF94998","title":"青少年科技探索馆","lon":"121.46277","lat":"31.20616","category":"179","category_name":"音乐厅","address":"卢湾区建国西路137号(近陕西南路)"},{"poiid":"B2094752D46AA6FC499D","title":"巫山烤鱼（日月光店）","lon":"121.4629817","lat":"31.2072594","category":"247","category_name":"餐饮美食","address":null},{"poiid":"B2094654DA6EA1F5489F","title":"航天通信商务楼","lon":"121.46508","lat":"31.20436","category":"46","category_name":"楼宇","address":"行宫位于沈河北站一路41号"},{"poiid":"B2094752D26FA4FD4792","title":"田子坊便所餐厅","lon":"121.465759","lat":"31.207336","category":"247","category_name":"餐饮美食","address":null},{"poiid":"B2094757DA6AABFB4498","title":"谷乐滋","lon":"121.46466","lat":"31.207676","category":"247","category_name":"餐饮美食","address":"日月光"},{"poiid":"B2094655D36DA7FE4392","title":"肇家浜路打浦桥","lon":"121.4662","lat":"31.20458","category":"38","category_name":"公交车站","address":""},{"poiid":"B2094753D66EA4FE4399","title":"港汇恒隆广场","lon":"121.464528","lat":"31.207328","category":"500","category_name":"未知分类","address":"上海市 上海虹桥路1号"},{"poiid":"B2094750D565AAFB429B","title":"卡布蕾 日月光店","lon":"121.465827","lat":"31.207406","category":"113","category_name":"冷饮店","address":"卢湾区徐家汇路618号日月光中心1楼B05号铺(近瑞金二路)"},{"poiid":"B2094654DA6EA1FA4899","title":"星之游泳馆","lon":"121.4638","lat":"31.20696","category":"231","category_name":"游泳馆","address":""},{"poiid":"B2094654DA6EA1F54893","title":"卢湾体育馆","lon":"121.46395","lat":"31.20441","category":"224","category_name":"综合体育馆","address":"徐汇区肇嘉浜路128号(近陕西南路)"},{"poiid":"B2094757D06FA3FE439E","title":"天辣绿色时尚餐厅","lon":"121.46432","lat":"31.20454","category":"71","category_name":"四川菜","address":"卢湾区徐家汇路618号日月光广场4楼(近瑞金二路)"},{"poiid":"B2094757D06FA2F9449C","title":"卢湾体育场","lon":"121.46271","lat":"31.2064","category":"220","category_name":"运动场所","address":"卢湾区肇嘉浜路128号卢湾体育馆内(近陕西南路)"},{"poiid":"B2094753D76FAAFA449C","title":"上海滩国泰旗舰店","lon":"121.466011","lat":"31.216125","category":"249","category_name":"购物服务","address":"淮海中路868号"},{"poiid":"B209475CD564A7F84292","title":"上海滩新天地店","lon":"121.47463","lat":"31.22164","category":"119","category_name":"商场","address":"\"太仓路181弄新天地北里15号\r\n\""},{"poiid":"B209475CD564A7F8439E","title":"上海滩中信泰富店","lon":"121.45602","lat":"31.22851","category":"119","category_name":"商场","address":"\"南京西路1168号中信泰富广场，店铺号221.\r\n\""},{"poiid":"B2094757D06AA2F9479F","title":"湘轩(日月光广场店)","lon":"121.465701738","lat":"31.2072998116","category":"247","category_name":"餐饮美食","address":"上海市黄浦区徐家汇路618号(近瑞金一路)"},{"poiid":"B2094750D26EA4FE4093","title":"八重樱寿喜锅","lon":"121.465231","lat":"31.203457","category":"95","category_name":"日本料理","address":"徐汇区肇嘉浜路93号(近瑞金南路)"},{"poiid":"B2094654DB6BA4FE459A","title":"卢湾区体育中心(建国西路)","lon":"121.4641","lat":"31.20682","category":"224","category_name":"综合体育馆","address":"建国西路135号"},{"poiid":"B2094654DA6EA1FA4898","title":"得和茶馆(建国西路店)","lon":"121.4638","lat":"31.20696","category":"260","category_name":"其他","address":"卢湾区建国西路135号卢湾体育馆2楼(近瑞金二路)"},{"poiid":"B2094757D068ABFA469E","title":"望乡楼江浙精菜坊","lon":"121.46813","lat":"31.20648","category":"76","category_name":"上海菜","address":"卢湾区徐家汇路618号日月光中心广场5楼03号(近瑞金二路)"},{"poiid":"B2094757D068A6FE469D","title":"卢湾区青少年活动中心","lon":"121.46331762","lat":"31.20653461","category":"249","category_name":"购物服务","address":"上海卢湾区建国西路137号(近陕西南路)"},{"poiid":"B2094757D06FA4F44492","title":"K Thai","lon":"121.464097","lat":"31.206825","category":"99","category_name":"泰国／越南菜品餐厅","address":"卢湾区建国西路135号(近陕西南路)"},{"poiid":"B2094757D06FABFD409D","title":"宝珠奶酪 泰康路店","lon":"121.46822","lat":"31.20902","category":"67","category_name":"甜品店","address":"卢湾区泰康路248弄田子坊31号后门(近瑞金二路)"},{"poiid":"B2094757D06FA1FF4599","title":"星之健身(卢湾店)","lon":"121.46462","lat":"31.20721","category":"221","category_name":"健身中心","address":"卢湾区建国西路135号卢湾体育馆3楼、5楼(近陕西南路)"},{"poiid":"B2094750D26EA7F44493","title":"costa coffee","lon":"121.465827","lat":"31.207408","category":"65","category_name":"咖啡厅","address":"卢湾区徐家汇路618号日月光中心广场1楼(近瑞金二路)"},{"poiid":"B2094654DA6EA1FA4793","title":"上海电视大学卢湾分校","lon":"121.46333","lat":"31.2076","category":"53","category_name":"成人教育","address":"卢湾区建国西路154号(近陕西南路)"},{"poiid":"B2094757DB6FA5FB4598","title":"蔡家法式","lon":"121.464036","lat":"31.208159","category":"247","category_name":"餐饮美食","address":"日月光"},{"poiid":"B2094654DA6EA2FD449F","title":"天亿大厦","lon":"121.465","lat":"31.2038","category":"46","category_name":"楼宇","address":"徐汇区小木桥路251号"},{"poiid":"B2094750DA6EA6FB449A","title":"喜多屋","lon":"121.465812","lat":"31.207374","category":"247","category_name":"餐饮美食","address":"日月光"},{"poiid":"B209475CD46EA0FB469C","title":"年代秀（日月光店）","lon":"121.466468","lat":"31.204427","category":"249","category_name":"购物服务","address":"上海市 打浦橋日月光廣場五樓"},{"poiid":"B2094654DA6EA1F54793","title":"瑞金商务中心","lon":"121.46536","lat":"31.20435","category":"46","category_name":"楼宇","address":"黄浦区外滩23号，中山东一路，南京东路"},{"poiid":"B2094757D06BAAF84698","title":"东泰祥生煎馒头馆 陕西南路店","lon":"121.462313","lat":"31.205948","category":"68","category_name":"快餐厅","address":"卢湾区陕西南路309号(近建国西路)"},{"poiid":"B2094655D268A4FF449A","title":"上海市卢湾区业余大学","lon":"121.46333","lat":"31.2076","category":"53","category_name":"成人教育","address":"建国西路154号"},{"poiid":"B2094757DB68AAFF4599","title":"sugar box","lon":"121.4640398044557","lat":"31.20811991048077","category":"247","category_name":"餐饮美食","address":"卢湾区徐家汇路618号日月光中心广场1楼F01号铺(近瑞金二路)"},{"poiid":"B209475DD669ABF94298","title":"哥老官","lon":"121.466033","lat":"31.207187","category":"247","category_name":"餐饮美食","address":"上海市 上海日月光广场"},{"poiid":"B2094757D06FAAF94998","title":"卢湾体育馆羽毛球馆","lon":"121.463957239","lat":"31.2043254117","category":"220","category_name":"运动场所","address":"卢湾区肇嘉浜路128号卢湾体育馆内(近陕西南路)"},{"poiid":"B2094654DB6BA4FE4692","title":"格林豪泰(上海肇嘉浜路店)","lon":"121.46511","lat":"31.2045","category":"216","category_name":"经济型连锁酒店","address":"上海市黄浦区肇嘉浜路100号(卢湾体育馆旁)"},{"poiid":"B2094757D068A6FB409C","title":"红宝石(肇嘉浜路店)","lon":"121.46661","lat":"31.205228","category":"67","category_name":"甜品店","address":"卢湾区肇嘉浜路12号(近瑞金南路)"},{"poiid":"B2094757D169A5FC479E","title":"熊猫餐厅&amp;酒吧","lon":"121.46622473","lat":"31.207437814","category":"500","category_name":"未知分类","address":"三亚上海市泰康路田子坊"},{"poiid":"B2094757D06FAAFA489E","title":"唱响量贩式KTV","lon":"121.46539","lat":"31.20393","category":"170","category_name":"KTV","address":"卢湾区肇嘉浜路96号2楼(近卢湾体育馆)"},{"poiid":"B2094752D268AAF4409F","title":"争鲜","lon":"121.464681","lat":"31.207802","category":"247","category_name":"餐饮美食","address":"日月光中心广场B2（徐家汇路618号）"},{"poiid":"B2094655D26EA2F54293","title":"卢湾体育活动中心","lon":"121.46409","lat":"31.20682","category":"221","category_name":"健身中心","address":"卢湾区建国西路135号卢湾体育中心"},{"poiid":"B2094654DB69A4FE409E","title":"乐购(卢湾店)","lon":"121.46438","lat":"31.20411","category":"118","category_name":"超级市场","address":"卢湾区肇嘉浜路128号卢湾体育馆内(近陕西南路)"},{"poiid":"B2094751D269A3FC499D","title":"Marina 德玛星空餐厅酒吧","lon":"121.465942","lat":"31.207447","category":"248","category_name":"生活娱乐","address":"卢湾区泰康路248弄田子坊23号1-4楼(近瑞金二路)"},{"poiid":"B2094750D664A5FF469D","title":"酸奶工坊(田子坊店)","lon":"121.465","lat":"31.2044","category":"113","category_name":"冷饮店","address":"卢湾区建国中路155弄田子坊15号甲(近日月光广场)"},{"poiid":"B2094757D064A7FA469A","title":"瑞金花园","lon":"121.465138738","lat":"31.2062517893","category":"47","category_name":"住宅区","address":"建国西路91弄,瑞金二路158号"},{"poiid":"B2094757D16AA4FC489C","title":"sapori意味餐厅","lon":"121.465645738","lat":"31.2068698024","category":"94","category_name":"西餐厅","address":"卢湾区建国西路148-2号(近陕西南路)"},{"poiid":"B2094654DA6EA1FA489A","title":"天才宝贝","lon":"121.46379","lat":"31.20695","category":"57","category_name":"幼儿园","address":""},{"poiid":"B2094757D068ABF4429E","title":"井源日本料理","lon":"121.465050278","lat":"31.2081087088","category":"95","category_name":"日本料理","address":"上海卢湾区日月光中心B2"},{"poiid":"B2094757DB6CA4FB439B","title":"FC造型","lon":"121.464194","lat":"31.208283","category":"148","category_name":"美容美发店","address":"日月光B2—S01"},{"poiid":"B2094757D165ABF94998","title":"青少年科技探索馆","lon":"121.46277","lat":"31.20616","category":"179","category_name":"音乐厅","address":"卢湾区建国西路137号(近陕西南路)"},{"poiid":"B2094752D46AA6FC499D","title":"巫山烤鱼（日月光店）","lon":"121.4629817","lat":"31.2072594","category":"247","category_name":"餐饮美食","address":null},{"poiid":"B2094654DA6EA1F5489F","title":"航天通信商务楼","lon":"121.46508","lat":"31.20436","category":"46","category_name":"楼宇","address":"行宫位于沈河北站一路41号"},{"poiid":"B2094752D26FA4FD4792","title":"田子坊便所餐厅","lon":"121.465759","lat":"31.207336","category":"247","category_name":"餐饮美食","address":null},{"poiid":"B2094757DA6AABFB4498","title":"谷乐滋","lon":"121.46466","lat":"31.207676","category":"247","category_name":"餐饮美食","address":"日月光"},{"poiid":"B2094655D36DA7FE4392","title":"肇家浜路打浦桥","lon":"121.4662","lat":"31.20458","category":"38","category_name":"公交车站","address":""},{"poiid":"B2094753D66EA4FE4399","title":"港汇恒隆广场","lon":"121.464528","lat":"31.207328","category":"500","category_name":"未知分类","address":"上海市 上海虹桥路1号"},{"poiid":"B2094750D565AAFB429B","title":"卡布蕾 日月光店","lon":"121.465827","lat":"31.207406","category":"113","category_name":"冷饮店","address":"卢湾区徐家汇路618号日月光中心1楼B05号铺(近瑞金二路)"},{"poiid":"B2094654DA6EA1FA4899","title":"星之游泳馆","lon":"121.4638","lat":"31.20696","category":"231","category_name":"游泳馆","address":""},{"poiid":"B2094654DA6EA1F54893","title":"卢湾体育馆","lon":"121.46395","lat":"31.20441","category":"224","category_name":"综合体育馆","address":"徐汇区肇嘉浜路128号(近陕西南路)"},{"poiid":"B2094757D06FA3FE439E","title":"天辣绿色时尚餐厅","lon":"121.46432","lat":"31.20454","category":"71","category_name":"四川菜","address":"卢湾区徐家汇路618号日月光广场4楼(近瑞金二路)"},{"poiid":"B2094757D06FA2F9449C","title":"卢湾体育场","lon":"121.46271","lat":"31.2064","category":"220","category_name":"运动场所","address":"卢湾区肇嘉浜路128号卢湾体育馆内(近陕西南路)"},{"poiid":"B2094753D76FAAFA449C","title":"上海滩国泰旗舰店","lon":"121.466011","lat":"31.216125","category":"249","category_name":"购物服务","address":"淮海中路868号"},{"poiid":"B209475CD564A7F84292","title":"上海滩新天地店","lon":"121.47463","lat":"31.22164","category":"119","category_name":"商场","address":"\"太仓路181弄新天地北里15号\r\n\""},{"poiid":"B209475CD564A7F8439E","title":"上海滩中信泰富店","lon":"121.45602","lat":"31.22851","category":"119","category_name":"商场","address":"\"南京西路1168号中信泰富广场，店铺号221.\r\n\""},{"poiid":"B2094757D06AA2F9479F","title":"湘轩(日月光广场店)","lon":"121.465701738","lat":"31.2072998116","category":"247","category_name":"餐饮美食","address":"上海市黄浦区徐家汇路618号(近瑞金一路)"},{"poiid":"B2094750D26EA4FE4093","title":"八重樱寿喜锅","lon":"121.465231","lat":"31.203457","category":"95","category_name":"日本料理","address":"徐汇区肇嘉浜路93号(近瑞金南路)"},{"poiid":"B2094654DB6BA4FE459A","title":"卢湾区体育中心(建国西路)","lon":"121.4641","lat":"31.20682","category":"224","category_name":"综合体育馆","address":"建国西路135号"},{"poiid":"B2094654DA6EA1FA4898","title":"得和茶馆(建国西路店)","lon":"121.4638","lat":"31.20696","category":"260","category_name":"其他","address":"卢湾区建国西路135号卢湾体育馆2楼(近瑞金二路)"},{"poiid":"B2094757D068ABFA469E","title":"望乡楼江浙精菜坊","lon":"121.46813","lat":"31.20648","category":"76","category_name":"上海菜","address":"卢湾区徐家汇路618号日月光中心广场5楼03号(近瑞金二路)"},{"poiid":"B2094757D068A6FE469D","title":"卢湾区青少年活动中心","lon":"121.46331762","lat":"31.20653461","category":"249","category_name":"购物服务","address":"上海卢湾区建国西路137号(近陕西南路)"},{"poiid":"B2094757D06FA4F44492","title":"K Thai","lon":"121.464097","lat":"31.206825","category":"99","category_name":"泰国／越南菜品餐厅","address":"卢湾区建国西路135号(近陕西南路)"},{"poiid":"B2094757D06FABFD409D","title":"宝珠奶酪 泰康路店","lon":"121.46822","lat":"31.20902","category":"67","category_name":"甜品店","address":"卢湾区泰康路248弄田子坊31号后门(近瑞金二路)"},{"poiid":"B2094757D06FA1FF4599","title":"星之健身(卢湾店)","lon":"121.46462","lat":"31.20721","category":"221","category_name":"健身中心","address":"卢湾区建国西路135号卢湾体育馆3楼、5楼(近陕西南路)"},{"poiid":"B2094750D26EA7F44493","title":"costa coffee","lon":"121.465827","lat":"31.207408","category":"65","category_name":"咖啡厅","address":"卢湾区徐家汇路618号日月光中心广场1楼(近瑞金二路)"},{"poiid":"B2094654DA6EA1FA4793","title":"上海电视大学卢湾分校","lon":"121.46333","lat":"31.2076","category":"53","category_name":"成人教育","address":"卢湾区建国西路154号(近陕西南路)"},{"poiid":"B2094757DB6FA5FB4598","title":"蔡家法式","lon":"121.464036","lat":"31.208159","category":"247","category_name":"餐饮美食","address":"日月光"},{"poiid":"B2094654DA6EA2FD449F","title":"天亿大厦","lon":"121.465","lat":"31.2038","category":"46","category_name":"楼宇","address":"徐汇区小木桥路251号"},{"poiid":"B2094750DA6EA6FB449A","title":"喜多屋","lon":"121.465812","lat":"31.207374","category":"247","category_name":"餐饮美食","address":"日月光"},{"poiid":"B209475CD46EA0FB469C","title":"年代秀（日月光店）","lon":"121.466468","lat":"31.204427","category":"249","category_name":"购物服务","address":"上海市 打浦橋日月光廣場五樓"},{"poiid":"B2094654DA6EA1F54793","title":"瑞金商务中心","lon":"121.46536","lat":"31.20435","category":"46","category_name":"楼宇","address":"黄浦区外滩23号，中山东一路，南京东路"},{"poiid":"B2094757D06BAAF84698","title":"东泰祥生煎馒头馆 陕西南路店","lon":"121.462313","lat":"31.205948","category":"68","category_name":"快餐厅","address":"卢湾区陕西南路309号(近建国西路)"},{"poiid":"B2094655D268A4FF449A","title":"上海市卢湾区业余大学","lon":"121.46333","lat":"31.2076","category":"53","category_name":"成人教育","address":"建国西路154号"},{"poiid":"B2094757DB68AAFF4599","title":"sugar box","lon":"121.4640398044557","lat":"31.20811991048077","category":"247","category_name":"餐饮美食","address":"卢湾区徐家汇路618号日月光中心广场1楼F01号铺(近瑞金二路)"},{"poiid":"B209475DD669ABF94298","title":"哥老官","lon":"121.466033","lat":"31.207187","category":"247","category_name":"餐饮美食","address":"上海市 上海日月光广场"},{"poiid":"B2094757D06FAAF94998","title":"卢湾体育馆羽毛球馆","lon":"121.463957239","lat":"31.2043254117","category":"220","category_name":"运动场所","address":"卢湾区肇嘉浜路128号卢湾体育馆内(近陕西南路)"},{"poiid":"B2094654DB6BA4FE4692","title":"格林豪泰(上海肇嘉浜路店)","lon":"121.46511","lat":"31.2045","category":"216","category_name":"经济型连锁酒店","address":"上海市黄浦区肇嘉浜路100号(卢湾体育馆旁)"},{"poiid":"B2094757D068A6FB409C","title":"红宝石(肇嘉浜路店)","lon":"121.46661","lat":"31.205228","category":"67","category_name":"甜品店","address":"卢湾区肇嘉浜路12号(近瑞金南路)"},{"poiid":"B2094757D169A5FC479E","title":"熊猫餐厅&amp;酒吧","lon":"121.46622473","lat":"31.207437814","category":"500","category_name":"未知分类","address":"三亚上海市泰康路田子坊"},{"poiid":"B2094757D06FAAFA489E","title":"唱响量贩式KTV","lon":"121.46539","lat":"31.20393","category":"170","category_name":"KTV","address":"卢湾区肇嘉浜路96号2楼(近卢湾体育馆)"},{"poiid":"B2094752D268AAF4409F","title":"争鲜","lon":"121.464681","lat":"31.207802","category":"247","category_name":"餐饮美食","address":"日月光中心广场B2（徐家汇路618号）"},{"poiid":"B2094655D26EA2F54293","title":"卢湾体育活动中心","lon":"121.46409","lat":"31.20682","category":"221","category_name":"健身中心","address":"卢湾区建国西路135号卢湾体育中心"},{"poiid":"B2094654DB69A4FE409E","title":"乐购(卢湾店)","lon":"121.46438","lat":"31.20411","category":"118","category_name":"超级市场","address":"卢湾区肇嘉浜路128号卢湾体育馆内(近陕西南路)"},{"poiid":"B2094751D269A3FC499D","title":"Marina 德玛星空餐厅酒吧","lon":"121.465942","lat":"31.207447","category":"248","category_name":"生活娱乐","address":"卢湾区泰康路248弄田子坊23号1-4楼(近瑞金二路)"},{"poiid":"B2094750D664A5FF469D","title":"酸奶工坊(田子坊店)","lon":"121.465","lat":"31.2044","category":"113","category_name":"冷饮店","address":"卢湾区建国中路155弄田子坊15号甲(近日月光广场)"},{"poiid":"B2094757D064A7FA469A","title":"瑞金花园","lon":"121.465138738","lat":"31.2062517893","category":"47","category_name":"住宅区","address":"建国西路91弄,瑞金二路158号"},{"poiid":"B2094757D16AA4FC489C","title":"sapori意味餐厅","lon":"121.465645738","lat":"31.2068698024","category":"94","category_name":"西餐厅","address":"卢湾区建国西路148-2号(近陕西南路)"},{"poiid":"B2094654DA6EA1FA489A","title":"天才宝贝","lon":"121.46379","lat":"31.20695","category":"57","category_name":"幼儿园","address":""},{"poiid":"B2094757D068ABF4429E","title":"井源日本料理","lon":"121.465050278","lat":"31.2081087088","category":"95","category_name":"日本料理","address":"上海卢湾区日月光中心B2"},{"poiid":"B2094757DB6CA4FB439B","title":"FC造型","lon":"121.464194","lat":"31.208283","category":"148","category_name":"美容美发店","address":"日月光B2—S01"},{"poiid":"B2094757D165ABF94998","title":"青少年科技探索馆","lon":"121.46277","lat":"31.20616","category":"179","category_name":"音乐厅","address":"卢湾区建国西路137号(近陕西南路)"},{"poiid":"B2094752D46AA6FC499D","title":"巫山烤鱼（日月光店）","lon":"121.4629817","lat":"31.2072594","category":"247","category_name":"餐饮美食","address":null},{"poiid":"B2094654DA6EA1F5489F","title":"航天通信商务楼","lon":"121.46508","lat":"31.20436","category":"46","category_name":"楼宇","address":"行宫位于沈河北站一路41号"},{"poiid":"B2094752D26FA4FD4792","title":"田子坊便所餐厅","lon":"121.465759","lat":"31.207336","category":"247","category_name":"餐饮美食","address":null},{"poiid":"B2094757DA6AABFB4498","title":"谷乐滋","lon":"121.46466","lat":"31.207676","category":"247","category_name":"餐饮美食","address":"日月光"},{"poiid":"B2094655D36DA7FE4392","title":"肇家浜路打浦桥","lon":"121.4662","lat":"31.20458","category":"38","category_name":"公交车站","address":""},{"poiid":"B2094753D66EA4FE4399","title":"港汇恒隆广场","lon":"121.464528","lat":"31.207328","category":"500","category_name":"未知分类","address":"上海市 上海虹桥路1号"},{"poiid":"B2094750D565AAFB429B","title":"卡布蕾 日月光店","lon":"121.465827","lat":"31.207406","category":"113","category_name":"冷饮店","address":"卢湾区徐家汇路618号日月光中心1楼B05号铺(近瑞金二路)"},{"poiid":"B2094654DA6EA1FA4899","title":"星之游泳馆","lon":"121.4638","lat":"31.20696","category":"231","category_name":"游泳馆","address":""},{"poiid":"B2094654DA6EA1F54893","title":"卢湾体育馆","lon":"121.46395","lat":"31.20441","category":"224","category_name":"综合体育馆","address":"徐汇区肇嘉浜路128号(近陕西南路)"},{"poiid":"B2094757D06FA3FE439E","title":"天辣绿色时尚餐厅","lon":"121.46432","lat":"31.20454","category":"71","category_name":"四川菜","address":"卢湾区徐家汇路618号日月光广场4楼(近瑞金二路)"},{"poiid":"B2094757D06FA2F9449C","title":"卢湾体育场","lon":"121.46271","lat":"31.2064","category":"220","category_name":"运动场所","address":"卢湾区肇嘉浜路128号卢湾体育馆内(近陕西南路)"},{"poiid":"B2094753D76FAAFA449C","title":"上海滩国泰旗舰店","lon":"121.466011","lat":"31.216125","category":"249","category_name":"购物服务","address":"淮海中路868号"},{"poiid":"B209475CD564A7F84292","title":"上海滩新天地店","lon":"121.47463","lat":"31.22164","category":"119","category_name":"商场","address":"\"太仓路181弄新天地北里15号\r\n\""},{"poiid":"B209475CD564A7F8439E","title":"上海滩中信泰富店","lon":"121.45602","lat":"31.22851","category":"119","category_name":"商场","address":"\"南京西路1168号中信泰富广场，店铺号221.\r\n\""},{"poiid":"B2094757D06AA2F9479F","title":"湘轩(日月光广场店)","lon":"121.465701738","lat":"31.2072998116","category":"247","category_name":"餐饮美食","address":"上海市黄浦区徐家汇路618号(近瑞金一路)"},{"poiid":"B2094750D26EA4FE4093","title":"八重樱寿喜锅","lon":"121.465231","lat":"31.203457","category":"95","category_name":"日本料理","address":"徐汇区肇嘉浜路93号(近瑞金南路)"},{"poiid":"B2094654DB6BA4FE459A","title":"卢湾区体育中心(建国西路)","lon":"121.4641","lat":"31.20682","category":"224","category_name":"综合体育馆","address":"建国西路135号"},{"poiid":"B2094654DA6EA1FA4898","title":"得和茶馆(建国西路店)","lon":"121.4638","lat":"31.20696","category":"260","category_name":"其他","address":"卢湾区建国西路135号卢湾体育馆2楼(近瑞金二路)"},{"poiid":"B2094757D068ABFA469E","title":"望乡楼江浙精菜坊","lon":"121.46813","lat":"31.20648","category":"76","category_name":"上海菜","address":"卢湾区徐家汇路618号日月光中心广场5楼03号(近瑞金二路)"},{"poiid":"B2094757D068A6FE469D","title":"卢湾区青少年活动中心","lon":"121.46331762","lat":"31.20653461","category":"249","category_name":"购物服务","address":"上海卢湾区建国西路137号(近陕西南路)"},{"poiid":"B2094757D06FA4F44492","title":"K Thai","lon":"121.464097","lat":"31.206825","category":"99","category_name":"泰国／越南菜品餐厅","address":"卢湾区建国西路135号(近陕西南路)"},{"poiid":"B2094757D06FABFD409D","title":"宝珠奶酪 泰康路店","lon":"121.46822","lat":"31.20902","category":"67","category_name":"甜品店","address":"卢湾区泰康路248弄田子坊31号后门(近瑞金二路)"},{"poiid":"B2094757D06FA1FF4599","title":"星之健身(卢湾店)","lon":"121.46462","lat":"31.20721","category":"221","category_name":"健身中心","address":"卢湾区建国西路135号卢湾体育馆3楼、5楼(近陕西南路)"},{"poiid":"B2094750D26EA7F44493","title":"costa coffee","lon":"121.465827","lat":"31.207408","category":"65","category_name":"咖啡厅","address":"卢湾区徐家汇路618号日月光中心广场1楼(近瑞金二路)"},{"poiid":"B2094654DA6EA1FA4793","title":"上海电视大学卢湾分校","lon":"121.46333","lat":"31.2076","category":"53","category_name":"成人教育","address":"卢湾区建国西路154号(近陕西南路)"},{"poiid":"B2094757DB6FA5FB4598","title":"蔡家法式","lon":"121.464036","lat":"31.208159","category":"247","category_name":"餐饮美食","address":"日月光"},{"poiid":"B2094654DA6EA2FD449F","title":"天亿大厦","lon":"121.465","lat":"31.2038","category":"46","category_name":"楼宇","address":"徐汇区小木桥路251号"},{"poiid":"B2094750DA6EA6FB449A","title":"喜多屋","lon":"121.465812","lat":"31.207374","category":"247","category_name":"餐饮美食","address":"日月光"},{"poiid":"B209475CD46EA0FB469C","title":"年代秀（日月光店）","lon":"121.466468","lat":"31.204427","category":"249","category_name":"购物服务","address":"上海市 打浦橋日月光廣場五樓"},{"poiid":"B2094654DA6EA1F54793","title":"瑞金商务中心","lon":"121.46536","lat":"31.20435","category":"46","category_name":"楼宇","address":"黄浦区外滩23号，中山东一路，南京东路"},{"poiid":"B2094757D06BAAF84698","title":"东泰祥生煎馒头馆 陕西南路店","lon":"121.462313","lat":"31.205948","category":"68","category_name":"快餐厅","address":"卢湾区陕西南路309号(近建国西路)"},{"poiid":"B2094655D268A4FF449A","title":"上海市卢湾区业余大学","lon":"121.46333","lat":"31.2076","category":"53","category_name":"成人教育","address":"建国西路154号"},{"poiid":"B2094757DB68AAFF4599","title":"sugar box","lon":"121.4640398044557","lat":"31.20811991048077","category":"247","category_name":"餐饮美食","address":"卢湾区徐家汇路618号日月光中心广场1楼F01号铺(近瑞金二路)"},{"poiid":"B209475DD669ABF94298","title":"哥老官","lon":"121.466033","lat":"31.207187","category":"247","category_name":"餐饮美食","address":"上海市 上海日月光广场"},{"poiid":"B2094757D06FAAF94998","title":"卢湾体育馆羽毛球馆","lon":"121.463957239","lat":"31.2043254117","category":"220","category_name":"运动场所","address":"卢湾区肇嘉浜路128号卢湾体育馆内(近陕西南路)"},{"poiid":"B2094654DB6BA4FE4692","title":"格林豪泰(上海肇嘉浜路店)","lon":"121.46511","lat":"31.2045","category":"216","category_name":"经济型连锁酒店","address":"上海市黄浦区肇嘉浜路100号(卢湾体育馆旁)"},{"poiid":"B2094757D068A6FB409C","title":"红宝石(肇嘉浜路店)","lon":"121.46661","lat":"31.205228","category":"67","category_name":"甜品店","address":"卢湾区肇嘉浜路12号(近瑞金南路)"},{"poiid":"B2094757D169A5FC479E","title":"熊猫餐厅&amp;酒吧","lon":"121.46622473","lat":"31.207437814","category":"500","category_name":"未知分类","address":"三亚上海市泰康路田子坊"},{"poiid":"B2094757D06FAAFA489E","title":"唱响量贩式KTV","lon":"121.46539","lat":"31.20393","category":"170","category_name":"KTV","address":"卢湾区肇嘉浜路96号2楼(近卢湾体育馆)"},{"poiid":"B2094752D268AAF4409F","title":"争鲜","lon":"121.464681","lat":"31.207802","category":"247","category_name":"餐饮美食","address":"日月光中心广场B2（徐家汇路618号）"},{"poiid":"B2094655D26EA2F54293","title":"卢湾体育活动中心","lon":"121.46409","lat":"31.20682","category":"221","category_name":"健身中心","address":"卢湾区建国西路135号卢湾体育中心"},{"poiid":"B2094654DB69A4FE409E","title":"乐购(卢湾店)","lon":"121.46438","lat":"31.20411","category":"118","category_name":"超级市场","address":"卢湾区肇嘉浜路128号卢湾体育馆内(近陕西南路)"},{"poiid":"B2094751D269A3FC499D","title":"Marina 德玛星空餐厅酒吧","lon":"121.465942","lat":"31.207447","category":"248","category_name":"生活娱乐","address":"卢湾区泰康路248弄田子坊23号1-4楼(近瑞金二路)"},{"poiid":"B2094750D664A5FF469D","title":"酸奶工坊(田子坊店)","lon":"121.465","lat":"31.2044","category":"113","category_name":"冷饮店","address":"卢湾区建国中路155弄田子坊15号甲(近日月光广场)"},{"poiid":"B2094757D064A7FA469A","title":"瑞金花园","lon":"121.465138738","lat":"31.2062517893","category":"47","category_name":"住宅区","address":"建国西路91弄,瑞金二路158号"},{"poiid":"B2094757D16AA4FC489C","title":"sapori意味餐厅","lon":"121.465645738","lat":"31.2068698024","category":"94","category_name":"西餐厅","address":"卢湾区建国西路148-2号(近陕西南路)"},{"poiid":"B2094654DA6EA1FA489A","title":"天才宝贝","lon":"121.46379","lat":"31.20695","category":"57","category_name":"幼儿园","address":""},{"poiid":"B2094757D068ABF4429E","title":"井源日本料理","lon":"121.465050278","lat":"31.2081087088","category":"95","category_name":"日本料理","address":"上海卢湾区日月光中心B2"},{"poiid":"B2094757DB6CA4FB439B","title":"FC造型","lon":"121.464194","lat":"31.208283","category":"148","category_name":"美容美发店","address":"日月光B2—S01"},{"poiid":"B2094757D165ABF94998","title":"青少年科技探索馆","lon":"121.46277","lat":"31.20616","category":"179","category_name":"音乐厅","address":"卢湾区建国西路137号(近陕西南路)"},{"poiid":"B2094752D46AA6FC499D","title":"巫山烤鱼（日月光店）","lon":"121.4629817","lat":"31.2072594","category":"247","category_name":"餐饮美食","address":null},{"poiid":"B2094654DA6EA1F5489F","title":"航天通信商务楼","lon":"121.46508","lat":"31.20436","category":"46","category_name":"楼宇","address":"行宫位于沈河北站一路41号"},{"poiid":"B2094752D26FA4FD4792","title":"田子坊便所餐厅","lon":"121.465759","lat":"31.207336","category":"247","category_name":"餐饮美食","address":null},{"poiid":"B2094757DA6AABFB4498","title":"谷乐滋","lon":"121.46466","lat":"31.207676","category":"247","category_name":"餐饮美食","address":"日月光"},{"poiid":"B2094655D36DA7FE4392","title":"肇家浜路打浦桥","lon":"121.4662","lat":"31.20458","category":"38","category_name":"公交车站","address":""},{"poiid":"B2094753D66EA4FE4399","title":"港汇恒隆广场","lon":"121.464528","lat":"31.207328","category":"500","category_name":"未知分类","address":"上海市 上海虹桥路1号"},{"poiid":"B2094750D565AAFB429B","title":"卡布蕾 日月光店","lon":"121.465827","lat":"31.207406","category":"113","category_name":"冷饮店","address":"卢湾区徐家汇路618号日月光中心1楼B05号铺(近瑞金二路)"},{"poiid":"B2094654DA6EA1FA4899","title":"星之游泳馆","lon":"121.4638","lat":"31.20696","category":"231","category_name":"游泳馆","address":""}]