[{"poiid":"B2094655D36DA7F44198","title":"莘庄地铁站","lon":"121.38465","lat":"31.11162","category":"36","category_name":"地铁站","address":"七莘路50号"},{"poiid":"B2094757DA64A2F9449D","title":"外婆家","lon":"121.38041168","lat":"31.11016523","category":"247","category_name":"餐饮美食","address":"闵行区都市路5001号仲盛世界商城4楼(近莘庄地铁南广场)"},{"poiid":"B2094757D06FAAFE4099","title":"闵行区人民政府","lon":"121.381676","lat":"31.11284","category":"47","category_name":"住宅区","address":"上海闵行区沪闵路6258号(近水清路)"},{"poiid":"B2094654DB6CABF94792","title":"上海闵行房地产交易市场","lon":"121.38121","lat":"31.11474","category":"248","category_name":"生活娱乐","address":"水清路159"},{"poiid":"B2094757D068A7FF4892","title":"闵行区人民政府证照办理中心","lon":"121.385272","lat":"31.112516","category":"500","category_name":"未知分类","address":"上海莘建东路201号"},{"poiid":"B2094655D26AA0F9449E","title":"地铁莘庄站","lon":"121.38477","lat":"31.11158","category":"36","category_name":"地铁站","address":"地铁莘庄站"},{"poiid":"B2094757D06FAAFC489B","title":"肯德基 KFC (莘建店)","lon":"121.384571","lat":"31.112091","category":"68","category_name":"快餐厅","address":"闵行区水清南路20号莘庄地铁北广场(碧秀路水清南路)"},{"poiid":"B2094757D068AAFB4098","title":"闵行区人民法院","lon":"121.383159757","lat":"31.1156017214","category":"608","category_name":"法院","address":"上海闵行区雅致路99号"},{"poiid":"B2094757D16EA7FD4399","title":"丰收日(莘庄龙之梦店)","lon":"121.37929765","lat":"31.113521582","category":"500","category_name":"未知分类","address":"上海市闵行区沪闵路6088号凯德龙之梦2F"},{"poiid":"B2094757D068ABFA419C","title":"中国建设银行(闵行支行)","lon":"121.38556385","lat":"31.115158665","category":"150","category_name":"银行","address":"闵行区沪闵路6555号(近莘庄地铁站)"},{"poiid":"B2094757D06FABF44993","title":"85度C(水清店)","lon":"121.38201","lat":"31.11471","category":"112","category_name":"糕饼店","address":"闵行区水清路276号(近雅致路)"},{"poiid":"B2094654DB6AA2FC4598","title":"锦江之星(莘庄店)","lon":"121.38341","lat":"31.11122","category":"216","category_name":"经济型连锁酒店","address":"闵行区水清南路19号(莘庄地铁站北广场)"},{"poiid":"B2094757D66EA4FE499C","title":"闵行区房产交易中心","lon":"121.38109685","lat":"31.113826638","category":"500","category_name":"未知分类","address":"上海市闵行区七莘路"},{"poiid":"B2094757D16FA0FF4992","title":"卡乐星","lon":"121.383371857","lat":"31.1136626356","category":"500","category_name":"未知分类","address":"上海莘庄龙之梦B1"},{"poiid":"B2094757D064A5FC409D","title":"许留山 (莘庄龙之梦店)","lon":"121.384234017","lat":"31.1134725118","category":"500","category_name":"未知分类","address":"上海闵行区沪闵路6088号凯德龙之梦B1"},{"poiid":"B2094655D36CA1FF409B","title":"水清路庙泾路","lon":"121.38098","lat":"31.11555","category":"38","category_name":"公交车站","address":""},{"poiid":"B2094757D465A5FF469E","title":"时光角落咖啡馆 Corner Cafe","lon":"121.38153971456","lat":"31.109362670664","category":"65","category_name":"咖啡厅","address":"闵行区莘建东路399弄26支弄54号(近莘庄地铁站北广场)"},{"poiid":"B2094654DB6CABFA4898","title":"中国农业银行水清南路支行","lon":"121.38384","lat":"31.11285","category":"150","category_name":"银行","address":"闵行区镇水清南路58号(碧秀路水清南路)"},{"poiid":"B2094757D16EA1F5489B","title":"味千拉面(莘庄龙之梦店)","lon":"121.38062575","lat":"31.109819058","category":"95","category_name":"日本料理","address":"闵行区沪闵路6088号莘庄凯德龙之梦购物中心内(近莘建路)"},{"poiid":"B2094654DB6CABFA489B","title":"中国农业银行上海市闵行支行","lon":"121.38341","lat":"31.11314","category":"150","category_name":"银行","address":"上海市闵行区莘建路1号(龙之梦对面)"},{"poiid":"B2094757D66BA0F54199","title":"烫我吧","lon":"121.38482","lat":"31.11188","category":"68","category_name":"快餐厅","address":"闵行区莘建东路58弄绿地广场101室(水清南路莘建东路)"},{"poiid":"B2094654DB6CABFA4992","title":"紫欣公寓","lon":"121.38437","lat":"31.11376","category":"47","category_name":"住宅区","address":"碧秀路98弄"},{"poiid":"B2094655D26FA3F4419B","title":"银霄大厦","lon":"121.38218","lat":"31.111526","category":"47","category_name":"住宅区","address":"沪闵路6259号"},{"poiid":"B2094654DB6CABFA479C","title":"上海市工商局闵行分局","lon":"121.38288","lat":"31.11408","category":"250","category_name":"公园户外","address":"沪闵路6388号"},{"poiid":"B2094654DB6AA3FA4098","title":"兜率宫 莘庄店","lon":"121.38253678735","lat":"31.109881856097","category":"86","category_name":"火锅店","address":"闵行区广贤路188号(近莘建东路)"},{"poiid":"B2094757D16CA1FC409E","title":"沪闵路水清路","lon":"121.382604641","lat":"31.1132050964","category":"500","category_name":"未知分类","address":"上海沪闵路水清路"},{"poiid":"B2094757D065A7FA499A","title":"Corner Cafe (时光角落)","lon":"121.38288687","lat":"31.110040673","category":"500","category_name":"未知分类","address":"上海薪建东路广贤路囗"},{"poiid":"B2094757D06BAAF94399","title":"闵行财会培训中心","lon":"121.382183","lat":"31.114079","category":"253","category_name":"校园生活","address":"上海水清路28号"},{"poiid":"B2094757D169AAFC439F","title":"青鹤谷韩国料理","lon":"121.38496915","lat":"31.113825838","category":"247","category_name":"餐饮美食","address":"上海莘庄广通路66号绿地蓝海"},{"poiid":"B2094654DB6CABFA4999","title":"上海市闵行区公证处","lon":"121.38437","lat":"31.11249","category":"250","category_name":"公园户外","address":"上海市闵行区莘建东路258号"},{"poiid":"B2094757D16CA3FD4198","title":"闵行区工商管理局","lon":"121.38221185","lat":"31.112338109","category":"500","category_name":"未知分类","address":"上海沪闵路6388号"},{"poiid":"B2094654DB6CABFA459A","title":"置业大厦","lon":"121.38269","lat":"31.1153","category":"46","category_name":"楼宇","address":"雅致路215"},{"poiid":"B2094654DB6CABF9479C","title":"锦江大厨","lon":"121.38337","lat":"31.11125","category":"257","category_name":"中餐厅","address":"水清南路19号"},{"poiid":"B2094654DB65AAFB4793","title":"金霄大厦","lon":"121.38218","lat":"31.111523","category":"47","category_name":"住宅区","address":"碧泉路36弄"},{"poiid":"B2094654DB65A7FA4399","title":"永琪美容美发(水清店)","lon":"121.38218","lat":"31.11366","category":"148","category_name":"美容美发店","address":"闵行区水清南路20号1楼(近莘庄地铁北广场)"},{"poiid":"B2094757D769A4FA4698","title":"好必来 莘建东路店","lon":"121.38482","lat":"31.11188","category":"68","category_name":"快餐厅","address":"闵行区莘建东路58弄绿地广场(近水清南路)"},{"poiid":"B2094654DB6CABF94293","title":"和大成弄堂小菜","lon":"121.38332","lat":"31.11069","category":"76","category_name":"上海菜","address":"闵行区莘建东路372号(近莘庄地铁站北广场)"},{"poiid":"B2094757D064A4FF499B","title":"阿玛尼莘庄店","lon":"121.384725155","lat":"31.1106801878","category":"500","category_name":"未知分类","address":"上海莘朱路27号"},{"poiid":"B2094757DB6FA1F94293","title":"七宝","lon":"121.381073","lat":"31.112209","category":"500","category_name":"未知分类","address":"七宝"},{"poiid":"B2094654DB6CABF9439F","title":"众众家园(莘建东路)","lon":"121.38296","lat":"31.11046","category":"47","category_name":"住宅区","address":"莘建东路399弄12支弄"},{"poiid":"B2094757D168A0FD4798","title":"索菲蜜斯SOMI冰淇淋(莘庄龙之梦店)","lon":"121.383632","lat":"31.111731","category":"500","category_name":"未知分类","address":"上海闵行区沪闵路6088号凯德龙之梦闵行B1"},{"poiid":"B2094655D26BA3FA4693","title":"国美电器莘建东路店","lon":"121.38426","lat":"31.11188","category":"138","category_name":"家电电子卖场","address":"闵行区莘建东路188号近莘庄地铁站北广场;;"},{"poiid":"B2094757D46FABFC4392","title":"石の屋","lon":"121.385521","lat":"31.112911","category":"112","category_name":"糕饼店","address":"闵行区莘建东路226号(近水清南路)"},{"poiid":"B2094757D66FA2FB459C","title":"锅师傅灶台土鸡","lon":"121.381170857","lat":"31.1153646697","category":"82","category_name":"东北菜","address":"闵行区水清路288号(近雅致路)"},{"poiid":"B2094654DB64A1FF4492","title":"永琪美容美发(莘建东路)","lon":"121.38483","lat":"31.11238","category":"148","category_name":"美容美发店","address":"水清南路20号"},{"poiid":"B2094757D16FA5F44393","title":"地铁明珠苑","lon":"121.38565","lat":"31.11343","category":"47","category_name":"住宅区","address":"地铁明珠苑位于闵行莘建东路198弄"},{"poiid":"B2094757D064A1F44799","title":"闵行区博物馆","lon":"121.38489105","lat":"31.111564755","category":"182","category_name":"博物馆","address":"闵行区名都路85号(近莘庄地铁站南广场)"},{"poiid":"B2094655D26FA3FA469D","title":"克莉丝汀饼屋","lon":"121.38477","lat":"31.11137","category":"112","category_name":"糕饼店","address":"闵行区莘建东路255号"},{"poiid":"B2094757D06BA6FF4498","title":"华联吉买盛(莘庄店)","lon":"121.385061716","lat":"31.1117236269","category":"119","category_name":"商场","address":"上海闵行区莘庄地铁站北广场"},{"poiid":"B2094752D768A1FD4998","title":"上海城市剧院","lon":"121.384562","lat":"31.112403","category":"500","category_name":"未知分类","address":"都市路4889号"},{"poiid":"B2094655D36DA7F44198","title":"莘庄地铁站","lon":"121.38465","lat":"31.11162","category":"36","category_name":"地铁站","address":"七莘路50号"},{"poiid":"B2094757DA64A2F9449D","title":"外婆家","lon":"121.38041168","lat":"31.11016523","category":"247","category_name":"餐饮美食","address":"闵行区都市路5001号仲盛世界商城4楼(近莘庄地铁南广场)"},{"poiid":"B2094757D06FAAFE4099","title":"闵行区人民政府","lon":"121.381676","lat":"31.11284","category":"47","category_name":"住宅区","address":"上海闵行区沪闵路6258号(近水清路)"},{"poiid":"B2094654DB6CABF94792","title":"上海闵行房地产交易市场","lon":"121.38121","lat":"31.11474","category":"248","category_name":"生活娱乐","address":"水清路159"},{"poiid":"B2094757D068A7FF4892","title":"闵行区人民政府证照办理中心","lon":"121.385272","lat":"31.112516","category":"500","category_name":"未知分类","address":"上海莘建东路201号"},{"poiid":"B2094655D26AA0F9449E","title":"地铁莘庄站","lon":"121.38477","lat":"31.11158","category":"36","category_name":"地铁站","address":"地铁莘庄站"},{"poiid":"B2094757D06FAAFC489B","title":"肯德基 KFC (莘建店)","lon":"121.384571","lat":"31.112091","category":"68","category_name":"快餐厅","address":"闵行区水清南路20号莘庄地铁北广场(碧秀路水清南路)"},{"poiid":"B2094757D068AAFB4098","title":"闵行区人民法院","lon":"121.383159757","lat":"31.1156017214","category":"608","category_name":"法院","address":"上海闵行区雅致路99号"},{"poiid":"B2094757D16EA7FD4399","title":"丰收日(莘庄龙之梦店)","lon":"121.37929765","lat":"31.113521582","category":"500","category_name":"未知分类","address":"上海市闵行区沪闵路6088号凯德龙之梦2F"},{"poiid":"B2094757D068ABFA419C","title":"中国建设银行(闵行支行)","lon":"121.38556385","lat":"31.115158665","category":"150","category_name":"银行","address":"闵行区沪闵路6555号(近莘庄地铁站)"},{"poiid":"B2094757D06FABF44993","title":"85度C(水清店)","lon":"121.38201","lat":"31.11471","category":"112","category_name":"糕饼店","address":"闵行区水清路276号(近雅致路)"},{"poiid":"B2094654DB6AA2FC4598","title":"锦江之星(莘庄店)","lon":"121.38341","lat":"31.11122","category":"216","category_name":"经济型连锁酒店","address":"闵行区水清南路19号(莘庄地铁站北广场)"},{"poiid":"B2094757D66EA4FE499C","title":"闵行区房产交易中心","lon":"121.38109685","lat":"31.113826638","category":"500","category_name":"未知分类","address":"上海市闵行区七莘路"},{"poiid":"B2094757D16FA0FF4992","title":"卡乐星","lon":"121.383371857","lat":"31.1136626356","category":"500","category_name":"未知分类","address":"上海莘庄龙之梦B1"},{"poiid":"B2094757D064A5FC409D","title":"许留山 (莘庄龙之梦店)","lon":"121.384234017","lat":"31.1134725118","category":"500","category_name":"未知分类","address":"上海闵行区沪闵路6088号凯德龙之梦B1"},{"poiid":"B2094655D36CA1FF409B","title":"水清路庙泾路","lon":"121.38098","lat":"31.11555","category":"38","category_name":"公交车站","address":""},{"poiid":"B2094757D465A5FF469E","title":"时光角落咖啡馆 Corner Cafe","lon":"121.38153971456","lat":"31.109362670664","category":"65","category_name":"咖啡厅","address":"闵行区莘建东路399弄26支弄54号(近莘庄地铁站北广场)"},{"poiid":"B2094654DB6CABFA4898","title":"中国农业银行水清南路支行","lon":"121.38384","lat":"31.11285","category":"150","category_name":"银行","address":"闵行区镇水清南路58号(碧秀路水清南路)"},{"poiid":"B2094757D16EA1F5489B","title":"味千拉面(莘庄龙之梦店)","lon":"121.38062575","lat":"31.109819058","category":"95","category_name":"日本料理","address":"闵行区沪闵路6088号莘庄凯德龙之梦购物中心内(近莘建路)"},{"poiid":"B2094654DB6CABFA489B","title":"中国农业银行上海市闵行支行","lon":"121.38341","lat":"31.11314","category":"150","category_name":"银行","address":"上海市闵行区莘建路1号(龙之梦对面)"},{"poiid":"B2094757D66BA0F54199","title":"烫我吧","lon":"121.38482","lat":"31.11188","category":"68","category_name":"快餐厅","address":"闵行区莘建东路58弄绿地广场101室(水清南路莘建东路)"},{"poiid":"B2094654DB6CABFA4992","title":"紫欣公寓","lon":"121.38437","lat":"31.11376","category":"47","category_name":"住宅区","address":"碧秀路98弄"},{"poiid":"B2094655D26FA3F4419B","title":"银霄大厦","lon":"121.38218","lat":"31.111526","category":"47","category_name":"住宅区","address":"沪闵路6259号"},{"poiid":"B2094654DB6CABFA479C","title":"上海市工商局闵行分局","lon":"121.38288","lat":"31.11408","category":"250","category_name":"公园户外","address":"沪闵路6388号"},{"poiid":"B2094654DB6AA3FA4098","title":"兜率宫 莘庄店","lon":"121.38253678735","lat":"31.109881856097","category":"86","category_name":"火锅店","address":"闵行区广贤路188号(近莘建东路)"},{"poiid":"B2094757D16CA1FC409E","title":"沪闵路水清路","lon":"121.382604641","lat":"31.1132050964","category":"500","category_name":"未知分类","address":"上海沪闵路水清路"},{"poiid":"B2094757D065A7FA499A","title":"Corner Cafe (时光角落)","lon":"121.38288687","lat":"31.110040673","category":"500","category_name":"未知分类","address":"上海薪建东路广贤路囗"},{"poiid":"B2094757D06BAAF94399","title":"闵行财会培训中心","lon":"121.382183","lat":"31.114079","category":"253","category_name":"校园生活","address":"上海水清路28号"},{"poiid":"B2094757D169AAFC439F","title":"青鹤谷韩国料理","lon":"121.38496915","lat":"31.113825838","category":"247","category_name":"餐饮美食","address":"上海莘庄广通路66号绿地蓝海"},{"poiid":"B2094654DB6CABFA4999","title":"上海市闵行区公证处","lon":"121.38437","lat":"31.11249","category":"250","category_name":"公园户外","address":"上海市闵行区莘建东路258号"},{"poiid":"B2094757D16CA3FD4198","title":"闵行区工商管理局","lon":"121.38221185","lat":"31.112338109","category":"500","category_name":"未知分类","address":"上海沪闵路6388号"},{"poiid":"B2094654DB6CABFA459A","title":"置业大厦","lon":"121.38269","lat":"31.1153","category":"46","category_name":"楼宇","address":"雅致路215"},{"poiid":"B2094654DB6CABF9479C","title":"锦江大厨","lon":"121.38337","lat":"31.11125","category":"257","category_name":"中餐厅","address":"水清南路19号"},{"poiid":"B2094654DB65AAFB4793","title":"金霄大厦","lon":"121.38218","lat":"31.111523","category":"47","category_name":"住宅区","address":"碧泉路36弄"},{"poiid":"B2094654DB65A7FA4399","title":"永琪美容美发(水清店)","lon":"121.38218","lat":"31.11366","category":"148","category_name":"美容美发店","address":"闵行区水清南路20号1楼(近莘庄地铁北广场)"},{"poiid":"B2094757D769A4FA4698","title":"好必来 莘建东路店","lon":"121.38482","lat":"31.11188","category":"68","category_name":"快餐厅","address":"闵行区莘建东路58弄绿地广场(近水清南路)"},{"poiid":"B2094654DB6CABF94293","title":"和大成弄堂小菜","lon":"121.38332","lat":"31.11069","category":"76","category_name":"上海菜","address":"闵行区莘建东路372号(近莘庄地铁站北广场)"},{"poiid":"B2094757D064A4FF499B","title":"阿玛尼莘庄店","lon":"121.384725155","lat":"31.1106801878","category":"500","category_name":"未知分类","address":"上海莘朱路27号"},{"poiid":"B2094757DB6FA1F94293","title":"七宝","lon":"121.381073","lat":"31.112209","category":"500","category_name":"未知分类","address":"七宝"},{"poiid":"B2094654DB6CABF9439F","title":"众众家园(莘建东路)","lon":"121.38296","lat":"31.11046","category":"47","category_name":"住宅区","address":"莘建东路399弄12支弄"},{"poiid":"B2094757D168A0FD4798","title":"索菲蜜斯SOMI冰淇淋(莘庄龙之梦店)","lon":"121.383632","lat":"31.111731","category":"500","category_name":"未知分类","address":"上海闵行区沪闵路6088号凯德龙之梦闵行B1"},{"poiid":"B2094655D26BA3FA4693","title":"国美电器莘建东路店","lon":"121.38426","lat":"31.11188","category":"138","category_name":"家电电子卖场","address":"闵行区莘建东路188号近莘庄地铁站北广场;;"},{"poiid":"B2094757D46FABFC4392","title":"石の屋","lon":"121.385521","lat":"31.112911","category":"112","category_name":"糕饼店","address":"闵行区莘建东路226号(近水清南路)"},{"poiid":"B2094757D66FA2FB459C","title":"锅师傅灶台土鸡","lon":"121.381170857","lat":"31.1153646697","category":"82","category_name":"东北菜","address":"闵行区水清路288号(近雅致路)"},{"poiid":"B2094654DB64A1FF4492","title":"永琪美容美发(莘建东路)","lon":"121.38483","lat":"31.11238","category":"148","category_name":"美容美发店","address":"水清南路20号"},{"poiid":"B2094757D16FA5F44393","title":"地铁明珠苑","lon":"121.38565","lat":"31.11343","category":"47","category_name":"住宅区","address":"地铁明珠苑位于闵行莘建东路198弄"},{"poiid":"B2094757D064A1F44799","title":"闵行区博物馆","lon":"121.38489105","lat":"31.111564755","category":"182","category_name":"博物馆","address":"闵行区名都路85号(近莘庄地铁站南广场)"},{"poiid":"B2094655D26FA3FA469D","title":"克莉丝汀饼屋","lon":"121.38477","lat":"31.11137","category":"112","category_name":"糕饼店","address":"闵行区莘建东路255号"},{"poiid":"B2094757D06BA6FF4498","title":"华联吉买盛(莘庄店)","lon":"121.385061716","lat":"31.1117236269","category":"119","category_name":"商场","address":"上海闵行区莘庄地铁站北广场"},{"poiid":"B2094752D768A1FD4998","title":"上海城市剧院","lon":"121.384562","lat":"31.112403","category":"500","category_name":"未知分类","address":"都市路4889号"},{"poiid":"B2094655D36DA7F44198","title":"莘庄地铁站","lon":"121.38465","lat":"31.11162","category":"36","category_name":"地铁站","address":"七莘路50号"},{"poiid":"B2094757DA64A2F9449D","title":"外婆家","lon":"121.38041168","lat":"31.11016523","category":"247","category_name":"餐饮美食","address":"闵行区都市路5001号仲盛世界商城4楼(近莘庄地铁南广场)"},{"poiid":"B2094757D06FAAFE4099","title":"闵行区人民政府","lon":"121.381676","lat":"31.11284","category":"47","category_name":"住宅区","address":"上海闵行区沪闵路6258号(近水清路)"},{"poiid":"B2094654DB6CABF94792","title":"上海闵行房地产交易市场","lon":"121.38121","lat":"31.11474","category":"248","category_name":"生活娱乐","address":"水清路159"},{"poiid":"B2094757D068A7FF4892","title":"闵行区人民政府证照办理中心","lon":"121.385272","lat":"31.112516","category":"500","category_name":"未知分类","address":"上海莘建东路201号"},{"poiid":"B2094655D26AA0F9449E","title":"地铁莘庄站","lon":"121.38477","lat":"31.11158","category":"36","category_name":"地铁站","address":"地铁莘庄站"},{"poiid":"B2094757D06FAAFC489B","title":"肯德基 KFC (莘建店)","lon":"121.384571","lat":"31.112091","category":"68","category_name":"快餐厅","address":"闵行区水清南路20号莘庄地铁北广场(碧秀路水清南路)"},{"poiid":"B2094757D068AAFB4098","title":"闵行区人民法院","lon":"121.383159757","lat":"31.1156017214","category":"608","category_name":"法院","address":"上海闵行区雅致路99号"},{"poiid":"B2094757D16EA7FD4399","title":"丰收日(莘庄龙之梦店)","lon":"121.37929765","lat":"31.113521582","category":"500","category_name":"未知分类","address":"上海市闵行区沪闵路6088号凯德龙之梦2F"},{"poiid":"B2094757D068ABFA419C","title":"中国建设银行(闵行支行)","lon":"121.38556385","lat":"31.115158665","category":"150","category_name":"银行","address":"闵行区沪闵路6555号(近莘庄地铁站)"},{"poiid":"B2094757D06FABF44993","title":"85度C(水清店)","lon":"121.38201","lat":"31.11471","category":"112","category_name":"糕饼店","address":"闵行区水清路276号(近雅致路)"},{"poiid":"B2094654DB6AA2FC4598","title":"锦江之星(莘庄店)","lon":"121.38341","lat":"31.11122","category":"216","category_name":"经济型连锁酒店","address":"闵行区水清南路19号(莘庄地铁站北广场)"},{"poiid":"B2094757D66EA4FE499C","title":"闵行区房产交易中心","lon":"121.38109685","lat":"31.113826638","category":"500","category_name":"未知分类","address":"上海市闵行区七莘路"},{"poiid":"B2094757D16FA0FF4992","title":"卡乐星","lon":"121.383371857","lat":"31.1136626356","category":"500","category_name":"未知分类","address":"上海莘庄龙之梦B1"},{"poiid":"B2094757D064A5FC409D","title":"许留山 (莘庄龙之梦店)","lon":"121.384234017","lat":"31.1134725118","category":"500","category_name":"未知分类","address":"上海闵行区沪闵路6088号凯德龙之梦B1"},{"poiid":"B2094655D36CA1FF409B","title":"水清路庙泾路","lon":"121.38098","lat":"31.11555","category":"38","category_name":"公交车站","address":""},{"poiid":"B2094757D465A5FF469E","title":"时光角落咖啡馆 Corner Cafe","lon":"121.38153971456","lat":"31.109362670664","category":"65","category_name":"咖啡厅","address":"闵行区莘建东路399弄26支弄54号(近莘庄地铁站北广场)"},{"poiid":"B2094654DB6CABFA4898","title":"中国农业银行水清南路支行","lon":"121.38384","lat":"31.11285","category":"150","category_name":"银行","address":"闵行区镇水清南路58号(碧秀路水清南路)"},{"poiid":"B2094757D16EA1F5489B","title":"味千拉面(莘庄龙之梦店)","lon":"121.38062575","lat":"31.109819058","category":"95","category_name":"日本料理","address":"闵行区沪闵路6088号莘庄凯德龙之梦购物中心内(近莘建路)"},{"poiid":"B2094654DB6CABFA489B","title":"中国农业银行上海市闵行支行","lon":"121.38341","lat":"31.11314","category":"150","category_name":"银行","address":"上海市闵行区莘建路1号(龙之梦对面)"},{"poiid":"B2094757D66BA0F54199","title":"烫我吧","lon":"121.38482","lat":"31.11188","category":"68","category_name":"快餐厅","address":"闵行区莘建东路58弄绿地广场101室(水清南路莘建东路)"},{"poiid":"B2094654DB6CABFA4992","title":"紫欣公寓","lon":"121.38437","lat":"31.11376","category":"47","category_name":"住宅区","address":"碧秀路98弄"},{"poiid":"B2094655D26FA3F4419B","title":"银霄大厦","lon":"121.38218","lat":"31.111526","category":"47","category_name":"住宅区","address":"沪闵路6259号"},{"poiid":"B2094654DB6CABFA479C","title":"上海市工商局闵行分局","lon":"121.38288","lat":"31.11408","category":"250","category_name":"公园户外","address":"沪闵路6388号"},{"poiid":"B2094654DB6AA3FA4098","title":"兜率宫 莘庄店","lon":"121.38253678735","lat":"31.109881856097","category":"86","category_name":"火锅店","address":"闵行区广贤路188号(近莘建东路)"},{"poiid":"B2094757D16CA1FC409E","title":"沪闵路水清路","lon":"121.382604641","lat":"31.1132050964","category":"500","category_name":"未知分类","address":"上海沪闵路水清路"},{"poiid":"B2094757D065A7FA499A","title":"Corner Cafe (时光角落)","lon":"121.38288687","lat":"31.110040673","category":"500","category_name":"未知分类","address":"上海薪建东路广贤路囗"},{"poiid":"B2094757D06BAAF94399","title":"闵行财会培训中心","lon":"121.382183","lat":"31.114079","category":"253","category_name":"校园生活","address":"上海水清路28号"},{"poiid":"B2094757D169AAFC439F","title":"青鹤谷韩国料理","lon":"121.38496915","lat":"31.113825838","category":"247","category_name":"餐饮美食","address":"上海莘庄广通路66号绿地蓝海"},{"poiid":"B2094654DB6CABFA4999","title":"上海市闵行区公证处","lon":"121.38437","lat":"31.11249","category":"250","category_name":"公园户外","address":"上海市闵行区莘建东路258号"},{"poiid":"B2094757D16CA3FD4198","title":"闵行区工商管理局","lon":"121.38221185","lat":"31.112338109","category":"500","category_name":"未知分类","address":"上海沪闵路6388号"},{"poiid":"B2094654DB6CABFA459A","title":"置业大厦","lon":"121.38269","lat":"31.1153","category":"46","category_name":"楼宇","address":"雅致路215"},{"poiid":"B2094654DB6CABF9479C","title":"锦江大厨","lon":"121.38337","lat":"31.11125","category":"257","category_name":"中餐厅","address":"水清南路19号"},{"poiid":"B2094654DB65AAFB4793","title":"金霄大厦","lon":"121.38218","lat":"31.111523","category":"47","category_name":"住宅区","address":"碧泉路36弄"},{"poiid":"B2094654DB65A7FA4399","title":"永琪美容美发(水清店)","lon":"121.38218","lat":"31.11366","category":"148","category_name":"美容美发店","address":"闵行区水清南路20号1楼(近莘庄地铁北广场)"},{"poiid":"B2094757D769A4FA4698","title":"好必来 莘建东路店","lon":"121.38482","lat":"31.11188","category":"68","category_name":"快餐厅","address":"闵行区莘建东路58弄绿地广场(近水清南路)"},{"poiid":"B2094654DB6CABF94293","title":"和大成弄堂小菜","lon":"121.38332","lat":"31.11069","category":"76","category_name":"上海菜","address":"闵行区莘建东路372号(近莘庄地铁站北广场)"},{"poiid":"B2094757D064A4FF499B","title":"阿玛尼莘庄店","lon":"121.384725155","lat":"31.1106801878","category":"500","category_name":"未知分类","address":"上海莘朱路27号"},{"poiid":"B2094757DB6FA1F94293","title":"七宝","lon":"121.381073","lat":"31.112209","category":"500","category_name":"未知分类","address":"七宝"},{"poiid":"B2094654DB6CABF9439F","title":"众众家园(莘建东路)","lon":"121.38296","lat":"31.11046","category":"47","category_name":"住宅区","address":"莘建东路399弄12支弄"},{"poiid":"B2094757D168A0FD4798","title":"索菲蜜斯SOMI冰淇淋(莘庄龙之梦店)","lon":"121.383632","lat":"31.111731","category":"500","category_name":"未知分类","address":"上海闵行区沪闵路6088号凯德龙之梦闵行B1"},{"poiid":"B2094655D26BA3FA4693","title":"国美电器莘建东路店","lon":"121.38426","lat":"31.11188","category":"138","category_name":"家电电子卖场","address":"闵行区莘建东路188号近莘庄地铁站北广场;;"},{"poiid":"B2094757D46FABFC4392","title":"石の屋","lon":"121.385521","lat":"31.112911","category":"112","category_name":"糕饼店","address":"闵行区莘建东路226号(近水清南路)"},{"poiid":"B2094757D66FA2FB459C","title":"锅师傅灶台土鸡","lon":"121.381170857","lat":"31.1153646697","category":"82","category_name":"东北菜","address":"闵行区水清路288号(近雅致路)"},{"poiid":"B2094654DB64A1FF4492","title":"永琪美容美发(莘建东路)","lon":"121.38483","lat":"31.11238","category":"148","category_name":"美容美发店","address":"水清南路20号"},{"poiid":"B2094757D16FA5F44393","title":"地铁明珠苑","lon":"121.38565","lat":"31.11343","category":"47","category_name":"住宅区","address":"地铁明珠苑位于闵行莘建东路198弄"},{"poiid":"B2094757D064A1F44799","title":"闵行区博物馆","lon":"121.38489105","lat":"31.111564755","category":"182","category_name":"博物馆","address":"闵行区名都路85号(近莘庄地铁站南广场)"},{"poiid":"B2094655D26FA3FA469D","title":"克莉丝汀饼屋","lon":"121.38477","lat":"31.11137","category":"112","category_name":"糕饼店","address":"闵行区莘建东路255号"},{"poiid":"B2094757D06BA6FF4498","title":"华联吉买盛(莘庄店)","lon":"121.385061716","lat":"31.1117236269","category":"119","category_name":"商场","address":"上海闵行区莘庄地铁站北广场"},{"poiid":"B2094752D768A1FD4998","title":"上海城市剧院","lon":"121.384562","lat":"31.112403","category":"500","category_name":"未知分类","address":"都市路4889号"},{"poiid":"B2094655D36DA7F44198","title":"莘庄地铁站","lon":"121.38465","lat":"31.11162","category":"36","category_name":"地铁站","address":"七莘路50号"},{"poiid":"B2094757DA64A2F9449D","title":"外婆家","lon":"121.38041168","lat":"31.11016523","category":"247","category_name":"餐饮美食","address":"闵行区都市路5001号仲盛世界商城4楼(近莘庄地铁南广场)"},{"poiid":"B2094757D06FAAFE4099","title":"闵行区人民政府","lon":"121.381676","lat":"31.11284","category":"47","category_name":"住宅区","address":"上海闵行区沪闵路6258号(近水清路)"},{"poiid":"B2094654DB6CABF94792","title":"上海闵行房地产交易市场","lon":"121.38121","lat":"31.11474","category":"248","category_name":"生活娱乐","address":"水清路159"},{"poiid":"B2094757D068A7FF4892","title":"闵行区人民政府证照办理中心","lon":"121.385272","lat":"31.112516","category":"500","category_name":"未知分类","address":"上海莘建东路201号"},{"poiid":"B2094655D26AA0F9449E","title":"地铁莘庄站","lon":"121.38477","lat":"31.11158","category":"36","category_name":"地铁站","address":"地铁莘庄站"},{"poiid":"B2094757D06FAAFC489B","title":"肯德基 KFC (莘建店)","lon":"121.384571","lat":"31.112091","category":"68","category_name":"快餐厅","address":"闵行区水清南路20号莘庄地铁北广场(碧秀路水清南路)"},{"poiid":"B2094757D068AAFB4098","title":"闵行区人民法院","lon":"121.383159757","lat":"31.1156017214","category":"608","category_name":"法院","address":"上海闵行区雅致路99号"},{"poiid":"B2094757D16EA7FD4399","title":"丰收日(莘庄龙之梦店)","lon":"121.37929765","lat":"31.113521582","category":"500","category_name":"未知分类","address":"上海市闵行区沪闵路6088号凯德龙之梦2F"},{"poiid":"B2094757D068ABFA419C","title":"中国建设银行(闵行支行)","lon":"121.38556385","lat":"31.115158665","category":"150","category_name":"银行","address":"闵行区沪闵路6555号(近莘庄地铁站)"},{"poiid":"B2094757D06FABF44993","title":"85度C(水清店)","lon":"121.38201","lat":"31.11471","category":"112","category_name":"糕饼店","address":"闵行区水清路276号(近雅致路)"},{"poiid":"B2094654DB6AA2FC4598","title":"锦江之星(莘庄店)","lon":"121.38341","lat":"31.11122","category":"216","category_name":"经济型连锁酒店","address":"闵行区水清南路19号(莘庄地铁站北广场)"},{"poiid":"B2094757D66EA4FE499C","title":"闵行区房产交易中心","lon":"121.38109685","lat":"31.113826638","category":"500","category_name":"未知分类","address":"上海市闵行区七莘路"},{"poiid":"B2094757D16FA0FF4992","title":"卡乐星","lon":"121.383371857","lat":"31.1136626356","category":"500","category_name":"未知分类","address":"上海莘庄龙之梦B1"},{"poiid":"B2094757D064A5FC409D","title":"许留山 (莘庄龙之梦店)","lon":"121.384234017","lat":"31.1134725118","category":"500","category_name":"未知分类","address":"上海闵行区沪闵路6088号凯德龙之梦B1"},{"poiid":"B2094655D36CA1FF409B","title":"水清路庙泾路","lon":"121.38098","lat":"31.11555","category":"38","category_name":"公交车站","address":""},{"poiid":"B2094757D465A5FF469E","title":"时光角落咖啡馆 Corner Cafe","lon":"121.38153971456","lat":"31.109362670664","category":"65","category_name":"咖啡厅","address":"闵行区莘建东路399弄26支弄54号(近莘庄地铁站北广场)"},{"poiid":"B2094654DB6CABFA4898","title":"中国农业银行水清南路支行","lon":"121.38384","lat":"31.11285","category":"150","category_name":"银行","address":"闵行区镇水清南路58号(碧秀路水清南路)"},{"poiid":"B2094757D16EA1F5489B","title":"味千拉面(莘庄龙之梦店)","lon":"121.38062575","lat":"31.109819058","category":"95","category_name":"日本料理","address":"闵行区沪闵路6088号莘庄凯德龙之梦购物中心内(近莘建路)"},{"poiid":"B2094654DB6CABFA489B","title":"中国农业银行上海市闵行支行","lon":"121.38341","lat":"31.11314","category":"150","category_name":"银行","address":"上海市闵行区莘建路1号(龙之梦对面)"},{"poiid":"B2094757D66BA0F54199","title":"烫我吧","lon":"121.38482","lat":"31.11188","category":"68","category_name":"快餐厅","address":"闵行区莘建东路58弄绿地广场101室(水清南路莘建东路)"},{"poiid":"B2094654DB6CABFA4992","title":"紫欣公寓","lon":"121.38437","lat":"31.11376","category":"47","category_name":"住宅区","address":"碧秀路98弄"},{"poiid":"B2094655D26FA3F4419B","title":"银霄大厦","lon":"121.38218","lat":"31.111526","category":"47","category_name":"住宅区","address":"沪闵路6259号"},{"poiid":"B2094654DB6CABFA479C","title":"上海市工商局闵行分局","lon":"121.38288","lat":"31.11408","category":"250","category_name":"公园户外","address":"沪闵路6388号"},{"poiid":"B2094654DB6AA3FA4098","title":"兜率宫 莘庄店","lon":"121.38253678735","lat":"31.109881856097","category":"86","category_name":"火锅店","address":"闵行区广贤路188号(近莘建东路)"},{"poiid":"B2094757D16CA1FC409E","title":"沪闵路水清路","lon":"121.382604641","lat":"31.1132050964","category":"500","category_name":"未知分类","address":"上海沪闵路水清路"},{"poiid":"B2094757D065A7FA499A","title":"Corner Cafe (时光角落)","lon":"121.38288687","lat":"31.110040673","category":"500","category_name":"未知分类","address":"上海薪建东路广贤路囗"},{"poiid":"B2094757D06BAAF94399","title":"闵行财会培训中心","lon":"121.382183","lat":"31.114079","category":"253","category_name":"校园生活","address":"上海水清路28号"},{"poiid":"B2094757D169AAFC439F","title":"青鹤谷韩国料理","lon":"121.38496915","lat":"31.113825838","category":"247","category_name":"餐饮美食","address":"上海莘庄广通路66号绿地蓝海"},{"poiid":"B2094654DB6CABFA4999","title":"上海市闵行区公证处","lon":"121.38437","lat":"31.11249","category":"250","category_name":"公园户外","address":"上海市闵行区莘建东路258号"},{"poiid":"B2094757D16CA3FD4198","title":"闵行区工商管理局","lon":"121.38221185","lat":"31.112338109","category":"500","category_name":"未知分类","address":"上海沪闵路6388号"},{"poiid":"B2094654DB6CABFA459A","title":"置业大厦","lon":"121.38269","lat":"31.1153","category":"46","category_name":"楼宇","address":"雅致路215"},{"poiid":"B2094654DB6CABF9479C","title":"锦江大厨","lon":"121.38337","lat":"31.11125","category":"257","category_name":"中餐厅","address":"水清南路19号"},{"poiid":"B2094654DB65AAFB4793","title":"金霄大厦","lon":"121.38218","lat":"31.111523","category":"47","category_name":"住宅区","address":"碧泉路36弄"},{"poiid":"B2094654DB65A7FA4399","title":"永琪美容美发(水清店)","lon":"121.38218","lat":"31.11366","category":"148","category_name":"美容美发店","address":"闵行区水清南路20号1楼(近莘庄地铁北广场)"},{"poiid":"B2094757D769A4FA4698","title":"好必来 莘建东路店","lon":"121.38482","lat":"31.11188","category":"68","category_name":"快餐厅","address":"闵行区莘建东路58弄绿地广场(近水清南路)"},{"poiid":"B2094654DB6CABF94293","title":"和大成弄堂小菜","lon":"121.38332","lat":"31.11069","category":"76","category_name":"上海菜","address":"闵行区莘建东路372号(近莘庄地铁站北广场)"},{"poiid":"B2094757D064A4FF499B","title":"阿玛尼莘庄店","lon":"121.384725155","lat":"31.1106801878","category":"500","category_name":"未知分类","address":"上海莘朱路27号"},{"poiid":"B2094757DB6FA1F94293","title":"七宝","lon":"121.381073","lat":"31.112209","category":"500","category_name":"未知分类","address":"七宝"},{"poiid":"B2094654DB6CABF9439F","title":"众众家园(莘建东路)","lon":"121.38296","lat":"31.11046","category":"47","category_name":"住宅区","address":"莘建东路399弄12支弄"},{"poiid":"B2094757D168A0FD4798","title":"索菲蜜斯SOMI冰淇淋(莘庄龙之梦店)","lon":"121.383632","lat":"31.111731","category":"500","category_name":"未知分类","address":"上海闵行区沪闵路6088号凯德龙之梦闵行B1"},{"poiid":"B2094655D26BA3FA4693","title":"国美电器莘建东路店","lon":"121.38426","lat":"31.11188","category":"138","category_name":"家电电子卖场","address":"闵行区莘建东路188号近莘庄地铁站北广场;;"},{"poiid":"B2094757D46FABFC4392","title":"石の屋","lon":"121.385521","lat":"31.112911","category":"112","category_name":"糕饼店","address":"闵行区莘建东路226号(近水清南路)"},{"poiid":"B2094757D66FA2FB459C","title":"锅师傅灶台土鸡","lon":"121.381170857","lat":"31.1153646697","category":"82","category_name":"东北菜","address":"闵行区水清路288号(近雅致路)"},{"poiid":"B2094654DB64A1FF4492","title":"永琪美容美发(莘建东路)","lon":"121.38483","lat":"31.11238","category":"148","category_name":"美容美发店","address":"水清南路20号"},{"poiid":"B2094757D16FA5F44393","title":"地铁明珠苑","lon":"121.38565","lat":"31.11343","category":"47","category_name":"住宅区","address":"地铁明珠苑位于闵行莘建东路198弄"},{"poiid":"B2094757D064A1F44799","title":"闵行区博物馆","lon":"121.38489105","lat":"31.111564755","category":"182","category_name":"博物馆","address":"闵行区名都路85号(近莘庄地铁站南广场)"},{"poiid":"B2094655D26FA3FA469D","title":"克莉丝汀饼屋","lon":"121.38477","lat":"31.11137","category":"112","category_name":"糕饼店","address":"闵行区莘建东路255号"},{"poiid":"B2094757D06BA6FF4498","title":"华联吉买盛(莘庄店)","lon":"121.385061716","lat":"31.1117236269","category":"119","category_name":"商场","address":"上海闵行区莘庄地铁站北广场"},{"poiid":"B2094752D768A1FD4998","title":"上海城市剧院","lon":"121.384562","lat":"31.112403","category":"500","category_name":"未知分类","address":"都市路4889号"}]