[{"poiid":"B2094757D06FA1F54699","title":"解放军第八五医院","lon":"121.43293","lat":"31.2085","category":"162","category_name":"医院","address":"上海徐汇区华山路1328号(近江苏路)"},{"poiid":"B2094757D06FA0F54899","title":"华山绿地","lon":"121.43312","lat":"31.2059","category":"196","category_name":"公园","address":"长宁区华山路平武路(近幸福路)"},{"poiid":"B2094757D068A2FA419F","title":"幸福路","lon":"121.431038586","lat":"31.2040639193","category":"260","category_name":"其他","address":"上海市长宁区幸福路"},{"poiid":"B2094757D06FA6FC419E","title":"The Chowhaus","lon":"121.433561","lat":"31.206829","category":"110","category_name":"其他亚洲菜","address":"徐汇区华山路1415号(近湖南路)"},{"poiid":"B2094757DA6EAAFC4198","title":"Aroom","lon":"121.435461000002","lat":"31.2060190000001","category":"260","category_name":"其他","address":"徐汇区泰安路120弄卫乐园15号(近华山路)"},{"poiid":"B2094757D06FA2FB439D","title":"星巴克(华山国际店)","lon":"121.433629","lat":"31.205356","category":"260","category_name":"其他","address":"徐汇区华山路1568号华山国际大厦102座(近华山绿地)"},{"poiid":"B2094757D469A3F9469E","title":"素人素食","lon":"121.434384","lat":"31.203704","category":"89","category_name":"中式素餐馆","address":"徐汇区华山路1585号(泰安路淮海西路)"},{"poiid":"B2094757D66AA6F4499F","title":"霖霖小馆","lon":"121.431010054","lat":"31.204837793","category":"86","category_name":"火锅店","address":"长宁区幸福路115号(近法华镇路)"},{"poiid":"B2094654D564A6FC409F","title":"复旦中学","lon":"121.43437","lat":"31.20306","category":"55","category_name":"中学","address":"徐汇区华山路1626号(近淮海西路)"},{"poiid":"B2094757D169ABF54599","title":"泰安路兴国路","lon":"121.43685808","lat":"31.205923289","category":"46","category_name":"楼宇","address":"上海泰安路兴国路"},{"poiid":"B2094757D06AAAF5409D","title":"酷芝PIZZA COOLZEY","lon":"121.43455421439","lat":"31.20311280591","category":"94","category_name":"西餐厅","address":"徐汇区华山路1589号3号(近淮海中路)"},{"poiid":"B2094757DA6EABF94799","title":"DADA BAR","lon":"121.431254999998","lat":"31.205202","category":"260","category_name":"其他","address":"长宁区幸福路115号(近华山路)"},{"poiid":"B2094757D16AAAF94398","title":"华山路","lon":"121.43305858","lat":"31.206015957","category":"500","category_name":"未知分类","address":"上海市华山路淮海西路"},{"poiid":"B2094750D26AABFC499B","title":"澄园","lon":"121.434806","lat":"31.204935","category":"260","category_name":"其他","address":"徐汇区泰安路115弄1号楼101室(近华山路)"},{"poiid":"B2094757D16BA4FD449C","title":"法华镇路番禺路","lon":"121.43102358","lat":"31.203950917","category":"500","category_name":"未知分类","address":"上海法华镇路番禺路"},{"poiid":"B2094757D464A7FD4699","title":"MARDI GRAS","lon":"121.436810054","lat":"31.205342793","category":"94","category_name":"西餐厅","address":"徐汇区兴国路372弄1号(近泰安路)"},{"poiid":"B2094757D06AA2FC409F","title":"复旦中学羽毛球馆","lon":"121.433770759","lat":"31.2032934808","category":"253","category_name":"校园生活","address":"上海徐汇区华山路1626号复旦中学体育馆内(近淮海西路)"},{"poiid":"B2094654DB69A7FB449D","title":"华山国际","lon":"121.43312","lat":"31.20492","category":"47","category_name":"住宅区","address":"上海市长宁区华山路1568号"},{"poiid":"B2094655D26FA5FB4598","title":"缇咖园","lon":"121.436985054","lat":"31.205757793","category":"94","category_name":"西餐厅","address":"徐汇区泰安路50号(兴国路口)"},{"poiid":"B2094757D06AA5FB4599","title":"财瑞大厦","lon":"121.433553","lat":"31.205167","category":"46","category_name":"楼宇","address":"上海市长宁区华山路1568号"},{"poiid":"B2094655D36CA7FC4392","title":"华山路湖南路","lon":"121.43341","lat":"31.20657","category":"38","category_name":"公交车站","address":"湖南路266号"},{"poiid":"B2094757D56DA3FC479F","title":"咸淡江湖","lon":"121.43153443086","lat":"31.206283509265","category":"71","category_name":"四川菜","address":"长宁区幸福路110号(近华山路)"},{"poiid":"B2094655D26BABFC4598","title":"景信商务楼","lon":"121.433397","lat":"31.205113","category":"46","category_name":"楼宇","address":"长宁华山路156"},{"poiid":"B2094757D06AA2FA429B","title":"ARCHIE'S PUB","lon":"121.43290973","lat":"31.205154121","category":"172","category_name":"酒吧","address":"长宁区华山路1520弄15号虹景公寓酒店(近泰安路)"},{"poiid":"B2094654DA6DA3FA489B","title":"南洋大楼","lon":"121.436","lat":"31.2052","category":"46","category_name":"楼宇","address":"徐汇区番禺路667号"},{"poiid":"B2094654D564A6FE4593","title":"华山嘉苑","lon":"121.43267","lat":"31.204996","category":"47","category_name":"住宅区","address":"上海市闵行区虹梅路2899弄"},{"poiid":"B2094757D06FA1FA4992","title":"新华街道社區衛生服務中心","lon":"121.433728","lat":"31.206158","category":"500","category_name":"未知分类","address":"上海市华山路1467号"},{"poiid":"B2094757D065A1FE4392","title":"空中花园","lon":"121.433259686","lat":"31.2054591133","category":"47","category_name":"住宅区","address":"上海宝庆路10号7楼"},{"poiid":"B2094654DB65A6F9489E","title":"淮海世纪花苑","lon":"121.43295868732","lat":"31.20524911612","category":"47","category_name":"住宅区","address":"淮海西路358弄1-5号"},{"poiid":"B2094757D06BAAFF479D","title":"香奈造型(上海影城店)","lon":"121.43309858","lat":"31.202635891","category":"148","category_name":"美容美发店","address":"上海市长宁区法华镇路59号近淮海西路华山路(预约电话"},{"poiid":"B2094750DA6EA2FE4092","title":"La Petit Saleya","lon":"121.43402","lat":"31.204891","category":"247","category_name":"餐饮美食","address":"泰安路139号"},{"poiid":"B2094757D06AAAF84592","title":"亿江南","lon":"121.43118592606","lat":"31.208420476656","category":"71","category_name":"四川菜","address":"长宁区平武路127号(近幸福路)"},{"poiid":"B2094752D76FA6FD4299","title":"椰香天堂","lon":"121.432379","lat":"31.206581","category":"247","category_name":"餐饮美食","address":"武康路378号2楼(近泰安路)"},{"poiid":"B2094757D068A2FB4699","title":"新华地段医院","lon":"121.43287","lat":"31.20655","category":"162","category_name":"医院","address":"长宁区华山路1467号(华山绿地对面)"},{"poiid":"B2094654DB69A7F44792","title":"恒力大厦","lon":"121.43153","lat":"31.20634","category":"46","category_name":"楼宇","address":"普陀中山北路2550号"},{"poiid":"B2094757D16CA0FB4498","title":"兰亭别墅","lon":"121.434718","lat":"31.205354","category":"47","category_name":"住宅区","address":"上海泰安路120弄3号"},{"poiid":"B2094757D16CA3FB4293","title":"淮海西路","lon":"121.434335","lat":"31.204117","category":"500","category_name":"未知分类","address":"上海淮海西路"},{"poiid":"B2094654DB69A6F94092","title":"华山公园","lon":"121.43278","lat":"31.20668","category":"196","category_name":"公园","address":"闵行区华山路1575号(春光路口)"},{"poiid":"B2094757D168AAF8409A","title":"永和豆浆","lon":"121.434330586","lat":"31.2038849158","category":"68","category_name":"快餐厅","address":"徐汇区华山路1603号(华山路淮海西路)"},{"poiid":"B2094757DB68ABF94793","title":"天平路","lon":"121.434022","lat":"31.206386","category":"500","category_name":"未知分类","address":"天平路75弄"},{"poiid":"B2094654D564A4FD459B","title":"比利华公寓","lon":"121.43353","lat":"31.20693","category":"47","category_name":"住宅区","address":"华山路1415"},{"poiid":"B2094655D264A7FF4099","title":"北京银行","lon":"121.43319","lat":"31.20522","category":"150","category_name":"银行","address":"徐汇区华山路1568号华山国际大厦1楼01-02单元"},{"poiid":"B2094654D564A4FD469B","title":"上海依霏美容美发有限公司","lon":"121.43444","lat":"31.20495","category":"148","category_name":"美容美发店","address":"长宁区泰安路129"},{"poiid":"B2094654D564A6FE4698","title":"中国工商银行淮海西路支行","lon":"121.43367","lat":"31.2049","category":"150","category_name":"银行","address":"徐汇区华山路1576号近泰安路(华山路泰安路)"},{"poiid":"B2094757D065A7FA449E","title":"café  BERBER","lon":"121.4345169","lat":"31.206575393","category":"500","category_name":"未知分类","address":"平武路38-1号(近番禺路)"},{"poiid":"B2094655D268A1FD4299","title":"卫乐园","lon":"121.43546","lat":"31.206018","category":"47","category_name":"住宅区","address":"泰安路120弄1-32号"},{"poiid":"B2094757D16FA1FA409A","title":"人民社区卫生服务中心","lon":"121.433186386","lat":"31.2052064417","category":"500","category_name":"未知分类","address":"上海长宁区法华镇路480号"},{"poiid":"B2094752D66AA5F44493","title":"思南路","lon":"121.434395","lat":"31.207209","category":"247","category_name":"餐饮美食","address":"30-4"},{"poiid":"B2094655D26EA2FF4193","title":"华山儿童公园","lon":"121.43473","lat":"31.20414","category":"196","category_name":"公园","address":"长宁区华山路1575号(华山路泰安路)"},{"poiid":"B2094757D06AA5F54292","title":"蒲记","lon":"121.43498","lat":"31.20357","category":"72","category_name":"广东菜","address":"徐汇区华山路1597号(近淮海中路)"},{"poiid":"B2094757D06FA1F54699","title":"解放军第八五医院","lon":"121.43293","lat":"31.2085","category":"162","category_name":"医院","address":"上海徐汇区华山路1328号(近江苏路)"},{"poiid":"B2094757D06FA0F54899","title":"华山绿地","lon":"121.43312","lat":"31.2059","category":"196","category_name":"公园","address":"长宁区华山路平武路(近幸福路)"},{"poiid":"B2094757D068A2FA419F","title":"幸福路","lon":"121.431038586","lat":"31.2040639193","category":"260","category_name":"其他","address":"上海市长宁区幸福路"},{"poiid":"B2094757D06FA6FC419E","title":"The Chowhaus","lon":"121.433561","lat":"31.206829","category":"110","category_name":"其他亚洲菜","address":"徐汇区华山路1415号(近湖南路)"},{"poiid":"B2094757DA6EAAFC4198","title":"Aroom","lon":"121.435461000002","lat":"31.2060190000001","category":"260","category_name":"其他","address":"徐汇区泰安路120弄卫乐园15号(近华山路)"},{"poiid":"B2094757D06FA2FB439D","title":"星巴克(华山国际店)","lon":"121.433629","lat":"31.205356","category":"260","category_name":"其他","address":"徐汇区华山路1568号华山国际大厦102座(近华山绿地)"},{"poiid":"B2094757D469A3F9469E","title":"素人素食","lon":"121.434384","lat":"31.203704","category":"89","category_name":"中式素餐馆","address":"徐汇区华山路1585号(泰安路淮海西路)"},{"poiid":"B2094757D66AA6F4499F","title":"霖霖小馆","lon":"121.431010054","lat":"31.204837793","category":"86","category_name":"火锅店","address":"长宁区幸福路115号(近法华镇路)"},{"poiid":"B2094654D564A6FC409F","title":"复旦中学","lon":"121.43437","lat":"31.20306","category":"55","category_name":"中学","address":"徐汇区华山路1626号(近淮海西路)"},{"poiid":"B2094757D169ABF54599","title":"泰安路兴国路","lon":"121.43685808","lat":"31.205923289","category":"46","category_name":"楼宇","address":"上海泰安路兴国路"},{"poiid":"B2094757D06AAAF5409D","title":"酷芝PIZZA COOLZEY","lon":"121.43455421439","lat":"31.20311280591","category":"94","category_name":"西餐厅","address":"徐汇区华山路1589号3号(近淮海中路)"},{"poiid":"B2094757DA6EABF94799","title":"DADA BAR","lon":"121.431254999998","lat":"31.205202","category":"260","category_name":"其他","address":"长宁区幸福路115号(近华山路)"},{"poiid":"B2094757D16AAAF94398","title":"华山路","lon":"121.43305858","lat":"31.206015957","category":"500","category_name":"未知分类","address":"上海市华山路淮海西路"},{"poiid":"B2094750D26AABFC499B","title":"澄园","lon":"121.434806","lat":"31.204935","category":"260","category_name":"其他","address":"徐汇区泰安路115弄1号楼101室(近华山路)"},{"poiid":"B2094757D16BA4FD449C","title":"法华镇路番禺路","lon":"121.43102358","lat":"31.203950917","category":"500","category_name":"未知分类","address":"上海法华镇路番禺路"},{"poiid":"B2094757D464A7FD4699","title":"MARDI GRAS","lon":"121.436810054","lat":"31.205342793","category":"94","category_name":"西餐厅","address":"徐汇区兴国路372弄1号(近泰安路)"},{"poiid":"B2094757D06AA2FC409F","title":"复旦中学羽毛球馆","lon":"121.433770759","lat":"31.2032934808","category":"253","category_name":"校园生活","address":"上海徐汇区华山路1626号复旦中学体育馆内(近淮海西路)"},{"poiid":"B2094654DB69A7FB449D","title":"华山国际","lon":"121.43312","lat":"31.20492","category":"47","category_name":"住宅区","address":"上海市长宁区华山路1568号"},{"poiid":"B2094655D26FA5FB4598","title":"缇咖园","lon":"121.436985054","lat":"31.205757793","category":"94","category_name":"西餐厅","address":"徐汇区泰安路50号(兴国路口)"},{"poiid":"B2094757D06AA5FB4599","title":"财瑞大厦","lon":"121.433553","lat":"31.205167","category":"46","category_name":"楼宇","address":"上海市长宁区华山路1568号"},{"poiid":"B2094655D36CA7FC4392","title":"华山路湖南路","lon":"121.43341","lat":"31.20657","category":"38","category_name":"公交车站","address":"湖南路266号"},{"poiid":"B2094757D56DA3FC479F","title":"咸淡江湖","lon":"121.43153443086","lat":"31.206283509265","category":"71","category_name":"四川菜","address":"长宁区幸福路110号(近华山路)"},{"poiid":"B2094655D26BABFC4598","title":"景信商务楼","lon":"121.433397","lat":"31.205113","category":"46","category_name":"楼宇","address":"长宁华山路156"},{"poiid":"B2094757D06AA2FA429B","title":"ARCHIE'S PUB","lon":"121.43290973","lat":"31.205154121","category":"172","category_name":"酒吧","address":"长宁区华山路1520弄15号虹景公寓酒店(近泰安路)"},{"poiid":"B2094654DA6DA3FA489B","title":"南洋大楼","lon":"121.436","lat":"31.2052","category":"46","category_name":"楼宇","address":"徐汇区番禺路667号"},{"poiid":"B2094654D564A6FE4593","title":"华山嘉苑","lon":"121.43267","lat":"31.204996","category":"47","category_name":"住宅区","address":"上海市闵行区虹梅路2899弄"},{"poiid":"B2094757D06FA1FA4992","title":"新华街道社區衛生服務中心","lon":"121.433728","lat":"31.206158","category":"500","category_name":"未知分类","address":"上海市华山路1467号"},{"poiid":"B2094757D065A1FE4392","title":"空中花园","lon":"121.433259686","lat":"31.2054591133","category":"47","category_name":"住宅区","address":"上海宝庆路10号7楼"},{"poiid":"B2094654DB65A6F9489E","title":"淮海世纪花苑","lon":"121.43295868732","lat":"31.20524911612","category":"47","category_name":"住宅区","address":"淮海西路358弄1-5号"},{"poiid":"B2094757D06BAAFF479D","title":"香奈造型(上海影城店)","lon":"121.43309858","lat":"31.202635891","category":"148","category_name":"美容美发店","address":"上海市长宁区法华镇路59号近淮海西路华山路(预约电话"},{"poiid":"B2094750DA6EA2FE4092","title":"La Petit Saleya","lon":"121.43402","lat":"31.204891","category":"247","category_name":"餐饮美食","address":"泰安路139号"},{"poiid":"B2094757D06AAAF84592","title":"亿江南","lon":"121.43118592606","lat":"31.208420476656","category":"71","category_name":"四川菜","address":"长宁区平武路127号(近幸福路)"},{"poiid":"B2094752D76FA6FD4299","title":"椰香天堂","lon":"121.432379","lat":"31.206581","category":"247","category_name":"餐饮美食","address":"武康路378号2楼(近泰安路)"},{"poiid":"B2094757D068A2FB4699","title":"新华地段医院","lon":"121.43287","lat":"31.20655","category":"162","category_name":"医院","address":"长宁区华山路1467号(华山绿地对面)"},{"poiid":"B2094654DB69A7F44792","title":"恒力大厦","lon":"121.43153","lat":"31.20634","category":"46","category_name":"楼宇","address":"普陀中山北路2550号"},{"poiid":"B2094757D16CA0FB4498","title":"兰亭别墅","lon":"121.434718","lat":"31.205354","category":"47","category_name":"住宅区","address":"上海泰安路120弄3号"},{"poiid":"B2094757D16CA3FB4293","title":"淮海西路","lon":"121.434335","lat":"31.204117","category":"500","category_name":"未知分类","address":"上海淮海西路"},{"poiid":"B2094654DB69A6F94092","title":"华山公园","lon":"121.43278","lat":"31.20668","category":"196","category_name":"公园","address":"闵行区华山路1575号(春光路口)"},{"poiid":"B2094757D168AAF8409A","title":"永和豆浆","lon":"121.434330586","lat":"31.2038849158","category":"68","category_name":"快餐厅","address":"徐汇区华山路1603号(华山路淮海西路)"},{"poiid":"B2094757DB68ABF94793","title":"天平路","lon":"121.434022","lat":"31.206386","category":"500","category_name":"未知分类","address":"天平路75弄"},{"poiid":"B2094654D564A4FD459B","title":"比利华公寓","lon":"121.43353","lat":"31.20693","category":"47","category_name":"住宅区","address":"华山路1415"},{"poiid":"B2094655D264A7FF4099","title":"北京银行","lon":"121.43319","lat":"31.20522","category":"150","category_name":"银行","address":"徐汇区华山路1568号华山国际大厦1楼01-02单元"},{"poiid":"B2094654D564A4FD469B","title":"上海依霏美容美发有限公司","lon":"121.43444","lat":"31.20495","category":"148","category_name":"美容美发店","address":"长宁区泰安路129"},{"poiid":"B2094654D564A6FE4698","title":"中国工商银行淮海西路支行","lon":"121.43367","lat":"31.2049","category":"150","category_name":"银行","address":"徐汇区华山路1576号近泰安路(华山路泰安路)"},{"poiid":"B2094757D065A7FA449E","title":"café  BERBER","lon":"121.4345169","lat":"31.206575393","category":"500","category_name":"未知分类","address":"平武路38-1号(近番禺路)"},{"poiid":"B2094655D268A1FD4299","title":"卫乐园","lon":"121.43546","lat":"31.206018","category":"47","category_name":"住宅区","address":"泰安路120弄1-32号"},{"poiid":"B2094757D16FA1FA409A","title":"人民社区卫生服务中心","lon":"121.433186386","lat":"31.2052064417","category":"500","category_name":"未知分类","address":"上海长宁区法华镇路480号"},{"poiid":"B2094752D66AA5F44493","title":"思南路","lon":"121.434395","lat":"31.207209","category":"247","category_name":"餐饮美食","address":"30-4"},{"poiid":"B2094655D26EA2FF4193","title":"华山儿童公园","lon":"121.43473","lat":"31.20414","category":"196","category_name":"公园","address":"长宁区华山路1575号(华山路泰安路)"},{"poiid":"B2094757D06AA5F54292","title":"蒲记","lon":"121.43498","lat":"31.20357","category":"72","category_name":"广东菜","address":"徐汇区华山路1597号(近淮海中路)"},{"poiid":"B2094757D06FA1F54699","title":"解放军第八五医院","lon":"121.43293","lat":"31.2085","category":"162","category_name":"医院","address":"上海徐汇区华山路1328号(近江苏路)"},{"poiid":"B2094757D06FA0F54899","title":"华山绿地","lon":"121.43312","lat":"31.2059","category":"196","category_name":"公园","address":"长宁区华山路平武路(近幸福路)"},{"poiid":"B2094757D068A2FA419F","title":"幸福路","lon":"121.431038586","lat":"31.2040639193","category":"260","category_name":"其他","address":"上海市长宁区幸福路"},{"poiid":"B2094757D06FA6FC419E","title":"The Chowhaus","lon":"121.433561","lat":"31.206829","category":"110","category_name":"其他亚洲菜","address":"徐汇区华山路1415号(近湖南路)"},{"poiid":"B2094757DA6EAAFC4198","title":"Aroom","lon":"121.435461000002","lat":"31.2060190000001","category":"260","category_name":"其他","address":"徐汇区泰安路120弄卫乐园15号(近华山路)"},{"poiid":"B2094757D06FA2FB439D","title":"星巴克(华山国际店)","lon":"121.433629","lat":"31.205356","category":"260","category_name":"其他","address":"徐汇区华山路1568号华山国际大厦102座(近华山绿地)"},{"poiid":"B2094757D469A3F9469E","title":"素人素食","lon":"121.434384","lat":"31.203704","category":"89","category_name":"中式素餐馆","address":"徐汇区华山路1585号(泰安路淮海西路)"},{"poiid":"B2094757D66AA6F4499F","title":"霖霖小馆","lon":"121.431010054","lat":"31.204837793","category":"86","category_name":"火锅店","address":"长宁区幸福路115号(近法华镇路)"},{"poiid":"B2094654D564A6FC409F","title":"复旦中学","lon":"121.43437","lat":"31.20306","category":"55","category_name":"中学","address":"徐汇区华山路1626号(近淮海西路)"},{"poiid":"B2094757D169ABF54599","title":"泰安路兴国路","lon":"121.43685808","lat":"31.205923289","category":"46","category_name":"楼宇","address":"上海泰安路兴国路"},{"poiid":"B2094757D06AAAF5409D","title":"酷芝PIZZA COOLZEY","lon":"121.43455421439","lat":"31.20311280591","category":"94","category_name":"西餐厅","address":"徐汇区华山路1589号3号(近淮海中路)"},{"poiid":"B2094757DA6EABF94799","title":"DADA BAR","lon":"121.431254999998","lat":"31.205202","category":"260","category_name":"其他","address":"长宁区幸福路115号(近华山路)"},{"poiid":"B2094757D16AAAF94398","title":"华山路","lon":"121.43305858","lat":"31.206015957","category":"500","category_name":"未知分类","address":"上海市华山路淮海西路"},{"poiid":"B2094750D26AABFC499B","title":"澄园","lon":"121.434806","lat":"31.204935","category":"260","category_name":"其他","address":"徐汇区泰安路115弄1号楼101室(近华山路)"},{"poiid":"B2094757D16BA4FD449C","title":"法华镇路番禺路","lon":"121.43102358","lat":"31.203950917","category":"500","category_name":"未知分类","address":"上海法华镇路番禺路"},{"poiid":"B2094757D464A7FD4699","title":"MARDI GRAS","lon":"121.436810054","lat":"31.205342793","category":"94","category_name":"西餐厅","address":"徐汇区兴国路372弄1号(近泰安路)"},{"poiid":"B2094757D06AA2FC409F","title":"复旦中学羽毛球馆","lon":"121.433770759","lat":"31.2032934808","category":"253","category_name":"校园生活","address":"上海徐汇区华山路1626号复旦中学体育馆内(近淮海西路)"},{"poiid":"B2094654DB69A7FB449D","title":"华山国际","lon":"121.43312","lat":"31.20492","category":"47","category_name":"住宅区","address":"上海市长宁区华山路1568号"},{"poiid":"B2094655D26FA5FB4598","title":"缇咖园","lon":"121.436985054","lat":"31.205757793","category":"94","category_name":"西餐厅","address":"徐汇区泰安路50号(兴国路口)"},{"poiid":"B2094757D06AA5FB4599","title":"财瑞大厦","lon":"121.433553","lat":"31.205167","category":"46","category_name":"楼宇","address":"上海市长宁区华山路1568号"},{"poiid":"B2094655D36CA7FC4392","title":"华山路湖南路","lon":"121.43341","lat":"31.20657","category":"38","category_name":"公交车站","address":"湖南路266号"},{"poiid":"B2094757D56DA3FC479F","title":"咸淡江湖","lon":"121.43153443086","lat":"31.206283509265","category":"71","category_name":"四川菜","address":"长宁区幸福路110号(近华山路)"},{"poiid":"B2094655D26BABFC4598","title":"景信商务楼","lon":"121.433397","lat":"31.205113","category":"46","category_name":"楼宇","address":"长宁华山路156"},{"poiid":"B2094757D06AA2FA429B","title":"ARCHIE'S PUB","lon":"121.43290973","lat":"31.205154121","category":"172","category_name":"酒吧","address":"长宁区华山路1520弄15号虹景公寓酒店(近泰安路)"},{"poiid":"B2094654DA6DA3FA489B","title":"南洋大楼","lon":"121.436","lat":"31.2052","category":"46","category_name":"楼宇","address":"徐汇区番禺路667号"},{"poiid":"B2094654D564A6FE4593","title":"华山嘉苑","lon":"121.43267","lat":"31.204996","category":"47","category_name":"住宅区","address":"上海市闵行区虹梅路2899弄"},{"poiid":"B2094757D06FA1FA4992","title":"新华街道社區衛生服務中心","lon":"121.433728","lat":"31.206158","category":"500","category_name":"未知分类","address":"上海市华山路1467号"},{"poiid":"B2094757D065A1FE4392","title":"空中花园","lon":"121.433259686","lat":"31.2054591133","category":"47","category_name":"住宅区","address":"上海宝庆路10号7楼"},{"poiid":"B2094654DB65A6F9489E","title":"淮海世纪花苑","lon":"121.43295868732","lat":"31.20524911612","category":"47","category_name":"住宅区","address":"淮海西路358弄1-5号"},{"poiid":"B2094757D06BAAFF479D","title":"香奈造型(上海影城店)","lon":"121.43309858","lat":"31.202635891","category":"148","category_name":"美容美发店","address":"上海市长宁区法华镇路59号近淮海西路华山路(预约电话"},{"poiid":"B2094750DA6EA2FE4092","title":"La Petit Saleya","lon":"121.43402","lat":"31.204891","category":"247","category_name":"餐饮美食","address":"泰安路139号"},{"poiid":"B2094757D06AAAF84592","title":"亿江南","lon":"121.43118592606","lat":"31.208420476656","category":"71","category_name":"四川菜","address":"长宁区平武路127号(近幸福路)"},{"poiid":"B2094752D76FA6FD4299","title":"椰香天堂","lon":"121.432379","lat":"31.206581","category":"247","category_name":"餐饮美食","address":"武康路378号2楼(近泰安路)"},{"poiid":"B2094757D068A2FB4699","title":"新华地段医院","lon":"121.43287","lat":"31.20655","category":"162","category_name":"医院","address":"长宁区华山路1467号(华山绿地对面)"},{"poiid":"B2094654DB69A7F44792","title":"恒力大厦","lon":"121.43153","lat":"31.20634","category":"46","category_name":"楼宇","address":"普陀中山北路2550号"},{"poiid":"B2094757D16CA0FB4498","title":"兰亭别墅","lon":"121.434718","lat":"31.205354","category":"47","category_name":"住宅区","address":"上海泰安路120弄3号"},{"poiid":"B2094757D16CA3FB4293","title":"淮海西路","lon":"121.434335","lat":"31.204117","category":"500","category_name":"未知分类","address":"上海淮海西路"},{"poiid":"B2094654DB69A6F94092","title":"华山公园","lon":"121.43278","lat":"31.20668","category":"196","category_name":"公园","address":"闵行区华山路1575号(春光路口)"},{"poiid":"B2094757D168AAF8409A","title":"永和豆浆","lon":"121.434330586","lat":"31.2038849158","category":"68","category_name":"快餐厅","address":"徐汇区华山路1603号(华山路淮海西路)"},{"poiid":"B2094757DB68ABF94793","title":"天平路","lon":"121.434022","lat":"31.206386","category":"500","category_name":"未知分类","address":"天平路75弄"},{"poiid":"B2094654D564A4FD459B","title":"比利华公寓","lon":"121.43353","lat":"31.20693","category":"47","category_name":"住宅区","address":"华山路1415"},{"poiid":"B2094655D264A7FF4099","title":"北京银行","lon":"121.43319","lat":"31.20522","category":"150","category_name":"银行","address":"徐汇区华山路1568号华山国际大厦1楼01-02单元"},{"poiid":"B2094654D564A4FD469B","title":"上海依霏美容美发有限公司","lon":"121.43444","lat":"31.20495","category":"148","category_name":"美容美发店","address":"长宁区泰安路129"},{"poiid":"B2094654D564A6FE4698","title":"中国工商银行淮海西路支行","lon":"121.43367","lat":"31.2049","category":"150","category_name":"银行","address":"徐汇区华山路1576号近泰安路(华山路泰安路)"},{"poiid":"B2094757D065A7FA449E","title":"café  BERBER","lon":"121.4345169","lat":"31.206575393","category":"500","category_name":"未知分类","address":"平武路38-1号(近番禺路)"},{"poiid":"B2094655D268A1FD4299","title":"卫乐园","lon":"121.43546","lat":"31.206018","category":"47","category_name":"住宅区","address":"泰安路120弄1-32号"},{"poiid":"B2094757D16FA1FA409A","title":"人民社区卫生服务中心","lon":"121.433186386","lat":"31.2052064417","category":"500","category_name":"未知分类","address":"上海长宁区法华镇路480号"},{"poiid":"B2094752D66AA5F44493","title":"思南路","lon":"121.434395","lat":"31.207209","category":"247","category_name":"餐饮美食","address":"30-4"},{"poiid":"B2094655D26EA2FF4193","title":"华山儿童公园","lon":"121.43473","lat":"31.20414","category":"196","category_name":"公园","address":"长宁区华山路1575号(华山路泰安路)"},{"poiid":"B2094757D06AA5F54292","title":"蒲记","lon":"121.43498","lat":"31.20357","category":"72","category_name":"广东菜","address":"徐汇区华山路1597号(近淮海中路)"},{"poiid":"B2094757D06FA1F54699","title":"解放军第八五医院","lon":"121.43293","lat":"31.2085","category":"162","category_name":"医院","address":"上海徐汇区华山路1328号(近江苏路)"},{"poiid":"B2094757D06FA0F54899","title":"华山绿地","lon":"121.43312","lat":"31.2059","category":"196","category_name":"公园","address":"长宁区华山路平武路(近幸福路)"},{"poiid":"B2094757D068A2FA419F","title":"幸福路","lon":"121.431038586","lat":"31.2040639193","category":"260","category_name":"其他","address":"上海市长宁区幸福路"},{"poiid":"B2094757D06FA6FC419E","title":"The Chowhaus","lon":"121.433561","lat":"31.206829","category":"110","category_name":"其他亚洲菜","address":"徐汇区华山路1415号(近湖南路)"},{"poiid":"B2094757DA6EAAFC4198","title":"Aroom","lon":"121.435461000002","lat":"31.2060190000001","category":"260","category_name":"其他","address":"徐汇区泰安路120弄卫乐园15号(近华山路)"},{"poiid":"B2094757D06FA2FB439D","title":"星巴克(华山国际店)","lon":"121.433629","lat":"31.205356","category":"260","category_name":"其他","address":"徐汇区华山路1568号华山国际大厦102座(近华山绿地)"},{"poiid":"B2094757D469A3F9469E","title":"素人素食","lon":"121.434384","lat":"31.203704","category":"89","category_name":"中式素餐馆","address":"徐汇区华山路1585号(泰安路淮海西路)"},{"poiid":"B2094757D66AA6F4499F","title":"霖霖小馆","lon":"121.431010054","lat":"31.204837793","category":"86","category_name":"火锅店","address":"长宁区幸福路115号(近法华镇路)"},{"poiid":"B2094654D564A6FC409F","title":"复旦中学","lon":"121.43437","lat":"31.20306","category":"55","category_name":"中学","address":"徐汇区华山路1626号(近淮海西路)"},{"poiid":"B2094757D169ABF54599","title":"泰安路兴国路","lon":"121.43685808","lat":"31.205923289","category":"46","category_name":"楼宇","address":"上海泰安路兴国路"},{"poiid":"B2094757D06AAAF5409D","title":"酷芝PIZZA COOLZEY","lon":"121.43455421439","lat":"31.20311280591","category":"94","category_name":"西餐厅","address":"徐汇区华山路1589号3号(近淮海中路)"},{"poiid":"B2094757DA6EABF94799","title":"DADA BAR","lon":"121.431254999998","lat":"31.205202","category":"260","category_name":"其他","address":"长宁区幸福路115号(近华山路)"},{"poiid":"B2094757D16AAAF94398","title":"华山路","lon":"121.43305858","lat":"31.206015957","category":"500","category_name":"未知分类","address":"上海市华山路淮海西路"},{"poiid":"B2094750D26AABFC499B","title":"澄园","lon":"121.434806","lat":"31.204935","category":"260","category_name":"其他","address":"徐汇区泰安路115弄1号楼101室(近华山路)"},{"poiid":"B2094757D16BA4FD449C","title":"法华镇路番禺路","lon":"121.43102358","lat":"31.203950917","category":"500","category_name":"未知分类","address":"上海法华镇路番禺路"},{"poiid":"B2094757D464A7FD4699","title":"MARDI GRAS","lon":"121.436810054","lat":"31.205342793","category":"94","category_name":"西餐厅","address":"徐汇区兴国路372弄1号(近泰安路)"},{"poiid":"B2094757D06AA2FC409F","title":"复旦中学羽毛球馆","lon":"121.433770759","lat":"31.2032934808","category":"253","category_name":"校园生活","address":"上海徐汇区华山路1626号复旦中学体育馆内(近淮海西路)"},{"poiid":"B2094654DB69A7FB449D","title":"华山国际","lon":"121.43312","lat":"31.20492","category":"47","category_name":"住宅区","address":"上海市长宁区华山路1568号"},{"poiid":"B2094655D26FA5FB4598","title":"缇咖园","lon":"121.436985054","lat":"31.205757793","category":"94","category_name":"西餐厅","address":"徐汇区泰安路50号(兴国路口)"},{"poiid":"B2094757D06AA5FB4599","title":"财瑞大厦","lon":"121.433553","lat":"31.205167","category":"46","category_name":"楼宇","address":"上海市长宁区华山路1568号"},{"poiid":"B2094655D36CA7FC4392","title":"华山路湖南路","lon":"121.43341","lat":"31.20657","category":"38","category_name":"公交车站","address":"湖南路266号"},{"poiid":"B2094757D56DA3FC479F","title":"咸淡江湖","lon":"121.43153443086","lat":"31.206283509265","category":"71","category_name":"四川菜","address":"长宁区幸福路110号(近华山路)"},{"poiid":"B2094655D26BABFC4598","title":"景信商务楼","lon":"121.433397","lat":"31.205113","category":"46","category_name":"楼宇","address":"长宁华山路156"},{"poiid":"B2094757D06AA2FA429B","title":"ARCHIE'S PUB","lon":"121.43290973","lat":"31.205154121","category":"172","category_name":"酒吧","address":"长宁区华山路1520弄15号虹景公寓酒店(近泰安路)"},{"poiid":"B2094654DA6DA3FA489B","title":"南洋大楼","lon":"121.436","lat":"31.2052","category":"46","category_name":"楼宇","address":"徐汇区番禺路667号"},{"poiid":"B2094654D564A6FE4593","title":"华山嘉苑","lon":"121.43267","lat":"31.204996","category":"47","category_name":"住宅区","address":"上海市闵行区虹梅路2899弄"},{"poiid":"B2094757D06FA1FA4992","title":"新华街道社區衛生服務中心","lon":"121.433728","lat":"31.206158","category":"500","category_name":"未知分类","address":"上海市华山路1467号"},{"poiid":"B2094757D065A1FE4392","title":"空中花园","lon":"121.433259686","lat":"31.2054591133","category":"47","category_name":"住宅区","address":"上海宝庆路10号7楼"},{"poiid":"B2094654DB65A6F9489E","title":"淮海世纪花苑","lon":"121.43295868732","lat":"31.20524911612","category":"47","category_name":"住宅区","address":"淮海西路358弄1-5号"},{"poiid":"B2094757D06BAAFF479D","title":"香奈造型(上海影城店)","lon":"121.43309858","lat":"31.202635891","category":"148","category_name":"美容美发店","address":"上海市长宁区法华镇路59号近淮海西路华山路(预约电话"},{"poiid":"B2094750DA6EA2FE4092","title":"La Petit Saleya","lon":"121.43402","lat":"31.204891","category":"247","category_name":"餐饮美食","address":"泰安路139号"},{"poiid":"B2094757D06AAAF84592","title":"亿江南","lon":"121.43118592606","lat":"31.208420476656","category":"71","category_name":"四川菜","address":"长宁区平武路127号(近幸福路)"},{"poiid":"B2094752D76FA6FD4299","title":"椰香天堂","lon":"121.432379","lat":"31.206581","category":"247","category_name":"餐饮美食","address":"武康路378号2楼(近泰安路)"},{"poiid":"B2094757D068A2FB4699","title":"新华地段医院","lon":"121.43287","lat":"31.20655","category":"162","category_name":"医院","address":"长宁区华山路1467号(华山绿地对面)"},{"poiid":"B2094654DB69A7F44792","title":"恒力大厦","lon":"121.43153","lat":"31.20634","category":"46","category_name":"楼宇","address":"普陀中山北路2550号"},{"poiid":"B2094757D16CA0FB4498","title":"兰亭别墅","lon":"121.434718","lat":"31.205354","category":"47","category_name":"住宅区","address":"上海泰安路120弄3号"},{"poiid":"B2094757D16CA3FB4293","title":"淮海西路","lon":"121.434335","lat":"31.204117","category":"500","category_name":"未知分类","address":"上海淮海西路"},{"poiid":"B2094654DB69A6F94092","title":"华山公园","lon":"121.43278","lat":"31.20668","category":"196","category_name":"公园","address":"闵行区华山路1575号(春光路口)"},{"poiid":"B2094757D168AAF8409A","title":"永和豆浆","lon":"121.434330586","lat":"31.2038849158","category":"68","category_name":"快餐厅","address":"徐汇区华山路1603号(华山路淮海西路)"},{"poiid":"B2094757DB68ABF94793","title":"天平路","lon":"121.434022","lat":"31.206386","category":"500","category_name":"未知分类","address":"天平路75弄"},{"poiid":"B2094654D564A4FD459B","title":"比利华公寓","lon":"121.43353","lat":"31.20693","category":"47","category_name":"住宅区","address":"华山路1415"},{"poiid":"B2094655D264A7FF4099","title":"北京银行","lon":"121.43319","lat":"31.20522","category":"150","category_name":"银行","address":"徐汇区华山路1568号华山国际大厦1楼01-02单元"},{"poiid":"B2094654D564A4FD469B","title":"上海依霏美容美发有限公司","lon":"121.43444","lat":"31.20495","category":"148","category_name":"美容美发店","address":"长宁区泰安路129"},{"poiid":"B2094654D564A6FE4698","title":"中国工商银行淮海西路支行","lon":"121.43367","lat":"31.2049","category":"150","category_name":"银行","address":"徐汇区华山路1576号近泰安路(华山路泰安路)"},{"poiid":"B2094757D065A7FA449E","title":"café  BERBER","lon":"121.4345169","lat":"31.206575393","category":"500","category_name":"未知分类","address":"平武路38-1号(近番禺路)"},{"poiid":"B2094655D268A1FD4299","title":"卫乐园","lon":"121.43546","lat":"31.206018","category":"47","category_name":"住宅区","address":"泰安路120弄1-32号"},{"poiid":"B2094757D16FA1FA409A","title":"人民社区卫生服务中心","lon":"121.433186386","lat":"31.2052064417","category":"500","category_name":"未知分类","address":"上海长宁区法华镇路480号"},{"poiid":"B2094752D66AA5F44493","title":"思南路","lon":"121.434395","lat":"31.207209","category":"247","category_name":"餐饮美食","address":"30-4"},{"poiid":"B2094655D26EA2FF4193","title":"华山儿童公园","lon":"121.43473","lat":"31.20414","category":"196","category_name":"公园","address":"长宁区华山路1575号(华山路泰安路)"},{"poiid":"B2094757D06AA5F54292","title":"蒲记","lon":"121.43498","lat":"31.20357","category":"72","category_name":"广东菜","address":"徐汇区华山路1597号(近淮海中路)"}]