[{"poiid":"B2094757D06EAAF54292","title":"辣府","lon":"121.46055803420836","lat":"31.204216638609246","category":"71","category_name":"四川菜","address":"徐汇区嘉善路512号附5号(近肇嘉浜路)"},{"poiid":"B2094655D26CA4F94298","title":"尚街Loft","lon":"121.45912","lat":"31.20524","category":"116","category_name":"特色商业街","address":"中央商务区CBD22号"},{"poiid":"B2094757D06EAAFC449B","title":"串串香麻辣烫(襄阳路店)","lon":"121.45859","lat":"31.20867","category":"68","category_name":"快餐厅","address":"徐汇区襄阳南路311号(近永嘉路)"},{"poiid":"B2094753D76FAAFA449C","title":"上海滩国泰旗舰店","lon":"121.466011","lat":"31.216125","category":"249","category_name":"购物服务","address":"淮海中路868号"},{"poiid":"B209475CD564A7F84292","title":"上海滩新天地店","lon":"121.47463","lat":"31.22164","category":"119","category_name":"商场","address":"\"太仓路181弄新天地北里15号\r\n\""},{"poiid":"B209475CD564A7F8439E","title":"上海滩中信泰富店","lon":"121.45602","lat":"31.22851","category":"119","category_name":"商场","address":"\"南京西路1168号中信泰富广场，店铺号221.\r\n\""},{"poiid":"B2094655D36DA1F44793","title":"襄阳南路永嘉路","lon":"121.45791","lat":"31.20864","category":"38","category_name":"公交车站","address":""},{"poiid":"B2094655D26BA0FA479B","title":"新苑私房菜","lon":"121.4603","lat":"31.20464","category":"76","category_name":"上海菜","address":"徐汇区嘉善路508号尚街1号楼102室(肇嘉浜路建国西路间)"},{"poiid":"B2094757D16DA1F5449C","title":"嘉善老市","lon":"121.46068573","lat":"31.207114807","category":"500","category_name":"未知分类","address":"上海市徐汇区永嘉路"},{"poiid":"B2094654DA6DA6F94298","title":"大可堂普洱会所","lon":"121.45772","lat":"31.20758","category":"260","category_name":"其他","address":"徐汇区襄阳南路388弄25号(近永嘉路)"},{"poiid":"B209475DD76DA2FF4792","title":"很高兴遇见你","lon":"121.460838","lat":"31.206756","category":"247","category_name":"餐饮美食","address":"上海市 建国西路221号2楼(陕西南路与嘉善路之间)"},{"poiid":"B2094757D069A7F5479F","title":"襄阳会馆","lon":"121.45852","lat":"31.20484","category":"76","category_name":"上海菜","address":"徐汇区建国西路296号(近襄阳南路)"},{"poiid":"B2094757D06FA0FF419B","title":"沃歌斯 建国西路店 wagas","lon":"121.46050136399","lat":"31.206048786127","category":"94","category_name":"西餐厅","address":"徐汇区建国西路283号尚街LOFT1104-1105室(近嘉善路)"},{"poiid":"B2094757D069A3FE439C","title":"Cafe Sambal","lon":"121.4594935","lat":"31.207575767","category":"110","category_name":"其他亚洲菜","address":"卢湾区陕西南路550弄37号嘉善市场(近绍兴路)"},{"poiid":"B2094750D665A0FA409D","title":"水稻咖啡","lon":"121.456","lat":"31.208","category":"260","category_name":"其他","address":"徐汇区永嘉路394号(近太原路)"},{"poiid":"B2094757D068A4FB4092","title":"Naam Thai","lon":"121.4605","lat":"31.2048","category":"99","category_name":"泰国／越南菜品餐厅","address":"徐汇区嘉善路508号Loft尚街1107-1108室(近建国西路)"},{"poiid":"B209475CDA6DA1F9489B","title":"柴田西点","lon":"121.460445","lat":"31.206314","category":"67","category_name":"甜品店","address":"徐汇区嘉善路309号"},{"poiid":"B2094655D264A5FA469F","title":"尚街创意园","lon":"121.4603","lat":"31.20464","category":"45","category_name":"产业园区","address":"嘉善路508号"},{"poiid":"B2094757D068A6FA4299","title":"巴黎时韵","lon":"121.45768","lat":"31.205799","category":"46","category_name":"楼宇","address":"巴黎时韵位于卢湾襄阳南路500号建国西路口"},{"poiid":"B2094654DA6DA6F8479B","title":"点石斋小宴","lon":"121.45729","lat":"31.20882","category":"76","category_name":"上海菜","address":"徐汇区永嘉路320号(近襄阳南路)"},{"poiid":"B2094655D36DA1F44792","title":"襄阳南路建国西路","lon":"121.45804","lat":"31.20557","category":"38","category_name":"公交车站","address":"上海襄阳南路建国西路"},{"poiid":"B2094757D16CA6FE4499","title":"Venus Spring Massage","lon":"121.460971","lat":"31.207268","category":"500","category_name":"未知分类","address":"上海市,陕西南路550弄37号嘉善坊E栋(近绍兴路)"},{"poiid":"B2094654DB69A7FD439F","title":"秋萍茶宴馆","lon":"121.4576585804","lat":"31.205616427492","category":"75","category_name":"浙江菜","address":"徐汇区襄阳南路500号(近建国西路)"},{"poiid":"B2094757D06AA3FA489E","title":"小荧星艺校(尚街校区)","lon":"121.457245738","lat":"31.2069285447","category":"500","category_name":"未知分类","address":"上海卢湾区建国西路283号(近嘉善路)"},{"poiid":"B2094751DA6FA3FC469F","title":"捞王猪肚鸡","lon":"121.45716","lat":"31.20452","category":"86","category_name":"火锅店","address":"徐汇区肇嘉浜路268号2楼(近嘉善路地铁站2号出口)"},{"poiid":"B2094654DA6DABFC4098","title":"中科大厦","lon":"121.46","lat":"31.2078","category":"46","category_name":"楼宇","address":"上海徐汇区岳阳路319号"},{"poiid":"B2094654DA6DA6F9419C","title":"阿根厨房","lon":"121.45791","lat":"31.20689","category":"76","category_name":"上海菜","address":"徐汇区襄阳南路414号(建国西路永嘉路间)"},{"poiid":"B2094654DA6DA4F5489C","title":"联业大厦","lon":"121.457","lat":"31.2063","category":"46","category_name":"楼宇","address":"联业大厦位于徐汇乌鲁木齐南路299号"},{"poiid":"B2094757D168A7FC439E","title":"The Kitchen At","lon":"121.45926773","lat":"31.205949782","category":"500","category_name":"未知分类","address":"上海襄阳南路383弄20号3楼"},{"poiid":"B2094757D468AAF94898","title":"GRUB&GROOVE","lon":"121.4586568","lat":"31.2052323","category":"94","category_name":"西餐厅","address":"徐汇区建国西路283号2号楼附楼B单元(嘉善路口)"},{"poiid":"B2094654DB64A4FE499C","title":"卫明商务楼","lon":"121.45854","lat":"31.20611","category":"46","category_name":"楼宇","address":"襄阳南路433弄18号"},{"poiid":"B2094750DB64A6F84193","title":"复旦大学眼耳喉鼻科医院","lon":"121.456497","lat":"31.207393","category":"162","category_name":"医院","address":null},{"poiid":"B2094654DA6DA6FA4193","title":"生煎锅贴","lon":"121.45815","lat":"31.20562","category":"68","category_name":"快餐厅","address":"徐汇区襄阳南路435号(近建国西路)"},{"poiid":"B2094757D16CA5FE499E","title":"annion Kitchen","lon":"121.46055162","lat":"31.207221618","category":"96","category_name":"韩国料理","address":"卢湾区陕西南路550弄37号嘉善市场(近绍兴路)"},{"poiid":"B2094750D664A3F54598","title":"鸿公馆","lon":"121.458","lat":"31.2034","category":"72","category_name":"广东菜","address":"徐汇区襄阳南路578号乙(近肇嘉浜路)"},{"poiid":"B2094757D06AA6FA459F","title":"宋芳茶馆 Song Fang Maison de The","lon":"121.45904294968","lat":"31.209497617878","category":"66","category_name":"茶艺馆","address":"永嘉路227号甲1-3楼近陕西南路"},{"poiid":"B2094757D66BABFE4898","title":"德兴坊西点 襄阳南路店","lon":"121.457790054","lat":"31.207215793","category":"67","category_name":"甜品店","address":"徐汇区襄阳南路293号(近永嘉路)"},{"poiid":"B2094654DB6BA5FB4298","title":"向阳小学","lon":"121.45718","lat":"31.20754","category":"56","category_name":"小学","address":"徐汇区襄阳南路388弄15号(近永嘉路)"},{"poiid":"B2094654DB65A1FA4093","title":"三连山茶行(襄阳南路)","lon":"121.45817","lat":"31.20527","category":"66","category_name":"茶艺馆","address":"襄阳南路439-3乙识别"},{"poiid":"B2094654DA6DA6F9419B","title":"上海晨鑫口腔门诊部","lon":"121.45764","lat":"31.20611","category":"162","category_name":"医院","address":"卢湾区襄阳南路450"},{"poiid":"B2094654DA6DA6F4449D","title":"科投大厦","lon":"121.45893","lat":"31.20502","category":"46","category_name":"楼宇","address":"建国西路285"},{"poiid":"B2094750DA6AA6F94499","title":"香港广场广州蕉叶","lon":"121.457885","lat":"31.206256","category":"500","category_name":"未知分类","address":null},{"poiid":"B2094753D768A3F4469F","title":"东瀛造型","lon":"121.45874","lat":"31.205926","category":"500","category_name":"未知分类","address":"上海市 嘉善路520号"},{"poiid":"B2094655D268A2FE499E","title":"上海市徐汇区向永食品综合商店","lon":"121.45781","lat":"31.20634","category":"117","category_name":"便民商店/便利店","address":"襄阳南路444弄9号甲"},{"poiid":"B209475CD56DABFF429F","title":"韩国Miss luna studio","lon":"121.457847","lat":"31.206331","category":"500","category_name":"未知分类","address":"上海市 襄阳南路450号"},{"poiid":"B2094757D164A3FE4598","title":"阳澄湖莲花岛大闸蟹","lon":"121.45855693","lat":"31.206392392","category":"500","category_name":"未知分类","address":"苏州阳澄湖莲花岛(近饶城高速)  "},{"poiid":"B2094757D164ABFD4998","title":"上海市档案干部培训中心","lon":"121.45855773","lat":"31.206491794","category":"500","category_name":"未知分类","address":"上海斜土东路348号"},{"poiid":"B2094750D76EA6FC439C","title":"游者","lon":"121.457","lat":"31.2087","category":"95","category_name":"日本料理","address":"徐汇区永嘉路335号(近襄阳路)"},{"poiid":"B2094654DA6DA6FA429A","title":"重庆麻辣烫(建国西路)","lon":"121.45778","lat":"31.20489","category":"68","category_name":"快餐厅","address":"徐汇区建国西路295号(近襄阳南路)"},{"poiid":"B2094757D66FA2FE489B","title":"feidan","lon":"121.45861043","lat":"31.206377791","category":"500","category_name":"未知分类","address":"上海建国西路283号106"},{"poiid":"B2094757D165A5FA429A","title":"嘉御庭","lon":"121.45976","lat":"31.206076","category":"500","category_name":"未知分类","address":"徐汇建国西路嘉善路口"},{"poiid":"B2094655D269AAFB4793","title":"构思影像机构","lon":"121.4579","lat":"31.20535","category":"247","category_name":"餐饮美食","address":"徐汇区襄阳南路500号805室(近建国西路)"},{"poiid":"B2094757D168ABF8419D","title":"小荧星艺校","lon":"121.459269088","lat":"31.2048389592","category":"500","category_name":"未知分类","address":"徐汇区建国西路283号-3(近嘉善路)"},{"poiid":"B2094757D16DA2F94499","title":"Melange oasis cafe","lon":"121.45945273","lat":"31.208209831","category":"500","category_name":"未知分类","address":"上海陝西南路550巷37號"},{"poiid":"B209475CD765A6F54698","title":"MissLuna婚纱摄影","lon":"121.457908","lat":"31.206098","category":"263","category_name":"公司","address":"上海市徐汇区襄阳南路450号"},{"poiid":"B2094757D169A3FB409B","title":"豪缘会所","lon":"121.457838738","lat":"31.2062967902","category":"500","category_name":"未知分类","address":"上海市徐汇区襄阳南路466号"},{"poiid":"B2094654DA6DA6F9499D","title":"皇宫爆烤鸭","lon":"121.457991054","lat":"31.208769793","category":"68","category_name":"快餐厅","address":"徐汇区襄阳南路311号(近永嘉路)"},{"poiid":"B2094655D36CA0F9499A","title":"建国西路襄阳南路","lon":"121.45923","lat":"31.20547","category":"38","category_name":"公交车站","address":""},{"poiid":"B2094654DA6DA6F9419D","title":"速度猫单车工作室","lon":"121.45787","lat":"31.20705","category":"133","category_name":"自行车专卖店","address":"襄阳南路404号"},{"poiid":"B2094757D16EA7FA469D","title":"乔家栅食府","lon":"121.457663373","lat":"31.2089027357","category":"68","category_name":"快餐厅","address":"徐汇区襄阳南路336号(近永嘉路)"},{"poiid":"B2094757DB6CA2FC409A","title":"青松城大酒店","lon":"121.4603251990384","lat":"31.2060944483005","category":"247","category_name":"餐饮美食","address":"肇家浜路777号"},{"poiid":"B2094654DA6DA6F94893","title":"年平花苑","lon":"121.45914","lat":"31.207575","category":"47","category_name":"住宅区","address":"嘉善路258弄"},{"poiid":"B2094757D069AAFF4999","title":"7-ELEVEN(建国店)","lon":"121.459534818","lat":"31.2054495707","category":"117","category_name":"便民商店/便利店","address":"徐汇区建国西路273号(近嘉善路)"},{"poiid":"B2094753DB6CA4F4409C","title":"建国328小馆","lon":"121.457283","lat":"31.204849","category":"247","category_name":"餐饮美食","address":"建国西路328号"},{"poiid":"B2094655D26CA4FE419B","title":"梧桐花园A座","lon":"121.4596","lat":"31.20472","category":"47","category_name":"住宅区","address":"建国西路273"},{"poiid":"B2094757D16DA6F8459F","title":"中国中学","lon":"121.456","lat":"31.20754","category":"55","category_name":"中学","address":"上海徐汇区永嘉路388号(近太原路)  "},{"poiid":"B2094757D568A0F5429B","title":"阿婆葱油饼","lon":"121.4582589","lat":"31.20335306","category":"68","category_name":"快餐厅","address":"徐汇区襄阳南路578弄口(近肇嘉浜路)"},{"poiid":"B2094757D168ABFF429F","title":"沁源茶楼","lon":"121.45827913","lat":"31.205097664","category":"247","category_name":"餐饮美食","address":"上海浦东大道569号"},{"poiid":"B2094751D56FA6FD489C","title":"纽斯","lon":"121.4593828","lat":"31.2082747","category":"249","category_name":"购物服务","address":null},{"poiid":"B2094654DB6BA5FB4498","title":"好德No.065","lon":"121.45797","lat":"31.20492","category":"117","category_name":"便民商店/便利店","address":"建国西路289"},{"poiid":"B2094757DA68A6F5419A","title":"大阪心斋桥达人","lon":"121.45791","lat":"31.20536","category":"604","category_name":"旅游咨询","address":"大阪市心斎橋"},{"poiid":"B2094757D568AAFF4399","title":"飞蛋超市(建国西路Loft店)","lon":"121.4591289","lat":"31.20524","category":"118","category_name":"超级市场","address":"徐汇区建国西路283号1号楼1106室(近嘉善路)"},{"poiid":"B2094757D469A7FE459E","title":"吾饮良品 襄阳南路店","lon":"121.457903","lat":"31.204461","category":"113","category_name":"冷饮店","address":"徐汇区襄阳南路514号(近建国西路)"},{"poiid":"B2094757D064A6FF419B","title":"宝宝坊 BB Gym","lon":"121.45946","lat":"31.20925","category":"260","category_name":"其他","address":"徐汇区嘉善路508号尚街LOFT1号楼(近建国西路)"},{"poiid":"B2094654DA6DA6FA419F","title":"上海新路达资产管理有限公司","lon":"121.45831","lat":"31.20702","category":"263","category_name":"公司","address":"襄阳南路393弄2"},{"poiid":"B2094655D26AA6FE4293","title":"CKCLUB","lon":"121.45893","lat":"31.20502","category":"247","category_name":"餐饮美食","address":"卢湾区建国西路285号(近嘉善路)"},{"poiid":"B2094757D065A3FD409A","title":"建国路小莹星艺校","lon":"121.458096","lat":"31.205611","category":"500","category_name":"未知分类","address":"上海建国西路 襄阳南路"},{"poiid":"B2094654DA6DA6F4459B","title":"合群坊","lon":"121.45727","lat":"31.205187","category":"47","category_name":"住宅区","address":"建国西路316弄1-42号"},{"poiid":"B2094654DA6DA6FA409C","title":"HELLO","lon":"121.45807","lat":"31.20752","category":"141","category_name":"服装鞋帽皮具店","address":"襄阳南路381"},{"poiid":"B2094654DA6DA6F9499E","title":"晓平饭店","lon":"121.4596","lat":"31.20848","category":"76","category_name":"上海菜","address":"徐汇区嘉善路202号(近永嘉路)"},{"poiid":"B2094753DA69A2F8429A","title":"上海市黄浦区明复图书馆","lon":"121.459083","lat":"31.207494","category":"500","category_name":"未知分类","address":"上海市 陕西南路235号"},{"poiid":"B2094753D66FA0FA489A","title":"韩国首尔儿童摄影(徐汇店)","lon":"121.45789","lat":"31.2057","category":"126","category_name":"摄影器材店","address":"襄阳南路498号"},{"poiid":"B2094757D465A0F44399","title":"赛乐酒业 CELLAR DOOR WINES","lon":"121.460287054","lat":"31.205531793","category":"257","category_name":"中餐厅","address":"嘉善路508号Loft尚街近建国西路"},{"poiid":"B2094757D16AA2F54399","title":"瑞金宾馆太原别墅中餐厅","lon":"121.45543","lat":"31.20554","category":"76","category_name":"上海菜","address":"杨浦区靖宇南路16号(靖宇南路永吉路)"},{"poiid":"B2094655D26FAAFD499A","title":"巴黎时韵(东门)","lon":"121.45781","lat":"31.20595","category":"48","category_name":"楼宇大门","address":"襄阳南路494、500"},{"poiid":"B2094757D068AAF8489A","title":"P1 COFFEE","lon":"121.45796","lat":"31.2054","category":"260","category_name":"其他","address":"徐汇区襄阳南路498号(近建国路)"},{"poiid":"B2094757D06BA7FA499F","title":"疯狂科学儿童俱乐部","lon":"121.45879255","lat":"31.205080764","category":"500","category_name":"未知分类","address":"上海建国西路285号"},{"poiid":"B2094757D06FA5FF469B","title":"乐弗涯亚洲餐厅","lon":"121.45746374","lat":"31.208731608","category":"110","category_name":"其他亚洲菜","address":"上海卢湾区永嘉路335号(近襄阳南路)"},{"poiid":"B2094654DB6BA5FB429F","title":"乔家栅(襄阳南路店)","lon":"121.4578","lat":"31.20884","category":"112","category_name":"糕饼店","address":"徐汇区襄阳南路313号(永嘉路)"},{"poiid":"B2094757D165A1F9469E","title":"强生南泰大厦","lon":"121.45691773","lat":"31.205863781","category":"252","category_name":"楼宇机构","address":"上海南京西路泰兴路"},{"poiid":"B2094750D464AAF44992","title":"溪林涵社","lon":"121.457999","lat":"31.204534","category":"248","category_name":"生活娱乐","address":"徐汇区襄阳南路514号"},{"poiid":"B2094750D669A3FE449A","title":"卢湾体育馆","lon":"121.45977403553","lat":"31.206036361433","category":"627","category_name":"一般地点标志","address":"赵家浜路嘉善路"},{"poiid":"B2094655D26FAAFD4893","title":"襄阳南路510弄小区(东门)","lon":"121.45803","lat":"31.20474","category":"47","category_name":"住宅区","address":"襄阳南路510弄1-15号"},{"poiid":"B2094655D26CA1FE419F","title":"垃都邨","lon":"121.45758","lat":"31.20484","category":"47","category_name":"住宅区","address":"建国西路307弄1号"},{"poiid":"B2094654DB65A1F9469E","title":"襄阳南路510弄1-15号小区","lon":"121.45793","lat":"31.20468","category":"47","category_name":"住宅区","address":"襄阳南路510弄1-15号"},{"poiid":"B2094757D56DA4FC479F","title":"萨菲国际会所","lon":"121.45764","lat":"31.2045","category":"248","category_name":"生活娱乐","address":"肇加浜路陕西路"},{"poiid":"B2094655D26FA4F54492","title":"年平花苑(东门)","lon":"121.45992","lat":"31.20754","category":"47","category_name":"住宅区","address":"嘉善路258弄"},{"poiid":"B2094757D464A5F9479B","title":"哈尔滨刘记饺子馆 永嘉路店","lon":"121.456988054","lat":"31.208580793","category":"82","category_name":"东北菜","address":"徐汇区永嘉路297号(近嘉善路)"},{"poiid":"B209475CD564A6FD449B","title":"Burdigala Wine Bar","lon":"121.46022","lat":"31.206634","category":"500","category_name":"未知分类","address":"上海市 嘉善路301号"},{"poiid":"B2094757D164A2F94192","title":"襄阳南路第一幼儿园","lon":"121.45794773","lat":"31.208468836","category":"57","category_name":"幼儿园","address":"徐汇区襄阳南路207号(近复兴中路)"},{"poiid":"B2094654DA6DA6FB409E","title":"美国派","lon":"121.45801","lat":"31.20482","category":"141","category_name":"服装鞋帽皮具店","address":"襄阳南路508"},{"poiid":"B2094654DA6DA6FB489A","title":"梧桐花园B座(边门)","lon":"121.46047","lat":"31.20533","category":"47","category_name":"住宅区","address":"建国西路253"},{"poiid":"B2094654DA6DA6FA409F","title":"中财金融广角","lon":"121.45806","lat":"31.20757","category":"263","category_name":"公司","address":"襄阳南路365号"},{"poiid":"B2094757D06EAAFC479F","title":"Nap Cafe","lon":"121.460264","lat":"31.208053","category":"260","category_name":"其他","address":"卢湾区陕西南路550弄嘉善坊37号208室(近建国西路)"},{"poiid":"B2094757D06BAAFC409C","title":"kelvin salon","lon":"121.45837","lat":"31.20432","category":"148","category_name":"美容美发店","address":"上海徐汇区襄阳南路514号(近建国西路)"},{"poiid":"B2094757D16CA0FC459D","title":"襄阳南路357弄","lon":"121.458103","lat":"31.20786","category":"252","category_name":"楼宇机构","address":"上海襄阳南路357弄"},{"poiid":"B2094655D36DA0F4409C","title":"永嘉路襄阳路","lon":"121.45706","lat":"31.20862","category":"38","category_name":"公交车站","address":""},{"poiid":"B2094757D064A6F54899","title":"华映传媒","lon":"121.45826118","lat":"31.204975442","category":"263","category_name":"公司","address":"徐汇区建国西路285-1号科投大厦1-2楼"},{"poiid":"B2094655D26FAAFD4998","title":"嘉善公寓(西门)","lon":"121.4602","lat":"31.20754","category":"47","category_name":"住宅区","address":""},{"poiid":"B2094757D06AA5F4499A","title":"科技投资大厦","lon":"121.458855","lat":"31.204914","category":"252","category_name":"楼宇机构","address":"上海建国西路285号"},{"poiid":"B2094655D268A4FC4092","title":"金环大厦(西一门)","lon":"121.45829","lat":"31.20403","category":"46","category_name":"楼宇","address":"襄阳南路485、489"},{"poiid":"B2094655D268A6F8469A","title":"高雅苑","lon":"121.461239","lat":"31.206066","category":"47","category_name":"住宅区","address":"徐汇建国西路221、223号"},{"poiid":"B2094757D06AA0FD479A","title":"白金台","lon":"121.46059","lat":"31.20451","category":"95","category_name":"日本料理","address":"徐汇区嘉善路508号尚街LOFT(建国西路)"},{"poiid":"B2094753D66BAAFE4399","title":"D.O.C GASTRONOMIA ITALIANA","lon":"121.455818","lat":"31.206611","category":"500","category_name":"未知分类","address":"上海市 东平路5号-2,-3"},{"poiid":"B2094757DB6CA7F9429D","title":"星光公益站","lon":"121.460233","lat":"31.204472","category":"500","category_name":"未知分类","address":"星光"},{"poiid":"B2094757D468A4F84493","title":"小陶面馆","lon":"121.459629","lat":"31.208887","category":"68","category_name":"快餐厅","address":"徐汇区嘉善路226号(近永嘉路)"},{"poiid":"B2094757DB6EA6FE4898","title":"上海客堂间精品酒店","lon":"121.455813","lat":"31.207727","category":"213","category_name":"五星级宾馆","address":"上海市徐汇区永嘉路335号(近襄阳南路)"},{"poiid":"B2094655D268A6F8459D","title":"汇景苑会所游泳馆","lon":"121.46118","lat":"31.20519","category":"231","category_name":"游泳馆","address":"陕西南路888弄1号楼裙房5层"},{"poiid":"B2094750D665A6FC4492","title":"永嘉331饮品","lon":"121.457","lat":"31.2085","category":"113","category_name":"冷饮店","address":"徐汇区永嘉路331号(近襄阳南路)"},{"poiid":"B2094655D268A4FC419A","title":"汇景苑(西门)","lon":"121.46053","lat":"31.20502","category":"47","category_name":"住宅区","address":""},{"poiid":"B2094654DA6DA6F9499A","title":"嘉善公寓","lon":"121.46054","lat":"31.207699","category":"47","category_name":"住宅区","address":"嘉善路251弄1号"},{"poiid":"B2094654DA6DA6F94498","title":"慎成里","lon":"121.4589","lat":"31.208948","category":"47","category_name":"住宅区","address":"永嘉路291弄1-90号"},{"poiid":"B2094654DA6DA6F4429D","title":"上海美华系统有限公司","lon":"121.45894","lat":"31.20502","category":"263","category_name":"公司","address":"建国西路285号科投大厦14层"},{"poiid":"B2094757D164A6F54792","title":"Colaba","lon":"121.45703313","lat":"31.207869136","category":"500","category_name":"未知分类","address":"上海汾阳路158"},{"poiid":"B2094654DB65A1FA459F","title":"满记甜品(嘉善路)","lon":"121.4603","lat":"31.20464","category":"67","category_name":"甜品店","address":"嘉善路508号尚街Loft1层109"},{"poiid":"B2094655D268A4FA4499","title":"梧桐花园B座(东门)","lon":"121.46105","lat":"31.20571","category":"47","category_name":"住宅区","address":"建国西路253号"},{"poiid":"B2094757D66EA7FF429B","title":"吴兴路打印机博物馆","lon":"121.45880633","lat":"31.208035827","category":"500","category_name":"未知分类","address":"上海吴兴路248号"},{"poiid":"B2094654DA6DA6F8489E","title":"达汇花园","lon":"121.45573","lat":"31.206635","category":"47","category_name":"住宅区","address":"太原路105弄1-2号,125弄1-4号"},{"poiid":"B2094757D66BA4F5489F","title":"阁乐葡 建国西路店 Globus","lon":"121.460272054","lat":"31.205599793","category":"260","category_name":"其他","address":"卢湾区建国西路283号LOFT5101-5103室(近嘉善路)"},{"poiid":"B2094655D26DA6FB429E","title":"梧桐花园B座","lon":"121.46108","lat":"31.20554","category":"47","category_name":"住宅区","address":"建国西路253"},{"poiid":"B2094654DA6DA6FB409A","title":"襄阳公寓","lon":"121.45782","lat":"31.203655","category":"47","category_name":"住宅区","address":"上海市徐汇区襄阳南路550号"},{"poiid":"B209475DD16BA7F44293","title":"很高兴遇见你","lon":"121.461334","lat":"31.205547","category":"500","category_name":"未知分类","address":"上海市 建国西路221号2楼"},{"poiid":"B2094655D26BA7F54493","title":"锦岩小区","lon":"121.456","lat":"31.207531","category":"47","category_name":"住宅区","address":"永嘉路385弄"},{"poiid":"B2094757D169A6FB469D","title":"TITTIO 花店","lon":"121.46006773","lat":"31.20536577","category":"500","category_name":"未知分类","address":"上海徐汇区建国西路尚街Loft"},{"poiid":"B2094757D569A3FF4999","title":"睿科学院","lon":"121.460266","lat":"31.204565","category":"52","category_name":"高等院校","address":"SUNFLOWER2号楼208"},{"poiid":"B2094757D065A6F44892","title":"甘邨","lon":"121.45961663","lat":"31.207927424","category":"500","category_name":"未知分类","address":"嘉善路143弄"},{"poiid":"B2094655D26CA4FA429E","title":"高雅苑（北门）","lon":"121.46104","lat":"31.20597","category":"47","category_name":"住宅区","address":""},{"poiid":"B2094655D26BABFB449E","title":"锦岩小区(北门)","lon":"121.45599","lat":"31.20776","category":"47","category_name":"住宅区","address":""},{"poiid":"B2094757D164A7F9409F","title":"回力　迪美","lon":"121.459879738","lat":"31.2079533255","category":"500","category_name":"未知分类","address":"上海迪美广场"},{"poiid":"B2094757D06BA0F54392","title":"客堂间璞堤克酒店(永嘉路店)","lon":"121.45759","lat":"31.20845","category":"217","category_name":"旅馆招待所","address":"徐汇区永嘉路335号(近襄阳南路)"},{"poiid":"B2094757D169A6F9489D","title":"枫叶交响幼儿园","lon":"121.45987973","lat":"31.207953325","category":"253","category_name":"校园生活","address":"徐汇区太原路87号"},{"poiid":"B2094757DA69A2FD4192","title":"STABILO思笔乐","lon":"121.45893671085","lat":"31.204799479456","category":"646","category_name":"文化体育类公司","address":"建国西路283号1号楼506室"},{"poiid":"B2094757D16AA5F5499D","title":"静静~Home","lon":"121.460487838","lat":"31.2071962094","category":"500","category_name":"未知分类","address":null},{"poiid":"B2094654DA6DA6F84892","title":"嘉善菜场","lon":"121.45581","lat":"31.20457","category":"117","category_name":"便民商店/便利店","address":"上海建国西路太原路"},{"poiid":"B2094655D26FA4F5459B","title":"建国西路211弄小区(北门)","lon":"121.46134","lat":"31.20609","category":"47","category_name":"住宅区","address":"建国西路211弄1-12号"},{"poiid":"B2094655D26CA4FA429F","title":"高雅苑（北一门）","lon":"121.46129","lat":"31.20607","category":"47","category_name":"住宅区","address":""},{"poiid":"B2094655D26BAAFE4293","title":"正蕃小筑(南门)","lon":"121.45565","lat":"31.20793","category":"47","category_name":"住宅区","address":"永嘉路396弄1-8号"},{"poiid":"B2094752DB68AAFF479B","title":"张怡筠情商工作室","lon":"121.45980833056","lat":"31.204602891162","category":"190","category_name":"培训机构","address":"徐汇区嘉善路508号1号楼411室"},{"poiid":"B2094750DA69A2FC4799","title":"針藏刺青","lon":"121.458641","lat":"31.20412","category":"248","category_name":"生活娱乐","address":"襄陽南路416號甲"},{"poiid":"B2094654DB65A1FA4198","title":"小棚屋酒吧","lon":"121.45589","lat":"31.20772","category":"172","category_name":"酒吧","address":"永嘉路385弄5号"},{"poiid":"B2094757D16BA2FC419F","title":"GRAND DESIGN","lon":"121.46067273","lat":"31.207208809","category":"500","category_name":"未知分类","address":"上海市徐汇区陕西南路550弄37号B308"},{"poiid":"B2094757D16CA5F44692","title":"畅安阁养生会馆(建国西路店)","lon":"121.46074","lat":"31.20506","category":"149","category_name":"洗浴推拿场所","address":"徐汇区建国西路253号(近嘉善路)"},{"poiid":"B2094654DB6BA5FA4892","title":"快客","lon":"121.458","lat":"31.20923","category":"117","category_name":"便民商店/便利店","address":"永嘉路296"},{"poiid":"B2094655D264A6F44992","title":"David'sHouse","lon":"121.45604","lat":"31.2043","category":"247","category_name":"餐饮美食","address":"建国西路355弄9号"},{"poiid":"B2094655D268A1FA479C","title":"科普弄","lon":"121.46144","lat":"31.20662","category":"47","category_name":"住宅区","address":"建国西路212乙"},{"poiid":"B2094655D26CA4FA419A","title":"世家小区（西门）","lon":"121.45981","lat":"31.20884","category":"47","category_name":"住宅区","address":"嘉善路169弄"},{"poiid":"B2094655D268A5F9419A","title":"永嘉路300弄小区","lon":"121.45758","lat":"31.20931","category":"47","category_name":"住宅区","address":"永嘉路300弄1-20号"},{"poiid":"B2094757D66EA6FE479B","title":"天平街道敬老院","lon":"121.45956873","lat":"31.208053827","category":"615","category_name":"敬老院","address":"上海市徐汇区嘉善路232弄17号"},{"poiid":"B2094757D06AAAFE4492","title":"闪电骑士","lon":"121.46141","lat":"31.20577","category":"140","category_name":"体育用品店","address":"徐汇区建国西路221号(近嘉善路)"},{"poiid":"B2094757D16BA4F44198","title":"SHERPAS FOOD DELIVERY SERVICE","lon":"121.4585","lat":"31.20403","category":"500","category_name":"未知分类","address":"上海  "},{"poiid":"B2094655D26CA4FA419B","title":"甘邨（西门）","lon":"121.45971","lat":"31.20908","category":"47","category_name":"住宅区","address":"嘉善路137弄1-6号"},{"poiid":"B2094757D66DABFD4898","title":"汇蝶美容SPA","lon":"121.4601016","lat":"31.20423236","category":"148","category_name":"美容美发店","address":"上海市嘉善路508弄2号2206室"},{"poiid":"B2094751DA65A7F84198","title":"陕西南路","lon":"121.456447","lat":"31.205327","category":"251","category_name":"出行住宿","address":"陕西南路333弄"},{"poiid":"B2094654DA6DA6FB409B","title":"上海高砂鉴臣香料有限公司","lon":"121.45787","lat":"31.20409","category":"263","category_name":"公司","address":"襄阳南路516"},{"poiid":"B2094757D16EA6FD449E","title":"型人坊贰号店","lon":"121.45812225","lat":"31.209533691","category":"260","category_name":"其他","address":"上海新乐路216号"},{"poiid":"B2094655D36CA2FC4593","title":"上海美丽田园美容发展有限公司","lon":"121.46026","lat":"31.20456","category":"263","category_name":"公司","address":"SUNFLOWER2号楼201-205"},{"poiid":"B2094757D16AA0FE419B","title":"来来棋牌室","lon":"121.456845738","lat":"31.204360749","category":"175","category_name":"棋牌室","address":"上海建国西路348号"},{"poiid":"B2094757D66DABF9419C","title":"洋葱餐厅","lon":"121.460155","lat":"31.204127116","category":"500","category_name":"未知分类","address":"上海嘉善路508号1号楼201"},{"poiid":"B2094654DB65A1FA409D","title":"财通证券襄阳南路证券营业厅","lon":"121.45828","lat":"31.20415","category":"219","category_name":"其他","address":"襄阳南路485、489号金环大厦"},{"poiid":"B2094757D06AA1FA409A","title":"荡住吃唱社团私人生活会所","lon":"121.459714","lat":"31.209086","category":"500","category_name":"未知分类","address":"上海嘉善路137弄1号"},{"poiid":"B2094654DA6DA6FA4293","title":"建业棋牌室","lon":"121.45655","lat":"31.20449","category":"175","category_name":"棋牌室","address":"建国西路331"},{"poiid":"B2094655D26FAAFD4892","title":"襄阳公寓(东门)","lon":"121.45825","lat":"31.20347","category":"48","category_name":"楼宇大门","address":""},{"poiid":"B2094752D16EA6F9459A","title":"美罗城广场","lon":"121.456307","lat":"31.204314","category":"248","category_name":"生活娱乐","address":null}]