[{"poiid":"B2094655D26BA1FE4498","title":"泥城","lon":"121.82807","lat":"30.90049","category":"38","category_name":"公交车站","address":"上海市南汇区彩云路220-843弄"},{"poiid":"B2094757D16DA3F44398","title":"美芦苑","lon":"121.84345917","lat":"30.898108517","category":"252","category_name":"楼宇机构","address":"浦东新区南芦公路2160弄30号"},{"poiid":"B2094654DB68ABFB4093","title":"净心庵","lon":"121.84474","lat":"30.90634","category":"244","category_name":"寺庙道观","address":""},{"poiid":"B2094655D36CA1FF449E","title":"芦潮港火车站(招呼站)","lon":"121.84968","lat":"30.8839","category":"38","category_name":"公交车站","address":""},{"poiid":"B2094654DB68ABFB4693","title":"文卫新村","lon":"121.83437","lat":"30.897686","category":"47","category_name":"住宅区","address":"南芦公路"},{"poiid":"B2094654DB68ABFB4298","title":"泥城革命史迹馆","lon":"121.83441","lat":"30.89469","category":"182","category_name":"博物馆","address":"南芦公路1887"},{"poiid":"B2094757D464A7F94392","title":"千岛湖淳鲜馆 南芦公路店","lon":"121.833654","lat":"30.895473","category":"260","category_name":"其他","address":"浦东新区南芦公路1885号"},{"poiid":"B2094655D265ABFD439B","title":"临港泥城苑","lon":"121.831","lat":"30.9045","category":"47","category_name":"住宅区","address":"浦东新区临港新城泥城社区"},{"poiid":"B2094757D16BA5FB4799","title":"新禧酒家","lon":"121.82972","lat":"30.90223","category":"76","category_name":"上海菜","address":"浦东新区泥城镇泥城路南侧(近南芦公路)"},{"poiid":"B2094654DB68ABFB469F","title":"美换新村","lon":"121.83353","lat":"30.89845","category":"47","category_name":"住宅区","address":"泥城路"},{"poiid":"B2094757D06AA6FF4099","title":"洋山深水港","lon":"121.848285","lat":"30.88067","category":"500","category_name":"未知分类","address":"上海小洋山"},{"poiid":"B2094757D168A1FE4193","title":"S2沪芦高速路海港大道立交道","lon":"121.86115895","lat":"30.904191975","category":"250","category_name":"公园户外","address":"上海市浦东新区海港大道"},{"poiid":"B2094655D36CA0FB4898","title":"汇角","lon":"121.83923","lat":"30.88835","category":"38","category_name":"公交车站","address":""},{"poiid":"B2094654DB68ABFB4798","title":"兴旺新村","lon":"121.83262","lat":"30.896828","category":"47","category_name":"住宅区","address":"南芦公路"},{"poiid":"B2094757DA65A5F54799","title":"如家快捷酒店（上海临港新城泥城产业园区店）","lon":"121.82525754","lat":"30.898243104","category":"216","category_name":"经济型连锁酒店","address":"上海市浦东新区泥城镇泥城路149弄3号"},{"poiid":"B2094655D26EA0F5409D","title":"南汇区光明中医医院临港泥城分院","lon":"121.82958","lat":"30.89938","category":"162","category_name":"医院","address":"南芦公路1843号"},{"poiid":"B2094757D168A6F5409E","title":"世纪联华(泥城店)","lon":"121.83094","lat":"30.90368","category":"117","category_name":"便民商店/便利店","address":"浦东新区泥城镇泥城路(近南芦公路)"},{"poiid":"B2094654DB68ABF44192","title":"泥城影剧院","lon":"121.830541","lat":"30.903911","category":"178","category_name":"电影院","address":"新城中路"},{"poiid":"B2094757D064A3F54599","title":"泥城社区卫生服务中心","lon":"121.829587","lat":"30.899389","category":"500","category_name":"未知分类","address":"浦东新区泥城镇南芦公路1843号"},{"poiid":"B2094757D16EA6F9479A","title":"上海汽车发动机厂食堂","lon":"121.83806117","lat":"30.884445199","category":"500","category_name":"未知分类","address":"上海两港大道2999号发动机厂"},{"poiid":"B2094654DB64A7FF429E","title":"早苗西饼屋","lon":"121.82804","lat":"30.90086","category":"112","category_name":"糕饼店","address":""},{"poiid":"B2094654DB64A7FF4293","title":"芦潮港敬老院","lon":"121.84168","lat":"30.8873","category":"615","category_name":"敬老院","address":""},{"poiid":"B2094757D16AA3FD4299","title":"千岛湖淳鲜馆","lon":"121.82700147","lat":"30.9009123832","category":"247","category_name":"餐饮美食","address":"上海近郊南汇惠南镇听潮路138号  "},{"poiid":"B2094757D064A7F54893","title":"泥城镇老八样","lon":"121.82991","lat":"30.89909","category":"500","category_name":"未知分类","address":"上海近郊南芦公路1885号(泥城镇东首)  "},{"poiid":"B2094655D26DA5FC499B","title":"云锦佳苑","lon":"121.82602","lat":"30.900362","category":"47","category_name":"住宅区","address":"泥城路88弄1-27号"},{"poiid":"B2094655D26DA5FF439D","title":"云锦丽苑","lon":"121.82693","lat":"30.899395","category":"47","category_name":"住宅区","address":"泥城路89弄"},{"poiid":"B2094757D66CA1FF409C","title":"韶梦酒店","lon":"121.86173295","lat":"30.905512008","category":"76","category_name":"上海菜","address":"上海市浦东新区南果公路"},{"poiid":"B2094655D36DA3F94193","title":"汇角桥","lon":"121.8425","lat":"30.883","category":"250","category_name":"公园户外","address":""},{"poiid":"B2094655D26BA1FE449A","title":"泥城路彭平路","lon":"121.82547","lat":"30.89881","category":"38","category_name":"公交车站","address":""},{"poiid":"B2094757D165A6FE499C","title":"嵊泗海边人家","lon":"121.86312795","lat":"30.903797966","category":"247","category_name":"餐饮美食","address":"上海嵊泗海边人家"},{"poiid":"B2094654DB69A6FF4298","title":"邮政储蓄泥城支所","lon":"121.82898","lat":"30.90191","category":"150","category_name":"银行","address":"浦东新区泥城镇泥城路21号"},{"poiid":"B2094655D26BA1FF459A","title":"南芦公路两港大道","lon":"121.84405","lat":"30.87977","category":"38","category_name":"公交车站","address":""},{"poiid":"B2094655D26DA5FF459C","title":"云锦新苑","lon":"121.8256","lat":"30.897806","category":"47","category_name":"住宅区","address":"泥城路131弄1-32号"},{"poiid":"B2094752D665A0FE499A","title":"滴水湖","lon":"121.844093","lat":"30.881384","category":"250","category_name":"公园户外","address":null},{"poiid":"B2094654DB64ABFD409B","title":"中国移动泥城营业厅","lon":"121.82553","lat":"30.90011","category":"151","category_name":"电讯营业厅","address":"南汇区泥城镇彭华路西段12号"},{"poiid":"B2094655D36DA3F8499B","title":"横沙港桥","lon":"121.83342","lat":"30.91194","category":"250","category_name":"公园户外","address":""},{"poiid":"B2094654DB68ABFA449B","title":"中国农业银行南汇区泥城支行","lon":"121.82678","lat":"30.90279","category":"150","category_name":"银行","address":"浦东新区泥城镇新城路6号"},{"poiid":"B2094654DB64A4FF409C","title":"中国农业银行泥城支行ATM取款机","lon":"121.82677","lat":"30.9028","category":"152","category_name":"ATM","address":"新城路6"},{"poiid":"B2094654DB69AAF5419A","title":"芦潮港派出所","lon":"121.84822","lat":"30.88042","category":"609","category_name":"警察局","address":"南汇区老芦公路2000号"},{"poiid":"B2094654DB65AAF5449F","title":"南汇区人民法院芦潮港法庭","lon":"121.84837","lat":"30.88076","category":"252","category_name":"楼宇机构","address":"南汇区芦潮港镇果园桥车站东首"},{"poiid":"B2094654DB68ABFA459F","title":"上海申鼎金属结构件有限公司","lon":"121.82909","lat":"30.90984","category":"263","category_name":"公司","address":"人民路1588号"},{"poiid":"B2094757D568A1FE499F","title":"中国联通国际海缆登陆站","lon":"121.84354519","lat":"30.88007704","category":"636","category_name":"通讯及服务类公司","address":"中国上海市浦东新区南芦公路"}]