[{"poiid":"B2094655D26BA2FA4492","title":"泰日","lon":"121.56466","lat":"30.98779","category":"38","category_name":"公交车站","address":"上海奉贤区泰日镇光耀村陈李宅"},{"poiid":"B2094655D264A0F9489D","title":"泰南新村","lon":"121.567","lat":"30.9862","category":"47","category_name":"住宅区","address":"上海市奉贤区振泰路168弄"},{"poiid":"B2094757D16CA6FB419F","title":"申亚会所度假村","lon":"121.565014","lat":"30.981135","category":"500","category_name":"未知分类","address":"上海市奉贤区金汇镇泰日社区明星村"},{"poiid":"B2094654DB68A2FA4192","title":"奉贤区泰日学校","lon":"121.56486","lat":"30.98547","category":"56","category_name":"小学","address":""},{"poiid":"B2094654DB64A0F44992","title":"绿色家园","lon":"121.55652","lat":"30.979368","category":"47","category_name":"住宅区","address":"上海市奉贤区大叶公路6698号"},{"poiid":"B2094655D26BA2FA449C","title":"泰日老街","lon":"121.56321","lat":"30.9869","category":"38","category_name":"公交车站","address":""},{"poiid":"B2094654DB69ABF94598","title":"塞纳河畔(奉浦店)","lon":"121.56318","lat":"30.98675","category":"216","category_name":"经济型连锁酒店","address":"闵行区南桥镇环城东路696号"},{"poiid":"B2094757D164A5FD4498","title":"新泰大酒店","lon":"121.569467882","lat":"30.9783394081","category":"76","category_name":"上海菜","address":"近郊奉贤区大叶公路(林海公路口)"},{"poiid":"B2094654DB65A6FF429D","title":"泰日中学","lon":"121.56542","lat":"30.98456","category":"55","category_name":"中学","address":"奉贤区金汇镇泰日社区泰青路142号"},{"poiid":"B2094655D26FA4FA409D","title":"上海同福·易家丽国际石材产业城(北门)","lon":"121.57752","lat":"30.98011","category":"123","category_name":"家具建材市场","address":"大叶公路6818"},{"poiid":"B2094654DB64AAFC4498","title":"泰日学校中学部","lon":"121.56423","lat":"30.98502","category":"55","category_name":"中学","address":""},{"poiid":"B2094654DB65A2FE4198","title":"金汇泰磊经济园区","lon":"121.56501","lat":"30.9832","category":"45","category_name":"产业园区","address":"金汇镇泰青公路265号"},{"poiid":"B2094757D46DABF54893","title":"悸动台湾正宗烧仙草 泰日镇店","lon":"121.563444","lat":"30.981054","category":"113","category_name":"冷饮店","address":"近郊奉贤区泰日镇大昌南路105号"},{"poiid":"B2094654DB68A2FA4199","title":"泰日派出所","lon":"121.56496","lat":"30.98369","category":"609","category_name":"警察局","address":"奉贤区大叶公路6669号"},{"poiid":"B2094654DB64ABF5499B","title":"中国移动泰日营业厅","lon":"121.56439","lat":"30.98274","category":"151","category_name":"电讯营业厅","address":"奉贤区泰日镇新建路11号"},{"poiid":"B2094654DB68A2FA4093","title":"泰南花苑","lon":"121.56345","lat":"30.979218","category":"47","category_name":"住宅区","address":"泰日泰南花苑60幢"},{"poiid":"B2094655D36CA7F5429E","title":"光新桥(招呼站)","lon":"121.57074","lat":"30.97959","category":"38","category_name":"公交车站","address":""},{"poiid":"B2094757D16AA0FB4798","title":"光耀村419号","lon":"121.56045997","lat":"30.991223318","category":"47","category_name":"住宅区","address":null},{"poiid":"B2094655D26BA2FA449D","title":"泰日加油站","lon":"121.55973","lat":"30.98598","category":"38","category_name":"公交车站","address":"上海市奉贤区大叶公路6843号"},{"poiid":"B2094655D36CA5FB469B","title":"菜场","lon":"121.57579","lat":"30.98008","category":"38","category_name":"公交车站","address":""},{"poiid":"B2094757D568A1F84892","title":"上海市奉贤区金汇镇圣奇果园","lon":"121.57256592","lat":"30.99808946","category":"260","category_name":"其他","address":"中国上海市奉贤区东环路"},{"poiid":"B2094654DB68A2FA4092","title":"天天家常菜(泰南花苑东)","lon":"121.56473","lat":"30.97953","category":"257","category_name":"中餐厅","address":"大叶公路"},{"poiid":"B2094654DB68A2FA419B","title":"荣记面包房","lon":"121.56307","lat":"30.98247","category":"112","category_name":"糕饼店","address":"泰青公路"},{"poiid":"B2094655D36CA1F8499A","title":"六岔道","lon":"121.56593","lat":"30.97921","category":"38","category_name":"公交车站","address":""},{"poiid":"B2094655D26EAAFC429F","title":"上海农村商业银行泰日支行","lon":"121.56513","lat":"30.98249","category":"150","category_name":"银行","address":"泰青公路295"},{"poiid":"B2094757D16BA0FC4393","title":"上海维凯食品原料厂","lon":"121.57250188","lat":"30.999927933","category":"500","category_name":"未知分类","address":"上海奉贤泰日镇人民路24号"},{"poiid":"B2094757D66EA1F94799","title":"上海城市园艺场","lon":"121.55429465","lat":"30.998489686","category":"500","category_name":"未知分类","address":"上海闵行区浦江镇"},{"poiid":"B2094757D16AA3FB459F","title":"汇南村奉宁草莓基地","lon":"121.55773688","lat":"31.001889981","category":"500","category_name":"未知分类","address":"上海市闵行区永南路召泰路口"},{"poiid":"B2094654DB64ABF54999","title":"同福·易家丽国际石材产业城","lon":"121.57721","lat":"30.97516","category":"123","category_name":"家具建材市场","address":""},{"poiid":"B2094654DB6FA0F8429B","title":"上海曼丽弗制衣有限公司","lon":"121.55738","lat":"31.00053","category":"263","category_name":"公司","address":""},{"poiid":"B2094654DB64A4F84998","title":"上海熙成制衣有限公司","lon":"121.57828","lat":"31.0055","category":"263","category_name":"公司","address":"航南公路1018"},{"poiid":"B2094655D26FA4F9409E","title":"绿色家园(南门)","lon":"121.5568","lat":"30.97861","category":"48","category_name":"楼宇大门","address":"大叶公路"}]