[{"poiid":"B2094757D06EAAF9489A","title":"上海海事大学(海港大道校区)","lon":"121.90657019","lat":"30.878326929","category":"52","category_name":"高等院校","address":"上海浦东新区临港新城海港大道1550号"},{"poiid":"B2094757D06FA7F5479E","title":"中国航海博物馆","lon":"121.9194127","lat":"30.89597387","category":"182","category_name":"博物馆","address":"浦东新区申港大道197号(近南汇区行政中心)"},{"poiid":"B2094757D56EA2FF429F","title":"上海滴水湖皇冠假日酒店","lon":"121.93648338317871","lat":"30.89108501037207","category":"251","category_name":"出行住宿","address":"上海,上海市,上海市浦东新区临港新城南岛1号"},{"poiid":"B2094757D06FA3FA409C","title":"滴水湖","lon":"121.93183575","lat":"30.896988697","category":"260","category_name":"其他","address":"上海浦东新区"},{"poiid":"B2094757D06FA7F8489D","title":"上海海事大学(临港校区)第三教学区","lon":"121.91082","lat":"30.875928878","category":"253","category_name":"校园生活","address":"上海市浦东新区海港大道1550号"},{"poiid":"B2094655D36CA1F9499D","title":"临港新城滴水湖","lon":"121.92694","lat":"30.88556","category":"38","category_name":"公交车站","address":""},{"poiid":"B2094751D26DA7F9479A","title":"上海市第六人民医院东院","lon":"121.93177","lat":"30.88894","category":"627","category_name":"一般地点标志","address":"浦东新区环湖西三路222号"},{"poiid":"B2094750DB64A0FC4698","title":"上海第六人民医院东院","lon":"121.923934","lat":"30.883888","category":"248","category_name":"生活娱乐","address":"环湖西三路222号"},{"poiid":"B2094655D265A5FB489B","title":"绿地东岸涟城","lon":"121.919","lat":"30.8852","category":"47","category_name":"住宅区","address":"浦东新区临港新城环湖西三路古棕路交界处"},{"poiid":"B2094752D06AA1F84799","title":"六院东院","lon":"121.922485","lat":"30.885223","category":"47","category_name":"住宅区","address":"环湖西三路222号"},{"poiid":"B2094751D26AA5FB449E","title":"上海市第六人民医院东院","lon":"121.919128","lat":"30.883774","category":"500","category_name":"未知分类","address":null},{"poiid":"B2094654DB64A5FB439D","title":"临港城投大厦","lon":"121.92588","lat":"30.89457","category":"46","category_name":"楼宇","address":"东城区东华门大街26号"},{"poiid":"B209475CD46CA4FB479E","title":"上海17.5影城(临港店)","lon":"121.916999","lat":"30.883193","category":"178","category_name":"电影院","address":"上海市 上海市浦东新区临港新城环湖西二路588号广昊世纪大厦2楼"},{"poiid":"B2094751D365A3F4459F","title":"六院东院","lon":"121.930267","lat":"30.887543","category":"47","category_name":"住宅区","address":"六院二楼"},{"poiid":"B2094757D16BA6F8489B","title":"古棕路美人蕉路站(公交龙港线,三港线,申港1路)","lon":"121.91516977","lat":"30.8813486357","category":"38","category_name":"公交车站","address":"上海市浦东新区古棕路美人蕉路"},{"poiid":"B2094753D26BAAFA4799","title":"17.5影院","lon":"121.922912","lat":"30.894739","category":"178","category_name":"电影院","address":"上海市 申港大道环湖西二路"},{"poiid":"B2094757D66CABF8409E","title":"滴水湖(环湖西一路申港大道)站(公交龙港快线,三港线,申港1路)","lon":"121.9265778","lat":"30.8966433","category":"38","category_name":"公交车站","address":"上海市浦东新区环湖西一路申港大道"},{"poiid":"B2094752D165A1F8469C","title":"24k临港店","lon":"121.920715","lat":"30.879654","category":"248","category_name":"生活娱乐","address":"古棕路"},{"poiid":"B2094751D365A0F54698","title":"六院临港分院","lon":"121.9182156958821","lat":"30.8879717532833","category":"500","category_name":"未知分类","address":null},{"poiid":"B2094757D66DA4FF469E","title":"浪漫之光KTV","lon":"121.91539295","lat":"30.881099402","category":"170","category_name":"KTV","address":"浦东新区临港新城古棕路438弄10-11号(近上海海事大学临港校区3号门)"},{"poiid":"B2094757D06BA4FF4892","title":"临港家园社区卫生服务站","lon":"121.917291641","lat":"30.8800082484","category":"162","category_name":"医院","address":"上海古棕路555弄119号"},{"poiid":"B2094655D26DA0F44899","title":"锦江之星临港新城店","lon":"121.92385","lat":"30.90291","category":"216","category_name":"经济型连锁酒店","address":"上海市浦东新区临港新城环湖西二路960号"},{"poiid":"B2094750D26FA4FE429A","title":"东海","lon":"121.927848","lat":"30.879232","category":"251","category_name":"出行住宿","address":"无"},{"poiid":"B2094757D164A7FE409B","title":"海洋小区","lon":"121.91336822","lat":"30.881204605","category":"47","category_name":"住宅区","address":"上海南汇古棕路(近滴水湖)"},{"poiid":"B2094655D26DA5FC4792","title":"绿地·临港家园海洋小区","lon":"121.91242","lat":"30.88209","category":"47","category_name":"住宅区","address":""},{"poiid":"B2094757D569A1F94598","title":"蜀湘村川菜馆","lon":"121.912524","lat":"30.879279","category":"71","category_name":"四川菜","address":"浦东新区临港新城古棕路23号(近滴水湖)"},{"poiid":"B2094757D065A0FE479E","title":"锦江大厨(临港新城店)","lon":"121.92134","lat":"30.89823","category":"76","category_name":"上海菜","address":"浦东新区环湖西二路960号锦江之星临港新城店内(环湖西二路申港大道)"},{"poiid":"B2094752D36AABFB449D","title":"上海海事大学海馨楼","lon":"121.911682","lat":"30.881195","category":"68","category_name":"快餐厅","address":"浦东新区临港新城海港大道1550号海事大学新校区内(近学生服务中心)"},{"poiid":"B2094655D26FA3FF449B","title":"双港宾馆","lon":"121.9141","lat":"30.88088","category":"250","category_name":"公园户外","address":"浦东新区南汇临港新城古棕路438弄6号(近上海海事大学临港校区)"},{"poiid":"B2094655D264A7F94298","title":"领港中心","lon":"121.92175","lat":"30.89798","category":"47","category_name":"住宅区","address":"上海市长宁区延安西路2077号"},{"poiid":"B2094757D66DA3FD4092","title":"上海海事大学(临港校区) 校医院","lon":"121.913373","lat":"30.875324","category":"162","category_name":"医院","address":"上海市浦东新区区海港大道1550号"},{"poiid":"B2094757D068A4F4419C","title":"上海临港新城展示中心","lon":"121.9269272","lat":"30.90033946","category":"46","category_name":"楼宇","address":"上海浦东新区环湖西一路99号"},{"poiid":"B209475CD06FA3FB419D","title":"滴水湖露营烧烤区","lon":"121.93822","lat":"30.89149","category":"269","category_name":"烧烤","address":"环湖西一路(近皇冠假日酒店)"},{"poiid":"B2094757D76DA1FE409F","title":"川海渔坊","lon":"121.909079","lat":"30.877938","category":"71","category_name":"四川菜","address":"浦东新区临港新城沪城环路海事商业广场(近近海事大学临港校区5号门)"},{"poiid":"B2094757D169A1FE4598","title":"滴水湖壹号 - 湖鲜尊","lon":"121.92788395","lat":"30.901539909","category":"500","category_name":"未知分类","address":"上海市浦东新区环湖西一路808号"},{"poiid":"B2094757D168A7FC449A","title":"悦临酒店","lon":"121.92965595","lat":"30.899707364","category":"75","category_name":"浙江菜","address":"浦东新区临港新城环湖西一路99号"},{"poiid":"B2094757DA6EA6FD4292","title":"健康林","lon":"121.928114891053","lat":"30.8975848575568","category":"250","category_name":"公园户外","address":"浦东新区申港大道(近环湖西一路)"},{"poiid":"B2094655D36CA0F44799","title":"环湖西二路申港大道","lon":"121.92223","lat":"30.89955","category":"38","category_name":"公交车站","address":""},{"poiid":"B2094757D168A3F94492","title":"上海临港新城建设工程管理有限公司","lon":"121.925611958","lat":"30.8999328701","category":"46","category_name":"楼宇","address":"上海市浦东新区环湖西一路99号1号楼"},{"poiid":"B2094757D16FA7F9419F","title":"上海海事大学(临港校区)经济管理学院","lon":"121.907716","lat":"30.875527","category":"253","category_name":"校园生活","address":"上海浦东新区临港新城海港大道1550号(海事大学三号门)"},{"poiid":"B2094757D065A5FB409A","title":"滴水湖馨苑","lon":"121.90813","lat":"30.895124","category":"47","category_name":"住宅区","address":"上海市浦东新区茉莉路"},{"poiid":"B2094757D065A7FA469B","title":"罗森(滴水湖店)","lon":"121.92561495","lat":"30.89995287","category":"117","category_name":"便民商店/便利店","address":"上海市浦东新区环湖西一路99号20号楼102"},{"poiid":"B2094757D165A3F4429C","title":"上海海事大学3C 103","lon":"121.91112525","lat":"30.876929699","category":"500","category_name":"未知分类","address":"上海海事大学3C 103"},{"poiid":"B2094757D164A5F5459E","title":"海事海洋共享区厨艺烤试","lon":"121.908481658","lat":"30.8786513422","category":"500","category_name":"未知分类","address":"上海临港新区"},{"poiid":"B2094757D66CA3FA4798","title":"申港大道街道","lon":"121.925635571","lat":"30.9033117558","category":"47","category_name":"住宅区","address":"上海市浦东新区申港街道"},{"poiid":"B2094757D168A6FC4293","title":"上海海事大学(临港校区)外国语学院","lon":"121.90778165","lat":"30.873911809","category":"500","category_name":"未知分类","address":"上海浦东新区临港新城海港大道1550号(海事大学三号门)"},{"poiid":"B2094757D165A2FD4492","title":"上海海事大学36号楼425","lon":"121.910391","lat":"30.875561","category":"500","category_name":"未知分类","address":"上海市临港新城海港大道1550号"},{"poiid":"B2094757D16BAAFE469D","title":"上海海事大学 3c101","lon":"121.90700035","lat":"30.877859455","category":"500","category_name":"未知分类","address":"上海海事大学临港校区 3c101"},{"poiid":"B2094757D16BABF9439E","title":"美食林","lon":"121.92527095","lat":"30.901232902","category":"500","category_name":"未知分类","address":"上海市浦东新区环湖西一路99号7号楼"},{"poiid":"B2094757D16EA4F5489D","title":"上海海事大学47#117","lon":"121.906571","lat":"30.878323","category":"500","category_name":"未知分类","address":"上海海事大學47#117"}]