[{"poiid":"B2094757D06FA2F8409B","title":"上海商学院(奉浦校区)","lon":"121.45717","lat":"30.94149","category":"52","category_name":"高等院校","address":"近郊奉浦大道123号(近奉浦大厦)"},{"poiid":"B2094757D065AAFB419B","title":"上海南桥绿地逸东华酒店","lon":"121.46080291","lat":"30.941811546","category":"217","category_name":"旅馆招待所","address":"上海市奉贤区南桥环城东路473号(近奉浦大道)"},{"poiid":"B2094654DB64A4FD409E","title":"南郊宾馆","lon":"121.48276","lat":"30.92526","category":"213","category_name":"五星级宾馆","address":"近郊奉贤区望园路8号(近团南公路)"},{"poiid":"B2094654DB68A2F9499B","title":"老街绿地南桥新苑","lon":"121.47113","lat":"30.92874","category":"47","category_name":"住宅区","address":"上海市奉贤区环城东路885弄"},{"poiid":"B2094757D165A2FA419C","title":"上海商学院女生宿舍","lon":"121.45836891","lat":"30.940309512","category":"500","category_name":"未知分类","address":"上海市奉贤区奉浦大道"},{"poiid":"B2094757D068A5FD469F","title":"易买得(南桥店)","lon":"121.467010321","lat":"30.9226883296","category":"118","category_name":"超级市场","address":"上海近郊奉贤区南桥镇环城东路891-921号"},{"poiid":"B2094654DB6FAAF8489D","title":"塞纳河畔 奉浦店","lon":"121.46427","lat":"30.92857","category":"75","category_name":"浙江菜","address":"近郊奉贤奉浦环城东路696号(近航南路)"},{"poiid":"B2094757D069A3FE4193","title":"奉贤区国家税务局","lon":"121.45956130971331","lat":"30.942345027487875","category":"617","category_name":"政府机构","address":"上海奉贤区南桥镇奉浦工业区奉浦大道111号"},{"poiid":"B2094757D06BA7F94298","title":"上海丽洲休闲俱乐部","lon":"121.45841091","lat":"30.947153668","category":"500","category_name":"未知分类","address":"上海市奉贤区环城东路383-399号(近奉浦大道)"},{"poiid":"B2094757D064A7FA409A","title":"奉浦四季生态园","lon":"121.47242491","lat":"30.935544403","category":"500","category_name":"未知分类","address":"近郊奉贤航南公路(近韩谊路)"},{"poiid":"B2094654DB68A2FE409F","title":"迪豪小田园酒店","lon":"121.46408","lat":"30.93087","category":"75","category_name":"浙江菜","address":"近郊奉贤区奉浦环城东路781号(南桥环城东路韩村路)"},{"poiid":"B2094757D16CAAFB409B","title":"森勤国际大酒店","lon":"121.461094916","lat":"30.9326253365","category":"217","category_name":"旅馆招待所","address":"上海市奉贤区团南公路南桥路"},{"poiid":"B2094757D16EA0F44092","title":"百合苑","lon":"121.470248929","lat":"30.9390231194","category":"500","category_name":"未知分类","address":"上海八字桥路158号"},{"poiid":"B2094750D26FA7FB409B","title":"赛露维","lon":"121.465347","lat":"30.927162","category":"76","category_name":"上海菜","address":"近郊奉贤区南桥镇环城东路883弄63号(近南桥老街)"},{"poiid":"B2094750D665A0FF4498","title":"舍得坊私房酒家","lon":"121.475","lat":"30.9365","category":"76","category_name":"上海菜","address":"近郊奉贤航南公路5000号生态园四季广场1-2楼"},{"poiid":"B2094654DB69A7F9479F","title":"聚贤煌都","lon":"121.46578","lat":"30.940882","category":"47","category_name":"住宅区","address":"奉贤区奉浦大道95弄"},{"poiid":"B2094655D264A1FB4392","title":"小元国(环城东路店)","lon":"121.46386","lat":"30.93107","category":"76","category_name":"上海菜","address":"近郊奉贤区环城东路777号(近航南公路)"},{"poiid":"B2094757D065AAF44098","title":"韩村路小吃街","lon":"121.459640503","lat":"30.9418373108","category":"247","category_name":"餐饮美食","address":"奉贤区韩村路（近上海商学院）"},{"poiid":"B2094757D16EA5F44998","title":"家渔沪晓","lon":"121.46188","lat":"30.93676","category":"76","category_name":"上海菜","address":"近郊奉贤区环城东路611号(近八字桥路)"},{"poiid":"B2094757D064A6FB419E","title":"南郊林农家乐","lon":"121.4798496","lat":"30.931089797","category":"260","category_name":"其他","address":"近郊奉贤区南航公路北侧(望园路口)"},{"poiid":"B2094757D664AAFB469C","title":"上海美都大酒店 MEIDU HOTEL","lon":"121.46965836441802","lat":"30.92584379644889","category":"76","category_name":"上海菜","address":"近郊奉贤区南桥镇运河北路155号(近环城东路、高洲路、S4高速南桥出口)"},{"poiid":"B2094757D568A1F8449C","title":"绿地智尊","lon":"121.471085129","lat":"30.929179517027","category":"46","category_name":"楼宇","address":"上海市奉贤区环城东路455,465弄"},{"poiid":"B2094757D06BA0F8459E","title":"上海商学院图文信息楼","lon":"121.45964","lat":"30.941838","category":"500","category_name":"未知分类","address":"上海商学院奉贤校区"},{"poiid":"B2094750D76DA1FC4792","title":"蒋记海鲜坊","lon":"121.475","lat":"30.9365","category":"260","category_name":"其他","address":"近郊奉贤区航南公路5000号生态园四季广场内"},{"poiid":"B2094655D26FA6FF499C","title":"锦江之星(奉贤南桥店)","lon":"121.46498","lat":"30.93118","category":"216","category_name":"经济型连锁酒店","address":"近郊奉贤区南桥镇航南公路5499号"},{"poiid":"B2094655D264A7FD4293","title":"九华新园","lon":"121.45996","lat":"30.931997","category":"47","category_name":"住宅区","address":"上海市奉贤区国顺路369弄"},{"poiid":"B2094757D16DA1F44198","title":"悦圣渔港","lon":"121.46122","lat":"30.93901","category":"76","category_name":"上海菜","address":"近郊奉贤区奉浦开发区环城东路525号(近八字桥路)"},{"poiid":"B2094654DB6FAAF84798","title":"奉浦大厦","lon":"121.45932","lat":"30.94281","category":"46","category_name":"楼宇","address":"上海奉浦大道111号"},{"poiid":"B2094757D66CA2F44599","title":"奉浦玫瑰苑","lon":"121.466213","lat":"30.937641","category":"500","category_name":"未知分类","address":"上海奉贤区环城东路八字桥路"},{"poiid":"B2094757D16DA6FB409B","title":"九华苑","lon":"121.46101","lat":"30.933996","category":"252","category_name":"楼宇机构","address":"上海奉浦国顺路318号"},{"poiid":"B2094757D66EA4FB449A","title":"奉浦苑","lon":"121.46478","lat":"30.934446","category":"500","category_name":"未知分类","address":"八字桥路219号"},{"poiid":"B2094757D06EAAF5459F","title":"绿地万豪酒店","lon":"121.46538383","lat":"30.939536039","category":"213","category_name":"五星级宾馆","address":"上海卢湾区江滨路99号"},{"poiid":"B2094757D165A3FC409E","title":"沈坚强健身俱乐部(奉贤店)","lon":"121.47096001","lat":"30.929098255","category":"148","category_name":"美容美发店","address":"近郊奉贤区南桥镇环城东路885弄270号(近航南公路)"},{"poiid":"B2094757D665A2FE469D","title":"湘乡人家","lon":"121.4615841","lat":"30.9366226","category":"77","category_name":"湖南菜","address":"近郊奉贤区环城东路600,606号(近八字桥路)"},{"poiid":"B2094654DB69A7FB409A","title":"华龙别墅","lon":"121.4707","lat":"30.9321","category":"47","category_name":"住宅区","address":"奉贤区江海镇"},{"poiid":"B2094757D568A1F8479E","title":"深呼吸KTV量贩欢城","lon":"121.46304362","lat":"30.93183078","category":"170","category_name":"KTV","address":"中国上海市奉贤区环城东路"},{"poiid":"B2094752D665A2FD439F","title":"罗曼园高级婚礼会所","lon":"121.470501","lat":"30.933207","category":"247","category_name":"餐饮美食","address":null},{"poiid":"B2094757D16FA7FF479D","title":"映山红湘菜馆(南桥店)","lon":"121.464495249","lat":"30.9291445903","category":"77","category_name":"湖南菜","address":"近郊奉贤区南桥环城东路850号(近易买得)"},{"poiid":"B2094654DB6FAAF84899","title":"奉贤中等专业学校","lon":"121.46009","lat":"30.93631","category":"54","category_name":"职业技术学校","address":"近郊奉贤区八字桥路626号"},{"poiid":"B209475CD76CA2F94998","title":"17.5影城（南桥四季广场店）","lon":"121.47112","lat":"30.932581","category":"178","category_name":"电影院","address":"上海市奉贤区航南公路5000号1幢1-3号"},{"poiid":"B2094757D06FA4FE4393","title":"凯桥绿地","lon":"121.465383832","lat":"30.939536039","category":"196","category_name":"公园","address":"上海长宁区延安西路凯旋路口  "},{"poiid":"B2094655D268ABFF489B","title":"八字桥路环岛","lon":"121.46621","lat":"30.93764","category":"250","category_name":"公园户外","address":""},{"poiid":"B2094757D064A7FA499B","title":"多多米线","lon":"121.45991","lat":"30.93948","category":"68","category_name":"快餐厅","address":"近郊奉贤区韩村路548号(近上海商学院)"},{"poiid":"B2094753D468ABF44398","title":"新都汇","lon":"121.461578","lat":"30.935951","category":"500","category_name":"未知分类","address":"上海市 环城东路630号"},{"poiid":"B2094757D164AAFB459A","title":"上海商学院4号楼","lon":"121.455162916","lat":"30.9380934615","category":"500","category_name":"未知分类","address":"上海商学院4号楼"},{"poiid":"B2094655D36CA7FB4799","title":"国顺路","lon":"121.46249","lat":"30.93408","category":"38","category_name":"公交车站","address":""},{"poiid":"B2094757D464A7F84693","title":"汤尼日本料理","lon":"121.46236557958","lat":"30.93136925716","category":"95","category_name":"日本料理","address":"近郊环城东路883弄13号"},{"poiid":"B2094655D36CA6FF4993","title":"奉浦新村","lon":"121.467","lat":"30.9447","category":"38","category_name":"公交车站","address":"川南奉公路202弄"},{"poiid":"B209475CD26BA5FD479A","title":"海上歌友","lon":"121.471023","lat":"30.931718","category":"170","category_name":"KTV","address":"上海市 环城东路630号"},{"poiid":"B2094757D465A1F94899","title":"永和豆浆 环城东路店","lon":"121.459204054","lat":"30.937173793","category":"68","category_name":"快餐厅","address":"近郊奉贤区环城东路619号(近八字桥路)"},{"poiid":"B2094757D06FA2F8409B","title":"上海商学院(奉浦校区)","lon":"121.45717","lat":"30.94149","category":"52","category_name":"高等院校","address":"近郊奉浦大道123号(近奉浦大厦)"},{"poiid":"B2094757D065AAFB419B","title":"上海南桥绿地逸东华酒店","lon":"121.46080291","lat":"30.941811546","category":"217","category_name":"旅馆招待所","address":"上海市奉贤区南桥环城东路473号(近奉浦大道)"},{"poiid":"B2094654DB64A4FD409E","title":"南郊宾馆","lon":"121.48276","lat":"30.92526","category":"213","category_name":"五星级宾馆","address":"近郊奉贤区望园路8号(近团南公路)"},{"poiid":"B2094654DB68A2F9499B","title":"老街绿地南桥新苑","lon":"121.47113","lat":"30.92874","category":"47","category_name":"住宅区","address":"上海市奉贤区环城东路885弄"},{"poiid":"B2094757D165A2FA419C","title":"上海商学院女生宿舍","lon":"121.45836891","lat":"30.940309512","category":"500","category_name":"未知分类","address":"上海市奉贤区奉浦大道"},{"poiid":"B2094757D068A5FD469F","title":"易买得(南桥店)","lon":"121.467010321","lat":"30.9226883296","category":"118","category_name":"超级市场","address":"上海近郊奉贤区南桥镇环城东路891-921号"},{"poiid":"B2094654DB6FAAF8489D","title":"塞纳河畔 奉浦店","lon":"121.46427","lat":"30.92857","category":"75","category_name":"浙江菜","address":"近郊奉贤奉浦环城东路696号(近航南路)"},{"poiid":"B2094757D069A3FE4193","title":"奉贤区国家税务局","lon":"121.45956130971331","lat":"30.942345027487875","category":"617","category_name":"政府机构","address":"上海奉贤区南桥镇奉浦工业区奉浦大道111号"},{"poiid":"B2094757D06BA7F94298","title":"上海丽洲休闲俱乐部","lon":"121.45841091","lat":"30.947153668","category":"500","category_name":"未知分类","address":"上海市奉贤区环城东路383-399号(近奉浦大道)"},{"poiid":"B2094757D064A7FA409A","title":"奉浦四季生态园","lon":"121.47242491","lat":"30.935544403","category":"500","category_name":"未知分类","address":"近郊奉贤航南公路(近韩谊路)"},{"poiid":"B2094654DB68A2FE409F","title":"迪豪小田园酒店","lon":"121.46408","lat":"30.93087","category":"75","category_name":"浙江菜","address":"近郊奉贤区奉浦环城东路781号(南桥环城东路韩村路)"},{"poiid":"B2094757D16CAAFB409B","title":"森勤国际大酒店","lon":"121.461094916","lat":"30.9326253365","category":"217","category_name":"旅馆招待所","address":"上海市奉贤区团南公路南桥路"},{"poiid":"B2094757D16EA0F44092","title":"百合苑","lon":"121.470248929","lat":"30.9390231194","category":"500","category_name":"未知分类","address":"上海八字桥路158号"},{"poiid":"B2094750D26FA7FB409B","title":"赛露维","lon":"121.465347","lat":"30.927162","category":"76","category_name":"上海菜","address":"近郊奉贤区南桥镇环城东路883弄63号(近南桥老街)"},{"poiid":"B2094750D665A0FF4498","title":"舍得坊私房酒家","lon":"121.475","lat":"30.9365","category":"76","category_name":"上海菜","address":"近郊奉贤航南公路5000号生态园四季广场1-2楼"},{"poiid":"B2094654DB69A7F9479F","title":"聚贤煌都","lon":"121.46578","lat":"30.940882","category":"47","category_name":"住宅区","address":"奉贤区奉浦大道95弄"},{"poiid":"B2094655D264A1FB4392","title":"小元国(环城东路店)","lon":"121.46386","lat":"30.93107","category":"76","category_name":"上海菜","address":"近郊奉贤区环城东路777号(近航南公路)"},{"poiid":"B2094757D065AAF44098","title":"韩村路小吃街","lon":"121.459640503","lat":"30.9418373108","category":"247","category_name":"餐饮美食","address":"奉贤区韩村路（近上海商学院）"},{"poiid":"B2094757D16EA5F44998","title":"家渔沪晓","lon":"121.46188","lat":"30.93676","category":"76","category_name":"上海菜","address":"近郊奉贤区环城东路611号(近八字桥路)"},{"poiid":"B2094757D064A6FB419E","title":"南郊林农家乐","lon":"121.4798496","lat":"30.931089797","category":"260","category_name":"其他","address":"近郊奉贤区南航公路北侧(望园路口)"},{"poiid":"B2094757D664AAFB469C","title":"上海美都大酒店 MEIDU HOTEL","lon":"121.46965836441802","lat":"30.92584379644889","category":"76","category_name":"上海菜","address":"近郊奉贤区南桥镇运河北路155号(近环城东路、高洲路、S4高速南桥出口)"},{"poiid":"B2094757D568A1F8449C","title":"绿地智尊","lon":"121.471085129","lat":"30.929179517027","category":"46","category_name":"楼宇","address":"上海市奉贤区环城东路455,465弄"},{"poiid":"B2094757D06BA0F8459E","title":"上海商学院图文信息楼","lon":"121.45964","lat":"30.941838","category":"500","category_name":"未知分类","address":"上海商学院奉贤校区"},{"poiid":"B2094750D76DA1FC4792","title":"蒋记海鲜坊","lon":"121.475","lat":"30.9365","category":"260","category_name":"其他","address":"近郊奉贤区航南公路5000号生态园四季广场内"},{"poiid":"B2094655D26FA6FF499C","title":"锦江之星(奉贤南桥店)","lon":"121.46498","lat":"30.93118","category":"216","category_name":"经济型连锁酒店","address":"近郊奉贤区南桥镇航南公路5499号"},{"poiid":"B2094655D264A7FD4293","title":"九华新园","lon":"121.45996","lat":"30.931997","category":"47","category_name":"住宅区","address":"上海市奉贤区国顺路369弄"},{"poiid":"B2094757D16DA1F44198","title":"悦圣渔港","lon":"121.46122","lat":"30.93901","category":"76","category_name":"上海菜","address":"近郊奉贤区奉浦开发区环城东路525号(近八字桥路)"},{"poiid":"B2094654DB6FAAF84798","title":"奉浦大厦","lon":"121.45932","lat":"30.94281","category":"46","category_name":"楼宇","address":"上海奉浦大道111号"},{"poiid":"B2094757D66CA2F44599","title":"奉浦玫瑰苑","lon":"121.466213","lat":"30.937641","category":"500","category_name":"未知分类","address":"上海奉贤区环城东路八字桥路"},{"poiid":"B2094757D16DA6FB409B","title":"九华苑","lon":"121.46101","lat":"30.933996","category":"252","category_name":"楼宇机构","address":"上海奉浦国顺路318号"},{"poiid":"B2094757D66EA4FB449A","title":"奉浦苑","lon":"121.46478","lat":"30.934446","category":"500","category_name":"未知分类","address":"八字桥路219号"},{"poiid":"B2094757D06EAAF5459F","title":"绿地万豪酒店","lon":"121.46538383","lat":"30.939536039","category":"213","category_name":"五星级宾馆","address":"上海卢湾区江滨路99号"},{"poiid":"B2094757D165A3FC409E","title":"沈坚强健身俱乐部(奉贤店)","lon":"121.47096001","lat":"30.929098255","category":"148","category_name":"美容美发店","address":"近郊奉贤区南桥镇环城东路885弄270号(近航南公路)"},{"poiid":"B2094757D665A2FE469D","title":"湘乡人家","lon":"121.4615841","lat":"30.9366226","category":"77","category_name":"湖南菜","address":"近郊奉贤区环城东路600,606号(近八字桥路)"},{"poiid":"B2094654DB69A7FB409A","title":"华龙别墅","lon":"121.4707","lat":"30.9321","category":"47","category_name":"住宅区","address":"奉贤区江海镇"},{"poiid":"B2094757D568A1F8479E","title":"深呼吸KTV量贩欢城","lon":"121.46304362","lat":"30.93183078","category":"170","category_name":"KTV","address":"中国上海市奉贤区环城东路"},{"poiid":"B2094752D665A2FD439F","title":"罗曼园高级婚礼会所","lon":"121.470501","lat":"30.933207","category":"247","category_name":"餐饮美食","address":null},{"poiid":"B2094757D16FA7FF479D","title":"映山红湘菜馆(南桥店)","lon":"121.464495249","lat":"30.9291445903","category":"77","category_name":"湖南菜","address":"近郊奉贤区南桥环城东路850号(近易买得)"},{"poiid":"B2094654DB6FAAF84899","title":"奉贤中等专业学校","lon":"121.46009","lat":"30.93631","category":"54","category_name":"职业技术学校","address":"近郊奉贤区八字桥路626号"},{"poiid":"B209475CD76CA2F94998","title":"17.5影城（南桥四季广场店）","lon":"121.47112","lat":"30.932581","category":"178","category_name":"电影院","address":"上海市奉贤区航南公路5000号1幢1-3号"},{"poiid":"B2094757D06FA4FE4393","title":"凯桥绿地","lon":"121.465383832","lat":"30.939536039","category":"196","category_name":"公园","address":"上海长宁区延安西路凯旋路口  "},{"poiid":"B2094655D268ABFF489B","title":"八字桥路环岛","lon":"121.46621","lat":"30.93764","category":"250","category_name":"公园户外","address":""},{"poiid":"B2094757D064A7FA499B","title":"多多米线","lon":"121.45991","lat":"30.93948","category":"68","category_name":"快餐厅","address":"近郊奉贤区韩村路548号(近上海商学院)"},{"poiid":"B2094753D468ABF44398","title":"新都汇","lon":"121.461578","lat":"30.935951","category":"500","category_name":"未知分类","address":"上海市 环城东路630号"},{"poiid":"B2094757D164AAFB459A","title":"上海商学院4号楼","lon":"121.455162916","lat":"30.9380934615","category":"500","category_name":"未知分类","address":"上海商学院4号楼"},{"poiid":"B2094655D36CA7FB4799","title":"国顺路","lon":"121.46249","lat":"30.93408","category":"38","category_name":"公交车站","address":""},{"poiid":"B2094757D464A7F84693","title":"汤尼日本料理","lon":"121.46236557958","lat":"30.93136925716","category":"95","category_name":"日本料理","address":"近郊环城东路883弄13号"},{"poiid":"B2094655D36CA6FF4993","title":"奉浦新村","lon":"121.467","lat":"30.9447","category":"38","category_name":"公交车站","address":"川南奉公路202弄"},{"poiid":"B209475CD26BA5FD479A","title":"海上歌友","lon":"121.471023","lat":"30.931718","category":"170","category_name":"KTV","address":"上海市 环城东路630号"},{"poiid":"B2094757D465A1F94899","title":"永和豆浆 环城东路店","lon":"121.459204054","lat":"30.937173793","category":"68","category_name":"快餐厅","address":"近郊奉贤区环城东路619号(近八字桥路)"},{"poiid":"B2094757D06FA2F8409B","title":"上海商学院(奉浦校区)","lon":"121.45717","lat":"30.94149","category":"52","category_name":"高等院校","address":"近郊奉浦大道123号(近奉浦大厦)"},{"poiid":"B2094757D065AAFB419B","title":"上海南桥绿地逸东华酒店","lon":"121.46080291","lat":"30.941811546","category":"217","category_name":"旅馆招待所","address":"上海市奉贤区南桥环城东路473号(近奉浦大道)"},{"poiid":"B2094654DB64A4FD409E","title":"南郊宾馆","lon":"121.48276","lat":"30.92526","category":"213","category_name":"五星级宾馆","address":"近郊奉贤区望园路8号(近团南公路)"},{"poiid":"B2094654DB68A2F9499B","title":"老街绿地南桥新苑","lon":"121.47113","lat":"30.92874","category":"47","category_name":"住宅区","address":"上海市奉贤区环城东路885弄"},{"poiid":"B2094757D165A2FA419C","title":"上海商学院女生宿舍","lon":"121.45836891","lat":"30.940309512","category":"500","category_name":"未知分类","address":"上海市奉贤区奉浦大道"},{"poiid":"B2094757D068A5FD469F","title":"易买得(南桥店)","lon":"121.467010321","lat":"30.9226883296","category":"118","category_name":"超级市场","address":"上海近郊奉贤区南桥镇环城东路891-921号"},{"poiid":"B2094654DB6FAAF8489D","title":"塞纳河畔 奉浦店","lon":"121.46427","lat":"30.92857","category":"75","category_name":"浙江菜","address":"近郊奉贤奉浦环城东路696号(近航南路)"},{"poiid":"B2094757D069A3FE4193","title":"奉贤区国家税务局","lon":"121.45956130971331","lat":"30.942345027487875","category":"617","category_name":"政府机构","address":"上海奉贤区南桥镇奉浦工业区奉浦大道111号"},{"poiid":"B2094757D06BA7F94298","title":"上海丽洲休闲俱乐部","lon":"121.45841091","lat":"30.947153668","category":"500","category_name":"未知分类","address":"上海市奉贤区环城东路383-399号(近奉浦大道)"},{"poiid":"B2094757D064A7FA409A","title":"奉浦四季生态园","lon":"121.47242491","lat":"30.935544403","category":"500","category_name":"未知分类","address":"近郊奉贤航南公路(近韩谊路)"},{"poiid":"B2094654DB68A2FE409F","title":"迪豪小田园酒店","lon":"121.46408","lat":"30.93087","category":"75","category_name":"浙江菜","address":"近郊奉贤区奉浦环城东路781号(南桥环城东路韩村路)"},{"poiid":"B2094757D16CAAFB409B","title":"森勤国际大酒店","lon":"121.461094916","lat":"30.9326253365","category":"217","category_name":"旅馆招待所","address":"上海市奉贤区团南公路南桥路"},{"poiid":"B2094757D16EA0F44092","title":"百合苑","lon":"121.470248929","lat":"30.9390231194","category":"500","category_name":"未知分类","address":"上海八字桥路158号"},{"poiid":"B2094750D26FA7FB409B","title":"赛露维","lon":"121.465347","lat":"30.927162","category":"76","category_name":"上海菜","address":"近郊奉贤区南桥镇环城东路883弄63号(近南桥老街)"},{"poiid":"B2094750D665A0FF4498","title":"舍得坊私房酒家","lon":"121.475","lat":"30.9365","category":"76","category_name":"上海菜","address":"近郊奉贤航南公路5000号生态园四季广场1-2楼"},{"poiid":"B2094654DB69A7F9479F","title":"聚贤煌都","lon":"121.46578","lat":"30.940882","category":"47","category_name":"住宅区","address":"奉贤区奉浦大道95弄"},{"poiid":"B2094655D264A1FB4392","title":"小元国(环城东路店)","lon":"121.46386","lat":"30.93107","category":"76","category_name":"上海菜","address":"近郊奉贤区环城东路777号(近航南公路)"},{"poiid":"B2094757D065AAF44098","title":"韩村路小吃街","lon":"121.459640503","lat":"30.9418373108","category":"247","category_name":"餐饮美食","address":"奉贤区韩村路（近上海商学院）"},{"poiid":"B2094757D16EA5F44998","title":"家渔沪晓","lon":"121.46188","lat":"30.93676","category":"76","category_name":"上海菜","address":"近郊奉贤区环城东路611号(近八字桥路)"},{"poiid":"B2094757D064A6FB419E","title":"南郊林农家乐","lon":"121.4798496","lat":"30.931089797","category":"260","category_name":"其他","address":"近郊奉贤区南航公路北侧(望园路口)"},{"poiid":"B2094757D664AAFB469C","title":"上海美都大酒店 MEIDU HOTEL","lon":"121.46965836441802","lat":"30.92584379644889","category":"76","category_name":"上海菜","address":"近郊奉贤区南桥镇运河北路155号(近环城东路、高洲路、S4高速南桥出口)"},{"poiid":"B2094757D568A1F8449C","title":"绿地智尊","lon":"121.471085129","lat":"30.929179517027","category":"46","category_name":"楼宇","address":"上海市奉贤区环城东路455,465弄"},{"poiid":"B2094757D06BA0F8459E","title":"上海商学院图文信息楼","lon":"121.45964","lat":"30.941838","category":"500","category_name":"未知分类","address":"上海商学院奉贤校区"},{"poiid":"B2094750D76DA1FC4792","title":"蒋记海鲜坊","lon":"121.475","lat":"30.9365","category":"260","category_name":"其他","address":"近郊奉贤区航南公路5000号生态园四季广场内"},{"poiid":"B2094655D26FA6FF499C","title":"锦江之星(奉贤南桥店)","lon":"121.46498","lat":"30.93118","category":"216","category_name":"经济型连锁酒店","address":"近郊奉贤区南桥镇航南公路5499号"},{"poiid":"B2094655D264A7FD4293","title":"九华新园","lon":"121.45996","lat":"30.931997","category":"47","category_name":"住宅区","address":"上海市奉贤区国顺路369弄"},{"poiid":"B2094757D16DA1F44198","title":"悦圣渔港","lon":"121.46122","lat":"30.93901","category":"76","category_name":"上海菜","address":"近郊奉贤区奉浦开发区环城东路525号(近八字桥路)"},{"poiid":"B2094654DB6FAAF84798","title":"奉浦大厦","lon":"121.45932","lat":"30.94281","category":"46","category_name":"楼宇","address":"上海奉浦大道111号"},{"poiid":"B2094757D66CA2F44599","title":"奉浦玫瑰苑","lon":"121.466213","lat":"30.937641","category":"500","category_name":"未知分类","address":"上海奉贤区环城东路八字桥路"},{"poiid":"B2094757D16DA6FB409B","title":"九华苑","lon":"121.46101","lat":"30.933996","category":"252","category_name":"楼宇机构","address":"上海奉浦国顺路318号"},{"poiid":"B2094757D66EA4FB449A","title":"奉浦苑","lon":"121.46478","lat":"30.934446","category":"500","category_name":"未知分类","address":"八字桥路219号"},{"poiid":"B2094757D06EAAF5459F","title":"绿地万豪酒店","lon":"121.46538383","lat":"30.939536039","category":"213","category_name":"五星级宾馆","address":"上海卢湾区江滨路99号"},{"poiid":"B2094757D165A3FC409E","title":"沈坚强健身俱乐部(奉贤店)","lon":"121.47096001","lat":"30.929098255","category":"148","category_name":"美容美发店","address":"近郊奉贤区南桥镇环城东路885弄270号(近航南公路)"},{"poiid":"B2094757D665A2FE469D","title":"湘乡人家","lon":"121.4615841","lat":"30.9366226","category":"77","category_name":"湖南菜","address":"近郊奉贤区环城东路600,606号(近八字桥路)"},{"poiid":"B2094654DB69A7FB409A","title":"华龙别墅","lon":"121.4707","lat":"30.9321","category":"47","category_name":"住宅区","address":"奉贤区江海镇"},{"poiid":"B2094757D568A1F8479E","title":"深呼吸KTV量贩欢城","lon":"121.46304362","lat":"30.93183078","category":"170","category_name":"KTV","address":"中国上海市奉贤区环城东路"},{"poiid":"B2094752D665A2FD439F","title":"罗曼园高级婚礼会所","lon":"121.470501","lat":"30.933207","category":"247","category_name":"餐饮美食","address":null},{"poiid":"B2094757D16FA7FF479D","title":"映山红湘菜馆(南桥店)","lon":"121.464495249","lat":"30.9291445903","category":"77","category_name":"湖南菜","address":"近郊奉贤区南桥环城东路850号(近易买得)"},{"poiid":"B2094654DB6FAAF84899","title":"奉贤中等专业学校","lon":"121.46009","lat":"30.93631","category":"54","category_name":"职业技术学校","address":"近郊奉贤区八字桥路626号"},{"poiid":"B209475CD76CA2F94998","title":"17.5影城（南桥四季广场店）","lon":"121.47112","lat":"30.932581","category":"178","category_name":"电影院","address":"上海市奉贤区航南公路5000号1幢1-3号"},{"poiid":"B2094757D06FA4FE4393","title":"凯桥绿地","lon":"121.465383832","lat":"30.939536039","category":"196","category_name":"公园","address":"上海长宁区延安西路凯旋路口  "},{"poiid":"B2094655D268ABFF489B","title":"八字桥路环岛","lon":"121.46621","lat":"30.93764","category":"250","category_name":"公园户外","address":""},{"poiid":"B2094757D064A7FA499B","title":"多多米线","lon":"121.45991","lat":"30.93948","category":"68","category_name":"快餐厅","address":"近郊奉贤区韩村路548号(近上海商学院)"},{"poiid":"B2094753D468ABF44398","title":"新都汇","lon":"121.461578","lat":"30.935951","category":"500","category_name":"未知分类","address":"上海市 环城东路630号"},{"poiid":"B2094757D164AAFB459A","title":"上海商学院4号楼","lon":"121.455162916","lat":"30.9380934615","category":"500","category_name":"未知分类","address":"上海商学院4号楼"},{"poiid":"B2094655D36CA7FB4799","title":"国顺路","lon":"121.46249","lat":"30.93408","category":"38","category_name":"公交车站","address":""},{"poiid":"B2094757D464A7F84693","title":"汤尼日本料理","lon":"121.46236557958","lat":"30.93136925716","category":"95","category_name":"日本料理","address":"近郊环城东路883弄13号"},{"poiid":"B2094655D36CA6FF4993","title":"奉浦新村","lon":"121.467","lat":"30.9447","category":"38","category_name":"公交车站","address":"川南奉公路202弄"},{"poiid":"B209475CD26BA5FD479A","title":"海上歌友","lon":"121.471023","lat":"30.931718","category":"170","category_name":"KTV","address":"上海市 环城东路630号"},{"poiid":"B2094757D465A1F94899","title":"永和豆浆 环城东路店","lon":"121.459204054","lat":"30.937173793","category":"68","category_name":"快餐厅","address":"近郊奉贤区环城东路619号(近八字桥路)"},{"poiid":"B2094757D06FA2F8409B","title":"上海商学院(奉浦校区)","lon":"121.45717","lat":"30.94149","category":"52","category_name":"高等院校","address":"近郊奉浦大道123号(近奉浦大厦)"},{"poiid":"B2094757D065AAFB419B","title":"上海南桥绿地逸东华酒店","lon":"121.46080291","lat":"30.941811546","category":"217","category_name":"旅馆招待所","address":"上海市奉贤区南桥环城东路473号(近奉浦大道)"},{"poiid":"B2094654DB64A4FD409E","title":"南郊宾馆","lon":"121.48276","lat":"30.92526","category":"213","category_name":"五星级宾馆","address":"近郊奉贤区望园路8号(近团南公路)"},{"poiid":"B2094654DB68A2F9499B","title":"老街绿地南桥新苑","lon":"121.47113","lat":"30.92874","category":"47","category_name":"住宅区","address":"上海市奉贤区环城东路885弄"},{"poiid":"B2094757D165A2FA419C","title":"上海商学院女生宿舍","lon":"121.45836891","lat":"30.940309512","category":"500","category_name":"未知分类","address":"上海市奉贤区奉浦大道"},{"poiid":"B2094757D068A5FD469F","title":"易买得(南桥店)","lon":"121.467010321","lat":"30.9226883296","category":"118","category_name":"超级市场","address":"上海近郊奉贤区南桥镇环城东路891-921号"},{"poiid":"B2094654DB6FAAF8489D","title":"塞纳河畔 奉浦店","lon":"121.46427","lat":"30.92857","category":"75","category_name":"浙江菜","address":"近郊奉贤奉浦环城东路696号(近航南路)"},{"poiid":"B2094757D069A3FE4193","title":"奉贤区国家税务局","lon":"121.45956130971331","lat":"30.942345027487875","category":"617","category_name":"政府机构","address":"上海奉贤区南桥镇奉浦工业区奉浦大道111号"},{"poiid":"B2094757D06BA7F94298","title":"上海丽洲休闲俱乐部","lon":"121.45841091","lat":"30.947153668","category":"500","category_name":"未知分类","address":"上海市奉贤区环城东路383-399号(近奉浦大道)"},{"poiid":"B2094757D064A7FA409A","title":"奉浦四季生态园","lon":"121.47242491","lat":"30.935544403","category":"500","category_name":"未知分类","address":"近郊奉贤航南公路(近韩谊路)"},{"poiid":"B2094654DB68A2FE409F","title":"迪豪小田园酒店","lon":"121.46408","lat":"30.93087","category":"75","category_name":"浙江菜","address":"近郊奉贤区奉浦环城东路781号(南桥环城东路韩村路)"},{"poiid":"B2094757D16CAAFB409B","title":"森勤国际大酒店","lon":"121.461094916","lat":"30.9326253365","category":"217","category_name":"旅馆招待所","address":"上海市奉贤区团南公路南桥路"},{"poiid":"B2094757D16EA0F44092","title":"百合苑","lon":"121.470248929","lat":"30.9390231194","category":"500","category_name":"未知分类","address":"上海八字桥路158号"},{"poiid":"B2094750D26FA7FB409B","title":"赛露维","lon":"121.465347","lat":"30.927162","category":"76","category_name":"上海菜","address":"近郊奉贤区南桥镇环城东路883弄63号(近南桥老街)"},{"poiid":"B2094750D665A0FF4498","title":"舍得坊私房酒家","lon":"121.475","lat":"30.9365","category":"76","category_name":"上海菜","address":"近郊奉贤航南公路5000号生态园四季广场1-2楼"},{"poiid":"B2094654DB69A7F9479F","title":"聚贤煌都","lon":"121.46578","lat":"30.940882","category":"47","category_name":"住宅区","address":"奉贤区奉浦大道95弄"},{"poiid":"B2094655D264A1FB4392","title":"小元国(环城东路店)","lon":"121.46386","lat":"30.93107","category":"76","category_name":"上海菜","address":"近郊奉贤区环城东路777号(近航南公路)"},{"poiid":"B2094757D065AAF44098","title":"韩村路小吃街","lon":"121.459640503","lat":"30.9418373108","category":"247","category_name":"餐饮美食","address":"奉贤区韩村路（近上海商学院）"},{"poiid":"B2094757D16EA5F44998","title":"家渔沪晓","lon":"121.46188","lat":"30.93676","category":"76","category_name":"上海菜","address":"近郊奉贤区环城东路611号(近八字桥路)"},{"poiid":"B2094757D064A6FB419E","title":"南郊林农家乐","lon":"121.4798496","lat":"30.931089797","category":"260","category_name":"其他","address":"近郊奉贤区南航公路北侧(望园路口)"},{"poiid":"B2094757D664AAFB469C","title":"上海美都大酒店 MEIDU HOTEL","lon":"121.46965836441802","lat":"30.92584379644889","category":"76","category_name":"上海菜","address":"近郊奉贤区南桥镇运河北路155号(近环城东路、高洲路、S4高速南桥出口)"},{"poiid":"B2094757D568A1F8449C","title":"绿地智尊","lon":"121.471085129","lat":"30.929179517027","category":"46","category_name":"楼宇","address":"上海市奉贤区环城东路455,465弄"},{"poiid":"B2094757D06BA0F8459E","title":"上海商学院图文信息楼","lon":"121.45964","lat":"30.941838","category":"500","category_name":"未知分类","address":"上海商学院奉贤校区"},{"poiid":"B2094750D76DA1FC4792","title":"蒋记海鲜坊","lon":"121.475","lat":"30.9365","category":"260","category_name":"其他","address":"近郊奉贤区航南公路5000号生态园四季广场内"},{"poiid":"B2094655D26FA6FF499C","title":"锦江之星(奉贤南桥店)","lon":"121.46498","lat":"30.93118","category":"216","category_name":"经济型连锁酒店","address":"近郊奉贤区南桥镇航南公路5499号"},{"poiid":"B2094655D264A7FD4293","title":"九华新园","lon":"121.45996","lat":"30.931997","category":"47","category_name":"住宅区","address":"上海市奉贤区国顺路369弄"},{"poiid":"B2094757D16DA1F44198","title":"悦圣渔港","lon":"121.46122","lat":"30.93901","category":"76","category_name":"上海菜","address":"近郊奉贤区奉浦开发区环城东路525号(近八字桥路)"},{"poiid":"B2094654DB6FAAF84798","title":"奉浦大厦","lon":"121.45932","lat":"30.94281","category":"46","category_name":"楼宇","address":"上海奉浦大道111号"},{"poiid":"B2094757D66CA2F44599","title":"奉浦玫瑰苑","lon":"121.466213","lat":"30.937641","category":"500","category_name":"未知分类","address":"上海奉贤区环城东路八字桥路"},{"poiid":"B2094757D16DA6FB409B","title":"九华苑","lon":"121.46101","lat":"30.933996","category":"252","category_name":"楼宇机构","address":"上海奉浦国顺路318号"},{"poiid":"B2094757D66EA4FB449A","title":"奉浦苑","lon":"121.46478","lat":"30.934446","category":"500","category_name":"未知分类","address":"八字桥路219号"},{"poiid":"B2094757D06EAAF5459F","title":"绿地万豪酒店","lon":"121.46538383","lat":"30.939536039","category":"213","category_name":"五星级宾馆","address":"上海卢湾区江滨路99号"},{"poiid":"B2094757D165A3FC409E","title":"沈坚强健身俱乐部(奉贤店)","lon":"121.47096001","lat":"30.929098255","category":"148","category_name":"美容美发店","address":"近郊奉贤区南桥镇环城东路885弄270号(近航南公路)"},{"poiid":"B2094757D665A2FE469D","title":"湘乡人家","lon":"121.4615841","lat":"30.9366226","category":"77","category_name":"湖南菜","address":"近郊奉贤区环城东路600,606号(近八字桥路)"},{"poiid":"B2094654DB69A7FB409A","title":"华龙别墅","lon":"121.4707","lat":"30.9321","category":"47","category_name":"住宅区","address":"奉贤区江海镇"},{"poiid":"B2094757D568A1F8479E","title":"深呼吸KTV量贩欢城","lon":"121.46304362","lat":"30.93183078","category":"170","category_name":"KTV","address":"中国上海市奉贤区环城东路"},{"poiid":"B2094752D665A2FD439F","title":"罗曼园高级婚礼会所","lon":"121.470501","lat":"30.933207","category":"247","category_name":"餐饮美食","address":null},{"poiid":"B2094757D16FA7FF479D","title":"映山红湘菜馆(南桥店)","lon":"121.464495249","lat":"30.9291445903","category":"77","category_name":"湖南菜","address":"近郊奉贤区南桥环城东路850号(近易买得)"},{"poiid":"B2094654DB6FAAF84899","title":"奉贤中等专业学校","lon":"121.46009","lat":"30.93631","category":"54","category_name":"职业技术学校","address":"近郊奉贤区八字桥路626号"},{"poiid":"B209475CD76CA2F94998","title":"17.5影城（南桥四季广场店）","lon":"121.47112","lat":"30.932581","category":"178","category_name":"电影院","address":"上海市奉贤区航南公路5000号1幢1-3号"},{"poiid":"B2094757D06FA4FE4393","title":"凯桥绿地","lon":"121.465383832","lat":"30.939536039","category":"196","category_name":"公园","address":"上海长宁区延安西路凯旋路口  "},{"poiid":"B2094655D268ABFF489B","title":"八字桥路环岛","lon":"121.46621","lat":"30.93764","category":"250","category_name":"公园户外","address":""},{"poiid":"B2094757D064A7FA499B","title":"多多米线","lon":"121.45991","lat":"30.93948","category":"68","category_name":"快餐厅","address":"近郊奉贤区韩村路548号(近上海商学院)"},{"poiid":"B2094753D468ABF44398","title":"新都汇","lon":"121.461578","lat":"30.935951","category":"500","category_name":"未知分类","address":"上海市 环城东路630号"},{"poiid":"B2094757D164AAFB459A","title":"上海商学院4号楼","lon":"121.455162916","lat":"30.9380934615","category":"500","category_name":"未知分类","address":"上海商学院4号楼"},{"poiid":"B2094655D36CA7FB4799","title":"国顺路","lon":"121.46249","lat":"30.93408","category":"38","category_name":"公交车站","address":""},{"poiid":"B2094757D464A7F84693","title":"汤尼日本料理","lon":"121.46236557958","lat":"30.93136925716","category":"95","category_name":"日本料理","address":"近郊环城东路883弄13号"},{"poiid":"B2094655D36CA6FF4993","title":"奉浦新村","lon":"121.467","lat":"30.9447","category":"38","category_name":"公交车站","address":"川南奉公路202弄"},{"poiid":"B209475CD26BA5FD479A","title":"海上歌友","lon":"121.471023","lat":"30.931718","category":"170","category_name":"KTV","address":"上海市 环城东路630号"},{"poiid":"B2094757D465A1F94899","title":"永和豆浆 环城东路店","lon":"121.459204054","lat":"30.937173793","category":"68","category_name":"快餐厅","address":"近郊奉贤区环城东路619号(近八字桥路)"}]