[{"poiid":"B2094757D06FA7F4429C","title":"老盛昌苏州汤包馆(博山东路店)","lon":"121.557955339","lat":"31.2483397593","category":"68","category_name":"快餐厅","address":"浦东新区博山东路84号(近万德路)"},{"poiid":"B2094757D06BAAFF4392","title":"博山东路","lon":"121.559945829","lat":"31.2477788513","category":"500","category_name":"未知分类","address":"上海博山东路"},{"poiid":"B2094757D069A3FE409E","title":"肯德基 博山东路店 KFC","lon":"121.560610054","lat":"31.247954793","category":"68","category_name":"快餐厅","address":"浦东新区博山东路50号(博山东路万德路)"},{"poiid":"B2094654D568A7FE499D","title":"象山海鲜城 居家桥店","lon":"121.56621113256","lat":"31.253418673801","category":"247","category_name":"餐饮美食","address":"浦东新区居家桥路635号(近博山东路)"},{"poiid":"B2094757D06FA7FC469B","title":"浦东大道","lon":"121.56493549","lat":"31.255178412","category":"260","category_name":"其他","address":"上海市浦东大道"},{"poiid":"B2094757D068A0FD419C","title":"德平路公交站(近浦东大道)","lon":"121.556913","lat":"31.254067","category":"38","category_name":"公交车站","address":"上海德平路浦东大道"},{"poiid":"B2094757D064AAFE409A","title":"上海振华外经职业技术学校","lon":"121.56191233","lat":"31.253369374","category":"253","category_name":"校园生活","address":"上海龙居路栖山路"},{"poiid":"B2094757D16CA4F5439B","title":"博达商场自由港","lon":"121.560298339","lat":"31.2479157495","category":"500","category_name":"未知分类","address":"上海博山东路78号"},{"poiid":"B2094757D069A3FB409D","title":"亚龙大酒店","lon":"121.56667","lat":"31.25298","category":"72","category_name":"广东菜","address":"浦东新区居家桥路595号(近博山路)"},{"poiid":"B2094654DA69A2FD4592","title":"博山大酒楼","lon":"121.55886588683","lat":"31.247158592083","category":"76","category_name":"上海菜","address":"浦东新区博山东路21号(近罗山路)"},{"poiid":"B2094757D068ABFD479D","title":"85度C(博山店)","lon":"121.560709","lat":"31.247539","category":"67","category_name":"甜品店","address":"浦东新区博山东路78号1楼"},{"poiid":"B2094757DA6AA4FE499A","title":"金桥商业广场","lon":"121.560472","lat":"31.250646","category":"500","category_name":"未知分类","address":"金桥路"},{"poiid":"B2094757D069ABFF459A","title":"万德路博山东路","lon":"121.560571","lat":"31.247934","category":"500","category_name":"未知分类","address":"上海万德路博山东路"},{"poiid":"B2094757D069A6F4409D","title":"鼎丰人家(德平店)","lon":"121.55825","lat":"31.25268","category":"76","category_name":"上海菜","address":"浦东新区德平路44号(栖山路口)"},{"poiid":"B2094757D069A4FD429E","title":"浦东新区中医医院(罗山分院)","lon":"121.557627451","lat":"31.2503135797","category":"162","category_name":"医院","address":"浦东新区万德路49号(近德平路菜场)"},{"poiid":"B2094751D56AA2FD4999","title":"第一八佰伴","lon":"121.561024","lat":"31.251321","category":"500","category_name":"未知分类","address":"浦东南路"},{"poiid":"B2094655D26DA5FA409D","title":"罗山三村德平路","lon":"121.56258","lat":"31.25047","category":"47","category_name":"住宅区","address":"德平路143弄1-21号"},{"poiid":"B2094654D568ABFC4998","title":"好邻居饮食","lon":"121.56305","lat":"31.2522","category":"257","category_name":"中餐厅","address":"浦东新区龙居路157号(近博山东路)"},{"poiid":"B2094757D16FA4F54698","title":"736路公交车终点站","lon":"121.56136792","lat":"31.250619277","category":"38","category_name":"公交车站","address":"上海浦东新区德平路90号"},{"poiid":"B2094654D568ABFE4193","title":"古源养生坊足道保健会馆","lon":"121.56597","lat":"31.251","category":"149","category_name":"洗浴推拿场所","address":"上海浦东新区博山东路190号(近居家桥路)  "},{"poiid":"B2094757D16AA5F4489E","title":"自由港","lon":"121.559464339","lat":"31.248893772","category":"500","category_name":"未知分类","address":"上海博山东路"},{"poiid":"B2094757DA6FA3FC439F","title":"自由港量贩式KTV(博山店)","lon":"121.560709","lat":"31.2475390000002","category":"170","category_name":"KTV","address":"浦东新区博山东路78号博达百货3楼(近万德路)"},{"poiid":"B2094757D069AAFC489A","title":"四海游龙 博山东路店 OVERSEAS DRAGON","lon":"121.561152054","lat":"31.248346793","category":"68","category_name":"快餐厅","address":"浦东新区居家桥路571号(近博山东路)"},{"poiid":"B2094757D16FABFD4099","title":"龍居路150弄","lon":"121.561882339","lat":"31.2522528492","category":"500","category_name":"未知分类","address":"上海市浦东新区德平路"},{"poiid":"B2094757D16FA7FF4293","title":"重庆鸡公煲 德平路店","lon":"121.561462","lat":"31.249635","category":"71","category_name":"四川菜","address":"浦东新区德平路90号(近博山东路)"},{"poiid":"B2094757D064A0FB479C","title":"罗山七村","lon":"121.56448","lat":"31.252216","category":"252","category_name":"楼宇机构","address":"上海市浦东新区龙居路"},{"poiid":"B2094655D26CA7F9469F","title":"迪亚天天No.5041","lon":"121.56286","lat":"31.2524","category":"118","category_name":"超级市场","address":""},{"poiid":"B2094655D36CA5F4409C","title":"博山东路龙居路","lon":"121.56347","lat":"31.24967","category":"38","category_name":"公交车站","address":""},{"poiid":"B2094757D16EA6F84592","title":"神邸成王府","lon":"121.56308333","lat":"31.251562833","category":"247","category_name":"餐饮美食","address":"上海浦东新区博山东路德平路"},{"poiid":"B2094757D16EAAFC439E","title":"新疆喀什友好餐厅","lon":"121.55730780725","lat":"31.253826338597","category":"90","category_name":"清真餐馆","address":"浦东新区德平路42号(近浦东大道)"},{"poiid":"B2094655D26CA5FA459F","title":"罗山三村(东门)","lon":"121.56246","lat":"31.25239","category":"656","category_name":"大门","address":"龙居路150弄1-32号"},{"poiid":"B2094655D36CA5F4419A","title":"博山东路德平路","lon":"121.56352","lat":"31.24969","category":"38","category_name":"公交车站","address":""},{"poiid":"B2094757D468A4F8469F","title":"龙象品臻","lon":"121.566179","lat":"31.252396","category":"75","category_name":"浙江菜","address":"浦东新区居家桥路635号(近博山路)"},{"poiid":"B2094654D568A4F4459B","title":"罗山四村","lon":"121.55975","lat":"31.24947","category":"47","category_name":"住宅区","address":"万德路51弄50-73"},{"poiid":"B2094654D568ABFC489E","title":"淑尔俊美容美发","lon":"121.56252","lat":"31.25277","category":"148","category_name":"美容美发店","address":""},{"poiid":"B2094752D264A2FE469D","title":"上德宝骏宝马5S","lon":"121.56586","lat":"31.2536","category":"263","category_name":"公司","address":"居家桥路571号"},{"poiid":"B2094654D568A4FA4892","title":"上海世纪星双语实验幼稚园","lon":"121.56483","lat":"31.2509","category":"57","category_name":"幼儿园","address":"浦东新区博山东路169号(近万德路)"},{"poiid":"B2094654DB6BA1F84898","title":"快客德平路店","lon":"121.56086","lat":"31.25009","category":"117","category_name":"便民商店/便利店","address":"德平路82"},{"poiid":"B2094654D568A4F4489F","title":"罗山一村(边门)","lon":"121.55851","lat":"31.25447","category":"47","category_name":"住宅区","address":"龙居路30弄1-32号"},{"poiid":"B2094655D26BA3F4429B","title":"黄山宾馆餐厅","lon":"121.56643","lat":"31.25283","category":"76","category_name":"上海菜","address":"浦东新区居家桥路635号(博山东路居家桥路)"},{"poiid":"B2094654D568ABFC4792","title":"上海市振华综合高级中学","lon":"121.56195","lat":"31.25412","category":"55","category_name":"中学","address":"龙居路87"},{"poiid":"B2094654D568ABFE429D","title":"通联苑","lon":"121.56622","lat":"31.250317","category":"47","category_name":"住宅区","address":"上海市浦东新区居家桥路688弄"},{"poiid":"B2094655D26CA5FB479A","title":"金云苑","lon":"121.55785","lat":"31.2519","category":"47","category_name":"住宅区","address":"德平路58弄8-9"},{"poiid":"B2094654D568A4F54393","title":"上海申诚医院","lon":"121.55902","lat":"31.25675","category":"162","category_name":"医院","address":"浦东新区浦东大道2516号(近杨浦大桥)"},{"poiid":"B2094655D36CA5F4409F","title":"博山东路龙居路(临时站)","lon":"121.56409","lat":"31.25072","category":"38","category_name":"公交车站","address":""},{"poiid":"B2094655D36CA5F4409D","title":"博山东路居家桥路","lon":"121.56515","lat":"31.25073","category":"38","category_name":"公交车站","address":""},{"poiid":"B2094757D16EA1FC429A","title":"金湘阁 栖山路店","lon":"121.56345518195","lat":"31.257146416632","category":"77","category_name":"湖南菜","address":"浦东新区栖山路1497号(近居家桥路)"},{"poiid":"B2094654D568A4F44292","title":"罗山新村派出所","lon":"121.55925","lat":"31.24898","category":"609","category_name":"警察局","address":"万德路51弄50-73号、67弄1-28号罗山四村"},{"poiid":"B2094654D568ABFC469B","title":"长信阁小吃馆","lon":"121.56084","lat":"31.25498","category":"68","category_name":"快餐厅","address":"浦东新区栖山路1297号(近龙居路)"},{"poiid":"B2094654DB6BA1F8499A","title":"永琪美容美发","lon":"121.56485","lat":"31.25032","category":"148","category_name":"美容美发店","address":"浦东新区博山东路810号"},{"poiid":"B2094757D06FA7F4429C","title":"老盛昌苏州汤包馆(博山东路店)","lon":"121.557955339","lat":"31.2483397593","category":"68","category_name":"快餐厅","address":"浦东新区博山东路84号(近万德路)"},{"poiid":"B2094757D06BAAFF4392","title":"博山东路","lon":"121.559945829","lat":"31.2477788513","category":"500","category_name":"未知分类","address":"上海博山东路"},{"poiid":"B2094757D069A3FE409E","title":"肯德基 博山东路店 KFC","lon":"121.560610054","lat":"31.247954793","category":"68","category_name":"快餐厅","address":"浦东新区博山东路50号(博山东路万德路)"},{"poiid":"B2094654D568A7FE499D","title":"象山海鲜城 居家桥店","lon":"121.56621113256","lat":"31.253418673801","category":"247","category_name":"餐饮美食","address":"浦东新区居家桥路635号(近博山东路)"},{"poiid":"B2094757D06FA7FC469B","title":"浦东大道","lon":"121.56493549","lat":"31.255178412","category":"260","category_name":"其他","address":"上海市浦东大道"},{"poiid":"B2094757D068A0FD419C","title":"德平路公交站(近浦东大道)","lon":"121.556913","lat":"31.254067","category":"38","category_name":"公交车站","address":"上海德平路浦东大道"},{"poiid":"B2094757D064AAFE409A","title":"上海振华外经职业技术学校","lon":"121.56191233","lat":"31.253369374","category":"253","category_name":"校园生活","address":"上海龙居路栖山路"},{"poiid":"B2094757D16CA4F5439B","title":"博达商场自由港","lon":"121.560298339","lat":"31.2479157495","category":"500","category_name":"未知分类","address":"上海博山东路78号"},{"poiid":"B2094757D069A3FB409D","title":"亚龙大酒店","lon":"121.56667","lat":"31.25298","category":"72","category_name":"广东菜","address":"浦东新区居家桥路595号(近博山路)"},{"poiid":"B2094654DA69A2FD4592","title":"博山大酒楼","lon":"121.55886588683","lat":"31.247158592083","category":"76","category_name":"上海菜","address":"浦东新区博山东路21号(近罗山路)"},{"poiid":"B2094757D068ABFD479D","title":"85度C(博山店)","lon":"121.560709","lat":"31.247539","category":"67","category_name":"甜品店","address":"浦东新区博山东路78号1楼"},{"poiid":"B2094757DA6AA4FE499A","title":"金桥商业广场","lon":"121.560472","lat":"31.250646","category":"500","category_name":"未知分类","address":"金桥路"},{"poiid":"B2094757D069ABFF459A","title":"万德路博山东路","lon":"121.560571","lat":"31.247934","category":"500","category_name":"未知分类","address":"上海万德路博山东路"},{"poiid":"B2094757D069A6F4409D","title":"鼎丰人家(德平店)","lon":"121.55825","lat":"31.25268","category":"76","category_name":"上海菜","address":"浦东新区德平路44号(栖山路口)"},{"poiid":"B2094757D069A4FD429E","title":"浦东新区中医医院(罗山分院)","lon":"121.557627451","lat":"31.2503135797","category":"162","category_name":"医院","address":"浦东新区万德路49号(近德平路菜场)"},{"poiid":"B2094751D56AA2FD4999","title":"第一八佰伴","lon":"121.561024","lat":"31.251321","category":"500","category_name":"未知分类","address":"浦东南路"},{"poiid":"B2094655D26DA5FA409D","title":"罗山三村德平路","lon":"121.56258","lat":"31.25047","category":"47","category_name":"住宅区","address":"德平路143弄1-21号"},{"poiid":"B2094654D568ABFC4998","title":"好邻居饮食","lon":"121.56305","lat":"31.2522","category":"257","category_name":"中餐厅","address":"浦东新区龙居路157号(近博山东路)"},{"poiid":"B2094757D16FA4F54698","title":"736路公交车终点站","lon":"121.56136792","lat":"31.250619277","category":"38","category_name":"公交车站","address":"上海浦东新区德平路90号"},{"poiid":"B2094654D568ABFE4193","title":"古源养生坊足道保健会馆","lon":"121.56597","lat":"31.251","category":"149","category_name":"洗浴推拿场所","address":"上海浦东新区博山东路190号(近居家桥路)  "},{"poiid":"B2094757D16AA5F4489E","title":"自由港","lon":"121.559464339","lat":"31.248893772","category":"500","category_name":"未知分类","address":"上海博山东路"},{"poiid":"B2094757DA6FA3FC439F","title":"自由港量贩式KTV(博山店)","lon":"121.560709","lat":"31.2475390000002","category":"170","category_name":"KTV","address":"浦东新区博山东路78号博达百货3楼(近万德路)"},{"poiid":"B2094757D069AAFC489A","title":"四海游龙 博山东路店 OVERSEAS DRAGON","lon":"121.561152054","lat":"31.248346793","category":"68","category_name":"快餐厅","address":"浦东新区居家桥路571号(近博山东路)"},{"poiid":"B2094757D16FABFD4099","title":"龍居路150弄","lon":"121.561882339","lat":"31.2522528492","category":"500","category_name":"未知分类","address":"上海市浦东新区德平路"},{"poiid":"B2094757D16FA7FF4293","title":"重庆鸡公煲 德平路店","lon":"121.561462","lat":"31.249635","category":"71","category_name":"四川菜","address":"浦东新区德平路90号(近博山东路)"},{"poiid":"B2094757D064A0FB479C","title":"罗山七村","lon":"121.56448","lat":"31.252216","category":"252","category_name":"楼宇机构","address":"上海市浦东新区龙居路"},{"poiid":"B2094655D26CA7F9469F","title":"迪亚天天No.5041","lon":"121.56286","lat":"31.2524","category":"118","category_name":"超级市场","address":""},{"poiid":"B2094655D36CA5F4409C","title":"博山东路龙居路","lon":"121.56347","lat":"31.24967","category":"38","category_name":"公交车站","address":""},{"poiid":"B2094757D16EA6F84592","title":"神邸成王府","lon":"121.56308333","lat":"31.251562833","category":"247","category_name":"餐饮美食","address":"上海浦东新区博山东路德平路"},{"poiid":"B2094757D16EAAFC439E","title":"新疆喀什友好餐厅","lon":"121.55730780725","lat":"31.253826338597","category":"90","category_name":"清真餐馆","address":"浦东新区德平路42号(近浦东大道)"},{"poiid":"B2094655D26CA5FA459F","title":"罗山三村(东门)","lon":"121.56246","lat":"31.25239","category":"656","category_name":"大门","address":"龙居路150弄1-32号"},{"poiid":"B2094655D36CA5F4419A","title":"博山东路德平路","lon":"121.56352","lat":"31.24969","category":"38","category_name":"公交车站","address":""},{"poiid":"B2094757D468A4F8469F","title":"龙象品臻","lon":"121.566179","lat":"31.252396","category":"75","category_name":"浙江菜","address":"浦东新区居家桥路635号(近博山路)"},{"poiid":"B2094654D568A4F4459B","title":"罗山四村","lon":"121.55975","lat":"31.24947","category":"47","category_name":"住宅区","address":"万德路51弄50-73"},{"poiid":"B2094654D568ABFC489E","title":"淑尔俊美容美发","lon":"121.56252","lat":"31.25277","category":"148","category_name":"美容美发店","address":""},{"poiid":"B2094752D264A2FE469D","title":"上德宝骏宝马5S","lon":"121.56586","lat":"31.2536","category":"263","category_name":"公司","address":"居家桥路571号"},{"poiid":"B2094654D568A4FA4892","title":"上海世纪星双语实验幼稚园","lon":"121.56483","lat":"31.2509","category":"57","category_name":"幼儿园","address":"浦东新区博山东路169号(近万德路)"},{"poiid":"B2094654DB6BA1F84898","title":"快客德平路店","lon":"121.56086","lat":"31.25009","category":"117","category_name":"便民商店/便利店","address":"德平路82"},{"poiid":"B2094654D568A4F4489F","title":"罗山一村(边门)","lon":"121.55851","lat":"31.25447","category":"47","category_name":"住宅区","address":"龙居路30弄1-32号"},{"poiid":"B2094655D26BA3F4429B","title":"黄山宾馆餐厅","lon":"121.56643","lat":"31.25283","category":"76","category_name":"上海菜","address":"浦东新区居家桥路635号(博山东路居家桥路)"},{"poiid":"B2094654D568ABFC4792","title":"上海市振华综合高级中学","lon":"121.56195","lat":"31.25412","category":"55","category_name":"中学","address":"龙居路87"},{"poiid":"B2094654D568ABFE429D","title":"通联苑","lon":"121.56622","lat":"31.250317","category":"47","category_name":"住宅区","address":"上海市浦东新区居家桥路688弄"},{"poiid":"B2094655D26CA5FB479A","title":"金云苑","lon":"121.55785","lat":"31.2519","category":"47","category_name":"住宅区","address":"德平路58弄8-9"},{"poiid":"B2094654D568A4F54393","title":"上海申诚医院","lon":"121.55902","lat":"31.25675","category":"162","category_name":"医院","address":"浦东新区浦东大道2516号(近杨浦大桥)"},{"poiid":"B2094655D36CA5F4409F","title":"博山东路龙居路(临时站)","lon":"121.56409","lat":"31.25072","category":"38","category_name":"公交车站","address":""},{"poiid":"B2094655D36CA5F4409D","title":"博山东路居家桥路","lon":"121.56515","lat":"31.25073","category":"38","category_name":"公交车站","address":""},{"poiid":"B2094757D16EA1FC429A","title":"金湘阁 栖山路店","lon":"121.56345518195","lat":"31.257146416632","category":"77","category_name":"湖南菜","address":"浦东新区栖山路1497号(近居家桥路)"},{"poiid":"B2094654D568A4F44292","title":"罗山新村派出所","lon":"121.55925","lat":"31.24898","category":"609","category_name":"警察局","address":"万德路51弄50-73号、67弄1-28号罗山四村"},{"poiid":"B2094654D568ABFC469B","title":"长信阁小吃馆","lon":"121.56084","lat":"31.25498","category":"68","category_name":"快餐厅","address":"浦东新区栖山路1297号(近龙居路)"},{"poiid":"B2094654DB6BA1F8499A","title":"永琪美容美发","lon":"121.56485","lat":"31.25032","category":"148","category_name":"美容美发店","address":"浦东新区博山东路810号"},{"poiid":"B2094757D06FA7F4429C","title":"老盛昌苏州汤包馆(博山东路店)","lon":"121.557955339","lat":"31.2483397593","category":"68","category_name":"快餐厅","address":"浦东新区博山东路84号(近万德路)"},{"poiid":"B2094757D06BAAFF4392","title":"博山东路","lon":"121.559945829","lat":"31.2477788513","category":"500","category_name":"未知分类","address":"上海博山东路"},{"poiid":"B2094757D069A3FE409E","title":"肯德基 博山东路店 KFC","lon":"121.560610054","lat":"31.247954793","category":"68","category_name":"快餐厅","address":"浦东新区博山东路50号(博山东路万德路)"},{"poiid":"B2094654D568A7FE499D","title":"象山海鲜城 居家桥店","lon":"121.56621113256","lat":"31.253418673801","category":"247","category_name":"餐饮美食","address":"浦东新区居家桥路635号(近博山东路)"},{"poiid":"B2094757D06FA7FC469B","title":"浦东大道","lon":"121.56493549","lat":"31.255178412","category":"260","category_name":"其他","address":"上海市浦东大道"},{"poiid":"B2094757D068A0FD419C","title":"德平路公交站(近浦东大道)","lon":"121.556913","lat":"31.254067","category":"38","category_name":"公交车站","address":"上海德平路浦东大道"},{"poiid":"B2094757D064AAFE409A","title":"上海振华外经职业技术学校","lon":"121.56191233","lat":"31.253369374","category":"253","category_name":"校园生活","address":"上海龙居路栖山路"},{"poiid":"B2094757D16CA4F5439B","title":"博达商场自由港","lon":"121.560298339","lat":"31.2479157495","category":"500","category_name":"未知分类","address":"上海博山东路78号"},{"poiid":"B2094757D069A3FB409D","title":"亚龙大酒店","lon":"121.56667","lat":"31.25298","category":"72","category_name":"广东菜","address":"浦东新区居家桥路595号(近博山路)"},{"poiid":"B2094654DA69A2FD4592","title":"博山大酒楼","lon":"121.55886588683","lat":"31.247158592083","category":"76","category_name":"上海菜","address":"浦东新区博山东路21号(近罗山路)"},{"poiid":"B2094757D068ABFD479D","title":"85度C(博山店)","lon":"121.560709","lat":"31.247539","category":"67","category_name":"甜品店","address":"浦东新区博山东路78号1楼"},{"poiid":"B2094757DA6AA4FE499A","title":"金桥商业广场","lon":"121.560472","lat":"31.250646","category":"500","category_name":"未知分类","address":"金桥路"},{"poiid":"B2094757D069ABFF459A","title":"万德路博山东路","lon":"121.560571","lat":"31.247934","category":"500","category_name":"未知分类","address":"上海万德路博山东路"},{"poiid":"B2094757D069A6F4409D","title":"鼎丰人家(德平店)","lon":"121.55825","lat":"31.25268","category":"76","category_name":"上海菜","address":"浦东新区德平路44号(栖山路口)"},{"poiid":"B2094757D069A4FD429E","title":"浦东新区中医医院(罗山分院)","lon":"121.557627451","lat":"31.2503135797","category":"162","category_name":"医院","address":"浦东新区万德路49号(近德平路菜场)"},{"poiid":"B2094751D56AA2FD4999","title":"第一八佰伴","lon":"121.561024","lat":"31.251321","category":"500","category_name":"未知分类","address":"浦东南路"},{"poiid":"B2094655D26DA5FA409D","title":"罗山三村德平路","lon":"121.56258","lat":"31.25047","category":"47","category_name":"住宅区","address":"德平路143弄1-21号"},{"poiid":"B2094654D568ABFC4998","title":"好邻居饮食","lon":"121.56305","lat":"31.2522","category":"257","category_name":"中餐厅","address":"浦东新区龙居路157号(近博山东路)"},{"poiid":"B2094757D16FA4F54698","title":"736路公交车终点站","lon":"121.56136792","lat":"31.250619277","category":"38","category_name":"公交车站","address":"上海浦东新区德平路90号"},{"poiid":"B2094654D568ABFE4193","title":"古源养生坊足道保健会馆","lon":"121.56597","lat":"31.251","category":"149","category_name":"洗浴推拿场所","address":"上海浦东新区博山东路190号(近居家桥路)  "},{"poiid":"B2094757D16AA5F4489E","title":"自由港","lon":"121.559464339","lat":"31.248893772","category":"500","category_name":"未知分类","address":"上海博山东路"},{"poiid":"B2094757DA6FA3FC439F","title":"自由港量贩式KTV(博山店)","lon":"121.560709","lat":"31.2475390000002","category":"170","category_name":"KTV","address":"浦东新区博山东路78号博达百货3楼(近万德路)"},{"poiid":"B2094757D069AAFC489A","title":"四海游龙 博山东路店 OVERSEAS DRAGON","lon":"121.561152054","lat":"31.248346793","category":"68","category_name":"快餐厅","address":"浦东新区居家桥路571号(近博山东路)"},{"poiid":"B2094757D16FABFD4099","title":"龍居路150弄","lon":"121.561882339","lat":"31.2522528492","category":"500","category_name":"未知分类","address":"上海市浦东新区德平路"},{"poiid":"B2094757D16FA7FF4293","title":"重庆鸡公煲 德平路店","lon":"121.561462","lat":"31.249635","category":"71","category_name":"四川菜","address":"浦东新区德平路90号(近博山东路)"},{"poiid":"B2094757D064A0FB479C","title":"罗山七村","lon":"121.56448","lat":"31.252216","category":"252","category_name":"楼宇机构","address":"上海市浦东新区龙居路"},{"poiid":"B2094655D26CA7F9469F","title":"迪亚天天No.5041","lon":"121.56286","lat":"31.2524","category":"118","category_name":"超级市场","address":""},{"poiid":"B2094655D36CA5F4409C","title":"博山东路龙居路","lon":"121.56347","lat":"31.24967","category":"38","category_name":"公交车站","address":""},{"poiid":"B2094757D16EA6F84592","title":"神邸成王府","lon":"121.56308333","lat":"31.251562833","category":"247","category_name":"餐饮美食","address":"上海浦东新区博山东路德平路"},{"poiid":"B2094757D16EAAFC439E","title":"新疆喀什友好餐厅","lon":"121.55730780725","lat":"31.253826338597","category":"90","category_name":"清真餐馆","address":"浦东新区德平路42号(近浦东大道)"},{"poiid":"B2094655D26CA5FA459F","title":"罗山三村(东门)","lon":"121.56246","lat":"31.25239","category":"656","category_name":"大门","address":"龙居路150弄1-32号"},{"poiid":"B2094655D36CA5F4419A","title":"博山东路德平路","lon":"121.56352","lat":"31.24969","category":"38","category_name":"公交车站","address":""},{"poiid":"B2094757D468A4F8469F","title":"龙象品臻","lon":"121.566179","lat":"31.252396","category":"75","category_name":"浙江菜","address":"浦东新区居家桥路635号(近博山路)"},{"poiid":"B2094654D568A4F4459B","title":"罗山四村","lon":"121.55975","lat":"31.24947","category":"47","category_name":"住宅区","address":"万德路51弄50-73"},{"poiid":"B2094654D568ABFC489E","title":"淑尔俊美容美发","lon":"121.56252","lat":"31.25277","category":"148","category_name":"美容美发店","address":""},{"poiid":"B2094752D264A2FE469D","title":"上德宝骏宝马5S","lon":"121.56586","lat":"31.2536","category":"263","category_name":"公司","address":"居家桥路571号"},{"poiid":"B2094654D568A4FA4892","title":"上海世纪星双语实验幼稚园","lon":"121.56483","lat":"31.2509","category":"57","category_name":"幼儿园","address":"浦东新区博山东路169号(近万德路)"},{"poiid":"B2094654DB6BA1F84898","title":"快客德平路店","lon":"121.56086","lat":"31.25009","category":"117","category_name":"便民商店/便利店","address":"德平路82"},{"poiid":"B2094654D568A4F4489F","title":"罗山一村(边门)","lon":"121.55851","lat":"31.25447","category":"47","category_name":"住宅区","address":"龙居路30弄1-32号"},{"poiid":"B2094655D26BA3F4429B","title":"黄山宾馆餐厅","lon":"121.56643","lat":"31.25283","category":"76","category_name":"上海菜","address":"浦东新区居家桥路635号(博山东路居家桥路)"},{"poiid":"B2094654D568ABFC4792","title":"上海市振华综合高级中学","lon":"121.56195","lat":"31.25412","category":"55","category_name":"中学","address":"龙居路87"},{"poiid":"B2094654D568ABFE429D","title":"通联苑","lon":"121.56622","lat":"31.250317","category":"47","category_name":"住宅区","address":"上海市浦东新区居家桥路688弄"},{"poiid":"B2094655D26CA5FB479A","title":"金云苑","lon":"121.55785","lat":"31.2519","category":"47","category_name":"住宅区","address":"德平路58弄8-9"},{"poiid":"B2094654D568A4F54393","title":"上海申诚医院","lon":"121.55902","lat":"31.25675","category":"162","category_name":"医院","address":"浦东新区浦东大道2516号(近杨浦大桥)"},{"poiid":"B2094655D36CA5F4409F","title":"博山东路龙居路(临时站)","lon":"121.56409","lat":"31.25072","category":"38","category_name":"公交车站","address":""},{"poiid":"B2094655D36CA5F4409D","title":"博山东路居家桥路","lon":"121.56515","lat":"31.25073","category":"38","category_name":"公交车站","address":""},{"poiid":"B2094757D16EA1FC429A","title":"金湘阁 栖山路店","lon":"121.56345518195","lat":"31.257146416632","category":"77","category_name":"湖南菜","address":"浦东新区栖山路1497号(近居家桥路)"},{"poiid":"B2094654D568A4F44292","title":"罗山新村派出所","lon":"121.55925","lat":"31.24898","category":"609","category_name":"警察局","address":"万德路51弄50-73号、67弄1-28号罗山四村"},{"poiid":"B2094654D568ABFC469B","title":"长信阁小吃馆","lon":"121.56084","lat":"31.25498","category":"68","category_name":"快餐厅","address":"浦东新区栖山路1297号(近龙居路)"},{"poiid":"B2094654DB6BA1F8499A","title":"永琪美容美发","lon":"121.56485","lat":"31.25032","category":"148","category_name":"美容美发店","address":"浦东新区博山东路810号"},{"poiid":"B2094757D06FA7F4429C","title":"老盛昌苏州汤包馆(博山东路店)","lon":"121.557955339","lat":"31.2483397593","category":"68","category_name":"快餐厅","address":"浦东新区博山东路84号(近万德路)"},{"poiid":"B2094757D06BAAFF4392","title":"博山东路","lon":"121.559945829","lat":"31.2477788513","category":"500","category_name":"未知分类","address":"上海博山东路"},{"poiid":"B2094757D069A3FE409E","title":"肯德基 博山东路店 KFC","lon":"121.560610054","lat":"31.247954793","category":"68","category_name":"快餐厅","address":"浦东新区博山东路50号(博山东路万德路)"},{"poiid":"B2094654D568A7FE499D","title":"象山海鲜城 居家桥店","lon":"121.56621113256","lat":"31.253418673801","category":"247","category_name":"餐饮美食","address":"浦东新区居家桥路635号(近博山东路)"},{"poiid":"B2094757D06FA7FC469B","title":"浦东大道","lon":"121.56493549","lat":"31.255178412","category":"260","category_name":"其他","address":"上海市浦东大道"},{"poiid":"B2094757D068A0FD419C","title":"德平路公交站(近浦东大道)","lon":"121.556913","lat":"31.254067","category":"38","category_name":"公交车站","address":"上海德平路浦东大道"},{"poiid":"B2094757D064AAFE409A","title":"上海振华外经职业技术学校","lon":"121.56191233","lat":"31.253369374","category":"253","category_name":"校园生活","address":"上海龙居路栖山路"},{"poiid":"B2094757D16CA4F5439B","title":"博达商场自由港","lon":"121.560298339","lat":"31.2479157495","category":"500","category_name":"未知分类","address":"上海博山东路78号"},{"poiid":"B2094757D069A3FB409D","title":"亚龙大酒店","lon":"121.56667","lat":"31.25298","category":"72","category_name":"广东菜","address":"浦东新区居家桥路595号(近博山路)"},{"poiid":"B2094654DA69A2FD4592","title":"博山大酒楼","lon":"121.55886588683","lat":"31.247158592083","category":"76","category_name":"上海菜","address":"浦东新区博山东路21号(近罗山路)"},{"poiid":"B2094757D068ABFD479D","title":"85度C(博山店)","lon":"121.560709","lat":"31.247539","category":"67","category_name":"甜品店","address":"浦东新区博山东路78号1楼"},{"poiid":"B2094757DA6AA4FE499A","title":"金桥商业广场","lon":"121.560472","lat":"31.250646","category":"500","category_name":"未知分类","address":"金桥路"},{"poiid":"B2094757D069ABFF459A","title":"万德路博山东路","lon":"121.560571","lat":"31.247934","category":"500","category_name":"未知分类","address":"上海万德路博山东路"},{"poiid":"B2094757D069A6F4409D","title":"鼎丰人家(德平店)","lon":"121.55825","lat":"31.25268","category":"76","category_name":"上海菜","address":"浦东新区德平路44号(栖山路口)"},{"poiid":"B2094757D069A4FD429E","title":"浦东新区中医医院(罗山分院)","lon":"121.557627451","lat":"31.2503135797","category":"162","category_name":"医院","address":"浦东新区万德路49号(近德平路菜场)"},{"poiid":"B2094751D56AA2FD4999","title":"第一八佰伴","lon":"121.561024","lat":"31.251321","category":"500","category_name":"未知分类","address":"浦东南路"},{"poiid":"B2094655D26DA5FA409D","title":"罗山三村德平路","lon":"121.56258","lat":"31.25047","category":"47","category_name":"住宅区","address":"德平路143弄1-21号"},{"poiid":"B2094654D568ABFC4998","title":"好邻居饮食","lon":"121.56305","lat":"31.2522","category":"257","category_name":"中餐厅","address":"浦东新区龙居路157号(近博山东路)"},{"poiid":"B2094757D16FA4F54698","title":"736路公交车终点站","lon":"121.56136792","lat":"31.250619277","category":"38","category_name":"公交车站","address":"上海浦东新区德平路90号"},{"poiid":"B2094654D568ABFE4193","title":"古源养生坊足道保健会馆","lon":"121.56597","lat":"31.251","category":"149","category_name":"洗浴推拿场所","address":"上海浦东新区博山东路190号(近居家桥路)  "},{"poiid":"B2094757D16AA5F4489E","title":"自由港","lon":"121.559464339","lat":"31.248893772","category":"500","category_name":"未知分类","address":"上海博山东路"},{"poiid":"B2094757DA6FA3FC439F","title":"自由港量贩式KTV(博山店)","lon":"121.560709","lat":"31.2475390000002","category":"170","category_name":"KTV","address":"浦东新区博山东路78号博达百货3楼(近万德路)"},{"poiid":"B2094757D069AAFC489A","title":"四海游龙 博山东路店 OVERSEAS DRAGON","lon":"121.561152054","lat":"31.248346793","category":"68","category_name":"快餐厅","address":"浦东新区居家桥路571号(近博山东路)"},{"poiid":"B2094757D16FABFD4099","title":"龍居路150弄","lon":"121.561882339","lat":"31.2522528492","category":"500","category_name":"未知分类","address":"上海市浦东新区德平路"},{"poiid":"B2094757D16FA7FF4293","title":"重庆鸡公煲 德平路店","lon":"121.561462","lat":"31.249635","category":"71","category_name":"四川菜","address":"浦东新区德平路90号(近博山东路)"},{"poiid":"B2094757D064A0FB479C","title":"罗山七村","lon":"121.56448","lat":"31.252216","category":"252","category_name":"楼宇机构","address":"上海市浦东新区龙居路"},{"poiid":"B2094655D26CA7F9469F","title":"迪亚天天No.5041","lon":"121.56286","lat":"31.2524","category":"118","category_name":"超级市场","address":""},{"poiid":"B2094655D36CA5F4409C","title":"博山东路龙居路","lon":"121.56347","lat":"31.24967","category":"38","category_name":"公交车站","address":""},{"poiid":"B2094757D16EA6F84592","title":"神邸成王府","lon":"121.56308333","lat":"31.251562833","category":"247","category_name":"餐饮美食","address":"上海浦东新区博山东路德平路"},{"poiid":"B2094757D16EAAFC439E","title":"新疆喀什友好餐厅","lon":"121.55730780725","lat":"31.253826338597","category":"90","category_name":"清真餐馆","address":"浦东新区德平路42号(近浦东大道)"},{"poiid":"B2094655D26CA5FA459F","title":"罗山三村(东门)","lon":"121.56246","lat":"31.25239","category":"656","category_name":"大门","address":"龙居路150弄1-32号"},{"poiid":"B2094655D36CA5F4419A","title":"博山东路德平路","lon":"121.56352","lat":"31.24969","category":"38","category_name":"公交车站","address":""},{"poiid":"B2094757D468A4F8469F","title":"龙象品臻","lon":"121.566179","lat":"31.252396","category":"75","category_name":"浙江菜","address":"浦东新区居家桥路635号(近博山路)"},{"poiid":"B2094654D568A4F4459B","title":"罗山四村","lon":"121.55975","lat":"31.24947","category":"47","category_name":"住宅区","address":"万德路51弄50-73"},{"poiid":"B2094654D568ABFC489E","title":"淑尔俊美容美发","lon":"121.56252","lat":"31.25277","category":"148","category_name":"美容美发店","address":""},{"poiid":"B2094752D264A2FE469D","title":"上德宝骏宝马5S","lon":"121.56586","lat":"31.2536","category":"263","category_name":"公司","address":"居家桥路571号"},{"poiid":"B2094654D568A4FA4892","title":"上海世纪星双语实验幼稚园","lon":"121.56483","lat":"31.2509","category":"57","category_name":"幼儿园","address":"浦东新区博山东路169号(近万德路)"},{"poiid":"B2094654DB6BA1F84898","title":"快客德平路店","lon":"121.56086","lat":"31.25009","category":"117","category_name":"便民商店/便利店","address":"德平路82"},{"poiid":"B2094654D568A4F4489F","title":"罗山一村(边门)","lon":"121.55851","lat":"31.25447","category":"47","category_name":"住宅区","address":"龙居路30弄1-32号"},{"poiid":"B2094655D26BA3F4429B","title":"黄山宾馆餐厅","lon":"121.56643","lat":"31.25283","category":"76","category_name":"上海菜","address":"浦东新区居家桥路635号(博山东路居家桥路)"},{"poiid":"B2094654D568ABFC4792","title":"上海市振华综合高级中学","lon":"121.56195","lat":"31.25412","category":"55","category_name":"中学","address":"龙居路87"},{"poiid":"B2094654D568ABFE429D","title":"通联苑","lon":"121.56622","lat":"31.250317","category":"47","category_name":"住宅区","address":"上海市浦东新区居家桥路688弄"},{"poiid":"B2094655D26CA5FB479A","title":"金云苑","lon":"121.55785","lat":"31.2519","category":"47","category_name":"住宅区","address":"德平路58弄8-9"},{"poiid":"B2094654D568A4F54393","title":"上海申诚医院","lon":"121.55902","lat":"31.25675","category":"162","category_name":"医院","address":"浦东新区浦东大道2516号(近杨浦大桥)"},{"poiid":"B2094655D36CA5F4409F","title":"博山东路龙居路(临时站)","lon":"121.56409","lat":"31.25072","category":"38","category_name":"公交车站","address":""},{"poiid":"B2094655D36CA5F4409D","title":"博山东路居家桥路","lon":"121.56515","lat":"31.25073","category":"38","category_name":"公交车站","address":""},{"poiid":"B2094757D16EA1FC429A","title":"金湘阁 栖山路店","lon":"121.56345518195","lat":"31.257146416632","category":"77","category_name":"湖南菜","address":"浦东新区栖山路1497号(近居家桥路)"},{"poiid":"B2094654D568A4F44292","title":"罗山新村派出所","lon":"121.55925","lat":"31.24898","category":"609","category_name":"警察局","address":"万德路51弄50-73号、67弄1-28号罗山四村"},{"poiid":"B2094654D568ABFC469B","title":"长信阁小吃馆","lon":"121.56084","lat":"31.25498","category":"68","category_name":"快餐厅","address":"浦东新区栖山路1297号(近龙居路)"},{"poiid":"B2094654DB6BA1F8499A","title":"永琪美容美发","lon":"121.56485","lat":"31.25032","category":"148","category_name":"美容美发店","address":"浦东新区博山东路810号"}]