[{"poiid":"B2094757D06FAAF5459E","title":"浏岛度假村","lon":"121.233627358","lat":"31.4831883771","category":"260","category_name":"其他","address":"上海近郊嘉定区唐行浏岛风景区  "},{"poiid":"B2094757D06BA7F84093","title":"全进骑马场","lon":"121.23766","lat":"31.48638","category":"260","category_name":"其他","address":"嘉定区浏岛风景区嘉行公路北侧(近双浏路)"},{"poiid":"B2094757D165A7F8449B","title":"上海市少年儿童浏河活动营地","lon":"121.233999382","lat":"31.483192026","category":"500","category_name":"未知分类","address":"上海嘉定双浏路"},{"poiid":"B2094757D064AAF4499D","title":"浏河烈士公墓","lon":"121.245295","lat":"31.505442","category":"620","category_name":"丧葬","address":"苏州太仓市浏河镇浏河烈士公墓"},{"poiid":"B2094654D468A4FF419E","title":"上海高尔夫俱乐部","lon":"121.23345","lat":"31.48127","category":"206","category_name":"高尔夫相关","address":"嘉定区唐行镇双塘村12号地块"},{"poiid":"B2094757D16FABFE479B","title":"浏河镇郑和纪念馆","lon":"121.24857","lat":"31.49426","category":"260","category_name":"其他","address":"近郊太仓市浏河镇新东街90号"},{"poiid":"B2094757D169A4F44492","title":"毛桥生态农庄","lon":"121.25273838","lat":"31.477205105","category":"247","category_name":"餐饮美食","address":"上海嘉定区毛桥村155号"},{"poiid":"B2094655D264A3FF459E","title":"浏岛大桥","lon":"121.23511","lat":"31.48291","category":"250","category_name":"公园户外","address":""},{"poiid":"B2094654D468A4FF4399","title":"上海高尔夫花园","lon":"121.23512","lat":"31.48212","category":"206","category_name":"高尔夫相关","address":""},{"poiid":"B2094654D468A4FC419D","title":"上海思搏拓展培训学校浏岛基地","lon":"121.23129","lat":"31.48313","category":"190","category_name":"培训机构","address":""},{"poiid":"B2094655D26BA1FA479E","title":"毛桥","lon":"121.2531","lat":"31.47365","category":"38","category_name":"公交车站","address":""},{"poiid":"B2094655D36DA0F94093","title":"杨泉桥","lon":"121.24721","lat":"31.47033","category":"38","category_name":"公交车站","address":""},{"poiid":"B2094757D16DA4FC4793","title":"浏河渡假村","lon":"121.22769338","lat":"31.480972181","category":"260","category_name":"其他","address":"江苏省苏州市太仓市339省道"}]