[{"poiid":"B2094757D169A3F5489D","title":"浦东国际机场T1航站楼","lon":"121.637789975","lat":"31.1776968325","category":"21","category_name":"飞机场","address":"上海市浦东新区"},{"poiid":"B2094757DB6FA6F54198","title":"浦东国际机场T2航站楼","lon":"121.6343438046359","lat":"31.1825049223668","category":"500","category_name":"未知分类","address":"浦东国际机场T2航站楼"},{"poiid":"B2094750D26FA7FB4593","title":"浦东机场T2航站楼","lon":"121.637809","lat":"31.177707","category":"500","category_name":"未知分类","address":null},{"poiid":"B2094655D36DA7FD4493","title":"张江路华夏中路","lon":"121.62987","lat":"31.18766","category":"38","category_name":"公交车站","address":""},{"poiid":"B2094757D068A6FD419E","title":"孙桥现代农业开发区","lon":"121.63107","lat":"31.17052","category":"260","category_name":"其他","address":"上海浦东新区孙桥沔北路185号  "},{"poiid":"B2094757D069A2FC469B","title":"川杨新苑三期","lon":"121.636383","lat":"31.188532","category":"47","category_name":"住宅区","address":"上海中科路2500弄"},{"poiid":"B2094655D26BA2FA4892","title":"孙桥镇","lon":"121.63003","lat":"31.17707","category":"38","category_name":"公交车站","address":"上海孙环路长美路"},{"poiid":"B2094757D069A5F9449B","title":"孙桥花鸟市场","lon":"121.63124","lat":"31.17471","category":"249","category_name":"购物服务","address":"上海浦东新区孙桥路600号  "},{"poiid":"B2094757D065A5F8409E","title":"华夏公园","lon":"121.65080441079522","lat":"31.192232339010502","category":"196","category_name":"公园","address":"上海华夏东路185号"},{"poiid":"B2094654DA6AA4FE4492","title":"张江镇环西小区","lon":"121.64129","lat":"31.17754","category":"47","category_name":"住宅区","address":"孙环路601弄1-98号临"},{"poiid":"B2094654DB69A6F94799","title":"长城中环别墅","lon":"121.63105","lat":"31.18334","category":"47","category_name":"住宅区","address":"浦东新区高木桥路219弄"},{"poiid":"B2094757D16DA6FC459E","title":"S1高速公路","lon":"121.646461375","lat":"31.1899818195","category":"500","category_name":"未知分类","address":"上海S1高速公路"},{"poiid":"B2094757D069A4FB439F","title":"紫晶苑","lon":"121.62564","lat":"31.176443","category":"252","category_name":"楼宇机构","address":"上海市浦东新区孙农路398弄"},{"poiid":"B2094654DA6BA2F9499C","title":"华联超市(孙环路)","lon":"121.64286","lat":"31.17398","category":"118","category_name":"超级市场","address":""},{"poiid":"B2094654DA6BA2FA499B","title":"张江镇环西居委会卫生服务站","lon":"121.64133","lat":"31.1775","category":"162","category_name":"医院","address":""},{"poiid":"B2094655D26BA2FB409F","title":"孙环路(环西小区)","lon":"121.64046","lat":"31.17873","category":"38","category_name":"公交车站","address":""},{"poiid":"B2094654DB6DA6FD439D","title":"康桥工业区(康桥东路)","lon":"121.63565","lat":"31.16045","category":"45","category_name":"产业园区","address":"康桥东路1365弄1-32号"},{"poiid":"B2094750D669A7F8429B","title":"广兰路地铁站","lon":"121.647178","lat":"31.176021","category":"36","category_name":"地铁站","address":null},{"poiid":"B2094655D26BA2FB4098","title":"孙环路三灶路","lon":"121.63973","lat":"31.18001","category":"38","category_name":"公交车站","address":""},{"poiid":"B2094654DA6BA1FA409A","title":"服务区","lon":"121.64669","lat":"31.17226","category":"250","category_name":"公园户外","address":"孙桥镇"},{"poiid":"B2094655D26BA2FA499E","title":"孙桥","lon":"121.63094","lat":"31.17845","category":"38","category_name":"公交车站","address":"上海新多路"},{"poiid":"B2094757D16CA2FC4993","title":"利君绿苑酒家","lon":"121.63072","lat":"31.16855","category":"76","category_name":"上海菜","address":"上海浦东新区沔北路185号(近孙桥农业园)  "},{"poiid":"B2094654DA6AA6FF4293","title":"玫瑰湾","lon":"121.62824","lat":"31.181089","category":"47","category_name":"住宅区","address":"上海市浦东新区孙桥路202号"},{"poiid":"B2094654DA6AA4FE469B","title":"浦东新区孙桥镇卫生院","lon":"121.63327","lat":"31.17443","category":"162","category_name":"医院","address":"横沔江路274"},{"poiid":"B2094757D064A5FE489F","title":"浦东新区看守所","lon":"121.639726975","lat":"31.1923481748","category":"500","category_name":"未知分类","address":"上海华益路351号"},{"poiid":"B2094655D26BA2FB4099","title":"孙环路华夏中路","lon":"121.63666","lat":"31.18693","category":"38","category_name":"公交车站","address":""},{"poiid":"B2094757D165A2FC4693","title":"华夏中路孙环路车站","lon":"121.64728674","lat":"31.169680278","category":"500","category_name":"未知分类","address":"上海华夏中路孙环路"},{"poiid":"B2094654DA6AA4FD4799","title":"上海市孙桥中学","lon":"121.63123","lat":"31.17281","category":"55","category_name":"中学","address":"浦东新区孙桥镇孙桥路705号"},{"poiid":"B2094654DA6AA4FC4993","title":"上海市殷浜中学","lon":"121.63242","lat":"31.1726","category":"55","category_name":"中学","address":""},{"poiid":"B2094757D16AABF84199","title":"浦东张江腾越篮球馆","lon":"121.64855867","lat":"31.181599657","category":"220","category_name":"运动场所","address":"上海张江三灶路(三灶浜路)851号院内(靠近孙弘路)"},{"poiid":"B2094655D36DA7F8409B","title":"中科路孙环路","lon":"121.636","lat":"31.18978","category":"38","category_name":"公交车站","address":""},{"poiid":"B2094757D664AAF8489D","title":"茗缘酒楼","lon":"121.63077","lat":"31.18123","category":"76","category_name":"上海菜","address":"浦东新区孙桥路268号(近孙建路)"},{"poiid":"B2094654DA6AA4FE409B","title":"孙桥花苑","lon":"121.637","lat":"31.1858","category":"47","category_name":"住宅区","address":"上海孙桥路306弄"},{"poiid":"B2094654DA6AA4FC4593","title":"上海市浦东新区孙桥镇广播电视站","lon":"121.63294","lat":"31.17779","category":"59","category_name":"电视台","address":"孙桥镇横沔江路56号"},{"poiid":"B2094757D16CA3F8409C","title":"川杨二期","lon":"121.625099975","lat":"31.1855870168","category":"500","category_name":"未知分类","address":"上海顺和路126号"},{"poiid":"B2094654DA6AA4FE469F","title":"上海雅达针织制衣有限公司","lon":"121.63473","lat":"31.17684","category":"263","category_name":"公司","address":"孙桥镇三灶路69临"},{"poiid":"B2094654DA6AA5F54499","title":"鼎新商场","lon":"121.6322","lat":"31.17896","category":"119","category_name":"商场","address":"乐安镇32号"},{"poiid":"B2094654DA6AA4FD409A","title":"大圣寺","lon":"121.65165","lat":"31.17243","category":"244","category_name":"寺庙道观","address":""},{"poiid":"B2094655D26BA2FA4999","title":"孙桥路科农路","lon":"121.6311","lat":"31.17046","category":"38","category_name":"公交车站","address":""},{"poiid":"B2094757DA6FA3FF4092","title":"环东农庄","lon":"121.654787063599","lat":"31.1825806532364","category":"76","category_name":"上海菜","address":"浦东新区孙建路(近三灶路)"},{"poiid":"B2094655D265A4FA409E","title":"东郊紫园","lon":"121.62326","lat":"31.179136","category":"47","category_name":"住宅区","address":"浦东新区孙农路200弄"},{"poiid":"B2094655D36CA1F54398","title":"科农路稻香路","lon":"121.654","lat":"31.1767","category":"38","category_name":"公交车站","address":""},{"poiid":"B2094757D66AABFF439F","title":"大家品鱼酒楼","lon":"121.63061","lat":"31.1844","category":"71","category_name":"四川菜","address":"浦东新区孙桥路128号(近华夏西路)"},{"poiid":"B2094750D76DAAFC469F","title":"蜀膳传火锅传奇(孙桥路店)","lon":"121.631","lat":"31.1849","category":"86","category_name":"火锅店","address":"浦东新区孙桥路100号"},{"poiid":"B2094654DA6BA2F9419B","title":"快客NO.6468","lon":"121.63076","lat":"31.17852","category":"117","category_name":"便民商店/便利店","address":"孙桥镇"},{"poiid":"B2094654DB64A6FF479B","title":"中国移动孙桥镇营业厅","lon":"121.6308","lat":"31.17885","category":"151","category_name":"电讯营业厅","address":"浦东新区孙桥路401-405号"},{"poiid":"B2094654DA6AA4FE459F","title":"孙桥公寓","lon":"121.63143","lat":"31.18117","category":"47","category_name":"住宅区","address":"高木桥路北门235弄"},{"poiid":"B2094655D36CA0F4439A","title":"黄浦花园","lon":"121.63068","lat":"31.18337","category":"47","category_name":"住宅区","address":""},{"poiid":"B2094654DA6AA4FE459C","title":"孙桥幼儿园","lon":"121.6296","lat":"31.17861","category":"57","category_name":"幼儿园","address":""},{"poiid":"B2094654DA6AA4FD4798","title":"孙桥小学","lon":"121.63002","lat":"31.17872","category":"56","category_name":"小学","address":"浦东新区张江镇殷北路468号(孙农路殷北路)"},{"poiid":"B2094757D169A3F5489D","title":"浦东国际机场T1航站楼","lon":"121.637789975","lat":"31.1776968325","category":"21","category_name":"飞机场","address":"上海市浦东新区"},{"poiid":"B2094757DB6FA6F54198","title":"浦东国际机场T2航站楼","lon":"121.6343438046359","lat":"31.1825049223668","category":"500","category_name":"未知分类","address":"浦东国际机场T2航站楼"},{"poiid":"B2094750D26FA7FB4593","title":"浦东机场T2航站楼","lon":"121.637809","lat":"31.177707","category":"500","category_name":"未知分类","address":null},{"poiid":"B2094655D36DA7FD4493","title":"张江路华夏中路","lon":"121.62987","lat":"31.18766","category":"38","category_name":"公交车站","address":""},{"poiid":"B2094757D068A6FD419E","title":"孙桥现代农业开发区","lon":"121.63107","lat":"31.17052","category":"260","category_name":"其他","address":"上海浦东新区孙桥沔北路185号  "},{"poiid":"B2094757D069A2FC469B","title":"川杨新苑三期","lon":"121.636383","lat":"31.188532","category":"47","category_name":"住宅区","address":"上海中科路2500弄"},{"poiid":"B2094655D26BA2FA4892","title":"孙桥镇","lon":"121.63003","lat":"31.17707","category":"38","category_name":"公交车站","address":"上海孙环路长美路"},{"poiid":"B2094757D069A5F9449B","title":"孙桥花鸟市场","lon":"121.63124","lat":"31.17471","category":"249","category_name":"购物服务","address":"上海浦东新区孙桥路600号  "},{"poiid":"B2094757D065A5F8409E","title":"华夏公园","lon":"121.65080441079522","lat":"31.192232339010502","category":"196","category_name":"公园","address":"上海华夏东路185号"},{"poiid":"B2094654DA6AA4FE4492","title":"张江镇环西小区","lon":"121.64129","lat":"31.17754","category":"47","category_name":"住宅区","address":"孙环路601弄1-98号临"},{"poiid":"B2094654DB69A6F94799","title":"长城中环别墅","lon":"121.63105","lat":"31.18334","category":"47","category_name":"住宅区","address":"浦东新区高木桥路219弄"},{"poiid":"B2094757D16DA6FC459E","title":"S1高速公路","lon":"121.646461375","lat":"31.1899818195","category":"500","category_name":"未知分类","address":"上海S1高速公路"},{"poiid":"B2094757D069A4FB439F","title":"紫晶苑","lon":"121.62564","lat":"31.176443","category":"252","category_name":"楼宇机构","address":"上海市浦东新区孙农路398弄"},{"poiid":"B2094654DA6BA2F9499C","title":"华联超市(孙环路)","lon":"121.64286","lat":"31.17398","category":"118","category_name":"超级市场","address":""},{"poiid":"B2094654DA6BA2FA499B","title":"张江镇环西居委会卫生服务站","lon":"121.64133","lat":"31.1775","category":"162","category_name":"医院","address":""},{"poiid":"B2094655D26BA2FB409F","title":"孙环路(环西小区)","lon":"121.64046","lat":"31.17873","category":"38","category_name":"公交车站","address":""},{"poiid":"B2094654DB6DA6FD439D","title":"康桥工业区(康桥东路)","lon":"121.63565","lat":"31.16045","category":"45","category_name":"产业园区","address":"康桥东路1365弄1-32号"},{"poiid":"B2094750D669A7F8429B","title":"广兰路地铁站","lon":"121.647178","lat":"31.176021","category":"36","category_name":"地铁站","address":null},{"poiid":"B2094655D26BA2FB4098","title":"孙环路三灶路","lon":"121.63973","lat":"31.18001","category":"38","category_name":"公交车站","address":""},{"poiid":"B2094654DA6BA1FA409A","title":"服务区","lon":"121.64669","lat":"31.17226","category":"250","category_name":"公园户外","address":"孙桥镇"},{"poiid":"B2094655D26BA2FA499E","title":"孙桥","lon":"121.63094","lat":"31.17845","category":"38","category_name":"公交车站","address":"上海新多路"},{"poiid":"B2094757D16CA2FC4993","title":"利君绿苑酒家","lon":"121.63072","lat":"31.16855","category":"76","category_name":"上海菜","address":"上海浦东新区沔北路185号(近孙桥农业园)  "},{"poiid":"B2094654DA6AA6FF4293","title":"玫瑰湾","lon":"121.62824","lat":"31.181089","category":"47","category_name":"住宅区","address":"上海市浦东新区孙桥路202号"},{"poiid":"B2094654DA6AA4FE469B","title":"浦东新区孙桥镇卫生院","lon":"121.63327","lat":"31.17443","category":"162","category_name":"医院","address":"横沔江路274"},{"poiid":"B2094757D064A5FE489F","title":"浦东新区看守所","lon":"121.639726975","lat":"31.1923481748","category":"500","category_name":"未知分类","address":"上海华益路351号"},{"poiid":"B2094655D26BA2FB4099","title":"孙环路华夏中路","lon":"121.63666","lat":"31.18693","category":"38","category_name":"公交车站","address":""},{"poiid":"B2094757D165A2FC4693","title":"华夏中路孙环路车站","lon":"121.64728674","lat":"31.169680278","category":"500","category_name":"未知分类","address":"上海华夏中路孙环路"},{"poiid":"B2094654DA6AA4FD4799","title":"上海市孙桥中学","lon":"121.63123","lat":"31.17281","category":"55","category_name":"中学","address":"浦东新区孙桥镇孙桥路705号"},{"poiid":"B2094654DA6AA4FC4993","title":"上海市殷浜中学","lon":"121.63242","lat":"31.1726","category":"55","category_name":"中学","address":""},{"poiid":"B2094757D16AABF84199","title":"浦东张江腾越篮球馆","lon":"121.64855867","lat":"31.181599657","category":"220","category_name":"运动场所","address":"上海张江三灶路(三灶浜路)851号院内(靠近孙弘路)"},{"poiid":"B2094655D36DA7F8409B","title":"中科路孙环路","lon":"121.636","lat":"31.18978","category":"38","category_name":"公交车站","address":""},{"poiid":"B2094757D664AAF8489D","title":"茗缘酒楼","lon":"121.63077","lat":"31.18123","category":"76","category_name":"上海菜","address":"浦东新区孙桥路268号(近孙建路)"},{"poiid":"B2094654DA6AA4FE409B","title":"孙桥花苑","lon":"121.637","lat":"31.1858","category":"47","category_name":"住宅区","address":"上海孙桥路306弄"},{"poiid":"B2094654DA6AA4FC4593","title":"上海市浦东新区孙桥镇广播电视站","lon":"121.63294","lat":"31.17779","category":"59","category_name":"电视台","address":"孙桥镇横沔江路56号"},{"poiid":"B2094757D16CA3F8409C","title":"川杨二期","lon":"121.625099975","lat":"31.1855870168","category":"500","category_name":"未知分类","address":"上海顺和路126号"},{"poiid":"B2094654DA6AA4FE469F","title":"上海雅达针织制衣有限公司","lon":"121.63473","lat":"31.17684","category":"263","category_name":"公司","address":"孙桥镇三灶路69临"},{"poiid":"B2094654DA6AA5F54499","title":"鼎新商场","lon":"121.6322","lat":"31.17896","category":"119","category_name":"商场","address":"乐安镇32号"},{"poiid":"B2094654DA6AA4FD409A","title":"大圣寺","lon":"121.65165","lat":"31.17243","category":"244","category_name":"寺庙道观","address":""},{"poiid":"B2094655D26BA2FA4999","title":"孙桥路科农路","lon":"121.6311","lat":"31.17046","category":"38","category_name":"公交车站","address":""},{"poiid":"B2094757DA6FA3FF4092","title":"环东农庄","lon":"121.654787063599","lat":"31.1825806532364","category":"76","category_name":"上海菜","address":"浦东新区孙建路(近三灶路)"},{"poiid":"B2094655D265A4FA409E","title":"东郊紫园","lon":"121.62326","lat":"31.179136","category":"47","category_name":"住宅区","address":"浦东新区孙农路200弄"},{"poiid":"B2094655D36CA1F54398","title":"科农路稻香路","lon":"121.654","lat":"31.1767","category":"38","category_name":"公交车站","address":""},{"poiid":"B2094757D66AABFF439F","title":"大家品鱼酒楼","lon":"121.63061","lat":"31.1844","category":"71","category_name":"四川菜","address":"浦东新区孙桥路128号(近华夏西路)"},{"poiid":"B2094750D76DAAFC469F","title":"蜀膳传火锅传奇(孙桥路店)","lon":"121.631","lat":"31.1849","category":"86","category_name":"火锅店","address":"浦东新区孙桥路100号"},{"poiid":"B2094654DA6BA2F9419B","title":"快客NO.6468","lon":"121.63076","lat":"31.17852","category":"117","category_name":"便民商店/便利店","address":"孙桥镇"},{"poiid":"B2094654DB64A6FF479B","title":"中国移动孙桥镇营业厅","lon":"121.6308","lat":"31.17885","category":"151","category_name":"电讯营业厅","address":"浦东新区孙桥路401-405号"},{"poiid":"B2094654DA6AA4FE459F","title":"孙桥公寓","lon":"121.63143","lat":"31.18117","category":"47","category_name":"住宅区","address":"高木桥路北门235弄"},{"poiid":"B2094655D36CA0F4439A","title":"黄浦花园","lon":"121.63068","lat":"31.18337","category":"47","category_name":"住宅区","address":""},{"poiid":"B2094654DA6AA4FE459C","title":"孙桥幼儿园","lon":"121.6296","lat":"31.17861","category":"57","category_name":"幼儿园","address":""},{"poiid":"B2094654DA6AA4FD4798","title":"孙桥小学","lon":"121.63002","lat":"31.17872","category":"56","category_name":"小学","address":"浦东新区张江镇殷北路468号(孙农路殷北路)"},{"poiid":"B2094757D169A3F5489D","title":"浦东国际机场T1航站楼","lon":"121.637789975","lat":"31.1776968325","category":"21","category_name":"飞机场","address":"上海市浦东新区"},{"poiid":"B2094757DB6FA6F54198","title":"浦东国际机场T2航站楼","lon":"121.6343438046359","lat":"31.1825049223668","category":"500","category_name":"未知分类","address":"浦东国际机场T2航站楼"},{"poiid":"B2094750D26FA7FB4593","title":"浦东机场T2航站楼","lon":"121.637809","lat":"31.177707","category":"500","category_name":"未知分类","address":null},{"poiid":"B2094655D36DA7FD4493","title":"张江路华夏中路","lon":"121.62987","lat":"31.18766","category":"38","category_name":"公交车站","address":""},{"poiid":"B2094757D068A6FD419E","title":"孙桥现代农业开发区","lon":"121.63107","lat":"31.17052","category":"260","category_name":"其他","address":"上海浦东新区孙桥沔北路185号  "},{"poiid":"B2094757D069A2FC469B","title":"川杨新苑三期","lon":"121.636383","lat":"31.188532","category":"47","category_name":"住宅区","address":"上海中科路2500弄"},{"poiid":"B2094655D26BA2FA4892","title":"孙桥镇","lon":"121.63003","lat":"31.17707","category":"38","category_name":"公交车站","address":"上海孙环路长美路"},{"poiid":"B2094757D069A5F9449B","title":"孙桥花鸟市场","lon":"121.63124","lat":"31.17471","category":"249","category_name":"购物服务","address":"上海浦东新区孙桥路600号  "},{"poiid":"B2094757D065A5F8409E","title":"华夏公园","lon":"121.65080441079522","lat":"31.192232339010502","category":"196","category_name":"公园","address":"上海华夏东路185号"},{"poiid":"B2094654DA6AA4FE4492","title":"张江镇环西小区","lon":"121.64129","lat":"31.17754","category":"47","category_name":"住宅区","address":"孙环路601弄1-98号临"},{"poiid":"B2094654DB69A6F94799","title":"长城中环别墅","lon":"121.63105","lat":"31.18334","category":"47","category_name":"住宅区","address":"浦东新区高木桥路219弄"},{"poiid":"B2094757D16DA6FC459E","title":"S1高速公路","lon":"121.646461375","lat":"31.1899818195","category":"500","category_name":"未知分类","address":"上海S1高速公路"},{"poiid":"B2094757D069A4FB439F","title":"紫晶苑","lon":"121.62564","lat":"31.176443","category":"252","category_name":"楼宇机构","address":"上海市浦东新区孙农路398弄"},{"poiid":"B2094654DA6BA2F9499C","title":"华联超市(孙环路)","lon":"121.64286","lat":"31.17398","category":"118","category_name":"超级市场","address":""},{"poiid":"B2094654DA6BA2FA499B","title":"张江镇环西居委会卫生服务站","lon":"121.64133","lat":"31.1775","category":"162","category_name":"医院","address":""},{"poiid":"B2094655D26BA2FB409F","title":"孙环路(环西小区)","lon":"121.64046","lat":"31.17873","category":"38","category_name":"公交车站","address":""},{"poiid":"B2094654DB6DA6FD439D","title":"康桥工业区(康桥东路)","lon":"121.63565","lat":"31.16045","category":"45","category_name":"产业园区","address":"康桥东路1365弄1-32号"},{"poiid":"B2094750D669A7F8429B","title":"广兰路地铁站","lon":"121.647178","lat":"31.176021","category":"36","category_name":"地铁站","address":null},{"poiid":"B2094655D26BA2FB4098","title":"孙环路三灶路","lon":"121.63973","lat":"31.18001","category":"38","category_name":"公交车站","address":""},{"poiid":"B2094654DA6BA1FA409A","title":"服务区","lon":"121.64669","lat":"31.17226","category":"250","category_name":"公园户外","address":"孙桥镇"},{"poiid":"B2094655D26BA2FA499E","title":"孙桥","lon":"121.63094","lat":"31.17845","category":"38","category_name":"公交车站","address":"上海新多路"},{"poiid":"B2094757D16CA2FC4993","title":"利君绿苑酒家","lon":"121.63072","lat":"31.16855","category":"76","category_name":"上海菜","address":"上海浦东新区沔北路185号(近孙桥农业园)  "},{"poiid":"B2094654DA6AA6FF4293","title":"玫瑰湾","lon":"121.62824","lat":"31.181089","category":"47","category_name":"住宅区","address":"上海市浦东新区孙桥路202号"},{"poiid":"B2094654DA6AA4FE469B","title":"浦东新区孙桥镇卫生院","lon":"121.63327","lat":"31.17443","category":"162","category_name":"医院","address":"横沔江路274"},{"poiid":"B2094757D064A5FE489F","title":"浦东新区看守所","lon":"121.639726975","lat":"31.1923481748","category":"500","category_name":"未知分类","address":"上海华益路351号"},{"poiid":"B2094655D26BA2FB4099","title":"孙环路华夏中路","lon":"121.63666","lat":"31.18693","category":"38","category_name":"公交车站","address":""},{"poiid":"B2094757D165A2FC4693","title":"华夏中路孙环路车站","lon":"121.64728674","lat":"31.169680278","category":"500","category_name":"未知分类","address":"上海华夏中路孙环路"},{"poiid":"B2094654DA6AA4FD4799","title":"上海市孙桥中学","lon":"121.63123","lat":"31.17281","category":"55","category_name":"中学","address":"浦东新区孙桥镇孙桥路705号"},{"poiid":"B2094654DA6AA4FC4993","title":"上海市殷浜中学","lon":"121.63242","lat":"31.1726","category":"55","category_name":"中学","address":""},{"poiid":"B2094757D16AABF84199","title":"浦东张江腾越篮球馆","lon":"121.64855867","lat":"31.181599657","category":"220","category_name":"运动场所","address":"上海张江三灶路(三灶浜路)851号院内(靠近孙弘路)"},{"poiid":"B2094655D36DA7F8409B","title":"中科路孙环路","lon":"121.636","lat":"31.18978","category":"38","category_name":"公交车站","address":""},{"poiid":"B2094757D664AAF8489D","title":"茗缘酒楼","lon":"121.63077","lat":"31.18123","category":"76","category_name":"上海菜","address":"浦东新区孙桥路268号(近孙建路)"},{"poiid":"B2094654DA6AA4FE409B","title":"孙桥花苑","lon":"121.637","lat":"31.1858","category":"47","category_name":"住宅区","address":"上海孙桥路306弄"},{"poiid":"B2094654DA6AA4FC4593","title":"上海市浦东新区孙桥镇广播电视站","lon":"121.63294","lat":"31.17779","category":"59","category_name":"电视台","address":"孙桥镇横沔江路56号"},{"poiid":"B2094757D16CA3F8409C","title":"川杨二期","lon":"121.625099975","lat":"31.1855870168","category":"500","category_name":"未知分类","address":"上海顺和路126号"},{"poiid":"B2094654DA6AA4FE469F","title":"上海雅达针织制衣有限公司","lon":"121.63473","lat":"31.17684","category":"263","category_name":"公司","address":"孙桥镇三灶路69临"},{"poiid":"B2094654DA6AA5F54499","title":"鼎新商场","lon":"121.6322","lat":"31.17896","category":"119","category_name":"商场","address":"乐安镇32号"},{"poiid":"B2094654DA6AA4FD409A","title":"大圣寺","lon":"121.65165","lat":"31.17243","category":"244","category_name":"寺庙道观","address":""},{"poiid":"B2094655D26BA2FA4999","title":"孙桥路科农路","lon":"121.6311","lat":"31.17046","category":"38","category_name":"公交车站","address":""},{"poiid":"B2094757DA6FA3FF4092","title":"环东农庄","lon":"121.654787063599","lat":"31.1825806532364","category":"76","category_name":"上海菜","address":"浦东新区孙建路(近三灶路)"},{"poiid":"B2094655D265A4FA409E","title":"东郊紫园","lon":"121.62326","lat":"31.179136","category":"47","category_name":"住宅区","address":"浦东新区孙农路200弄"},{"poiid":"B2094655D36CA1F54398","title":"科农路稻香路","lon":"121.654","lat":"31.1767","category":"38","category_name":"公交车站","address":""},{"poiid":"B2094757D66AABFF439F","title":"大家品鱼酒楼","lon":"121.63061","lat":"31.1844","category":"71","category_name":"四川菜","address":"浦东新区孙桥路128号(近华夏西路)"},{"poiid":"B2094750D76DAAFC469F","title":"蜀膳传火锅传奇(孙桥路店)","lon":"121.631","lat":"31.1849","category":"86","category_name":"火锅店","address":"浦东新区孙桥路100号"},{"poiid":"B2094654DA6BA2F9419B","title":"快客NO.6468","lon":"121.63076","lat":"31.17852","category":"117","category_name":"便民商店/便利店","address":"孙桥镇"},{"poiid":"B2094654DB64A6FF479B","title":"中国移动孙桥镇营业厅","lon":"121.6308","lat":"31.17885","category":"151","category_name":"电讯营业厅","address":"浦东新区孙桥路401-405号"},{"poiid":"B2094654DA6AA4FE459F","title":"孙桥公寓","lon":"121.63143","lat":"31.18117","category":"47","category_name":"住宅区","address":"高木桥路北门235弄"},{"poiid":"B2094655D36CA0F4439A","title":"黄浦花园","lon":"121.63068","lat":"31.18337","category":"47","category_name":"住宅区","address":""},{"poiid":"B2094654DA6AA4FE459C","title":"孙桥幼儿园","lon":"121.6296","lat":"31.17861","category":"57","category_name":"幼儿园","address":""},{"poiid":"B2094654DA6AA4FD4798","title":"孙桥小学","lon":"121.63002","lat":"31.17872","category":"56","category_name":"小学","address":"浦东新区张江镇殷北路468号(孙农路殷北路)"}]