[{"poiid":"B2094654DA68A4F9409A","title":"上海浦东新区图书馆(新馆)","lon":"121.54156","lat":"31.19221","category":"181","category_name":"图书馆","address":"上海浦东新区前程路88号(近锦绣路)"},{"poiid":"B2094757D06EABF54198","title":"芳华路地铁站","lon":"121.5500343","lat":"31.193053866","category":"36","category_name":"地铁站","address":"上海轨道交通 七号线 轨交芳华路站 7"},{"poiid":"B2094654DA68A4F9409B","title":"中国浦东干部学院","lon":"121.54231","lat":"31.19545","category":"52","category_name":"高等院校","address":"浦东新区前程路99号"},{"poiid":"B2094655D265A5FB4292","title":"浦东星河湾","lon":"121.539","lat":"31.19259","category":"47","category_name":"住宅区","address":"浦东区花木路1983弄"},{"poiid":"B2094757D069AAF8439A","title":"上海浦东星河湾酒店国际会议中心","lon":"121.538313738","lat":"31.1920054859","category":"217","category_name":"旅馆招待所","address":"上海市浦东新区锦绣路"},{"poiid":"B2094757D06EABF5439E","title":"锦绣路地铁站","lon":"121.54022254","lat":"31.1875856261","category":"36","category_name":"地铁站","address":"上海轨道交通 七号线 轨交锦绣路站 7"},{"poiid":"B2094757D068A5FC4792","title":"安达医院","lon":"121.55028781","lat":"31.190278037","category":"162","category_name":"医院","address":"上海浦东新区沪南公路468号"},{"poiid":"B2094757D06FA2F8479D","title":"北蔡","lon":"121.55384826","lat":"31.188753128","category":"500","category_name":"未知分类","address":"上海浦东新区高科西路沪南路"},{"poiid":"B2094757D068A0FA469A","title":"潮汕源大酒店(浦东店)","lon":"121.54805","lat":"31.19463","category":"72","category_name":"广东菜","address":"浦东新区前程路388号(浦东干部学院对面)"},{"poiid":"B2094757D068ABF84593","title":"浦东新区图书馆专业阅览室","lon":"121.54169737","lat":"31.192647169","category":"181","category_name":"图书馆","address":"上海前程路88号浦东新区图书馆5楼"},{"poiid":"B2094757DB6EABF84099","title":"上海浦东星河湾酒店","lon":"121.538666","lat":"31.191977","category":"213","category_name":"五星级宾馆","address":"上海市浦东新区锦绣路2588弄(近前程路)"},{"poiid":"B2094655D268A4F44892","title":"锦博苑","lon":"121.54259714532","lat":"31.195402510609","category":"47","category_name":"住宅区","address":"高科西路2111弄1-166号"},{"poiid":"B2094757D06BA1F94398","title":"沪碟 汇味馆 浦东店","lon":"121.55287914","lat":"31.185616383","category":"257","category_name":"中餐厅","address":"浦东新区沪南路999号51生活广场4-5楼(近北中路)"},{"poiid":"B2094654DB6BABFA4492","title":"大华锦绣华城第九街区","lon":"121.54","lat":"31.189","category":"47","category_name":"住宅区","address":"北艾路1200弄1-72号"},{"poiid":"B2094655D36CA3F44193","title":"上海市第一妇婴保健院","lon":"121.55","lat":"31.18947","category":"162","category_name":"医院","address":"沪南路550临"},{"poiid":"B2094757D164A6FF4593","title":"锦绣路","lon":"121.540641238","lat":"31.1857980538","category":"500","category_name":"未知分类","address":"上海锦绣路"},{"poiid":"B2094655D36DA6FD429B","title":"芳华路","lon":"121.55003","lat":"31.19305","category":"38","category_name":"公交车站","address":""},{"poiid":"B2094757D06FA6F9499F","title":"海上国际花园","lon":"121.54517","lat":"31.18187","category":"47","category_name":"住宅区","address":"上海市奉贤区奉城镇城大路181弄"},{"poiid":"B2094757D068A5F5469D","title":"浦东图书馆读者餐厅","lon":"121.54275528","lat":"31.191817349","category":"76","category_name":"上海菜","address":"浦东新区前程路88号浦东图书馆M楼(近锦绣路)"},{"poiid":"B2094654DA68A5F9489C","title":"文化馨苑","lon":"121.5455","lat":"31.183252","category":"47","category_name":"住宅区","address":"上海浦东新区博华路237号"},{"poiid":"B2094654DA6AA1F94299","title":"杨建华大酒店(沪南路)","lon":"121.55003","lat":"31.19423","category":"250","category_name":"公园户外","address":"浦东新区沪南路355号(近地铁七号线芳华路站)"},{"poiid":"B2094757D465A3FD4799","title":"意咖啡 浦东店","lon":"121.5388569","lat":"31.192814","category":"268","category_name":"自助","address":"浦东新区锦绣路2588弄星河湾酒店B1楼(近前程路)"},{"poiid":"B2094757D064A7F54899","title":"浦东新区图书馆契咖啡","lon":"121.54594421","lat":"31.19042778","category":"65","category_name":"咖啡厅","address":"浦东新区前程路88号浦东图书馆1楼东北角(近锦绣路)"},{"poiid":"B2094654DB69A4FD499C","title":"锦江之星(新国际博览中心店)","lon":"121.55106","lat":"31.19426","category":"216","category_name":"经济型连锁酒店","address":"上海市浦东新区芳华路37号(近沪南路)"},{"poiid":"B2094757D06AA6F5459D","title":"老街渔味馆 芳华店","lon":"121.550022054","lat":"31.194473793","category":"72","category_name":"广东菜","address":"浦东新区沪南路355号杨建华大酒店内(芳华路口)"},{"poiid":"B2094654DB6AA6F8459B","title":"上海北蔡大酒店","lon":"121.55162","lat":"31.18809","category":"76","category_name":"上海菜","address":"浦东新区高科西路2692号(近地铁芳华站)"},{"poiid":"B2094757D66EA2F5459A","title":"浦东新区图书馆二楼少儿馆","lon":"121.541559738","lat":"31.1919464847","category":"181","category_name":"图书馆","address":"上海市浦东新区锦绣路"},{"poiid":"B209475CD768A3F4459F","title":"九井日本料理","lon":"121.538406","lat":"31.193489","category":"500","category_name":"未知分类","address":"上海市 锦绣路2486弄2号星河湾"},{"poiid":"B2094757D068ABF8419B","title":"莲溪","lon":"121.552561","lat":"31.185026","category":"500","category_name":"未知分类","address":"上海沪南路莲园路"},{"poiid":"B2094654DA68A5FB459B","title":"海东公寓","lon":"121.54813","lat":"31.183867","category":"47","category_name":"住宅区","address":"上海市浦东新区莲园路100弄"},{"poiid":"B2094752D16BA7F8479B","title":"浦东新区","lon":"121.54724834376","lat":"31.189350125327","category":"247","category_name":"餐饮美食","address":"峨山路91弄90号4A单元（陆家嘴软件园）"},{"poiid":"B2094655D36CA1FA459E","title":"莲园路锦绣路","lon":"121.54165","lat":"31.18447","category":"38","category_name":"公交车站","address":""},{"poiid":"B2094757D06BA5FA409F","title":"浦东图书馆五楼专题馆","lon":"121.541837738","lat":"31.1920584871","category":"500","category_name":"未知分类","address":"上海浦东新区前程路88号5楼"},{"poiid":"B2094757D66CA4F9449F","title":"七号线芳华路站","lon":"121.546385738","lat":"31.1936455208","category":"500","category_name":"未知分类","address":"上海沪南路芳华路"},{"poiid":"B209475CD66BA4F4459A","title":"一妇婴东院","lon":"121.548027","lat":"31.187818","category":"500","category_name":"未知分类","address":"上海市 高科西路2699号"},{"poiid":"B2094654DA6AA0F94099","title":"东东饭庄 连波路店","lon":"121.55326852486","lat":"31.193283991361","category":"76","category_name":"上海菜","address":"浦东新区连波路141号(芳草路芳华路间)"},{"poiid":"B2094655D26AA0F94798","title":"地铁锦绣路站","lon":"121.54018","lat":"31.18759","category":"36","category_name":"地铁站","address":""},{"poiid":"B2094753DA6AA7F5459C","title":"上海市第一妇婴保健院东院","lon":"121.548027","lat":"31.18782","category":"500","category_name":"未知分类","address":"上海市 上海市浦东新区高科西路2699号"},{"poiid":"B2094654DB65A6FB419D","title":"中国浦东干部学院(正门)","lon":"121.54373","lat":"31.1934","category":"52","category_name":"高等院校","address":"浦东新区前程路99"},{"poiid":"B2094757D064A1FE4498","title":"锦三角花园","lon":"121.54221","lat":"31.186466","category":"500","category_name":"未知分类","address":"上海市浦东新区锦绣路2885弄"},{"poiid":"B2094654DB6BABFB439F","title":"中国浦东干部学院(南门)","lon":"121.54113","lat":"31.19288","category":"52","category_name":"高等院校","address":"浦东新区前程路55"},{"poiid":"B2094654DB6AA7F54098","title":"OK比萨 莲园路店 ok pizza","lon":"121.54859","lat":"31.18449","category":"94","category_name":"西餐厅","address":"浦东新区莲园路120号(近沪南路)"},{"poiid":"B2094655D26DA7F94699","title":"西域烧烤(博华路)","lon":"121.542572","lat":"31.188037","category":"68","category_name":"快餐厅","address":"浦东新区博华路(近连园路)"},{"poiid":"B2094757D66DA3FB4199","title":"连波路芳草路","lon":"121.552499738","lat":"31.1920524869","category":"500","category_name":"未知分类","address":"上海连波路228弄"},{"poiid":"B2094757D16FA6FC4793","title":"锦绣博文幼儿园","lon":"121.539387703","lat":"31.1890829217","category":"57","category_name":"幼儿园","address":"浦东新区锦绣路2760号(近地铁七号线锦绣路站)"},{"poiid":"B2094654DA68A5F44199","title":"莲文苑","lon":"121.545","lat":"31.185738","category":"47","category_name":"住宅区","address":"莲园路77弄1-28号"},{"poiid":"B2094654DA68A5F94992","title":"毛家湘菜(博华路)","lon":"121.5473","lat":"31.18385","category":"77","category_name":"湖南菜","address":"浦东新区博华路104号博安苑附近(近莲园路)"},{"poiid":"B2094757D66DA1FA4099","title":"真粤中餐厅","lon":"121.539823054","lat":"31.190565793","category":"72","category_name":"广东菜","address":"浦东新区锦绣路2588弄星河湾酒店B1楼(近前程路)"},{"poiid":"B2094757D664ABF84192","title":"老上海菜馆","lon":"121.54305435593","lat":"31.18490105021","category":"76","category_name":"上海菜","address":"浦东新区莲园路75号"},{"poiid":"B2094757D66DA4F94392","title":"蜀乡居","lon":"121.54458","lat":"31.18472","category":"71","category_name":"四川菜","address":"浦东新区莲园路55号(近锦绣路)"},{"poiid":"B2094654DA68A4F9409A","title":"上海浦东新区图书馆(新馆)","lon":"121.54156","lat":"31.19221","category":"181","category_name":"图书馆","address":"上海浦东新区前程路88号(近锦绣路)"},{"poiid":"B2094757D06EABF54198","title":"芳华路地铁站","lon":"121.5500343","lat":"31.193053866","category":"36","category_name":"地铁站","address":"上海轨道交通 七号线 轨交芳华路站 7"},{"poiid":"B2094654DA68A4F9409B","title":"中国浦东干部学院","lon":"121.54231","lat":"31.19545","category":"52","category_name":"高等院校","address":"浦东新区前程路99号"},{"poiid":"B2094655D265A5FB4292","title":"浦东星河湾","lon":"121.539","lat":"31.19259","category":"47","category_name":"住宅区","address":"浦东区花木路1983弄"},{"poiid":"B2094757D069AAF8439A","title":"上海浦东星河湾酒店国际会议中心","lon":"121.538313738","lat":"31.1920054859","category":"217","category_name":"旅馆招待所","address":"上海市浦东新区锦绣路"},{"poiid":"B2094757D06EABF5439E","title":"锦绣路地铁站","lon":"121.54022254","lat":"31.1875856261","category":"36","category_name":"地铁站","address":"上海轨道交通 七号线 轨交锦绣路站 7"},{"poiid":"B2094757D068A5FC4792","title":"安达医院","lon":"121.55028781","lat":"31.190278037","category":"162","category_name":"医院","address":"上海浦东新区沪南公路468号"},{"poiid":"B2094757D06FA2F8479D","title":"北蔡","lon":"121.55384826","lat":"31.188753128","category":"500","category_name":"未知分类","address":"上海浦东新区高科西路沪南路"},{"poiid":"B2094757D068A0FA469A","title":"潮汕源大酒店(浦东店)","lon":"121.54805","lat":"31.19463","category":"72","category_name":"广东菜","address":"浦东新区前程路388号(浦东干部学院对面)"},{"poiid":"B2094757D068ABF84593","title":"浦东新区图书馆专业阅览室","lon":"121.54169737","lat":"31.192647169","category":"181","category_name":"图书馆","address":"上海前程路88号浦东新区图书馆5楼"},{"poiid":"B2094757DB6EABF84099","title":"上海浦东星河湾酒店","lon":"121.538666","lat":"31.191977","category":"213","category_name":"五星级宾馆","address":"上海市浦东新区锦绣路2588弄(近前程路)"},{"poiid":"B2094655D268A4F44892","title":"锦博苑","lon":"121.54259714532","lat":"31.195402510609","category":"47","category_name":"住宅区","address":"高科西路2111弄1-166号"},{"poiid":"B2094757D06BA1F94398","title":"沪碟 汇味馆 浦东店","lon":"121.55287914","lat":"31.185616383","category":"257","category_name":"中餐厅","address":"浦东新区沪南路999号51生活广场4-5楼(近北中路)"},{"poiid":"B2094654DB6BABFA4492","title":"大华锦绣华城第九街区","lon":"121.54","lat":"31.189","category":"47","category_name":"住宅区","address":"北艾路1200弄1-72号"},{"poiid":"B2094655D36CA3F44193","title":"上海市第一妇婴保健院","lon":"121.55","lat":"31.18947","category":"162","category_name":"医院","address":"沪南路550临"},{"poiid":"B2094757D164A6FF4593","title":"锦绣路","lon":"121.540641238","lat":"31.1857980538","category":"500","category_name":"未知分类","address":"上海锦绣路"},{"poiid":"B2094655D36DA6FD429B","title":"芳华路","lon":"121.55003","lat":"31.19305","category":"38","category_name":"公交车站","address":""},{"poiid":"B2094757D06FA6F9499F","title":"海上国际花园","lon":"121.54517","lat":"31.18187","category":"47","category_name":"住宅区","address":"上海市奉贤区奉城镇城大路181弄"},{"poiid":"B2094757D068A5F5469D","title":"浦东图书馆读者餐厅","lon":"121.54275528","lat":"31.191817349","category":"76","category_name":"上海菜","address":"浦东新区前程路88号浦东图书馆M楼(近锦绣路)"},{"poiid":"B2094654DA68A5F9489C","title":"文化馨苑","lon":"121.5455","lat":"31.183252","category":"47","category_name":"住宅区","address":"上海浦东新区博华路237号"},{"poiid":"B2094654DA6AA1F94299","title":"杨建华大酒店(沪南路)","lon":"121.55003","lat":"31.19423","category":"250","category_name":"公园户外","address":"浦东新区沪南路355号(近地铁七号线芳华路站)"},{"poiid":"B2094757D465A3FD4799","title":"意咖啡 浦东店","lon":"121.5388569","lat":"31.192814","category":"268","category_name":"自助","address":"浦东新区锦绣路2588弄星河湾酒店B1楼(近前程路)"},{"poiid":"B2094757D064A7F54899","title":"浦东新区图书馆契咖啡","lon":"121.54594421","lat":"31.19042778","category":"65","category_name":"咖啡厅","address":"浦东新区前程路88号浦东图书馆1楼东北角(近锦绣路)"},{"poiid":"B2094654DB69A4FD499C","title":"锦江之星(新国际博览中心店)","lon":"121.55106","lat":"31.19426","category":"216","category_name":"经济型连锁酒店","address":"上海市浦东新区芳华路37号(近沪南路)"},{"poiid":"B2094757D06AA6F5459D","title":"老街渔味馆 芳华店","lon":"121.550022054","lat":"31.194473793","category":"72","category_name":"广东菜","address":"浦东新区沪南路355号杨建华大酒店内(芳华路口)"},{"poiid":"B2094654DB6AA6F8459B","title":"上海北蔡大酒店","lon":"121.55162","lat":"31.18809","category":"76","category_name":"上海菜","address":"浦东新区高科西路2692号(近地铁芳华站)"},{"poiid":"B2094757D66EA2F5459A","title":"浦东新区图书馆二楼少儿馆","lon":"121.541559738","lat":"31.1919464847","category":"181","category_name":"图书馆","address":"上海市浦东新区锦绣路"},{"poiid":"B209475CD768A3F4459F","title":"九井日本料理","lon":"121.538406","lat":"31.193489","category":"500","category_name":"未知分类","address":"上海市 锦绣路2486弄2号星河湾"},{"poiid":"B2094757D068ABF8419B","title":"莲溪","lon":"121.552561","lat":"31.185026","category":"500","category_name":"未知分类","address":"上海沪南路莲园路"},{"poiid":"B2094654DA68A5FB459B","title":"海东公寓","lon":"121.54813","lat":"31.183867","category":"47","category_name":"住宅区","address":"上海市浦东新区莲园路100弄"},{"poiid":"B2094752D16BA7F8479B","title":"浦东新区","lon":"121.54724834376","lat":"31.189350125327","category":"247","category_name":"餐饮美食","address":"峨山路91弄90号4A单元（陆家嘴软件园）"},{"poiid":"B2094655D36CA1FA459E","title":"莲园路锦绣路","lon":"121.54165","lat":"31.18447","category":"38","category_name":"公交车站","address":""},{"poiid":"B2094757D06BA5FA409F","title":"浦东图书馆五楼专题馆","lon":"121.541837738","lat":"31.1920584871","category":"500","category_name":"未知分类","address":"上海浦东新区前程路88号5楼"},{"poiid":"B2094757D66CA4F9449F","title":"七号线芳华路站","lon":"121.546385738","lat":"31.1936455208","category":"500","category_name":"未知分类","address":"上海沪南路芳华路"},{"poiid":"B209475CD66BA4F4459A","title":"一妇婴东院","lon":"121.548027","lat":"31.187818","category":"500","category_name":"未知分类","address":"上海市 高科西路2699号"},{"poiid":"B2094654DA6AA0F94099","title":"东东饭庄 连波路店","lon":"121.55326852486","lat":"31.193283991361","category":"76","category_name":"上海菜","address":"浦东新区连波路141号(芳草路芳华路间)"},{"poiid":"B2094655D26AA0F94798","title":"地铁锦绣路站","lon":"121.54018","lat":"31.18759","category":"36","category_name":"地铁站","address":""},{"poiid":"B2094753DA6AA7F5459C","title":"上海市第一妇婴保健院东院","lon":"121.548027","lat":"31.18782","category":"500","category_name":"未知分类","address":"上海市 上海市浦东新区高科西路2699号"},{"poiid":"B2094654DB65A6FB419D","title":"中国浦东干部学院(正门)","lon":"121.54373","lat":"31.1934","category":"52","category_name":"高等院校","address":"浦东新区前程路99"},{"poiid":"B2094757D064A1FE4498","title":"锦三角花园","lon":"121.54221","lat":"31.186466","category":"500","category_name":"未知分类","address":"上海市浦东新区锦绣路2885弄"},{"poiid":"B2094654DB6BABFB439F","title":"中国浦东干部学院(南门)","lon":"121.54113","lat":"31.19288","category":"52","category_name":"高等院校","address":"浦东新区前程路55"},{"poiid":"B2094654DB6AA7F54098","title":"OK比萨 莲园路店 ok pizza","lon":"121.54859","lat":"31.18449","category":"94","category_name":"西餐厅","address":"浦东新区莲园路120号(近沪南路)"},{"poiid":"B2094655D26DA7F94699","title":"西域烧烤(博华路)","lon":"121.542572","lat":"31.188037","category":"68","category_name":"快餐厅","address":"浦东新区博华路(近连园路)"},{"poiid":"B2094757D66DA3FB4199","title":"连波路芳草路","lon":"121.552499738","lat":"31.1920524869","category":"500","category_name":"未知分类","address":"上海连波路228弄"},{"poiid":"B2094757D16FA6FC4793","title":"锦绣博文幼儿园","lon":"121.539387703","lat":"31.1890829217","category":"57","category_name":"幼儿园","address":"浦东新区锦绣路2760号(近地铁七号线锦绣路站)"},{"poiid":"B2094654DA68A5F44199","title":"莲文苑","lon":"121.545","lat":"31.185738","category":"47","category_name":"住宅区","address":"莲园路77弄1-28号"},{"poiid":"B2094654DA68A5F94992","title":"毛家湘菜(博华路)","lon":"121.5473","lat":"31.18385","category":"77","category_name":"湖南菜","address":"浦东新区博华路104号博安苑附近(近莲园路)"},{"poiid":"B2094757D66DA1FA4099","title":"真粤中餐厅","lon":"121.539823054","lat":"31.190565793","category":"72","category_name":"广东菜","address":"浦东新区锦绣路2588弄星河湾酒店B1楼(近前程路)"},{"poiid":"B2094757D664ABF84192","title":"老上海菜馆","lon":"121.54305435593","lat":"31.18490105021","category":"76","category_name":"上海菜","address":"浦东新区莲园路75号"},{"poiid":"B2094757D66DA4F94392","title":"蜀乡居","lon":"121.54458","lat":"31.18472","category":"71","category_name":"四川菜","address":"浦东新区莲园路55号(近锦绣路)"},{"poiid":"B2094654DA68A4F9409A","title":"上海浦东新区图书馆(新馆)","lon":"121.54156","lat":"31.19221","category":"181","category_name":"图书馆","address":"上海浦东新区前程路88号(近锦绣路)"},{"poiid":"B2094757D06EABF54198","title":"芳华路地铁站","lon":"121.5500343","lat":"31.193053866","category":"36","category_name":"地铁站","address":"上海轨道交通 七号线 轨交芳华路站 7"},{"poiid":"B2094654DA68A4F9409B","title":"中国浦东干部学院","lon":"121.54231","lat":"31.19545","category":"52","category_name":"高等院校","address":"浦东新区前程路99号"},{"poiid":"B2094655D265A5FB4292","title":"浦东星河湾","lon":"121.539","lat":"31.19259","category":"47","category_name":"住宅区","address":"浦东区花木路1983弄"},{"poiid":"B2094757D069AAF8439A","title":"上海浦东星河湾酒店国际会议中心","lon":"121.538313738","lat":"31.1920054859","category":"217","category_name":"旅馆招待所","address":"上海市浦东新区锦绣路"},{"poiid":"B2094757D06EABF5439E","title":"锦绣路地铁站","lon":"121.54022254","lat":"31.1875856261","category":"36","category_name":"地铁站","address":"上海轨道交通 七号线 轨交锦绣路站 7"},{"poiid":"B2094757D068A5FC4792","title":"安达医院","lon":"121.55028781","lat":"31.190278037","category":"162","category_name":"医院","address":"上海浦东新区沪南公路468号"},{"poiid":"B2094757D06FA2F8479D","title":"北蔡","lon":"121.55384826","lat":"31.188753128","category":"500","category_name":"未知分类","address":"上海浦东新区高科西路沪南路"},{"poiid":"B2094757D068A0FA469A","title":"潮汕源大酒店(浦东店)","lon":"121.54805","lat":"31.19463","category":"72","category_name":"广东菜","address":"浦东新区前程路388号(浦东干部学院对面)"},{"poiid":"B2094757D068ABF84593","title":"浦东新区图书馆专业阅览室","lon":"121.54169737","lat":"31.192647169","category":"181","category_name":"图书馆","address":"上海前程路88号浦东新区图书馆5楼"},{"poiid":"B2094757DB6EABF84099","title":"上海浦东星河湾酒店","lon":"121.538666","lat":"31.191977","category":"213","category_name":"五星级宾馆","address":"上海市浦东新区锦绣路2588弄(近前程路)"},{"poiid":"B2094655D268A4F44892","title":"锦博苑","lon":"121.54259714532","lat":"31.195402510609","category":"47","category_name":"住宅区","address":"高科西路2111弄1-166号"},{"poiid":"B2094757D06BA1F94398","title":"沪碟 汇味馆 浦东店","lon":"121.55287914","lat":"31.185616383","category":"257","category_name":"中餐厅","address":"浦东新区沪南路999号51生活广场4-5楼(近北中路)"},{"poiid":"B2094654DB6BABFA4492","title":"大华锦绣华城第九街区","lon":"121.54","lat":"31.189","category":"47","category_name":"住宅区","address":"北艾路1200弄1-72号"},{"poiid":"B2094655D36CA3F44193","title":"上海市第一妇婴保健院","lon":"121.55","lat":"31.18947","category":"162","category_name":"医院","address":"沪南路550临"},{"poiid":"B2094757D164A6FF4593","title":"锦绣路","lon":"121.540641238","lat":"31.1857980538","category":"500","category_name":"未知分类","address":"上海锦绣路"},{"poiid":"B2094655D36DA6FD429B","title":"芳华路","lon":"121.55003","lat":"31.19305","category":"38","category_name":"公交车站","address":""},{"poiid":"B2094757D06FA6F9499F","title":"海上国际花园","lon":"121.54517","lat":"31.18187","category":"47","category_name":"住宅区","address":"上海市奉贤区奉城镇城大路181弄"},{"poiid":"B2094757D068A5F5469D","title":"浦东图书馆读者餐厅","lon":"121.54275528","lat":"31.191817349","category":"76","category_name":"上海菜","address":"浦东新区前程路88号浦东图书馆M楼(近锦绣路)"},{"poiid":"B2094654DA68A5F9489C","title":"文化馨苑","lon":"121.5455","lat":"31.183252","category":"47","category_name":"住宅区","address":"上海浦东新区博华路237号"},{"poiid":"B2094654DA6AA1F94299","title":"杨建华大酒店(沪南路)","lon":"121.55003","lat":"31.19423","category":"250","category_name":"公园户外","address":"浦东新区沪南路355号(近地铁七号线芳华路站)"},{"poiid":"B2094757D465A3FD4799","title":"意咖啡 浦东店","lon":"121.5388569","lat":"31.192814","category":"268","category_name":"自助","address":"浦东新区锦绣路2588弄星河湾酒店B1楼(近前程路)"},{"poiid":"B2094757D064A7F54899","title":"浦东新区图书馆契咖啡","lon":"121.54594421","lat":"31.19042778","category":"65","category_name":"咖啡厅","address":"浦东新区前程路88号浦东图书馆1楼东北角(近锦绣路)"},{"poiid":"B2094654DB69A4FD499C","title":"锦江之星(新国际博览中心店)","lon":"121.55106","lat":"31.19426","category":"216","category_name":"经济型连锁酒店","address":"上海市浦东新区芳华路37号(近沪南路)"},{"poiid":"B2094757D06AA6F5459D","title":"老街渔味馆 芳华店","lon":"121.550022054","lat":"31.194473793","category":"72","category_name":"广东菜","address":"浦东新区沪南路355号杨建华大酒店内(芳华路口)"},{"poiid":"B2094654DB6AA6F8459B","title":"上海北蔡大酒店","lon":"121.55162","lat":"31.18809","category":"76","category_name":"上海菜","address":"浦东新区高科西路2692号(近地铁芳华站)"},{"poiid":"B2094757D66EA2F5459A","title":"浦东新区图书馆二楼少儿馆","lon":"121.541559738","lat":"31.1919464847","category":"181","category_name":"图书馆","address":"上海市浦东新区锦绣路"},{"poiid":"B209475CD768A3F4459F","title":"九井日本料理","lon":"121.538406","lat":"31.193489","category":"500","category_name":"未知分类","address":"上海市 锦绣路2486弄2号星河湾"},{"poiid":"B2094757D068ABF8419B","title":"莲溪","lon":"121.552561","lat":"31.185026","category":"500","category_name":"未知分类","address":"上海沪南路莲园路"},{"poiid":"B2094654DA68A5FB459B","title":"海东公寓","lon":"121.54813","lat":"31.183867","category":"47","category_name":"住宅区","address":"上海市浦东新区莲园路100弄"},{"poiid":"B2094752D16BA7F8479B","title":"浦东新区","lon":"121.54724834376","lat":"31.189350125327","category":"247","category_name":"餐饮美食","address":"峨山路91弄90号4A单元（陆家嘴软件园）"},{"poiid":"B2094655D36CA1FA459E","title":"莲园路锦绣路","lon":"121.54165","lat":"31.18447","category":"38","category_name":"公交车站","address":""},{"poiid":"B2094757D06BA5FA409F","title":"浦东图书馆五楼专题馆","lon":"121.541837738","lat":"31.1920584871","category":"500","category_name":"未知分类","address":"上海浦东新区前程路88号5楼"},{"poiid":"B2094757D66CA4F9449F","title":"七号线芳华路站","lon":"121.546385738","lat":"31.1936455208","category":"500","category_name":"未知分类","address":"上海沪南路芳华路"},{"poiid":"B209475CD66BA4F4459A","title":"一妇婴东院","lon":"121.548027","lat":"31.187818","category":"500","category_name":"未知分类","address":"上海市 高科西路2699号"},{"poiid":"B2094654DA6AA0F94099","title":"东东饭庄 连波路店","lon":"121.55326852486","lat":"31.193283991361","category":"76","category_name":"上海菜","address":"浦东新区连波路141号(芳草路芳华路间)"},{"poiid":"B2094655D26AA0F94798","title":"地铁锦绣路站","lon":"121.54018","lat":"31.18759","category":"36","category_name":"地铁站","address":""},{"poiid":"B2094753DA6AA7F5459C","title":"上海市第一妇婴保健院东院","lon":"121.548027","lat":"31.18782","category":"500","category_name":"未知分类","address":"上海市 上海市浦东新区高科西路2699号"},{"poiid":"B2094654DB65A6FB419D","title":"中国浦东干部学院(正门)","lon":"121.54373","lat":"31.1934","category":"52","category_name":"高等院校","address":"浦东新区前程路99"},{"poiid":"B2094757D064A1FE4498","title":"锦三角花园","lon":"121.54221","lat":"31.186466","category":"500","category_name":"未知分类","address":"上海市浦东新区锦绣路2885弄"},{"poiid":"B2094654DB6BABFB439F","title":"中国浦东干部学院(南门)","lon":"121.54113","lat":"31.19288","category":"52","category_name":"高等院校","address":"浦东新区前程路55"},{"poiid":"B2094654DB6AA7F54098","title":"OK比萨 莲园路店 ok pizza","lon":"121.54859","lat":"31.18449","category":"94","category_name":"西餐厅","address":"浦东新区莲园路120号(近沪南路)"},{"poiid":"B2094655D26DA7F94699","title":"西域烧烤(博华路)","lon":"121.542572","lat":"31.188037","category":"68","category_name":"快餐厅","address":"浦东新区博华路(近连园路)"},{"poiid":"B2094757D66DA3FB4199","title":"连波路芳草路","lon":"121.552499738","lat":"31.1920524869","category":"500","category_name":"未知分类","address":"上海连波路228弄"},{"poiid":"B2094757D16FA6FC4793","title":"锦绣博文幼儿园","lon":"121.539387703","lat":"31.1890829217","category":"57","category_name":"幼儿园","address":"浦东新区锦绣路2760号(近地铁七号线锦绣路站)"},{"poiid":"B2094654DA68A5F44199","title":"莲文苑","lon":"121.545","lat":"31.185738","category":"47","category_name":"住宅区","address":"莲园路77弄1-28号"},{"poiid":"B2094654DA68A5F94992","title":"毛家湘菜(博华路)","lon":"121.5473","lat":"31.18385","category":"77","category_name":"湖南菜","address":"浦东新区博华路104号博安苑附近(近莲园路)"},{"poiid":"B2094757D66DA1FA4099","title":"真粤中餐厅","lon":"121.539823054","lat":"31.190565793","category":"72","category_name":"广东菜","address":"浦东新区锦绣路2588弄星河湾酒店B1楼(近前程路)"},{"poiid":"B2094757D664ABF84192","title":"老上海菜馆","lon":"121.54305435593","lat":"31.18490105021","category":"76","category_name":"上海菜","address":"浦东新区莲园路75号"},{"poiid":"B2094757D66DA4F94392","title":"蜀乡居","lon":"121.54458","lat":"31.18472","category":"71","category_name":"四川菜","address":"浦东新区莲园路55号(近锦绣路)"},{"poiid":"B2094654DA68A4F9409A","title":"上海浦东新区图书馆(新馆)","lon":"121.54156","lat":"31.19221","category":"181","category_name":"图书馆","address":"上海浦东新区前程路88号(近锦绣路)"},{"poiid":"B2094757D06EABF54198","title":"芳华路地铁站","lon":"121.5500343","lat":"31.193053866","category":"36","category_name":"地铁站","address":"上海轨道交通 七号线 轨交芳华路站 7"},{"poiid":"B2094654DA68A4F9409B","title":"中国浦东干部学院","lon":"121.54231","lat":"31.19545","category":"52","category_name":"高等院校","address":"浦东新区前程路99号"},{"poiid":"B2094655D265A5FB4292","title":"浦东星河湾","lon":"121.539","lat":"31.19259","category":"47","category_name":"住宅区","address":"浦东区花木路1983弄"},{"poiid":"B2094757D069AAF8439A","title":"上海浦东星河湾酒店国际会议中心","lon":"121.538313738","lat":"31.1920054859","category":"217","category_name":"旅馆招待所","address":"上海市浦东新区锦绣路"},{"poiid":"B2094757D06EABF5439E","title":"锦绣路地铁站","lon":"121.54022254","lat":"31.1875856261","category":"36","category_name":"地铁站","address":"上海轨道交通 七号线 轨交锦绣路站 7"},{"poiid":"B2094757D068A5FC4792","title":"安达医院","lon":"121.55028781","lat":"31.190278037","category":"162","category_name":"医院","address":"上海浦东新区沪南公路468号"},{"poiid":"B2094757D06FA2F8479D","title":"北蔡","lon":"121.55384826","lat":"31.188753128","category":"500","category_name":"未知分类","address":"上海浦东新区高科西路沪南路"},{"poiid":"B2094757D068A0FA469A","title":"潮汕源大酒店(浦东店)","lon":"121.54805","lat":"31.19463","category":"72","category_name":"广东菜","address":"浦东新区前程路388号(浦东干部学院对面)"},{"poiid":"B2094757D068ABF84593","title":"浦东新区图书馆专业阅览室","lon":"121.54169737","lat":"31.192647169","category":"181","category_name":"图书馆","address":"上海前程路88号浦东新区图书馆5楼"},{"poiid":"B2094757DB6EABF84099","title":"上海浦东星河湾酒店","lon":"121.538666","lat":"31.191977","category":"213","category_name":"五星级宾馆","address":"上海市浦东新区锦绣路2588弄(近前程路)"},{"poiid":"B2094655D268A4F44892","title":"锦博苑","lon":"121.54259714532","lat":"31.195402510609","category":"47","category_name":"住宅区","address":"高科西路2111弄1-166号"},{"poiid":"B2094757D06BA1F94398","title":"沪碟 汇味馆 浦东店","lon":"121.55287914","lat":"31.185616383","category":"257","category_name":"中餐厅","address":"浦东新区沪南路999号51生活广场4-5楼(近北中路)"},{"poiid":"B2094654DB6BABFA4492","title":"大华锦绣华城第九街区","lon":"121.54","lat":"31.189","category":"47","category_name":"住宅区","address":"北艾路1200弄1-72号"},{"poiid":"B2094655D36CA3F44193","title":"上海市第一妇婴保健院","lon":"121.55","lat":"31.18947","category":"162","category_name":"医院","address":"沪南路550临"},{"poiid":"B2094757D164A6FF4593","title":"锦绣路","lon":"121.540641238","lat":"31.1857980538","category":"500","category_name":"未知分类","address":"上海锦绣路"},{"poiid":"B2094655D36DA6FD429B","title":"芳华路","lon":"121.55003","lat":"31.19305","category":"38","category_name":"公交车站","address":""},{"poiid":"B2094757D06FA6F9499F","title":"海上国际花园","lon":"121.54517","lat":"31.18187","category":"47","category_name":"住宅区","address":"上海市奉贤区奉城镇城大路181弄"},{"poiid":"B2094757D068A5F5469D","title":"浦东图书馆读者餐厅","lon":"121.54275528","lat":"31.191817349","category":"76","category_name":"上海菜","address":"浦东新区前程路88号浦东图书馆M楼(近锦绣路)"},{"poiid":"B2094654DA68A5F9489C","title":"文化馨苑","lon":"121.5455","lat":"31.183252","category":"47","category_name":"住宅区","address":"上海浦东新区博华路237号"},{"poiid":"B2094654DA6AA1F94299","title":"杨建华大酒店(沪南路)","lon":"121.55003","lat":"31.19423","category":"250","category_name":"公园户外","address":"浦东新区沪南路355号(近地铁七号线芳华路站)"},{"poiid":"B2094757D465A3FD4799","title":"意咖啡 浦东店","lon":"121.5388569","lat":"31.192814","category":"268","category_name":"自助","address":"浦东新区锦绣路2588弄星河湾酒店B1楼(近前程路)"},{"poiid":"B2094757D064A7F54899","title":"浦东新区图书馆契咖啡","lon":"121.54594421","lat":"31.19042778","category":"65","category_name":"咖啡厅","address":"浦东新区前程路88号浦东图书馆1楼东北角(近锦绣路)"},{"poiid":"B2094654DB69A4FD499C","title":"锦江之星(新国际博览中心店)","lon":"121.55106","lat":"31.19426","category":"216","category_name":"经济型连锁酒店","address":"上海市浦东新区芳华路37号(近沪南路)"},{"poiid":"B2094757D06AA6F5459D","title":"老街渔味馆 芳华店","lon":"121.550022054","lat":"31.194473793","category":"72","category_name":"广东菜","address":"浦东新区沪南路355号杨建华大酒店内(芳华路口)"},{"poiid":"B2094654DB6AA6F8459B","title":"上海北蔡大酒店","lon":"121.55162","lat":"31.18809","category":"76","category_name":"上海菜","address":"浦东新区高科西路2692号(近地铁芳华站)"},{"poiid":"B2094757D66EA2F5459A","title":"浦东新区图书馆二楼少儿馆","lon":"121.541559738","lat":"31.1919464847","category":"181","category_name":"图书馆","address":"上海市浦东新区锦绣路"},{"poiid":"B209475CD768A3F4459F","title":"九井日本料理","lon":"121.538406","lat":"31.193489","category":"500","category_name":"未知分类","address":"上海市 锦绣路2486弄2号星河湾"},{"poiid":"B2094757D068ABF8419B","title":"莲溪","lon":"121.552561","lat":"31.185026","category":"500","category_name":"未知分类","address":"上海沪南路莲园路"},{"poiid":"B2094654DA68A5FB459B","title":"海东公寓","lon":"121.54813","lat":"31.183867","category":"47","category_name":"住宅区","address":"上海市浦东新区莲园路100弄"},{"poiid":"B2094752D16BA7F8479B","title":"浦东新区","lon":"121.54724834376","lat":"31.189350125327","category":"247","category_name":"餐饮美食","address":"峨山路91弄90号4A单元（陆家嘴软件园）"},{"poiid":"B2094655D36CA1FA459E","title":"莲园路锦绣路","lon":"121.54165","lat":"31.18447","category":"38","category_name":"公交车站","address":""},{"poiid":"B2094757D06BA5FA409F","title":"浦东图书馆五楼专题馆","lon":"121.541837738","lat":"31.1920584871","category":"500","category_name":"未知分类","address":"上海浦东新区前程路88号5楼"},{"poiid":"B2094757D66CA4F9449F","title":"七号线芳华路站","lon":"121.546385738","lat":"31.1936455208","category":"500","category_name":"未知分类","address":"上海沪南路芳华路"},{"poiid":"B209475CD66BA4F4459A","title":"一妇婴东院","lon":"121.548027","lat":"31.187818","category":"500","category_name":"未知分类","address":"上海市 高科西路2699号"},{"poiid":"B2094654DA6AA0F94099","title":"东东饭庄 连波路店","lon":"121.55326852486","lat":"31.193283991361","category":"76","category_name":"上海菜","address":"浦东新区连波路141号(芳草路芳华路间)"},{"poiid":"B2094655D26AA0F94798","title":"地铁锦绣路站","lon":"121.54018","lat":"31.18759","category":"36","category_name":"地铁站","address":""},{"poiid":"B2094753DA6AA7F5459C","title":"上海市第一妇婴保健院东院","lon":"121.548027","lat":"31.18782","category":"500","category_name":"未知分类","address":"上海市 上海市浦东新区高科西路2699号"},{"poiid":"B2094654DB65A6FB419D","title":"中国浦东干部学院(正门)","lon":"121.54373","lat":"31.1934","category":"52","category_name":"高等院校","address":"浦东新区前程路99"},{"poiid":"B2094757D064A1FE4498","title":"锦三角花园","lon":"121.54221","lat":"31.186466","category":"500","category_name":"未知分类","address":"上海市浦东新区锦绣路2885弄"},{"poiid":"B2094654DB6BABFB439F","title":"中国浦东干部学院(南门)","lon":"121.54113","lat":"31.19288","category":"52","category_name":"高等院校","address":"浦东新区前程路55"},{"poiid":"B2094654DB6AA7F54098","title":"OK比萨 莲园路店 ok pizza","lon":"121.54859","lat":"31.18449","category":"94","category_name":"西餐厅","address":"浦东新区莲园路120号(近沪南路)"},{"poiid":"B2094655D26DA7F94699","title":"西域烧烤(博华路)","lon":"121.542572","lat":"31.188037","category":"68","category_name":"快餐厅","address":"浦东新区博华路(近连园路)"},{"poiid":"B2094757D66DA3FB4199","title":"连波路芳草路","lon":"121.552499738","lat":"31.1920524869","category":"500","category_name":"未知分类","address":"上海连波路228弄"},{"poiid":"B2094757D16FA6FC4793","title":"锦绣博文幼儿园","lon":"121.539387703","lat":"31.1890829217","category":"57","category_name":"幼儿园","address":"浦东新区锦绣路2760号(近地铁七号线锦绣路站)"},{"poiid":"B2094654DA68A5F44199","title":"莲文苑","lon":"121.545","lat":"31.185738","category":"47","category_name":"住宅区","address":"莲园路77弄1-28号"},{"poiid":"B2094654DA68A5F94992","title":"毛家湘菜(博华路)","lon":"121.5473","lat":"31.18385","category":"77","category_name":"湖南菜","address":"浦东新区博华路104号博安苑附近(近莲园路)"},{"poiid":"B2094757D66DA1FA4099","title":"真粤中餐厅","lon":"121.539823054","lat":"31.190565793","category":"72","category_name":"广东菜","address":"浦东新区锦绣路2588弄星河湾酒店B1楼(近前程路)"},{"poiid":"B2094757D664ABF84192","title":"老上海菜馆","lon":"121.54305435593","lat":"31.18490105021","category":"76","category_name":"上海菜","address":"浦东新区莲园路75号"},{"poiid":"B2094757D66DA4F94392","title":"蜀乡居","lon":"121.54458","lat":"31.18472","category":"71","category_name":"四川菜","address":"浦东新区莲园路55号(近锦绣路)"}]