[{"poiid":"B2094757D06FA2FD439B","title":"麦当劳(临沂路店)","lon":"121.51262","lat":"31.19464","category":"68","category_name":"快餐厅","address":"浦东新区临沂路180号百联社区商业中心1楼(近浦三路)"},{"poiid":"B2094757D068A0FC439A","title":"东方路浦三路","lon":"121.514697","lat":"31.192548","category":"260","category_name":"其他","address":"上海东方路浦三路路口"},{"poiid":"B2094655D26EA6FE4193","title":"锦江之星浦三路店","lon":"121.51311","lat":"31.19474","category":"216","category_name":"经济型连锁酒店","address":"浦东新区浦三路208号(近轨交六号线临沂路站)"},{"poiid":"B2094757D069A3FB449F","title":"上海东方尚博创意产业园","lon":"121.51148986","lat":"31.189821243","category":"45","category_name":"产业园区","address":"浦东新区东方路3539号(近地铁7号线高科西路站)"},{"poiid":"B2094655D26AA0FA4293","title":"地铁临沂新村站","lon":"121.51691","lat":"31.19333","category":"36","category_name":"地铁站","address":""},{"poiid":"B2094757D06FA4FD4893","title":"大富贵酒楼(临沂店)","lon":"121.512869","lat":"31.194746","category":"76","category_name":"上海菜","address":"浦东新区临沂路143号(近浦三路)"},{"poiid":"B2094655D26FA5F84292","title":"临沂六村","lon":"121.51205","lat":"31.193367","category":"47","category_name":"住宅区","address":"上海市浦东新区南码头路551弄"},{"poiid":"B2094757D06FA4FD4399","title":"红宝石(浦三路店)","lon":"121.51328","lat":"31.19465","category":"67","category_name":"甜品店","address":"浦东新区浦三路235号(近临沂路)"},{"poiid":"B2094757D06BA6F4479E","title":"教发院浦三路校区","lon":"121.514611","lat":"31.192506","category":"500","category_name":"未知分类","address":"上海浦三路385号"},{"poiid":"B2094757D068A5FD4292","title":"蛙香馆(东方路店)","lon":"121.51187","lat":"31.19012","category":"71","category_name":"四川菜","address":"浦东新区东方路3490号(近南码头路)"},{"poiid":"B2094655D36CA1F9489B","title":"临沂路浦三路","lon":"121.51166","lat":"31.19441","category":"38","category_name":"公交车站","address":""},{"poiid":"B2094757D068ABF44999","title":"泰煌鸡(临沂店)","lon":"121.51376","lat":"31.19518","category":"68","category_name":"快餐厅","address":"浦东新区临沂路132号(近浦三路)"},{"poiid":"B2094757D06AA0FF449B","title":"上海市城市建设设计研究院","lon":"121.513373","lat":"31.190365","category":"46","category_name":"楼宇","address":"上海市浦东新区东方路3447号"},{"poiid":"B2094654DA6AA1FE429C","title":"临沂八村(临沂路)","lon":"121.51647","lat":"31.19665","category":"47","category_name":"住宅区","address":"临沂路81弄"},{"poiid":"B2094757D06FA4FA4998","title":"华联吉买盛(临沂店)","lon":"121.51378","lat":"31.19433","category":"118","category_name":"超级市场","address":"浦东新区临沂路140号百联社区商业中心3楼(近浦三路)"},{"poiid":"B2094750D26FA4F9479D","title":"小尾羊(临沂路店)","lon":"121.51253383865355","lat":"31.1950916926387","category":"86","category_name":"火锅店","address":"浦东新区临沂路140号1楼(近浦三路)"},{"poiid":"B2094757D16AA6FC4598","title":"慕寿司","lon":"121.514321738","lat":"31.1926583998","category":"95","category_name":"日本料理","address":"浦东新区浦三路306号(近东方路)"},{"poiid":"B2094654DA6AA1FC479B","title":"乔家栅 浦三路店","lon":"121.514640054","lat":"31.193780793","category":"68","category_name":"快餐厅","address":"浦三路315号近东方路"},{"poiid":"B2094751DA6DA4F94093","title":"捞皇猪肚鸡","lon":"121.51564","lat":"31.19342","category":"86","category_name":"火锅店","address":"浦东新区东方路3288号(浦三路口)"},{"poiid":"B2094757D069A5F9469F","title":"浦东中学","lon":"121.51712","lat":"31.18743","category":"55","category_name":"中学","address":"浦东新区浦三路648号(近六里)"},{"poiid":"B2094757D664A7FA459F","title":"蛙辣风暴 东方店","lon":"121.513621054","lat":"31.191272793","category":"71","category_name":"四川菜","address":"浦东新区东方路3490号(南码头路口)"},{"poiid":"B2094757D06BA6FF4798","title":"新鼎旺牛奶棚(浦三路店)","lon":"121.51489","lat":"31.1925","category":"112","category_name":"糕饼店","address":"浦东新区浦三路361号(近东方路)"},{"poiid":"B2094654DB65A7FD459D","title":"元祖 东方路店 Ganso","lon":"121.514598054","lat":"31.191421793","category":"67","category_name":"甜品店","address":"浦东新区浦三路395号(近东方路)"},{"poiid":"B2094750D76FAAFE4092","title":"热火功夫麻辣烫(浦三路店)","lon":"121.515","lat":"31.193","category":"68","category_name":"快餐厅","address":"浦东新区浦三路329号(近东方路)"},{"poiid":"B2094757D064A4F9469A","title":"临沂新村","lon":"121.513965","lat":"31.191612","category":"252","category_name":"楼宇机构","address":"上海东方路浦三路"},{"poiid":"B2094655D26DA6F5459A","title":"苏州羊肉馆 浦三路店","lon":"121.51275","lat":"31.19572","category":"257","category_name":"中餐厅","address":"浦东新区浦三路147号(临沂路浦三路)"},{"poiid":"B2094654DA6AA1FD4198","title":"临沂七村","lon":"121.51505","lat":"31.195351","category":"47","category_name":"住宅区","address":"临沂路101弄"},{"poiid":"B2094655D26DA4FA4098","title":"浪涛量贩式KTV","lon":"121.51457","lat":"31.19093","category":"170","category_name":"KTV","address":"浦三路518号三斯商务中心"},{"poiid":"B2094654DA6AA3FE429D","title":"城建设计大厦","lon":"121.51337","lat":"31.19036","category":"46","category_name":"楼宇","address":"东方路3447号"},{"poiid":"B2094757D16FA1FF4599","title":"亮亮老北京热气涮羊肉","lon":"121.51156","lat":"31.19376","category":"86","category_name":"火锅店","address":"浦东新区临沂路213号(临沂路南码头路)"},{"poiid":"B2094757D165A5FA449D","title":"豪大大香鸡排","lon":"121.514439938","lat":"31.1919786854","category":"247","category_name":"餐饮美食","address":"上海浦东新区浦三路390号"},{"poiid":"B2094655D36CA6FB4892","title":"东方路兰陵路","lon":"121.51781","lat":"31.19414","category":"38","category_name":"公交车站","address":""},{"poiid":"B2094654DB64A3FF4292","title":"三斯商务中心B幢","lon":"121.51439","lat":"31.19115","category":"46","category_name":"楼宇","address":"浦三路518号"},{"poiid":"B2094757D164A0F44899","title":"潮汕沙锅粥","lon":"121.514417738","lat":"31.1925154968","category":"247","category_name":"餐饮美食","address":"上海东方路"},{"poiid":"B2094752D46DA1F4439B","title":"蓝山咖啡","lon":"121.518082","lat":"31.192886","category":"247","category_name":"餐饮美食","address":"东方路3261号B座101"},{"poiid":"B2094655D26EA3FF4692","title":"三斯商务中心A幢","lon":"121.51457","lat":"31.19093","category":"46","category_name":"楼宇","address":"浦三路518号"},{"poiid":"B2094757D16CA3FD4993","title":"育辛高级中学","lon":"121.515","lat":"31.19198","category":"500","category_name":"未知分类","address":"浦东新区浦三路385号(近浦三路)"},{"poiid":"B2094654DA69AAF4479F","title":"美乐饮食店","lon":"121.51386","lat":"31.19375","category":"68","category_name":"快餐厅","address":"浦东新区浦三路282号(近东方路)"},{"poiid":"B2094757D16AA6F8439C","title":"新疆烤肉大饼","lon":"121.514383","lat":"31.192575","category":"247","category_name":"餐饮美食","address":"上海浦三路392号"},{"poiid":"B2094655D26FA3FB4592","title":"毛家湘菜(浦三路店)","lon":"121.51471","lat":"31.19132","category":"247","category_name":"餐饮美食","address":"浦东新区浦三路516号"},{"poiid":"B2094655D265A5FE439D","title":"上海市浦东教育发展研究院(分部)","lon":"121.51504","lat":"31.19282","category":"191","category_name":"科研机构","address":"浦三路385"},{"poiid":"B2094655D26DA1F84799","title":"世纪华联","lon":"121.51442","lat":"31.19205","category":"118","category_name":"超级市场","address":""},{"poiid":"B2094757D16FA2F9469E","title":"可颂坊(临沂店)","lon":"121.51245498","lat":"31.194962984","category":"112","category_name":"糕饼店","address":"上海浦东新区临沂路144号华联吉买盛1楼(浦三路口)"},{"poiid":"B2094757D165A1FE499A","title":"东方路浦三路3333号","lon":"121.515156","lat":"31.191976","category":"500","category_name":"未知分类","address":"上海东方路3333号"},{"poiid":"B2094654DA6AA1FF439B","title":"冠生园东方佳苑","lon":"121.51972","lat":"31.19368","category":"47","category_name":"住宅区","address":"东方路2993弄"},{"poiid":"B2094654DA6AA1FF449F","title":"碧波苑酒家","lon":"121.5175","lat":"31.19471","category":"257","category_name":"中餐厅","address":"浦东新区兰陵路119号"},{"poiid":"B2094752D76FA1FF4392","title":"振华企业广场","lon":"121.518357","lat":"31.192564","category":"500","category_name":"未知分类","address":"东方路3261号"},{"poiid":"B2094757D664A6FF409A","title":"简朴森 临沂路店 Jepson Bread","lon":"121.512618054","lat":"31.194787793","category":"67","category_name":"甜品店","address":"浦东新区临沂路161号(近浦三路)"},{"poiid":"B2094757D069A5FE4799","title":"同福易家丽建材商城","lon":"121.51488","lat":"31.19223","category":"500","category_name":"未知分类","address":"上海浦东新区浦三路1515号(近板泉路)  "},{"poiid":"B2094757D16CA1F8439C","title":"马哥孛罗 临沂店 Marco Polo","lon":"121.512711054","lat":"31.195157793","category":"112","category_name":"糕饼店","address":"浦东新区临沂路141号(近浦三路)"},{"poiid":"B2094757D06FA2FD439B","title":"麦当劳(临沂路店)","lon":"121.51262","lat":"31.19464","category":"68","category_name":"快餐厅","address":"浦东新区临沂路180号百联社区商业中心1楼(近浦三路)"},{"poiid":"B2094757D068A0FC439A","title":"东方路浦三路","lon":"121.514697","lat":"31.192548","category":"260","category_name":"其他","address":"上海东方路浦三路路口"},{"poiid":"B2094655D26EA6FE4193","title":"锦江之星浦三路店","lon":"121.51311","lat":"31.19474","category":"216","category_name":"经济型连锁酒店","address":"浦东新区浦三路208号(近轨交六号线临沂路站)"},{"poiid":"B2094757D069A3FB449F","title":"上海东方尚博创意产业园","lon":"121.51148986","lat":"31.189821243","category":"45","category_name":"产业园区","address":"浦东新区东方路3539号(近地铁7号线高科西路站)"},{"poiid":"B2094655D26AA0FA4293","title":"地铁临沂新村站","lon":"121.51691","lat":"31.19333","category":"36","category_name":"地铁站","address":""},{"poiid":"B2094757D06FA4FD4893","title":"大富贵酒楼(临沂店)","lon":"121.512869","lat":"31.194746","category":"76","category_name":"上海菜","address":"浦东新区临沂路143号(近浦三路)"},{"poiid":"B2094655D26FA5F84292","title":"临沂六村","lon":"121.51205","lat":"31.193367","category":"47","category_name":"住宅区","address":"上海市浦东新区南码头路551弄"},{"poiid":"B2094757D06FA4FD4399","title":"红宝石(浦三路店)","lon":"121.51328","lat":"31.19465","category":"67","category_name":"甜品店","address":"浦东新区浦三路235号(近临沂路)"},{"poiid":"B2094757D06BA6F4479E","title":"教发院浦三路校区","lon":"121.514611","lat":"31.192506","category":"500","category_name":"未知分类","address":"上海浦三路385号"},{"poiid":"B2094757D068A5FD4292","title":"蛙香馆(东方路店)","lon":"121.51187","lat":"31.19012","category":"71","category_name":"四川菜","address":"浦东新区东方路3490号(近南码头路)"},{"poiid":"B2094655D36CA1F9489B","title":"临沂路浦三路","lon":"121.51166","lat":"31.19441","category":"38","category_name":"公交车站","address":""},{"poiid":"B2094757D068ABF44999","title":"泰煌鸡(临沂店)","lon":"121.51376","lat":"31.19518","category":"68","category_name":"快餐厅","address":"浦东新区临沂路132号(近浦三路)"},{"poiid":"B2094757D06AA0FF449B","title":"上海市城市建设设计研究院","lon":"121.513373","lat":"31.190365","category":"46","category_name":"楼宇","address":"上海市浦东新区东方路3447号"},{"poiid":"B2094654DA6AA1FE429C","title":"临沂八村(临沂路)","lon":"121.51647","lat":"31.19665","category":"47","category_name":"住宅区","address":"临沂路81弄"},{"poiid":"B2094757D06FA4FA4998","title":"华联吉买盛(临沂店)","lon":"121.51378","lat":"31.19433","category":"118","category_name":"超级市场","address":"浦东新区临沂路140号百联社区商业中心3楼(近浦三路)"},{"poiid":"B2094750D26FA4F9479D","title":"小尾羊(临沂路店)","lon":"121.51253383865355","lat":"31.1950916926387","category":"86","category_name":"火锅店","address":"浦东新区临沂路140号1楼(近浦三路)"},{"poiid":"B2094757D16AA6FC4598","title":"慕寿司","lon":"121.514321738","lat":"31.1926583998","category":"95","category_name":"日本料理","address":"浦东新区浦三路306号(近东方路)"},{"poiid":"B2094654DA6AA1FC479B","title":"乔家栅 浦三路店","lon":"121.514640054","lat":"31.193780793","category":"68","category_name":"快餐厅","address":"浦三路315号近东方路"},{"poiid":"B2094751DA6DA4F94093","title":"捞皇猪肚鸡","lon":"121.51564","lat":"31.19342","category":"86","category_name":"火锅店","address":"浦东新区东方路3288号(浦三路口)"},{"poiid":"B2094757D069A5F9469F","title":"浦东中学","lon":"121.51712","lat":"31.18743","category":"55","category_name":"中学","address":"浦东新区浦三路648号(近六里)"},{"poiid":"B2094757D664A7FA459F","title":"蛙辣风暴 东方店","lon":"121.513621054","lat":"31.191272793","category":"71","category_name":"四川菜","address":"浦东新区东方路3490号(南码头路口)"},{"poiid":"B2094757D06BA6FF4798","title":"新鼎旺牛奶棚(浦三路店)","lon":"121.51489","lat":"31.1925","category":"112","category_name":"糕饼店","address":"浦东新区浦三路361号(近东方路)"},{"poiid":"B2094654DB65A7FD459D","title":"元祖 东方路店 Ganso","lon":"121.514598054","lat":"31.191421793","category":"67","category_name":"甜品店","address":"浦东新区浦三路395号(近东方路)"},{"poiid":"B2094750D76FAAFE4092","title":"热火功夫麻辣烫(浦三路店)","lon":"121.515","lat":"31.193","category":"68","category_name":"快餐厅","address":"浦东新区浦三路329号(近东方路)"},{"poiid":"B2094757D064A4F9469A","title":"临沂新村","lon":"121.513965","lat":"31.191612","category":"252","category_name":"楼宇机构","address":"上海东方路浦三路"},{"poiid":"B2094655D26DA6F5459A","title":"苏州羊肉馆 浦三路店","lon":"121.51275","lat":"31.19572","category":"257","category_name":"中餐厅","address":"浦东新区浦三路147号(临沂路浦三路)"},{"poiid":"B2094654DA6AA1FD4198","title":"临沂七村","lon":"121.51505","lat":"31.195351","category":"47","category_name":"住宅区","address":"临沂路101弄"},{"poiid":"B2094655D26DA4FA4098","title":"浪涛量贩式KTV","lon":"121.51457","lat":"31.19093","category":"170","category_name":"KTV","address":"浦三路518号三斯商务中心"},{"poiid":"B2094654DA6AA3FE429D","title":"城建设计大厦","lon":"121.51337","lat":"31.19036","category":"46","category_name":"楼宇","address":"东方路3447号"},{"poiid":"B2094757D16FA1FF4599","title":"亮亮老北京热气涮羊肉","lon":"121.51156","lat":"31.19376","category":"86","category_name":"火锅店","address":"浦东新区临沂路213号(临沂路南码头路)"},{"poiid":"B2094757D165A5FA449D","title":"豪大大香鸡排","lon":"121.514439938","lat":"31.1919786854","category":"247","category_name":"餐饮美食","address":"上海浦东新区浦三路390号"},{"poiid":"B2094655D36CA6FB4892","title":"东方路兰陵路","lon":"121.51781","lat":"31.19414","category":"38","category_name":"公交车站","address":""},{"poiid":"B2094654DB64A3FF4292","title":"三斯商务中心B幢","lon":"121.51439","lat":"31.19115","category":"46","category_name":"楼宇","address":"浦三路518号"},{"poiid":"B2094757D164A0F44899","title":"潮汕沙锅粥","lon":"121.514417738","lat":"31.1925154968","category":"247","category_name":"餐饮美食","address":"上海东方路"},{"poiid":"B2094752D46DA1F4439B","title":"蓝山咖啡","lon":"121.518082","lat":"31.192886","category":"247","category_name":"餐饮美食","address":"东方路3261号B座101"},{"poiid":"B2094655D26EA3FF4692","title":"三斯商务中心A幢","lon":"121.51457","lat":"31.19093","category":"46","category_name":"楼宇","address":"浦三路518号"},{"poiid":"B2094757D16CA3FD4993","title":"育辛高级中学","lon":"121.515","lat":"31.19198","category":"500","category_name":"未知分类","address":"浦东新区浦三路385号(近浦三路)"},{"poiid":"B2094654DA69AAF4479F","title":"美乐饮食店","lon":"121.51386","lat":"31.19375","category":"68","category_name":"快餐厅","address":"浦东新区浦三路282号(近东方路)"},{"poiid":"B2094757D16AA6F8439C","title":"新疆烤肉大饼","lon":"121.514383","lat":"31.192575","category":"247","category_name":"餐饮美食","address":"上海浦三路392号"},{"poiid":"B2094655D26FA3FB4592","title":"毛家湘菜(浦三路店)","lon":"121.51471","lat":"31.19132","category":"247","category_name":"餐饮美食","address":"浦东新区浦三路516号"},{"poiid":"B2094655D265A5FE439D","title":"上海市浦东教育发展研究院(分部)","lon":"121.51504","lat":"31.19282","category":"191","category_name":"科研机构","address":"浦三路385"},{"poiid":"B2094655D26DA1F84799","title":"世纪华联","lon":"121.51442","lat":"31.19205","category":"118","category_name":"超级市场","address":""},{"poiid":"B2094757D16FA2F9469E","title":"可颂坊(临沂店)","lon":"121.51245498","lat":"31.194962984","category":"112","category_name":"糕饼店","address":"上海浦东新区临沂路144号华联吉买盛1楼(浦三路口)"},{"poiid":"B2094757D165A1FE499A","title":"东方路浦三路3333号","lon":"121.515156","lat":"31.191976","category":"500","category_name":"未知分类","address":"上海东方路3333号"},{"poiid":"B2094654DA6AA1FF439B","title":"冠生园东方佳苑","lon":"121.51972","lat":"31.19368","category":"47","category_name":"住宅区","address":"东方路2993弄"},{"poiid":"B2094654DA6AA1FF449F","title":"碧波苑酒家","lon":"121.5175","lat":"31.19471","category":"257","category_name":"中餐厅","address":"浦东新区兰陵路119号"},{"poiid":"B2094752D76FA1FF4392","title":"振华企业广场","lon":"121.518357","lat":"31.192564","category":"500","category_name":"未知分类","address":"东方路3261号"},{"poiid":"B2094757D664A6FF409A","title":"简朴森 临沂路店 Jepson Bread","lon":"121.512618054","lat":"31.194787793","category":"67","category_name":"甜品店","address":"浦东新区临沂路161号(近浦三路)"},{"poiid":"B2094757D069A5FE4799","title":"同福易家丽建材商城","lon":"121.51488","lat":"31.19223","category":"500","category_name":"未知分类","address":"上海浦东新区浦三路1515号(近板泉路)  "},{"poiid":"B2094757D16CA1F8439C","title":"马哥孛罗 临沂店 Marco Polo","lon":"121.512711054","lat":"31.195157793","category":"112","category_name":"糕饼店","address":"浦东新区临沂路141号(近浦三路)"},{"poiid":"B2094757D06FA2FD439B","title":"麦当劳(临沂路店)","lon":"121.51262","lat":"31.19464","category":"68","category_name":"快餐厅","address":"浦东新区临沂路180号百联社区商业中心1楼(近浦三路)"},{"poiid":"B2094757D068A0FC439A","title":"东方路浦三路","lon":"121.514697","lat":"31.192548","category":"260","category_name":"其他","address":"上海东方路浦三路路口"},{"poiid":"B2094655D26EA6FE4193","title":"锦江之星浦三路店","lon":"121.51311","lat":"31.19474","category":"216","category_name":"经济型连锁酒店","address":"浦东新区浦三路208号(近轨交六号线临沂路站)"},{"poiid":"B2094757D069A3FB449F","title":"上海东方尚博创意产业园","lon":"121.51148986","lat":"31.189821243","category":"45","category_name":"产业园区","address":"浦东新区东方路3539号(近地铁7号线高科西路站)"},{"poiid":"B2094655D26AA0FA4293","title":"地铁临沂新村站","lon":"121.51691","lat":"31.19333","category":"36","category_name":"地铁站","address":""},{"poiid":"B2094757D06FA4FD4893","title":"大富贵酒楼(临沂店)","lon":"121.512869","lat":"31.194746","category":"76","category_name":"上海菜","address":"浦东新区临沂路143号(近浦三路)"},{"poiid":"B2094655D26FA5F84292","title":"临沂六村","lon":"121.51205","lat":"31.193367","category":"47","category_name":"住宅区","address":"上海市浦东新区南码头路551弄"},{"poiid":"B2094757D06FA4FD4399","title":"红宝石(浦三路店)","lon":"121.51328","lat":"31.19465","category":"67","category_name":"甜品店","address":"浦东新区浦三路235号(近临沂路)"},{"poiid":"B2094757D06BA6F4479E","title":"教发院浦三路校区","lon":"121.514611","lat":"31.192506","category":"500","category_name":"未知分类","address":"上海浦三路385号"},{"poiid":"B2094757D068A5FD4292","title":"蛙香馆(东方路店)","lon":"121.51187","lat":"31.19012","category":"71","category_name":"四川菜","address":"浦东新区东方路3490号(近南码头路)"},{"poiid":"B2094655D36CA1F9489B","title":"临沂路浦三路","lon":"121.51166","lat":"31.19441","category":"38","category_name":"公交车站","address":""},{"poiid":"B2094757D068ABF44999","title":"泰煌鸡(临沂店)","lon":"121.51376","lat":"31.19518","category":"68","category_name":"快餐厅","address":"浦东新区临沂路132号(近浦三路)"},{"poiid":"B2094757D06AA0FF449B","title":"上海市城市建设设计研究院","lon":"121.513373","lat":"31.190365","category":"46","category_name":"楼宇","address":"上海市浦东新区东方路3447号"},{"poiid":"B2094654DA6AA1FE429C","title":"临沂八村(临沂路)","lon":"121.51647","lat":"31.19665","category":"47","category_name":"住宅区","address":"临沂路81弄"},{"poiid":"B2094757D06FA4FA4998","title":"华联吉买盛(临沂店)","lon":"121.51378","lat":"31.19433","category":"118","category_name":"超级市场","address":"浦东新区临沂路140号百联社区商业中心3楼(近浦三路)"},{"poiid":"B2094750D26FA4F9479D","title":"小尾羊(临沂路店)","lon":"121.51253383865355","lat":"31.1950916926387","category":"86","category_name":"火锅店","address":"浦东新区临沂路140号1楼(近浦三路)"},{"poiid":"B2094757D16AA6FC4598","title":"慕寿司","lon":"121.514321738","lat":"31.1926583998","category":"95","category_name":"日本料理","address":"浦东新区浦三路306号(近东方路)"},{"poiid":"B2094654DA6AA1FC479B","title":"乔家栅 浦三路店","lon":"121.514640054","lat":"31.193780793","category":"68","category_name":"快餐厅","address":"浦三路315号近东方路"},{"poiid":"B2094751DA6DA4F94093","title":"捞皇猪肚鸡","lon":"121.51564","lat":"31.19342","category":"86","category_name":"火锅店","address":"浦东新区东方路3288号(浦三路口)"},{"poiid":"B2094757D069A5F9469F","title":"浦东中学","lon":"121.51712","lat":"31.18743","category":"55","category_name":"中学","address":"浦东新区浦三路648号(近六里)"},{"poiid":"B2094757D664A7FA459F","title":"蛙辣风暴 东方店","lon":"121.513621054","lat":"31.191272793","category":"71","category_name":"四川菜","address":"浦东新区东方路3490号(南码头路口)"},{"poiid":"B2094757D06BA6FF4798","title":"新鼎旺牛奶棚(浦三路店)","lon":"121.51489","lat":"31.1925","category":"112","category_name":"糕饼店","address":"浦东新区浦三路361号(近东方路)"},{"poiid":"B2094654DB65A7FD459D","title":"元祖 东方路店 Ganso","lon":"121.514598054","lat":"31.191421793","category":"67","category_name":"甜品店","address":"浦东新区浦三路395号(近东方路)"},{"poiid":"B2094750D76FAAFE4092","title":"热火功夫麻辣烫(浦三路店)","lon":"121.515","lat":"31.193","category":"68","category_name":"快餐厅","address":"浦东新区浦三路329号(近东方路)"},{"poiid":"B2094757D064A4F9469A","title":"临沂新村","lon":"121.513965","lat":"31.191612","category":"252","category_name":"楼宇机构","address":"上海东方路浦三路"},{"poiid":"B2094655D26DA6F5459A","title":"苏州羊肉馆 浦三路店","lon":"121.51275","lat":"31.19572","category":"257","category_name":"中餐厅","address":"浦东新区浦三路147号(临沂路浦三路)"},{"poiid":"B2094654DA6AA1FD4198","title":"临沂七村","lon":"121.51505","lat":"31.195351","category":"47","category_name":"住宅区","address":"临沂路101弄"},{"poiid":"B2094655D26DA4FA4098","title":"浪涛量贩式KTV","lon":"121.51457","lat":"31.19093","category":"170","category_name":"KTV","address":"浦三路518号三斯商务中心"},{"poiid":"B2094654DA6AA3FE429D","title":"城建设计大厦","lon":"121.51337","lat":"31.19036","category":"46","category_name":"楼宇","address":"东方路3447号"},{"poiid":"B2094757D16FA1FF4599","title":"亮亮老北京热气涮羊肉","lon":"121.51156","lat":"31.19376","category":"86","category_name":"火锅店","address":"浦东新区临沂路213号(临沂路南码头路)"},{"poiid":"B2094757D165A5FA449D","title":"豪大大香鸡排","lon":"121.514439938","lat":"31.1919786854","category":"247","category_name":"餐饮美食","address":"上海浦东新区浦三路390号"},{"poiid":"B2094655D36CA6FB4892","title":"东方路兰陵路","lon":"121.51781","lat":"31.19414","category":"38","category_name":"公交车站","address":""},{"poiid":"B2094654DB64A3FF4292","title":"三斯商务中心B幢","lon":"121.51439","lat":"31.19115","category":"46","category_name":"楼宇","address":"浦三路518号"},{"poiid":"B2094757D164A0F44899","title":"潮汕沙锅粥","lon":"121.514417738","lat":"31.1925154968","category":"247","category_name":"餐饮美食","address":"上海东方路"},{"poiid":"B2094752D46DA1F4439B","title":"蓝山咖啡","lon":"121.518082","lat":"31.192886","category":"247","category_name":"餐饮美食","address":"东方路3261号B座101"},{"poiid":"B2094655D26EA3FF4692","title":"三斯商务中心A幢","lon":"121.51457","lat":"31.19093","category":"46","category_name":"楼宇","address":"浦三路518号"},{"poiid":"B2094757D16CA3FD4993","title":"育辛高级中学","lon":"121.515","lat":"31.19198","category":"500","category_name":"未知分类","address":"浦东新区浦三路385号(近浦三路)"},{"poiid":"B2094654DA69AAF4479F","title":"美乐饮食店","lon":"121.51386","lat":"31.19375","category":"68","category_name":"快餐厅","address":"浦东新区浦三路282号(近东方路)"},{"poiid":"B2094757D16AA6F8439C","title":"新疆烤肉大饼","lon":"121.514383","lat":"31.192575","category":"247","category_name":"餐饮美食","address":"上海浦三路392号"},{"poiid":"B2094655D26FA3FB4592","title":"毛家湘菜(浦三路店)","lon":"121.51471","lat":"31.19132","category":"247","category_name":"餐饮美食","address":"浦东新区浦三路516号"},{"poiid":"B2094655D265A5FE439D","title":"上海市浦东教育发展研究院(分部)","lon":"121.51504","lat":"31.19282","category":"191","category_name":"科研机构","address":"浦三路385"},{"poiid":"B2094655D26DA1F84799","title":"世纪华联","lon":"121.51442","lat":"31.19205","category":"118","category_name":"超级市场","address":""},{"poiid":"B2094757D16FA2F9469E","title":"可颂坊(临沂店)","lon":"121.51245498","lat":"31.194962984","category":"112","category_name":"糕饼店","address":"上海浦东新区临沂路144号华联吉买盛1楼(浦三路口)"},{"poiid":"B2094757D165A1FE499A","title":"东方路浦三路3333号","lon":"121.515156","lat":"31.191976","category":"500","category_name":"未知分类","address":"上海东方路3333号"},{"poiid":"B2094654DA6AA1FF439B","title":"冠生园东方佳苑","lon":"121.51972","lat":"31.19368","category":"47","category_name":"住宅区","address":"东方路2993弄"},{"poiid":"B2094654DA6AA1FF449F","title":"碧波苑酒家","lon":"121.5175","lat":"31.19471","category":"257","category_name":"中餐厅","address":"浦东新区兰陵路119号"},{"poiid":"B2094752D76FA1FF4392","title":"振华企业广场","lon":"121.518357","lat":"31.192564","category":"500","category_name":"未知分类","address":"东方路3261号"},{"poiid":"B2094757D664A6FF409A","title":"简朴森 临沂路店 Jepson Bread","lon":"121.512618054","lat":"31.194787793","category":"67","category_name":"甜品店","address":"浦东新区临沂路161号(近浦三路)"},{"poiid":"B2094757D069A5FE4799","title":"同福易家丽建材商城","lon":"121.51488","lat":"31.19223","category":"500","category_name":"未知分类","address":"上海浦东新区浦三路1515号(近板泉路)  "},{"poiid":"B2094757D16CA1F8439C","title":"马哥孛罗 临沂店 Marco Polo","lon":"121.512711054","lat":"31.195157793","category":"112","category_name":"糕饼店","address":"浦东新区临沂路141号(近浦三路)"},{"poiid":"B2094757D06FA2FD439B","title":"麦当劳(临沂路店)","lon":"121.51262","lat":"31.19464","category":"68","category_name":"快餐厅","address":"浦东新区临沂路180号百联社区商业中心1楼(近浦三路)"},{"poiid":"B2094757D068A0FC439A","title":"东方路浦三路","lon":"121.514697","lat":"31.192548","category":"260","category_name":"其他","address":"上海东方路浦三路路口"},{"poiid":"B2094655D26EA6FE4193","title":"锦江之星浦三路店","lon":"121.51311","lat":"31.19474","category":"216","category_name":"经济型连锁酒店","address":"浦东新区浦三路208号(近轨交六号线临沂路站)"},{"poiid":"B2094757D069A3FB449F","title":"上海东方尚博创意产业园","lon":"121.51148986","lat":"31.189821243","category":"45","category_name":"产业园区","address":"浦东新区东方路3539号(近地铁7号线高科西路站)"},{"poiid":"B2094655D26AA0FA4293","title":"地铁临沂新村站","lon":"121.51691","lat":"31.19333","category":"36","category_name":"地铁站","address":""},{"poiid":"B2094757D06FA4FD4893","title":"大富贵酒楼(临沂店)","lon":"121.512869","lat":"31.194746","category":"76","category_name":"上海菜","address":"浦东新区临沂路143号(近浦三路)"},{"poiid":"B2094655D26FA5F84292","title":"临沂六村","lon":"121.51205","lat":"31.193367","category":"47","category_name":"住宅区","address":"上海市浦东新区南码头路551弄"},{"poiid":"B2094757D06FA4FD4399","title":"红宝石(浦三路店)","lon":"121.51328","lat":"31.19465","category":"67","category_name":"甜品店","address":"浦东新区浦三路235号(近临沂路)"},{"poiid":"B2094757D06BA6F4479E","title":"教发院浦三路校区","lon":"121.514611","lat":"31.192506","category":"500","category_name":"未知分类","address":"上海浦三路385号"},{"poiid":"B2094757D068A5FD4292","title":"蛙香馆(东方路店)","lon":"121.51187","lat":"31.19012","category":"71","category_name":"四川菜","address":"浦东新区东方路3490号(近南码头路)"},{"poiid":"B2094655D36CA1F9489B","title":"临沂路浦三路","lon":"121.51166","lat":"31.19441","category":"38","category_name":"公交车站","address":""},{"poiid":"B2094757D068ABF44999","title":"泰煌鸡(临沂店)","lon":"121.51376","lat":"31.19518","category":"68","category_name":"快餐厅","address":"浦东新区临沂路132号(近浦三路)"},{"poiid":"B2094757D06AA0FF449B","title":"上海市城市建设设计研究院","lon":"121.513373","lat":"31.190365","category":"46","category_name":"楼宇","address":"上海市浦东新区东方路3447号"},{"poiid":"B2094654DA6AA1FE429C","title":"临沂八村(临沂路)","lon":"121.51647","lat":"31.19665","category":"47","category_name":"住宅区","address":"临沂路81弄"},{"poiid":"B2094757D06FA4FA4998","title":"华联吉买盛(临沂店)","lon":"121.51378","lat":"31.19433","category":"118","category_name":"超级市场","address":"浦东新区临沂路140号百联社区商业中心3楼(近浦三路)"},{"poiid":"B2094750D26FA4F9479D","title":"小尾羊(临沂路店)","lon":"121.51253383865355","lat":"31.1950916926387","category":"86","category_name":"火锅店","address":"浦东新区临沂路140号1楼(近浦三路)"},{"poiid":"B2094757D16AA6FC4598","title":"慕寿司","lon":"121.514321738","lat":"31.1926583998","category":"95","category_name":"日本料理","address":"浦东新区浦三路306号(近东方路)"},{"poiid":"B2094654DA6AA1FC479B","title":"乔家栅 浦三路店","lon":"121.514640054","lat":"31.193780793","category":"68","category_name":"快餐厅","address":"浦三路315号近东方路"},{"poiid":"B2094751DA6DA4F94093","title":"捞皇猪肚鸡","lon":"121.51564","lat":"31.19342","category":"86","category_name":"火锅店","address":"浦东新区东方路3288号(浦三路口)"},{"poiid":"B2094757D069A5F9469F","title":"浦东中学","lon":"121.51712","lat":"31.18743","category":"55","category_name":"中学","address":"浦东新区浦三路648号(近六里)"},{"poiid":"B2094757D664A7FA459F","title":"蛙辣风暴 东方店","lon":"121.513621054","lat":"31.191272793","category":"71","category_name":"四川菜","address":"浦东新区东方路3490号(南码头路口)"},{"poiid":"B2094757D06BA6FF4798","title":"新鼎旺牛奶棚(浦三路店)","lon":"121.51489","lat":"31.1925","category":"112","category_name":"糕饼店","address":"浦东新区浦三路361号(近东方路)"},{"poiid":"B2094654DB65A7FD459D","title":"元祖 东方路店 Ganso","lon":"121.514598054","lat":"31.191421793","category":"67","category_name":"甜品店","address":"浦东新区浦三路395号(近东方路)"},{"poiid":"B2094750D76FAAFE4092","title":"热火功夫麻辣烫(浦三路店)","lon":"121.515","lat":"31.193","category":"68","category_name":"快餐厅","address":"浦东新区浦三路329号(近东方路)"},{"poiid":"B2094757D064A4F9469A","title":"临沂新村","lon":"121.513965","lat":"31.191612","category":"252","category_name":"楼宇机构","address":"上海东方路浦三路"},{"poiid":"B2094655D26DA6F5459A","title":"苏州羊肉馆 浦三路店","lon":"121.51275","lat":"31.19572","category":"257","category_name":"中餐厅","address":"浦东新区浦三路147号(临沂路浦三路)"},{"poiid":"B2094654DA6AA1FD4198","title":"临沂七村","lon":"121.51505","lat":"31.195351","category":"47","category_name":"住宅区","address":"临沂路101弄"},{"poiid":"B2094655D26DA4FA4098","title":"浪涛量贩式KTV","lon":"121.51457","lat":"31.19093","category":"170","category_name":"KTV","address":"浦三路518号三斯商务中心"},{"poiid":"B2094654DA6AA3FE429D","title":"城建设计大厦","lon":"121.51337","lat":"31.19036","category":"46","category_name":"楼宇","address":"东方路3447号"},{"poiid":"B2094757D16FA1FF4599","title":"亮亮老北京热气涮羊肉","lon":"121.51156","lat":"31.19376","category":"86","category_name":"火锅店","address":"浦东新区临沂路213号(临沂路南码头路)"},{"poiid":"B2094757D165A5FA449D","title":"豪大大香鸡排","lon":"121.514439938","lat":"31.1919786854","category":"247","category_name":"餐饮美食","address":"上海浦东新区浦三路390号"},{"poiid":"B2094655D36CA6FB4892","title":"东方路兰陵路","lon":"121.51781","lat":"31.19414","category":"38","category_name":"公交车站","address":""},{"poiid":"B2094654DB64A3FF4292","title":"三斯商务中心B幢","lon":"121.51439","lat":"31.19115","category":"46","category_name":"楼宇","address":"浦三路518号"},{"poiid":"B2094757D164A0F44899","title":"潮汕沙锅粥","lon":"121.514417738","lat":"31.1925154968","category":"247","category_name":"餐饮美食","address":"上海东方路"},{"poiid":"B2094752D46DA1F4439B","title":"蓝山咖啡","lon":"121.518082","lat":"31.192886","category":"247","category_name":"餐饮美食","address":"东方路3261号B座101"},{"poiid":"B2094655D26EA3FF4692","title":"三斯商务中心A幢","lon":"121.51457","lat":"31.19093","category":"46","category_name":"楼宇","address":"浦三路518号"},{"poiid":"B2094757D16CA3FD4993","title":"育辛高级中学","lon":"121.515","lat":"31.19198","category":"500","category_name":"未知分类","address":"浦东新区浦三路385号(近浦三路)"},{"poiid":"B2094654DA69AAF4479F","title":"美乐饮食店","lon":"121.51386","lat":"31.19375","category":"68","category_name":"快餐厅","address":"浦东新区浦三路282号(近东方路)"},{"poiid":"B2094757D16AA6F8439C","title":"新疆烤肉大饼","lon":"121.514383","lat":"31.192575","category":"247","category_name":"餐饮美食","address":"上海浦三路392号"},{"poiid":"B2094655D26FA3FB4592","title":"毛家湘菜(浦三路店)","lon":"121.51471","lat":"31.19132","category":"247","category_name":"餐饮美食","address":"浦东新区浦三路516号"},{"poiid":"B2094655D265A5FE439D","title":"上海市浦东教育发展研究院(分部)","lon":"121.51504","lat":"31.19282","category":"191","category_name":"科研机构","address":"浦三路385"},{"poiid":"B2094655D26DA1F84799","title":"世纪华联","lon":"121.51442","lat":"31.19205","category":"118","category_name":"超级市场","address":""},{"poiid":"B2094757D16FA2F9469E","title":"可颂坊(临沂店)","lon":"121.51245498","lat":"31.194962984","category":"112","category_name":"糕饼店","address":"上海浦东新区临沂路144号华联吉买盛1楼(浦三路口)"},{"poiid":"B2094757D165A1FE499A","title":"东方路浦三路3333号","lon":"121.515156","lat":"31.191976","category":"500","category_name":"未知分类","address":"上海东方路3333号"},{"poiid":"B2094654DA6AA1FF439B","title":"冠生园东方佳苑","lon":"121.51972","lat":"31.19368","category":"47","category_name":"住宅区","address":"东方路2993弄"},{"poiid":"B2094654DA6AA1FF449F","title":"碧波苑酒家","lon":"121.5175","lat":"31.19471","category":"257","category_name":"中餐厅","address":"浦东新区兰陵路119号"},{"poiid":"B2094752D76FA1FF4392","title":"振华企业广场","lon":"121.518357","lat":"31.192564","category":"500","category_name":"未知分类","address":"东方路3261号"},{"poiid":"B2094757D664A6FF409A","title":"简朴森 临沂路店 Jepson Bread","lon":"121.512618054","lat":"31.194787793","category":"67","category_name":"甜品店","address":"浦东新区临沂路161号(近浦三路)"},{"poiid":"B2094757D069A5FE4799","title":"同福易家丽建材商城","lon":"121.51488","lat":"31.19223","category":"500","category_name":"未知分类","address":"上海浦东新区浦三路1515号(近板泉路)  "},{"poiid":"B2094757D16CA1F8439C","title":"马哥孛罗 临沂店 Marco Polo","lon":"121.512711054","lat":"31.195157793","category":"112","category_name":"糕饼店","address":"浦东新区临沂路141号(近浦三路)"}]