[{"poiid":"B2094655D26BA1FF449C","title":"南码头路昌里东路","lon":"121.51529","lat":"31.17986","category":"38","category_name":"公交车站","address":""},{"poiid":"B2094655D26BA2F4479C","title":"浦三路齐河路","lon":"121.51837","lat":"31.18447","category":"38","category_name":"公交车站","address":""},{"poiid":"B2094757D068A7F5409B","title":"京世日韩专业烫染店(昌里店)","lon":"121.51645","lat":"31.17933","category":"148","category_name":"美容美发店","address":"上海浦东新区昌里东路608号(近南码头路)  "},{"poiid":"B2094757D068A6FD409E","title":"六里","lon":"121.51491298","lat":"31.18516334","category":"500","category_name":"未知分类","address":"上海浦三路齐河路"},{"poiid":"B2094750D665A3F8499C","title":"段氏龙虾(浦三路店)","lon":"121.519","lat":"31.1821","category":"68","category_name":"快餐厅","address":"浦东新区浦三路843号(近昌里东路)"},{"poiid":"B2094757D069A5F9469F","title":"浦东中学","lon":"121.51712","lat":"31.18743","category":"55","category_name":"中学","address":"浦东新区浦三路648号(近六里)"},{"poiid":"B2094757D069A5F94598","title":"博爱家园","lon":"121.51139","lat":"31.184074","category":"500","category_name":"未知分类","address":"上海市浦东新区东明路355弄1号"},{"poiid":"B2094757D06FA4FA469B","title":"老盛昌苏州汤包馆(昌里东路店)","lon":"121.51682","lat":"31.17971","category":"68","category_name":"快餐厅","address":"浦东新区昌里东路624号(近南码头路)"},{"poiid":"B2094654DA6AA2F4459D","title":"上南中学北校","lon":"121.51528","lat":"31.18153","category":"55","category_name":"中学","address":"浦东新区南码头路1347号(近齐河路)"},{"poiid":"B2094654DA6AA2F9489C","title":"千百度酒店","lon":"121.51826","lat":"31.18369","category":"250","category_name":"公园户外","address":"浦东新区浦三路786弄30号(齐河路口)"},{"poiid":"B2094750D76CABF54893","title":"菌菇王火锅","lon":"121.518","lat":"31.1855","category":"86","category_name":"火锅店","address":"浦东新区浦三路716号(近齐河路)"},{"poiid":"B2094757D568AAFD489E","title":"逸翠公馆","lon":"121.521","lat":"31.1884","category":"47","category_name":"住宅区","address":"浦东南码头路1266弄(齐河路口)"},{"poiid":"B2094654DA6AA2F94092","title":"齐二小区","lon":"121.51333","lat":"31.183537","category":"47","category_name":"住宅区","address":"南码头路1186弄"},{"poiid":"B2094655D26DA1F5439D","title":"重庆鸡公煲(浦三路)","lon":"121.51804","lat":"31.18575","category":"71","category_name":"四川菜","address":"浦东新区浦三路151号(近浦东南路)"},{"poiid":"B2094654DB69A7F84392","title":"东丽苑","lon":"121.51616","lat":"31.186235","category":"47","category_name":"住宅区","address":"浦三路704弄1-12号"},{"poiid":"B2094654DA6AA2F9419B","title":"齐河三小区","lon":"121.51544","lat":"31.18379","category":"47","category_name":"住宅区","address":"南码头路1187弄"},{"poiid":"B2094757D068A7F9439C","title":"昌里小区","lon":"121.52139987948","lat":"31.183552664855","category":"47","category_name":"住宅区","address":"上海浦东新区南码头路1521弄(近邹平路)"},{"poiid":"B2094750DA6EABFF4398","title":"上海振华重工(集团)股份有限公司","lon":"121.515151","lat":"31.185384","category":"263","category_name":"公司","address":"东方路3261号"},{"poiid":"B2094654DA6AA2F9439E","title":"华业翠都","lon":"121.51575","lat":"31.184666","category":"47","category_name":"住宅区","address":"上海市浦东新区齐河路909弄"},{"poiid":"B2094654DA6AA1FE4298","title":"砂锅麻辣烫","lon":"121.51778","lat":"31.18575","category":"68","category_name":"快餐厅","address":"浦东新区浦三路718号(近齐河路)"},{"poiid":"B2094654DA6AA2F94599","title":"南码头社区卫生服务中心","lon":"121.51735","lat":"31.18652","category":"162","category_name":"医院","address":"浦三路696"},{"poiid":"B2094654DA6AA2F94792","title":"怡泰家苑","lon":"121.51507","lat":"31.186222","category":"47","category_name":"住宅区","address":"上海市浦东新区浦三路688号"},{"poiid":"B2094655D26FA1FE439A","title":"十泽庙","lon":"121.51721","lat":"31.18448","category":"244","category_name":"寺庙道观","address":""},{"poiid":"B2094757D06AAAFD489A","title":"上苏房特色私房菜","lon":"121.51837173","lat":"31.184875334","category":"75","category_name":"浙江菜","address":"上海市浦东新区浦三路739号"},{"poiid":"B2094757D065A2FD4792","title":"浦三路","lon":"121.517931","lat":"31.185628","category":"500","category_name":"未知分类","address":"上海浦三路六里车站"},{"poiid":"B2094757D16DA7FE4692","title":"六里地段医院","lon":"121.51763","lat":"31.18627","category":"162","category_name":"医院","address":"浦东新区浦三路696号(近东方路)"},{"poiid":"B2094654DA6AA2F9499A","title":"轻工六里小区","lon":"121.51756","lat":"31.182842","category":"47","category_name":"住宅区","address":"浦三路786弄1-36号"},{"poiid":"B2094655D268A2FE459C","title":"道日增辉","lon":"121.51702","lat":"31.1844","category":"244","category_name":"寺庙道观","address":""},{"poiid":"B2094655D268A2FE459E","title":"浦三路724弄小区","lon":"121.51741","lat":"31.18547","category":"47","category_name":"住宅区","address":"浦三路724弄11-12号"},{"poiid":"B2094757DA65A5FB449A","title":"上海海上风连锁酒店绿洲大酒店","lon":"121.5182438","lat":"31.18502217","category":"215","category_name":"三星级宾馆","address":"浦东新区浦三路739号"},{"poiid":"B2094757D06AA6FF409C","title":"东明苑","lon":"121.51119","lat":"31.183407","category":"47","category_name":"住宅区","address":"东明苑位于浦东南码头路1186弄130支弄35,34,33号"},{"poiid":"B2094655D26DA1F54792","title":"六里二村(南门)","lon":"121.51924","lat":"31.18544","category":"47","category_name":"住宅区","address":""},{"poiid":"B2094757D16CA2FB409A","title":"豪大大鸡排","lon":"121.516","lat":"31.187","category":"68","category_name":"快餐厅","address":"浦东新区高科西路1147号(近浦三路)"},{"poiid":"B2094655D26DA1F4469F","title":"绿洲小区","lon":"121.52009","lat":"31.1863","category":"47","category_name":"住宅区","address":"浦三路六里二村13-33号"},{"poiid":"B2094654DA6AA2F94199","title":"重庆鸡公煲(南码头路)","lon":"121.51459","lat":"31.18345","category":"257","category_name":"中餐厅","address":"南码头路1193号"},{"poiid":"B2094655D26BA1FF449E","title":"南码头路高科西路","lon":"121.51402","lat":"31.1862","category":"38","category_name":"公交车站","address":""},{"poiid":"B2094654DA6AA1FC4499","title":"可的(浦三路)","lon":"121.51775","lat":"31.18647","category":"117","category_name":"便民商店/便利店","address":"浦三路707"},{"poiid":"B2094655D36CA2FE479C","title":"齐河路南码头路","lon":"121.51384","lat":"31.18235","category":"38","category_name":"公交车站","address":""},{"poiid":"B2094655D26DA1F54798","title":"东盛公寓","lon":"121.52073","lat":"31.182514","category":"47","category_name":"住宅区","address":"上海浦三路821弄"},{"poiid":"B2094757D064A2F9469D","title":"欧亚美家具广场","lon":"121.51786","lat":"31.18522","category":"500","category_name":"未知分类","address":"浦东浦三路1515号(近三林世博家园)"},{"poiid":"B2094757D16FA2F44199","title":"新昌里公寓","lon":"121.518","lat":"31.1825","category":"47","category_name":"住宅区","address":"上海市浦东新区昌里东路307号"},{"poiid":"B2094757D06AA3FE4592","title":"红莲小区","lon":"121.52007","lat":"31.183779","category":"47","category_name":"住宅区","address":"浦三路775弄1-3号"},{"poiid":"B2094654DA6AA2F44693","title":"紫竹馨苑","lon":"121.51442","lat":"31.180164","category":"47","category_name":"住宅区","address":"上海市浦东新区昌里东路607号"},{"poiid":"B2094757D068A0F54099","title":"昌里东路南码头路","lon":"121.511899738","lat":"31.1840343163","category":"500","category_name":"未知分类","address":"上海昌里东路南码头路1136弄"},{"poiid":"B2094655D26BA1FF4498","title":"南码头路齐河路","lon":"121.51438","lat":"31.18344","category":"38","category_name":"公交车站","address":""},{"poiid":"B2094655D264AAF44799","title":"齐锦苑","lon":"121.52055","lat":"31.185266","category":"47","category_name":"住宅区","address":"齐河路1179弄1-21号"},{"poiid":"B2094655D265A4FC469D","title":"齐宏苑","lon":"121.51936","lat":"31.183542","category":"47","category_name":"住宅区","address":"浦三路783弄1-9号"},{"poiid":"B2094757D465A1F9429B","title":"永峰老鸭粉丝砂锅店 浦三路店","lon":"121.516612054","lat":"31.188769793","category":"87","category_name":"特色／地方风味餐厅","address":"浦东新区浦三路659号(近六里)"},{"poiid":"B2094655D26DA1F5469B","title":"锦南浦三小区","lon":"121.51864","lat":"31.187998","category":"47","category_name":"住宅区","address":"浦三路637弄50支弄1-44号"},{"poiid":"B2094654DA6AA2F9479D","title":"博文家园","lon":"121.51366","lat":"31.185698","category":"47","category_name":"住宅区","address":"南码头路1120弄1-16号"},{"poiid":"B2094655D26BA1FF449C","title":"南码头路昌里东路","lon":"121.51529","lat":"31.17986","category":"38","category_name":"公交车站","address":""},{"poiid":"B2094655D26BA2F4479C","title":"浦三路齐河路","lon":"121.51837","lat":"31.18447","category":"38","category_name":"公交车站","address":""},{"poiid":"B2094757D068A7F5409B","title":"京世日韩专业烫染店(昌里店)","lon":"121.51645","lat":"31.17933","category":"148","category_name":"美容美发店","address":"上海浦东新区昌里东路608号(近南码头路)  "},{"poiid":"B2094757D068A6FD409E","title":"六里","lon":"121.51491298","lat":"31.18516334","category":"500","category_name":"未知分类","address":"上海浦三路齐河路"},{"poiid":"B2094750D665A3F8499C","title":"段氏龙虾(浦三路店)","lon":"121.519","lat":"31.1821","category":"68","category_name":"快餐厅","address":"浦东新区浦三路843号(近昌里东路)"},{"poiid":"B2094757D069A5F9469F","title":"浦东中学","lon":"121.51712","lat":"31.18743","category":"55","category_name":"中学","address":"浦东新区浦三路648号(近六里)"},{"poiid":"B2094757D069A5F94598","title":"博爱家园","lon":"121.51139","lat":"31.184074","category":"500","category_name":"未知分类","address":"上海市浦东新区东明路355弄1号"},{"poiid":"B2094757D06FA4FA469B","title":"老盛昌苏州汤包馆(昌里东路店)","lon":"121.51682","lat":"31.17971","category":"68","category_name":"快餐厅","address":"浦东新区昌里东路624号(近南码头路)"},{"poiid":"B2094654DA6AA2F4459D","title":"上南中学北校","lon":"121.51528","lat":"31.18153","category":"55","category_name":"中学","address":"浦东新区南码头路1347号(近齐河路)"},{"poiid":"B2094654DA6AA2F9489C","title":"千百度酒店","lon":"121.51826","lat":"31.18369","category":"250","category_name":"公园户外","address":"浦东新区浦三路786弄30号(齐河路口)"},{"poiid":"B2094750D76CABF54893","title":"菌菇王火锅","lon":"121.518","lat":"31.1855","category":"86","category_name":"火锅店","address":"浦东新区浦三路716号(近齐河路)"},{"poiid":"B2094757D568AAFD489E","title":"逸翠公馆","lon":"121.521","lat":"31.1884","category":"47","category_name":"住宅区","address":"浦东南码头路1266弄(齐河路口)"},{"poiid":"B2094654DA6AA2F94092","title":"齐二小区","lon":"121.51333","lat":"31.183537","category":"47","category_name":"住宅区","address":"南码头路1186弄"},{"poiid":"B2094655D26DA1F5439D","title":"重庆鸡公煲(浦三路)","lon":"121.51804","lat":"31.18575","category":"71","category_name":"四川菜","address":"浦东新区浦三路151号(近浦东南路)"},{"poiid":"B2094654DB69A7F84392","title":"东丽苑","lon":"121.51616","lat":"31.186235","category":"47","category_name":"住宅区","address":"浦三路704弄1-12号"},{"poiid":"B2094654DA6AA2F9419B","title":"齐河三小区","lon":"121.51544","lat":"31.18379","category":"47","category_name":"住宅区","address":"南码头路1187弄"},{"poiid":"B2094757D068A7F9439C","title":"昌里小区","lon":"121.52139987948","lat":"31.183552664855","category":"47","category_name":"住宅区","address":"上海浦东新区南码头路1521弄(近邹平路)"},{"poiid":"B2094750DA6EABFF4398","title":"上海振华重工(集团)股份有限公司","lon":"121.515151","lat":"31.185384","category":"263","category_name":"公司","address":"东方路3261号"},{"poiid":"B2094654DA6AA2F9439E","title":"华业翠都","lon":"121.51575","lat":"31.184666","category":"47","category_name":"住宅区","address":"上海市浦东新区齐河路909弄"},{"poiid":"B2094654DA6AA1FE4298","title":"砂锅麻辣烫","lon":"121.51778","lat":"31.18575","category":"68","category_name":"快餐厅","address":"浦东新区浦三路718号(近齐河路)"},{"poiid":"B2094654DA6AA2F94599","title":"南码头社区卫生服务中心","lon":"121.51735","lat":"31.18652","category":"162","category_name":"医院","address":"浦三路696"},{"poiid":"B2094654DA6AA2F94792","title":"怡泰家苑","lon":"121.51507","lat":"31.186222","category":"47","category_name":"住宅区","address":"上海市浦东新区浦三路688号"},{"poiid":"B2094655D26FA1FE439A","title":"十泽庙","lon":"121.51721","lat":"31.18448","category":"244","category_name":"寺庙道观","address":""},{"poiid":"B2094757D06AAAFD489A","title":"上苏房特色私房菜","lon":"121.51837173","lat":"31.184875334","category":"75","category_name":"浙江菜","address":"上海市浦东新区浦三路739号"},{"poiid":"B2094757D065A2FD4792","title":"浦三路","lon":"121.517931","lat":"31.185628","category":"500","category_name":"未知分类","address":"上海浦三路六里车站"},{"poiid":"B2094757D16DA7FE4692","title":"六里地段医院","lon":"121.51763","lat":"31.18627","category":"162","category_name":"医院","address":"浦东新区浦三路696号(近东方路)"},{"poiid":"B2094654DA6AA2F9499A","title":"轻工六里小区","lon":"121.51756","lat":"31.182842","category":"47","category_name":"住宅区","address":"浦三路786弄1-36号"},{"poiid":"B2094655D268A2FE459C","title":"道日增辉","lon":"121.51702","lat":"31.1844","category":"244","category_name":"寺庙道观","address":""},{"poiid":"B2094655D268A2FE459E","title":"浦三路724弄小区","lon":"121.51741","lat":"31.18547","category":"47","category_name":"住宅区","address":"浦三路724弄11-12号"},{"poiid":"B2094757DA65A5FB449A","title":"上海海上风连锁酒店绿洲大酒店","lon":"121.5182438","lat":"31.18502217","category":"215","category_name":"三星级宾馆","address":"浦东新区浦三路739号"},{"poiid":"B2094757D06AA6FF409C","title":"东明苑","lon":"121.51119","lat":"31.183407","category":"47","category_name":"住宅区","address":"东明苑位于浦东南码头路1186弄130支弄35,34,33号"},{"poiid":"B2094655D26DA1F54792","title":"六里二村(南门)","lon":"121.51924","lat":"31.18544","category":"47","category_name":"住宅区","address":""},{"poiid":"B2094757D16CA2FB409A","title":"豪大大鸡排","lon":"121.516","lat":"31.187","category":"68","category_name":"快餐厅","address":"浦东新区高科西路1147号(近浦三路)"},{"poiid":"B2094655D26DA1F4469F","title":"绿洲小区","lon":"121.52009","lat":"31.1863","category":"47","category_name":"住宅区","address":"浦三路六里二村13-33号"},{"poiid":"B2094654DA6AA2F94199","title":"重庆鸡公煲(南码头路)","lon":"121.51459","lat":"31.18345","category":"257","category_name":"中餐厅","address":"南码头路1193号"},{"poiid":"B2094655D26BA1FF449E","title":"南码头路高科西路","lon":"121.51402","lat":"31.1862","category":"38","category_name":"公交车站","address":""},{"poiid":"B2094654DA6AA1FC4499","title":"可的(浦三路)","lon":"121.51775","lat":"31.18647","category":"117","category_name":"便民商店/便利店","address":"浦三路707"},{"poiid":"B2094655D36CA2FE479C","title":"齐河路南码头路","lon":"121.51384","lat":"31.18235","category":"38","category_name":"公交车站","address":""},{"poiid":"B2094655D26DA1F54798","title":"东盛公寓","lon":"121.52073","lat":"31.182514","category":"47","category_name":"住宅区","address":"上海浦三路821弄"},{"poiid":"B2094757D064A2F9469D","title":"欧亚美家具广场","lon":"121.51786","lat":"31.18522","category":"500","category_name":"未知分类","address":"浦东浦三路1515号(近三林世博家园)"},{"poiid":"B2094757D16FA2F44199","title":"新昌里公寓","lon":"121.518","lat":"31.1825","category":"47","category_name":"住宅区","address":"上海市浦东新区昌里东路307号"},{"poiid":"B2094757D06AA3FE4592","title":"红莲小区","lon":"121.52007","lat":"31.183779","category":"47","category_name":"住宅区","address":"浦三路775弄1-3号"},{"poiid":"B2094654DA6AA2F44693","title":"紫竹馨苑","lon":"121.51442","lat":"31.180164","category":"47","category_name":"住宅区","address":"上海市浦东新区昌里东路607号"},{"poiid":"B2094757D068A0F54099","title":"昌里东路南码头路","lon":"121.511899738","lat":"31.1840343163","category":"500","category_name":"未知分类","address":"上海昌里东路南码头路1136弄"},{"poiid":"B2094655D26BA1FF4498","title":"南码头路齐河路","lon":"121.51438","lat":"31.18344","category":"38","category_name":"公交车站","address":""},{"poiid":"B2094655D264AAF44799","title":"齐锦苑","lon":"121.52055","lat":"31.185266","category":"47","category_name":"住宅区","address":"齐河路1179弄1-21号"},{"poiid":"B2094655D265A4FC469D","title":"齐宏苑","lon":"121.51936","lat":"31.183542","category":"47","category_name":"住宅区","address":"浦三路783弄1-9号"},{"poiid":"B2094757D465A1F9429B","title":"永峰老鸭粉丝砂锅店 浦三路店","lon":"121.516612054","lat":"31.188769793","category":"87","category_name":"特色／地方风味餐厅","address":"浦东新区浦三路659号(近六里)"},{"poiid":"B2094655D26DA1F5469B","title":"锦南浦三小区","lon":"121.51864","lat":"31.187998","category":"47","category_name":"住宅区","address":"浦三路637弄50支弄1-44号"},{"poiid":"B2094654DA6AA2F9479D","title":"博文家园","lon":"121.51366","lat":"31.185698","category":"47","category_name":"住宅区","address":"南码头路1120弄1-16号"},{"poiid":"B2094655D26BA1FF449C","title":"南码头路昌里东路","lon":"121.51529","lat":"31.17986","category":"38","category_name":"公交车站","address":""},{"poiid":"B2094655D26BA2F4479C","title":"浦三路齐河路","lon":"121.51837","lat":"31.18447","category":"38","category_name":"公交车站","address":""},{"poiid":"B2094757D068A7F5409B","title":"京世日韩专业烫染店(昌里店)","lon":"121.51645","lat":"31.17933","category":"148","category_name":"美容美发店","address":"上海浦东新区昌里东路608号(近南码头路)  "},{"poiid":"B2094757D068A6FD409E","title":"六里","lon":"121.51491298","lat":"31.18516334","category":"500","category_name":"未知分类","address":"上海浦三路齐河路"},{"poiid":"B2094750D665A3F8499C","title":"段氏龙虾(浦三路店)","lon":"121.519","lat":"31.1821","category":"68","category_name":"快餐厅","address":"浦东新区浦三路843号(近昌里东路)"},{"poiid":"B2094757D069A5F9469F","title":"浦东中学","lon":"121.51712","lat":"31.18743","category":"55","category_name":"中学","address":"浦东新区浦三路648号(近六里)"},{"poiid":"B2094757D069A5F94598","title":"博爱家园","lon":"121.51139","lat":"31.184074","category":"500","category_name":"未知分类","address":"上海市浦东新区东明路355弄1号"},{"poiid":"B2094757D06FA4FA469B","title":"老盛昌苏州汤包馆(昌里东路店)","lon":"121.51682","lat":"31.17971","category":"68","category_name":"快餐厅","address":"浦东新区昌里东路624号(近南码头路)"},{"poiid":"B2094654DA6AA2F4459D","title":"上南中学北校","lon":"121.51528","lat":"31.18153","category":"55","category_name":"中学","address":"浦东新区南码头路1347号(近齐河路)"},{"poiid":"B2094654DA6AA2F9489C","title":"千百度酒店","lon":"121.51826","lat":"31.18369","category":"250","category_name":"公园户外","address":"浦东新区浦三路786弄30号(齐河路口)"},{"poiid":"B2094750D76CABF54893","title":"菌菇王火锅","lon":"121.518","lat":"31.1855","category":"86","category_name":"火锅店","address":"浦东新区浦三路716号(近齐河路)"},{"poiid":"B2094757D568AAFD489E","title":"逸翠公馆","lon":"121.521","lat":"31.1884","category":"47","category_name":"住宅区","address":"浦东南码头路1266弄(齐河路口)"},{"poiid":"B2094654DA6AA2F94092","title":"齐二小区","lon":"121.51333","lat":"31.183537","category":"47","category_name":"住宅区","address":"南码头路1186弄"},{"poiid":"B2094655D26DA1F5439D","title":"重庆鸡公煲(浦三路)","lon":"121.51804","lat":"31.18575","category":"71","category_name":"四川菜","address":"浦东新区浦三路151号(近浦东南路)"},{"poiid":"B2094654DB69A7F84392","title":"东丽苑","lon":"121.51616","lat":"31.186235","category":"47","category_name":"住宅区","address":"浦三路704弄1-12号"},{"poiid":"B2094654DA6AA2F9419B","title":"齐河三小区","lon":"121.51544","lat":"31.18379","category":"47","category_name":"住宅区","address":"南码头路1187弄"},{"poiid":"B2094757D068A7F9439C","title":"昌里小区","lon":"121.52139987948","lat":"31.183552664855","category":"47","category_name":"住宅区","address":"上海浦东新区南码头路1521弄(近邹平路)"},{"poiid":"B2094750DA6EABFF4398","title":"上海振华重工(集团)股份有限公司","lon":"121.515151","lat":"31.185384","category":"263","category_name":"公司","address":"东方路3261号"},{"poiid":"B2094654DA6AA2F9439E","title":"华业翠都","lon":"121.51575","lat":"31.184666","category":"47","category_name":"住宅区","address":"上海市浦东新区齐河路909弄"},{"poiid":"B2094654DA6AA1FE4298","title":"砂锅麻辣烫","lon":"121.51778","lat":"31.18575","category":"68","category_name":"快餐厅","address":"浦东新区浦三路718号(近齐河路)"},{"poiid":"B2094654DA6AA2F94599","title":"南码头社区卫生服务中心","lon":"121.51735","lat":"31.18652","category":"162","category_name":"医院","address":"浦三路696"},{"poiid":"B2094654DA6AA2F94792","title":"怡泰家苑","lon":"121.51507","lat":"31.186222","category":"47","category_name":"住宅区","address":"上海市浦东新区浦三路688号"},{"poiid":"B2094655D26FA1FE439A","title":"十泽庙","lon":"121.51721","lat":"31.18448","category":"244","category_name":"寺庙道观","address":""},{"poiid":"B2094757D06AAAFD489A","title":"上苏房特色私房菜","lon":"121.51837173","lat":"31.184875334","category":"75","category_name":"浙江菜","address":"上海市浦东新区浦三路739号"},{"poiid":"B2094757D065A2FD4792","title":"浦三路","lon":"121.517931","lat":"31.185628","category":"500","category_name":"未知分类","address":"上海浦三路六里车站"},{"poiid":"B2094757D16DA7FE4692","title":"六里地段医院","lon":"121.51763","lat":"31.18627","category":"162","category_name":"医院","address":"浦东新区浦三路696号(近东方路)"},{"poiid":"B2094654DA6AA2F9499A","title":"轻工六里小区","lon":"121.51756","lat":"31.182842","category":"47","category_name":"住宅区","address":"浦三路786弄1-36号"},{"poiid":"B2094655D268A2FE459C","title":"道日增辉","lon":"121.51702","lat":"31.1844","category":"244","category_name":"寺庙道观","address":""},{"poiid":"B2094655D268A2FE459E","title":"浦三路724弄小区","lon":"121.51741","lat":"31.18547","category":"47","category_name":"住宅区","address":"浦三路724弄11-12号"},{"poiid":"B2094757DA65A5FB449A","title":"上海海上风连锁酒店绿洲大酒店","lon":"121.5182438","lat":"31.18502217","category":"215","category_name":"三星级宾馆","address":"浦东新区浦三路739号"},{"poiid":"B2094757D06AA6FF409C","title":"东明苑","lon":"121.51119","lat":"31.183407","category":"47","category_name":"住宅区","address":"东明苑位于浦东南码头路1186弄130支弄35,34,33号"},{"poiid":"B2094655D26DA1F54792","title":"六里二村(南门)","lon":"121.51924","lat":"31.18544","category":"47","category_name":"住宅区","address":""},{"poiid":"B2094757D16CA2FB409A","title":"豪大大鸡排","lon":"121.516","lat":"31.187","category":"68","category_name":"快餐厅","address":"浦东新区高科西路1147号(近浦三路)"},{"poiid":"B2094655D26DA1F4469F","title":"绿洲小区","lon":"121.52009","lat":"31.1863","category":"47","category_name":"住宅区","address":"浦三路六里二村13-33号"},{"poiid":"B2094654DA6AA2F94199","title":"重庆鸡公煲(南码头路)","lon":"121.51459","lat":"31.18345","category":"257","category_name":"中餐厅","address":"南码头路1193号"},{"poiid":"B2094655D26BA1FF449E","title":"南码头路高科西路","lon":"121.51402","lat":"31.1862","category":"38","category_name":"公交车站","address":""},{"poiid":"B2094654DA6AA1FC4499","title":"可的(浦三路)","lon":"121.51775","lat":"31.18647","category":"117","category_name":"便民商店/便利店","address":"浦三路707"},{"poiid":"B2094655D36CA2FE479C","title":"齐河路南码头路","lon":"121.51384","lat":"31.18235","category":"38","category_name":"公交车站","address":""},{"poiid":"B2094655D26DA1F54798","title":"东盛公寓","lon":"121.52073","lat":"31.182514","category":"47","category_name":"住宅区","address":"上海浦三路821弄"},{"poiid":"B2094757D064A2F9469D","title":"欧亚美家具广场","lon":"121.51786","lat":"31.18522","category":"500","category_name":"未知分类","address":"浦东浦三路1515号(近三林世博家园)"},{"poiid":"B2094757D16FA2F44199","title":"新昌里公寓","lon":"121.518","lat":"31.1825","category":"47","category_name":"住宅区","address":"上海市浦东新区昌里东路307号"},{"poiid":"B2094757D06AA3FE4592","title":"红莲小区","lon":"121.52007","lat":"31.183779","category":"47","category_name":"住宅区","address":"浦三路775弄1-3号"},{"poiid":"B2094654DA6AA2F44693","title":"紫竹馨苑","lon":"121.51442","lat":"31.180164","category":"47","category_name":"住宅区","address":"上海市浦东新区昌里东路607号"},{"poiid":"B2094757D068A0F54099","title":"昌里东路南码头路","lon":"121.511899738","lat":"31.1840343163","category":"500","category_name":"未知分类","address":"上海昌里东路南码头路1136弄"},{"poiid":"B2094655D26BA1FF4498","title":"南码头路齐河路","lon":"121.51438","lat":"31.18344","category":"38","category_name":"公交车站","address":""},{"poiid":"B2094655D264AAF44799","title":"齐锦苑","lon":"121.52055","lat":"31.185266","category":"47","category_name":"住宅区","address":"齐河路1179弄1-21号"},{"poiid":"B2094655D265A4FC469D","title":"齐宏苑","lon":"121.51936","lat":"31.183542","category":"47","category_name":"住宅区","address":"浦三路783弄1-9号"},{"poiid":"B2094757D465A1F9429B","title":"永峰老鸭粉丝砂锅店 浦三路店","lon":"121.516612054","lat":"31.188769793","category":"87","category_name":"特色／地方风味餐厅","address":"浦东新区浦三路659号(近六里)"},{"poiid":"B2094655D26DA1F5469B","title":"锦南浦三小区","lon":"121.51864","lat":"31.187998","category":"47","category_name":"住宅区","address":"浦三路637弄50支弄1-44号"},{"poiid":"B2094654DA6AA2F9479D","title":"博文家园","lon":"121.51366","lat":"31.185698","category":"47","category_name":"住宅区","address":"南码头路1120弄1-16号"},{"poiid":"B2094655D26BA1FF449C","title":"南码头路昌里东路","lon":"121.51529","lat":"31.17986","category":"38","category_name":"公交车站","address":""},{"poiid":"B2094655D26BA2F4479C","title":"浦三路齐河路","lon":"121.51837","lat":"31.18447","category":"38","category_name":"公交车站","address":""},{"poiid":"B2094757D068A7F5409B","title":"京世日韩专业烫染店(昌里店)","lon":"121.51645","lat":"31.17933","category":"148","category_name":"美容美发店","address":"上海浦东新区昌里东路608号(近南码头路)  "},{"poiid":"B2094757D068A6FD409E","title":"六里","lon":"121.51491298","lat":"31.18516334","category":"500","category_name":"未知分类","address":"上海浦三路齐河路"},{"poiid":"B2094750D665A3F8499C","title":"段氏龙虾(浦三路店)","lon":"121.519","lat":"31.1821","category":"68","category_name":"快餐厅","address":"浦东新区浦三路843号(近昌里东路)"},{"poiid":"B2094757D069A5F9469F","title":"浦东中学","lon":"121.51712","lat":"31.18743","category":"55","category_name":"中学","address":"浦东新区浦三路648号(近六里)"},{"poiid":"B2094757D069A5F94598","title":"博爱家园","lon":"121.51139","lat":"31.184074","category":"500","category_name":"未知分类","address":"上海市浦东新区东明路355弄1号"},{"poiid":"B2094757D06FA4FA469B","title":"老盛昌苏州汤包馆(昌里东路店)","lon":"121.51682","lat":"31.17971","category":"68","category_name":"快餐厅","address":"浦东新区昌里东路624号(近南码头路)"},{"poiid":"B2094654DA6AA2F4459D","title":"上南中学北校","lon":"121.51528","lat":"31.18153","category":"55","category_name":"中学","address":"浦东新区南码头路1347号(近齐河路)"},{"poiid":"B2094654DA6AA2F9489C","title":"千百度酒店","lon":"121.51826","lat":"31.18369","category":"250","category_name":"公园户外","address":"浦东新区浦三路786弄30号(齐河路口)"},{"poiid":"B2094750D76CABF54893","title":"菌菇王火锅","lon":"121.518","lat":"31.1855","category":"86","category_name":"火锅店","address":"浦东新区浦三路716号(近齐河路)"},{"poiid":"B2094757D568AAFD489E","title":"逸翠公馆","lon":"121.521","lat":"31.1884","category":"47","category_name":"住宅区","address":"浦东南码头路1266弄(齐河路口)"},{"poiid":"B2094654DA6AA2F94092","title":"齐二小区","lon":"121.51333","lat":"31.183537","category":"47","category_name":"住宅区","address":"南码头路1186弄"},{"poiid":"B2094655D26DA1F5439D","title":"重庆鸡公煲(浦三路)","lon":"121.51804","lat":"31.18575","category":"71","category_name":"四川菜","address":"浦东新区浦三路151号(近浦东南路)"},{"poiid":"B2094654DB69A7F84392","title":"东丽苑","lon":"121.51616","lat":"31.186235","category":"47","category_name":"住宅区","address":"浦三路704弄1-12号"},{"poiid":"B2094654DA6AA2F9419B","title":"齐河三小区","lon":"121.51544","lat":"31.18379","category":"47","category_name":"住宅区","address":"南码头路1187弄"},{"poiid":"B2094757D068A7F9439C","title":"昌里小区","lon":"121.52139987948","lat":"31.183552664855","category":"47","category_name":"住宅区","address":"上海浦东新区南码头路1521弄(近邹平路)"},{"poiid":"B2094750DA6EABFF4398","title":"上海振华重工(集团)股份有限公司","lon":"121.515151","lat":"31.185384","category":"263","category_name":"公司","address":"东方路3261号"},{"poiid":"B2094654DA6AA2F9439E","title":"华业翠都","lon":"121.51575","lat":"31.184666","category":"47","category_name":"住宅区","address":"上海市浦东新区齐河路909弄"},{"poiid":"B2094654DA6AA1FE4298","title":"砂锅麻辣烫","lon":"121.51778","lat":"31.18575","category":"68","category_name":"快餐厅","address":"浦东新区浦三路718号(近齐河路)"},{"poiid":"B2094654DA6AA2F94599","title":"南码头社区卫生服务中心","lon":"121.51735","lat":"31.18652","category":"162","category_name":"医院","address":"浦三路696"},{"poiid":"B2094654DA6AA2F94792","title":"怡泰家苑","lon":"121.51507","lat":"31.186222","category":"47","category_name":"住宅区","address":"上海市浦东新区浦三路688号"},{"poiid":"B2094655D26FA1FE439A","title":"十泽庙","lon":"121.51721","lat":"31.18448","category":"244","category_name":"寺庙道观","address":""},{"poiid":"B2094757D06AAAFD489A","title":"上苏房特色私房菜","lon":"121.51837173","lat":"31.184875334","category":"75","category_name":"浙江菜","address":"上海市浦东新区浦三路739号"},{"poiid":"B2094757D065A2FD4792","title":"浦三路","lon":"121.517931","lat":"31.185628","category":"500","category_name":"未知分类","address":"上海浦三路六里车站"},{"poiid":"B2094757D16DA7FE4692","title":"六里地段医院","lon":"121.51763","lat":"31.18627","category":"162","category_name":"医院","address":"浦东新区浦三路696号(近东方路)"},{"poiid":"B2094654DA6AA2F9499A","title":"轻工六里小区","lon":"121.51756","lat":"31.182842","category":"47","category_name":"住宅区","address":"浦三路786弄1-36号"},{"poiid":"B2094655D268A2FE459C","title":"道日增辉","lon":"121.51702","lat":"31.1844","category":"244","category_name":"寺庙道观","address":""},{"poiid":"B2094655D268A2FE459E","title":"浦三路724弄小区","lon":"121.51741","lat":"31.18547","category":"47","category_name":"住宅区","address":"浦三路724弄11-12号"},{"poiid":"B2094757DA65A5FB449A","title":"上海海上风连锁酒店绿洲大酒店","lon":"121.5182438","lat":"31.18502217","category":"215","category_name":"三星级宾馆","address":"浦东新区浦三路739号"},{"poiid":"B2094757D06AA6FF409C","title":"东明苑","lon":"121.51119","lat":"31.183407","category":"47","category_name":"住宅区","address":"东明苑位于浦东南码头路1186弄130支弄35,34,33号"},{"poiid":"B2094655D26DA1F54792","title":"六里二村(南门)","lon":"121.51924","lat":"31.18544","category":"47","category_name":"住宅区","address":""},{"poiid":"B2094757D16CA2FB409A","title":"豪大大鸡排","lon":"121.516","lat":"31.187","category":"68","category_name":"快餐厅","address":"浦东新区高科西路1147号(近浦三路)"},{"poiid":"B2094655D26DA1F4469F","title":"绿洲小区","lon":"121.52009","lat":"31.1863","category":"47","category_name":"住宅区","address":"浦三路六里二村13-33号"},{"poiid":"B2094654DA6AA2F94199","title":"重庆鸡公煲(南码头路)","lon":"121.51459","lat":"31.18345","category":"257","category_name":"中餐厅","address":"南码头路1193号"},{"poiid":"B2094655D26BA1FF449E","title":"南码头路高科西路","lon":"121.51402","lat":"31.1862","category":"38","category_name":"公交车站","address":""},{"poiid":"B2094654DA6AA1FC4499","title":"可的(浦三路)","lon":"121.51775","lat":"31.18647","category":"117","category_name":"便民商店/便利店","address":"浦三路707"},{"poiid":"B2094655D36CA2FE479C","title":"齐河路南码头路","lon":"121.51384","lat":"31.18235","category":"38","category_name":"公交车站","address":""},{"poiid":"B2094655D26DA1F54798","title":"东盛公寓","lon":"121.52073","lat":"31.182514","category":"47","category_name":"住宅区","address":"上海浦三路821弄"},{"poiid":"B2094757D064A2F9469D","title":"欧亚美家具广场","lon":"121.51786","lat":"31.18522","category":"500","category_name":"未知分类","address":"浦东浦三路1515号(近三林世博家园)"},{"poiid":"B2094757D16FA2F44199","title":"新昌里公寓","lon":"121.518","lat":"31.1825","category":"47","category_name":"住宅区","address":"上海市浦东新区昌里东路307号"},{"poiid":"B2094757D06AA3FE4592","title":"红莲小区","lon":"121.52007","lat":"31.183779","category":"47","category_name":"住宅区","address":"浦三路775弄1-3号"},{"poiid":"B2094654DA6AA2F44693","title":"紫竹馨苑","lon":"121.51442","lat":"31.180164","category":"47","category_name":"住宅区","address":"上海市浦东新区昌里东路607号"},{"poiid":"B2094757D068A0F54099","title":"昌里东路南码头路","lon":"121.511899738","lat":"31.1840343163","category":"500","category_name":"未知分类","address":"上海昌里东路南码头路1136弄"},{"poiid":"B2094655D26BA1FF4498","title":"南码头路齐河路","lon":"121.51438","lat":"31.18344","category":"38","category_name":"公交车站","address":""},{"poiid":"B2094655D264AAF44799","title":"齐锦苑","lon":"121.52055","lat":"31.185266","category":"47","category_name":"住宅区","address":"齐河路1179弄1-21号"},{"poiid":"B2094655D265A4FC469D","title":"齐宏苑","lon":"121.51936","lat":"31.183542","category":"47","category_name":"住宅区","address":"浦三路783弄1-9号"},{"poiid":"B2094757D465A1F9429B","title":"永峰老鸭粉丝砂锅店 浦三路店","lon":"121.516612054","lat":"31.188769793","category":"87","category_name":"特色／地方风味餐厅","address":"浦东新区浦三路659号(近六里)"},{"poiid":"B2094655D26DA1F5469B","title":"锦南浦三小区","lon":"121.51864","lat":"31.187998","category":"47","category_name":"住宅区","address":"浦三路637弄50支弄1-44号"},{"poiid":"B2094654DA6AA2F9479D","title":"博文家园","lon":"121.51366","lat":"31.185698","category":"47","category_name":"住宅区","address":"南码头路1120弄1-16号"}]