[{"poiid":"B2094757D06FA3FA4399","title":"海神诺富特大酒店","lon":"121.52459373247143","lat":"31.24026721198827","category":"214","category_name":"四星级宾馆","address":"浦东新区浦东大道728号海神诺富特大酒店5楼(近福山路)"},{"poiid":"B2094654DA69AAF9479C","title":"上海海事职业技术学院","lon":"121.52937","lat":"31.23919","category":"671","category_name":"高校中心点","address":"浦东新区源深路158号(乳山路源深路)"},{"poiid":"B2094757D06FA3FF409B","title":"星巴克(航运金融大厦店)","lon":"121.524694","lat":"31.240575","category":"260","category_name":"其他","address":"浦东新区浦东大道720号国际航运金融大厦1楼(近福山路)"},{"poiid":"B209475CD564A7F84392","title":"上海滩浦东香格里拉店","lon":"121.50058","lat":"31.23634","category":"119","category_name":"商场","address":"浦东富成路33号香格里拉酒店内大堂层"},{"poiid":"B2094757D06FA1FB4099","title":"国际航运金融大厦","lon":"121.531","lat":"31.246","category":"46","category_name":"楼宇","address":"越秀区广州沿江中路298号"},{"poiid":"B2094757D06AAAFE4598","title":"陸家嘴國金百貨Ifc","lon":"121.53044098","lat":"31.241297536","category":"500","category_name":"未知分类","address":"上海陸家嘴國金百貨Ifc"},{"poiid":"B2094655D26EA4FA4298","title":"旋宫50――海神诺富特旋转餐厅","lon":"121.52469","lat":"31.23947","category":"247","category_name":"餐饮美食","address":"浦东新区浦东大道728号海神诺富特大酒店50楼"},{"poiid":"B2094757D06FA4F8469A","title":"东方海港大酒店","lon":"121.52512","lat":"31.23839","category":"72","category_name":"广东菜","address":"浦东新区福山路33号建工大厦1-3楼(近栖霞路)"},{"poiid":"B2094757D16FA6F9429D","title":"大隐国际青年旅舍","lon":"121.52725","lat":"31.24011","category":"216","category_name":"经济型连锁酒店","address":"浦东新区浦东大道834弄840号甲(近源深路)"},{"poiid":"B2094757D069A2FE4098","title":"慈铭健康体检(浦东大道门诊部)","lon":"121.52276","lat":"31.24064","category":"162","category_name":"医院","address":"浦东新区浦东大道637号同科公寓2楼"},{"poiid":"B2094654DA69AAFB4798","title":"裕景国际","lon":"121.52645574206","lat":"31.248226919703","category":"46","category_name":"楼宇","address":"东方路69号"},{"poiid":"B2094757D06FA7FA4999","title":"航科大厦","lon":"121.52903224","lat":"31.240261721","category":"46","category_name":"楼宇","address":"昌平区回龙观镇国际信息产业基地高新二街"},{"poiid":"B2094757D06FAAFC4093","title":"张生记(浦东店)","lon":"121.53079","lat":"31.24146","category":"75","category_name":"浙江菜","address":"浦东新区浦东大道1085号中信五牛广场5楼(近源深路)"},{"poiid":"B2094757D06AA4F9459C","title":"豪德万源大酒店","lon":"121.52222823","lat":"31.24150209","category":"217","category_name":"旅馆招待所","address":"浦东新区浦东大道599号(近东方路)"},{"poiid":"B2094757D069A7F5479D","title":"豪享来上海福山店","lon":"121.5257","lat":"31.2413","category":"247","category_name":"餐饮美食","address":"上海市浦东大道800号福山分店"},{"poiid":"B2094654DA69A7FB419A","title":"崂山三四村","lon":"121.524","lat":"31.2422","category":"47","category_name":"住宅区","address":"栖霞路76号"},{"poiid":"B2094757D164A7F9479C","title":"建工大厦","lon":"121.531714","lat":"31.244747","category":"46","category_name":"楼宇","address":"上海市闵行区莲花南路1500弄"},{"poiid":"B2094655D26AABFA479C","title":"上海中信五牛城酒店式公寓","lon":"121.53102","lat":"31.24206","category":"250","category_name":"公园户外","address":"浦东新区浦东大道1089号(浦东大道华开路)"},{"poiid":"B2094654DA69A0F4429F","title":"普联大厦","lon":"121.527","lat":"31.2405","category":"46","category_name":"楼宇","address":"上海市虹口区四平路777号"},{"poiid":"B2094655D26BA2F5469E","title":"浦东大道源深路","lon":"121.52843","lat":"31.24072","category":"38","category_name":"公交车站","address":""},{"poiid":"B2094757D069AAF4499E","title":"上海贝尔股份有限公司","lon":"121.525697423","lat":"31.243682444","category":"46","category_name":"楼宇","address":"上海浦东新区金桥出口加工区宁桥路388号"},{"poiid":"B2094757D065A1FD429F","title":"交大附中浦东实验高中","lon":"121.526867","lat":"31.240447","category":"253","category_name":"校园生活","address":"上海浦东大道830号"},{"poiid":"B2094757D569A3FE4993","title":"天安诚韩国料理","lon":"121.52588677","lat":"31.24044623","category":"96","category_name":"韩国料理","address":"浦东新区浦东大道808号(近福山路)"},{"poiid":"B2094757D06BA2FC479E","title":"浦东大道民生路车站","lon":"121.525560238","lat":"31.2427111992","category":"38","category_name":"公交车站","address":"上海浦东大道民生路"},{"poiid":"B2094757D06FAAF94299","title":"潍坊六村","lon":"121.526","lat":"31.242","category":"252","category_name":"楼宇机构","address":"崂山东路645弄"},{"poiid":"B2094654DB64A6F44092","title":"如家快捷酒店(上海陆家嘴店)","lon":"121.52216","lat":"31.24182","category":"216","category_name":"经济型连锁酒店","address":"上海市浦东新区昌邑路569号(近东方路)"},{"poiid":"B2094750D66DA1F4409E","title":"家东苑","lon":"121.530639","lat":"31.241127","category":"47","category_name":"住宅区","address":"浦东新区浦东大道906号(近源深路)"},{"poiid":"B2094654DA69AAF94592","title":"湘情酒店","lon":"121.5282","lat":"31.24052","category":"77","category_name":"湖南菜","address":"浦东新区浦东大道844号(近源深路)"},{"poiid":"B2094757D069A3F54193","title":"会元馆","lon":"121.52176","lat":"31.2405","category":"72","category_name":"广东菜","address":"浦东新区浦东大道599号豪德万源大酒店2楼(近东方路)"},{"poiid":"B2094757D165A2FA4492","title":"世纪大道东方路","lon":"121.52246773","lat":"31.239912506","category":"500","category_name":"未知分类","address":"上海浦东"},{"poiid":"B2094757D064A5F44198","title":"崂山六村","lon":"121.524","lat":"31.2442","category":"500","category_name":"未知分类","address":"上海浦东大道290弄"},{"poiid":"B2094757D16BA3FB4299","title":"星巴克 STARBUCKS (海神诺富特店)","lon":"121.524689","lat":"31.239472","category":"247","category_name":"餐饮美食","address":"上海浦东福山路33号海神诺富特大酒店"},{"poiid":"B2094757D069A6F8419A","title":"沁源茶楼","lon":"121.52162933","lat":"31.240867614","category":"260","category_name":"其他","address":"浦东新区浦东大道569号(近东方路)"},{"poiid":"B2094654DB69A0F9499C","title":"泰和茶馆","lon":"121.52159","lat":"31.24083","category":"66","category_name":"茶艺馆","address":"浦东新区浦东大道569号"},{"poiid":"B2094654DB6BAAFE4298","title":"良丰大厦","lon":"121.525","lat":"31.2489","category":"46","category_name":"楼宇","address":"松江区工业区鼎源路广富林路路口"},{"poiid":"B2094757D064A1FE4698","title":"崂山四村","lon":"121.525","lat":"31.2416","category":"252","category_name":"楼宇机构","address":"上海南泉北路乳山路"},{"poiid":"B2094757D06AA2F8429B","title":"哈尔滨饺子坊","lon":"121.530711","lat":"31.241021","category":"68","category_name":"快餐厅","address":"浦东新区浦东大道916号(近源深路)"},{"poiid":"B2094655D26DA7FA489F","title":"陈家门小区","lon":"121.52481","lat":"31.24162","category":"47","category_name":"住宅区","address":"浦东大道691弄"},{"poiid":"B2094753D76DABFB479B","title":"东方私宴会所","lon":"121.52494","lat":"31.242126","category":"500","category_name":"未知分类","address":"上海市 浦东新区滨江大道1658号"},{"poiid":"B2094654DA69AAFB449B","title":"王家小厨","lon":"121.524031054","lat":"31.240960793","category":"76","category_name":"上海菜","address":"浦东新区浦东大道651弄13号(昌邑路)"},{"poiid":"B2094655D26AABFF4793","title":"上海雅客滨江酒店式服务公寓","lon":"121.52151","lat":"31.2412","category":"250","category_name":"公园户外","address":"浦东新区昌邑路588弄金隆置地大厦内(近东方路)"},{"poiid":"B2094757D065A2FE4099","title":"名门滨江苑","lon":"121.53034","lat":"31.24243","category":"47","category_name":"住宅区","address":"上海市浦东新区浦东大道1093弄"},{"poiid":"B2094757D168A1FF4693","title":"越南共和国驻沪总领事馆","lon":"121.53028473","lat":"31.240706523","category":"500","category_name":"未知分类","address":"上海浦东大道900号华辰金融中心三楼"},{"poiid":"B2094655D26DA1FF4199","title":"VIP小区(南门)","lon":"121.52541","lat":"31.24115","category":"47","category_name":"住宅区","address":"浦东大道727弄1-3号"},{"poiid":"B2094757D16EA3F9449C","title":"海神诺富特art 50海鲜自助","lon":"121.524750738","lat":"31.2400965104","category":"247","category_name":"餐饮美食","address":"上海市浦东新区"},{"poiid":"B2094654DA69AAF4439E","title":"阳升公寓许家厅","lon":"121.52281","lat":"31.24274","category":"47","category_name":"住宅区","address":"许家厅24-56号"},{"poiid":"B2094654DA69AAFB449F","title":"海悦滨江酒店公寓","lon":"121.52151","lat":"31.24121","category":"250","category_name":"公园户外","address":"上海市浦东新区昌邑路588号(近东方路,金隆置地大厦内,)"},{"poiid":"B2094655D26DA2FB489E","title":"上海港工青年公寓","lon":"121.52482","lat":"31.241215","category":"47","category_name":"住宅区","address":"浦东大道691弄10幢27-28号"},{"poiid":"B2094757D66AA4FE479A","title":"东北菜馆","lon":"121.52464836441","lat":"31.239453960904","category":"82","category_name":"东北菜","address":"浦东新区栖霞路51号(近南泉北路)"},{"poiid":"B2094655D36CA3FD439A","title":"上海交通大学附属中学浦东实验高中","lon":"121.52655","lat":"31.23988","category":"55","category_name":"中学","address":""},{"poiid":"B2094757D06FA3FA4399","title":"海神诺富特大酒店","lon":"121.52459373247143","lat":"31.24026721198827","category":"214","category_name":"四星级宾馆","address":"浦东新区浦东大道728号海神诺富特大酒店5楼(近福山路)"},{"poiid":"B2094654DA69AAF9479C","title":"上海海事职业技术学院","lon":"121.52937","lat":"31.23919","category":"671","category_name":"高校中心点","address":"浦东新区源深路158号(乳山路源深路)"},{"poiid":"B2094757D06FA3FF409B","title":"星巴克(航运金融大厦店)","lon":"121.524694","lat":"31.240575","category":"260","category_name":"其他","address":"浦东新区浦东大道720号国际航运金融大厦1楼(近福山路)"},{"poiid":"B209475CD564A7F84392","title":"上海滩浦东香格里拉店","lon":"121.50058","lat":"31.23634","category":"119","category_name":"商场","address":"浦东富成路33号香格里拉酒店内大堂层"},{"poiid":"B2094757D06FA1FB4099","title":"国际航运金融大厦","lon":"121.531","lat":"31.246","category":"46","category_name":"楼宇","address":"越秀区广州沿江中路298号"},{"poiid":"B2094757D06AAAFE4598","title":"陸家嘴國金百貨Ifc","lon":"121.53044098","lat":"31.241297536","category":"500","category_name":"未知分类","address":"上海陸家嘴國金百貨Ifc"},{"poiid":"B2094655D26EA4FA4298","title":"旋宫50――海神诺富特旋转餐厅","lon":"121.52469","lat":"31.23947","category":"247","category_name":"餐饮美食","address":"浦东新区浦东大道728号海神诺富特大酒店50楼"},{"poiid":"B2094757D06FA4F8469A","title":"东方海港大酒店","lon":"121.52512","lat":"31.23839","category":"72","category_name":"广东菜","address":"浦东新区福山路33号建工大厦1-3楼(近栖霞路)"},{"poiid":"B2094757D16FA6F9429D","title":"大隐国际青年旅舍","lon":"121.52725","lat":"31.24011","category":"216","category_name":"经济型连锁酒店","address":"浦东新区浦东大道834弄840号甲(近源深路)"},{"poiid":"B2094757D069A2FE4098","title":"慈铭健康体检(浦东大道门诊部)","lon":"121.52276","lat":"31.24064","category":"162","category_name":"医院","address":"浦东新区浦东大道637号同科公寓2楼"},{"poiid":"B2094654DA69AAFB4798","title":"裕景国际","lon":"121.52645574206","lat":"31.248226919703","category":"46","category_name":"楼宇","address":"东方路69号"},{"poiid":"B2094757D06FA7FA4999","title":"航科大厦","lon":"121.52903224","lat":"31.240261721","category":"46","category_name":"楼宇","address":"昌平区回龙观镇国际信息产业基地高新二街"},{"poiid":"B2094757D06FAAFC4093","title":"张生记(浦东店)","lon":"121.53079","lat":"31.24146","category":"75","category_name":"浙江菜","address":"浦东新区浦东大道1085号中信五牛广场5楼(近源深路)"},{"poiid":"B2094757D06AA4F9459C","title":"豪德万源大酒店","lon":"121.52222823","lat":"31.24150209","category":"217","category_name":"旅馆招待所","address":"浦东新区浦东大道599号(近东方路)"},{"poiid":"B2094757D069A7F5479D","title":"豪享来上海福山店","lon":"121.5257","lat":"31.2413","category":"247","category_name":"餐饮美食","address":"上海市浦东大道800号福山分店"},{"poiid":"B2094654DA69A7FB419A","title":"崂山三四村","lon":"121.524","lat":"31.2422","category":"47","category_name":"住宅区","address":"栖霞路76号"},{"poiid":"B2094757D164A7F9479C","title":"建工大厦","lon":"121.531714","lat":"31.244747","category":"46","category_name":"楼宇","address":"上海市闵行区莲花南路1500弄"},{"poiid":"B2094655D26AABFA479C","title":"上海中信五牛城酒店式公寓","lon":"121.53102","lat":"31.24206","category":"250","category_name":"公园户外","address":"浦东新区浦东大道1089号(浦东大道华开路)"},{"poiid":"B2094654DA69A0F4429F","title":"普联大厦","lon":"121.527","lat":"31.2405","category":"46","category_name":"楼宇","address":"上海市虹口区四平路777号"},{"poiid":"B2094655D26BA2F5469E","title":"浦东大道源深路","lon":"121.52843","lat":"31.24072","category":"38","category_name":"公交车站","address":""},{"poiid":"B2094757D069AAF4499E","title":"上海贝尔股份有限公司","lon":"121.525697423","lat":"31.243682444","category":"46","category_name":"楼宇","address":"上海浦东新区金桥出口加工区宁桥路388号"},{"poiid":"B2094757D065A1FD429F","title":"交大附中浦东实验高中","lon":"121.526867","lat":"31.240447","category":"253","category_name":"校园生活","address":"上海浦东大道830号"},{"poiid":"B2094757D569A3FE4993","title":"天安诚韩国料理","lon":"121.52588677","lat":"31.24044623","category":"96","category_name":"韩国料理","address":"浦东新区浦东大道808号(近福山路)"},{"poiid":"B2094757D06BA2FC479E","title":"浦东大道民生路车站","lon":"121.525560238","lat":"31.2427111992","category":"38","category_name":"公交车站","address":"上海浦东大道民生路"},{"poiid":"B2094757D06FAAF94299","title":"潍坊六村","lon":"121.526","lat":"31.242","category":"252","category_name":"楼宇机构","address":"崂山东路645弄"},{"poiid":"B2094654DB64A6F44092","title":"如家快捷酒店(上海陆家嘴店)","lon":"121.52216","lat":"31.24182","category":"216","category_name":"经济型连锁酒店","address":"上海市浦东新区昌邑路569号(近东方路)"},{"poiid":"B2094750D66DA1F4409E","title":"家东苑","lon":"121.530639","lat":"31.241127","category":"47","category_name":"住宅区","address":"浦东新区浦东大道906号(近源深路)"},{"poiid":"B2094654DA69AAF94592","title":"湘情酒店","lon":"121.5282","lat":"31.24052","category":"77","category_name":"湖南菜","address":"浦东新区浦东大道844号(近源深路)"},{"poiid":"B2094757D069A3F54193","title":"会元馆","lon":"121.52176","lat":"31.2405","category":"72","category_name":"广东菜","address":"浦东新区浦东大道599号豪德万源大酒店2楼(近东方路)"},{"poiid":"B2094757D165A2FA4492","title":"世纪大道东方路","lon":"121.52246773","lat":"31.239912506","category":"500","category_name":"未知分类","address":"上海浦东"},{"poiid":"B2094757D064A5F44198","title":"崂山六村","lon":"121.524","lat":"31.2442","category":"500","category_name":"未知分类","address":"上海浦东大道290弄"},{"poiid":"B2094757D16BA3FB4299","title":"星巴克 STARBUCKS (海神诺富特店)","lon":"121.524689","lat":"31.239472","category":"247","category_name":"餐饮美食","address":"上海浦东福山路33号海神诺富特大酒店"},{"poiid":"B2094757D069A6F8419A","title":"沁源茶楼","lon":"121.52162933","lat":"31.240867614","category":"260","category_name":"其他","address":"浦东新区浦东大道569号(近东方路)"},{"poiid":"B2094654DB69A0F9499C","title":"泰和茶馆","lon":"121.52159","lat":"31.24083","category":"66","category_name":"茶艺馆","address":"浦东新区浦东大道569号"},{"poiid":"B2094654DB6BAAFE4298","title":"良丰大厦","lon":"121.525","lat":"31.2489","category":"46","category_name":"楼宇","address":"松江区工业区鼎源路广富林路路口"},{"poiid":"B2094757D064A1FE4698","title":"崂山四村","lon":"121.525","lat":"31.2416","category":"252","category_name":"楼宇机构","address":"上海南泉北路乳山路"},{"poiid":"B2094757D06AA2F8429B","title":"哈尔滨饺子坊","lon":"121.530711","lat":"31.241021","category":"68","category_name":"快餐厅","address":"浦东新区浦东大道916号(近源深路)"},{"poiid":"B2094655D26DA7FA489F","title":"陈家门小区","lon":"121.52481","lat":"31.24162","category":"47","category_name":"住宅区","address":"浦东大道691弄"},{"poiid":"B2094753D76DABFB479B","title":"东方私宴会所","lon":"121.52494","lat":"31.242126","category":"500","category_name":"未知分类","address":"上海市 浦东新区滨江大道1658号"},{"poiid":"B2094654DA69AAFB449B","title":"王家小厨","lon":"121.524031054","lat":"31.240960793","category":"76","category_name":"上海菜","address":"浦东新区浦东大道651弄13号(昌邑路)"},{"poiid":"B2094655D26AABFF4793","title":"上海雅客滨江酒店式服务公寓","lon":"121.52151","lat":"31.2412","category":"250","category_name":"公园户外","address":"浦东新区昌邑路588弄金隆置地大厦内(近东方路)"},{"poiid":"B2094757D065A2FE4099","title":"名门滨江苑","lon":"121.53034","lat":"31.24243","category":"47","category_name":"住宅区","address":"上海市浦东新区浦东大道1093弄"},{"poiid":"B2094757D168A1FF4693","title":"越南共和国驻沪总领事馆","lon":"121.53028473","lat":"31.240706523","category":"500","category_name":"未知分类","address":"上海浦东大道900号华辰金融中心三楼"},{"poiid":"B2094655D26DA1FF4199","title":"VIP小区(南门)","lon":"121.52541","lat":"31.24115","category":"47","category_name":"住宅区","address":"浦东大道727弄1-3号"},{"poiid":"B2094757D16EA3F9449C","title":"海神诺富特art 50海鲜自助","lon":"121.524750738","lat":"31.2400965104","category":"247","category_name":"餐饮美食","address":"上海市浦东新区"},{"poiid":"B2094654DA69AAF4439E","title":"阳升公寓许家厅","lon":"121.52281","lat":"31.24274","category":"47","category_name":"住宅区","address":"许家厅24-56号"},{"poiid":"B2094654DA69AAFB449F","title":"海悦滨江酒店公寓","lon":"121.52151","lat":"31.24121","category":"250","category_name":"公园户外","address":"上海市浦东新区昌邑路588号(近东方路,金隆置地大厦内,)"},{"poiid":"B2094655D26DA2FB489E","title":"上海港工青年公寓","lon":"121.52482","lat":"31.241215","category":"47","category_name":"住宅区","address":"浦东大道691弄10幢27-28号"},{"poiid":"B2094757D66AA4FE479A","title":"东北菜馆","lon":"121.52464836441","lat":"31.239453960904","category":"82","category_name":"东北菜","address":"浦东新区栖霞路51号(近南泉北路)"},{"poiid":"B2094655D36CA3FD439A","title":"上海交通大学附属中学浦东实验高中","lon":"121.52655","lat":"31.23988","category":"55","category_name":"中学","address":""},{"poiid":"B2094757D06FA3FA4399","title":"海神诺富特大酒店","lon":"121.52459373247143","lat":"31.24026721198827","category":"214","category_name":"四星级宾馆","address":"浦东新区浦东大道728号海神诺富特大酒店5楼(近福山路)"},{"poiid":"B2094654DA69AAF9479C","title":"上海海事职业技术学院","lon":"121.52937","lat":"31.23919","category":"671","category_name":"高校中心点","address":"浦东新区源深路158号(乳山路源深路)"},{"poiid":"B2094757D06FA3FF409B","title":"星巴克(航运金融大厦店)","lon":"121.524694","lat":"31.240575","category":"260","category_name":"其他","address":"浦东新区浦东大道720号国际航运金融大厦1楼(近福山路)"},{"poiid":"B209475CD564A7F84392","title":"上海滩浦东香格里拉店","lon":"121.50058","lat":"31.23634","category":"119","category_name":"商场","address":"浦东富成路33号香格里拉酒店内大堂层"},{"poiid":"B2094757D06FA1FB4099","title":"国际航运金融大厦","lon":"121.531","lat":"31.246","category":"46","category_name":"楼宇","address":"越秀区广州沿江中路298号"},{"poiid":"B2094757D06AAAFE4598","title":"陸家嘴國金百貨Ifc","lon":"121.53044098","lat":"31.241297536","category":"500","category_name":"未知分类","address":"上海陸家嘴國金百貨Ifc"},{"poiid":"B2094655D26EA4FA4298","title":"旋宫50――海神诺富特旋转餐厅","lon":"121.52469","lat":"31.23947","category":"247","category_name":"餐饮美食","address":"浦东新区浦东大道728号海神诺富特大酒店50楼"},{"poiid":"B2094757D06FA4F8469A","title":"东方海港大酒店","lon":"121.52512","lat":"31.23839","category":"72","category_name":"广东菜","address":"浦东新区福山路33号建工大厦1-3楼(近栖霞路)"},{"poiid":"B2094757D16FA6F9429D","title":"大隐国际青年旅舍","lon":"121.52725","lat":"31.24011","category":"216","category_name":"经济型连锁酒店","address":"浦东新区浦东大道834弄840号甲(近源深路)"},{"poiid":"B2094757D069A2FE4098","title":"慈铭健康体检(浦东大道门诊部)","lon":"121.52276","lat":"31.24064","category":"162","category_name":"医院","address":"浦东新区浦东大道637号同科公寓2楼"},{"poiid":"B2094654DA69AAFB4798","title":"裕景国际","lon":"121.52645574206","lat":"31.248226919703","category":"46","category_name":"楼宇","address":"东方路69号"},{"poiid":"B2094757D06FA7FA4999","title":"航科大厦","lon":"121.52903224","lat":"31.240261721","category":"46","category_name":"楼宇","address":"昌平区回龙观镇国际信息产业基地高新二街"},{"poiid":"B2094757D06FAAFC4093","title":"张生记(浦东店)","lon":"121.53079","lat":"31.24146","category":"75","category_name":"浙江菜","address":"浦东新区浦东大道1085号中信五牛广场5楼(近源深路)"},{"poiid":"B2094757D06AA4F9459C","title":"豪德万源大酒店","lon":"121.52222823","lat":"31.24150209","category":"217","category_name":"旅馆招待所","address":"浦东新区浦东大道599号(近东方路)"},{"poiid":"B2094757D069A7F5479D","title":"豪享来上海福山店","lon":"121.5257","lat":"31.2413","category":"247","category_name":"餐饮美食","address":"上海市浦东大道800号福山分店"},{"poiid":"B2094654DA69A7FB419A","title":"崂山三四村","lon":"121.524","lat":"31.2422","category":"47","category_name":"住宅区","address":"栖霞路76号"},{"poiid":"B2094757D164A7F9479C","title":"建工大厦","lon":"121.531714","lat":"31.244747","category":"46","category_name":"楼宇","address":"上海市闵行区莲花南路1500弄"},{"poiid":"B2094655D26AABFA479C","title":"上海中信五牛城酒店式公寓","lon":"121.53102","lat":"31.24206","category":"250","category_name":"公园户外","address":"浦东新区浦东大道1089号(浦东大道华开路)"},{"poiid":"B2094654DA69A0F4429F","title":"普联大厦","lon":"121.527","lat":"31.2405","category":"46","category_name":"楼宇","address":"上海市虹口区四平路777号"},{"poiid":"B2094655D26BA2F5469E","title":"浦东大道源深路","lon":"121.52843","lat":"31.24072","category":"38","category_name":"公交车站","address":""},{"poiid":"B2094757D069AAF4499E","title":"上海贝尔股份有限公司","lon":"121.525697423","lat":"31.243682444","category":"46","category_name":"楼宇","address":"上海浦东新区金桥出口加工区宁桥路388号"},{"poiid":"B2094757D065A1FD429F","title":"交大附中浦东实验高中","lon":"121.526867","lat":"31.240447","category":"253","category_name":"校园生活","address":"上海浦东大道830号"},{"poiid":"B2094757D569A3FE4993","title":"天安诚韩国料理","lon":"121.52588677","lat":"31.24044623","category":"96","category_name":"韩国料理","address":"浦东新区浦东大道808号(近福山路)"},{"poiid":"B2094757D06BA2FC479E","title":"浦东大道民生路车站","lon":"121.525560238","lat":"31.2427111992","category":"38","category_name":"公交车站","address":"上海浦东大道民生路"},{"poiid":"B2094757D06FAAF94299","title":"潍坊六村","lon":"121.526","lat":"31.242","category":"252","category_name":"楼宇机构","address":"崂山东路645弄"},{"poiid":"B2094654DB64A6F44092","title":"如家快捷酒店(上海陆家嘴店)","lon":"121.52216","lat":"31.24182","category":"216","category_name":"经济型连锁酒店","address":"上海市浦东新区昌邑路569号(近东方路)"},{"poiid":"B2094750D66DA1F4409E","title":"家东苑","lon":"121.530639","lat":"31.241127","category":"47","category_name":"住宅区","address":"浦东新区浦东大道906号(近源深路)"},{"poiid":"B2094654DA69AAF94592","title":"湘情酒店","lon":"121.5282","lat":"31.24052","category":"77","category_name":"湖南菜","address":"浦东新区浦东大道844号(近源深路)"},{"poiid":"B2094757D069A3F54193","title":"会元馆","lon":"121.52176","lat":"31.2405","category":"72","category_name":"广东菜","address":"浦东新区浦东大道599号豪德万源大酒店2楼(近东方路)"},{"poiid":"B2094757D165A2FA4492","title":"世纪大道东方路","lon":"121.52246773","lat":"31.239912506","category":"500","category_name":"未知分类","address":"上海浦东"},{"poiid":"B2094757D064A5F44198","title":"崂山六村","lon":"121.524","lat":"31.2442","category":"500","category_name":"未知分类","address":"上海浦东大道290弄"},{"poiid":"B2094757D16BA3FB4299","title":"星巴克 STARBUCKS (海神诺富特店)","lon":"121.524689","lat":"31.239472","category":"247","category_name":"餐饮美食","address":"上海浦东福山路33号海神诺富特大酒店"},{"poiid":"B2094757D069A6F8419A","title":"沁源茶楼","lon":"121.52162933","lat":"31.240867614","category":"260","category_name":"其他","address":"浦东新区浦东大道569号(近东方路)"},{"poiid":"B2094654DB69A0F9499C","title":"泰和茶馆","lon":"121.52159","lat":"31.24083","category":"66","category_name":"茶艺馆","address":"浦东新区浦东大道569号"},{"poiid":"B2094654DB6BAAFE4298","title":"良丰大厦","lon":"121.525","lat":"31.2489","category":"46","category_name":"楼宇","address":"松江区工业区鼎源路广富林路路口"},{"poiid":"B2094757D064A1FE4698","title":"崂山四村","lon":"121.525","lat":"31.2416","category":"252","category_name":"楼宇机构","address":"上海南泉北路乳山路"},{"poiid":"B2094757D06AA2F8429B","title":"哈尔滨饺子坊","lon":"121.530711","lat":"31.241021","category":"68","category_name":"快餐厅","address":"浦东新区浦东大道916号(近源深路)"},{"poiid":"B2094655D26DA7FA489F","title":"陈家门小区","lon":"121.52481","lat":"31.24162","category":"47","category_name":"住宅区","address":"浦东大道691弄"},{"poiid":"B2094753D76DABFB479B","title":"东方私宴会所","lon":"121.52494","lat":"31.242126","category":"500","category_name":"未知分类","address":"上海市 浦东新区滨江大道1658号"},{"poiid":"B2094654DA69AAFB449B","title":"王家小厨","lon":"121.524031054","lat":"31.240960793","category":"76","category_name":"上海菜","address":"浦东新区浦东大道651弄13号(昌邑路)"},{"poiid":"B2094655D26AABFF4793","title":"上海雅客滨江酒店式服务公寓","lon":"121.52151","lat":"31.2412","category":"250","category_name":"公园户外","address":"浦东新区昌邑路588弄金隆置地大厦内(近东方路)"},{"poiid":"B2094757D065A2FE4099","title":"名门滨江苑","lon":"121.53034","lat":"31.24243","category":"47","category_name":"住宅区","address":"上海市浦东新区浦东大道1093弄"},{"poiid":"B2094757D168A1FF4693","title":"越南共和国驻沪总领事馆","lon":"121.53028473","lat":"31.240706523","category":"500","category_name":"未知分类","address":"上海浦东大道900号华辰金融中心三楼"},{"poiid":"B2094655D26DA1FF4199","title":"VIP小区(南门)","lon":"121.52541","lat":"31.24115","category":"47","category_name":"住宅区","address":"浦东大道727弄1-3号"},{"poiid":"B2094757D16EA3F9449C","title":"海神诺富特art 50海鲜自助","lon":"121.524750738","lat":"31.2400965104","category":"247","category_name":"餐饮美食","address":"上海市浦东新区"},{"poiid":"B2094654DA69AAF4439E","title":"阳升公寓许家厅","lon":"121.52281","lat":"31.24274","category":"47","category_name":"住宅区","address":"许家厅24-56号"},{"poiid":"B2094654DA69AAFB449F","title":"海悦滨江酒店公寓","lon":"121.52151","lat":"31.24121","category":"250","category_name":"公园户外","address":"上海市浦东新区昌邑路588号(近东方路,金隆置地大厦内,)"},{"poiid":"B2094655D26DA2FB489E","title":"上海港工青年公寓","lon":"121.52482","lat":"31.241215","category":"47","category_name":"住宅区","address":"浦东大道691弄10幢27-28号"},{"poiid":"B2094757D66AA4FE479A","title":"东北菜馆","lon":"121.52464836441","lat":"31.239453960904","category":"82","category_name":"东北菜","address":"浦东新区栖霞路51号(近南泉北路)"},{"poiid":"B2094655D36CA3FD439A","title":"上海交通大学附属中学浦东实验高中","lon":"121.52655","lat":"31.23988","category":"55","category_name":"中学","address":""}]