[{"poiid":"B2094654DA69A3FE4792","title":"上海东方艺术中心(Shanghai Oriental Art Center)","lon":"121.54141","lat":"31.22273","category":"180","category_name":"剧场","address":"上海浦东新区丁香路425号(近世纪大道)"},{"poiid":"B2094757D06FA3F84798","title":"浦东假日酒店","lon":"121.536","lat":"31.2292","category":"214","category_name":"四星级宾馆","address":"浦东新区东方路899号(近向城路)"},{"poiid":"B2094757D06FA2FA4193","title":"源深体育馆","lon":"121.536191683","lat":"31.2310137082","category":"220","category_name":"运动场所","address":"上海浦东源深路200号"},{"poiid":"B2094757D06FA2FA429A","title":"上海东方艺术中心Shanghai Oriental Art Center","lon":"121.54141842189642","lat":"31.22291030374493","category":"179","category_name":"音乐厅","address":"上海浦东新区丁香路425号"},{"poiid":"B2094757D06FA1F5479E","title":"通茂大酒店","lon":"121.53577","lat":"31.22589","category":"217","category_name":"旅馆招待所","address":"浦东新区松林路357号(近浦电路)"},{"poiid":"B2094757D06FA3FB429D","title":"浦东游泳馆(源深馆)","lon":"121.53847","lat":"31.23198","category":"231","category_name":"游泳馆","address":"浦东新区张杨路1458号源深体育中心内(近源深路)"},{"poiid":"B2094757D06FA6FE419D","title":"柚子林炭火烧肉(潍坊路店)","lon":"121.53636","lat":"31.22868","category":"269","category_name":"烧烤","address":"上海浦东新区潍坊路328号嘉瑞酒店1楼(近源深路)  "},{"poiid":"B2094757D06FA6F54999","title":"东怡大酒店","lon":"121.54299542","lat":"31.22411864","category":"217","category_name":"旅馆招待所","address":"浦东新区丁香路555号(东方艺术中心旁)"},{"poiid":"B2094757D06FA1F5459F","title":"中建大厦","lon":"121.54","lat":"31.2295","category":"46","category_name":"楼宇","address":"上海市浦东新区世纪大道1568号"},{"poiid":"B2094655D265A7FD4293","title":"中国钻石交易中心","lon":"121.53635","lat":"31.22442","category":"46","category_name":"楼宇","address":"世纪大道1701"},{"poiid":"B2094655D26AA0FB459F","title":"源深体育场","lon":"121.53635","lat":"31.2306","category":"247","category_name":"餐饮美食","address":"浦东新区深源路655号"},{"poiid":"B2094757D66FA0FC4292","title":"平壤高丽饭店","lon":"121.53491673","lat":"31.226411218","category":"247","category_name":"餐饮美食","address":"浦东新区松林路357号通茂大酒店1楼(近浦电路)"},{"poiid":"B2094757D06FABF44193","title":"长泰国际金融大厦","lon":"121.542","lat":"31.231","category":"46","category_name":"楼宇","address":"上海市浦东新区世纪大道1589号"},{"poiid":"B2094757D06FA5F8489D","title":"源深篮球公园","lon":"121.536632157","lat":"31.2295100303","category":"220","category_name":"运动场所","address":"浦东新区羽山路9号浦东源深体育中心6号门(潍坊路羽山路)"},{"poiid":"B2094757D06FA6FA469D","title":"重庆老火锅","lon":"121.54202","lat":"31.23087","category":"86","category_name":"火锅店","address":"浦东新区羽山路288号(近桃林路)"},{"poiid":"B2094654DA69A3FE489F","title":"浦东新区人民法院","lon":"121.54447","lat":"31.22483","category":"608","category_name":"法院","address":"上海市浦东新区丁香路611号"},{"poiid":"B2094757D068A3FA4993","title":"葛洲坝大厦","lon":"121.537088334","lat":"31.2252473955","category":"46","category_name":"楼宇","address":"徐汇区冠生园路223号"},{"poiid":"B2094757D16BA6F4449C","title":"地铁四号线世纪大道站","lon":"121.536668738","lat":"31.2244261764","category":"36","category_name":"地铁站","address":"上海市浦东新区世纪大道"},{"poiid":"B2094757D068A0F44198","title":"上海东方艺术中心-演奏厅(Shanghai Oriental Art Center - Performance Hall)","lon":"121.541374736","lat":"31.2227814309","category":"260","category_name":"其他","address":"上海浦东新区丁香路425号"},{"poiid":"B2094757D06FA0FB439F","title":"宝钢大厦","lon":"121.538","lat":"31.2278","category":"46","category_name":"楼宇","address":"朝阳区北三环东路与京顺路交接处路口北侧"},{"poiid":"B2094757D06FABFE439A","title":"宏嘉大厦","lon":"121.537","lat":"31.2307","category":"46","category_name":"楼宇","address":"上海浦东新区福山路388号"},{"poiid":"B2094655D26AABFC4993","title":"小南国海之源日式温泉(松林路店)","lon":"121.5355","lat":"31.22618","category":"247","category_name":"餐饮美食","address":"浦东新区松林路357号通茂大酒店2楼"},{"poiid":"B2094757D06FABFF4799","title":"老碗 源深店","lon":"121.537022054","lat":"31.229380793","category":"84","category_name":"西北菜","address":"浦东新区羽山路68号(近源深路)"},{"poiid":"B2094654DA6AA2FD4292","title":"东方国际科技大厦","lon":"121.537","lat":"31.2299","category":"46","category_name":"楼宇","address":"浦东新区向城路58号"},{"poiid":"B2094757D165AAF54892","title":"陆家嘴基金大厦","lon":"121.539","lat":"31.2302","category":"46","category_name":"楼宇","address":"上海竹林路101號"},{"poiid":"B2094752D569A1F5479D","title":"芥末日本料理","lon":"121.534682","lat":"31.226723","category":"247","category_name":"餐饮美食","address":"上海市浦东新区松林路357号通茂大酒店二楼西侧"},{"poiid":"B2094757D06FA6FD449B","title":"盛世年华花园","lon":"121.5390333","lat":"31.229134892","category":"47","category_name":"住宅区","address":"上海市浦东新区羽山路100弄"},{"poiid":"B2094654DA6AA3FB469F","title":"中达广场","lon":"121.536","lat":"31.2275","category":"46","category_name":"楼宇","address":"沈河北站路与北京街的交汇处"},{"poiid":"B2094654DA69ABF5489A","title":"陆家嘴钻石大厦","lon":"121.543","lat":"31.2305","category":"46","category_name":"楼宇","address":"中央商务区CBD22号"},{"poiid":"B2094757D06FA0FC4893","title":"上海市电力公司","lon":"121.53781276","lat":"31.224534954","category":"46","category_name":"楼宇","address":"上海源深路1122号"},{"poiid":"B2094655D26EA7FA4293","title":"苏先生海鲜渔庄 源深店","lon":"121.53480097364","lat":"31.232918552506","category":"260","category_name":"其他","address":"浦东新区源深路655号体育中心内(近张杨路)"},{"poiid":"B2094757D06FAAF94899","title":"同盛大厦","lon":"121.538","lat":"31.2292","category":"46","category_name":"楼宇","address":"黄浦区南京东路311号"},{"poiid":"B2094654DA6AA3F5479A","title":"钱江大厦","lon":"121.537","lat":"31.2286","category":"46","category_name":"楼宇","address":"浦东新区东方路971号"},{"poiid":"B2094655D26FA2F9439C","title":"新加坡泰国村鱼翅 浦东店","lon":"121.53573989868","lat":"31.228344021284","category":"72","category_name":"广东菜","address":"浦东新区潍坊路328号嘉瑞酒店内(近源深路)"},{"poiid":"B2094757D064AAFE4599","title":"易公馆","lon":"121.536671","lat":"31.228654","category":"72","category_name":"广东菜","address":"浦东新区源深路789号2楼(近羽山路)"},{"poiid":"B2094757D06AA3FF4998","title":"东方希望大厦","lon":"121.54448413658","lat":"31.229635061024","category":"46","category_name":"楼宇","address":"世纪大道1777号"},{"poiid":"B2094757D069A1F84599","title":"全华信息大厦","lon":"121.538","lat":"31.2304","category":"46","category_name":"楼宇","address":"黄陂区楚天大道与盘龙三路交汇处"},{"poiid":"B2094757D06FA5FB4192","title":"感智盲人保健会所(源深路店)","lon":"121.53671","lat":"31.22726","category":"149","category_name":"洗浴推拿场所","address":"浦东新区源深路836弄香榭丽舍花园18号中心会所楼底(近松林路)"},{"poiid":"B2094757D068A1F44199","title":"阿英煲(灵山路店)","lon":"121.53893","lat":"31.22548","category":"260","category_name":"其他","address":"上海浦东新区灵山路28号(近桃林路)  "},{"poiid":"B2094751D465A3F4489B","title":"镰仓pasta","lon":"121.538772","lat":"31.229763","category":"247","category_name":"餐饮美食","address":"浦东新区东方路796号96广场9号门2楼212单元(近世纪大道)"},{"poiid":"B2094654DB64A6FB449B","title":"莫泰268(上海羽山路店)","lon":"121.53953","lat":"31.23068","category":"250","category_name":"公园户外","address":"上海市浦东新区羽山路166号(近桃林路)"},{"poiid":"B2094757D068A3FF439A","title":"香榭丽花园","lon":"121.53545","lat":"31.227047","category":"47","category_name":"住宅区","address":"上海市浦东新区松林路333弄"},{"poiid":"B2094757D06FABF5459A","title":"新天国际大厦","lon":"121.538","lat":"31.2301","category":"46","category_name":"楼宇","address":"上海市长宁区遵义南路88号"},{"poiid":"B2094655D26EA2FF4192","title":"法国餐馆巴黎上海","lon":"121.54141","lat":"31.22273","category":"97","category_name":"法式菜品餐厅","address":"浦东新区丁香路425号上海东方艺术中心B1楼(近世纪大道)"},{"poiid":"B2094654DA6AA3F4459F","title":"一百杉杉大厦","lon":"121.536","lat":"31.2279","category":"46","category_name":"楼宇","address":"浦东临港新城主城区申港大道200号"},{"poiid":"B2094655D26BAAFD4493","title":"阿英煲","lon":"121.54076","lat":"31.22727","category":"257","category_name":"中餐厅","address":""},{"poiid":"B2094757D16CA5FF489F","title":"豆香园","lon":"121.540669682","lat":"31.2269513783","category":"196","category_name":"公园","address":"浦东新区灵山路412号(桃林路口)"},{"poiid":"B2094757D064A3FA429F","title":"红叶日本料理","lon":"121.5357","lat":"31.22605","category":"95","category_name":"日本料理","address":"上海浦东新区松林路357号通茂大酒店2楼(近向城路)  "},{"poiid":"B2094757D069A5FC439C","title":"陆家嘴花园二期(峰会)","lon":"121.54248869","lat":"31.230623372","category":"47","category_name":"住宅区","address":"陆家嘴花园二期(峰会)位于浦东桃林路815弄"},{"poiid":"B2094757D069A2FF419B","title":"上海市工商行政管理局浦东新区分局","lon":"121.544212738","lat":"31.2269792308","category":"250","category_name":"公园户外","address":"上海浦东新区杨高中路2900号(近桃林路)"},{"poiid":"B2094654DA69A3FE4792","title":"上海东方艺术中心(Shanghai Oriental Art Center)","lon":"121.54141","lat":"31.22273","category":"180","category_name":"剧场","address":"上海浦东新区丁香路425号(近世纪大道)"},{"poiid":"B2094757D06FA3F84798","title":"浦东假日酒店","lon":"121.536","lat":"31.2292","category":"214","category_name":"四星级宾馆","address":"浦东新区东方路899号(近向城路)"},{"poiid":"B2094757D06FA2FA4193","title":"源深体育馆","lon":"121.536191683","lat":"31.2310137082","category":"220","category_name":"运动场所","address":"上海浦东源深路200号"},{"poiid":"B2094757D06FA2FA429A","title":"上海东方艺术中心Shanghai Oriental Art Center","lon":"121.54141842189642","lat":"31.22291030374493","category":"179","category_name":"音乐厅","address":"上海浦东新区丁香路425号"},{"poiid":"B2094757D06FA1F5479E","title":"通茂大酒店","lon":"121.53577","lat":"31.22589","category":"217","category_name":"旅馆招待所","address":"浦东新区松林路357号(近浦电路)"},{"poiid":"B2094757D06FA3FB429D","title":"浦东游泳馆(源深馆)","lon":"121.53847","lat":"31.23198","category":"231","category_name":"游泳馆","address":"浦东新区张杨路1458号源深体育中心内(近源深路)"},{"poiid":"B2094757D06FA6FE419D","title":"柚子林炭火烧肉(潍坊路店)","lon":"121.53636","lat":"31.22868","category":"269","category_name":"烧烤","address":"上海浦东新区潍坊路328号嘉瑞酒店1楼(近源深路)  "},{"poiid":"B2094757D06FA6F54999","title":"东怡大酒店","lon":"121.54299542","lat":"31.22411864","category":"217","category_name":"旅馆招待所","address":"浦东新区丁香路555号(东方艺术中心旁)"},{"poiid":"B2094757D06FA1F5459F","title":"中建大厦","lon":"121.54","lat":"31.2295","category":"46","category_name":"楼宇","address":"上海市浦东新区世纪大道1568号"},{"poiid":"B2094655D265A7FD4293","title":"中国钻石交易中心","lon":"121.53635","lat":"31.22442","category":"46","category_name":"楼宇","address":"世纪大道1701"},{"poiid":"B2094655D26AA0FB459F","title":"源深体育场","lon":"121.53635","lat":"31.2306","category":"247","category_name":"餐饮美食","address":"浦东新区深源路655号"},{"poiid":"B2094757D66FA0FC4292","title":"平壤高丽饭店","lon":"121.53491673","lat":"31.226411218","category":"247","category_name":"餐饮美食","address":"浦东新区松林路357号通茂大酒店1楼(近浦电路)"},{"poiid":"B2094757D06FABF44193","title":"长泰国际金融大厦","lon":"121.542","lat":"31.231","category":"46","category_name":"楼宇","address":"上海市浦东新区世纪大道1589号"},{"poiid":"B2094757D06FA5F8489D","title":"源深篮球公园","lon":"121.536632157","lat":"31.2295100303","category":"220","category_name":"运动场所","address":"浦东新区羽山路9号浦东源深体育中心6号门(潍坊路羽山路)"},{"poiid":"B2094757D06FA6FA469D","title":"重庆老火锅","lon":"121.54202","lat":"31.23087","category":"86","category_name":"火锅店","address":"浦东新区羽山路288号(近桃林路)"},{"poiid":"B2094654DA69A3FE489F","title":"浦东新区人民法院","lon":"121.54447","lat":"31.22483","category":"608","category_name":"法院","address":"上海市浦东新区丁香路611号"},{"poiid":"B2094757D068A3FA4993","title":"葛洲坝大厦","lon":"121.537088334","lat":"31.2252473955","category":"46","category_name":"楼宇","address":"徐汇区冠生园路223号"},{"poiid":"B2094757D16BA6F4449C","title":"地铁四号线世纪大道站","lon":"121.536668738","lat":"31.2244261764","category":"36","category_name":"地铁站","address":"上海市浦东新区世纪大道"},{"poiid":"B2094757D068A0F44198","title":"上海东方艺术中心-演奏厅(Shanghai Oriental Art Center - Performance Hall)","lon":"121.541374736","lat":"31.2227814309","category":"260","category_name":"其他","address":"上海浦东新区丁香路425号"},{"poiid":"B2094757D06FA0FB439F","title":"宝钢大厦","lon":"121.538","lat":"31.2278","category":"46","category_name":"楼宇","address":"朝阳区北三环东路与京顺路交接处路口北侧"},{"poiid":"B2094757D06FABFE439A","title":"宏嘉大厦","lon":"121.537","lat":"31.2307","category":"46","category_name":"楼宇","address":"上海浦东新区福山路388号"},{"poiid":"B2094655D26AABFC4993","title":"小南国海之源日式温泉(松林路店)","lon":"121.5355","lat":"31.22618","category":"247","category_name":"餐饮美食","address":"浦东新区松林路357号通茂大酒店2楼"},{"poiid":"B2094757D06FABFF4799","title":"老碗 源深店","lon":"121.537022054","lat":"31.229380793","category":"84","category_name":"西北菜","address":"浦东新区羽山路68号(近源深路)"},{"poiid":"B2094654DA6AA2FD4292","title":"东方国际科技大厦","lon":"121.537","lat":"31.2299","category":"46","category_name":"楼宇","address":"浦东新区向城路58号"},{"poiid":"B2094757D165AAF54892","title":"陆家嘴基金大厦","lon":"121.539","lat":"31.2302","category":"46","category_name":"楼宇","address":"上海竹林路101號"},{"poiid":"B2094752D569A1F5479D","title":"芥末日本料理","lon":"121.534682","lat":"31.226723","category":"247","category_name":"餐饮美食","address":"上海市浦东新区松林路357号通茂大酒店二楼西侧"},{"poiid":"B2094757D06FA6FD449B","title":"盛世年华花园","lon":"121.5390333","lat":"31.229134892","category":"47","category_name":"住宅区","address":"上海市浦东新区羽山路100弄"},{"poiid":"B2094654DA6AA3FB469F","title":"中达广场","lon":"121.536","lat":"31.2275","category":"46","category_name":"楼宇","address":"沈河北站路与北京街的交汇处"},{"poiid":"B2094654DA69ABF5489A","title":"陆家嘴钻石大厦","lon":"121.543","lat":"31.2305","category":"46","category_name":"楼宇","address":"中央商务区CBD22号"},{"poiid":"B2094757D06FA0FC4893","title":"上海市电力公司","lon":"121.53781276","lat":"31.224534954","category":"46","category_name":"楼宇","address":"上海源深路1122号"},{"poiid":"B2094655D26EA7FA4293","title":"苏先生海鲜渔庄 源深店","lon":"121.53480097364","lat":"31.232918552506","category":"260","category_name":"其他","address":"浦东新区源深路655号体育中心内(近张杨路)"},{"poiid":"B2094757D06FAAF94899","title":"同盛大厦","lon":"121.538","lat":"31.2292","category":"46","category_name":"楼宇","address":"黄浦区南京东路311号"},{"poiid":"B2094654DA6AA3F5479A","title":"钱江大厦","lon":"121.537","lat":"31.2286","category":"46","category_name":"楼宇","address":"浦东新区东方路971号"},{"poiid":"B2094655D26FA2F9439C","title":"新加坡泰国村鱼翅 浦东店","lon":"121.53573989868","lat":"31.228344021284","category":"72","category_name":"广东菜","address":"浦东新区潍坊路328号嘉瑞酒店内(近源深路)"},{"poiid":"B2094757D064AAFE4599","title":"易公馆","lon":"121.536671","lat":"31.228654","category":"72","category_name":"广东菜","address":"浦东新区源深路789号2楼(近羽山路)"},{"poiid":"B2094757D06AA3FF4998","title":"东方希望大厦","lon":"121.54448413658","lat":"31.229635061024","category":"46","category_name":"楼宇","address":"世纪大道1777号"},{"poiid":"B2094757D069A1F84599","title":"全华信息大厦","lon":"121.538","lat":"31.2304","category":"46","category_name":"楼宇","address":"黄陂区楚天大道与盘龙三路交汇处"},{"poiid":"B2094757D06FA5FB4192","title":"感智盲人保健会所(源深路店)","lon":"121.53671","lat":"31.22726","category":"149","category_name":"洗浴推拿场所","address":"浦东新区源深路836弄香榭丽舍花园18号中心会所楼底(近松林路)"},{"poiid":"B2094757D068A1F44199","title":"阿英煲(灵山路店)","lon":"121.53893","lat":"31.22548","category":"260","category_name":"其他","address":"上海浦东新区灵山路28号(近桃林路)  "},{"poiid":"B2094751D465A3F4489B","title":"镰仓pasta","lon":"121.538772","lat":"31.229763","category":"247","category_name":"餐饮美食","address":"浦东新区东方路796号96广场9号门2楼212单元(近世纪大道)"},{"poiid":"B2094654DB64A6FB449B","title":"莫泰268(上海羽山路店)","lon":"121.53953","lat":"31.23068","category":"250","category_name":"公园户外","address":"上海市浦东新区羽山路166号(近桃林路)"},{"poiid":"B2094757D068A3FF439A","title":"香榭丽花园","lon":"121.53545","lat":"31.227047","category":"47","category_name":"住宅区","address":"上海市浦东新区松林路333弄"},{"poiid":"B2094757D06FABF5459A","title":"新天国际大厦","lon":"121.538","lat":"31.2301","category":"46","category_name":"楼宇","address":"上海市长宁区遵义南路88号"},{"poiid":"B2094655D26EA2FF4192","title":"法国餐馆巴黎上海","lon":"121.54141","lat":"31.22273","category":"97","category_name":"法式菜品餐厅","address":"浦东新区丁香路425号上海东方艺术中心B1楼(近世纪大道)"},{"poiid":"B2094654DA6AA3F4459F","title":"一百杉杉大厦","lon":"121.536","lat":"31.2279","category":"46","category_name":"楼宇","address":"浦东临港新城主城区申港大道200号"},{"poiid":"B2094655D26BAAFD4493","title":"阿英煲","lon":"121.54076","lat":"31.22727","category":"257","category_name":"中餐厅","address":""},{"poiid":"B2094757D16CA5FF489F","title":"豆香园","lon":"121.540669682","lat":"31.2269513783","category":"196","category_name":"公园","address":"浦东新区灵山路412号(桃林路口)"},{"poiid":"B2094757D064A3FA429F","title":"红叶日本料理","lon":"121.5357","lat":"31.22605","category":"95","category_name":"日本料理","address":"上海浦东新区松林路357号通茂大酒店2楼(近向城路)  "},{"poiid":"B2094757D069A5FC439C","title":"陆家嘴花园二期(峰会)","lon":"121.54248869","lat":"31.230623372","category":"47","category_name":"住宅区","address":"陆家嘴花园二期(峰会)位于浦东桃林路815弄"},{"poiid":"B2094757D069A2FF419B","title":"上海市工商行政管理局浦东新区分局","lon":"121.544212738","lat":"31.2269792308","category":"250","category_name":"公园户外","address":"上海浦东新区杨高中路2900号(近桃林路)"},{"poiid":"B2094654DA69A3FE4792","title":"上海东方艺术中心(Shanghai Oriental Art Center)","lon":"121.54141","lat":"31.22273","category":"180","category_name":"剧场","address":"上海浦东新区丁香路425号(近世纪大道)"},{"poiid":"B2094757D06FA3F84798","title":"浦东假日酒店","lon":"121.536","lat":"31.2292","category":"214","category_name":"四星级宾馆","address":"浦东新区东方路899号(近向城路)"},{"poiid":"B2094757D06FA2FA4193","title":"源深体育馆","lon":"121.536191683","lat":"31.2310137082","category":"220","category_name":"运动场所","address":"上海浦东源深路200号"},{"poiid":"B2094757D06FA2FA429A","title":"上海东方艺术中心Shanghai Oriental Art Center","lon":"121.54141842189642","lat":"31.22291030374493","category":"179","category_name":"音乐厅","address":"上海浦东新区丁香路425号"},{"poiid":"B2094757D06FA1F5479E","title":"通茂大酒店","lon":"121.53577","lat":"31.22589","category":"217","category_name":"旅馆招待所","address":"浦东新区松林路357号(近浦电路)"},{"poiid":"B2094757D06FA3FB429D","title":"浦东游泳馆(源深馆)","lon":"121.53847","lat":"31.23198","category":"231","category_name":"游泳馆","address":"浦东新区张杨路1458号源深体育中心内(近源深路)"},{"poiid":"B2094757D06FA6FE419D","title":"柚子林炭火烧肉(潍坊路店)","lon":"121.53636","lat":"31.22868","category":"269","category_name":"烧烤","address":"上海浦东新区潍坊路328号嘉瑞酒店1楼(近源深路)  "},{"poiid":"B2094757D06FA6F54999","title":"东怡大酒店","lon":"121.54299542","lat":"31.22411864","category":"217","category_name":"旅馆招待所","address":"浦东新区丁香路555号(东方艺术中心旁)"},{"poiid":"B2094757D06FA1F5459F","title":"中建大厦","lon":"121.54","lat":"31.2295","category":"46","category_name":"楼宇","address":"上海市浦东新区世纪大道1568号"},{"poiid":"B2094655D265A7FD4293","title":"中国钻石交易中心","lon":"121.53635","lat":"31.22442","category":"46","category_name":"楼宇","address":"世纪大道1701"},{"poiid":"B2094655D26AA0FB459F","title":"源深体育场","lon":"121.53635","lat":"31.2306","category":"247","category_name":"餐饮美食","address":"浦东新区深源路655号"},{"poiid":"B2094757D66FA0FC4292","title":"平壤高丽饭店","lon":"121.53491673","lat":"31.226411218","category":"247","category_name":"餐饮美食","address":"浦东新区松林路357号通茂大酒店1楼(近浦电路)"},{"poiid":"B2094757D06FABF44193","title":"长泰国际金融大厦","lon":"121.542","lat":"31.231","category":"46","category_name":"楼宇","address":"上海市浦东新区世纪大道1589号"},{"poiid":"B2094757D06FA5F8489D","title":"源深篮球公园","lon":"121.536632157","lat":"31.2295100303","category":"220","category_name":"运动场所","address":"浦东新区羽山路9号浦东源深体育中心6号门(潍坊路羽山路)"},{"poiid":"B2094757D06FA6FA469D","title":"重庆老火锅","lon":"121.54202","lat":"31.23087","category":"86","category_name":"火锅店","address":"浦东新区羽山路288号(近桃林路)"},{"poiid":"B2094654DA69A3FE489F","title":"浦东新区人民法院","lon":"121.54447","lat":"31.22483","category":"608","category_name":"法院","address":"上海市浦东新区丁香路611号"},{"poiid":"B2094757D068A3FA4993","title":"葛洲坝大厦","lon":"121.537088334","lat":"31.2252473955","category":"46","category_name":"楼宇","address":"徐汇区冠生园路223号"},{"poiid":"B2094757D16BA6F4449C","title":"地铁四号线世纪大道站","lon":"121.536668738","lat":"31.2244261764","category":"36","category_name":"地铁站","address":"上海市浦东新区世纪大道"},{"poiid":"B2094757D068A0F44198","title":"上海东方艺术中心-演奏厅(Shanghai Oriental Art Center - Performance Hall)","lon":"121.541374736","lat":"31.2227814309","category":"260","category_name":"其他","address":"上海浦东新区丁香路425号"},{"poiid":"B2094757D06FA0FB439F","title":"宝钢大厦","lon":"121.538","lat":"31.2278","category":"46","category_name":"楼宇","address":"朝阳区北三环东路与京顺路交接处路口北侧"},{"poiid":"B2094757D06FABFE439A","title":"宏嘉大厦","lon":"121.537","lat":"31.2307","category":"46","category_name":"楼宇","address":"上海浦东新区福山路388号"},{"poiid":"B2094655D26AABFC4993","title":"小南国海之源日式温泉(松林路店)","lon":"121.5355","lat":"31.22618","category":"247","category_name":"餐饮美食","address":"浦东新区松林路357号通茂大酒店2楼"},{"poiid":"B2094757D06FABFF4799","title":"老碗 源深店","lon":"121.537022054","lat":"31.229380793","category":"84","category_name":"西北菜","address":"浦东新区羽山路68号(近源深路)"},{"poiid":"B2094654DA6AA2FD4292","title":"东方国际科技大厦","lon":"121.537","lat":"31.2299","category":"46","category_name":"楼宇","address":"浦东新区向城路58号"},{"poiid":"B2094757D165AAF54892","title":"陆家嘴基金大厦","lon":"121.539","lat":"31.2302","category":"46","category_name":"楼宇","address":"上海竹林路101號"},{"poiid":"B2094752D569A1F5479D","title":"芥末日本料理","lon":"121.534682","lat":"31.226723","category":"247","category_name":"餐饮美食","address":"上海市浦东新区松林路357号通茂大酒店二楼西侧"},{"poiid":"B2094757D06FA6FD449B","title":"盛世年华花园","lon":"121.5390333","lat":"31.229134892","category":"47","category_name":"住宅区","address":"上海市浦东新区羽山路100弄"},{"poiid":"B2094654DA6AA3FB469F","title":"中达广场","lon":"121.536","lat":"31.2275","category":"46","category_name":"楼宇","address":"沈河北站路与北京街的交汇处"},{"poiid":"B2094654DA69ABF5489A","title":"陆家嘴钻石大厦","lon":"121.543","lat":"31.2305","category":"46","category_name":"楼宇","address":"中央商务区CBD22号"},{"poiid":"B2094757D06FA0FC4893","title":"上海市电力公司","lon":"121.53781276","lat":"31.224534954","category":"46","category_name":"楼宇","address":"上海源深路1122号"},{"poiid":"B2094655D26EA7FA4293","title":"苏先生海鲜渔庄 源深店","lon":"121.53480097364","lat":"31.232918552506","category":"260","category_name":"其他","address":"浦东新区源深路655号体育中心内(近张杨路)"},{"poiid":"B2094757D06FAAF94899","title":"同盛大厦","lon":"121.538","lat":"31.2292","category":"46","category_name":"楼宇","address":"黄浦区南京东路311号"},{"poiid":"B2094654DA6AA3F5479A","title":"钱江大厦","lon":"121.537","lat":"31.2286","category":"46","category_name":"楼宇","address":"浦东新区东方路971号"},{"poiid":"B2094655D26FA2F9439C","title":"新加坡泰国村鱼翅 浦东店","lon":"121.53573989868","lat":"31.228344021284","category":"72","category_name":"广东菜","address":"浦东新区潍坊路328号嘉瑞酒店内(近源深路)"},{"poiid":"B2094757D064AAFE4599","title":"易公馆","lon":"121.536671","lat":"31.228654","category":"72","category_name":"广东菜","address":"浦东新区源深路789号2楼(近羽山路)"},{"poiid":"B2094757D06AA3FF4998","title":"东方希望大厦","lon":"121.54448413658","lat":"31.229635061024","category":"46","category_name":"楼宇","address":"世纪大道1777号"},{"poiid":"B2094757D069A1F84599","title":"全华信息大厦","lon":"121.538","lat":"31.2304","category":"46","category_name":"楼宇","address":"黄陂区楚天大道与盘龙三路交汇处"},{"poiid":"B2094757D06FA5FB4192","title":"感智盲人保健会所(源深路店)","lon":"121.53671","lat":"31.22726","category":"149","category_name":"洗浴推拿场所","address":"浦东新区源深路836弄香榭丽舍花园18号中心会所楼底(近松林路)"},{"poiid":"B2094757D068A1F44199","title":"阿英煲(灵山路店)","lon":"121.53893","lat":"31.22548","category":"260","category_name":"其他","address":"上海浦东新区灵山路28号(近桃林路)  "},{"poiid":"B2094751D465A3F4489B","title":"镰仓pasta","lon":"121.538772","lat":"31.229763","category":"247","category_name":"餐饮美食","address":"浦东新区东方路796号96广场9号门2楼212单元(近世纪大道)"},{"poiid":"B2094654DB64A6FB449B","title":"莫泰268(上海羽山路店)","lon":"121.53953","lat":"31.23068","category":"250","category_name":"公园户外","address":"上海市浦东新区羽山路166号(近桃林路)"},{"poiid":"B2094757D068A3FF439A","title":"香榭丽花园","lon":"121.53545","lat":"31.227047","category":"47","category_name":"住宅区","address":"上海市浦东新区松林路333弄"},{"poiid":"B2094757D06FABF5459A","title":"新天国际大厦","lon":"121.538","lat":"31.2301","category":"46","category_name":"楼宇","address":"上海市长宁区遵义南路88号"},{"poiid":"B2094655D26EA2FF4192","title":"法国餐馆巴黎上海","lon":"121.54141","lat":"31.22273","category":"97","category_name":"法式菜品餐厅","address":"浦东新区丁香路425号上海东方艺术中心B1楼(近世纪大道)"},{"poiid":"B2094654DA6AA3F4459F","title":"一百杉杉大厦","lon":"121.536","lat":"31.2279","category":"46","category_name":"楼宇","address":"浦东临港新城主城区申港大道200号"},{"poiid":"B2094655D26BAAFD4493","title":"阿英煲","lon":"121.54076","lat":"31.22727","category":"257","category_name":"中餐厅","address":""},{"poiid":"B2094757D16CA5FF489F","title":"豆香园","lon":"121.540669682","lat":"31.2269513783","category":"196","category_name":"公园","address":"浦东新区灵山路412号(桃林路口)"},{"poiid":"B2094757D064A3FA429F","title":"红叶日本料理","lon":"121.5357","lat":"31.22605","category":"95","category_name":"日本料理","address":"上海浦东新区松林路357号通茂大酒店2楼(近向城路)  "},{"poiid":"B2094757D069A5FC439C","title":"陆家嘴花园二期(峰会)","lon":"121.54248869","lat":"31.230623372","category":"47","category_name":"住宅区","address":"陆家嘴花园二期(峰会)位于浦东桃林路815弄"},{"poiid":"B2094757D069A2FF419B","title":"上海市工商行政管理局浦东新区分局","lon":"121.544212738","lat":"31.2269792308","category":"250","category_name":"公园户外","address":"上海浦东新区杨高中路2900号(近桃林路)"},{"poiid":"B2094654DA69A3FE4792","title":"上海东方艺术中心(Shanghai Oriental Art Center)","lon":"121.54141","lat":"31.22273","category":"180","category_name":"剧场","address":"上海浦东新区丁香路425号(近世纪大道)"},{"poiid":"B2094757D06FA3F84798","title":"浦东假日酒店","lon":"121.536","lat":"31.2292","category":"214","category_name":"四星级宾馆","address":"浦东新区东方路899号(近向城路)"},{"poiid":"B2094757D06FA2FA4193","title":"源深体育馆","lon":"121.536191683","lat":"31.2310137082","category":"220","category_name":"运动场所","address":"上海浦东源深路200号"},{"poiid":"B2094757D06FA2FA429A","title":"上海东方艺术中心Shanghai Oriental Art Center","lon":"121.54141842189642","lat":"31.22291030374493","category":"179","category_name":"音乐厅","address":"上海浦东新区丁香路425号"},{"poiid":"B2094757D06FA1F5479E","title":"通茂大酒店","lon":"121.53577","lat":"31.22589","category":"217","category_name":"旅馆招待所","address":"浦东新区松林路357号(近浦电路)"},{"poiid":"B2094757D06FA3FB429D","title":"浦东游泳馆(源深馆)","lon":"121.53847","lat":"31.23198","category":"231","category_name":"游泳馆","address":"浦东新区张杨路1458号源深体育中心内(近源深路)"},{"poiid":"B2094757D06FA6FE419D","title":"柚子林炭火烧肉(潍坊路店)","lon":"121.53636","lat":"31.22868","category":"269","category_name":"烧烤","address":"上海浦东新区潍坊路328号嘉瑞酒店1楼(近源深路)  "},{"poiid":"B2094757D06FA6F54999","title":"东怡大酒店","lon":"121.54299542","lat":"31.22411864","category":"217","category_name":"旅馆招待所","address":"浦东新区丁香路555号(东方艺术中心旁)"},{"poiid":"B2094757D06FA1F5459F","title":"中建大厦","lon":"121.54","lat":"31.2295","category":"46","category_name":"楼宇","address":"上海市浦东新区世纪大道1568号"},{"poiid":"B2094655D265A7FD4293","title":"中国钻石交易中心","lon":"121.53635","lat":"31.22442","category":"46","category_name":"楼宇","address":"世纪大道1701"},{"poiid":"B2094655D26AA0FB459F","title":"源深体育场","lon":"121.53635","lat":"31.2306","category":"247","category_name":"餐饮美食","address":"浦东新区深源路655号"},{"poiid":"B2094757D66FA0FC4292","title":"平壤高丽饭店","lon":"121.53491673","lat":"31.226411218","category":"247","category_name":"餐饮美食","address":"浦东新区松林路357号通茂大酒店1楼(近浦电路)"},{"poiid":"B2094757D06FABF44193","title":"长泰国际金融大厦","lon":"121.542","lat":"31.231","category":"46","category_name":"楼宇","address":"上海市浦东新区世纪大道1589号"},{"poiid":"B2094757D06FA5F8489D","title":"源深篮球公园","lon":"121.536632157","lat":"31.2295100303","category":"220","category_name":"运动场所","address":"浦东新区羽山路9号浦东源深体育中心6号门(潍坊路羽山路)"},{"poiid":"B2094757D06FA6FA469D","title":"重庆老火锅","lon":"121.54202","lat":"31.23087","category":"86","category_name":"火锅店","address":"浦东新区羽山路288号(近桃林路)"},{"poiid":"B2094654DA69A3FE489F","title":"浦东新区人民法院","lon":"121.54447","lat":"31.22483","category":"608","category_name":"法院","address":"上海市浦东新区丁香路611号"},{"poiid":"B2094757D068A3FA4993","title":"葛洲坝大厦","lon":"121.537088334","lat":"31.2252473955","category":"46","category_name":"楼宇","address":"徐汇区冠生园路223号"},{"poiid":"B2094757D16BA6F4449C","title":"地铁四号线世纪大道站","lon":"121.536668738","lat":"31.2244261764","category":"36","category_name":"地铁站","address":"上海市浦东新区世纪大道"},{"poiid":"B2094757D068A0F44198","title":"上海东方艺术中心-演奏厅(Shanghai Oriental Art Center - Performance Hall)","lon":"121.541374736","lat":"31.2227814309","category":"260","category_name":"其他","address":"上海浦东新区丁香路425号"},{"poiid":"B2094757D06FA0FB439F","title":"宝钢大厦","lon":"121.538","lat":"31.2278","category":"46","category_name":"楼宇","address":"朝阳区北三环东路与京顺路交接处路口北侧"},{"poiid":"B2094757D06FABFE439A","title":"宏嘉大厦","lon":"121.537","lat":"31.2307","category":"46","category_name":"楼宇","address":"上海浦东新区福山路388号"},{"poiid":"B2094655D26AABFC4993","title":"小南国海之源日式温泉(松林路店)","lon":"121.5355","lat":"31.22618","category":"247","category_name":"餐饮美食","address":"浦东新区松林路357号通茂大酒店2楼"},{"poiid":"B2094757D06FABFF4799","title":"老碗 源深店","lon":"121.537022054","lat":"31.229380793","category":"84","category_name":"西北菜","address":"浦东新区羽山路68号(近源深路)"},{"poiid":"B2094654DA6AA2FD4292","title":"东方国际科技大厦","lon":"121.537","lat":"31.2299","category":"46","category_name":"楼宇","address":"浦东新区向城路58号"},{"poiid":"B2094757D165AAF54892","title":"陆家嘴基金大厦","lon":"121.539","lat":"31.2302","category":"46","category_name":"楼宇","address":"上海竹林路101號"},{"poiid":"B2094752D569A1F5479D","title":"芥末日本料理","lon":"121.534682","lat":"31.226723","category":"247","category_name":"餐饮美食","address":"上海市浦东新区松林路357号通茂大酒店二楼西侧"},{"poiid":"B2094757D06FA6FD449B","title":"盛世年华花园","lon":"121.5390333","lat":"31.229134892","category":"47","category_name":"住宅区","address":"上海市浦东新区羽山路100弄"},{"poiid":"B2094654DA6AA3FB469F","title":"中达广场","lon":"121.536","lat":"31.2275","category":"46","category_name":"楼宇","address":"沈河北站路与北京街的交汇处"},{"poiid":"B2094654DA69ABF5489A","title":"陆家嘴钻石大厦","lon":"121.543","lat":"31.2305","category":"46","category_name":"楼宇","address":"中央商务区CBD22号"},{"poiid":"B2094757D06FA0FC4893","title":"上海市电力公司","lon":"121.53781276","lat":"31.224534954","category":"46","category_name":"楼宇","address":"上海源深路1122号"},{"poiid":"B2094655D26EA7FA4293","title":"苏先生海鲜渔庄 源深店","lon":"121.53480097364","lat":"31.232918552506","category":"260","category_name":"其他","address":"浦东新区源深路655号体育中心内(近张杨路)"},{"poiid":"B2094757D06FAAF94899","title":"同盛大厦","lon":"121.538","lat":"31.2292","category":"46","category_name":"楼宇","address":"黄浦区南京东路311号"},{"poiid":"B2094654DA6AA3F5479A","title":"钱江大厦","lon":"121.537","lat":"31.2286","category":"46","category_name":"楼宇","address":"浦东新区东方路971号"},{"poiid":"B2094655D26FA2F9439C","title":"新加坡泰国村鱼翅 浦东店","lon":"121.53573989868","lat":"31.228344021284","category":"72","category_name":"广东菜","address":"浦东新区潍坊路328号嘉瑞酒店内(近源深路)"},{"poiid":"B2094757D064AAFE4599","title":"易公馆","lon":"121.536671","lat":"31.228654","category":"72","category_name":"广东菜","address":"浦东新区源深路789号2楼(近羽山路)"},{"poiid":"B2094757D06AA3FF4998","title":"东方希望大厦","lon":"121.54448413658","lat":"31.229635061024","category":"46","category_name":"楼宇","address":"世纪大道1777号"},{"poiid":"B2094757D069A1F84599","title":"全华信息大厦","lon":"121.538","lat":"31.2304","category":"46","category_name":"楼宇","address":"黄陂区楚天大道与盘龙三路交汇处"},{"poiid":"B2094757D06FA5FB4192","title":"感智盲人保健会所(源深路店)","lon":"121.53671","lat":"31.22726","category":"149","category_name":"洗浴推拿场所","address":"浦东新区源深路836弄香榭丽舍花园18号中心会所楼底(近松林路)"},{"poiid":"B2094757D068A1F44199","title":"阿英煲(灵山路店)","lon":"121.53893","lat":"31.22548","category":"260","category_name":"其他","address":"上海浦东新区灵山路28号(近桃林路)  "},{"poiid":"B2094751D465A3F4489B","title":"镰仓pasta","lon":"121.538772","lat":"31.229763","category":"247","category_name":"餐饮美食","address":"浦东新区东方路796号96广场9号门2楼212单元(近世纪大道)"},{"poiid":"B2094654DB64A6FB449B","title":"莫泰268(上海羽山路店)","lon":"121.53953","lat":"31.23068","category":"250","category_name":"公园户外","address":"上海市浦东新区羽山路166号(近桃林路)"},{"poiid":"B2094757D068A3FF439A","title":"香榭丽花园","lon":"121.53545","lat":"31.227047","category":"47","category_name":"住宅区","address":"上海市浦东新区松林路333弄"},{"poiid":"B2094757D06FABF5459A","title":"新天国际大厦","lon":"121.538","lat":"31.2301","category":"46","category_name":"楼宇","address":"上海市长宁区遵义南路88号"},{"poiid":"B2094655D26EA2FF4192","title":"法国餐馆巴黎上海","lon":"121.54141","lat":"31.22273","category":"97","category_name":"法式菜品餐厅","address":"浦东新区丁香路425号上海东方艺术中心B1楼(近世纪大道)"},{"poiid":"B2094654DA6AA3F4459F","title":"一百杉杉大厦","lon":"121.536","lat":"31.2279","category":"46","category_name":"楼宇","address":"浦东临港新城主城区申港大道200号"},{"poiid":"B2094655D26BAAFD4493","title":"阿英煲","lon":"121.54076","lat":"31.22727","category":"257","category_name":"中餐厅","address":""},{"poiid":"B2094757D16CA5FF489F","title":"豆香园","lon":"121.540669682","lat":"31.2269513783","category":"196","category_name":"公园","address":"浦东新区灵山路412号(桃林路口)"},{"poiid":"B2094757D064A3FA429F","title":"红叶日本料理","lon":"121.5357","lat":"31.22605","category":"95","category_name":"日本料理","address":"上海浦东新区松林路357号通茂大酒店2楼(近向城路)  "},{"poiid":"B2094757D069A5FC439C","title":"陆家嘴花园二期(峰会)","lon":"121.54248869","lat":"31.230623372","category":"47","category_name":"住宅区","address":"陆家嘴花园二期(峰会)位于浦东桃林路815弄"},{"poiid":"B2094757D069A2FF419B","title":"上海市工商行政管理局浦东新区分局","lon":"121.544212738","lat":"31.2269792308","category":"250","category_name":"公园户外","address":"上海浦东新区杨高中路2900号(近桃林路)"}]