[{"poiid":"B2094757D16DA0F94993","title":"三林老街庙会","lon":"121.5008689","lat":"31.1396464","category":"500","category_name":"未知分类","address":"上海灵岩南路三林路"},{"poiid":"B2094757D068A2F9499A","title":"上海市浦东棒垒球高尔夫体育公园","lon":"121.49431293","lat":"31.12771542","category":"220","category_name":"运动场所","address":"上海浦星路200号"},{"poiid":"B2094757D76DA0FF409F","title":"品悦酒店 灵岩南路店","lon":"121.5021815","lat":"31.1372262","category":"76","category_name":"上海菜","address":"浦东新区灵岩南路1399弄1号(近三林路)"},{"poiid":"B2094757D064A4FF409F","title":"盱眙倪氏龙虾(三林路店)","lon":"121.50191","lat":"31.13963","category":"68","category_name":"快餐厅","address":"浦东新区三林路517号(近灵岩南路)"},{"poiid":"B2094757D16DA3F8419B","title":"东方体育中心站","lon":"121.492062409","lat":"31.1358151838","category":"500","category_name":"未知分类","address":"上海轨道交通八号线 东方体育中心站"},{"poiid":"B2094757D16EA6F54998","title":"Pu Dong International Airport","lon":"121.49397098","lat":"31.130958838","category":"500","category_name":"未知分类","address":"上海浦东国际机场 2号航站楼"},{"poiid":"B2094757D06BA1F5439A","title":"品悦鼎味上海菜","lon":"121.50293185","lat":"31.13361831","category":"247","category_name":"餐饮美食","address":"上海浦东灵岩南路1399弄1号"},{"poiid":"B2094757D068A7FE4893","title":"老盛昌苏州汤包馆(三林店)","lon":"121.50114","lat":"31.13879","category":"68","category_name":"快餐厅","address":"浦东新区灵岩南路1166号(近三林路)"},{"poiid":"B2094751D36CA0F5439D","title":"三林本帮馆","lon":"121.5017","lat":"31.13729","category":"76","category_name":"上海菜","address":"浦东新区中林街65号(近人民桥)"},{"poiid":"B2094654DB6DA0F8459E","title":"上海市三林中学","lon":"121.50445","lat":"31.14043","category":"55","category_name":"中学","address":"浦东新区三林路658号(浦东三新路三林路)"},{"poiid":"B2094757D06BABF5429E","title":"卢浦大桥(济阳路口)","lon":"121.50298","lat":"31.133287","category":"500","category_name":"未知分类","address":"上海济阳路出口"},{"poiid":"B2094757D06BA0FE469A","title":"三林新村","lon":"121.511800009","lat":"31.1362487932","category":"500","category_name":"未知分类","address":"上海市浦东新区永泰路258弄"},{"poiid":"B2094654DA65A7FA4598","title":"风火鼎 灵岩店","lon":"121.49954728354","lat":"31.142924107626","category":"76","category_name":"上海菜","address":"浦东新区灵岩南路1086弄8号(近凌兆路)"},{"poiid":"B2094757D064A5F5479D","title":"三林社区卫生服务中心","lon":"121.498648","lat":"31.139543","category":"500","category_name":"未知分类","address":"上海三林路375号"},{"poiid":"B2094757D16FA5F4499A","title":"苏菲雅摄影基地","lon":"121.5100884","lat":"31.134071745","category":"500","category_name":"未知分类","address":"上海上南路5018弄25号"},{"poiid":"B2094757D465A1FF4899","title":"老八样餐厅","lon":"121.5009795077","lat":"31.132527630102","category":"76","category_name":"上海菜","address":"闵行区沈杜路3129号(近三鲁公路)"},{"poiid":"B2094750D664A1FA439F","title":"外婆小菜","lon":"121.501","lat":"31.1399","category":"76","category_name":"上海菜","address":"浦东新区灵岩南路1200号(近三林路)"},{"poiid":"B2094757D069A3F8459C","title":"海宁阿月煲(三林路店)","lon":"121.50242242","lat":"31.139621493","category":"260","category_name":"其他","address":"浦东新区三林路535号(灵岩南路口)"},{"poiid":"B2094655D36CA7FF469F","title":"红旗","lon":"121.50274","lat":"31.13039","category":"38","category_name":"公交车站","address":""},{"poiid":"B2094654DB6DA0F84093","title":"旺林酒家","lon":"121.50582921752","lat":"31.141371779699","category":"76","category_name":"上海菜","address":"浦东新区三林路767号"},{"poiid":"B2094757D66EA0FE469F","title":"三林镇中林街","lon":"121.50008232","lat":"31.137152542","category":"500","category_name":"未知分类","address":"上海浦东新区三林镇中林街"},{"poiid":"B2094654DA65A7F4479B","title":"浦东新区精神卫生中心(三林路)","lon":"121.49487","lat":"31.13711","category":"162","category_name":"医院","address":"三林路165"},{"poiid":"B2094751D26DAAFF469C","title":"东方艺术中心","lon":"121.50119","lat":"31.130463","category":"500","category_name":"未知分类","address":"浦东新区丁香路425号"},{"poiid":"B2094655D36CA2FA479E","title":"三林路灵岩南路","lon":"121.50036","lat":"31.13949","category":"38","category_name":"公交车站","address":""},{"poiid":"B2094751D36DA4FB449F","title":"锦香楼","lon":"121.50365","lat":"31.14033","category":"77","category_name":"湖南菜","address":"浦东新区三林路616号(近灵岩南路)"},{"poiid":"B2094757D66BA3F5469C","title":"苏北农家菜","lon":"121.49734","lat":"31.1393971","category":"76","category_name":"上海菜","address":"浦东新区长清路2068号(近三林路)"},{"poiid":"B2094654DB6CA4FF4392","title":"三林烈士陵园","lon":"121.50187","lat":"31.13148","category":"620","category_name":"丧葬","address":"三鲁路人民桥南首"},{"poiid":"B2094654DB64A2F9449B","title":"上海市浦东新区三林镇中心小学(三林路)","lon":"121.49912","lat":"31.13833","category":"56","category_name":"小学","address":"浦东新区三林路368号(近上南路)"},{"poiid":"B2094655D26AABF4419B","title":"Qbake","lon":"121.50026","lat":"31.13889","category":"67","category_name":"甜品店","address":"浦东新区三林路424号(近灵岩南路)"},{"poiid":"B2094655D36DA2F84692","title":"三林港桥","lon":"121.49941","lat":"31.1364","category":"250","category_name":"公园户外","address":""},{"poiid":"B2094654DB64A2F9439B","title":"凯越宾馆","lon":"121.50186","lat":"31.13873","category":"250","category_name":"公园户外","address":"上海市浦东新区灵岩南路1333号(近三林路)"},{"poiid":"B2094757D06AA5FC489F","title":"原味坊 三林路店 Qbake","lon":"121.49978","lat":"31.13919","category":"67","category_name":"甜品店","address":"三林路424号近凌岩南路"},{"poiid":"B2094654DA65A7F4419B","title":"三林派出所","lon":"121.5","lat":"31.13633","category":"609","category_name":"警察局","address":"长清路2311号"},{"poiid":"B2094757D66BA4FD4198","title":"巴巴拉休闲餐厅","lon":"121.504256054","lat":"31.127521793","category":"68","category_name":"快餐厅","address":"浦江镇三鲁路2412号近淡中路"},{"poiid":"B2094757D16DA0FA419D","title":"三林路三新路","lon":"121.506581","lat":"31.138418","category":"500","category_name":"未知分类","address":"上海三林路三新路"},{"poiid":"B2094654DB6DA0F8459B","title":"上海市育人中学","lon":"121.50686","lat":"31.13765","category":"55","category_name":"中学","address":"浦东新区三新路15号(三林中学南首)"},{"poiid":"B2094757D16EA3F94198","title":"奥灶面","lon":"121.5001815","lat":"31.1413906","category":"68","category_name":"快餐厅","address":"浦东新区灵岩南路1138弄6号"},{"poiid":"B2094654DA65A7F4409A","title":"世纪华联No.706","lon":"121.49858","lat":"31.13747","category":"117","category_name":"便民商店/便利店","address":""},{"poiid":"B2094757D66EABF8409E","title":"董大师蛙辣风暴(三林路店)","lon":"121.50228","lat":"31.14001","category":"71","category_name":"四川菜","address":"浦东新区三林路523号(近灵岩南路)"},{"poiid":"B2094654DA65A7FA4099","title":"海林商场","lon":"121.50119","lat":"31.13858","category":"119","category_name":"商场","address":""},{"poiid":"B2094655D265A5FE4799","title":"三爱思大楼","lon":"121.49837","lat":"31.13802","category":"46","category_name":"楼宇","address":"三林路332号"},{"poiid":"B2094654DA65A7FB4393","title":"三林社区文化活动中心","lon":"121.49835","lat":"31.13817","category":"248","category_name":"生活娱乐","address":"三林路338"},{"poiid":"B2094751D56AA4FD439D","title":"欢唱KTV","lon":"121.501312","lat":"31.13945","category":"170","category_name":"KTV","address":"灵岩南路三林路"},{"poiid":"B2094752D46AA2F54492","title":"济阳加油站","lon":"121.50298","lat":"31.128126","category":"153","category_name":"加油站","address":"闵行区浦星公路498号"},{"poiid":"B2094655D36CA1F9449F","title":"凌兆路","lon":"121.4996","lat":"31.14291","category":"38","category_name":"公交车站","address":"凌兆路535号东顶发图凌兆店"},{"poiid":"B2094655D26FA4F5439F","title":"三林医院","lon":"121.49864","lat":"31.13954","category":"162","category_name":"医院","address":"三林路375"},{"poiid":"B2094654DA65A7F4429C","title":"快客(三林路)","lon":"121.49737","lat":"31.13803","category":"117","category_name":"便民商店/便利店","address":"三林路279"},{"poiid":"B2094654DA65A7F8499D","title":"中国移动三林塘营业厅","lon":"121.50054","lat":"31.14096","category":"151","category_name":"电讯营业厅","address":"浦东新区灵岩南路1167号"},{"poiid":"B2094757D468A4FD429F","title":"万州炸酱面","lon":"121.500006","lat":"31.143127","category":"68","category_name":"快餐厅","address":"浦东新区灵岩南路958号(近凌兆路)"},{"poiid":"B2094654DB69A4FB479D","title":"重庆鸡公煲 三林路店","lon":"121.501007054","lat":"31.139017793","category":"247","category_name":"餐饮美食","address":"浦东新区灵岩南路988号(近灵岩南路车站)"},{"poiid":"B2094757D16DA0F94993","title":"三林老街庙会","lon":"121.5008689","lat":"31.1396464","category":"500","category_name":"未知分类","address":"上海灵岩南路三林路"},{"poiid":"B2094757D068A2F9499A","title":"上海市浦东棒垒球高尔夫体育公园","lon":"121.49431293","lat":"31.12771542","category":"220","category_name":"运动场所","address":"上海浦星路200号"},{"poiid":"B2094757D76DA0FF409F","title":"品悦酒店 灵岩南路店","lon":"121.5021815","lat":"31.1372262","category":"76","category_name":"上海菜","address":"浦东新区灵岩南路1399弄1号(近三林路)"},{"poiid":"B2094757D064A4FF409F","title":"盱眙倪氏龙虾(三林路店)","lon":"121.50191","lat":"31.13963","category":"68","category_name":"快餐厅","address":"浦东新区三林路517号(近灵岩南路)"},{"poiid":"B2094757D16DA3F8419B","title":"东方体育中心站","lon":"121.492062409","lat":"31.1358151838","category":"500","category_name":"未知分类","address":"上海轨道交通八号线 东方体育中心站"},{"poiid":"B2094757D16EA6F54998","title":"Pu Dong International Airport","lon":"121.49397098","lat":"31.130958838","category":"500","category_name":"未知分类","address":"上海浦东国际机场 2号航站楼"},{"poiid":"B2094757D06BA1F5439A","title":"品悦鼎味上海菜","lon":"121.50293185","lat":"31.13361831","category":"247","category_name":"餐饮美食","address":"上海浦东灵岩南路1399弄1号"},{"poiid":"B2094757D068A7FE4893","title":"老盛昌苏州汤包馆(三林店)","lon":"121.50114","lat":"31.13879","category":"68","category_name":"快餐厅","address":"浦东新区灵岩南路1166号(近三林路)"},{"poiid":"B2094751D36CA0F5439D","title":"三林本帮馆","lon":"121.5017","lat":"31.13729","category":"76","category_name":"上海菜","address":"浦东新区中林街65号(近人民桥)"},{"poiid":"B2094654DB6DA0F8459E","title":"上海市三林中学","lon":"121.50445","lat":"31.14043","category":"55","category_name":"中学","address":"浦东新区三林路658号(浦东三新路三林路)"},{"poiid":"B2094757D06BABF5429E","title":"卢浦大桥(济阳路口)","lon":"121.50298","lat":"31.133287","category":"500","category_name":"未知分类","address":"上海济阳路出口"},{"poiid":"B2094757D06BA0FE469A","title":"三林新村","lon":"121.511800009","lat":"31.1362487932","category":"500","category_name":"未知分类","address":"上海市浦东新区永泰路258弄"},{"poiid":"B2094654DA65A7FA4598","title":"风火鼎 灵岩店","lon":"121.49954728354","lat":"31.142924107626","category":"76","category_name":"上海菜","address":"浦东新区灵岩南路1086弄8号(近凌兆路)"},{"poiid":"B2094757D064A5F5479D","title":"三林社区卫生服务中心","lon":"121.498648","lat":"31.139543","category":"500","category_name":"未知分类","address":"上海三林路375号"},{"poiid":"B2094757D16FA5F4499A","title":"苏菲雅摄影基地","lon":"121.5100884","lat":"31.134071745","category":"500","category_name":"未知分类","address":"上海上南路5018弄25号"},{"poiid":"B2094757D465A1FF4899","title":"老八样餐厅","lon":"121.5009795077","lat":"31.132527630102","category":"76","category_name":"上海菜","address":"闵行区沈杜路3129号(近三鲁公路)"},{"poiid":"B2094750D664A1FA439F","title":"外婆小菜","lon":"121.501","lat":"31.1399","category":"76","category_name":"上海菜","address":"浦东新区灵岩南路1200号(近三林路)"},{"poiid":"B2094757D069A3F8459C","title":"海宁阿月煲(三林路店)","lon":"121.50242242","lat":"31.139621493","category":"260","category_name":"其他","address":"浦东新区三林路535号(灵岩南路口)"},{"poiid":"B2094655D36CA7FF469F","title":"红旗","lon":"121.50274","lat":"31.13039","category":"38","category_name":"公交车站","address":""},{"poiid":"B2094654DB6DA0F84093","title":"旺林酒家","lon":"121.50582921752","lat":"31.141371779699","category":"76","category_name":"上海菜","address":"浦东新区三林路767号"},{"poiid":"B2094757D66EA0FE469F","title":"三林镇中林街","lon":"121.50008232","lat":"31.137152542","category":"500","category_name":"未知分类","address":"上海浦东新区三林镇中林街"},{"poiid":"B2094654DA65A7F4479B","title":"浦东新区精神卫生中心(三林路)","lon":"121.49487","lat":"31.13711","category":"162","category_name":"医院","address":"三林路165"},{"poiid":"B2094751D26DAAFF469C","title":"东方艺术中心","lon":"121.50119","lat":"31.130463","category":"500","category_name":"未知分类","address":"浦东新区丁香路425号"},{"poiid":"B2094655D36CA2FA479E","title":"三林路灵岩南路","lon":"121.50036","lat":"31.13949","category":"38","category_name":"公交车站","address":""},{"poiid":"B2094751D36DA4FB449F","title":"锦香楼","lon":"121.50365","lat":"31.14033","category":"77","category_name":"湖南菜","address":"浦东新区三林路616号(近灵岩南路)"},{"poiid":"B2094757D66BA3F5469C","title":"苏北农家菜","lon":"121.49734","lat":"31.1393971","category":"76","category_name":"上海菜","address":"浦东新区长清路2068号(近三林路)"},{"poiid":"B2094654DB6CA4FF4392","title":"三林烈士陵园","lon":"121.50187","lat":"31.13148","category":"620","category_name":"丧葬","address":"三鲁路人民桥南首"},{"poiid":"B2094654DB64A2F9449B","title":"上海市浦东新区三林镇中心小学(三林路)","lon":"121.49912","lat":"31.13833","category":"56","category_name":"小学","address":"浦东新区三林路368号(近上南路)"},{"poiid":"B2094655D26AABF4419B","title":"Qbake","lon":"121.50026","lat":"31.13889","category":"67","category_name":"甜品店","address":"浦东新区三林路424号(近灵岩南路)"},{"poiid":"B2094655D36DA2F84692","title":"三林港桥","lon":"121.49941","lat":"31.1364","category":"250","category_name":"公园户外","address":""},{"poiid":"B2094654DB64A2F9439B","title":"凯越宾馆","lon":"121.50186","lat":"31.13873","category":"250","category_name":"公园户外","address":"上海市浦东新区灵岩南路1333号(近三林路)"},{"poiid":"B2094757D06AA5FC489F","title":"原味坊 三林路店 Qbake","lon":"121.49978","lat":"31.13919","category":"67","category_name":"甜品店","address":"三林路424号近凌岩南路"},{"poiid":"B2094654DA65A7F4419B","title":"三林派出所","lon":"121.5","lat":"31.13633","category":"609","category_name":"警察局","address":"长清路2311号"},{"poiid":"B2094757D66BA4FD4198","title":"巴巴拉休闲餐厅","lon":"121.504256054","lat":"31.127521793","category":"68","category_name":"快餐厅","address":"浦江镇三鲁路2412号近淡中路"},{"poiid":"B2094757D16DA0FA419D","title":"三林路三新路","lon":"121.506581","lat":"31.138418","category":"500","category_name":"未知分类","address":"上海三林路三新路"},{"poiid":"B2094654DB6DA0F8459B","title":"上海市育人中学","lon":"121.50686","lat":"31.13765","category":"55","category_name":"中学","address":"浦东新区三新路15号(三林中学南首)"},{"poiid":"B2094757D16EA3F94198","title":"奥灶面","lon":"121.5001815","lat":"31.1413906","category":"68","category_name":"快餐厅","address":"浦东新区灵岩南路1138弄6号"},{"poiid":"B2094654DA65A7F4409A","title":"世纪华联No.706","lon":"121.49858","lat":"31.13747","category":"117","category_name":"便民商店/便利店","address":""},{"poiid":"B2094757D66EABF8409E","title":"董大师蛙辣风暴(三林路店)","lon":"121.50228","lat":"31.14001","category":"71","category_name":"四川菜","address":"浦东新区三林路523号(近灵岩南路)"},{"poiid":"B2094654DA65A7FA4099","title":"海林商场","lon":"121.50119","lat":"31.13858","category":"119","category_name":"商场","address":""},{"poiid":"B2094655D265A5FE4799","title":"三爱思大楼","lon":"121.49837","lat":"31.13802","category":"46","category_name":"楼宇","address":"三林路332号"},{"poiid":"B2094654DA65A7FB4393","title":"三林社区文化活动中心","lon":"121.49835","lat":"31.13817","category":"248","category_name":"生活娱乐","address":"三林路338"},{"poiid":"B2094751D56AA4FD439D","title":"欢唱KTV","lon":"121.501312","lat":"31.13945","category":"170","category_name":"KTV","address":"灵岩南路三林路"},{"poiid":"B2094752D46AA2F54492","title":"济阳加油站","lon":"121.50298","lat":"31.128126","category":"153","category_name":"加油站","address":"闵行区浦星公路498号"},{"poiid":"B2094655D36CA1F9449F","title":"凌兆路","lon":"121.4996","lat":"31.14291","category":"38","category_name":"公交车站","address":"凌兆路535号东顶发图凌兆店"},{"poiid":"B2094655D26FA4F5439F","title":"三林医院","lon":"121.49864","lat":"31.13954","category":"162","category_name":"医院","address":"三林路375"},{"poiid":"B2094654DA65A7F4429C","title":"快客(三林路)","lon":"121.49737","lat":"31.13803","category":"117","category_name":"便民商店/便利店","address":"三林路279"},{"poiid":"B2094654DA65A7F8499D","title":"中国移动三林塘营业厅","lon":"121.50054","lat":"31.14096","category":"151","category_name":"电讯营业厅","address":"浦东新区灵岩南路1167号"},{"poiid":"B2094757D468A4FD429F","title":"万州炸酱面","lon":"121.500006","lat":"31.143127","category":"68","category_name":"快餐厅","address":"浦东新区灵岩南路958号(近凌兆路)"},{"poiid":"B2094654DB69A4FB479D","title":"重庆鸡公煲 三林路店","lon":"121.501007054","lat":"31.139017793","category":"247","category_name":"餐饮美食","address":"浦东新区灵岩南路988号(近灵岩南路车站)"},{"poiid":"B2094757D16DA0F94993","title":"三林老街庙会","lon":"121.5008689","lat":"31.1396464","category":"500","category_name":"未知分类","address":"上海灵岩南路三林路"},{"poiid":"B2094757D068A2F9499A","title":"上海市浦东棒垒球高尔夫体育公园","lon":"121.49431293","lat":"31.12771542","category":"220","category_name":"运动场所","address":"上海浦星路200号"},{"poiid":"B2094757D76DA0FF409F","title":"品悦酒店 灵岩南路店","lon":"121.5021815","lat":"31.1372262","category":"76","category_name":"上海菜","address":"浦东新区灵岩南路1399弄1号(近三林路)"},{"poiid":"B2094757D064A4FF409F","title":"盱眙倪氏龙虾(三林路店)","lon":"121.50191","lat":"31.13963","category":"68","category_name":"快餐厅","address":"浦东新区三林路517号(近灵岩南路)"},{"poiid":"B2094757D16DA3F8419B","title":"东方体育中心站","lon":"121.492062409","lat":"31.1358151838","category":"500","category_name":"未知分类","address":"上海轨道交通八号线 东方体育中心站"},{"poiid":"B2094757D16EA6F54998","title":"Pu Dong International Airport","lon":"121.49397098","lat":"31.130958838","category":"500","category_name":"未知分类","address":"上海浦东国际机场 2号航站楼"},{"poiid":"B2094757D06BA1F5439A","title":"品悦鼎味上海菜","lon":"121.50293185","lat":"31.13361831","category":"247","category_name":"餐饮美食","address":"上海浦东灵岩南路1399弄1号"},{"poiid":"B2094757D068A7FE4893","title":"老盛昌苏州汤包馆(三林店)","lon":"121.50114","lat":"31.13879","category":"68","category_name":"快餐厅","address":"浦东新区灵岩南路1166号(近三林路)"},{"poiid":"B2094751D36CA0F5439D","title":"三林本帮馆","lon":"121.5017","lat":"31.13729","category":"76","category_name":"上海菜","address":"浦东新区中林街65号(近人民桥)"},{"poiid":"B2094654DB6DA0F8459E","title":"上海市三林中学","lon":"121.50445","lat":"31.14043","category":"55","category_name":"中学","address":"浦东新区三林路658号(浦东三新路三林路)"},{"poiid":"B2094757D06BABF5429E","title":"卢浦大桥(济阳路口)","lon":"121.50298","lat":"31.133287","category":"500","category_name":"未知分类","address":"上海济阳路出口"},{"poiid":"B2094757D06BA0FE469A","title":"三林新村","lon":"121.511800009","lat":"31.1362487932","category":"500","category_name":"未知分类","address":"上海市浦东新区永泰路258弄"},{"poiid":"B2094654DA65A7FA4598","title":"风火鼎 灵岩店","lon":"121.49954728354","lat":"31.142924107626","category":"76","category_name":"上海菜","address":"浦东新区灵岩南路1086弄8号(近凌兆路)"},{"poiid":"B2094757D064A5F5479D","title":"三林社区卫生服务中心","lon":"121.498648","lat":"31.139543","category":"500","category_name":"未知分类","address":"上海三林路375号"},{"poiid":"B2094757D16FA5F4499A","title":"苏菲雅摄影基地","lon":"121.5100884","lat":"31.134071745","category":"500","category_name":"未知分类","address":"上海上南路5018弄25号"},{"poiid":"B2094757D465A1FF4899","title":"老八样餐厅","lon":"121.5009795077","lat":"31.132527630102","category":"76","category_name":"上海菜","address":"闵行区沈杜路3129号(近三鲁公路)"},{"poiid":"B2094750D664A1FA439F","title":"外婆小菜","lon":"121.501","lat":"31.1399","category":"76","category_name":"上海菜","address":"浦东新区灵岩南路1200号(近三林路)"},{"poiid":"B2094757D069A3F8459C","title":"海宁阿月煲(三林路店)","lon":"121.50242242","lat":"31.139621493","category":"260","category_name":"其他","address":"浦东新区三林路535号(灵岩南路口)"},{"poiid":"B2094655D36CA7FF469F","title":"红旗","lon":"121.50274","lat":"31.13039","category":"38","category_name":"公交车站","address":""},{"poiid":"B2094654DB6DA0F84093","title":"旺林酒家","lon":"121.50582921752","lat":"31.141371779699","category":"76","category_name":"上海菜","address":"浦东新区三林路767号"},{"poiid":"B2094757D66EA0FE469F","title":"三林镇中林街","lon":"121.50008232","lat":"31.137152542","category":"500","category_name":"未知分类","address":"上海浦东新区三林镇中林街"},{"poiid":"B2094654DA65A7F4479B","title":"浦东新区精神卫生中心(三林路)","lon":"121.49487","lat":"31.13711","category":"162","category_name":"医院","address":"三林路165"},{"poiid":"B2094751D26DAAFF469C","title":"东方艺术中心","lon":"121.50119","lat":"31.130463","category":"500","category_name":"未知分类","address":"浦东新区丁香路425号"},{"poiid":"B2094655D36CA2FA479E","title":"三林路灵岩南路","lon":"121.50036","lat":"31.13949","category":"38","category_name":"公交车站","address":""},{"poiid":"B2094751D36DA4FB449F","title":"锦香楼","lon":"121.50365","lat":"31.14033","category":"77","category_name":"湖南菜","address":"浦东新区三林路616号(近灵岩南路)"},{"poiid":"B2094757D66BA3F5469C","title":"苏北农家菜","lon":"121.49734","lat":"31.1393971","category":"76","category_name":"上海菜","address":"浦东新区长清路2068号(近三林路)"},{"poiid":"B2094654DB6CA4FF4392","title":"三林烈士陵园","lon":"121.50187","lat":"31.13148","category":"620","category_name":"丧葬","address":"三鲁路人民桥南首"},{"poiid":"B2094654DB64A2F9449B","title":"上海市浦东新区三林镇中心小学(三林路)","lon":"121.49912","lat":"31.13833","category":"56","category_name":"小学","address":"浦东新区三林路368号(近上南路)"},{"poiid":"B2094655D26AABF4419B","title":"Qbake","lon":"121.50026","lat":"31.13889","category":"67","category_name":"甜品店","address":"浦东新区三林路424号(近灵岩南路)"},{"poiid":"B2094655D36DA2F84692","title":"三林港桥","lon":"121.49941","lat":"31.1364","category":"250","category_name":"公园户外","address":""},{"poiid":"B2094654DB64A2F9439B","title":"凯越宾馆","lon":"121.50186","lat":"31.13873","category":"250","category_name":"公园户外","address":"上海市浦东新区灵岩南路1333号(近三林路)"},{"poiid":"B2094757D06AA5FC489F","title":"原味坊 三林路店 Qbake","lon":"121.49978","lat":"31.13919","category":"67","category_name":"甜品店","address":"三林路424号近凌岩南路"},{"poiid":"B2094654DA65A7F4419B","title":"三林派出所","lon":"121.5","lat":"31.13633","category":"609","category_name":"警察局","address":"长清路2311号"},{"poiid":"B2094757D66BA4FD4198","title":"巴巴拉休闲餐厅","lon":"121.504256054","lat":"31.127521793","category":"68","category_name":"快餐厅","address":"浦江镇三鲁路2412号近淡中路"},{"poiid":"B2094757D16DA0FA419D","title":"三林路三新路","lon":"121.506581","lat":"31.138418","category":"500","category_name":"未知分类","address":"上海三林路三新路"},{"poiid":"B2094654DB6DA0F8459B","title":"上海市育人中学","lon":"121.50686","lat":"31.13765","category":"55","category_name":"中学","address":"浦东新区三新路15号(三林中学南首)"},{"poiid":"B2094757D16EA3F94198","title":"奥灶面","lon":"121.5001815","lat":"31.1413906","category":"68","category_name":"快餐厅","address":"浦东新区灵岩南路1138弄6号"},{"poiid":"B2094654DA65A7F4409A","title":"世纪华联No.706","lon":"121.49858","lat":"31.13747","category":"117","category_name":"便民商店/便利店","address":""},{"poiid":"B2094757D66EABF8409E","title":"董大师蛙辣风暴(三林路店)","lon":"121.50228","lat":"31.14001","category":"71","category_name":"四川菜","address":"浦东新区三林路523号(近灵岩南路)"},{"poiid":"B2094654DA65A7FA4099","title":"海林商场","lon":"121.50119","lat":"31.13858","category":"119","category_name":"商场","address":""},{"poiid":"B2094655D265A5FE4799","title":"三爱思大楼","lon":"121.49837","lat":"31.13802","category":"46","category_name":"楼宇","address":"三林路332号"},{"poiid":"B2094654DA65A7FB4393","title":"三林社区文化活动中心","lon":"121.49835","lat":"31.13817","category":"248","category_name":"生活娱乐","address":"三林路338"},{"poiid":"B2094751D56AA4FD439D","title":"欢唱KTV","lon":"121.501312","lat":"31.13945","category":"170","category_name":"KTV","address":"灵岩南路三林路"},{"poiid":"B2094752D46AA2F54492","title":"济阳加油站","lon":"121.50298","lat":"31.128126","category":"153","category_name":"加油站","address":"闵行区浦星公路498号"},{"poiid":"B2094655D36CA1F9449F","title":"凌兆路","lon":"121.4996","lat":"31.14291","category":"38","category_name":"公交车站","address":"凌兆路535号东顶发图凌兆店"},{"poiid":"B2094655D26FA4F5439F","title":"三林医院","lon":"121.49864","lat":"31.13954","category":"162","category_name":"医院","address":"三林路375"},{"poiid":"B2094654DA65A7F4429C","title":"快客(三林路)","lon":"121.49737","lat":"31.13803","category":"117","category_name":"便民商店/便利店","address":"三林路279"},{"poiid":"B2094654DA65A7F8499D","title":"中国移动三林塘营业厅","lon":"121.50054","lat":"31.14096","category":"151","category_name":"电讯营业厅","address":"浦东新区灵岩南路1167号"},{"poiid":"B2094757D468A4FD429F","title":"万州炸酱面","lon":"121.500006","lat":"31.143127","category":"68","category_name":"快餐厅","address":"浦东新区灵岩南路958号(近凌兆路)"},{"poiid":"B2094654DB69A4FB479D","title":"重庆鸡公煲 三林路店","lon":"121.501007054","lat":"31.139017793","category":"247","category_name":"餐饮美食","address":"浦东新区灵岩南路988号(近灵岩南路车站)"},{"poiid":"B2094757D16DA0F94993","title":"三林老街庙会","lon":"121.5008689","lat":"31.1396464","category":"500","category_name":"未知分类","address":"上海灵岩南路三林路"},{"poiid":"B2094757D068A2F9499A","title":"上海市浦东棒垒球高尔夫体育公园","lon":"121.49431293","lat":"31.12771542","category":"220","category_name":"运动场所","address":"上海浦星路200号"},{"poiid":"B2094757D76DA0FF409F","title":"品悦酒店 灵岩南路店","lon":"121.5021815","lat":"31.1372262","category":"76","category_name":"上海菜","address":"浦东新区灵岩南路1399弄1号(近三林路)"},{"poiid":"B2094757D064A4FF409F","title":"盱眙倪氏龙虾(三林路店)","lon":"121.50191","lat":"31.13963","category":"68","category_name":"快餐厅","address":"浦东新区三林路517号(近灵岩南路)"},{"poiid":"B2094757D16DA3F8419B","title":"东方体育中心站","lon":"121.492062409","lat":"31.1358151838","category":"500","category_name":"未知分类","address":"上海轨道交通八号线 东方体育中心站"},{"poiid":"B2094757D16EA6F54998","title":"Pu Dong International Airport","lon":"121.49397098","lat":"31.130958838","category":"500","category_name":"未知分类","address":"上海浦东国际机场 2号航站楼"},{"poiid":"B2094757D06BA1F5439A","title":"品悦鼎味上海菜","lon":"121.50293185","lat":"31.13361831","category":"247","category_name":"餐饮美食","address":"上海浦东灵岩南路1399弄1号"},{"poiid":"B2094757D068A7FE4893","title":"老盛昌苏州汤包馆(三林店)","lon":"121.50114","lat":"31.13879","category":"68","category_name":"快餐厅","address":"浦东新区灵岩南路1166号(近三林路)"},{"poiid":"B2094751D36CA0F5439D","title":"三林本帮馆","lon":"121.5017","lat":"31.13729","category":"76","category_name":"上海菜","address":"浦东新区中林街65号(近人民桥)"},{"poiid":"B2094654DB6DA0F8459E","title":"上海市三林中学","lon":"121.50445","lat":"31.14043","category":"55","category_name":"中学","address":"浦东新区三林路658号(浦东三新路三林路)"},{"poiid":"B2094757D06BABF5429E","title":"卢浦大桥(济阳路口)","lon":"121.50298","lat":"31.133287","category":"500","category_name":"未知分类","address":"上海济阳路出口"},{"poiid":"B2094757D06BA0FE469A","title":"三林新村","lon":"121.511800009","lat":"31.1362487932","category":"500","category_name":"未知分类","address":"上海市浦东新区永泰路258弄"},{"poiid":"B2094654DA65A7FA4598","title":"风火鼎 灵岩店","lon":"121.49954728354","lat":"31.142924107626","category":"76","category_name":"上海菜","address":"浦东新区灵岩南路1086弄8号(近凌兆路)"},{"poiid":"B2094757D064A5F5479D","title":"三林社区卫生服务中心","lon":"121.498648","lat":"31.139543","category":"500","category_name":"未知分类","address":"上海三林路375号"},{"poiid":"B2094757D16FA5F4499A","title":"苏菲雅摄影基地","lon":"121.5100884","lat":"31.134071745","category":"500","category_name":"未知分类","address":"上海上南路5018弄25号"},{"poiid":"B2094757D465A1FF4899","title":"老八样餐厅","lon":"121.5009795077","lat":"31.132527630102","category":"76","category_name":"上海菜","address":"闵行区沈杜路3129号(近三鲁公路)"},{"poiid":"B2094750D664A1FA439F","title":"外婆小菜","lon":"121.501","lat":"31.1399","category":"76","category_name":"上海菜","address":"浦东新区灵岩南路1200号(近三林路)"},{"poiid":"B2094757D069A3F8459C","title":"海宁阿月煲(三林路店)","lon":"121.50242242","lat":"31.139621493","category":"260","category_name":"其他","address":"浦东新区三林路535号(灵岩南路口)"},{"poiid":"B2094655D36CA7FF469F","title":"红旗","lon":"121.50274","lat":"31.13039","category":"38","category_name":"公交车站","address":""},{"poiid":"B2094654DB6DA0F84093","title":"旺林酒家","lon":"121.50582921752","lat":"31.141371779699","category":"76","category_name":"上海菜","address":"浦东新区三林路767号"},{"poiid":"B2094757D66EA0FE469F","title":"三林镇中林街","lon":"121.50008232","lat":"31.137152542","category":"500","category_name":"未知分类","address":"上海浦东新区三林镇中林街"},{"poiid":"B2094654DA65A7F4479B","title":"浦东新区精神卫生中心(三林路)","lon":"121.49487","lat":"31.13711","category":"162","category_name":"医院","address":"三林路165"},{"poiid":"B2094751D26DAAFF469C","title":"东方艺术中心","lon":"121.50119","lat":"31.130463","category":"500","category_name":"未知分类","address":"浦东新区丁香路425号"},{"poiid":"B2094655D36CA2FA479E","title":"三林路灵岩南路","lon":"121.50036","lat":"31.13949","category":"38","category_name":"公交车站","address":""},{"poiid":"B2094751D36DA4FB449F","title":"锦香楼","lon":"121.50365","lat":"31.14033","category":"77","category_name":"湖南菜","address":"浦东新区三林路616号(近灵岩南路)"},{"poiid":"B2094757D66BA3F5469C","title":"苏北农家菜","lon":"121.49734","lat":"31.1393971","category":"76","category_name":"上海菜","address":"浦东新区长清路2068号(近三林路)"},{"poiid":"B2094654DB6CA4FF4392","title":"三林烈士陵园","lon":"121.50187","lat":"31.13148","category":"620","category_name":"丧葬","address":"三鲁路人民桥南首"},{"poiid":"B2094654DB64A2F9449B","title":"上海市浦东新区三林镇中心小学(三林路)","lon":"121.49912","lat":"31.13833","category":"56","category_name":"小学","address":"浦东新区三林路368号(近上南路)"},{"poiid":"B2094655D26AABF4419B","title":"Qbake","lon":"121.50026","lat":"31.13889","category":"67","category_name":"甜品店","address":"浦东新区三林路424号(近灵岩南路)"},{"poiid":"B2094655D36DA2F84692","title":"三林港桥","lon":"121.49941","lat":"31.1364","category":"250","category_name":"公园户外","address":""},{"poiid":"B2094654DB64A2F9439B","title":"凯越宾馆","lon":"121.50186","lat":"31.13873","category":"250","category_name":"公园户外","address":"上海市浦东新区灵岩南路1333号(近三林路)"},{"poiid":"B2094757D06AA5FC489F","title":"原味坊 三林路店 Qbake","lon":"121.49978","lat":"31.13919","category":"67","category_name":"甜品店","address":"三林路424号近凌岩南路"},{"poiid":"B2094654DA65A7F4419B","title":"三林派出所","lon":"121.5","lat":"31.13633","category":"609","category_name":"警察局","address":"长清路2311号"},{"poiid":"B2094757D66BA4FD4198","title":"巴巴拉休闲餐厅","lon":"121.504256054","lat":"31.127521793","category":"68","category_name":"快餐厅","address":"浦江镇三鲁路2412号近淡中路"},{"poiid":"B2094757D16DA0FA419D","title":"三林路三新路","lon":"121.506581","lat":"31.138418","category":"500","category_name":"未知分类","address":"上海三林路三新路"},{"poiid":"B2094654DB6DA0F8459B","title":"上海市育人中学","lon":"121.50686","lat":"31.13765","category":"55","category_name":"中学","address":"浦东新区三新路15号(三林中学南首)"},{"poiid":"B2094757D16EA3F94198","title":"奥灶面","lon":"121.5001815","lat":"31.1413906","category":"68","category_name":"快餐厅","address":"浦东新区灵岩南路1138弄6号"},{"poiid":"B2094654DA65A7F4409A","title":"世纪华联No.706","lon":"121.49858","lat":"31.13747","category":"117","category_name":"便民商店/便利店","address":""},{"poiid":"B2094757D66EABF8409E","title":"董大师蛙辣风暴(三林路店)","lon":"121.50228","lat":"31.14001","category":"71","category_name":"四川菜","address":"浦东新区三林路523号(近灵岩南路)"},{"poiid":"B2094654DA65A7FA4099","title":"海林商场","lon":"121.50119","lat":"31.13858","category":"119","category_name":"商场","address":""},{"poiid":"B2094655D265A5FE4799","title":"三爱思大楼","lon":"121.49837","lat":"31.13802","category":"46","category_name":"楼宇","address":"三林路332号"},{"poiid":"B2094654DA65A7FB4393","title":"三林社区文化活动中心","lon":"121.49835","lat":"31.13817","category":"248","category_name":"生活娱乐","address":"三林路338"},{"poiid":"B2094751D56AA4FD439D","title":"欢唱KTV","lon":"121.501312","lat":"31.13945","category":"170","category_name":"KTV","address":"灵岩南路三林路"},{"poiid":"B2094752D46AA2F54492","title":"济阳加油站","lon":"121.50298","lat":"31.128126","category":"153","category_name":"加油站","address":"闵行区浦星公路498号"},{"poiid":"B2094655D36CA1F9449F","title":"凌兆路","lon":"121.4996","lat":"31.14291","category":"38","category_name":"公交车站","address":"凌兆路535号东顶发图凌兆店"},{"poiid":"B2094655D26FA4F5439F","title":"三林医院","lon":"121.49864","lat":"31.13954","category":"162","category_name":"医院","address":"三林路375"},{"poiid":"B2094654DA65A7F4429C","title":"快客(三林路)","lon":"121.49737","lat":"31.13803","category":"117","category_name":"便民商店/便利店","address":"三林路279"},{"poiid":"B2094654DA65A7F8499D","title":"中国移动三林塘营业厅","lon":"121.50054","lat":"31.14096","category":"151","category_name":"电讯营业厅","address":"浦东新区灵岩南路1167号"},{"poiid":"B2094757D468A4FD429F","title":"万州炸酱面","lon":"121.500006","lat":"31.143127","category":"68","category_name":"快餐厅","address":"浦东新区灵岩南路958号(近凌兆路)"},{"poiid":"B2094654DB69A4FB479D","title":"重庆鸡公煲 三林路店","lon":"121.501007054","lat":"31.139017793","category":"247","category_name":"餐饮美食","address":"浦东新区灵岩南路988号(近灵岩南路车站)"}]