[{"poiid":"B2094655D26FA1F54398","title":"中远两湾城","lon":"121.44433","lat":"31.252873","category":"47","category_name":"住宅区","address":"上海中潭路100弄2～360号"},{"poiid":"B2094757D06EAAFF429B","title":"中潭路地铁站","lon":"121.441638","lat":"31.254717","category":"36","category_name":"地铁站","address":"上海轨道交通 三号线 四号线 轨交中潭路站 轻轨 3 4"},{"poiid":"B2094757D06FA4FE489A","title":"普陀山海鲜大酒店(普陀店)","lon":"121.44526","lat":"31.25736","category":"88","category_name":"海鲜酒楼","address":"普陀区骊山路16号(近中山北路)"},{"poiid":"B2094757D06FA4F4499A","title":"宜川中学","lon":"121.44539","lat":"31.26099","category":"55","category_name":"中学","address":"普陀区华阴路101号(近骊山路)"},{"poiid":"B2094655D36DA7F8429B","title":"中山北路交通路","lon":"121.4464","lat":"31.25764","category":"38","category_name":"公交车站","address":"上海市普陀区交通路1461弄"},{"poiid":"B2094654DB69A5F5459E","title":"格林豪泰酒店(中山沪太店)","lon":"121.44665","lat":"31.25716","category":"216","category_name":"经济型连锁酒店","address":"普陀区中山北路1228号(近骊山路)"},{"poiid":"B2094757D068AAFA419D","title":"平江盛世家园","lon":"121.447951","lat":"31.256852","category":"47","category_name":"住宅区","address":"上海市闸北区交城路386弄"},{"poiid":"B2094757D068A3FD4599","title":"振鼎鸡(华阴路店)","lon":"121.44187","lat":"31.25862","category":"68","category_name":"快餐厅","address":"普陀区华阴路290号(华阴路宜川路)"},{"poiid":"B2094654DB65A4F44098","title":"宜山三村小区","lon":"121.44438","lat":"31.25863","category":"47","category_name":"住宅区","address":"骊山路60"},{"poiid":"B2094757D66FA0F94292","title":"格林豪泰酒店集团","lon":"121.44475531","lat":"31.256250857","category":"46","category_name":"楼宇","address":"上海普陀区中山北路1238号"},{"poiid":"B2094757D069A2F54092","title":"阿拉丁清真餐厅","lon":"121.44803","lat":"31.25408","category":"90","category_name":"清真餐馆","address":"普陀区交通西路21号克拉玛依宾馆1楼(近交通路)"},{"poiid":"B2094654D465A7FB409D","title":"智荟苑","lon":"121.44738","lat":"31.255966","category":"47","category_name":"住宅区","address":"交通西路129弄1-21"},{"poiid":"B2094757DA65A5F4419C","title":"布丁酒店连锁（上海火车站店）","lon":"121.447259","lat":"31.257248","category":"216","category_name":"经济型连锁酒店","address":"上海市普陀区中山北路1218号(近交通西路)。"},{"poiid":"B2094655D26AA0F9409D","title":"地铁中潭路站","lon":"121.44163","lat":"31.25471","category":"36","category_name":"地铁站","address":""},{"poiid":"B2094654D464A4F54899","title":"上海东晨饭店","lon":"121.44454","lat":"31.25749","category":"250","category_name":"公园户外","address":"上海市普陀区中山北路1235号(近骊山路口)。"},{"poiid":"B2094757D06FA6F8419D","title":"宜川五村","lon":"121.44450845","lat":"31.261044428","category":"47","category_name":"住宅区","address":"骊山路18-28号"},{"poiid":"B2094654DB6AABF4469C","title":"上海克拉玛依石油宾馆","lon":"121.44759","lat":"31.25407","category":"250","category_name":"公园户外","address":"上海普陀区交通路1333号(近交通路)"},{"poiid":"B209475CD768A7FE4893","title":"寻芋记","lon":"121.445098","lat":"31.256946","category":"247","category_name":"餐饮美食","address":"上海市 上海市普陀区宜川路79号"},{"poiid":"B2094654D465A7FA4892","title":"龚家宅","lon":"121.44506","lat":"31.255194","category":"47","category_name":"住宅区","address":"交通路1459弄-1461弄"},{"poiid":"B2094757D66FA1FC489A","title":"开心麻辣烫馆","lon":"121.44577895","lat":"31.257487821","category":"68","category_name":"快餐厅","address":"宝山区新沪路689号红灯笼小吃街旁(近大华二路)"},{"poiid":"B2094752D664A0FB489A","title":"上海火车站","lon":"121.443191","lat":"31.254116","category":"500","category_name":"未知分类","address":null},{"poiid":"B2094751D569A3FB4298","title":"上海火車站","lon":"121.446503","lat":"31.255588","category":"627","category_name":"一般地点标志","address":null},{"poiid":"B2094654D464A4F5489D","title":"泰山三村小区","lon":"121.4465","lat":"31.25832","category":"47","category_name":"住宅区","address":"中山北路1171"},{"poiid":"B2094654D464A4F5489C","title":"上海市宜川中学附属学校","lon":"121.44586","lat":"31.25805","category":"55","category_name":"中学","address":"普陀区中山北路1179号(近骊山路)"},{"poiid":"B2094750D76EA2FA439D","title":"小东北饺子","lon":"121.446","lat":"31.2571","category":"68","category_name":"快餐厅","address":"普陀区中山北路1230号(近骊山路)"},{"poiid":"B2094655D265A2FA489E","title":"丽萍拉面店","lon":"121.44523","lat":"31.25823","category":"68","category_name":"快餐厅","address":"普陀区骊山路11号(近中山北路)"},{"poiid":"B2094757D465ABFD479F","title":"新亚大包 骊山店","lon":"121.44483611746","lat":"31.259238383079","category":"68","category_name":"快餐厅","address":"普陀区骊山路9号(近华阴路)"},{"poiid":"B2094751DA6DA0FF4599","title":"陆家嘴","lon":"121.443936","lat":"31.255561","category":"500","category_name":"未知分类","address":null},{"poiid":"B2094654DB69A5F4419F","title":"重庆鸡公煲 宜川路店","lon":"121.441","lat":"31.25666","category":"86","category_name":"火锅店","address":"普陀区中华新路1182号(近交通西路)"},{"poiid":"B2094757D464A0F8459A","title":"交通路恒悦轩","lon":"121.444893054","lat":"31.255087793","category":"76","category_name":"上海菜","address":"交通西路21号克拉玛依宾馆1楼（或交通路1333号）近交通路"},{"poiid":"B209475DD56EA2F54999","title":"田子坊","lon":"121.444259","lat":"31.255485","category":"627","category_name":"一般地点标志","address":"上海市 上海市卢湾区打浦桥"},{"poiid":"B2094654DB69AAFC459F","title":"伊诺咖啡(中山北路店)","lon":"121.44786","lat":"31.25776","category":"65","category_name":"咖啡厅","address":"普陀区中山北路2786号"},{"poiid":"B2094654D465A7F44392","title":"快客No.6823","lon":"121.44688","lat":"31.25724","category":"117","category_name":"便民商店/便利店","address":"中山北路1228乙"},{"poiid":"B2094654DA6CA5FC429C","title":"三维大厦","lon":"121.448","lat":"31.2533","category":"46","category_name":"楼宇","address":"卢湾区局门路427号(邮编:200023)"},{"poiid":"B2094654D465A7FB409C","title":"新黄浦实验学校","lon":"121.44778","lat":"31.25473","category":"56","category_name":"小学","address":"交通西路95"},{"poiid":"B2094757D068AAFA4598","title":"骊山路","lon":"121.445451","lat":"31.257908","category":"260","category_name":"其他","address":"上海普陀区骊山路"},{"poiid":"B2094757D16FA6F54793","title":"滬太路中山北路","lon":"121.44481595","lat":"31.257211815","category":"500","category_name":"未知分类","address":"上海市滬太路中山北路"},{"poiid":"B2094757D16DA4FA429E","title":"沪太路、中山北路口","lon":"121.44452695","lat":"31.2585448412","category":"500","category_name":"未知分类","address":"上海沪太路中山北路"},{"poiid":"B2094654DB69AAFF449D","title":"上海市宜川医院","lon":"121.44461","lat":"31.25974","category":"162","category_name":"医院","address":"普陀区骊山路43号"},{"poiid":"B2094757D16CA2F84198","title":"飘飘家","lon":"121.44593395","lat":"31.2560797941","category":"500","category_name":"未知分类","address":null},{"poiid":"B2094655D26CA7F84598","title":"泰山三村小区(南门)","lon":"121.44653","lat":"31.25783","category":"47","category_name":"住宅区","address":""},{"poiid":"B2094655D265AAFF4799","title":"平江新城","lon":"121.44737","lat":"31.25596","category":"47","category_name":"住宅区","address":"上海市普陀区交通西路129弄1-21号"},{"poiid":"B2094757D064A7FE429A","title":"宜川社区文化活动中心","lon":"121.442475","lat":"31.259062","category":"500","category_name":"未知分类","address":"上海华阴路200号"},{"poiid":"B2094757D16BA0FF479F","title":"CaiNE&amp;Audrey's House","lon":"121.4444381","lat":"31.257263367","category":"500","category_name":"未知分类","address":"上海浦东新区南汇惠南镇西门村西乐路669号"},{"poiid":"B2094757D16DA2FD4598","title":"妮'S 窝窝","lon":"121.44550095","lat":"31.2583698379","category":"247","category_name":"餐饮美食","address":null},{"poiid":"B209475DD769A5FC479D","title":"世纪公园","lon":"121.448425","lat":"31.255264","category":"250","category_name":"公园户外","address":"上海市 上海市浦东新区锦绣路1001号"},{"poiid":"B2094757D065A0FC4098","title":"华阴路烧烤摊","lon":"121.44405","lat":"31.25953","category":"68","category_name":"快餐厅","address":"普陀区华阴路(骊山路口)"},{"poiid":"B2094655D36DA6FF4299","title":"中潭路","lon":"121.44163","lat":"31.25471","category":"38","category_name":"公交车站","address":""},{"poiid":"B2094654D465A7FB4092","title":"智荟苑(东门)","lon":"121.44751","lat":"31.2561","category":"47","category_name":"住宅区","address":"交通西路129弄1-21"},{"poiid":"B2094654D465A7FA4993","title":"可的(交通路)","lon":"121.4465","lat":"31.25463","category":"117","category_name":"便民商店/便利店","address":"普陀区交通路1421号"},{"poiid":"B2094655D26FA1F54398","title":"中远两湾城","lon":"121.44433","lat":"31.252873","category":"47","category_name":"住宅区","address":"上海中潭路100弄2～360号"},{"poiid":"B2094757D06EAAFF429B","title":"中潭路地铁站","lon":"121.441638","lat":"31.254717","category":"36","category_name":"地铁站","address":"上海轨道交通 三号线 四号线 轨交中潭路站 轻轨 3 4"},{"poiid":"B2094757D06FA4FE489A","title":"普陀山海鲜大酒店(普陀店)","lon":"121.44526","lat":"31.25736","category":"88","category_name":"海鲜酒楼","address":"普陀区骊山路16号(近中山北路)"},{"poiid":"B2094757D06FA4F4499A","title":"宜川中学","lon":"121.44539","lat":"31.26099","category":"55","category_name":"中学","address":"普陀区华阴路101号(近骊山路)"},{"poiid":"B2094655D36DA7F8429B","title":"中山北路交通路","lon":"121.4464","lat":"31.25764","category":"38","category_name":"公交车站","address":"上海市普陀区交通路1461弄"},{"poiid":"B2094654DB69A5F5459E","title":"格林豪泰酒店(中山沪太店)","lon":"121.44665","lat":"31.25716","category":"216","category_name":"经济型连锁酒店","address":"普陀区中山北路1228号(近骊山路)"},{"poiid":"B2094757D068AAFA419D","title":"平江盛世家园","lon":"121.447951","lat":"31.256852","category":"47","category_name":"住宅区","address":"上海市闸北区交城路386弄"},{"poiid":"B2094757D068A3FD4599","title":"振鼎鸡(华阴路店)","lon":"121.44187","lat":"31.25862","category":"68","category_name":"快餐厅","address":"普陀区华阴路290号(华阴路宜川路)"},{"poiid":"B2094654DB65A4F44098","title":"宜山三村小区","lon":"121.44438","lat":"31.25863","category":"47","category_name":"住宅区","address":"骊山路60"},{"poiid":"B2094757D66FA0F94292","title":"格林豪泰酒店集团","lon":"121.44475531","lat":"31.256250857","category":"46","category_name":"楼宇","address":"上海普陀区中山北路1238号"},{"poiid":"B2094757D069A2F54092","title":"阿拉丁清真餐厅","lon":"121.44803","lat":"31.25408","category":"90","category_name":"清真餐馆","address":"普陀区交通西路21号克拉玛依宾馆1楼(近交通路)"},{"poiid":"B2094654D465A7FB409D","title":"智荟苑","lon":"121.44738","lat":"31.255966","category":"47","category_name":"住宅区","address":"交通西路129弄1-21"},{"poiid":"B2094757DA65A5F4419C","title":"布丁酒店连锁（上海火车站店）","lon":"121.447259","lat":"31.257248","category":"216","category_name":"经济型连锁酒店","address":"上海市普陀区中山北路1218号(近交通西路)。"},{"poiid":"B2094655D26AA0F9409D","title":"地铁中潭路站","lon":"121.44163","lat":"31.25471","category":"36","category_name":"地铁站","address":""},{"poiid":"B2094654D464A4F54899","title":"上海东晨饭店","lon":"121.44454","lat":"31.25749","category":"250","category_name":"公园户外","address":"上海市普陀区中山北路1235号(近骊山路口)。"},{"poiid":"B2094757D06FA6F8419D","title":"宜川五村","lon":"121.44450845","lat":"31.261044428","category":"47","category_name":"住宅区","address":"骊山路18-28号"},{"poiid":"B2094654DB6AABF4469C","title":"上海克拉玛依石油宾馆","lon":"121.44759","lat":"31.25407","category":"250","category_name":"公园户外","address":"上海普陀区交通路1333号(近交通路)"},{"poiid":"B209475CD768A7FE4893","title":"寻芋记","lon":"121.445098","lat":"31.256946","category":"247","category_name":"餐饮美食","address":"上海市 上海市普陀区宜川路79号"},{"poiid":"B2094654D465A7FA4892","title":"龚家宅","lon":"121.44506","lat":"31.255194","category":"47","category_name":"住宅区","address":"交通路1459弄-1461弄"},{"poiid":"B2094757D66FA1FC489A","title":"开心麻辣烫馆","lon":"121.44577895","lat":"31.257487821","category":"68","category_name":"快餐厅","address":"宝山区新沪路689号红灯笼小吃街旁(近大华二路)"},{"poiid":"B2094752D664A0FB489A","title":"上海火车站","lon":"121.443191","lat":"31.254116","category":"500","category_name":"未知分类","address":null},{"poiid":"B2094751D569A3FB4298","title":"上海火車站","lon":"121.446503","lat":"31.255588","category":"627","category_name":"一般地点标志","address":null},{"poiid":"B2094654D464A4F5489D","title":"泰山三村小区","lon":"121.4465","lat":"31.25832","category":"47","category_name":"住宅区","address":"中山北路1171"},{"poiid":"B2094654D464A4F5489C","title":"上海市宜川中学附属学校","lon":"121.44586","lat":"31.25805","category":"55","category_name":"中学","address":"普陀区中山北路1179号(近骊山路)"},{"poiid":"B2094750D76EA2FA439D","title":"小东北饺子","lon":"121.446","lat":"31.2571","category":"68","category_name":"快餐厅","address":"普陀区中山北路1230号(近骊山路)"},{"poiid":"B2094655D265A2FA489E","title":"丽萍拉面店","lon":"121.44523","lat":"31.25823","category":"68","category_name":"快餐厅","address":"普陀区骊山路11号(近中山北路)"},{"poiid":"B2094757D465ABFD479F","title":"新亚大包 骊山店","lon":"121.44483611746","lat":"31.259238383079","category":"68","category_name":"快餐厅","address":"普陀区骊山路9号(近华阴路)"},{"poiid":"B2094751DA6DA0FF4599","title":"陆家嘴","lon":"121.443936","lat":"31.255561","category":"500","category_name":"未知分类","address":null},{"poiid":"B2094654DB69A5F4419F","title":"重庆鸡公煲 宜川路店","lon":"121.441","lat":"31.25666","category":"86","category_name":"火锅店","address":"普陀区中华新路1182号(近交通西路)"},{"poiid":"B2094757D464A0F8459A","title":"交通路恒悦轩","lon":"121.444893054","lat":"31.255087793","category":"76","category_name":"上海菜","address":"交通西路21号克拉玛依宾馆1楼（或交通路1333号）近交通路"},{"poiid":"B209475DD56EA2F54999","title":"田子坊","lon":"121.444259","lat":"31.255485","category":"627","category_name":"一般地点标志","address":"上海市 上海市卢湾区打浦桥"},{"poiid":"B2094654DB69AAFC459F","title":"伊诺咖啡(中山北路店)","lon":"121.44786","lat":"31.25776","category":"65","category_name":"咖啡厅","address":"普陀区中山北路2786号"},{"poiid":"B2094654D465A7F44392","title":"快客No.6823","lon":"121.44688","lat":"31.25724","category":"117","category_name":"便民商店/便利店","address":"中山北路1228乙"},{"poiid":"B2094654DA6CA5FC429C","title":"三维大厦","lon":"121.448","lat":"31.2533","category":"46","category_name":"楼宇","address":"卢湾区局门路427号(邮编:200023)"},{"poiid":"B2094654D465A7FB409C","title":"新黄浦实验学校","lon":"121.44778","lat":"31.25473","category":"56","category_name":"小学","address":"交通西路95"},{"poiid":"B2094757D068AAFA4598","title":"骊山路","lon":"121.445451","lat":"31.257908","category":"260","category_name":"其他","address":"上海普陀区骊山路"},{"poiid":"B2094757D16FA6F54793","title":"滬太路中山北路","lon":"121.44481595","lat":"31.257211815","category":"500","category_name":"未知分类","address":"上海市滬太路中山北路"},{"poiid":"B2094757D16DA4FA429E","title":"沪太路、中山北路口","lon":"121.44452695","lat":"31.2585448412","category":"500","category_name":"未知分类","address":"上海沪太路中山北路"},{"poiid":"B2094654DB69AAFF449D","title":"上海市宜川医院","lon":"121.44461","lat":"31.25974","category":"162","category_name":"医院","address":"普陀区骊山路43号"},{"poiid":"B2094757D16CA2F84198","title":"飘飘家","lon":"121.44593395","lat":"31.2560797941","category":"500","category_name":"未知分类","address":null},{"poiid":"B2094655D26CA7F84598","title":"泰山三村小区(南门)","lon":"121.44653","lat":"31.25783","category":"47","category_name":"住宅区","address":""},{"poiid":"B2094655D265AAFF4799","title":"平江新城","lon":"121.44737","lat":"31.25596","category":"47","category_name":"住宅区","address":"上海市普陀区交通西路129弄1-21号"},{"poiid":"B2094757D064A7FE429A","title":"宜川社区文化活动中心","lon":"121.442475","lat":"31.259062","category":"500","category_name":"未知分类","address":"上海华阴路200号"},{"poiid":"B2094757D16BA0FF479F","title":"CaiNE&amp;Audrey's House","lon":"121.4444381","lat":"31.257263367","category":"500","category_name":"未知分类","address":"上海浦东新区南汇惠南镇西门村西乐路669号"},{"poiid":"B2094757D16DA2FD4598","title":"妮'S 窝窝","lon":"121.44550095","lat":"31.2583698379","category":"247","category_name":"餐饮美食","address":null},{"poiid":"B209475DD769A5FC479D","title":"世纪公园","lon":"121.448425","lat":"31.255264","category":"250","category_name":"公园户外","address":"上海市 上海市浦东新区锦绣路1001号"},{"poiid":"B2094757D065A0FC4098","title":"华阴路烧烤摊","lon":"121.44405","lat":"31.25953","category":"68","category_name":"快餐厅","address":"普陀区华阴路(骊山路口)"},{"poiid":"B2094655D36DA6FF4299","title":"中潭路","lon":"121.44163","lat":"31.25471","category":"38","category_name":"公交车站","address":""},{"poiid":"B2094654D465A7FB4092","title":"智荟苑(东门)","lon":"121.44751","lat":"31.2561","category":"47","category_name":"住宅区","address":"交通西路129弄1-21"},{"poiid":"B2094654D465A7FA4993","title":"可的(交通路)","lon":"121.4465","lat":"31.25463","category":"117","category_name":"便民商店/便利店","address":"普陀区交通路1421号"},{"poiid":"B2094655D26FA1F54398","title":"中远两湾城","lon":"121.44433","lat":"31.252873","category":"47","category_name":"住宅区","address":"上海中潭路100弄2～360号"},{"poiid":"B2094757D06EAAFF429B","title":"中潭路地铁站","lon":"121.441638","lat":"31.254717","category":"36","category_name":"地铁站","address":"上海轨道交通 三号线 四号线 轨交中潭路站 轻轨 3 4"},{"poiid":"B2094757D06FA4FE489A","title":"普陀山海鲜大酒店(普陀店)","lon":"121.44526","lat":"31.25736","category":"88","category_name":"海鲜酒楼","address":"普陀区骊山路16号(近中山北路)"},{"poiid":"B2094757D06FA4F4499A","title":"宜川中学","lon":"121.44539","lat":"31.26099","category":"55","category_name":"中学","address":"普陀区华阴路101号(近骊山路)"},{"poiid":"B2094655D36DA7F8429B","title":"中山北路交通路","lon":"121.4464","lat":"31.25764","category":"38","category_name":"公交车站","address":"上海市普陀区交通路1461弄"},{"poiid":"B2094654DB69A5F5459E","title":"格林豪泰酒店(中山沪太店)","lon":"121.44665","lat":"31.25716","category":"216","category_name":"经济型连锁酒店","address":"普陀区中山北路1228号(近骊山路)"},{"poiid":"B2094757D068AAFA419D","title":"平江盛世家园","lon":"121.447951","lat":"31.256852","category":"47","category_name":"住宅区","address":"上海市闸北区交城路386弄"},{"poiid":"B2094757D068A3FD4599","title":"振鼎鸡(华阴路店)","lon":"121.44187","lat":"31.25862","category":"68","category_name":"快餐厅","address":"普陀区华阴路290号(华阴路宜川路)"},{"poiid":"B2094654DB65A4F44098","title":"宜山三村小区","lon":"121.44438","lat":"31.25863","category":"47","category_name":"住宅区","address":"骊山路60"},{"poiid":"B2094757D66FA0F94292","title":"格林豪泰酒店集团","lon":"121.44475531","lat":"31.256250857","category":"46","category_name":"楼宇","address":"上海普陀区中山北路1238号"},{"poiid":"B2094757D069A2F54092","title":"阿拉丁清真餐厅","lon":"121.44803","lat":"31.25408","category":"90","category_name":"清真餐馆","address":"普陀区交通西路21号克拉玛依宾馆1楼(近交通路)"},{"poiid":"B2094654D465A7FB409D","title":"智荟苑","lon":"121.44738","lat":"31.255966","category":"47","category_name":"住宅区","address":"交通西路129弄1-21"},{"poiid":"B2094757DA65A5F4419C","title":"布丁酒店连锁（上海火车站店）","lon":"121.447259","lat":"31.257248","category":"216","category_name":"经济型连锁酒店","address":"上海市普陀区中山北路1218号(近交通西路)。"},{"poiid":"B2094655D26AA0F9409D","title":"地铁中潭路站","lon":"121.44163","lat":"31.25471","category":"36","category_name":"地铁站","address":""},{"poiid":"B2094654D464A4F54899","title":"上海东晨饭店","lon":"121.44454","lat":"31.25749","category":"250","category_name":"公园户外","address":"上海市普陀区中山北路1235号(近骊山路口)。"},{"poiid":"B2094757D06FA6F8419D","title":"宜川五村","lon":"121.44450845","lat":"31.261044428","category":"47","category_name":"住宅区","address":"骊山路18-28号"},{"poiid":"B2094654DB6AABF4469C","title":"上海克拉玛依石油宾馆","lon":"121.44759","lat":"31.25407","category":"250","category_name":"公园户外","address":"上海普陀区交通路1333号(近交通路)"},{"poiid":"B209475CD768A7FE4893","title":"寻芋记","lon":"121.445098","lat":"31.256946","category":"247","category_name":"餐饮美食","address":"上海市 上海市普陀区宜川路79号"},{"poiid":"B2094654D465A7FA4892","title":"龚家宅","lon":"121.44506","lat":"31.255194","category":"47","category_name":"住宅区","address":"交通路1459弄-1461弄"},{"poiid":"B2094757D66FA1FC489A","title":"开心麻辣烫馆","lon":"121.44577895","lat":"31.257487821","category":"68","category_name":"快餐厅","address":"宝山区新沪路689号红灯笼小吃街旁(近大华二路)"},{"poiid":"B2094752D664A0FB489A","title":"上海火车站","lon":"121.443191","lat":"31.254116","category":"500","category_name":"未知分类","address":null},{"poiid":"B2094751D569A3FB4298","title":"上海火車站","lon":"121.446503","lat":"31.255588","category":"627","category_name":"一般地点标志","address":null},{"poiid":"B2094654D464A4F5489D","title":"泰山三村小区","lon":"121.4465","lat":"31.25832","category":"47","category_name":"住宅区","address":"中山北路1171"},{"poiid":"B2094654D464A4F5489C","title":"上海市宜川中学附属学校","lon":"121.44586","lat":"31.25805","category":"55","category_name":"中学","address":"普陀区中山北路1179号(近骊山路)"},{"poiid":"B2094750D76EA2FA439D","title":"小东北饺子","lon":"121.446","lat":"31.2571","category":"68","category_name":"快餐厅","address":"普陀区中山北路1230号(近骊山路)"},{"poiid":"B2094655D265A2FA489E","title":"丽萍拉面店","lon":"121.44523","lat":"31.25823","category":"68","category_name":"快餐厅","address":"普陀区骊山路11号(近中山北路)"},{"poiid":"B2094757D465ABFD479F","title":"新亚大包 骊山店","lon":"121.44483611746","lat":"31.259238383079","category":"68","category_name":"快餐厅","address":"普陀区骊山路9号(近华阴路)"},{"poiid":"B2094751DA6DA0FF4599","title":"陆家嘴","lon":"121.443936","lat":"31.255561","category":"500","category_name":"未知分类","address":null},{"poiid":"B2094654DB69A5F4419F","title":"重庆鸡公煲 宜川路店","lon":"121.441","lat":"31.25666","category":"86","category_name":"火锅店","address":"普陀区中华新路1182号(近交通西路)"},{"poiid":"B2094757D464A0F8459A","title":"交通路恒悦轩","lon":"121.444893054","lat":"31.255087793","category":"76","category_name":"上海菜","address":"交通西路21号克拉玛依宾馆1楼（或交通路1333号）近交通路"},{"poiid":"B209475DD56EA2F54999","title":"田子坊","lon":"121.444259","lat":"31.255485","category":"627","category_name":"一般地点标志","address":"上海市 上海市卢湾区打浦桥"},{"poiid":"B2094654DB69AAFC459F","title":"伊诺咖啡(中山北路店)","lon":"121.44786","lat":"31.25776","category":"65","category_name":"咖啡厅","address":"普陀区中山北路2786号"},{"poiid":"B2094654D465A7F44392","title":"快客No.6823","lon":"121.44688","lat":"31.25724","category":"117","category_name":"便民商店/便利店","address":"中山北路1228乙"},{"poiid":"B2094654DA6CA5FC429C","title":"三维大厦","lon":"121.448","lat":"31.2533","category":"46","category_name":"楼宇","address":"卢湾区局门路427号(邮编:200023)"},{"poiid":"B2094654D465A7FB409C","title":"新黄浦实验学校","lon":"121.44778","lat":"31.25473","category":"56","category_name":"小学","address":"交通西路95"},{"poiid":"B2094757D068AAFA4598","title":"骊山路","lon":"121.445451","lat":"31.257908","category":"260","category_name":"其他","address":"上海普陀区骊山路"},{"poiid":"B2094757D16FA6F54793","title":"滬太路中山北路","lon":"121.44481595","lat":"31.257211815","category":"500","category_name":"未知分类","address":"上海市滬太路中山北路"},{"poiid":"B2094757D16DA4FA429E","title":"沪太路、中山北路口","lon":"121.44452695","lat":"31.2585448412","category":"500","category_name":"未知分类","address":"上海沪太路中山北路"},{"poiid":"B2094654DB69AAFF449D","title":"上海市宜川医院","lon":"121.44461","lat":"31.25974","category":"162","category_name":"医院","address":"普陀区骊山路43号"},{"poiid":"B2094757D16CA2F84198","title":"飘飘家","lon":"121.44593395","lat":"31.2560797941","category":"500","category_name":"未知分类","address":null},{"poiid":"B2094655D26CA7F84598","title":"泰山三村小区(南门)","lon":"121.44653","lat":"31.25783","category":"47","category_name":"住宅区","address":""},{"poiid":"B2094655D265AAFF4799","title":"平江新城","lon":"121.44737","lat":"31.25596","category":"47","category_name":"住宅区","address":"上海市普陀区交通西路129弄1-21号"},{"poiid":"B2094757D064A7FE429A","title":"宜川社区文化活动中心","lon":"121.442475","lat":"31.259062","category":"500","category_name":"未知分类","address":"上海华阴路200号"},{"poiid":"B2094757D16BA0FF479F","title":"CaiNE&amp;Audrey's House","lon":"121.4444381","lat":"31.257263367","category":"500","category_name":"未知分类","address":"上海浦东新区南汇惠南镇西门村西乐路669号"},{"poiid":"B2094757D16DA2FD4598","title":"妮'S 窝窝","lon":"121.44550095","lat":"31.2583698379","category":"247","category_name":"餐饮美食","address":null},{"poiid":"B209475DD769A5FC479D","title":"世纪公园","lon":"121.448425","lat":"31.255264","category":"250","category_name":"公园户外","address":"上海市 上海市浦东新区锦绣路1001号"},{"poiid":"B2094757D065A0FC4098","title":"华阴路烧烤摊","lon":"121.44405","lat":"31.25953","category":"68","category_name":"快餐厅","address":"普陀区华阴路(骊山路口)"},{"poiid":"B2094655D36DA6FF4299","title":"中潭路","lon":"121.44163","lat":"31.25471","category":"38","category_name":"公交车站","address":""},{"poiid":"B2094654D465A7FB4092","title":"智荟苑(东门)","lon":"121.44751","lat":"31.2561","category":"47","category_name":"住宅区","address":"交通西路129弄1-21"},{"poiid":"B2094654D465A7FA4993","title":"可的(交通路)","lon":"121.4465","lat":"31.25463","category":"117","category_name":"便民商店/便利店","address":"普陀区交通路1421号"},{"poiid":"B2094655D26FA1F54398","title":"中远两湾城","lon":"121.44433","lat":"31.252873","category":"47","category_name":"住宅区","address":"上海中潭路100弄2～360号"},{"poiid":"B2094757D06EAAFF429B","title":"中潭路地铁站","lon":"121.441638","lat":"31.254717","category":"36","category_name":"地铁站","address":"上海轨道交通 三号线 四号线 轨交中潭路站 轻轨 3 4"},{"poiid":"B2094757D06FA4FE489A","title":"普陀山海鲜大酒店(普陀店)","lon":"121.44526","lat":"31.25736","category":"88","category_name":"海鲜酒楼","address":"普陀区骊山路16号(近中山北路)"},{"poiid":"B2094757D06FA4F4499A","title":"宜川中学","lon":"121.44539","lat":"31.26099","category":"55","category_name":"中学","address":"普陀区华阴路101号(近骊山路)"},{"poiid":"B2094655D36DA7F8429B","title":"中山北路交通路","lon":"121.4464","lat":"31.25764","category":"38","category_name":"公交车站","address":"上海市普陀区交通路1461弄"},{"poiid":"B2094654DB69A5F5459E","title":"格林豪泰酒店(中山沪太店)","lon":"121.44665","lat":"31.25716","category":"216","category_name":"经济型连锁酒店","address":"普陀区中山北路1228号(近骊山路)"},{"poiid":"B2094757D068AAFA419D","title":"平江盛世家园","lon":"121.447951","lat":"31.256852","category":"47","category_name":"住宅区","address":"上海市闸北区交城路386弄"},{"poiid":"B2094757D068A3FD4599","title":"振鼎鸡(华阴路店)","lon":"121.44187","lat":"31.25862","category":"68","category_name":"快餐厅","address":"普陀区华阴路290号(华阴路宜川路)"},{"poiid":"B2094654DB65A4F44098","title":"宜山三村小区","lon":"121.44438","lat":"31.25863","category":"47","category_name":"住宅区","address":"骊山路60"},{"poiid":"B2094757D66FA0F94292","title":"格林豪泰酒店集团","lon":"121.44475531","lat":"31.256250857","category":"46","category_name":"楼宇","address":"上海普陀区中山北路1238号"},{"poiid":"B2094757D069A2F54092","title":"阿拉丁清真餐厅","lon":"121.44803","lat":"31.25408","category":"90","category_name":"清真餐馆","address":"普陀区交通西路21号克拉玛依宾馆1楼(近交通路)"},{"poiid":"B2094654D465A7FB409D","title":"智荟苑","lon":"121.44738","lat":"31.255966","category":"47","category_name":"住宅区","address":"交通西路129弄1-21"},{"poiid":"B2094757DA65A5F4419C","title":"布丁酒店连锁（上海火车站店）","lon":"121.447259","lat":"31.257248","category":"216","category_name":"经济型连锁酒店","address":"上海市普陀区中山北路1218号(近交通西路)。"},{"poiid":"B2094655D26AA0F9409D","title":"地铁中潭路站","lon":"121.44163","lat":"31.25471","category":"36","category_name":"地铁站","address":""},{"poiid":"B2094654D464A4F54899","title":"上海东晨饭店","lon":"121.44454","lat":"31.25749","category":"250","category_name":"公园户外","address":"上海市普陀区中山北路1235号(近骊山路口)。"},{"poiid":"B2094757D06FA6F8419D","title":"宜川五村","lon":"121.44450845","lat":"31.261044428","category":"47","category_name":"住宅区","address":"骊山路18-28号"},{"poiid":"B2094654DB6AABF4469C","title":"上海克拉玛依石油宾馆","lon":"121.44759","lat":"31.25407","category":"250","category_name":"公园户外","address":"上海普陀区交通路1333号(近交通路)"},{"poiid":"B209475CD768A7FE4893","title":"寻芋记","lon":"121.445098","lat":"31.256946","category":"247","category_name":"餐饮美食","address":"上海市 上海市普陀区宜川路79号"},{"poiid":"B2094654D465A7FA4892","title":"龚家宅","lon":"121.44506","lat":"31.255194","category":"47","category_name":"住宅区","address":"交通路1459弄-1461弄"},{"poiid":"B2094757D66FA1FC489A","title":"开心麻辣烫馆","lon":"121.44577895","lat":"31.257487821","category":"68","category_name":"快餐厅","address":"宝山区新沪路689号红灯笼小吃街旁(近大华二路)"},{"poiid":"B2094752D664A0FB489A","title":"上海火车站","lon":"121.443191","lat":"31.254116","category":"500","category_name":"未知分类","address":null},{"poiid":"B2094751D569A3FB4298","title":"上海火車站","lon":"121.446503","lat":"31.255588","category":"627","category_name":"一般地点标志","address":null},{"poiid":"B2094654D464A4F5489D","title":"泰山三村小区","lon":"121.4465","lat":"31.25832","category":"47","category_name":"住宅区","address":"中山北路1171"},{"poiid":"B2094654D464A4F5489C","title":"上海市宜川中学附属学校","lon":"121.44586","lat":"31.25805","category":"55","category_name":"中学","address":"普陀区中山北路1179号(近骊山路)"},{"poiid":"B2094750D76EA2FA439D","title":"小东北饺子","lon":"121.446","lat":"31.2571","category":"68","category_name":"快餐厅","address":"普陀区中山北路1230号(近骊山路)"},{"poiid":"B2094655D265A2FA489E","title":"丽萍拉面店","lon":"121.44523","lat":"31.25823","category":"68","category_name":"快餐厅","address":"普陀区骊山路11号(近中山北路)"},{"poiid":"B2094757D465ABFD479F","title":"新亚大包 骊山店","lon":"121.44483611746","lat":"31.259238383079","category":"68","category_name":"快餐厅","address":"普陀区骊山路9号(近华阴路)"},{"poiid":"B2094751DA6DA0FF4599","title":"陆家嘴","lon":"121.443936","lat":"31.255561","category":"500","category_name":"未知分类","address":null},{"poiid":"B2094654DB69A5F4419F","title":"重庆鸡公煲 宜川路店","lon":"121.441","lat":"31.25666","category":"86","category_name":"火锅店","address":"普陀区中华新路1182号(近交通西路)"},{"poiid":"B2094757D464A0F8459A","title":"交通路恒悦轩","lon":"121.444893054","lat":"31.255087793","category":"76","category_name":"上海菜","address":"交通西路21号克拉玛依宾馆1楼（或交通路1333号）近交通路"},{"poiid":"B209475DD56EA2F54999","title":"田子坊","lon":"121.444259","lat":"31.255485","category":"627","category_name":"一般地点标志","address":"上海市 上海市卢湾区打浦桥"},{"poiid":"B2094654DB69AAFC459F","title":"伊诺咖啡(中山北路店)","lon":"121.44786","lat":"31.25776","category":"65","category_name":"咖啡厅","address":"普陀区中山北路2786号"},{"poiid":"B2094654D465A7F44392","title":"快客No.6823","lon":"121.44688","lat":"31.25724","category":"117","category_name":"便民商店/便利店","address":"中山北路1228乙"},{"poiid":"B2094654DA6CA5FC429C","title":"三维大厦","lon":"121.448","lat":"31.2533","category":"46","category_name":"楼宇","address":"卢湾区局门路427号(邮编:200023)"},{"poiid":"B2094654D465A7FB409C","title":"新黄浦实验学校","lon":"121.44778","lat":"31.25473","category":"56","category_name":"小学","address":"交通西路95"},{"poiid":"B2094757D068AAFA4598","title":"骊山路","lon":"121.445451","lat":"31.257908","category":"260","category_name":"其他","address":"上海普陀区骊山路"},{"poiid":"B2094757D16FA6F54793","title":"滬太路中山北路","lon":"121.44481595","lat":"31.257211815","category":"500","category_name":"未知分类","address":"上海市滬太路中山北路"},{"poiid":"B2094757D16DA4FA429E","title":"沪太路、中山北路口","lon":"121.44452695","lat":"31.2585448412","category":"500","category_name":"未知分类","address":"上海沪太路中山北路"},{"poiid":"B2094654DB69AAFF449D","title":"上海市宜川医院","lon":"121.44461","lat":"31.25974","category":"162","category_name":"医院","address":"普陀区骊山路43号"},{"poiid":"B2094757D16CA2F84198","title":"飘飘家","lon":"121.44593395","lat":"31.2560797941","category":"500","category_name":"未知分类","address":null},{"poiid":"B2094655D26CA7F84598","title":"泰山三村小区(南门)","lon":"121.44653","lat":"31.25783","category":"47","category_name":"住宅区","address":""},{"poiid":"B2094655D265AAFF4799","title":"平江新城","lon":"121.44737","lat":"31.25596","category":"47","category_name":"住宅区","address":"上海市普陀区交通西路129弄1-21号"},{"poiid":"B2094757D064A7FE429A","title":"宜川社区文化活动中心","lon":"121.442475","lat":"31.259062","category":"500","category_name":"未知分类","address":"上海华阴路200号"},{"poiid":"B2094757D16BA0FF479F","title":"CaiNE&amp;Audrey's House","lon":"121.4444381","lat":"31.257263367","category":"500","category_name":"未知分类","address":"上海浦东新区南汇惠南镇西门村西乐路669号"},{"poiid":"B2094757D16DA2FD4598","title":"妮'S 窝窝","lon":"121.44550095","lat":"31.2583698379","category":"247","category_name":"餐饮美食","address":null},{"poiid":"B209475DD769A5FC479D","title":"世纪公园","lon":"121.448425","lat":"31.255264","category":"250","category_name":"公园户外","address":"上海市 上海市浦东新区锦绣路1001号"},{"poiid":"B2094757D065A0FC4098","title":"华阴路烧烤摊","lon":"121.44405","lat":"31.25953","category":"68","category_name":"快餐厅","address":"普陀区华阴路(骊山路口)"},{"poiid":"B2094655D36DA6FF4299","title":"中潭路","lon":"121.44163","lat":"31.25471","category":"38","category_name":"公交车站","address":""},{"poiid":"B2094654D465A7FB4092","title":"智荟苑(东门)","lon":"121.44751","lat":"31.2561","category":"47","category_name":"住宅区","address":"交通西路129弄1-21"},{"poiid":"B2094654D465A7FA4993","title":"可的(交通路)","lon":"121.4465","lat":"31.25463","category":"117","category_name":"便民商店/便利店","address":"普陀区交通路1421号"}]