[{"poiid":"B2094655D26BA2F5439C","title":"浦东市民中心","lon":"121.54692","lat":"31.22326","category":"38","category_name":"公交车站","address":"合欢路2号"},{"poiid":"B2094757D06FA4FF479C","title":"进才中学","lon":"121.54602813","lat":"31.22998619","category":"55","category_name":"中学","address":"浦东新区杨高中路2788号(近成山路)"},{"poiid":"B2094757D06AA3F84792","title":"浦东新区民政局","lon":"121.546454","lat":"31.224071","category":"500","category_name":"未知分类","address":"上海合欢路2号"},{"poiid":"B2094757D06FA6F54999","title":"东怡大酒店","lon":"121.54299542","lat":"31.22411864","category":"217","category_name":"旅馆招待所","address":"浦东新区丁香路555号(东方艺术中心旁)"},{"poiid":"B2094655D36DA0F8489F","title":"杨高中路地铁站","lon":"121.5487","lat":"31.22704","category":"36","category_name":"地铁站","address":"上海轨道交通 九号线 轨交杨高中路站 9"},{"poiid":"B2094757D06FA0F44798","title":"上海浦东出入境检验检疫局","lon":"121.54857635","lat":"31.225637435","category":"500","category_name":"未知分类","address":"上海民生路1208号"},{"poiid":"B2094757D06FABF44193","title":"长泰国际金融大厦","lon":"121.542","lat":"31.231","category":"46","category_name":"楼宇","address":"上海市浦东新区世纪大道1589号"},{"poiid":"B2094654DB6BAAFC499A","title":"证大五道口广场","lon":"121.55026","lat":"31.22629","category":"45","category_name":"产业园区","address":"浦东新区民生路1199弄"},{"poiid":"B2094757D06FA1F5459F","title":"中建大厦","lon":"121.54","lat":"31.2295","category":"46","category_name":"楼宇","address":"上海市浦东新区世纪大道1568号"},{"poiid":"B2094654DA69A3FE489F","title":"浦东新区人民法院","lon":"121.54447","lat":"31.22483","category":"608","category_name":"法院","address":"上海市浦东新区丁香路611号"},{"poiid":"B2094757D06FA6FA469D","title":"重庆老火锅","lon":"121.54202","lat":"31.23087","category":"86","category_name":"火锅店","address":"浦东新区羽山路288号(近桃林路)"},{"poiid":"B2094655D26BA2F54398","title":"浦东新区办公中心","lon":"121.54511","lat":"31.22245","category":"38","category_name":"公交车站","address":""},{"poiid":"B2094757D068A5F8469D","title":"大马可意大利餐厅(羽山店)","lon":"121.54301","lat":"31.23189","category":"94","category_name":"西餐厅","address":"浦东新区羽山路350号(近桃林路)"},{"poiid":"B2094654DA69ABF5489A","title":"陆家嘴钻石大厦","lon":"121.543","lat":"31.2305","category":"46","category_name":"楼宇","address":"中央商务区CBD22号"},{"poiid":"B2094757D068A0F4479C","title":"上海移动浦东大楼","lon":"121.549956738","lat":"31.2248151847","category":"500","category_name":"未知分类","address":"上海迎春路670号"},{"poiid":"B2094757D06AA3FF4998","title":"东方希望大厦","lon":"121.54448413658","lat":"31.229635061024","category":"46","category_name":"楼宇","address":"世纪大道1777号"},{"poiid":"B2094757D068A3FD439B","title":"上海人家精作坊(汇商店)","lon":"121.54943","lat":"31.22415","category":"76","category_name":"上海菜","address":"浦东新区民生路1286号汇商大厦3-4楼(丁香路口)"},{"poiid":"B2094757D069A0FB4392","title":"民生路杨高中路","lon":"121.54730074","lat":"31.227248106","category":"500","category_name":"未知分类","address":"上海民生路杨高中路"},{"poiid":"B2094757D069A2FF419B","title":"上海市工商行政管理局浦东新区分局","lon":"121.544212738","lat":"31.2269792308","category":"250","category_name":"公园户外","address":"上海浦东新区杨高中路2900号(近桃林路)"},{"poiid":"B2094757D069A7F8409B","title":"浦东新区公安分局","lon":"121.54691967","lat":"31.224898359","category":"500","category_name":"未知分类","address":"上海浦东新区丁香路655号"},{"poiid":"B2094757D16CAAFB419C","title":"上海银监局","lon":"121.54826773","lat":"31.224110169","category":"500","category_name":"未知分类","address":"上海合欢路35号"},{"poiid":"B2094655D26EA2F4409C","title":"长荣大厦","lon":"121.55006","lat":"31.22619","category":"46","category_name":"楼宇","address":"民生路1199弄证大五道口广场2号楼(南楼)"},{"poiid":"B2094757D069A5FC439C","title":"陆家嘴花园二期(峰会)","lon":"121.54248869","lat":"31.230623372","category":"47","category_name":"住宅区","address":"陆家嘴花园二期(峰会)位于浦东桃林路815弄"},{"poiid":"B2094757D06AA5F94392","title":"进才中学游泳馆","lon":"121.54661","lat":"31.22665","category":"231","category_name":"游泳馆","address":"上海浦东新区杨高中路2788号(近民生路)"},{"poiid":"B2094757D168A2FC419D","title":"民生路杨高中路路口","lon":"121.54592273","lat":"31.22743401","category":"500","category_name":"未知分类","address":"上海浦东新区民生路杨高中路路口"},{"poiid":"B2094654DB6BABF5469E","title":"桃林一小区","lon":"121.54308","lat":"31.228199","category":"47","category_name":"住宅区","address":"灵山路600弄1-44号"},{"poiid":"B2094753DB6BA7FC489D","title":"金茂大厦","lon":"121.543998","lat":"31.227897","category":"252","category_name":"楼宇机构","address":"上海市 陆家嘴环路888号"},{"poiid":"B2094655D36CA6F44799","title":"丁香路合欢路","lon":"121.54483","lat":"31.22438","category":"38","category_name":"公交车站","address":""},{"poiid":"B2094655D26BAAFD4493","title":"阿英煲","lon":"121.54076","lat":"31.22727","category":"257","category_name":"中餐厅","address":""},{"poiid":"B2094757D064A7F5439C","title":"民生路","lon":"121.54518141","lat":"31.231733962","category":"500","category_name":"未知分类","address":"上海民生路"},{"poiid":"B2094654DA69A1FB469F","title":"由由燕乔大厦","lon":"121.541","lat":"31.2287","category":"46","category_name":"楼宇","address":"静安区长寿路(万航渡路口)"},{"poiid":"B2094757D16EA7FF479F","title":"上海音乐烟花节","lon":"121.54709373","lat":"31.224774183","category":"500","category_name":"未知分类","address":"上海世纪公园"},{"poiid":"B2094757D16CA5FF489F","title":"豆香园","lon":"121.540669682","lat":"31.2269513783","category":"196","category_name":"公园","address":"浦东新区灵山路412号(桃林路口)"},{"poiid":"B2094654DA69A3FE4892","title":"上海市公安局浦东分局","lon":"121.54676","lat":"31.22548","category":"248","category_name":"生活娱乐","address":"丁香路655"},{"poiid":"B2094654DB64A4FA469D","title":"馨月汇","lon":"121.54143","lat":"31.2271","category":"47","category_name":"住宅区","address":"上海桃林路1160号"},{"poiid":"B2094757D169A6FB4692","title":"浦东新区法院执行庭","lon":"121.544430738","lat":"31.2262222147","category":"500","category_name":"未知分类","address":"上海杨高南路2980号"},{"poiid":"B2094757D169A5F8439D","title":"證大五道口廣場","lon":"121.54916673","lat":"31.227318238","category":"500","category_name":"未知分类","address":"上海市浦东新区民生路1199弄1號樓1902室"},{"poiid":"B2094655D36DA6FE499F","title":"杨高中路","lon":"121.54866","lat":"31.22758","category":"38","category_name":"公交车站","address":""},{"poiid":"B2094757D06AABFE439B","title":"上海出入境檢驗檢疫局","lon":"121.54858","lat":"31.225638","category":"500","category_name":"未知分类","address":"上海民生路1208號"},{"poiid":"B2094655D26EA0F84692","title":"城市超市(滨江店)","lon":"121.54353","lat":"31.22918","category":"118","category_name":"超级市场","address":"浦东新区陆家嘴花园石桥路33号"},{"poiid":"B2094654DB65A0FC4893","title":"光明便利店","lon":"121.54271","lat":"31.2284","category":"117","category_name":"便民商店/便利店","address":"浦东新区峨山路191-193号(近东方路)"},{"poiid":"B2094655D26AA5F8499C","title":"翠玲珑咖啡厅","lon":"121.54348544734","lat":"31.223913869652","category":"268","category_name":"自助","address":"浦东新区丁香路555号东怡大酒店1楼(近世纪大道)"},{"poiid":"B2094757D568A5F8459D","title":"浦东民防办公楼","lon":"121.5427219","lat":"31.22594417","category":"46","category_name":"楼宇","address":"合欢路25号"},{"poiid":"B2094757D16FA3F5439E","title":"桃林小区","lon":"121.54473","lat":"31.230835","category":"47","category_name":"住宅区","address":"上海市浦东新区民生路818弄"},{"poiid":"B2094757D66CA7FA409F","title":"中国证监会上海证监局","lon":"121.54776273","lat":"31.22228513","category":"500","category_name":"未知分类","address":"上海市浦东新区迎春路555号"},{"poiid":"B2094654DA69A3F9439E","title":"进才中学(南门)","lon":"121.54633","lat":"31.227","category":"656","category_name":"大门","address":"杨高中路2788号"},{"poiid":"B2094757D568ABF94393","title":"中星恬园","lon":"121.54885","lat":"31.229","category":"47","category_name":"住宅区","address":"民生路999弄1-40号"},{"poiid":"B2094757D465ABFD4293","title":"东怡大酒店荟萃厅 宴会厅","lon":"121.54348544734","lat":"31.223913869652","category":"72","category_name":"广东菜","address":"丁香路555号东怡大酒店2楼近锦带路"},{"poiid":"B2094757D16CAAF8459B","title":"Da Marco Pudong","lon":"121.542728","lat":"31.23196","category":"500","category_name":"未知分类","address":"上海浦东羽山路350号"},{"poiid":"B2094654DA69A3F8469F","title":"进才培训中心","lon":"121.54444","lat":"31.22895","category":"190","category_name":"培训机构","address":"灵山路638"},{"poiid":"B2094655D26BA2F5439C","title":"浦东市民中心","lon":"121.54692","lat":"31.22326","category":"38","category_name":"公交车站","address":"合欢路2号"},{"poiid":"B2094757D06FA4FF479C","title":"进才中学","lon":"121.54602813","lat":"31.22998619","category":"55","category_name":"中学","address":"浦东新区杨高中路2788号(近成山路)"},{"poiid":"B2094757D06AA3F84792","title":"浦东新区民政局","lon":"121.546454","lat":"31.224071","category":"500","category_name":"未知分类","address":"上海合欢路2号"},{"poiid":"B2094757D06FA6F54999","title":"东怡大酒店","lon":"121.54299542","lat":"31.22411864","category":"217","category_name":"旅馆招待所","address":"浦东新区丁香路555号(东方艺术中心旁)"},{"poiid":"B2094655D36DA0F8489F","title":"杨高中路地铁站","lon":"121.5487","lat":"31.22704","category":"36","category_name":"地铁站","address":"上海轨道交通 九号线 轨交杨高中路站 9"},{"poiid":"B2094757D06FA0F44798","title":"上海浦东出入境检验检疫局","lon":"121.54857635","lat":"31.225637435","category":"500","category_name":"未知分类","address":"上海民生路1208号"},{"poiid":"B2094757D06FABF44193","title":"长泰国际金融大厦","lon":"121.542","lat":"31.231","category":"46","category_name":"楼宇","address":"上海市浦东新区世纪大道1589号"},{"poiid":"B2094654DB6BAAFC499A","title":"证大五道口广场","lon":"121.55026","lat":"31.22629","category":"45","category_name":"产业园区","address":"浦东新区民生路1199弄"},{"poiid":"B2094757D06FA1F5459F","title":"中建大厦","lon":"121.54","lat":"31.2295","category":"46","category_name":"楼宇","address":"上海市浦东新区世纪大道1568号"},{"poiid":"B2094654DA69A3FE489F","title":"浦东新区人民法院","lon":"121.54447","lat":"31.22483","category":"608","category_name":"法院","address":"上海市浦东新区丁香路611号"},{"poiid":"B2094757D06FA6FA469D","title":"重庆老火锅","lon":"121.54202","lat":"31.23087","category":"86","category_name":"火锅店","address":"浦东新区羽山路288号(近桃林路)"},{"poiid":"B2094655D26BA2F54398","title":"浦东新区办公中心","lon":"121.54511","lat":"31.22245","category":"38","category_name":"公交车站","address":""},{"poiid":"B2094757D068A5F8469D","title":"大马可意大利餐厅(羽山店)","lon":"121.54301","lat":"31.23189","category":"94","category_name":"西餐厅","address":"浦东新区羽山路350号(近桃林路)"},{"poiid":"B2094654DA69ABF5489A","title":"陆家嘴钻石大厦","lon":"121.543","lat":"31.2305","category":"46","category_name":"楼宇","address":"中央商务区CBD22号"},{"poiid":"B2094757D068A0F4479C","title":"上海移动浦东大楼","lon":"121.549956738","lat":"31.2248151847","category":"500","category_name":"未知分类","address":"上海迎春路670号"},{"poiid":"B2094757D06AA3FF4998","title":"东方希望大厦","lon":"121.54448413658","lat":"31.229635061024","category":"46","category_name":"楼宇","address":"世纪大道1777号"},{"poiid":"B2094757D068A3FD439B","title":"上海人家精作坊(汇商店)","lon":"121.54943","lat":"31.22415","category":"76","category_name":"上海菜","address":"浦东新区民生路1286号汇商大厦3-4楼(丁香路口)"},{"poiid":"B2094757D069A0FB4392","title":"民生路杨高中路","lon":"121.54730074","lat":"31.227248106","category":"500","category_name":"未知分类","address":"上海民生路杨高中路"},{"poiid":"B2094757D069A2FF419B","title":"上海市工商行政管理局浦东新区分局","lon":"121.544212738","lat":"31.2269792308","category":"250","category_name":"公园户外","address":"上海浦东新区杨高中路2900号(近桃林路)"},{"poiid":"B2094757D069A7F8409B","title":"浦东新区公安分局","lon":"121.54691967","lat":"31.224898359","category":"500","category_name":"未知分类","address":"上海浦东新区丁香路655号"},{"poiid":"B2094757D16CAAFB419C","title":"上海银监局","lon":"121.54826773","lat":"31.224110169","category":"500","category_name":"未知分类","address":"上海合欢路35号"},{"poiid":"B2094655D26EA2F4409C","title":"长荣大厦","lon":"121.55006","lat":"31.22619","category":"46","category_name":"楼宇","address":"民生路1199弄证大五道口广场2号楼(南楼)"},{"poiid":"B2094757D069A5FC439C","title":"陆家嘴花园二期(峰会)","lon":"121.54248869","lat":"31.230623372","category":"47","category_name":"住宅区","address":"陆家嘴花园二期(峰会)位于浦东桃林路815弄"},{"poiid":"B2094757D06AA5F94392","title":"进才中学游泳馆","lon":"121.54661","lat":"31.22665","category":"231","category_name":"游泳馆","address":"上海浦东新区杨高中路2788号(近民生路)"},{"poiid":"B2094757D168A2FC419D","title":"民生路杨高中路路口","lon":"121.54592273","lat":"31.22743401","category":"500","category_name":"未知分类","address":"上海浦东新区民生路杨高中路路口"},{"poiid":"B2094654DB6BABF5469E","title":"桃林一小区","lon":"121.54308","lat":"31.228199","category":"47","category_name":"住宅区","address":"灵山路600弄1-44号"},{"poiid":"B2094753DB6BA7FC489D","title":"金茂大厦","lon":"121.543998","lat":"31.227897","category":"252","category_name":"楼宇机构","address":"上海市 陆家嘴环路888号"},{"poiid":"B2094655D36CA6F44799","title":"丁香路合欢路","lon":"121.54483","lat":"31.22438","category":"38","category_name":"公交车站","address":""},{"poiid":"B2094655D26BAAFD4493","title":"阿英煲","lon":"121.54076","lat":"31.22727","category":"257","category_name":"中餐厅","address":""},{"poiid":"B2094757D064A7F5439C","title":"民生路","lon":"121.54518141","lat":"31.231733962","category":"500","category_name":"未知分类","address":"上海民生路"},{"poiid":"B2094654DA69A1FB469F","title":"由由燕乔大厦","lon":"121.541","lat":"31.2287","category":"46","category_name":"楼宇","address":"静安区长寿路(万航渡路口)"},{"poiid":"B2094757D16EA7FF479F","title":"上海音乐烟花节","lon":"121.54709373","lat":"31.224774183","category":"500","category_name":"未知分类","address":"上海世纪公园"},{"poiid":"B2094757D16CA5FF489F","title":"豆香园","lon":"121.540669682","lat":"31.2269513783","category":"196","category_name":"公园","address":"浦东新区灵山路412号(桃林路口)"},{"poiid":"B2094654DA69A3FE4892","title":"上海市公安局浦东分局","lon":"121.54676","lat":"31.22548","category":"248","category_name":"生活娱乐","address":"丁香路655"},{"poiid":"B2094654DB64A4FA469D","title":"馨月汇","lon":"121.54143","lat":"31.2271","category":"47","category_name":"住宅区","address":"上海桃林路1160号"},{"poiid":"B2094757D169A6FB4692","title":"浦东新区法院执行庭","lon":"121.544430738","lat":"31.2262222147","category":"500","category_name":"未知分类","address":"上海杨高南路2980号"},{"poiid":"B2094757D169A5F8439D","title":"證大五道口廣場","lon":"121.54916673","lat":"31.227318238","category":"500","category_name":"未知分类","address":"上海市浦东新区民生路1199弄1號樓1902室"},{"poiid":"B2094655D36DA6FE499F","title":"杨高中路","lon":"121.54866","lat":"31.22758","category":"38","category_name":"公交车站","address":""},{"poiid":"B2094757D06AABFE439B","title":"上海出入境檢驗檢疫局","lon":"121.54858","lat":"31.225638","category":"500","category_name":"未知分类","address":"上海民生路1208號"},{"poiid":"B2094655D26EA0F84692","title":"城市超市(滨江店)","lon":"121.54353","lat":"31.22918","category":"118","category_name":"超级市场","address":"浦东新区陆家嘴花园石桥路33号"},{"poiid":"B2094654DB65A0FC4893","title":"光明便利店","lon":"121.54271","lat":"31.2284","category":"117","category_name":"便民商店/便利店","address":"浦东新区峨山路191-193号(近东方路)"},{"poiid":"B2094655D26AA5F8499C","title":"翠玲珑咖啡厅","lon":"121.54348544734","lat":"31.223913869652","category":"268","category_name":"自助","address":"浦东新区丁香路555号东怡大酒店1楼(近世纪大道)"},{"poiid":"B2094757D568A5F8459D","title":"浦东民防办公楼","lon":"121.5427219","lat":"31.22594417","category":"46","category_name":"楼宇","address":"合欢路25号"},{"poiid":"B2094757D16FA3F5439E","title":"桃林小区","lon":"121.54473","lat":"31.230835","category":"47","category_name":"住宅区","address":"上海市浦东新区民生路818弄"},{"poiid":"B2094757D66CA7FA409F","title":"中国证监会上海证监局","lon":"121.54776273","lat":"31.22228513","category":"500","category_name":"未知分类","address":"上海市浦东新区迎春路555号"},{"poiid":"B2094654DA69A3F9439E","title":"进才中学(南门)","lon":"121.54633","lat":"31.227","category":"656","category_name":"大门","address":"杨高中路2788号"},{"poiid":"B2094757D568ABF94393","title":"中星恬园","lon":"121.54885","lat":"31.229","category":"47","category_name":"住宅区","address":"民生路999弄1-40号"},{"poiid":"B2094757D465ABFD4293","title":"东怡大酒店荟萃厅 宴会厅","lon":"121.54348544734","lat":"31.223913869652","category":"72","category_name":"广东菜","address":"丁香路555号东怡大酒店2楼近锦带路"},{"poiid":"B2094757D16CAAF8459B","title":"Da Marco Pudong","lon":"121.542728","lat":"31.23196","category":"500","category_name":"未知分类","address":"上海浦东羽山路350号"},{"poiid":"B2094654DA69A3F8469F","title":"进才培训中心","lon":"121.54444","lat":"31.22895","category":"190","category_name":"培训机构","address":"灵山路638"},{"poiid":"B2094655D26BA2F5439C","title":"浦东市民中心","lon":"121.54692","lat":"31.22326","category":"38","category_name":"公交车站","address":"合欢路2号"},{"poiid":"B2094757D06FA4FF479C","title":"进才中学","lon":"121.54602813","lat":"31.22998619","category":"55","category_name":"中学","address":"浦东新区杨高中路2788号(近成山路)"},{"poiid":"B2094757D06AA3F84792","title":"浦东新区民政局","lon":"121.546454","lat":"31.224071","category":"500","category_name":"未知分类","address":"上海合欢路2号"},{"poiid":"B2094757D06FA6F54999","title":"东怡大酒店","lon":"121.54299542","lat":"31.22411864","category":"217","category_name":"旅馆招待所","address":"浦东新区丁香路555号(东方艺术中心旁)"},{"poiid":"B2094655D36DA0F8489F","title":"杨高中路地铁站","lon":"121.5487","lat":"31.22704","category":"36","category_name":"地铁站","address":"上海轨道交通 九号线 轨交杨高中路站 9"},{"poiid":"B2094757D06FA0F44798","title":"上海浦东出入境检验检疫局","lon":"121.54857635","lat":"31.225637435","category":"500","category_name":"未知分类","address":"上海民生路1208号"},{"poiid":"B2094757D06FABF44193","title":"长泰国际金融大厦","lon":"121.542","lat":"31.231","category":"46","category_name":"楼宇","address":"上海市浦东新区世纪大道1589号"},{"poiid":"B2094654DB6BAAFC499A","title":"证大五道口广场","lon":"121.55026","lat":"31.22629","category":"45","category_name":"产业园区","address":"浦东新区民生路1199弄"},{"poiid":"B2094757D06FA1F5459F","title":"中建大厦","lon":"121.54","lat":"31.2295","category":"46","category_name":"楼宇","address":"上海市浦东新区世纪大道1568号"},{"poiid":"B2094654DA69A3FE489F","title":"浦东新区人民法院","lon":"121.54447","lat":"31.22483","category":"608","category_name":"法院","address":"上海市浦东新区丁香路611号"},{"poiid":"B2094757D06FA6FA469D","title":"重庆老火锅","lon":"121.54202","lat":"31.23087","category":"86","category_name":"火锅店","address":"浦东新区羽山路288号(近桃林路)"},{"poiid":"B2094655D26BA2F54398","title":"浦东新区办公中心","lon":"121.54511","lat":"31.22245","category":"38","category_name":"公交车站","address":""},{"poiid":"B2094757D068A5F8469D","title":"大马可意大利餐厅(羽山店)","lon":"121.54301","lat":"31.23189","category":"94","category_name":"西餐厅","address":"浦东新区羽山路350号(近桃林路)"},{"poiid":"B2094654DA69ABF5489A","title":"陆家嘴钻石大厦","lon":"121.543","lat":"31.2305","category":"46","category_name":"楼宇","address":"中央商务区CBD22号"},{"poiid":"B2094757D068A0F4479C","title":"上海移动浦东大楼","lon":"121.549956738","lat":"31.2248151847","category":"500","category_name":"未知分类","address":"上海迎春路670号"},{"poiid":"B2094757D06AA3FF4998","title":"东方希望大厦","lon":"121.54448413658","lat":"31.229635061024","category":"46","category_name":"楼宇","address":"世纪大道1777号"},{"poiid":"B2094757D068A3FD439B","title":"上海人家精作坊(汇商店)","lon":"121.54943","lat":"31.22415","category":"76","category_name":"上海菜","address":"浦东新区民生路1286号汇商大厦3-4楼(丁香路口)"},{"poiid":"B2094757D069A0FB4392","title":"民生路杨高中路","lon":"121.54730074","lat":"31.227248106","category":"500","category_name":"未知分类","address":"上海民生路杨高中路"},{"poiid":"B2094757D069A2FF419B","title":"上海市工商行政管理局浦东新区分局","lon":"121.544212738","lat":"31.2269792308","category":"250","category_name":"公园户外","address":"上海浦东新区杨高中路2900号(近桃林路)"},{"poiid":"B2094757D069A7F8409B","title":"浦东新区公安分局","lon":"121.54691967","lat":"31.224898359","category":"500","category_name":"未知分类","address":"上海浦东新区丁香路655号"},{"poiid":"B2094757D16CAAFB419C","title":"上海银监局","lon":"121.54826773","lat":"31.224110169","category":"500","category_name":"未知分类","address":"上海合欢路35号"},{"poiid":"B2094655D26EA2F4409C","title":"长荣大厦","lon":"121.55006","lat":"31.22619","category":"46","category_name":"楼宇","address":"民生路1199弄证大五道口广场2号楼(南楼)"},{"poiid":"B2094757D069A5FC439C","title":"陆家嘴花园二期(峰会)","lon":"121.54248869","lat":"31.230623372","category":"47","category_name":"住宅区","address":"陆家嘴花园二期(峰会)位于浦东桃林路815弄"},{"poiid":"B2094757D06AA5F94392","title":"进才中学游泳馆","lon":"121.54661","lat":"31.22665","category":"231","category_name":"游泳馆","address":"上海浦东新区杨高中路2788号(近民生路)"},{"poiid":"B2094757D168A2FC419D","title":"民生路杨高中路路口","lon":"121.54592273","lat":"31.22743401","category":"500","category_name":"未知分类","address":"上海浦东新区民生路杨高中路路口"},{"poiid":"B2094654DB6BABF5469E","title":"桃林一小区","lon":"121.54308","lat":"31.228199","category":"47","category_name":"住宅区","address":"灵山路600弄1-44号"},{"poiid":"B2094753DB6BA7FC489D","title":"金茂大厦","lon":"121.543998","lat":"31.227897","category":"252","category_name":"楼宇机构","address":"上海市 陆家嘴环路888号"},{"poiid":"B2094655D36CA6F44799","title":"丁香路合欢路","lon":"121.54483","lat":"31.22438","category":"38","category_name":"公交车站","address":""},{"poiid":"B2094655D26BAAFD4493","title":"阿英煲","lon":"121.54076","lat":"31.22727","category":"257","category_name":"中餐厅","address":""},{"poiid":"B2094757D064A7F5439C","title":"民生路","lon":"121.54518141","lat":"31.231733962","category":"500","category_name":"未知分类","address":"上海民生路"},{"poiid":"B2094654DA69A1FB469F","title":"由由燕乔大厦","lon":"121.541","lat":"31.2287","category":"46","category_name":"楼宇","address":"静安区长寿路(万航渡路口)"},{"poiid":"B2094757D16EA7FF479F","title":"上海音乐烟花节","lon":"121.54709373","lat":"31.224774183","category":"500","category_name":"未知分类","address":"上海世纪公园"},{"poiid":"B2094757D16CA5FF489F","title":"豆香园","lon":"121.540669682","lat":"31.2269513783","category":"196","category_name":"公园","address":"浦东新区灵山路412号(桃林路口)"},{"poiid":"B2094654DA69A3FE4892","title":"上海市公安局浦东分局","lon":"121.54676","lat":"31.22548","category":"248","category_name":"生活娱乐","address":"丁香路655"},{"poiid":"B2094654DB64A4FA469D","title":"馨月汇","lon":"121.54143","lat":"31.2271","category":"47","category_name":"住宅区","address":"上海桃林路1160号"},{"poiid":"B2094757D169A6FB4692","title":"浦东新区法院执行庭","lon":"121.544430738","lat":"31.2262222147","category":"500","category_name":"未知分类","address":"上海杨高南路2980号"},{"poiid":"B2094757D169A5F8439D","title":"證大五道口廣場","lon":"121.54916673","lat":"31.227318238","category":"500","category_name":"未知分类","address":"上海市浦东新区民生路1199弄1號樓1902室"},{"poiid":"B2094655D36DA6FE499F","title":"杨高中路","lon":"121.54866","lat":"31.22758","category":"38","category_name":"公交车站","address":""},{"poiid":"B2094757D06AABFE439B","title":"上海出入境檢驗檢疫局","lon":"121.54858","lat":"31.225638","category":"500","category_name":"未知分类","address":"上海民生路1208號"},{"poiid":"B2094655D26EA0F84692","title":"城市超市(滨江店)","lon":"121.54353","lat":"31.22918","category":"118","category_name":"超级市场","address":"浦东新区陆家嘴花园石桥路33号"},{"poiid":"B2094654DB65A0FC4893","title":"光明便利店","lon":"121.54271","lat":"31.2284","category":"117","category_name":"便民商店/便利店","address":"浦东新区峨山路191-193号(近东方路)"},{"poiid":"B2094655D26AA5F8499C","title":"翠玲珑咖啡厅","lon":"121.54348544734","lat":"31.223913869652","category":"268","category_name":"自助","address":"浦东新区丁香路555号东怡大酒店1楼(近世纪大道)"},{"poiid":"B2094757D568A5F8459D","title":"浦东民防办公楼","lon":"121.5427219","lat":"31.22594417","category":"46","category_name":"楼宇","address":"合欢路25号"},{"poiid":"B2094757D16FA3F5439E","title":"桃林小区","lon":"121.54473","lat":"31.230835","category":"47","category_name":"住宅区","address":"上海市浦东新区民生路818弄"},{"poiid":"B2094757D66CA7FA409F","title":"中国证监会上海证监局","lon":"121.54776273","lat":"31.22228513","category":"500","category_name":"未知分类","address":"上海市浦东新区迎春路555号"},{"poiid":"B2094654DA69A3F9439E","title":"进才中学(南门)","lon":"121.54633","lat":"31.227","category":"656","category_name":"大门","address":"杨高中路2788号"},{"poiid":"B2094757D568ABF94393","title":"中星恬园","lon":"121.54885","lat":"31.229","category":"47","category_name":"住宅区","address":"民生路999弄1-40号"},{"poiid":"B2094757D465ABFD4293","title":"东怡大酒店荟萃厅 宴会厅","lon":"121.54348544734","lat":"31.223913869652","category":"72","category_name":"广东菜","address":"丁香路555号东怡大酒店2楼近锦带路"},{"poiid":"B2094757D16CAAF8459B","title":"Da Marco Pudong","lon":"121.542728","lat":"31.23196","category":"500","category_name":"未知分类","address":"上海浦东羽山路350号"},{"poiid":"B2094654DA69A3F8469F","title":"进才培训中心","lon":"121.54444","lat":"31.22895","category":"190","category_name":"培训机构","address":"灵山路638"},{"poiid":"B2094655D26BA2F5439C","title":"浦东市民中心","lon":"121.54692","lat":"31.22326","category":"38","category_name":"公交车站","address":"合欢路2号"},{"poiid":"B2094757D06FA4FF479C","title":"进才中学","lon":"121.54602813","lat":"31.22998619","category":"55","category_name":"中学","address":"浦东新区杨高中路2788号(近成山路)"},{"poiid":"B2094757D06AA3F84792","title":"浦东新区民政局","lon":"121.546454","lat":"31.224071","category":"500","category_name":"未知分类","address":"上海合欢路2号"},{"poiid":"B2094757D06FA6F54999","title":"东怡大酒店","lon":"121.54299542","lat":"31.22411864","category":"217","category_name":"旅馆招待所","address":"浦东新区丁香路555号(东方艺术中心旁)"},{"poiid":"B2094655D36DA0F8489F","title":"杨高中路地铁站","lon":"121.5487","lat":"31.22704","category":"36","category_name":"地铁站","address":"上海轨道交通 九号线 轨交杨高中路站 9"},{"poiid":"B2094757D06FA0F44798","title":"上海浦东出入境检验检疫局","lon":"121.54857635","lat":"31.225637435","category":"500","category_name":"未知分类","address":"上海民生路1208号"},{"poiid":"B2094757D06FABF44193","title":"长泰国际金融大厦","lon":"121.542","lat":"31.231","category":"46","category_name":"楼宇","address":"上海市浦东新区世纪大道1589号"},{"poiid":"B2094654DB6BAAFC499A","title":"证大五道口广场","lon":"121.55026","lat":"31.22629","category":"45","category_name":"产业园区","address":"浦东新区民生路1199弄"},{"poiid":"B2094757D06FA1F5459F","title":"中建大厦","lon":"121.54","lat":"31.2295","category":"46","category_name":"楼宇","address":"上海市浦东新区世纪大道1568号"},{"poiid":"B2094654DA69A3FE489F","title":"浦东新区人民法院","lon":"121.54447","lat":"31.22483","category":"608","category_name":"法院","address":"上海市浦东新区丁香路611号"},{"poiid":"B2094757D06FA6FA469D","title":"重庆老火锅","lon":"121.54202","lat":"31.23087","category":"86","category_name":"火锅店","address":"浦东新区羽山路288号(近桃林路)"},{"poiid":"B2094655D26BA2F54398","title":"浦东新区办公中心","lon":"121.54511","lat":"31.22245","category":"38","category_name":"公交车站","address":""},{"poiid":"B2094757D068A5F8469D","title":"大马可意大利餐厅(羽山店)","lon":"121.54301","lat":"31.23189","category":"94","category_name":"西餐厅","address":"浦东新区羽山路350号(近桃林路)"},{"poiid":"B2094654DA69ABF5489A","title":"陆家嘴钻石大厦","lon":"121.543","lat":"31.2305","category":"46","category_name":"楼宇","address":"中央商务区CBD22号"},{"poiid":"B2094757D068A0F4479C","title":"上海移动浦东大楼","lon":"121.549956738","lat":"31.2248151847","category":"500","category_name":"未知分类","address":"上海迎春路670号"},{"poiid":"B2094757D06AA3FF4998","title":"东方希望大厦","lon":"121.54448413658","lat":"31.229635061024","category":"46","category_name":"楼宇","address":"世纪大道1777号"},{"poiid":"B2094757D068A3FD439B","title":"上海人家精作坊(汇商店)","lon":"121.54943","lat":"31.22415","category":"76","category_name":"上海菜","address":"浦东新区民生路1286号汇商大厦3-4楼(丁香路口)"},{"poiid":"B2094757D069A0FB4392","title":"民生路杨高中路","lon":"121.54730074","lat":"31.227248106","category":"500","category_name":"未知分类","address":"上海民生路杨高中路"},{"poiid":"B2094757D069A2FF419B","title":"上海市工商行政管理局浦东新区分局","lon":"121.544212738","lat":"31.2269792308","category":"250","category_name":"公园户外","address":"上海浦东新区杨高中路2900号(近桃林路)"},{"poiid":"B2094757D069A7F8409B","title":"浦东新区公安分局","lon":"121.54691967","lat":"31.224898359","category":"500","category_name":"未知分类","address":"上海浦东新区丁香路655号"},{"poiid":"B2094757D16CAAFB419C","title":"上海银监局","lon":"121.54826773","lat":"31.224110169","category":"500","category_name":"未知分类","address":"上海合欢路35号"},{"poiid":"B2094655D26EA2F4409C","title":"长荣大厦","lon":"121.55006","lat":"31.22619","category":"46","category_name":"楼宇","address":"民生路1199弄证大五道口广场2号楼(南楼)"},{"poiid":"B2094757D069A5FC439C","title":"陆家嘴花园二期(峰会)","lon":"121.54248869","lat":"31.230623372","category":"47","category_name":"住宅区","address":"陆家嘴花园二期(峰会)位于浦东桃林路815弄"},{"poiid":"B2094757D06AA5F94392","title":"进才中学游泳馆","lon":"121.54661","lat":"31.22665","category":"231","category_name":"游泳馆","address":"上海浦东新区杨高中路2788号(近民生路)"},{"poiid":"B2094757D168A2FC419D","title":"民生路杨高中路路口","lon":"121.54592273","lat":"31.22743401","category":"500","category_name":"未知分类","address":"上海浦东新区民生路杨高中路路口"},{"poiid":"B2094654DB6BABF5469E","title":"桃林一小区","lon":"121.54308","lat":"31.228199","category":"47","category_name":"住宅区","address":"灵山路600弄1-44号"},{"poiid":"B2094753DB6BA7FC489D","title":"金茂大厦","lon":"121.543998","lat":"31.227897","category":"252","category_name":"楼宇机构","address":"上海市 陆家嘴环路888号"},{"poiid":"B2094655D36CA6F44799","title":"丁香路合欢路","lon":"121.54483","lat":"31.22438","category":"38","category_name":"公交车站","address":""},{"poiid":"B2094655D26BAAFD4493","title":"阿英煲","lon":"121.54076","lat":"31.22727","category":"257","category_name":"中餐厅","address":""},{"poiid":"B2094757D064A7F5439C","title":"民生路","lon":"121.54518141","lat":"31.231733962","category":"500","category_name":"未知分类","address":"上海民生路"},{"poiid":"B2094654DA69A1FB469F","title":"由由燕乔大厦","lon":"121.541","lat":"31.2287","category":"46","category_name":"楼宇","address":"静安区长寿路(万航渡路口)"},{"poiid":"B2094757D16EA7FF479F","title":"上海音乐烟花节","lon":"121.54709373","lat":"31.224774183","category":"500","category_name":"未知分类","address":"上海世纪公园"},{"poiid":"B2094757D16CA5FF489F","title":"豆香园","lon":"121.540669682","lat":"31.2269513783","category":"196","category_name":"公园","address":"浦东新区灵山路412号(桃林路口)"},{"poiid":"B2094654DA69A3FE4892","title":"上海市公安局浦东分局","lon":"121.54676","lat":"31.22548","category":"248","category_name":"生活娱乐","address":"丁香路655"},{"poiid":"B2094654DB64A4FA469D","title":"馨月汇","lon":"121.54143","lat":"31.2271","category":"47","category_name":"住宅区","address":"上海桃林路1160号"},{"poiid":"B2094757D169A6FB4692","title":"浦东新区法院执行庭","lon":"121.544430738","lat":"31.2262222147","category":"500","category_name":"未知分类","address":"上海杨高南路2980号"},{"poiid":"B2094757D169A5F8439D","title":"證大五道口廣場","lon":"121.54916673","lat":"31.227318238","category":"500","category_name":"未知分类","address":"上海市浦东新区民生路1199弄1號樓1902室"},{"poiid":"B2094655D36DA6FE499F","title":"杨高中路","lon":"121.54866","lat":"31.22758","category":"38","category_name":"公交车站","address":""},{"poiid":"B2094757D06AABFE439B","title":"上海出入境檢驗檢疫局","lon":"121.54858","lat":"31.225638","category":"500","category_name":"未知分类","address":"上海民生路1208號"},{"poiid":"B2094655D26EA0F84692","title":"城市超市(滨江店)","lon":"121.54353","lat":"31.22918","category":"118","category_name":"超级市场","address":"浦东新区陆家嘴花园石桥路33号"},{"poiid":"B2094654DB65A0FC4893","title":"光明便利店","lon":"121.54271","lat":"31.2284","category":"117","category_name":"便民商店/便利店","address":"浦东新区峨山路191-193号(近东方路)"},{"poiid":"B2094655D26AA5F8499C","title":"翠玲珑咖啡厅","lon":"121.54348544734","lat":"31.223913869652","category":"268","category_name":"自助","address":"浦东新区丁香路555号东怡大酒店1楼(近世纪大道)"},{"poiid":"B2094757D568A5F8459D","title":"浦东民防办公楼","lon":"121.5427219","lat":"31.22594417","category":"46","category_name":"楼宇","address":"合欢路25号"},{"poiid":"B2094757D16FA3F5439E","title":"桃林小区","lon":"121.54473","lat":"31.230835","category":"47","category_name":"住宅区","address":"上海市浦东新区民生路818弄"},{"poiid":"B2094757D66CA7FA409F","title":"中国证监会上海证监局","lon":"121.54776273","lat":"31.22228513","category":"500","category_name":"未知分类","address":"上海市浦东新区迎春路555号"},{"poiid":"B2094654DA69A3F9439E","title":"进才中学(南门)","lon":"121.54633","lat":"31.227","category":"656","category_name":"大门","address":"杨高中路2788号"},{"poiid":"B2094757D568ABF94393","title":"中星恬园","lon":"121.54885","lat":"31.229","category":"47","category_name":"住宅区","address":"民生路999弄1-40号"},{"poiid":"B2094757D465ABFD4293","title":"东怡大酒店荟萃厅 宴会厅","lon":"121.54348544734","lat":"31.223913869652","category":"72","category_name":"广东菜","address":"丁香路555号东怡大酒店2楼近锦带路"},{"poiid":"B2094757D16CAAF8459B","title":"Da Marco Pudong","lon":"121.542728","lat":"31.23196","category":"500","category_name":"未知分类","address":"上海浦东羽山路350号"},{"poiid":"B2094654DA69A3F8469F","title":"进才培训中心","lon":"121.54444","lat":"31.22895","category":"190","category_name":"培训机构","address":"灵山路638"}]