[{"poiid":"B2094654DB6BA3FF4592","title":"麦德龙(广粤路)","lon":"121.46748","lat":"31.29129","category":"118","category_name":"超级市场","address":"虹口区广粤路418号(汶水东路口)"},{"poiid":"B2094655D36CA7F5409A","title":"广灵四路广粤路","lon":"121.46686","lat":"31.28637","category":"38","category_name":"公交车站","address":""},{"poiid":"B2094757DA6EAAFA439C","title":"今唐养生海鲜汇","lon":"121.465599299999","lat":"31.2861386","category":"260","category_name":"其他","address":"虹口区广粤路279号(广灵四路口)"},{"poiid":"B2094757D06FA5FB479B","title":"汶水东路凉城路","lon":"121.470963","lat":"31.289824","category":"38","category_name":"公交车站","address":"上海汶水东路凉城路"},{"poiid":"B2094751D26AA5FE4398","title":"上海人民武装学院","lon":"121.468887","lat":"31.2849","category":"500","category_name":"未知分类","address":"广灵四路828号"},{"poiid":"B2094654D56DA5FE419B","title":"上海市虹口高级中学","lon":"121.46659","lat":"31.28327","category":"55","category_name":"中学","address":"虹口区广粤路138号(近广中路)"},{"poiid":"B2094654D56DA5FE469B","title":"川流不息火锅广灵店","lon":"121.46968","lat":"31.28734","category":"86","category_name":"火锅店","address":"虹口区广灵四路506号4楼(近凉城路)"},{"poiid":"B2094757D06FA0F5419B","title":"广粤路汶水东路口","lon":"121.466722","lat":"31.292085","category":"260","category_name":"其他","address":"上海广粤路汶水东路口"},{"poiid":"B2094757D06FA7FB4293","title":"大桶大足浴(广灵店)","lon":"121.46969","lat":"31.2871","category":"149","category_name":"洗浴推拿场所","address":"虹口区广灵四路411号2楼(近凉城路)"},{"poiid":"B2094654D56DA5FD4593","title":"中虹花园","lon":"121.46911","lat":"31.285257","category":"47","category_name":"住宅区","address":"上海市虹口区凉城路215弄"},{"poiid":"B2094757D06FA0F9499F","title":"慧芝湖花园二期","lon":"121.465","lat":"31.2875","category":"47","category_name":"住宅区","address":"上海闸北平型关路1083弄(近广中路)"},{"poiid":"B2094757D06FA4FD409C","title":"水木年华花园","lon":"121.46356","lat":"31.287912","category":"47","category_name":"住宅区","address":"上海市虹口区广灵四路866号"},{"poiid":"B2094757D06FA5F5439F","title":"章氏(凉城二店)","lon":"121.47089","lat":"31.28897","category":"68","category_name":"快餐厅","address":"虹口区凉城路457号(汶水东路广灵四路间)"},{"poiid":"B2094757D16CA4FF459E","title":"凯丽欣大酒店","lon":"121.463749103","lat":"31.2866927624","category":"247","category_name":"餐饮美食","address":"虹口区广粤路279号(近广灵四路)"},{"poiid":"B2094655D26EABFD4799","title":"凯司令西点房 广灵店","lon":"121.470872054","lat":"31.287118793","category":"67","category_name":"甜品店","address":"虹口区广灵四路491号(广灵四路凉城路)"},{"poiid":"B2094757D06AA1F4499D","title":"云峰大众4s店","lon":"121.4654369","lat":"31.285210031","category":"500","category_name":"未知分类","address":"上海广粤路"},{"poiid":"B2094757D068A7FA4599","title":"中环路广粤路下匝道","lon":"121.4670311","lat":"31.2924245","category":"260","category_name":"其他","address":"上海汶水东路广粤路"},{"poiid":"B2094757D06AA3F84393","title":"中虹花园丽都苑","lon":"121.46764","lat":"31.28512","category":"47","category_name":"住宅区","address":"上海市虹口区凉城路489号(近广灵四路)"},{"poiid":"B2094655D26CA0FC4499","title":"四海游龙 虹口店 OVERSEAS DRAGON","lon":"121.47057781203","lat":"31.287083544605","category":"68","category_name":"快餐厅","address":"虹口区凉城路398号(近广灵四路)"},{"poiid":"B2094655D26CA0FC459D","title":"上海天伦医院","lon":"121.47077","lat":"31.2908","category":"162","category_name":"医院","address":"虹口区凉城路545号(汶水东路口)"},{"poiid":"B2094654D56DA3FA4392","title":"永琪美容美发(凉城路)","lon":"121.47092","lat":"31.28776","category":"148","category_name":"美容美发店","address":"虹口区凉城路402号(近广灵四路)"},{"poiid":"B2094757D06AA3FC439C","title":"虹凉馨苑","lon":"121.46475","lat":"31.291712","category":"47","category_name":"住宅区","address":"上海市虹口区广粤路439弄22-23号"},{"poiid":"B2094750D664A4F8499F","title":"老鸿昌苏州汤包馆","lon":"121.471","lat":"31.2884","category":"68","category_name":"快餐厅","address":"虹口区凉城路424号(近59路终点站)"},{"poiid":"B2094757D16BA4F94499","title":"汤华仕骨头王","lon":"121.4706031","lat":"31.28757978","category":"86","category_name":"火锅店","address":"虹口区凉城路418号(近广灵四路)"},{"poiid":"B2094757D068A4F4429A","title":"章氏(广粤店)","lon":"121.46672","lat":"31.29201","category":"68","category_name":"快餐厅","address":"虹口区广粤路501号(近汶水东路)"},{"poiid":"B2094654D56DA5FD4998","title":"中虹花园翡翠园","lon":"121.46818","lat":"31.28527","category":"47","category_name":"住宅区","address":"广灵四路561弄"},{"poiid":"B2094655D26BA6FD419D","title":"上海市虹口体育幼儿园","lon":"121.46839","lat":"31.28855","category":"57","category_name":"幼儿园","address":"虹口区东体育会支路70号(东江湾路东体育会支路)"},{"poiid":"B2094757D16FA3F8409A","title":"湘怀阁","lon":"121.4705231","lat":"31.287983789","category":"77","category_name":"湖南菜","address":"虹口区凉城路437号(近广灵四路)"},{"poiid":"B2094757D069A3FA489A","title":"21路车站凉城路","lon":"121.46784973","lat":"31.286735534","category":"38","category_name":"公交车站","address":"上海凉城路广灵二路路口"},{"poiid":"B2094757D66BA2F54199","title":"满庭芳","lon":"121.46620166347","lat":"31.284886218488","category":"77","category_name":"湖南菜","address":"虹口区广粤路199号(近广灵四路)"},{"poiid":"B2094655D265A4FA4899","title":"博学楼","lon":"121.46865","lat":"31.288744","category":"47","category_name":"住宅区","address":"上海市虹口区凉城路465号"},{"poiid":"B2094751DA68A1FD4599","title":"宝山万达广场","lon":"121.4681989","lat":"31.2853212","category":"249","category_name":"购物服务","address":"一二八纪念路"},{"poiid":"B2094751D568A4FE4592","title":"老李鱼头泡饼","lon":"121.468213","lat":"31.286457","category":"247","category_name":"餐饮美食","address":"广灵四路323号"},{"poiid":"B2094655D26EA3FB449C","title":"小辣椒麻辣烫","lon":"121.47016","lat":"31.28445","category":"68","category_name":"快餐厅","address":"虹口区凉城路266号(近广灵二路)"},{"poiid":"B2094751DA69A2F44693","title":"维也纳国际酒店（虹口店）","lon":"121.465363","lat":"31.286011","category":"251","category_name":"出行住宿","address":"广粤路279号"},{"poiid":"B2094654D56DA5F4479C","title":"欣武大厦","lon":"121.466377","lat":"31.284776","category":"46","category_name":"楼宇","address":"上海市虹口区广中路694号"},{"poiid":"B2094757D16DA2F8419A","title":"广中扩大小区","lon":"121.47205","lat":"31.288736","category":"500","category_name":"未知分类","address":"上海汶水东路690弄"},{"poiid":"B2094655D36CA1FA439F","title":"凉城路广灵四路","lon":"121.47017","lat":"31.28571","category":"38","category_name":"公交车站","address":""},{"poiid":"B2094654DB69A5F84192","title":"文峰美容美发(广灵四路店)","lon":"121.46946","lat":"31.28685","category":"148","category_name":"美容美发店","address":"虹口区广灵四路495-497号"},{"poiid":"B2094654D56DA5FD489D","title":"良友金伴(广灵四路)","lon":"121.46893","lat":"31.28672","category":"117","category_name":"便民商店/便利店","address":"广灵四路507"},{"poiid":"B2094750DB69A4FD449B","title":"虹桥火车站","lon":"121.469123","lat":"31.285943","category":"500","category_name":"未知分类","address":null},{"poiid":"B2094757D068A7F84098","title":"上海外国语大学附属小学","lon":"121.467","lat":"31.29049","category":"56","category_name":"小学","address":"虹口区广粤路590号"},{"poiid":"B2094655D26DAAF94193","title":"虹韵家园","lon":"121.472","lat":"31.2896","category":"47","category_name":"住宅区","address":"广粤路150弄1-23号"},{"poiid":"B2094655D26BA7F5409C","title":"海叶新苑","lon":"121.471","lat":"31.2871","category":"47","category_name":"住宅区","address":"上海市虹口区广中路555号"},{"poiid":"B2094654D56DA5FE449A","title":"凉城街道社区卫生服务中心广粤服务站","lon":"121.47004","lat":"31.28898","category":"162","category_name":"医院","address":"凉城新村"},{"poiid":"B2094757D66DA0FB459B","title":"业成海鲜酒家","lon":"121.472542103","lat":"31.287342776","category":"247","category_name":"餐饮美食","address":"上海虹口区广灵四路340号(近凉城路)"},{"poiid":"B2094654D56DA5FE469A","title":"国美电器(广灵四路)","lon":"121.46986","lat":"31.28741","category":"138","category_name":"家电电子卖场","address":"虹口区广灵四路500号(近凉城路)"},{"poiid":"B2094757D16FA0F9419F","title":"格调造型","lon":"121.468666","lat":"31.286778","category":"148","category_name":"美容美发店","address":"上海虹口区广灵四路517号(凉城路口)"},{"poiid":"B2094757DA65A5F5459F","title":"汉庭快捷酒店（上海广粤路店）","lon":"121.465812027","lat":"31.286970316","category":"216","category_name":"经济型连锁酒店","address":"广粤路281号"},{"poiid":"B2094750DB68A3FF469A","title":"上海人民武装学校","lon":"121.468582","lat":"31.284814","category":"253","category_name":"校园生活","address":"虹口区广粤路281号"},{"poiid":"B2094654DB6BA3FF4592","title":"麦德龙(广粤路)","lon":"121.46748","lat":"31.29129","category":"118","category_name":"超级市场","address":"虹口区广粤路418号(汶水东路口)"},{"poiid":"B2094655D36CA7F5409A","title":"广灵四路广粤路","lon":"121.46686","lat":"31.28637","category":"38","category_name":"公交车站","address":""},{"poiid":"B2094757DA6EAAFA439C","title":"今唐养生海鲜汇","lon":"121.465599299999","lat":"31.2861386","category":"260","category_name":"其他","address":"虹口区广粤路279号(广灵四路口)"},{"poiid":"B2094757D06FA5FB479B","title":"汶水东路凉城路","lon":"121.470963","lat":"31.289824","category":"38","category_name":"公交车站","address":"上海汶水东路凉城路"},{"poiid":"B2094751D26AA5FE4398","title":"上海人民武装学院","lon":"121.468887","lat":"31.2849","category":"500","category_name":"未知分类","address":"广灵四路828号"},{"poiid":"B2094654D56DA5FE419B","title":"上海市虹口高级中学","lon":"121.46659","lat":"31.28327","category":"55","category_name":"中学","address":"虹口区广粤路138号(近广中路)"},{"poiid":"B2094654D56DA5FE469B","title":"川流不息火锅广灵店","lon":"121.46968","lat":"31.28734","category":"86","category_name":"火锅店","address":"虹口区广灵四路506号4楼(近凉城路)"},{"poiid":"B2094757D06FA0F5419B","title":"广粤路汶水东路口","lon":"121.466722","lat":"31.292085","category":"260","category_name":"其他","address":"上海广粤路汶水东路口"},{"poiid":"B2094757D06FA7FB4293","title":"大桶大足浴(广灵店)","lon":"121.46969","lat":"31.2871","category":"149","category_name":"洗浴推拿场所","address":"虹口区广灵四路411号2楼(近凉城路)"},{"poiid":"B2094654D56DA5FD4593","title":"中虹花园","lon":"121.46911","lat":"31.285257","category":"47","category_name":"住宅区","address":"上海市虹口区凉城路215弄"},{"poiid":"B2094757D06FA0F9499F","title":"慧芝湖花园二期","lon":"121.465","lat":"31.2875","category":"47","category_name":"住宅区","address":"上海闸北平型关路1083弄(近广中路)"},{"poiid":"B2094757D06FA4FD409C","title":"水木年华花园","lon":"121.46356","lat":"31.287912","category":"47","category_name":"住宅区","address":"上海市虹口区广灵四路866号"},{"poiid":"B2094757D06FA5F5439F","title":"章氏(凉城二店)","lon":"121.47089","lat":"31.28897","category":"68","category_name":"快餐厅","address":"虹口区凉城路457号(汶水东路广灵四路间)"},{"poiid":"B2094757D16CA4FF459E","title":"凯丽欣大酒店","lon":"121.463749103","lat":"31.2866927624","category":"247","category_name":"餐饮美食","address":"虹口区广粤路279号(近广灵四路)"},{"poiid":"B2094655D26EABFD4799","title":"凯司令西点房 广灵店","lon":"121.470872054","lat":"31.287118793","category":"67","category_name":"甜品店","address":"虹口区广灵四路491号(广灵四路凉城路)"},{"poiid":"B2094757D06AA1F4499D","title":"云峰大众4s店","lon":"121.4654369","lat":"31.285210031","category":"500","category_name":"未知分类","address":"上海广粤路"},{"poiid":"B2094757D068A7FA4599","title":"中环路广粤路下匝道","lon":"121.4670311","lat":"31.2924245","category":"260","category_name":"其他","address":"上海汶水东路广粤路"},{"poiid":"B2094757D06AA3F84393","title":"中虹花园丽都苑","lon":"121.46764","lat":"31.28512","category":"47","category_name":"住宅区","address":"上海市虹口区凉城路489号(近广灵四路)"},{"poiid":"B2094655D26CA0FC4499","title":"四海游龙 虹口店 OVERSEAS DRAGON","lon":"121.47057781203","lat":"31.287083544605","category":"68","category_name":"快餐厅","address":"虹口区凉城路398号(近广灵四路)"},{"poiid":"B2094655D26CA0FC459D","title":"上海天伦医院","lon":"121.47077","lat":"31.2908","category":"162","category_name":"医院","address":"虹口区凉城路545号(汶水东路口)"},{"poiid":"B2094654D56DA3FA4392","title":"永琪美容美发(凉城路)","lon":"121.47092","lat":"31.28776","category":"148","category_name":"美容美发店","address":"虹口区凉城路402号(近广灵四路)"},{"poiid":"B2094757D06AA3FC439C","title":"虹凉馨苑","lon":"121.46475","lat":"31.291712","category":"47","category_name":"住宅区","address":"上海市虹口区广粤路439弄22-23号"},{"poiid":"B2094750D664A4F8499F","title":"老鸿昌苏州汤包馆","lon":"121.471","lat":"31.2884","category":"68","category_name":"快餐厅","address":"虹口区凉城路424号(近59路终点站)"},{"poiid":"B2094757D16BA4F94499","title":"汤华仕骨头王","lon":"121.4706031","lat":"31.28757978","category":"86","category_name":"火锅店","address":"虹口区凉城路418号(近广灵四路)"},{"poiid":"B2094757D068A4F4429A","title":"章氏(广粤店)","lon":"121.46672","lat":"31.29201","category":"68","category_name":"快餐厅","address":"虹口区广粤路501号(近汶水东路)"},{"poiid":"B2094654D56DA5FD4998","title":"中虹花园翡翠园","lon":"121.46818","lat":"31.28527","category":"47","category_name":"住宅区","address":"广灵四路561弄"},{"poiid":"B2094655D26BA6FD419D","title":"上海市虹口体育幼儿园","lon":"121.46839","lat":"31.28855","category":"57","category_name":"幼儿园","address":"虹口区东体育会支路70号(东江湾路东体育会支路)"},{"poiid":"B2094757D16FA3F8409A","title":"湘怀阁","lon":"121.4705231","lat":"31.287983789","category":"77","category_name":"湖南菜","address":"虹口区凉城路437号(近广灵四路)"},{"poiid":"B2094757D069A3FA489A","title":"21路车站凉城路","lon":"121.46784973","lat":"31.286735534","category":"38","category_name":"公交车站","address":"上海凉城路广灵二路路口"},{"poiid":"B2094757D66BA2F54199","title":"满庭芳","lon":"121.46620166347","lat":"31.284886218488","category":"77","category_name":"湖南菜","address":"虹口区广粤路199号(近广灵四路)"},{"poiid":"B2094655D265A4FA4899","title":"博学楼","lon":"121.46865","lat":"31.288744","category":"47","category_name":"住宅区","address":"上海市虹口区凉城路465号"},{"poiid":"B2094751DA68A1FD4599","title":"宝山万达广场","lon":"121.4681989","lat":"31.2853212","category":"249","category_name":"购物服务","address":"一二八纪念路"},{"poiid":"B2094751D568A4FE4592","title":"老李鱼头泡饼","lon":"121.468213","lat":"31.286457","category":"247","category_name":"餐饮美食","address":"广灵四路323号"},{"poiid":"B2094655D26EA3FB449C","title":"小辣椒麻辣烫","lon":"121.47016","lat":"31.28445","category":"68","category_name":"快餐厅","address":"虹口区凉城路266号(近广灵二路)"},{"poiid":"B2094751DA69A2F44693","title":"维也纳国际酒店（虹口店）","lon":"121.465363","lat":"31.286011","category":"251","category_name":"出行住宿","address":"广粤路279号"},{"poiid":"B2094654D56DA5F4479C","title":"欣武大厦","lon":"121.466377","lat":"31.284776","category":"46","category_name":"楼宇","address":"上海市虹口区广中路694号"},{"poiid":"B2094757D16DA2F8419A","title":"广中扩大小区","lon":"121.47205","lat":"31.288736","category":"500","category_name":"未知分类","address":"上海汶水东路690弄"},{"poiid":"B2094655D36CA1FA439F","title":"凉城路广灵四路","lon":"121.47017","lat":"31.28571","category":"38","category_name":"公交车站","address":""},{"poiid":"B2094654DB69A5F84192","title":"文峰美容美发(广灵四路店)","lon":"121.46946","lat":"31.28685","category":"148","category_name":"美容美发店","address":"虹口区广灵四路495-497号"},{"poiid":"B2094654D56DA5FD489D","title":"良友金伴(广灵四路)","lon":"121.46893","lat":"31.28672","category":"117","category_name":"便民商店/便利店","address":"广灵四路507"},{"poiid":"B2094750DB69A4FD449B","title":"虹桥火车站","lon":"121.469123","lat":"31.285943","category":"500","category_name":"未知分类","address":null},{"poiid":"B2094757D068A7F84098","title":"上海外国语大学附属小学","lon":"121.467","lat":"31.29049","category":"56","category_name":"小学","address":"虹口区广粤路590号"},{"poiid":"B2094655D26DAAF94193","title":"虹韵家园","lon":"121.472","lat":"31.2896","category":"47","category_name":"住宅区","address":"广粤路150弄1-23号"},{"poiid":"B2094655D26BA7F5409C","title":"海叶新苑","lon":"121.471","lat":"31.2871","category":"47","category_name":"住宅区","address":"上海市虹口区广中路555号"},{"poiid":"B2094654D56DA5FE449A","title":"凉城街道社区卫生服务中心广粤服务站","lon":"121.47004","lat":"31.28898","category":"162","category_name":"医院","address":"凉城新村"},{"poiid":"B2094757D66DA0FB459B","title":"业成海鲜酒家","lon":"121.472542103","lat":"31.287342776","category":"247","category_name":"餐饮美食","address":"上海虹口区广灵四路340号(近凉城路)"},{"poiid":"B2094654D56DA5FE469A","title":"国美电器(广灵四路)","lon":"121.46986","lat":"31.28741","category":"138","category_name":"家电电子卖场","address":"虹口区广灵四路500号(近凉城路)"},{"poiid":"B2094757D16FA0F9419F","title":"格调造型","lon":"121.468666","lat":"31.286778","category":"148","category_name":"美容美发店","address":"上海虹口区广灵四路517号(凉城路口)"},{"poiid":"B2094757DA65A5F5459F","title":"汉庭快捷酒店（上海广粤路店）","lon":"121.465812027","lat":"31.286970316","category":"216","category_name":"经济型连锁酒店","address":"广粤路281号"},{"poiid":"B2094750DB68A3FF469A","title":"上海人民武装学校","lon":"121.468582","lat":"31.284814","category":"253","category_name":"校园生活","address":"虹口区广粤路281号"},{"poiid":"B2094654DB6BA3FF4592","title":"麦德龙(广粤路)","lon":"121.46748","lat":"31.29129","category":"118","category_name":"超级市场","address":"虹口区广粤路418号(汶水东路口)"},{"poiid":"B2094655D36CA7F5409A","title":"广灵四路广粤路","lon":"121.46686","lat":"31.28637","category":"38","category_name":"公交车站","address":""},{"poiid":"B2094757DA6EAAFA439C","title":"今唐养生海鲜汇","lon":"121.465599299999","lat":"31.2861386","category":"260","category_name":"其他","address":"虹口区广粤路279号(广灵四路口)"},{"poiid":"B2094757D06FA5FB479B","title":"汶水东路凉城路","lon":"121.470963","lat":"31.289824","category":"38","category_name":"公交车站","address":"上海汶水东路凉城路"},{"poiid":"B2094751D26AA5FE4398","title":"上海人民武装学院","lon":"121.468887","lat":"31.2849","category":"500","category_name":"未知分类","address":"广灵四路828号"},{"poiid":"B2094654D56DA5FE419B","title":"上海市虹口高级中学","lon":"121.46659","lat":"31.28327","category":"55","category_name":"中学","address":"虹口区广粤路138号(近广中路)"},{"poiid":"B2094654D56DA5FE469B","title":"川流不息火锅广灵店","lon":"121.46968","lat":"31.28734","category":"86","category_name":"火锅店","address":"虹口区广灵四路506号4楼(近凉城路)"},{"poiid":"B2094757D06FA0F5419B","title":"广粤路汶水东路口","lon":"121.466722","lat":"31.292085","category":"260","category_name":"其他","address":"上海广粤路汶水东路口"},{"poiid":"B2094757D06FA7FB4293","title":"大桶大足浴(广灵店)","lon":"121.46969","lat":"31.2871","category":"149","category_name":"洗浴推拿场所","address":"虹口区广灵四路411号2楼(近凉城路)"},{"poiid":"B2094654D56DA5FD4593","title":"中虹花园","lon":"121.46911","lat":"31.285257","category":"47","category_name":"住宅区","address":"上海市虹口区凉城路215弄"},{"poiid":"B2094757D06FA0F9499F","title":"慧芝湖花园二期","lon":"121.465","lat":"31.2875","category":"47","category_name":"住宅区","address":"上海闸北平型关路1083弄(近广中路)"},{"poiid":"B2094757D06FA4FD409C","title":"水木年华花园","lon":"121.46356","lat":"31.287912","category":"47","category_name":"住宅区","address":"上海市虹口区广灵四路866号"},{"poiid":"B2094757D06FA5F5439F","title":"章氏(凉城二店)","lon":"121.47089","lat":"31.28897","category":"68","category_name":"快餐厅","address":"虹口区凉城路457号(汶水东路广灵四路间)"},{"poiid":"B2094757D16CA4FF459E","title":"凯丽欣大酒店","lon":"121.463749103","lat":"31.2866927624","category":"247","category_name":"餐饮美食","address":"虹口区广粤路279号(近广灵四路)"},{"poiid":"B2094655D26EABFD4799","title":"凯司令西点房 广灵店","lon":"121.470872054","lat":"31.287118793","category":"67","category_name":"甜品店","address":"虹口区广灵四路491号(广灵四路凉城路)"},{"poiid":"B2094757D06AA1F4499D","title":"云峰大众4s店","lon":"121.4654369","lat":"31.285210031","category":"500","category_name":"未知分类","address":"上海广粤路"},{"poiid":"B2094757D068A7FA4599","title":"中环路广粤路下匝道","lon":"121.4670311","lat":"31.2924245","category":"260","category_name":"其他","address":"上海汶水东路广粤路"},{"poiid":"B2094757D06AA3F84393","title":"中虹花园丽都苑","lon":"121.46764","lat":"31.28512","category":"47","category_name":"住宅区","address":"上海市虹口区凉城路489号(近广灵四路)"},{"poiid":"B2094655D26CA0FC4499","title":"四海游龙 虹口店 OVERSEAS DRAGON","lon":"121.47057781203","lat":"31.287083544605","category":"68","category_name":"快餐厅","address":"虹口区凉城路398号(近广灵四路)"},{"poiid":"B2094655D26CA0FC459D","title":"上海天伦医院","lon":"121.47077","lat":"31.2908","category":"162","category_name":"医院","address":"虹口区凉城路545号(汶水东路口)"},{"poiid":"B2094654D56DA3FA4392","title":"永琪美容美发(凉城路)","lon":"121.47092","lat":"31.28776","category":"148","category_name":"美容美发店","address":"虹口区凉城路402号(近广灵四路)"},{"poiid":"B2094757D06AA3FC439C","title":"虹凉馨苑","lon":"121.46475","lat":"31.291712","category":"47","category_name":"住宅区","address":"上海市虹口区广粤路439弄22-23号"},{"poiid":"B2094750D664A4F8499F","title":"老鸿昌苏州汤包馆","lon":"121.471","lat":"31.2884","category":"68","category_name":"快餐厅","address":"虹口区凉城路424号(近59路终点站)"},{"poiid":"B2094757D16BA4F94499","title":"汤华仕骨头王","lon":"121.4706031","lat":"31.28757978","category":"86","category_name":"火锅店","address":"虹口区凉城路418号(近广灵四路)"},{"poiid":"B2094757D068A4F4429A","title":"章氏(广粤店)","lon":"121.46672","lat":"31.29201","category":"68","category_name":"快餐厅","address":"虹口区广粤路501号(近汶水东路)"},{"poiid":"B2094654D56DA5FD4998","title":"中虹花园翡翠园","lon":"121.46818","lat":"31.28527","category":"47","category_name":"住宅区","address":"广灵四路561弄"},{"poiid":"B2094655D26BA6FD419D","title":"上海市虹口体育幼儿园","lon":"121.46839","lat":"31.28855","category":"57","category_name":"幼儿园","address":"虹口区东体育会支路70号(东江湾路东体育会支路)"},{"poiid":"B2094757D16FA3F8409A","title":"湘怀阁","lon":"121.4705231","lat":"31.287983789","category":"77","category_name":"湖南菜","address":"虹口区凉城路437号(近广灵四路)"},{"poiid":"B2094757D069A3FA489A","title":"21路车站凉城路","lon":"121.46784973","lat":"31.286735534","category":"38","category_name":"公交车站","address":"上海凉城路广灵二路路口"},{"poiid":"B2094757D66BA2F54199","title":"满庭芳","lon":"121.46620166347","lat":"31.284886218488","category":"77","category_name":"湖南菜","address":"虹口区广粤路199号(近广灵四路)"},{"poiid":"B2094655D265A4FA4899","title":"博学楼","lon":"121.46865","lat":"31.288744","category":"47","category_name":"住宅区","address":"上海市虹口区凉城路465号"},{"poiid":"B2094751DA68A1FD4599","title":"宝山万达广场","lon":"121.4681989","lat":"31.2853212","category":"249","category_name":"购物服务","address":"一二八纪念路"},{"poiid":"B2094751D568A4FE4592","title":"老李鱼头泡饼","lon":"121.468213","lat":"31.286457","category":"247","category_name":"餐饮美食","address":"广灵四路323号"},{"poiid":"B2094655D26EA3FB449C","title":"小辣椒麻辣烫","lon":"121.47016","lat":"31.28445","category":"68","category_name":"快餐厅","address":"虹口区凉城路266号(近广灵二路)"},{"poiid":"B2094751DA69A2F44693","title":"维也纳国际酒店（虹口店）","lon":"121.465363","lat":"31.286011","category":"251","category_name":"出行住宿","address":"广粤路279号"},{"poiid":"B2094654D56DA5F4479C","title":"欣武大厦","lon":"121.466377","lat":"31.284776","category":"46","category_name":"楼宇","address":"上海市虹口区广中路694号"},{"poiid":"B2094757D16DA2F8419A","title":"广中扩大小区","lon":"121.47205","lat":"31.288736","category":"500","category_name":"未知分类","address":"上海汶水东路690弄"},{"poiid":"B2094655D36CA1FA439F","title":"凉城路广灵四路","lon":"121.47017","lat":"31.28571","category":"38","category_name":"公交车站","address":""},{"poiid":"B2094654DB69A5F84192","title":"文峰美容美发(广灵四路店)","lon":"121.46946","lat":"31.28685","category":"148","category_name":"美容美发店","address":"虹口区广灵四路495-497号"},{"poiid":"B2094654D56DA5FD489D","title":"良友金伴(广灵四路)","lon":"121.46893","lat":"31.28672","category":"117","category_name":"便民商店/便利店","address":"广灵四路507"},{"poiid":"B2094750DB69A4FD449B","title":"虹桥火车站","lon":"121.469123","lat":"31.285943","category":"500","category_name":"未知分类","address":null},{"poiid":"B2094757D068A7F84098","title":"上海外国语大学附属小学","lon":"121.467","lat":"31.29049","category":"56","category_name":"小学","address":"虹口区广粤路590号"},{"poiid":"B2094655D26DAAF94193","title":"虹韵家园","lon":"121.472","lat":"31.2896","category":"47","category_name":"住宅区","address":"广粤路150弄1-23号"},{"poiid":"B2094655D26BA7F5409C","title":"海叶新苑","lon":"121.471","lat":"31.2871","category":"47","category_name":"住宅区","address":"上海市虹口区广中路555号"},{"poiid":"B2094654D56DA5FE449A","title":"凉城街道社区卫生服务中心广粤服务站","lon":"121.47004","lat":"31.28898","category":"162","category_name":"医院","address":"凉城新村"},{"poiid":"B2094757D66DA0FB459B","title":"业成海鲜酒家","lon":"121.472542103","lat":"31.287342776","category":"247","category_name":"餐饮美食","address":"上海虹口区广灵四路340号(近凉城路)"},{"poiid":"B2094654D56DA5FE469A","title":"国美电器(广灵四路)","lon":"121.46986","lat":"31.28741","category":"138","category_name":"家电电子卖场","address":"虹口区广灵四路500号(近凉城路)"},{"poiid":"B2094757D16FA0F9419F","title":"格调造型","lon":"121.468666","lat":"31.286778","category":"148","category_name":"美容美发店","address":"上海虹口区广灵四路517号(凉城路口)"},{"poiid":"B2094757DA65A5F5459F","title":"汉庭快捷酒店（上海广粤路店）","lon":"121.465812027","lat":"31.286970316","category":"216","category_name":"经济型连锁酒店","address":"广粤路281号"},{"poiid":"B2094750DB68A3FF469A","title":"上海人民武装学校","lon":"121.468582","lat":"31.284814","category":"253","category_name":"校园生活","address":"虹口区广粤路281号"},{"poiid":"B2094654DB6BA3FF4592","title":"麦德龙(广粤路)","lon":"121.46748","lat":"31.29129","category":"118","category_name":"超级市场","address":"虹口区广粤路418号(汶水东路口)"},{"poiid":"B2094655D36CA7F5409A","title":"广灵四路广粤路","lon":"121.46686","lat":"31.28637","category":"38","category_name":"公交车站","address":""},{"poiid":"B2094757DA6EAAFA439C","title":"今唐养生海鲜汇","lon":"121.465599299999","lat":"31.2861386","category":"260","category_name":"其他","address":"虹口区广粤路279号(广灵四路口)"},{"poiid":"B2094757D06FA5FB479B","title":"汶水东路凉城路","lon":"121.470963","lat":"31.289824","category":"38","category_name":"公交车站","address":"上海汶水东路凉城路"},{"poiid":"B2094751D26AA5FE4398","title":"上海人民武装学院","lon":"121.468887","lat":"31.2849","category":"500","category_name":"未知分类","address":"广灵四路828号"},{"poiid":"B2094654D56DA5FE419B","title":"上海市虹口高级中学","lon":"121.46659","lat":"31.28327","category":"55","category_name":"中学","address":"虹口区广粤路138号(近广中路)"},{"poiid":"B2094654D56DA5FE469B","title":"川流不息火锅广灵店","lon":"121.46968","lat":"31.28734","category":"86","category_name":"火锅店","address":"虹口区广灵四路506号4楼(近凉城路)"},{"poiid":"B2094757D06FA0F5419B","title":"广粤路汶水东路口","lon":"121.466722","lat":"31.292085","category":"260","category_name":"其他","address":"上海广粤路汶水东路口"},{"poiid":"B2094757D06FA7FB4293","title":"大桶大足浴(广灵店)","lon":"121.46969","lat":"31.2871","category":"149","category_name":"洗浴推拿场所","address":"虹口区广灵四路411号2楼(近凉城路)"},{"poiid":"B2094654D56DA5FD4593","title":"中虹花园","lon":"121.46911","lat":"31.285257","category":"47","category_name":"住宅区","address":"上海市虹口区凉城路215弄"},{"poiid":"B2094757D06FA0F9499F","title":"慧芝湖花园二期","lon":"121.465","lat":"31.2875","category":"47","category_name":"住宅区","address":"上海闸北平型关路1083弄(近广中路)"},{"poiid":"B2094757D06FA4FD409C","title":"水木年华花园","lon":"121.46356","lat":"31.287912","category":"47","category_name":"住宅区","address":"上海市虹口区广灵四路866号"},{"poiid":"B2094757D06FA5F5439F","title":"章氏(凉城二店)","lon":"121.47089","lat":"31.28897","category":"68","category_name":"快餐厅","address":"虹口区凉城路457号(汶水东路广灵四路间)"},{"poiid":"B2094757D16CA4FF459E","title":"凯丽欣大酒店","lon":"121.463749103","lat":"31.2866927624","category":"247","category_name":"餐饮美食","address":"虹口区广粤路279号(近广灵四路)"},{"poiid":"B2094655D26EABFD4799","title":"凯司令西点房 广灵店","lon":"121.470872054","lat":"31.287118793","category":"67","category_name":"甜品店","address":"虹口区广灵四路491号(广灵四路凉城路)"},{"poiid":"B2094757D06AA1F4499D","title":"云峰大众4s店","lon":"121.4654369","lat":"31.285210031","category":"500","category_name":"未知分类","address":"上海广粤路"},{"poiid":"B2094757D068A7FA4599","title":"中环路广粤路下匝道","lon":"121.4670311","lat":"31.2924245","category":"260","category_name":"其他","address":"上海汶水东路广粤路"},{"poiid":"B2094757D06AA3F84393","title":"中虹花园丽都苑","lon":"121.46764","lat":"31.28512","category":"47","category_name":"住宅区","address":"上海市虹口区凉城路489号(近广灵四路)"},{"poiid":"B2094655D26CA0FC4499","title":"四海游龙 虹口店 OVERSEAS DRAGON","lon":"121.47057781203","lat":"31.287083544605","category":"68","category_name":"快餐厅","address":"虹口区凉城路398号(近广灵四路)"},{"poiid":"B2094655D26CA0FC459D","title":"上海天伦医院","lon":"121.47077","lat":"31.2908","category":"162","category_name":"医院","address":"虹口区凉城路545号(汶水东路口)"},{"poiid":"B2094654D56DA3FA4392","title":"永琪美容美发(凉城路)","lon":"121.47092","lat":"31.28776","category":"148","category_name":"美容美发店","address":"虹口区凉城路402号(近广灵四路)"},{"poiid":"B2094757D06AA3FC439C","title":"虹凉馨苑","lon":"121.46475","lat":"31.291712","category":"47","category_name":"住宅区","address":"上海市虹口区广粤路439弄22-23号"},{"poiid":"B2094750D664A4F8499F","title":"老鸿昌苏州汤包馆","lon":"121.471","lat":"31.2884","category":"68","category_name":"快餐厅","address":"虹口区凉城路424号(近59路终点站)"},{"poiid":"B2094757D16BA4F94499","title":"汤华仕骨头王","lon":"121.4706031","lat":"31.28757978","category":"86","category_name":"火锅店","address":"虹口区凉城路418号(近广灵四路)"},{"poiid":"B2094757D068A4F4429A","title":"章氏(广粤店)","lon":"121.46672","lat":"31.29201","category":"68","category_name":"快餐厅","address":"虹口区广粤路501号(近汶水东路)"},{"poiid":"B2094654D56DA5FD4998","title":"中虹花园翡翠园","lon":"121.46818","lat":"31.28527","category":"47","category_name":"住宅区","address":"广灵四路561弄"},{"poiid":"B2094655D26BA6FD419D","title":"上海市虹口体育幼儿园","lon":"121.46839","lat":"31.28855","category":"57","category_name":"幼儿园","address":"虹口区东体育会支路70号(东江湾路东体育会支路)"},{"poiid":"B2094757D16FA3F8409A","title":"湘怀阁","lon":"121.4705231","lat":"31.287983789","category":"77","category_name":"湖南菜","address":"虹口区凉城路437号(近广灵四路)"},{"poiid":"B2094757D069A3FA489A","title":"21路车站凉城路","lon":"121.46784973","lat":"31.286735534","category":"38","category_name":"公交车站","address":"上海凉城路广灵二路路口"},{"poiid":"B2094757D66BA2F54199","title":"满庭芳","lon":"121.46620166347","lat":"31.284886218488","category":"77","category_name":"湖南菜","address":"虹口区广粤路199号(近广灵四路)"},{"poiid":"B2094655D265A4FA4899","title":"博学楼","lon":"121.46865","lat":"31.288744","category":"47","category_name":"住宅区","address":"上海市虹口区凉城路465号"},{"poiid":"B2094751DA68A1FD4599","title":"宝山万达广场","lon":"121.4681989","lat":"31.2853212","category":"249","category_name":"购物服务","address":"一二八纪念路"},{"poiid":"B2094751D568A4FE4592","title":"老李鱼头泡饼","lon":"121.468213","lat":"31.286457","category":"247","category_name":"餐饮美食","address":"广灵四路323号"},{"poiid":"B2094655D26EA3FB449C","title":"小辣椒麻辣烫","lon":"121.47016","lat":"31.28445","category":"68","category_name":"快餐厅","address":"虹口区凉城路266号(近广灵二路)"},{"poiid":"B2094751DA69A2F44693","title":"维也纳国际酒店（虹口店）","lon":"121.465363","lat":"31.286011","category":"251","category_name":"出行住宿","address":"广粤路279号"},{"poiid":"B2094654D56DA5F4479C","title":"欣武大厦","lon":"121.466377","lat":"31.284776","category":"46","category_name":"楼宇","address":"上海市虹口区广中路694号"},{"poiid":"B2094757D16DA2F8419A","title":"广中扩大小区","lon":"121.47205","lat":"31.288736","category":"500","category_name":"未知分类","address":"上海汶水东路690弄"},{"poiid":"B2094655D36CA1FA439F","title":"凉城路广灵四路","lon":"121.47017","lat":"31.28571","category":"38","category_name":"公交车站","address":""},{"poiid":"B2094654DB69A5F84192","title":"文峰美容美发(广灵四路店)","lon":"121.46946","lat":"31.28685","category":"148","category_name":"美容美发店","address":"虹口区广灵四路495-497号"},{"poiid":"B2094654D56DA5FD489D","title":"良友金伴(广灵四路)","lon":"121.46893","lat":"31.28672","category":"117","category_name":"便民商店/便利店","address":"广灵四路507"},{"poiid":"B2094750DB69A4FD449B","title":"虹桥火车站","lon":"121.469123","lat":"31.285943","category":"500","category_name":"未知分类","address":null},{"poiid":"B2094757D068A7F84098","title":"上海外国语大学附属小学","lon":"121.467","lat":"31.29049","category":"56","category_name":"小学","address":"虹口区广粤路590号"},{"poiid":"B2094655D26DAAF94193","title":"虹韵家园","lon":"121.472","lat":"31.2896","category":"47","category_name":"住宅区","address":"广粤路150弄1-23号"},{"poiid":"B2094655D26BA7F5409C","title":"海叶新苑","lon":"121.471","lat":"31.2871","category":"47","category_name":"住宅区","address":"上海市虹口区广中路555号"},{"poiid":"B2094654D56DA5FE449A","title":"凉城街道社区卫生服务中心广粤服务站","lon":"121.47004","lat":"31.28898","category":"162","category_name":"医院","address":"凉城新村"},{"poiid":"B2094757D66DA0FB459B","title":"业成海鲜酒家","lon":"121.472542103","lat":"31.287342776","category":"247","category_name":"餐饮美食","address":"上海虹口区广灵四路340号(近凉城路)"},{"poiid":"B2094654D56DA5FE469A","title":"国美电器(广灵四路)","lon":"121.46986","lat":"31.28741","category":"138","category_name":"家电电子卖场","address":"虹口区广灵四路500号(近凉城路)"},{"poiid":"B2094757D16FA0F9419F","title":"格调造型","lon":"121.468666","lat":"31.286778","category":"148","category_name":"美容美发店","address":"上海虹口区广灵四路517号(凉城路口)"},{"poiid":"B2094757DA65A5F5459F","title":"汉庭快捷酒店（上海广粤路店）","lon":"121.465812027","lat":"31.286970316","category":"216","category_name":"经济型连锁酒店","address":"广粤路281号"},{"poiid":"B2094750DB68A3FF469A","title":"上海人民武装学校","lon":"121.468582","lat":"31.284814","category":"253","category_name":"校园生活","address":"虹口区广粤路281号"}]