[{"poiid":"B2094757D06FA5F5479A","title":"环贸广场(ICC Shanghai)","lon":"121.4572073","lat":"31.2159677","category":"119","category_name":"商场","address":"上海徐汇区淮海中路999号(近陕西南路)"},{"poiid":"B2094655D26AABFD4393","title":"辛香汇淮海中路店","lon":"121.45614","lat":"31.2161","category":"71","category_name":"四川菜","address":"徐汇区淮海中路1028号嘉华中心嘉华坊3楼(近襄阳路)"},{"poiid":"B209475CD768ABFA409C","title":"STAYREAL CAFE by GABEE.","lon":"121.45710712429809","lat":"31.2159557609671","category":"65","category_name":"咖啡厅","address":"徐汇区淮海中路999号环贸广场LG2-245"},{"poiid":"B2094753D76FAAFA449C","title":"上海滩国泰旗舰店","lon":"121.466011","lat":"31.216125","category":"249","category_name":"购物服务","address":"淮海中路868号"},{"poiid":"B209475CD564A7F84292","title":"上海滩新天地店","lon":"121.47463","lat":"31.22164","category":"119","category_name":"商场","address":"\"太仓路181弄新天地北里15号\r\n\""},{"poiid":"B209475CD564A7F8439E","title":"上海滩中信泰富店","lon":"121.45602","lat":"31.22851","category":"119","category_name":"商场","address":"\"南京西路1168号中信泰富广场，店铺号221.\r\n\""},{"poiid":"B2094654DA6EA2F9419F","title":"淮海国际广场","lon":"121.4565","lat":"31.21517","category":"46","category_name":"楼宇","address":"行宫位于沈河北站一路41号"},{"poiid":"B2094654D564ABFC479D","title":"新元素(嘉华坊)","lon":"121.45568","lat":"31.21604","category":"94","category_name":"西餐厅","address":"上海徐汇区淮海中路1028号嘉华坊4-5楼(近东湖路)"},{"poiid":"B2094654D564ABFC4692","title":"嘉华中心","lon":"121.45615","lat":"31.2161","category":"46","category_name":"楼宇","address":"上海市徐汇区淮海中路1010号"},{"poiid":"B2094757D06EAAFB4093","title":"陕西南路地铁站","lon":"121.45824382","lat":"31.215062494","category":"36","category_name":"地铁站","address":"上海轨道交通 一号线 十号线 轨交陕西南路站 1 10"},{"poiid":"B2094757D06FA2FD4999","title":"襄阳公园","lon":"121.45702922","lat":"31.216751549","category":"196","category_name":"公园","address":"徐汇区淮海中路1008号(近襄阳北路)"},{"poiid":"B2094757D069A7FD4893","title":"星巴克(襄阳公园店)","lon":"121.4576524","lat":"31.2162728","category":"260","category_name":"其他","address":"徐汇区淮海中路1008号(近襄阳北路)"},{"poiid":"B2094757D06FA6FC459E","title":"新素代(淮海店)","lon":"121.458397114","lat":"31.2167176317","category":"89","category_name":"中式素餐馆","address":"徐汇区淮海中路988号黄金世界商厦5楼(近陕西南路)"},{"poiid":"B2094757D06FA2FB4293","title":"圆苑酒家(淮海店)","lon":"121.4563","lat":"31.216","category":"76","category_name":"上海菜","address":"上海徐汇区襄阳北路108号嘉华中心会所1-2楼(近淮海中路)  "},{"poiid":"B2094757D06FA3F44299","title":"五木烧肉馆(东湖路店)","lon":"121.45564","lat":"31.21536","category":"269","category_name":"烧烤","address":"上海徐汇区东湖路7号东湖宾馆新馆1楼(近淮海中路)"},{"poiid":"B2094757D06FA7FA4099","title":"藏乐坊(长乐路店)","lon":"121.45664","lat":"31.21979","category":"72","category_name":"广东菜","address":"徐汇区长乐路333号(近陕西南路或襄阳北路)"},{"poiid":"B2094757D06FA6FD4198","title":"山间堂民间瓦缸煨汤(淮海店)","lon":"121.45814","lat":"31.21621","category":"260","category_name":"其他","address":"徐汇区淮海中路1008号2楼(近襄阳北路)"},{"poiid":"B2094750D76FA3FB4698","title":"滩悦(淮海路店)","lon":"121.457","lat":"31.2143","category":"76","category_name":"上海菜","address":"卢湾区襄阳南路102号3楼(近南昌路)"},{"poiid":"B2094757D068A5FA449F","title":"嘉豪淮海国际豪生酒店","lon":"121.45631","lat":"31.21455","category":"217","category_name":"旅馆招待所","address":"上海市徐汇区汾阳路1号(近淮海中路)"},{"poiid":"B2094750D768A6FA4899","title":"林记小馆(襄阳南路店)","lon":"121.457","lat":"31.2143","category":"72","category_name":"广东菜","address":"徐汇区襄阳南路102号(近淮海路)"},{"poiid":"B2094757D06FA2F44699","title":"康师傅私房牛肉面(淮海中路店)","lon":"121.45862","lat":"31.21636","category":"68","category_name":"快餐厅","address":"徐汇区淮海中路988号黄金商厦2楼(近陕西南路)"},{"poiid":"B209475CD664A0FA4398","title":"Stay Real Cafe by GABEE","lon":"121.457015","lat":"31.215112","category":"500","category_name":"未知分类","address":"上海市 iapm lg2-246"},{"poiid":"B2094757D068A7FF459A","title":"J&amp;Eleven 型人坊","lon":"121.457576","lat":"31.217483403","category":"148","category_name":"美容美发店","address":"上海新乐路11号"},{"poiid":"B2094753DB68A4FD489C","title":"上海环贸iapm","lon":"121.457794","lat":"31.216356","category":"500","category_name":"未知分类","address":"上海市 淮海中路999号"},{"poiid":"B2094750D26EA7F9429B","title":"Elefante","lon":"121.45557403565","lat":"31.215976239077","category":"94","category_name":"西餐厅","address":"东湖路20号近淮海中路"},{"poiid":"B209475CDA65A0FD449A","title":"金牌外婆家","lon":"121.457084","lat":"31.216445","category":"247","category_name":"餐饮美食","address":"淮海中路999号iapm环贸LG2层"},{"poiid":"B2094753DA65ABFF4892","title":"香港稻香","lon":"121.457664","lat":"31.215404","category":"247","category_name":"餐饮美食","address":"上海市 上海市淮海中路999號APM商場3樓301室"},{"poiid":"B2094655D36DA6FE439B","title":"陕西南路","lon":"121.45822","lat":"31.2151","category":"38","category_name":"公交车站","address":""},{"poiid":"B2094752DB6BA5FA429D","title":"Madison","lon":"121.455942","lat":"31.21461","category":"500","category_name":"未知分类","address":"上海市 汾陽路3號2號樓1樓"},{"poiid":"B2094654DB6BA6FC419B","title":"萨莉亚(淮海中路)","lon":"121.4584","lat":"31.21671","category":"94","category_name":"西餐厅","address":"徐汇区淮海中路988号黄金世界商厦3楼(近陕西南路)"},{"poiid":"B209475CDB6BA0FA479D","title":"甜兮兮 | Sweet CC","lon":"121.457908","lat":"31.215703","category":"500","category_name":"未知分类","address":"上海市 iapm环贸商城LG2层236商铺"},{"poiid":"B2094750DA6EA4FB4398","title":"徐汇中心医院","lon":"121.458412","lat":"31.216621","category":"162","category_name":"医院","address":"淮海中路966号"},{"poiid":"B2094757DB69A7FB4199","title":"爱乐阿米奇 ELLO AMICI'S","lon":"121.456828","lat":"31.214321","category":"94","category_name":"西餐厅","address":"徐汇区襄阳南路102号(南昌路口)"},{"poiid":"B209475CD364ABFF4399","title":"上海环贸广场iapm","lon":"121.457824","lat":"31.215875","category":"500","category_name":"未知分类","address":"上海市 上海市徐汇区淮海中路"},{"poiid":"B209475CD169A2FD4098","title":"成隆行蟹王府","lon":"121.457008","lat":"31.215003","category":"247","category_name":"餐饮美食","address":"上海市 汾阳路1号"},{"poiid":"B209475CD465A0F4419D","title":"麵屋武藏","lon":"121.457809","lat":"31.215791","category":"500","category_name":"未知分类","address":"上海市 淮海中路999号iapm"},{"poiid":"B2094757D06FA2FD479F","title":"Mister Donut 美仕唐纳滋(襄阳公园店)","lon":"121.45770263","lat":"31.216373443","category":"67","category_name":"甜品店","address":"徐汇区淮海中路1008号(近襄阳北路)"},{"poiid":"B2094753D26AAAF44893","title":"大咀茶餐厅","lon":"121.45771","lat":"31.214161","category":"500","category_name":"未知分类","address":"上海市 陕西南路117号5楼"},{"poiid":"B2094655D265ABFC479A","title":"沧浪亭酒楼","lon":"121.458455","lat":"31.21669","category":"76","category_name":"上海菜","address":"徐汇区淮海中路988号黄金世界商厦4楼(近陕西南路)"},{"poiid":"B2094757D068A6FC4398","title":"永隆港式茶餐厅","lon":"121.45623","lat":"31.21676","category":"72","category_name":"广东菜","address":"徐汇区襄阳北路100号(近襄阳公园)"},{"poiid":"B209475CD16FABF94499","title":"IAPM","lon":"121.457168","lat":"31.216394","category":"500","category_name":"未知分类","address":"上海市 陕西南路"},{"poiid":"B2094753DA65ABF44892","title":"无印良品环贸iapm旗舰店","lon":"121.458007","lat":"31.21507","category":"500","category_name":"未知分类","address":"上海市 上海市徐汇区淮海中路999号上海环贸广场 3F"},{"poiid":"B209475CD76FA1FD489B","title":"STAGE 上海iapm","lon":"121.457992","lat":"31.214294","category":"500","category_name":"未知分类","address":"上海市 上海市淮海中路環貿廣場IAPM LG2-273~275"},{"poiid":"B2094750D26DA4FE479A","title":"农圃饭店 淮海中路店","lon":"121.4567346","lat":"31.2157904","category":"72","category_name":"广东菜","address":"徐汇区淮海中路1028号嘉华中心嘉华坊2楼(近汾阳路)"},{"poiid":"B209475CD768A2FA439B","title":"stay real café","lon":"121.457015","lat":"31.215112","category":"500","category_name":"未知分类","address":"上海市 环贸广场 iapm"},{"poiid":"B209475DD46BA3FB4998","title":"查厘士港式茶餐厅","lon":"121.45861","lat":"31.216394","category":"247","category_name":"餐饮美食","address":"上海市 iapm对面"},{"poiid":"B2094753DB64ABF44699","title":"Greyhound Café","lon":"121.457822","lat":"31.215891","category":"99","category_name":"泰国／越南菜品餐厅","address":"上海市徐汇区淮海中路999号环贸iapm商场L5-503室"},{"poiid":"B2094752DB65ABFB4199","title":"糖朝（淮海中路旗舰店）","lon":"121.457231","lat":"31.216439","category":"247","category_name":"餐饮美食","address":"上海市 黄浦区陕西南路141号"},{"poiid":"B209475CD464A3FC4493","title":"Apple Store 淮海路iapm店","lon":"121.457527","lat":"31.216035","category":"500","category_name":"未知分类","address":"上海市 徐汇区淮海中路999号"},{"poiid":"B209475DD26CA5F8449B","title":"鼎泰丰环贸店","lon":"121.456192","lat":"31.214679","category":"500","category_name":"未知分类","address":"上海市 淮海中路环贸Iapm广场3楼"},{"poiid":"B2094757D06FA5F5479A","title":"环贸广场(ICC Shanghai)","lon":"121.4572073","lat":"31.2159677","category":"119","category_name":"商场","address":"上海徐汇区淮海中路999号(近陕西南路)"},{"poiid":"B2094655D26AABFD4393","title":"辛香汇淮海中路店","lon":"121.45614","lat":"31.2161","category":"71","category_name":"四川菜","address":"徐汇区淮海中路1028号嘉华中心嘉华坊3楼(近襄阳路)"},{"poiid":"B209475CD768ABFA409C","title":"STAYREAL CAFE by GABEE.","lon":"121.45710712429809","lat":"31.2159557609671","category":"65","category_name":"咖啡厅","address":"徐汇区淮海中路999号环贸广场LG2-245"},{"poiid":"B2094753D76FAAFA449C","title":"上海滩国泰旗舰店","lon":"121.466011","lat":"31.216125","category":"249","category_name":"购物服务","address":"淮海中路868号"},{"poiid":"B209475CD564A7F84292","title":"上海滩新天地店","lon":"121.47463","lat":"31.22164","category":"119","category_name":"商场","address":"\"太仓路181弄新天地北里15号\r\n\""},{"poiid":"B209475CD564A7F8439E","title":"上海滩中信泰富店","lon":"121.45602","lat":"31.22851","category":"119","category_name":"商场","address":"\"南京西路1168号中信泰富广场，店铺号221.\r\n\""},{"poiid":"B2094654DA6EA2F9419F","title":"淮海国际广场","lon":"121.4565","lat":"31.21517","category":"46","category_name":"楼宇","address":"行宫位于沈河北站一路41号"},{"poiid":"B2094654D564ABFC479D","title":"新元素(嘉华坊)","lon":"121.45568","lat":"31.21604","category":"94","category_name":"西餐厅","address":"上海徐汇区淮海中路1028号嘉华坊4-5楼(近东湖路)"},{"poiid":"B2094654D564ABFC4692","title":"嘉华中心","lon":"121.45615","lat":"31.2161","category":"46","category_name":"楼宇","address":"上海市徐汇区淮海中路1010号"},{"poiid":"B2094757D06EAAFB4093","title":"陕西南路地铁站","lon":"121.45824382","lat":"31.215062494","category":"36","category_name":"地铁站","address":"上海轨道交通 一号线 十号线 轨交陕西南路站 1 10"},{"poiid":"B2094757D06FA2FD4999","title":"襄阳公园","lon":"121.45702922","lat":"31.216751549","category":"196","category_name":"公园","address":"徐汇区淮海中路1008号(近襄阳北路)"},{"poiid":"B2094757D069A7FD4893","title":"星巴克(襄阳公园店)","lon":"121.4576524","lat":"31.2162728","category":"260","category_name":"其他","address":"徐汇区淮海中路1008号(近襄阳北路)"},{"poiid":"B2094757D06FA6FC459E","title":"新素代(淮海店)","lon":"121.458397114","lat":"31.2167176317","category":"89","category_name":"中式素餐馆","address":"徐汇区淮海中路988号黄金世界商厦5楼(近陕西南路)"},{"poiid":"B2094757D06FA2FB4293","title":"圆苑酒家(淮海店)","lon":"121.4563","lat":"31.216","category":"76","category_name":"上海菜","address":"上海徐汇区襄阳北路108号嘉华中心会所1-2楼(近淮海中路)  "},{"poiid":"B2094757D06FA3F44299","title":"五木烧肉馆(东湖路店)","lon":"121.45564","lat":"31.21536","category":"269","category_name":"烧烤","address":"上海徐汇区东湖路7号东湖宾馆新馆1楼(近淮海中路)"},{"poiid":"B2094757D06FA7FA4099","title":"藏乐坊(长乐路店)","lon":"121.45664","lat":"31.21979","category":"72","category_name":"广东菜","address":"徐汇区长乐路333号(近陕西南路或襄阳北路)"},{"poiid":"B2094757D06FA6FD4198","title":"山间堂民间瓦缸煨汤(淮海店)","lon":"121.45814","lat":"31.21621","category":"260","category_name":"其他","address":"徐汇区淮海中路1008号2楼(近襄阳北路)"},{"poiid":"B2094750D76FA3FB4698","title":"滩悦(淮海路店)","lon":"121.457","lat":"31.2143","category":"76","category_name":"上海菜","address":"卢湾区襄阳南路102号3楼(近南昌路)"},{"poiid":"B2094757D068A5FA449F","title":"嘉豪淮海国际豪生酒店","lon":"121.45631","lat":"31.21455","category":"217","category_name":"旅馆招待所","address":"上海市徐汇区汾阳路1号(近淮海中路)"},{"poiid":"B2094750D768A6FA4899","title":"林记小馆(襄阳南路店)","lon":"121.457","lat":"31.2143","category":"72","category_name":"广东菜","address":"徐汇区襄阳南路102号(近淮海路)"},{"poiid":"B2094757D06FA2F44699","title":"康师傅私房牛肉面(淮海中路店)","lon":"121.45862","lat":"31.21636","category":"68","category_name":"快餐厅","address":"徐汇区淮海中路988号黄金商厦2楼(近陕西南路)"},{"poiid":"B209475CD664A0FA4398","title":"Stay Real Cafe by GABEE","lon":"121.457015","lat":"31.215112","category":"500","category_name":"未知分类","address":"上海市 iapm lg2-246"},{"poiid":"B2094757D068A7FF459A","title":"J&amp;Eleven 型人坊","lon":"121.457576","lat":"31.217483403","category":"148","category_name":"美容美发店","address":"上海新乐路11号"},{"poiid":"B2094753DB68A4FD489C","title":"上海环贸iapm","lon":"121.457794","lat":"31.216356","category":"500","category_name":"未知分类","address":"上海市 淮海中路999号"},{"poiid":"B2094750D26EA7F9429B","title":"Elefante","lon":"121.45557403565","lat":"31.215976239077","category":"94","category_name":"西餐厅","address":"东湖路20号近淮海中路"},{"poiid":"B209475CDA65A0FD449A","title":"金牌外婆家","lon":"121.457084","lat":"31.216445","category":"247","category_name":"餐饮美食","address":"淮海中路999号iapm环贸LG2层"},{"poiid":"B2094753DA65ABFF4892","title":"香港稻香","lon":"121.457664","lat":"31.215404","category":"247","category_name":"餐饮美食","address":"上海市 上海市淮海中路999號APM商場3樓301室"},{"poiid":"B2094655D36DA6FE439B","title":"陕西南路","lon":"121.45822","lat":"31.2151","category":"38","category_name":"公交车站","address":""},{"poiid":"B2094752DB6BA5FA429D","title":"Madison","lon":"121.455942","lat":"31.21461","category":"500","category_name":"未知分类","address":"上海市 汾陽路3號2號樓1樓"},{"poiid":"B2094654DB6BA6FC419B","title":"萨莉亚(淮海中路)","lon":"121.4584","lat":"31.21671","category":"94","category_name":"西餐厅","address":"徐汇区淮海中路988号黄金世界商厦3楼(近陕西南路)"},{"poiid":"B209475CDB6BA0FA479D","title":"甜兮兮 | Sweet CC","lon":"121.457908","lat":"31.215703","category":"500","category_name":"未知分类","address":"上海市 iapm环贸商城LG2层236商铺"},{"poiid":"B2094750DA6EA4FB4398","title":"徐汇中心医院","lon":"121.458412","lat":"31.216621","category":"162","category_name":"医院","address":"淮海中路966号"},{"poiid":"B2094757DB69A7FB4199","title":"爱乐阿米奇 ELLO AMICI'S","lon":"121.456828","lat":"31.214321","category":"94","category_name":"西餐厅","address":"徐汇区襄阳南路102号(南昌路口)"},{"poiid":"B209475CD364ABFF4399","title":"上海环贸广场iapm","lon":"121.457824","lat":"31.215875","category":"500","category_name":"未知分类","address":"上海市 上海市徐汇区淮海中路"},{"poiid":"B209475CD169A2FD4098","title":"成隆行蟹王府","lon":"121.457008","lat":"31.215003","category":"247","category_name":"餐饮美食","address":"上海市 汾阳路1号"},{"poiid":"B209475CD465A0F4419D","title":"麵屋武藏","lon":"121.457809","lat":"31.215791","category":"500","category_name":"未知分类","address":"上海市 淮海中路999号iapm"},{"poiid":"B2094757D06FA2FD479F","title":"Mister Donut 美仕唐纳滋(襄阳公园店)","lon":"121.45770263","lat":"31.216373443","category":"67","category_name":"甜品店","address":"徐汇区淮海中路1008号(近襄阳北路)"},{"poiid":"B2094753D26AAAF44893","title":"大咀茶餐厅","lon":"121.45771","lat":"31.214161","category":"500","category_name":"未知分类","address":"上海市 陕西南路117号5楼"},{"poiid":"B2094655D265ABFC479A","title":"沧浪亭酒楼","lon":"121.458455","lat":"31.21669","category":"76","category_name":"上海菜","address":"徐汇区淮海中路988号黄金世界商厦4楼(近陕西南路)"},{"poiid":"B2094757D068A6FC4398","title":"永隆港式茶餐厅","lon":"121.45623","lat":"31.21676","category":"72","category_name":"广东菜","address":"徐汇区襄阳北路100号(近襄阳公园)"},{"poiid":"B209475CD16FABF94499","title":"IAPM","lon":"121.457168","lat":"31.216394","category":"500","category_name":"未知分类","address":"上海市 陕西南路"},{"poiid":"B2094753DA65ABF44892","title":"无印良品环贸iapm旗舰店","lon":"121.458007","lat":"31.21507","category":"500","category_name":"未知分类","address":"上海市 上海市徐汇区淮海中路999号上海环贸广场 3F"},{"poiid":"B209475CD76FA1FD489B","title":"STAGE 上海iapm","lon":"121.457992","lat":"31.214294","category":"500","category_name":"未知分类","address":"上海市 上海市淮海中路環貿廣場IAPM LG2-273~275"},{"poiid":"B2094750D26DA4FE479A","title":"农圃饭店 淮海中路店","lon":"121.4567346","lat":"31.2157904","category":"72","category_name":"广东菜","address":"徐汇区淮海中路1028号嘉华中心嘉华坊2楼(近汾阳路)"},{"poiid":"B209475CD768A2FA439B","title":"stay real café","lon":"121.457015","lat":"31.215112","category":"500","category_name":"未知分类","address":"上海市 环贸广场 iapm"},{"poiid":"B209475DD46BA3FB4998","title":"查厘士港式茶餐厅","lon":"121.45861","lat":"31.216394","category":"247","category_name":"餐饮美食","address":"上海市 iapm对面"},{"poiid":"B2094753DB64ABF44699","title":"Greyhound Café","lon":"121.457822","lat":"31.215891","category":"99","category_name":"泰国／越南菜品餐厅","address":"上海市徐汇区淮海中路999号环贸iapm商场L5-503室"},{"poiid":"B2094752DB65ABFB4199","title":"糖朝（淮海中路旗舰店）","lon":"121.457231","lat":"31.216439","category":"247","category_name":"餐饮美食","address":"上海市 黄浦区陕西南路141号"},{"poiid":"B209475CD464A3FC4493","title":"Apple Store 淮海路iapm店","lon":"121.457527","lat":"31.216035","category":"500","category_name":"未知分类","address":"上海市 徐汇区淮海中路999号"},{"poiid":"B209475DD26CA5F8449B","title":"鼎泰丰环贸店","lon":"121.456192","lat":"31.214679","category":"500","category_name":"未知分类","address":"上海市 淮海中路环贸Iapm广场3楼"},{"poiid":"B2094757D06FA5F5479A","title":"环贸广场(ICC Shanghai)","lon":"121.4572073","lat":"31.2159677","category":"119","category_name":"商场","address":"上海徐汇区淮海中路999号(近陕西南路)"},{"poiid":"B2094655D26AABFD4393","title":"辛香汇淮海中路店","lon":"121.45614","lat":"31.2161","category":"71","category_name":"四川菜","address":"徐汇区淮海中路1028号嘉华中心嘉华坊3楼(近襄阳路)"},{"poiid":"B209475CD768ABFA409C","title":"STAYREAL CAFE by GABEE.","lon":"121.45710712429809","lat":"31.2159557609671","category":"65","category_name":"咖啡厅","address":"徐汇区淮海中路999号环贸广场LG2-245"},{"poiid":"B2094753D76FAAFA449C","title":"上海滩国泰旗舰店","lon":"121.466011","lat":"31.216125","category":"249","category_name":"购物服务","address":"淮海中路868号"},{"poiid":"B209475CD564A7F84292","title":"上海滩新天地店","lon":"121.47463","lat":"31.22164","category":"119","category_name":"商场","address":"\"太仓路181弄新天地北里15号\r\n\""},{"poiid":"B209475CD564A7F8439E","title":"上海滩中信泰富店","lon":"121.45602","lat":"31.22851","category":"119","category_name":"商场","address":"\"南京西路1168号中信泰富广场，店铺号221.\r\n\""},{"poiid":"B2094654DA6EA2F9419F","title":"淮海国际广场","lon":"121.4565","lat":"31.21517","category":"46","category_name":"楼宇","address":"行宫位于沈河北站一路41号"},{"poiid":"B2094654D564ABFC479D","title":"新元素(嘉华坊)","lon":"121.45568","lat":"31.21604","category":"94","category_name":"西餐厅","address":"上海徐汇区淮海中路1028号嘉华坊4-5楼(近东湖路)"},{"poiid":"B2094654D564ABFC4692","title":"嘉华中心","lon":"121.45615","lat":"31.2161","category":"46","category_name":"楼宇","address":"上海市徐汇区淮海中路1010号"},{"poiid":"B2094757D06EAAFB4093","title":"陕西南路地铁站","lon":"121.45824382","lat":"31.215062494","category":"36","category_name":"地铁站","address":"上海轨道交通 一号线 十号线 轨交陕西南路站 1 10"},{"poiid":"B2094757D06FA2FD4999","title":"襄阳公园","lon":"121.45702922","lat":"31.216751549","category":"196","category_name":"公园","address":"徐汇区淮海中路1008号(近襄阳北路)"},{"poiid":"B2094757D069A7FD4893","title":"星巴克(襄阳公园店)","lon":"121.4576524","lat":"31.2162728","category":"260","category_name":"其他","address":"徐汇区淮海中路1008号(近襄阳北路)"},{"poiid":"B2094757D06FA6FC459E","title":"新素代(淮海店)","lon":"121.458397114","lat":"31.2167176317","category":"89","category_name":"中式素餐馆","address":"徐汇区淮海中路988号黄金世界商厦5楼(近陕西南路)"},{"poiid":"B2094757D06FA2FB4293","title":"圆苑酒家(淮海店)","lon":"121.4563","lat":"31.216","category":"76","category_name":"上海菜","address":"上海徐汇区襄阳北路108号嘉华中心会所1-2楼(近淮海中路)  "},{"poiid":"B2094757D06FA3F44299","title":"五木烧肉馆(东湖路店)","lon":"121.45564","lat":"31.21536","category":"269","category_name":"烧烤","address":"上海徐汇区东湖路7号东湖宾馆新馆1楼(近淮海中路)"},{"poiid":"B2094757D06FA7FA4099","title":"藏乐坊(长乐路店)","lon":"121.45664","lat":"31.21979","category":"72","category_name":"广东菜","address":"徐汇区长乐路333号(近陕西南路或襄阳北路)"},{"poiid":"B2094757D06FA6FD4198","title":"山间堂民间瓦缸煨汤(淮海店)","lon":"121.45814","lat":"31.21621","category":"260","category_name":"其他","address":"徐汇区淮海中路1008号2楼(近襄阳北路)"},{"poiid":"B2094750D76FA3FB4698","title":"滩悦(淮海路店)","lon":"121.457","lat":"31.2143","category":"76","category_name":"上海菜","address":"卢湾区襄阳南路102号3楼(近南昌路)"},{"poiid":"B2094757D068A5FA449F","title":"嘉豪淮海国际豪生酒店","lon":"121.45631","lat":"31.21455","category":"217","category_name":"旅馆招待所","address":"上海市徐汇区汾阳路1号(近淮海中路)"},{"poiid":"B2094750D768A6FA4899","title":"林记小馆(襄阳南路店)","lon":"121.457","lat":"31.2143","category":"72","category_name":"广东菜","address":"徐汇区襄阳南路102号(近淮海路)"},{"poiid":"B2094757D06FA2F44699","title":"康师傅私房牛肉面(淮海中路店)","lon":"121.45862","lat":"31.21636","category":"68","category_name":"快餐厅","address":"徐汇区淮海中路988号黄金商厦2楼(近陕西南路)"},{"poiid":"B209475CD664A0FA4398","title":"Stay Real Cafe by GABEE","lon":"121.457015","lat":"31.215112","category":"500","category_name":"未知分类","address":"上海市 iapm lg2-246"},{"poiid":"B2094757D068A7FF459A","title":"J&amp;Eleven 型人坊","lon":"121.457576","lat":"31.217483403","category":"148","category_name":"美容美发店","address":"上海新乐路11号"},{"poiid":"B2094753DB68A4FD489C","title":"上海环贸iapm","lon":"121.457794","lat":"31.216356","category":"500","category_name":"未知分类","address":"上海市 淮海中路999号"},{"poiid":"B2094750D26EA7F9429B","title":"Elefante","lon":"121.45557403565","lat":"31.215976239077","category":"94","category_name":"西餐厅","address":"东湖路20号近淮海中路"},{"poiid":"B209475CDA65A0FD449A","title":"金牌外婆家","lon":"121.457084","lat":"31.216445","category":"247","category_name":"餐饮美食","address":"淮海中路999号iapm环贸LG2层"},{"poiid":"B2094753DA65ABFF4892","title":"香港稻香","lon":"121.457664","lat":"31.215404","category":"247","category_name":"餐饮美食","address":"上海市 上海市淮海中路999號APM商場3樓301室"},{"poiid":"B2094655D36DA6FE439B","title":"陕西南路","lon":"121.45822","lat":"31.2151","category":"38","category_name":"公交车站","address":""},{"poiid":"B2094752DB6BA5FA429D","title":"Madison","lon":"121.455942","lat":"31.21461","category":"500","category_name":"未知分类","address":"上海市 汾陽路3號2號樓1樓"},{"poiid":"B2094654DB6BA6FC419B","title":"萨莉亚(淮海中路)","lon":"121.4584","lat":"31.21671","category":"94","category_name":"西餐厅","address":"徐汇区淮海中路988号黄金世界商厦3楼(近陕西南路)"},{"poiid":"B209475CDB6BA0FA479D","title":"甜兮兮 | Sweet CC","lon":"121.457908","lat":"31.215703","category":"500","category_name":"未知分类","address":"上海市 iapm环贸商城LG2层236商铺"},{"poiid":"B2094750DA6EA4FB4398","title":"徐汇中心医院","lon":"121.458412","lat":"31.216621","category":"162","category_name":"医院","address":"淮海中路966号"},{"poiid":"B2094757DB69A7FB4199","title":"爱乐阿米奇 ELLO AMICI'S","lon":"121.456828","lat":"31.214321","category":"94","category_name":"西餐厅","address":"徐汇区襄阳南路102号(南昌路口)"},{"poiid":"B209475CD364ABFF4399","title":"上海环贸广场iapm","lon":"121.457824","lat":"31.215875","category":"500","category_name":"未知分类","address":"上海市 上海市徐汇区淮海中路"},{"poiid":"B209475CD169A2FD4098","title":"成隆行蟹王府","lon":"121.457008","lat":"31.215003","category":"247","category_name":"餐饮美食","address":"上海市 汾阳路1号"},{"poiid":"B209475CD465A0F4419D","title":"麵屋武藏","lon":"121.457809","lat":"31.215791","category":"500","category_name":"未知分类","address":"上海市 淮海中路999号iapm"},{"poiid":"B2094757D06FA2FD479F","title":"Mister Donut 美仕唐纳滋(襄阳公园店)","lon":"121.45770263","lat":"31.216373443","category":"67","category_name":"甜品店","address":"徐汇区淮海中路1008号(近襄阳北路)"},{"poiid":"B2094753D26AAAF44893","title":"大咀茶餐厅","lon":"121.45771","lat":"31.214161","category":"500","category_name":"未知分类","address":"上海市 陕西南路117号5楼"},{"poiid":"B2094655D265ABFC479A","title":"沧浪亭酒楼","lon":"121.458455","lat":"31.21669","category":"76","category_name":"上海菜","address":"徐汇区淮海中路988号黄金世界商厦4楼(近陕西南路)"},{"poiid":"B2094757D068A6FC4398","title":"永隆港式茶餐厅","lon":"121.45623","lat":"31.21676","category":"72","category_name":"广东菜","address":"徐汇区襄阳北路100号(近襄阳公园)"},{"poiid":"B209475CD16FABF94499","title":"IAPM","lon":"121.457168","lat":"31.216394","category":"500","category_name":"未知分类","address":"上海市 陕西南路"},{"poiid":"B2094753DA65ABF44892","title":"无印良品环贸iapm旗舰店","lon":"121.458007","lat":"31.21507","category":"500","category_name":"未知分类","address":"上海市 上海市徐汇区淮海中路999号上海环贸广场 3F"},{"poiid":"B209475CD76FA1FD489B","title":"STAGE 上海iapm","lon":"121.457992","lat":"31.214294","category":"500","category_name":"未知分类","address":"上海市 上海市淮海中路環貿廣場IAPM LG2-273~275"},{"poiid":"B2094750D26DA4FE479A","title":"农圃饭店 淮海中路店","lon":"121.4567346","lat":"31.2157904","category":"72","category_name":"广东菜","address":"徐汇区淮海中路1028号嘉华中心嘉华坊2楼(近汾阳路)"},{"poiid":"B209475CD768A2FA439B","title":"stay real café","lon":"121.457015","lat":"31.215112","category":"500","category_name":"未知分类","address":"上海市 环贸广场 iapm"},{"poiid":"B209475DD46BA3FB4998","title":"查厘士港式茶餐厅","lon":"121.45861","lat":"31.216394","category":"247","category_name":"餐饮美食","address":"上海市 iapm对面"},{"poiid":"B2094753DB64ABF44699","title":"Greyhound Café","lon":"121.457822","lat":"31.215891","category":"99","category_name":"泰国／越南菜品餐厅","address":"上海市徐汇区淮海中路999号环贸iapm商场L5-503室"},{"poiid":"B2094752DB65ABFB4199","title":"糖朝（淮海中路旗舰店）","lon":"121.457231","lat":"31.216439","category":"247","category_name":"餐饮美食","address":"上海市 黄浦区陕西南路141号"},{"poiid":"B209475CD464A3FC4493","title":"Apple Store 淮海路iapm店","lon":"121.457527","lat":"31.216035","category":"500","category_name":"未知分类","address":"上海市 徐汇区淮海中路999号"},{"poiid":"B209475DD26CA5F8449B","title":"鼎泰丰环贸店","lon":"121.456192","lat":"31.214679","category":"500","category_name":"未知分类","address":"上海市 淮海中路环贸Iapm广场3楼"},{"poiid":"B2094757D06FA5F5479A","title":"环贸广场(ICC Shanghai)","lon":"121.4572073","lat":"31.2159677","category":"119","category_name":"商场","address":"上海徐汇区淮海中路999号(近陕西南路)"},{"poiid":"B2094655D26AABFD4393","title":"辛香汇淮海中路店","lon":"121.45614","lat":"31.2161","category":"71","category_name":"四川菜","address":"徐汇区淮海中路1028号嘉华中心嘉华坊3楼(近襄阳路)"},{"poiid":"B209475CD768ABFA409C","title":"STAYREAL CAFE by GABEE.","lon":"121.45710712429809","lat":"31.2159557609671","category":"65","category_name":"咖啡厅","address":"徐汇区淮海中路999号环贸广场LG2-245"},{"poiid":"B2094753D76FAAFA449C","title":"上海滩国泰旗舰店","lon":"121.466011","lat":"31.216125","category":"249","category_name":"购物服务","address":"淮海中路868号"},{"poiid":"B209475CD564A7F84292","title":"上海滩新天地店","lon":"121.47463","lat":"31.22164","category":"119","category_name":"商场","address":"\"太仓路181弄新天地北里15号\r\n\""},{"poiid":"B209475CD564A7F8439E","title":"上海滩中信泰富店","lon":"121.45602","lat":"31.22851","category":"119","category_name":"商场","address":"\"南京西路1168号中信泰富广场，店铺号221.\r\n\""},{"poiid":"B2094654DA6EA2F9419F","title":"淮海国际广场","lon":"121.4565","lat":"31.21517","category":"46","category_name":"楼宇","address":"行宫位于沈河北站一路41号"},{"poiid":"B2094654D564ABFC479D","title":"新元素(嘉华坊)","lon":"121.45568","lat":"31.21604","category":"94","category_name":"西餐厅","address":"上海徐汇区淮海中路1028号嘉华坊4-5楼(近东湖路)"},{"poiid":"B2094654D564ABFC4692","title":"嘉华中心","lon":"121.45615","lat":"31.2161","category":"46","category_name":"楼宇","address":"上海市徐汇区淮海中路1010号"},{"poiid":"B2094757D06EAAFB4093","title":"陕西南路地铁站","lon":"121.45824382","lat":"31.215062494","category":"36","category_name":"地铁站","address":"上海轨道交通 一号线 十号线 轨交陕西南路站 1 10"},{"poiid":"B2094757D06FA2FD4999","title":"襄阳公园","lon":"121.45702922","lat":"31.216751549","category":"196","category_name":"公园","address":"徐汇区淮海中路1008号(近襄阳北路)"},{"poiid":"B2094757D069A7FD4893","title":"星巴克(襄阳公园店)","lon":"121.4576524","lat":"31.2162728","category":"260","category_name":"其他","address":"徐汇区淮海中路1008号(近襄阳北路)"},{"poiid":"B2094757D06FA6FC459E","title":"新素代(淮海店)","lon":"121.458397114","lat":"31.2167176317","category":"89","category_name":"中式素餐馆","address":"徐汇区淮海中路988号黄金世界商厦5楼(近陕西南路)"},{"poiid":"B2094757D06FA2FB4293","title":"圆苑酒家(淮海店)","lon":"121.4563","lat":"31.216","category":"76","category_name":"上海菜","address":"上海徐汇区襄阳北路108号嘉华中心会所1-2楼(近淮海中路)  "},{"poiid":"B2094757D06FA3F44299","title":"五木烧肉馆(东湖路店)","lon":"121.45564","lat":"31.21536","category":"269","category_name":"烧烤","address":"上海徐汇区东湖路7号东湖宾馆新馆1楼(近淮海中路)"},{"poiid":"B2094757D06FA7FA4099","title":"藏乐坊(长乐路店)","lon":"121.45664","lat":"31.21979","category":"72","category_name":"广东菜","address":"徐汇区长乐路333号(近陕西南路或襄阳北路)"},{"poiid":"B2094757D06FA6FD4198","title":"山间堂民间瓦缸煨汤(淮海店)","lon":"121.45814","lat":"31.21621","category":"260","category_name":"其他","address":"徐汇区淮海中路1008号2楼(近襄阳北路)"},{"poiid":"B2094750D76FA3FB4698","title":"滩悦(淮海路店)","lon":"121.457","lat":"31.2143","category":"76","category_name":"上海菜","address":"卢湾区襄阳南路102号3楼(近南昌路)"},{"poiid":"B2094757D068A5FA449F","title":"嘉豪淮海国际豪生酒店","lon":"121.45631","lat":"31.21455","category":"217","category_name":"旅馆招待所","address":"上海市徐汇区汾阳路1号(近淮海中路)"},{"poiid":"B2094750D768A6FA4899","title":"林记小馆(襄阳南路店)","lon":"121.457","lat":"31.2143","category":"72","category_name":"广东菜","address":"徐汇区襄阳南路102号(近淮海路)"},{"poiid":"B2094757D06FA2F44699","title":"康师傅私房牛肉面(淮海中路店)","lon":"121.45862","lat":"31.21636","category":"68","category_name":"快餐厅","address":"徐汇区淮海中路988号黄金商厦2楼(近陕西南路)"},{"poiid":"B209475CD664A0FA4398","title":"Stay Real Cafe by GABEE","lon":"121.457015","lat":"31.215112","category":"500","category_name":"未知分类","address":"上海市 iapm lg2-246"},{"poiid":"B2094757D068A7FF459A","title":"J&amp;Eleven 型人坊","lon":"121.457576","lat":"31.217483403","category":"148","category_name":"美容美发店","address":"上海新乐路11号"},{"poiid":"B2094753DB68A4FD489C","title":"上海环贸iapm","lon":"121.457794","lat":"31.216356","category":"500","category_name":"未知分类","address":"上海市 淮海中路999号"},{"poiid":"B2094750D26EA7F9429B","title":"Elefante","lon":"121.45557403565","lat":"31.215976239077","category":"94","category_name":"西餐厅","address":"东湖路20号近淮海中路"},{"poiid":"B209475CDA65A0FD449A","title":"金牌外婆家","lon":"121.457084","lat":"31.216445","category":"247","category_name":"餐饮美食","address":"淮海中路999号iapm环贸LG2层"},{"poiid":"B2094753DA65ABFF4892","title":"香港稻香","lon":"121.457664","lat":"31.215404","category":"247","category_name":"餐饮美食","address":"上海市 上海市淮海中路999號APM商場3樓301室"},{"poiid":"B2094655D36DA6FE439B","title":"陕西南路","lon":"121.45822","lat":"31.2151","category":"38","category_name":"公交车站","address":""},{"poiid":"B2094752DB6BA5FA429D","title":"Madison","lon":"121.455942","lat":"31.21461","category":"500","category_name":"未知分类","address":"上海市 汾陽路3號2號樓1樓"},{"poiid":"B2094654DB6BA6FC419B","title":"萨莉亚(淮海中路)","lon":"121.4584","lat":"31.21671","category":"94","category_name":"西餐厅","address":"徐汇区淮海中路988号黄金世界商厦3楼(近陕西南路)"},{"poiid":"B209475CDB6BA0FA479D","title":"甜兮兮 | Sweet CC","lon":"121.457908","lat":"31.215703","category":"500","category_name":"未知分类","address":"上海市 iapm环贸商城LG2层236商铺"},{"poiid":"B2094750DA6EA4FB4398","title":"徐汇中心医院","lon":"121.458412","lat":"31.216621","category":"162","category_name":"医院","address":"淮海中路966号"},{"poiid":"B2094757DB69A7FB4199","title":"爱乐阿米奇 ELLO AMICI'S","lon":"121.456828","lat":"31.214321","category":"94","category_name":"西餐厅","address":"徐汇区襄阳南路102号(南昌路口)"},{"poiid":"B209475CD364ABFF4399","title":"上海环贸广场iapm","lon":"121.457824","lat":"31.215875","category":"500","category_name":"未知分类","address":"上海市 上海市徐汇区淮海中路"},{"poiid":"B209475CD169A2FD4098","title":"成隆行蟹王府","lon":"121.457008","lat":"31.215003","category":"247","category_name":"餐饮美食","address":"上海市 汾阳路1号"},{"poiid":"B209475CD465A0F4419D","title":"麵屋武藏","lon":"121.457809","lat":"31.215791","category":"500","category_name":"未知分类","address":"上海市 淮海中路999号iapm"},{"poiid":"B2094757D06FA2FD479F","title":"Mister Donut 美仕唐纳滋(襄阳公园店)","lon":"121.45770263","lat":"31.216373443","category":"67","category_name":"甜品店","address":"徐汇区淮海中路1008号(近襄阳北路)"},{"poiid":"B2094753D26AAAF44893","title":"大咀茶餐厅","lon":"121.45771","lat":"31.214161","category":"500","category_name":"未知分类","address":"上海市 陕西南路117号5楼"},{"poiid":"B2094655D265ABFC479A","title":"沧浪亭酒楼","lon":"121.458455","lat":"31.21669","category":"76","category_name":"上海菜","address":"徐汇区淮海中路988号黄金世界商厦4楼(近陕西南路)"},{"poiid":"B2094757D068A6FC4398","title":"永隆港式茶餐厅","lon":"121.45623","lat":"31.21676","category":"72","category_name":"广东菜","address":"徐汇区襄阳北路100号(近襄阳公园)"},{"poiid":"B209475CD16FABF94499","title":"IAPM","lon":"121.457168","lat":"31.216394","category":"500","category_name":"未知分类","address":"上海市 陕西南路"},{"poiid":"B2094753DA65ABF44892","title":"无印良品环贸iapm旗舰店","lon":"121.458007","lat":"31.21507","category":"500","category_name":"未知分类","address":"上海市 上海市徐汇区淮海中路999号上海环贸广场 3F"},{"poiid":"B209475CD76FA1FD489B","title":"STAGE 上海iapm","lon":"121.457992","lat":"31.214294","category":"500","category_name":"未知分类","address":"上海市 上海市淮海中路環貿廣場IAPM LG2-273~275"},{"poiid":"B2094750D26DA4FE479A","title":"农圃饭店 淮海中路店","lon":"121.4567346","lat":"31.2157904","category":"72","category_name":"广东菜","address":"徐汇区淮海中路1028号嘉华中心嘉华坊2楼(近汾阳路)"},{"poiid":"B209475CD768A2FA439B","title":"stay real café","lon":"121.457015","lat":"31.215112","category":"500","category_name":"未知分类","address":"上海市 环贸广场 iapm"},{"poiid":"B209475DD46BA3FB4998","title":"查厘士港式茶餐厅","lon":"121.45861","lat":"31.216394","category":"247","category_name":"餐饮美食","address":"上海市 iapm对面"},{"poiid":"B2094753DB64ABF44699","title":"Greyhound Café","lon":"121.457822","lat":"31.215891","category":"99","category_name":"泰国／越南菜品餐厅","address":"上海市徐汇区淮海中路999号环贸iapm商场L5-503室"},{"poiid":"B2094752DB65ABFB4199","title":"糖朝（淮海中路旗舰店）","lon":"121.457231","lat":"31.216439","category":"247","category_name":"餐饮美食","address":"上海市 黄浦区陕西南路141号"},{"poiid":"B209475CD464A3FC4493","title":"Apple Store 淮海路iapm店","lon":"121.457527","lat":"31.216035","category":"500","category_name":"未知分类","address":"上海市 徐汇区淮海中路999号"},{"poiid":"B209475DD26CA5F8449B","title":"鼎泰丰环贸店","lon":"121.456192","lat":"31.214679","category":"500","category_name":"未知分类","address":"上海市 淮海中路环贸Iapm广场3楼"},{"poiid":"B2094757D06FA5F5479A","title":"环贸广场(ICC Shanghai)","lon":"121.4572073","lat":"31.2159677","category":"119","category_name":"商场","address":"上海徐汇区淮海中路999号(近陕西南路)"},{"poiid":"B2094655D26AABFD4393","title":"辛香汇淮海中路店","lon":"121.45614","lat":"31.2161","category":"71","category_name":"四川菜","address":"徐汇区淮海中路1028号嘉华中心嘉华坊3楼(近襄阳路)"},{"poiid":"B209475CD768ABFA409C","title":"STAYREAL CAFE by GABEE.","lon":"121.45710712429809","lat":"31.2159557609671","category":"65","category_name":"咖啡厅","address":"徐汇区淮海中路999号环贸广场LG2-245"},{"poiid":"B2094753D76FAAFA449C","title":"上海滩国泰旗舰店","lon":"121.466011","lat":"31.216125","category":"249","category_name":"购物服务","address":"淮海中路868号"},{"poiid":"B209475CD564A7F84292","title":"上海滩新天地店","lon":"121.47463","lat":"31.22164","category":"119","category_name":"商场","address":"\"太仓路181弄新天地北里15号\r\n\""},{"poiid":"B209475CD564A7F8439E","title":"上海滩中信泰富店","lon":"121.45602","lat":"31.22851","category":"119","category_name":"商场","address":"\"南京西路1168号中信泰富广场，店铺号221.\r\n\""},{"poiid":"B2094654DA6EA2F9419F","title":"淮海国际广场","lon":"121.4565","lat":"31.21517","category":"46","category_name":"楼宇","address":"行宫位于沈河北站一路41号"},{"poiid":"B2094654D564ABFC479D","title":"新元素(嘉华坊)","lon":"121.45568","lat":"31.21604","category":"94","category_name":"西餐厅","address":"上海徐汇区淮海中路1028号嘉华坊4-5楼(近东湖路)"},{"poiid":"B2094654D564ABFC4692","title":"嘉华中心","lon":"121.45615","lat":"31.2161","category":"46","category_name":"楼宇","address":"上海市徐汇区淮海中路1010号"},{"poiid":"B2094757D06EAAFB4093","title":"陕西南路地铁站","lon":"121.45824382","lat":"31.215062494","category":"36","category_name":"地铁站","address":"上海轨道交通 一号线 十号线 轨交陕西南路站 1 10"},{"poiid":"B2094757D06FA2FD4999","title":"襄阳公园","lon":"121.45702922","lat":"31.216751549","category":"196","category_name":"公园","address":"徐汇区淮海中路1008号(近襄阳北路)"},{"poiid":"B2094757D069A7FD4893","title":"星巴克(襄阳公园店)","lon":"121.4576524","lat":"31.2162728","category":"260","category_name":"其他","address":"徐汇区淮海中路1008号(近襄阳北路)"},{"poiid":"B2094757D06FA6FC459E","title":"新素代(淮海店)","lon":"121.458397114","lat":"31.2167176317","category":"89","category_name":"中式素餐馆","address":"徐汇区淮海中路988号黄金世界商厦5楼(近陕西南路)"},{"poiid":"B2094757D06FA2FB4293","title":"圆苑酒家(淮海店)","lon":"121.4563","lat":"31.216","category":"76","category_name":"上海菜","address":"上海徐汇区襄阳北路108号嘉华中心会所1-2楼(近淮海中路)  "},{"poiid":"B2094757D06FA3F44299","title":"五木烧肉馆(东湖路店)","lon":"121.45564","lat":"31.21536","category":"269","category_name":"烧烤","address":"上海徐汇区东湖路7号东湖宾馆新馆1楼(近淮海中路)"},{"poiid":"B2094757D06FA7FA4099","title":"藏乐坊(长乐路店)","lon":"121.45664","lat":"31.21979","category":"72","category_name":"广东菜","address":"徐汇区长乐路333号(近陕西南路或襄阳北路)"},{"poiid":"B2094757D06FA6FD4198","title":"山间堂民间瓦缸煨汤(淮海店)","lon":"121.45814","lat":"31.21621","category":"260","category_name":"其他","address":"徐汇区淮海中路1008号2楼(近襄阳北路)"},{"poiid":"B2094750D76FA3FB4698","title":"滩悦(淮海路店)","lon":"121.457","lat":"31.2143","category":"76","category_name":"上海菜","address":"卢湾区襄阳南路102号3楼(近南昌路)"},{"poiid":"B2094757D068A5FA449F","title":"嘉豪淮海国际豪生酒店","lon":"121.45631","lat":"31.21455","category":"217","category_name":"旅馆招待所","address":"上海市徐汇区汾阳路1号(近淮海中路)"},{"poiid":"B2094750D768A6FA4899","title":"林记小馆(襄阳南路店)","lon":"121.457","lat":"31.2143","category":"72","category_name":"广东菜","address":"徐汇区襄阳南路102号(近淮海路)"},{"poiid":"B2094757D06FA2F44699","title":"康师傅私房牛肉面(淮海中路店)","lon":"121.45862","lat":"31.21636","category":"68","category_name":"快餐厅","address":"徐汇区淮海中路988号黄金商厦2楼(近陕西南路)"},{"poiid":"B209475CD664A0FA4398","title":"Stay Real Cafe by GABEE","lon":"121.457015","lat":"31.215112","category":"500","category_name":"未知分类","address":"上海市 iapm lg2-246"},{"poiid":"B2094757D068A7FF459A","title":"J&amp;Eleven 型人坊","lon":"121.457576","lat":"31.217483403","category":"148","category_name":"美容美发店","address":"上海新乐路11号"},{"poiid":"B2094753DB68A4FD489C","title":"上海环贸iapm","lon":"121.457794","lat":"31.216356","category":"500","category_name":"未知分类","address":"上海市 淮海中路999号"},{"poiid":"B2094750D26EA7F9429B","title":"Elefante","lon":"121.45557403565","lat":"31.215976239077","category":"94","category_name":"西餐厅","address":"东湖路20号近淮海中路"},{"poiid":"B209475CDA65A0FD449A","title":"金牌外婆家","lon":"121.457084","lat":"31.216445","category":"247","category_name":"餐饮美食","address":"淮海中路999号iapm环贸LG2层"},{"poiid":"B2094753DA65ABFF4892","title":"香港稻香","lon":"121.457664","lat":"31.215404","category":"247","category_name":"餐饮美食","address":"上海市 上海市淮海中路999號APM商場3樓301室"},{"poiid":"B2094655D36DA6FE439B","title":"陕西南路","lon":"121.45822","lat":"31.2151","category":"38","category_name":"公交车站","address":""},{"poiid":"B2094752DB6BA5FA429D","title":"Madison","lon":"121.455942","lat":"31.21461","category":"500","category_name":"未知分类","address":"上海市 汾陽路3號2號樓1樓"},{"poiid":"B2094654DB6BA6FC419B","title":"萨莉亚(淮海中路)","lon":"121.4584","lat":"31.21671","category":"94","category_name":"西餐厅","address":"徐汇区淮海中路988号黄金世界商厦3楼(近陕西南路)"},{"poiid":"B209475CDB6BA0FA479D","title":"甜兮兮 | Sweet CC","lon":"121.457908","lat":"31.215703","category":"500","category_name":"未知分类","address":"上海市 iapm环贸商城LG2层236商铺"},{"poiid":"B2094750DA6EA4FB4398","title":"徐汇中心医院","lon":"121.458412","lat":"31.216621","category":"162","category_name":"医院","address":"淮海中路966号"},{"poiid":"B2094757DB69A7FB4199","title":"爱乐阿米奇 ELLO AMICI'S","lon":"121.456828","lat":"31.214321","category":"94","category_name":"西餐厅","address":"徐汇区襄阳南路102号(南昌路口)"},{"poiid":"B209475CD364ABFF4399","title":"上海环贸广场iapm","lon":"121.457824","lat":"31.215875","category":"500","category_name":"未知分类","address":"上海市 上海市徐汇区淮海中路"},{"poiid":"B209475CD169A2FD4098","title":"成隆行蟹王府","lon":"121.457008","lat":"31.215003","category":"247","category_name":"餐饮美食","address":"上海市 汾阳路1号"},{"poiid":"B209475CD465A0F4419D","title":"麵屋武藏","lon":"121.457809","lat":"31.215791","category":"500","category_name":"未知分类","address":"上海市 淮海中路999号iapm"},{"poiid":"B2094757D06FA2FD479F","title":"Mister Donut 美仕唐纳滋(襄阳公园店)","lon":"121.45770263","lat":"31.216373443","category":"67","category_name":"甜品店","address":"徐汇区淮海中路1008号(近襄阳北路)"},{"poiid":"B2094753D26AAAF44893","title":"大咀茶餐厅","lon":"121.45771","lat":"31.214161","category":"500","category_name":"未知分类","address":"上海市 陕西南路117号5楼"},{"poiid":"B2094655D265ABFC479A","title":"沧浪亭酒楼","lon":"121.458455","lat":"31.21669","category":"76","category_name":"上海菜","address":"徐汇区淮海中路988号黄金世界商厦4楼(近陕西南路)"},{"poiid":"B2094757D068A6FC4398","title":"永隆港式茶餐厅","lon":"121.45623","lat":"31.21676","category":"72","category_name":"广东菜","address":"徐汇区襄阳北路100号(近襄阳公园)"},{"poiid":"B209475CD16FABF94499","title":"IAPM","lon":"121.457168","lat":"31.216394","category":"500","category_name":"未知分类","address":"上海市 陕西南路"},{"poiid":"B2094753DA65ABF44892","title":"无印良品环贸iapm旗舰店","lon":"121.458007","lat":"31.21507","category":"500","category_name":"未知分类","address":"上海市 上海市徐汇区淮海中路999号上海环贸广场 3F"},{"poiid":"B209475CD76FA1FD489B","title":"STAGE 上海iapm","lon":"121.457992","lat":"31.214294","category":"500","category_name":"未知分类","address":"上海市 上海市淮海中路環貿廣場IAPM LG2-273~275"},{"poiid":"B2094750D26DA4FE479A","title":"农圃饭店 淮海中路店","lon":"121.4567346","lat":"31.2157904","category":"72","category_name":"广东菜","address":"徐汇区淮海中路1028号嘉华中心嘉华坊2楼(近汾阳路)"},{"poiid":"B209475CD768A2FA439B","title":"stay real café","lon":"121.457015","lat":"31.215112","category":"500","category_name":"未知分类","address":"上海市 环贸广场 iapm"},{"poiid":"B209475DD46BA3FB4998","title":"查厘士港式茶餐厅","lon":"121.45861","lat":"31.216394","category":"247","category_name":"餐饮美食","address":"上海市 iapm对面"},{"poiid":"B2094753DB64ABF44699","title":"Greyhound Café","lon":"121.457822","lat":"31.215891","category":"99","category_name":"泰国／越南菜品餐厅","address":"上海市徐汇区淮海中路999号环贸iapm商场L5-503室"},{"poiid":"B2094752DB65ABFB4199","title":"糖朝（淮海中路旗舰店）","lon":"121.457231","lat":"31.216439","category":"247","category_name":"餐饮美食","address":"上海市 黄浦区陕西南路141号"},{"poiid":"B209475CD464A3FC4493","title":"Apple Store 淮海路iapm店","lon":"121.457527","lat":"31.216035","category":"500","category_name":"未知分类","address":"上海市 徐汇区淮海中路999号"},{"poiid":"B209475DD26CA5F8449B","title":"鼎泰丰环贸店","lon":"121.456192","lat":"31.214679","category":"500","category_name":"未知分类","address":"上海市 淮海中路环贸Iapm广场3楼"}]