[{"poiid":"B2094757D06FA3FF409F","title":"新九龙塘(兰溪路店)","lon":"121.4018862681055","lat":"31.249494773574355","category":"88","category_name":"海鲜酒楼","address":"普陀区兰溪路419号(近铜川路)"},{"poiid":"B2094757D06EAAFA449D","title":"IMAGO我格广场","lon":"121.398373","lat":"31.251173","category":"119","category_name":"商场","address":"普陀区武宁路101号(普雄路口)"},{"poiid":"B2094757D66EA2FD439D","title":"銅川路海鮮市場","lon":"121.40417995","lat":"31.2510206976","category":"500","category_name":"未知分类","address":"上海市普陀区兰溪路"},{"poiid":"B2094757D06FA1FF409B","title":"真如羊肉馆","lon":"121.40147","lat":"31.24845","category":"68","category_name":"快餐厅","address":"普陀区寺前街1号(近兰溪路)"},{"poiid":"B2094757D06FA3FE419B","title":"普陀区图书馆","lon":"121.39705524842736","lat":"31.251366379011127","category":"181","category_name":"图书馆","address":"普陀区铜川路1280号(近大渡河路)"},{"poiid":"B2094654D464AAF5449A","title":"真如寺","lon":"121.40148","lat":"31.24912","category":"244","category_name":"寺庙道观","address":"上海普陀区真如镇后山门5号"},{"poiid":"B2094757D06FA1FE499D","title":"上海市体育宫","lon":"121.39738","lat":"31.25243","category":"224","category_name":"综合体育馆","address":"普陀区大渡河路1860号沪西体育宫内(近铜川路)"},{"poiid":"B2094757D06FABFA439A","title":"云中酒楼","lon":"121.401710964","lat":"31.2503601854","category":"260","category_name":"其他","address":"普陀区兰溪路455号(近铜川路)"},{"poiid":"B2094654D464AAF5459E","title":"天上来大酒店","lon":"121.4021632781","lat":"31.248501946268","category":"260","category_name":"其他","address":"普陀区兰溪路436号(近铜川路)"},{"poiid":"B2094757D068A3F5449B","title":"天鸿酒家","lon":"121.40336","lat":"31.25018","category":"260","category_name":"其他","address":"普陀区铜川路947号"},{"poiid":"B2094654D464AAF5469A","title":"金煌海鲜酒楼","lon":"121.40175","lat":"31.25047","category":"260","category_name":"其他","address":"普陀区兰溪路473号(铜川路口)"},{"poiid":"B2094757D06FA3F8419D","title":"真如西村","lon":"121.406","lat":"31.2507","category":"47","category_name":"住宅区","address":"上海普陀区大渡河路北石路"},{"poiid":"B2094654D464AAF5469C","title":"真如海鲜城","lon":"121.40215941072","lat":"31.248823280602","category":"260","category_name":"其他","address":"普陀区兰溪路437号(近铜川路)"},{"poiid":"B2094655D26AA7F4419A","title":"索福德足球世界体育宫中心","lon":"121.39697","lat":"31.25246","category":"247","category_name":"餐饮美食","address":"普陀区大渡河路1860号沪西体育宫内(近铜川路)"},{"poiid":"B2094757D569A3F8449B","title":"潮隆大酒店铜川路店","lon":"121.40021","lat":"31.25081","category":"72","category_name":"广东菜","address":"普陀区铜川路990弄6区28号(近兰溪路)"},{"poiid":"B2094757D069A7FB4899","title":"普陀中心医院二楼输液室","lon":"121.40099014","lat":"31.246303745","category":"162","category_name":"医院","address":"上海普陀区兰溪路164号普陀中心医内"},{"poiid":"B2094757D06AA4F54099","title":"潮汕庄","lon":"121.397329","lat":"31.248326","category":"86","category_name":"火锅店","address":"普陀区大渡河路1625号(近北石路)"},{"poiid":"B2094654D465A3FC429E","title":"真如中学","lon":"121.39847","lat":"31.2503","category":"55","category_name":"中学","address":"普陀区铜川路1189号(近大渡河路)"},{"poiid":"B2094654D464AAF5469D","title":"皇悦轩","lon":"121.40185507927","lat":"31.250357993092","category":"260","category_name":"其他","address":"普陀区兰溪路429号(近铜川路)"},{"poiid":"B2094757D16DABFD409F","title":"普陀公安分局","lon":"121.39789765","lat":"31.250883694","category":"500","category_name":"未知分类","address":"上海普陀区大渡河路1895号"},{"poiid":"B2094655D26AAAF4429F","title":"明捷万丽咖啡厅","lon":"121.40205","lat":"31.2513","category":"247","category_name":"餐饮美食","address":"普陀区铜川路50号明捷万丽酒店1楼(近地铁岚皋路站)"},{"poiid":"B2094757D069A5F84292","title":"真如体育场","lon":"121.399510261","lat":"31.2481169398","category":"220","category_name":"运动场所","address":"普陀区北石路208号(近兰溪路)"},{"poiid":"B2094757D06BA5F4439A","title":"阳光西班牙","lon":"121.39922","lat":"31.251915","category":"47","category_name":"住宅区","address":"上海市普陀区铜川路1168弄"},{"poiid":"B2094654D465A3FC469C","title":"铜川水产市场(边门)","lon":"121.40418","lat":"31.25063","category":"117","category_name":"便民商店/便利店","address":"铜川路871号20-5号"},{"poiid":"B2094654D465A3FC4499","title":"金鼎花苑","lon":"121.40331","lat":"31.250048","category":"47","category_name":"住宅区","address":"铜川路999弄"},{"poiid":"B2094757D66CA2F9459A","title":"三哥烧烤","lon":"121.40061","lat":"31.25074","category":"269","category_name":"烧烤","address":"普陀区铜川路(近万镇路)"},{"poiid":"B2094654D465A6FC4593","title":"阳光商务大厦","lon":"121.39682","lat":"31.2502","category":"46","category_name":"楼宇","address":"闵行区七莘路联明路"},{"poiid":"B2094757D069AAFA459A","title":"帝赋苑","lon":"121.40262","lat":"31.24722","category":"72","category_name":"广东菜","address":"普陀区兰溪路277-289号(近北石路)"},{"poiid":"B2094757D064AAF9489F","title":"上海票据交换中心","lon":"121.39899731","lat":"31.247277164","category":"500","category_name":"未知分类","address":"上海市普陀区真光路1581号"},{"poiid":"B2094655D26AA7F4409D","title":"MOB铜川路店","lon":"121.40178","lat":"31.25167","category":"247","category_name":"餐饮美食","address":"普陀区铜川路60号(岚皋路口)"},{"poiid":"B2094655D264AAF54799","title":"亲水园","lon":"121.40144","lat":"31.25094","category":"201","category_name":"城市广场","address":""},{"poiid":"B2094757D164A0F9449B","title":"普陀区","lon":"121.397421354","lat":"31.2510039354","category":"250","category_name":"公园户外","address":"上海普陀区区域"},{"poiid":"B2094751D56CA5FB499F","title":"真如古镇羊肉馆","lon":"121.40113","lat":"31.24819","category":"68","category_name":"快餐厅","address":"普陀区穿心街9号(近北石路)"},{"poiid":"B2094757D66FA2FA439B","title":"辉煌火锅","lon":"121.40372","lat":"31.25126","category":"86","category_name":"火锅店","address":"普陀区铜川路990弄干货市场内(近兰溪路)"},{"poiid":"B2094757D069A4F4419E","title":"上海市公安局普陀分局","lon":"121.40164053","lat":"31.249383512","category":"500","category_name":"未知分类","address":"上海市普陀区大渡河路1895号"},{"poiid":"B2094654D464AAF4429B","title":"江荣乳品行","lon":"121.40204","lat":"31.25135","category":"117","category_name":"便民商店/便利店","address":"铜川路990号5区51号"},{"poiid":"B2094654D464AAF4459A","title":"三鑫鲍翅行","lon":"121.40171","lat":"31.25206","category":"117","category_name":"便民商店/便利店","address":"铜川路990弄5区7号"},{"poiid":"B2094753D36EA1FA469E","title":"新九龙塘(兰溪路店)","lon":"121.401677","lat":"31.249837","category":"88","category_name":"海鲜酒楼","address":"兰溪路419号"},{"poiid":"B2094757D06AA6FC4099","title":"上海市体育宫羽毛球场","lon":"121.396973151","lat":"31.2524595545","category":"220","category_name":"运动场所","address":"普陀区大渡河路1860号沪西体育宫内(近铜川路)"},{"poiid":"B2094655D36CA2FC459F","title":"喜士多铜川门市","lon":"121.40211","lat":"31.25011","category":"117","category_name":"便民商店/便利店","address":"兰溪路452号"},{"poiid":"B2094750DA64A2F5489C","title":"嘉定新城","lon":"121.403114","lat":"31.25152","category":"47","category_name":"住宅区","address":"嘉定新城"},{"poiid":"B2094654D464AAF44099","title":"上海沪西水产市场(北门)","lon":"121.40295","lat":"31.25093","category":"117","category_name":"便民商店/便利店","address":""},{"poiid":"B2094655D26EA5FC4499","title":"克莉丝汀饼屋(铜川店)","lon":"121.39899","lat":"31.25099","category":"112","category_name":"糕饼店","address":"普陀区铜川路永琪美发旁(近高陵路)"},{"poiid":"B2094757D169ABF9409B","title":"帝苑壹号精菜坊","lon":"121.40226795","lat":"31.248455648","category":"247","category_name":"餐饮美食","address":"上海市普陀区大渡河路"},{"poiid":"B2094757D56DABF84493","title":"真如地铁站","lon":"121.40158","lat":"31.25346","category":"36","category_name":"地铁站","address":"铜川路"},{"poiid":"B2094757D06AA4FF4498","title":"花园鱼庄（原四川花园）(大渡河路店)","lon":"121.39785","lat":"31.2486","category":"71","category_name":"四川菜","address":"普陀区大渡河路1653号(近北石路)"},{"poiid":"B2094757D16FA4FE439F","title":"上海市普陀区人力资源和社会保障中心","lon":"121.39788","lat":"31.250321","category":"46","category_name":"楼宇","address":"上海市普陀区大渡河路1717号"},{"poiid":"B2094757D16CA0F5429A","title":"老鲜酒楼","lon":"121.40171495","lat":"31.2499056763","category":"260","category_name":"其他","address":"普陀区兰溪路433号(兰溪路铜川路)"},{"poiid":"B2094757D66DA4F4419E","title":"锦江别克4S店","lon":"121.40242205","lat":"31.2511853007","category":"500","category_name":"未知分类","address":"上海吴中路100号"},{"poiid":"B2094654D464AAF44398","title":"天蓝海产行","lon":"121.40151","lat":"31.25282","category":"117","category_name":"便民商店/便利店","address":"铜川路990弄南北干货市场5区88号"},{"poiid":"B2094757D06FA3FF409F","title":"新九龙塘(兰溪路店)","lon":"121.4018862681055","lat":"31.249494773574355","category":"88","category_name":"海鲜酒楼","address":"普陀区兰溪路419号(近铜川路)"},{"poiid":"B2094757D06EAAFA449D","title":"IMAGO我格广场","lon":"121.398373","lat":"31.251173","category":"119","category_name":"商场","address":"普陀区武宁路101号(普雄路口)"},{"poiid":"B2094757D66EA2FD439D","title":"銅川路海鮮市場","lon":"121.40417995","lat":"31.2510206976","category":"500","category_name":"未知分类","address":"上海市普陀区兰溪路"},{"poiid":"B2094757D06FA1FF409B","title":"真如羊肉馆","lon":"121.40147","lat":"31.24845","category":"68","category_name":"快餐厅","address":"普陀区寺前街1号(近兰溪路)"},{"poiid":"B2094757D06FA3FE419B","title":"普陀区图书馆","lon":"121.39705524842736","lat":"31.251366379011127","category":"181","category_name":"图书馆","address":"普陀区铜川路1280号(近大渡河路)"},{"poiid":"B2094654D464AAF5449A","title":"真如寺","lon":"121.40148","lat":"31.24912","category":"244","category_name":"寺庙道观","address":"上海普陀区真如镇后山门5号"},{"poiid":"B2094757D06FA1FE499D","title":"上海市体育宫","lon":"121.39738","lat":"31.25243","category":"224","category_name":"综合体育馆","address":"普陀区大渡河路1860号沪西体育宫内(近铜川路)"},{"poiid":"B2094757D06FABFA439A","title":"云中酒楼","lon":"121.401710964","lat":"31.2503601854","category":"260","category_name":"其他","address":"普陀区兰溪路455号(近铜川路)"},{"poiid":"B2094654D464AAF5459E","title":"天上来大酒店","lon":"121.4021632781","lat":"31.248501946268","category":"260","category_name":"其他","address":"普陀区兰溪路436号(近铜川路)"},{"poiid":"B2094757D068A3F5449B","title":"天鸿酒家","lon":"121.40336","lat":"31.25018","category":"260","category_name":"其他","address":"普陀区铜川路947号"},{"poiid":"B2094654D464AAF5469A","title":"金煌海鲜酒楼","lon":"121.40175","lat":"31.25047","category":"260","category_name":"其他","address":"普陀区兰溪路473号(铜川路口)"},{"poiid":"B2094757D06FA3F8419D","title":"真如西村","lon":"121.406","lat":"31.2507","category":"47","category_name":"住宅区","address":"上海普陀区大渡河路北石路"},{"poiid":"B2094654D464AAF5469C","title":"真如海鲜城","lon":"121.40215941072","lat":"31.248823280602","category":"260","category_name":"其他","address":"普陀区兰溪路437号(近铜川路)"},{"poiid":"B2094655D26AA7F4419A","title":"索福德足球世界体育宫中心","lon":"121.39697","lat":"31.25246","category":"247","category_name":"餐饮美食","address":"普陀区大渡河路1860号沪西体育宫内(近铜川路)"},{"poiid":"B2094757D569A3F8449B","title":"潮隆大酒店铜川路店","lon":"121.40021","lat":"31.25081","category":"72","category_name":"广东菜","address":"普陀区铜川路990弄6区28号(近兰溪路)"},{"poiid":"B2094757D069A7FB4899","title":"普陀中心医院二楼输液室","lon":"121.40099014","lat":"31.246303745","category":"162","category_name":"医院","address":"上海普陀区兰溪路164号普陀中心医内"},{"poiid":"B2094757D06AA4F54099","title":"潮汕庄","lon":"121.397329","lat":"31.248326","category":"86","category_name":"火锅店","address":"普陀区大渡河路1625号(近北石路)"},{"poiid":"B2094654D465A3FC429E","title":"真如中学","lon":"121.39847","lat":"31.2503","category":"55","category_name":"中学","address":"普陀区铜川路1189号(近大渡河路)"},{"poiid":"B2094654D464AAF5469D","title":"皇悦轩","lon":"121.40185507927","lat":"31.250357993092","category":"260","category_name":"其他","address":"普陀区兰溪路429号(近铜川路)"},{"poiid":"B2094757D16DABFD409F","title":"普陀公安分局","lon":"121.39789765","lat":"31.250883694","category":"500","category_name":"未知分类","address":"上海普陀区大渡河路1895号"},{"poiid":"B2094655D26AAAF4429F","title":"明捷万丽咖啡厅","lon":"121.40205","lat":"31.2513","category":"247","category_name":"餐饮美食","address":"普陀区铜川路50号明捷万丽酒店1楼(近地铁岚皋路站)"},{"poiid":"B2094757D069A5F84292","title":"真如体育场","lon":"121.399510261","lat":"31.2481169398","category":"220","category_name":"运动场所","address":"普陀区北石路208号(近兰溪路)"},{"poiid":"B2094757D06BA5F4439A","title":"阳光西班牙","lon":"121.39922","lat":"31.251915","category":"47","category_name":"住宅区","address":"上海市普陀区铜川路1168弄"},{"poiid":"B2094654D465A3FC469C","title":"铜川水产市场(边门)","lon":"121.40418","lat":"31.25063","category":"117","category_name":"便民商店/便利店","address":"铜川路871号20-5号"},{"poiid":"B2094654D465A3FC4499","title":"金鼎花苑","lon":"121.40331","lat":"31.250048","category":"47","category_name":"住宅区","address":"铜川路999弄"},{"poiid":"B2094757D66CA2F9459A","title":"三哥烧烤","lon":"121.40061","lat":"31.25074","category":"269","category_name":"烧烤","address":"普陀区铜川路(近万镇路)"},{"poiid":"B2094654D465A6FC4593","title":"阳光商务大厦","lon":"121.39682","lat":"31.2502","category":"46","category_name":"楼宇","address":"闵行区七莘路联明路"},{"poiid":"B2094757D069AAFA459A","title":"帝赋苑","lon":"121.40262","lat":"31.24722","category":"72","category_name":"广东菜","address":"普陀区兰溪路277-289号(近北石路)"},{"poiid":"B2094757D064AAF9489F","title":"上海票据交换中心","lon":"121.39899731","lat":"31.247277164","category":"500","category_name":"未知分类","address":"上海市普陀区真光路1581号"},{"poiid":"B2094655D26AA7F4409D","title":"MOB铜川路店","lon":"121.40178","lat":"31.25167","category":"247","category_name":"餐饮美食","address":"普陀区铜川路60号(岚皋路口)"},{"poiid":"B2094655D264AAF54799","title":"亲水园","lon":"121.40144","lat":"31.25094","category":"201","category_name":"城市广场","address":""},{"poiid":"B2094757D164A0F9449B","title":"普陀区","lon":"121.397421354","lat":"31.2510039354","category":"250","category_name":"公园户外","address":"上海普陀区区域"},{"poiid":"B2094751D56CA5FB499F","title":"真如古镇羊肉馆","lon":"121.40113","lat":"31.24819","category":"68","category_name":"快餐厅","address":"普陀区穿心街9号(近北石路)"},{"poiid":"B2094757D66FA2FA439B","title":"辉煌火锅","lon":"121.40372","lat":"31.25126","category":"86","category_name":"火锅店","address":"普陀区铜川路990弄干货市场内(近兰溪路)"},{"poiid":"B2094757D069A4F4419E","title":"上海市公安局普陀分局","lon":"121.40164053","lat":"31.249383512","category":"500","category_name":"未知分类","address":"上海市普陀区大渡河路1895号"},{"poiid":"B2094654D464AAF4429B","title":"江荣乳品行","lon":"121.40204","lat":"31.25135","category":"117","category_name":"便民商店/便利店","address":"铜川路990号5区51号"},{"poiid":"B2094654D464AAF4459A","title":"三鑫鲍翅行","lon":"121.40171","lat":"31.25206","category":"117","category_name":"便民商店/便利店","address":"铜川路990弄5区7号"},{"poiid":"B2094753D36EA1FA469E","title":"新九龙塘(兰溪路店)","lon":"121.401677","lat":"31.249837","category":"88","category_name":"海鲜酒楼","address":"兰溪路419号"},{"poiid":"B2094757D06AA6FC4099","title":"上海市体育宫羽毛球场","lon":"121.396973151","lat":"31.2524595545","category":"220","category_name":"运动场所","address":"普陀区大渡河路1860号沪西体育宫内(近铜川路)"},{"poiid":"B2094655D36CA2FC459F","title":"喜士多铜川门市","lon":"121.40211","lat":"31.25011","category":"117","category_name":"便民商店/便利店","address":"兰溪路452号"},{"poiid":"B2094750DA64A2F5489C","title":"嘉定新城","lon":"121.403114","lat":"31.25152","category":"47","category_name":"住宅区","address":"嘉定新城"},{"poiid":"B2094654D464AAF44099","title":"上海沪西水产市场(北门)","lon":"121.40295","lat":"31.25093","category":"117","category_name":"便民商店/便利店","address":""},{"poiid":"B2094655D26EA5FC4499","title":"克莉丝汀饼屋(铜川店)","lon":"121.39899","lat":"31.25099","category":"112","category_name":"糕饼店","address":"普陀区铜川路永琪美发旁(近高陵路)"},{"poiid":"B2094757D169ABF9409B","title":"帝苑壹号精菜坊","lon":"121.40226795","lat":"31.248455648","category":"247","category_name":"餐饮美食","address":"上海市普陀区大渡河路"},{"poiid":"B2094757D56DABF84493","title":"真如地铁站","lon":"121.40158","lat":"31.25346","category":"36","category_name":"地铁站","address":"铜川路"},{"poiid":"B2094757D06AA4FF4498","title":"花园鱼庄（原四川花园）(大渡河路店)","lon":"121.39785","lat":"31.2486","category":"71","category_name":"四川菜","address":"普陀区大渡河路1653号(近北石路)"},{"poiid":"B2094757D16FA4FE439F","title":"上海市普陀区人力资源和社会保障中心","lon":"121.39788","lat":"31.250321","category":"46","category_name":"楼宇","address":"上海市普陀区大渡河路1717号"},{"poiid":"B2094757D16CA0F5429A","title":"老鲜酒楼","lon":"121.40171495","lat":"31.2499056763","category":"260","category_name":"其他","address":"普陀区兰溪路433号(兰溪路铜川路)"},{"poiid":"B2094757D66DA4F4419E","title":"锦江别克4S店","lon":"121.40242205","lat":"31.2511853007","category":"500","category_name":"未知分类","address":"上海吴中路100号"},{"poiid":"B2094654D464AAF44398","title":"天蓝海产行","lon":"121.40151","lat":"31.25282","category":"117","category_name":"便民商店/便利店","address":"铜川路990弄南北干货市场5区88号"},{"poiid":"B2094757D06FA3FF409F","title":"新九龙塘(兰溪路店)","lon":"121.4018862681055","lat":"31.249494773574355","category":"88","category_name":"海鲜酒楼","address":"普陀区兰溪路419号(近铜川路)"},{"poiid":"B2094757D06EAAFA449D","title":"IMAGO我格广场","lon":"121.398373","lat":"31.251173","category":"119","category_name":"商场","address":"普陀区武宁路101号(普雄路口)"},{"poiid":"B2094757D66EA2FD439D","title":"銅川路海鮮市場","lon":"121.40417995","lat":"31.2510206976","category":"500","category_name":"未知分类","address":"上海市普陀区兰溪路"},{"poiid":"B2094757D06FA1FF409B","title":"真如羊肉馆","lon":"121.40147","lat":"31.24845","category":"68","category_name":"快餐厅","address":"普陀区寺前街1号(近兰溪路)"},{"poiid":"B2094757D06FA3FE419B","title":"普陀区图书馆","lon":"121.39705524842736","lat":"31.251366379011127","category":"181","category_name":"图书馆","address":"普陀区铜川路1280号(近大渡河路)"},{"poiid":"B2094654D464AAF5449A","title":"真如寺","lon":"121.40148","lat":"31.24912","category":"244","category_name":"寺庙道观","address":"上海普陀区真如镇后山门5号"},{"poiid":"B2094757D06FA1FE499D","title":"上海市体育宫","lon":"121.39738","lat":"31.25243","category":"224","category_name":"综合体育馆","address":"普陀区大渡河路1860号沪西体育宫内(近铜川路)"},{"poiid":"B2094757D06FABFA439A","title":"云中酒楼","lon":"121.401710964","lat":"31.2503601854","category":"260","category_name":"其他","address":"普陀区兰溪路455号(近铜川路)"},{"poiid":"B2094654D464AAF5459E","title":"天上来大酒店","lon":"121.4021632781","lat":"31.248501946268","category":"260","category_name":"其他","address":"普陀区兰溪路436号(近铜川路)"},{"poiid":"B2094757D068A3F5449B","title":"天鸿酒家","lon":"121.40336","lat":"31.25018","category":"260","category_name":"其他","address":"普陀区铜川路947号"},{"poiid":"B2094654D464AAF5469A","title":"金煌海鲜酒楼","lon":"121.40175","lat":"31.25047","category":"260","category_name":"其他","address":"普陀区兰溪路473号(铜川路口)"},{"poiid":"B2094757D06FA3F8419D","title":"真如西村","lon":"121.406","lat":"31.2507","category":"47","category_name":"住宅区","address":"上海普陀区大渡河路北石路"},{"poiid":"B2094654D464AAF5469C","title":"真如海鲜城","lon":"121.40215941072","lat":"31.248823280602","category":"260","category_name":"其他","address":"普陀区兰溪路437号(近铜川路)"},{"poiid":"B2094655D26AA7F4419A","title":"索福德足球世界体育宫中心","lon":"121.39697","lat":"31.25246","category":"247","category_name":"餐饮美食","address":"普陀区大渡河路1860号沪西体育宫内(近铜川路)"},{"poiid":"B2094757D569A3F8449B","title":"潮隆大酒店铜川路店","lon":"121.40021","lat":"31.25081","category":"72","category_name":"广东菜","address":"普陀区铜川路990弄6区28号(近兰溪路)"},{"poiid":"B2094757D069A7FB4899","title":"普陀中心医院二楼输液室","lon":"121.40099014","lat":"31.246303745","category":"162","category_name":"医院","address":"上海普陀区兰溪路164号普陀中心医内"},{"poiid":"B2094757D06AA4F54099","title":"潮汕庄","lon":"121.397329","lat":"31.248326","category":"86","category_name":"火锅店","address":"普陀区大渡河路1625号(近北石路)"},{"poiid":"B2094654D465A3FC429E","title":"真如中学","lon":"121.39847","lat":"31.2503","category":"55","category_name":"中学","address":"普陀区铜川路1189号(近大渡河路)"},{"poiid":"B2094654D464AAF5469D","title":"皇悦轩","lon":"121.40185507927","lat":"31.250357993092","category":"260","category_name":"其他","address":"普陀区兰溪路429号(近铜川路)"},{"poiid":"B2094757D16DABFD409F","title":"普陀公安分局","lon":"121.39789765","lat":"31.250883694","category":"500","category_name":"未知分类","address":"上海普陀区大渡河路1895号"},{"poiid":"B2094655D26AAAF4429F","title":"明捷万丽咖啡厅","lon":"121.40205","lat":"31.2513","category":"247","category_name":"餐饮美食","address":"普陀区铜川路50号明捷万丽酒店1楼(近地铁岚皋路站)"},{"poiid":"B2094757D069A5F84292","title":"真如体育场","lon":"121.399510261","lat":"31.2481169398","category":"220","category_name":"运动场所","address":"普陀区北石路208号(近兰溪路)"},{"poiid":"B2094757D06BA5F4439A","title":"阳光西班牙","lon":"121.39922","lat":"31.251915","category":"47","category_name":"住宅区","address":"上海市普陀区铜川路1168弄"},{"poiid":"B2094654D465A3FC469C","title":"铜川水产市场(边门)","lon":"121.40418","lat":"31.25063","category":"117","category_name":"便民商店/便利店","address":"铜川路871号20-5号"},{"poiid":"B2094654D465A3FC4499","title":"金鼎花苑","lon":"121.40331","lat":"31.250048","category":"47","category_name":"住宅区","address":"铜川路999弄"},{"poiid":"B2094757D66CA2F9459A","title":"三哥烧烤","lon":"121.40061","lat":"31.25074","category":"269","category_name":"烧烤","address":"普陀区铜川路(近万镇路)"},{"poiid":"B2094654D465A6FC4593","title":"阳光商务大厦","lon":"121.39682","lat":"31.2502","category":"46","category_name":"楼宇","address":"闵行区七莘路联明路"},{"poiid":"B2094757D069AAFA459A","title":"帝赋苑","lon":"121.40262","lat":"31.24722","category":"72","category_name":"广东菜","address":"普陀区兰溪路277-289号(近北石路)"},{"poiid":"B2094757D064AAF9489F","title":"上海票据交换中心","lon":"121.39899731","lat":"31.247277164","category":"500","category_name":"未知分类","address":"上海市普陀区真光路1581号"},{"poiid":"B2094655D26AA7F4409D","title":"MOB铜川路店","lon":"121.40178","lat":"31.25167","category":"247","category_name":"餐饮美食","address":"普陀区铜川路60号(岚皋路口)"},{"poiid":"B2094655D264AAF54799","title":"亲水园","lon":"121.40144","lat":"31.25094","category":"201","category_name":"城市广场","address":""},{"poiid":"B2094757D164A0F9449B","title":"普陀区","lon":"121.397421354","lat":"31.2510039354","category":"250","category_name":"公园户外","address":"上海普陀区区域"},{"poiid":"B2094751D56CA5FB499F","title":"真如古镇羊肉馆","lon":"121.40113","lat":"31.24819","category":"68","category_name":"快餐厅","address":"普陀区穿心街9号(近北石路)"},{"poiid":"B2094757D66FA2FA439B","title":"辉煌火锅","lon":"121.40372","lat":"31.25126","category":"86","category_name":"火锅店","address":"普陀区铜川路990弄干货市场内(近兰溪路)"},{"poiid":"B2094757D069A4F4419E","title":"上海市公安局普陀分局","lon":"121.40164053","lat":"31.249383512","category":"500","category_name":"未知分类","address":"上海市普陀区大渡河路1895号"},{"poiid":"B2094654D464AAF4429B","title":"江荣乳品行","lon":"121.40204","lat":"31.25135","category":"117","category_name":"便民商店/便利店","address":"铜川路990号5区51号"},{"poiid":"B2094654D464AAF4459A","title":"三鑫鲍翅行","lon":"121.40171","lat":"31.25206","category":"117","category_name":"便民商店/便利店","address":"铜川路990弄5区7号"},{"poiid":"B2094753D36EA1FA469E","title":"新九龙塘(兰溪路店)","lon":"121.401677","lat":"31.249837","category":"88","category_name":"海鲜酒楼","address":"兰溪路419号"},{"poiid":"B2094757D06AA6FC4099","title":"上海市体育宫羽毛球场","lon":"121.396973151","lat":"31.2524595545","category":"220","category_name":"运动场所","address":"普陀区大渡河路1860号沪西体育宫内(近铜川路)"},{"poiid":"B2094655D36CA2FC459F","title":"喜士多铜川门市","lon":"121.40211","lat":"31.25011","category":"117","category_name":"便民商店/便利店","address":"兰溪路452号"},{"poiid":"B2094750DA64A2F5489C","title":"嘉定新城","lon":"121.403114","lat":"31.25152","category":"47","category_name":"住宅区","address":"嘉定新城"},{"poiid":"B2094654D464AAF44099","title":"上海沪西水产市场(北门)","lon":"121.40295","lat":"31.25093","category":"117","category_name":"便民商店/便利店","address":""},{"poiid":"B2094655D26EA5FC4499","title":"克莉丝汀饼屋(铜川店)","lon":"121.39899","lat":"31.25099","category":"112","category_name":"糕饼店","address":"普陀区铜川路永琪美发旁(近高陵路)"},{"poiid":"B2094757D169ABF9409B","title":"帝苑壹号精菜坊","lon":"121.40226795","lat":"31.248455648","category":"247","category_name":"餐饮美食","address":"上海市普陀区大渡河路"},{"poiid":"B2094757D56DABF84493","title":"真如地铁站","lon":"121.40158","lat":"31.25346","category":"36","category_name":"地铁站","address":"铜川路"},{"poiid":"B2094757D06AA4FF4498","title":"花园鱼庄（原四川花园）(大渡河路店)","lon":"121.39785","lat":"31.2486","category":"71","category_name":"四川菜","address":"普陀区大渡河路1653号(近北石路)"},{"poiid":"B2094757D16FA4FE439F","title":"上海市普陀区人力资源和社会保障中心","lon":"121.39788","lat":"31.250321","category":"46","category_name":"楼宇","address":"上海市普陀区大渡河路1717号"},{"poiid":"B2094757D16CA0F5429A","title":"老鲜酒楼","lon":"121.40171495","lat":"31.2499056763","category":"260","category_name":"其他","address":"普陀区兰溪路433号(兰溪路铜川路)"},{"poiid":"B2094757D66DA4F4419E","title":"锦江别克4S店","lon":"121.40242205","lat":"31.2511853007","category":"500","category_name":"未知分类","address":"上海吴中路100号"},{"poiid":"B2094654D464AAF44398","title":"天蓝海产行","lon":"121.40151","lat":"31.25282","category":"117","category_name":"便民商店/便利店","address":"铜川路990弄南北干货市场5区88号"},{"poiid":"B2094757D06FA3FF409F","title":"新九龙塘(兰溪路店)","lon":"121.4018862681055","lat":"31.249494773574355","category":"88","category_name":"海鲜酒楼","address":"普陀区兰溪路419号(近铜川路)"},{"poiid":"B2094757D06EAAFA449D","title":"IMAGO我格广场","lon":"121.398373","lat":"31.251173","category":"119","category_name":"商场","address":"普陀区武宁路101号(普雄路口)"},{"poiid":"B2094757D66EA2FD439D","title":"銅川路海鮮市場","lon":"121.40417995","lat":"31.2510206976","category":"500","category_name":"未知分类","address":"上海市普陀区兰溪路"},{"poiid":"B2094757D06FA1FF409B","title":"真如羊肉馆","lon":"121.40147","lat":"31.24845","category":"68","category_name":"快餐厅","address":"普陀区寺前街1号(近兰溪路)"},{"poiid":"B2094757D06FA3FE419B","title":"普陀区图书馆","lon":"121.39705524842736","lat":"31.251366379011127","category":"181","category_name":"图书馆","address":"普陀区铜川路1280号(近大渡河路)"},{"poiid":"B2094654D464AAF5449A","title":"真如寺","lon":"121.40148","lat":"31.24912","category":"244","category_name":"寺庙道观","address":"上海普陀区真如镇后山门5号"},{"poiid":"B2094757D06FA1FE499D","title":"上海市体育宫","lon":"121.39738","lat":"31.25243","category":"224","category_name":"综合体育馆","address":"普陀区大渡河路1860号沪西体育宫内(近铜川路)"},{"poiid":"B2094757D06FABFA439A","title":"云中酒楼","lon":"121.401710964","lat":"31.2503601854","category":"260","category_name":"其他","address":"普陀区兰溪路455号(近铜川路)"},{"poiid":"B2094654D464AAF5459E","title":"天上来大酒店","lon":"121.4021632781","lat":"31.248501946268","category":"260","category_name":"其他","address":"普陀区兰溪路436号(近铜川路)"},{"poiid":"B2094757D068A3F5449B","title":"天鸿酒家","lon":"121.40336","lat":"31.25018","category":"260","category_name":"其他","address":"普陀区铜川路947号"},{"poiid":"B2094654D464AAF5469A","title":"金煌海鲜酒楼","lon":"121.40175","lat":"31.25047","category":"260","category_name":"其他","address":"普陀区兰溪路473号(铜川路口)"},{"poiid":"B2094757D06FA3F8419D","title":"真如西村","lon":"121.406","lat":"31.2507","category":"47","category_name":"住宅区","address":"上海普陀区大渡河路北石路"},{"poiid":"B2094654D464AAF5469C","title":"真如海鲜城","lon":"121.40215941072","lat":"31.248823280602","category":"260","category_name":"其他","address":"普陀区兰溪路437号(近铜川路)"},{"poiid":"B2094655D26AA7F4419A","title":"索福德足球世界体育宫中心","lon":"121.39697","lat":"31.25246","category":"247","category_name":"餐饮美食","address":"普陀区大渡河路1860号沪西体育宫内(近铜川路)"},{"poiid":"B2094757D569A3F8449B","title":"潮隆大酒店铜川路店","lon":"121.40021","lat":"31.25081","category":"72","category_name":"广东菜","address":"普陀区铜川路990弄6区28号(近兰溪路)"},{"poiid":"B2094757D069A7FB4899","title":"普陀中心医院二楼输液室","lon":"121.40099014","lat":"31.246303745","category":"162","category_name":"医院","address":"上海普陀区兰溪路164号普陀中心医内"},{"poiid":"B2094757D06AA4F54099","title":"潮汕庄","lon":"121.397329","lat":"31.248326","category":"86","category_name":"火锅店","address":"普陀区大渡河路1625号(近北石路)"},{"poiid":"B2094654D465A3FC429E","title":"真如中学","lon":"121.39847","lat":"31.2503","category":"55","category_name":"中学","address":"普陀区铜川路1189号(近大渡河路)"},{"poiid":"B2094654D464AAF5469D","title":"皇悦轩","lon":"121.40185507927","lat":"31.250357993092","category":"260","category_name":"其他","address":"普陀区兰溪路429号(近铜川路)"},{"poiid":"B2094757D16DABFD409F","title":"普陀公安分局","lon":"121.39789765","lat":"31.250883694","category":"500","category_name":"未知分类","address":"上海普陀区大渡河路1895号"},{"poiid":"B2094655D26AAAF4429F","title":"明捷万丽咖啡厅","lon":"121.40205","lat":"31.2513","category":"247","category_name":"餐饮美食","address":"普陀区铜川路50号明捷万丽酒店1楼(近地铁岚皋路站)"},{"poiid":"B2094757D069A5F84292","title":"真如体育场","lon":"121.399510261","lat":"31.2481169398","category":"220","category_name":"运动场所","address":"普陀区北石路208号(近兰溪路)"},{"poiid":"B2094757D06BA5F4439A","title":"阳光西班牙","lon":"121.39922","lat":"31.251915","category":"47","category_name":"住宅区","address":"上海市普陀区铜川路1168弄"},{"poiid":"B2094654D465A3FC469C","title":"铜川水产市场(边门)","lon":"121.40418","lat":"31.25063","category":"117","category_name":"便民商店/便利店","address":"铜川路871号20-5号"},{"poiid":"B2094654D465A3FC4499","title":"金鼎花苑","lon":"121.40331","lat":"31.250048","category":"47","category_name":"住宅区","address":"铜川路999弄"},{"poiid":"B2094757D66CA2F9459A","title":"三哥烧烤","lon":"121.40061","lat":"31.25074","category":"269","category_name":"烧烤","address":"普陀区铜川路(近万镇路)"},{"poiid":"B2094654D465A6FC4593","title":"阳光商务大厦","lon":"121.39682","lat":"31.2502","category":"46","category_name":"楼宇","address":"闵行区七莘路联明路"},{"poiid":"B2094757D069AAFA459A","title":"帝赋苑","lon":"121.40262","lat":"31.24722","category":"72","category_name":"广东菜","address":"普陀区兰溪路277-289号(近北石路)"},{"poiid":"B2094757D064AAF9489F","title":"上海票据交换中心","lon":"121.39899731","lat":"31.247277164","category":"500","category_name":"未知分类","address":"上海市普陀区真光路1581号"},{"poiid":"B2094655D26AA7F4409D","title":"MOB铜川路店","lon":"121.40178","lat":"31.25167","category":"247","category_name":"餐饮美食","address":"普陀区铜川路60号(岚皋路口)"},{"poiid":"B2094655D264AAF54799","title":"亲水园","lon":"121.40144","lat":"31.25094","category":"201","category_name":"城市广场","address":""},{"poiid":"B2094757D164A0F9449B","title":"普陀区","lon":"121.397421354","lat":"31.2510039354","category":"250","category_name":"公园户外","address":"上海普陀区区域"},{"poiid":"B2094751D56CA5FB499F","title":"真如古镇羊肉馆","lon":"121.40113","lat":"31.24819","category":"68","category_name":"快餐厅","address":"普陀区穿心街9号(近北石路)"},{"poiid":"B2094757D66FA2FA439B","title":"辉煌火锅","lon":"121.40372","lat":"31.25126","category":"86","category_name":"火锅店","address":"普陀区铜川路990弄干货市场内(近兰溪路)"},{"poiid":"B2094757D069A4F4419E","title":"上海市公安局普陀分局","lon":"121.40164053","lat":"31.249383512","category":"500","category_name":"未知分类","address":"上海市普陀区大渡河路1895号"},{"poiid":"B2094654D464AAF4429B","title":"江荣乳品行","lon":"121.40204","lat":"31.25135","category":"117","category_name":"便民商店/便利店","address":"铜川路990号5区51号"},{"poiid":"B2094654D464AAF4459A","title":"三鑫鲍翅行","lon":"121.40171","lat":"31.25206","category":"117","category_name":"便民商店/便利店","address":"铜川路990弄5区7号"},{"poiid":"B2094753D36EA1FA469E","title":"新九龙塘(兰溪路店)","lon":"121.401677","lat":"31.249837","category":"88","category_name":"海鲜酒楼","address":"兰溪路419号"},{"poiid":"B2094757D06AA6FC4099","title":"上海市体育宫羽毛球场","lon":"121.396973151","lat":"31.2524595545","category":"220","category_name":"运动场所","address":"普陀区大渡河路1860号沪西体育宫内(近铜川路)"},{"poiid":"B2094655D36CA2FC459F","title":"喜士多铜川门市","lon":"121.40211","lat":"31.25011","category":"117","category_name":"便民商店/便利店","address":"兰溪路452号"},{"poiid":"B2094750DA64A2F5489C","title":"嘉定新城","lon":"121.403114","lat":"31.25152","category":"47","category_name":"住宅区","address":"嘉定新城"},{"poiid":"B2094654D464AAF44099","title":"上海沪西水产市场(北门)","lon":"121.40295","lat":"31.25093","category":"117","category_name":"便民商店/便利店","address":""},{"poiid":"B2094655D26EA5FC4499","title":"克莉丝汀饼屋(铜川店)","lon":"121.39899","lat":"31.25099","category":"112","category_name":"糕饼店","address":"普陀区铜川路永琪美发旁(近高陵路)"},{"poiid":"B2094757D169ABF9409B","title":"帝苑壹号精菜坊","lon":"121.40226795","lat":"31.248455648","category":"247","category_name":"餐饮美食","address":"上海市普陀区大渡河路"},{"poiid":"B2094757D56DABF84493","title":"真如地铁站","lon":"121.40158","lat":"31.25346","category":"36","category_name":"地铁站","address":"铜川路"},{"poiid":"B2094757D06AA4FF4498","title":"花园鱼庄（原四川花园）(大渡河路店)","lon":"121.39785","lat":"31.2486","category":"71","category_name":"四川菜","address":"普陀区大渡河路1653号(近北石路)"},{"poiid":"B2094757D16FA4FE439F","title":"上海市普陀区人力资源和社会保障中心","lon":"121.39788","lat":"31.250321","category":"46","category_name":"楼宇","address":"上海市普陀区大渡河路1717号"},{"poiid":"B2094757D16CA0F5429A","title":"老鲜酒楼","lon":"121.40171495","lat":"31.2499056763","category":"260","category_name":"其他","address":"普陀区兰溪路433号(兰溪路铜川路)"},{"poiid":"B2094757D66DA4F4419E","title":"锦江别克4S店","lon":"121.40242205","lat":"31.2511853007","category":"500","category_name":"未知分类","address":"上海吴中路100号"},{"poiid":"B2094654D464AAF44398","title":"天蓝海产行","lon":"121.40151","lat":"31.25282","category":"117","category_name":"便民商店/便利店","address":"铜川路990弄南北干货市场5区88号"}]