[{"poiid":"B2094655D26DA5FF489D","title":"华东理工大学","lon":"121.425","lat":"31.14313","category":"671","category_name":"高校中心点","address":"徐汇区梅陇路130号"},{"poiid":"B2094655D269ABFC419D","title":"华东理工大学徐汇校区","lon":"121.42857","lat":"31.14331","category":"247","category_name":"餐饮美食","address":"徐汇区梅陇路130号华东理工大学内(近天等路)"},{"poiid":"B2094757D06FA2F44192","title":"华东理工大学七教","lon":"121.42448527","lat":"31.141593448","category":"253","category_name":"校园生活","address":"上海徐汇区梅陇路130号"},{"poiid":"B2094654DA65AAFC449A","title":"嘉登道大饭店","lon":"121.42839","lat":"31.14289","category":"213","category_name":"五星级宾馆","address":"老沪闵路689号嘉登道大饭店1楼、3楼、4楼近梅陇路西南角"},{"poiid":"B2094757D06FAAF84398","title":"华东理工大学图书馆","lon":"121.42208612","lat":"31.142591023","category":"253","category_name":"校园生活","address":"徐汇区梅陇路130号华东理工大学内(近天等路)"},{"poiid":"B2094757D06FA7FF449C","title":"九头鸟烧烤","lon":"121.42878","lat":"31.14408","category":"68","category_name":"快餐厅","address":"徐汇区老沪闵路712号对面(近华东理工大学)"},{"poiid":"B2094757D068A5F84998","title":"上海市卫生学校","lon":"121.427007","lat":"31.140889","category":"55","category_name":"中学","address":"上海徐汇区梅陇路21号"},{"poiid":"B2094654DA65ABF44893","title":"上海市经济管理干部学院","lon":"121.42602","lat":"31.14","category":"671","category_name":"高校中心点","address":"徐汇区梅陇路161号(近天等路)"},{"poiid":"B2094757D06FA7FA489D","title":"上海职工医学院","lon":"121.42727","lat":"31.14061","category":"671","category_name":"高校中心点","address":"上海徐汇区梅陇路21号(近天等路)  "},{"poiid":"B2094757D068ABF4459B","title":"华东理工大学大操场","lon":"121.424847","lat":"31.143529","category":"253","category_name":"校园生活","address":"上海徐汇区梅陇路130号华东理工大学内"},{"poiid":"B2094757D069A0FF459A","title":"华东理工大学研究生楼","lon":"121.42620086","lat":"31.141109466","category":"500","category_name":"未知分类","address":"上海徐汇区梅陇路130号华东理工大学徐汇校区"},{"poiid":"B2094757D069A5F4409C","title":"上海健康职业技术学院","lon":"121.42435945","lat":"31.139170946","category":"253","category_name":"校园生活","address":"徐汇区梅陇路21号(近天等路)"},{"poiid":"B2094757D06FA5FA409D","title":"华东理工大学四教","lon":"121.42423009","lat":"31.142512028","category":"253","category_name":"校园生活","address":"上海徐汇区梅陇路130号"},{"poiid":"B2094757D068A3FB4793","title":"华东理工大学八教","lon":"121.426987","lat":"31.142914","category":"253","category_name":"校园生活","address":"上海徐汇区梅陇路130号"},{"poiid":"B2094654DB64A2FB4892","title":"上海体育职业学院西部校区","lon":"121.42909","lat":"31.14099","category":"52","category_name":"高等院校","address":"徐汇区老沪闵路775"},{"poiid":"B2094757D06AA1FD469C","title":"市国资委党校","lon":"121.42493438","lat":"31.140525817","category":"500","category_name":"未知分类","address":"上海徐汇区天等路501号"},{"poiid":"B2094757D068AAF94293","title":"华东理工大学五教","lon":"121.425336","lat":"31.140846","category":"253","category_name":"校园生活","address":"上海徐汇区梅陇路130号"},{"poiid":"B2094757D169A6F44198","title":"百乐迪量贩KTV","lon":"121.425118857","lat":"31.1414194918","category":"170","category_name":"KTV","address":"徐汇区龙州路995号华轻轻纺市场4楼(近梅陇路)"},{"poiid":"B2094757D069A2F54898","title":"音乐之声大酒店(梅陇路店)","lon":"121.42882","lat":"31.14306","category":"76","category_name":"上海菜","address":"徐汇区老沪闵路689号嘉登道2楼(近梅陇路)"},{"poiid":"B2094757D069A3F94398","title":"华东理工大学六教","lon":"121.42585661","lat":"31.142796184","category":"253","category_name":"校园生活","address":"上海徐汇区梅陇路130号"},{"poiid":"B2094757D06AA5F5449B","title":"梅陇六村","lon":"121.42579480056","lat":"31.139487689707","category":"252","category_name":"楼宇机构","address":"上海上中西路凌云路"},{"poiid":"B2094757D068A0FB4493","title":"华东理工大学第三食堂","lon":"121.422156618","lat":"31.1459460993","category":"253","category_name":"校园生活","address":"徐汇区梅陇路130号华东理工大学内(近天等路)"},{"poiid":"B2094757D16FA1FB499A","title":"华东理工大学大草坪","lon":"121.424604447","lat":"31.1439000415","category":"500","category_name":"未知分类","address":"上海市徐汇区梅陇路130号"},{"poiid":"B2094757D568ABFC4093","title":"华东理工大学商学院MBA教育中心","lon":"121.423591","lat":"31.143171","category":"52","category_name":"高等院校","address":"中国上海市徐汇区"},{"poiid":"B2094655D265A2FF4193","title":"华东理工大学外国语学院","lon":"121.42576","lat":"31.14301","category":"52","category_name":"高等院校","address":""},{"poiid":"B2094655D264ABFB409D","title":"华东理工大学商学院","lon":"121.42257","lat":"31.14301","category":"52","category_name":"高等院校","address":"上海市徐汇区梅陇路130号"},{"poiid":"B2094655D36CA3F5449C","title":"如家快捷酒店","lon":"121.42963","lat":"31.14365","category":"216","category_name":"经济型连锁酒店","address":"徐汇区老沪闵路714号(近梅陇路)"},{"poiid":"B2094757D664AAFB4393","title":"华东理工教工食堂","lon":"121.42533","lat":"31.14084","category":"68","category_name":"快餐厅","address":"徐汇区梅陇路130号华东理工大学西门(近天等路)"},{"poiid":"B2094655D26BA2F9419F","title":"天等路华东理工大学","lon":"121.42597","lat":"31.14047","category":"38","category_name":"公交车站","address":""},{"poiid":"B2094751DA6AA4F4479A","title":"顺风大酒店","lon":"121.425076","lat":"31.144158","category":"247","category_name":"餐饮美食","address":"瑞金二路打浦路"},{"poiid":"B2094757D064A7F94899","title":"重庆鸡公煲 梅陇路店","lon":"121.421974054","lat":"31.139343793","category":"247","category_name":"餐饮美食","address":"徐汇区梅陇路257号华东理工大学附近(近凌云路)"},{"poiid":"B2094752D46FA1F4489B","title":"上海植物园","lon":"121.425077","lat":"31.144158","category":"250","category_name":"公园户外","address":"龙吴路"},{"poiid":"B2094655D264A0FF4798","title":"华东理工大学理工优秀生部","lon":"121.42448","lat":"31.14262","category":"52","category_name":"高等院校","address":""},{"poiid":"B2094757D16AAAFB429C","title":"华东理工大学健身房","lon":"121.421625","lat":"31.142972","category":"148","category_name":"美容美发店","address":"上海徐汇校区大操场旁"},{"poiid":"B2094655D264ABF5409E","title":"华东理工大学数学系","lon":"121.42403","lat":"31.14385","category":"52","category_name":"高等院校","address":""},{"poiid":"B2094655D264AAFD429C","title":"华东理工大学物理系","lon":"121.42403","lat":"31.14386","category":"52","category_name":"高等院校","address":""},{"poiid":"B2094757D168A5FA459D","title":"吉龙豆捞","lon":"121.42448","lat":"31.13532","category":"86","category_name":"火锅店","address":"徐汇区龙州路925号(梅陇七村对面)"},{"poiid":"B2094757D568ABFE429F","title":"华东理工大学信息科学与工程学院","lon":"121.427268","lat":"31.143457","category":"52","category_name":"高等院校","address":"中国上海市徐汇区"},{"poiid":"B2094655D265A0FB4798","title":"华东理工大学数学实验教学中心","lon":"121.4269","lat":"31.14289","category":"52","category_name":"高等院校","address":""},{"poiid":"B2094655D268A2F84092","title":"上海市经济管理干部学院(东门)","lon":"121.4261","lat":"31.14001","category":"52","category_name":"高等院校","address":"天等路501号"},{"poiid":"B2094655D264ABF54293","title":"鲁华生态园","lon":"121.42709","lat":"31.14387","category":"196","category_name":"公园","address":""},{"poiid":"B2094654DB69A0F44398","title":"华东理工大学材料科学与工程学院","lon":"121.42485","lat":"31.14116","category":"52","category_name":"高等院校","address":""},{"poiid":"B2094655D264ABF5429F","title":"华东理工大学资源与环境专业实验教学中心","lon":"121.42497","lat":"31.14507","category":"52","category_name":"高等院校","address":""},{"poiid":"B2094751D26DA7F44899","title":"华东理工大学实验八楼","lon":"121.424568","lat":"31.143911","category":"500","category_name":"未知分类","address":null},{"poiid":"B2094655D265AAF9459E","title":"华东理工大学发酵工程实验教学中心","lon":"121.42497","lat":"31.14507","category":"52","category_name":"高等院校","address":""},{"poiid":"B2094757D464AAF4499D","title":"新疆雪莲花餐厅","lon":"121.428941054","lat":"31.142851793","category":"90","category_name":"清真餐馆","address":"徐汇区老沪闵路748号(梅陇路口)"},{"poiid":"B2094655D264A1FA4098","title":"华东理工大学化学与分子工程学院","lon":"121.42345","lat":"31.14424","category":"52","category_name":"高等院校","address":""},{"poiid":"B2094655D26BA6F94399","title":"华东理工大学化学实验教学中心","lon":"121.42345","lat":"31.14424","category":"52","category_name":"高等院校","address":""},{"poiid":"B2094655D26AA6FB429C","title":"晨园","lon":"121.425241054","lat":"31.142398793","category":"76","category_name":"上海菜","address":"徐汇区梅陇路130号华东理工大学内(近天等路)"},{"poiid":"B209475CD165ABFA479C","title":"东方明珠","lon":"121.427108","lat":"31.143968","category":"500","category_name":"未知分类","address":"上海市 陆家嘴"},{"poiid":"B2094655D26DA5FF489D","title":"华东理工大学","lon":"121.425","lat":"31.14313","category":"671","category_name":"高校中心点","address":"徐汇区梅陇路130号"},{"poiid":"B2094655D269ABFC419D","title":"华东理工大学徐汇校区","lon":"121.42857","lat":"31.14331","category":"247","category_name":"餐饮美食","address":"徐汇区梅陇路130号华东理工大学内(近天等路)"},{"poiid":"B2094757D06FA2F44192","title":"华东理工大学七教","lon":"121.42448527","lat":"31.141593448","category":"253","category_name":"校园生活","address":"上海徐汇区梅陇路130号"},{"poiid":"B2094654DA65AAFC449A","title":"嘉登道大饭店","lon":"121.42839","lat":"31.14289","category":"213","category_name":"五星级宾馆","address":"老沪闵路689号嘉登道大饭店1楼、3楼、4楼近梅陇路西南角"},{"poiid":"B2094757D06FAAF84398","title":"华东理工大学图书馆","lon":"121.42208612","lat":"31.142591023","category":"253","category_name":"校园生活","address":"徐汇区梅陇路130号华东理工大学内(近天等路)"},{"poiid":"B2094757D06FA7FF449C","title":"九头鸟烧烤","lon":"121.42878","lat":"31.14408","category":"68","category_name":"快餐厅","address":"徐汇区老沪闵路712号对面(近华东理工大学)"},{"poiid":"B2094757D068A5F84998","title":"上海市卫生学校","lon":"121.427007","lat":"31.140889","category":"55","category_name":"中学","address":"上海徐汇区梅陇路21号"},{"poiid":"B2094654DA65ABF44893","title":"上海市经济管理干部学院","lon":"121.42602","lat":"31.14","category":"671","category_name":"高校中心点","address":"徐汇区梅陇路161号(近天等路)"},{"poiid":"B2094757D06FA7FA489D","title":"上海职工医学院","lon":"121.42727","lat":"31.14061","category":"671","category_name":"高校中心点","address":"上海徐汇区梅陇路21号(近天等路)  "},{"poiid":"B2094757D068ABF4459B","title":"华东理工大学大操场","lon":"121.424847","lat":"31.143529","category":"253","category_name":"校园生活","address":"上海徐汇区梅陇路130号华东理工大学内"},{"poiid":"B2094757D069A0FF459A","title":"华东理工大学研究生楼","lon":"121.42620086","lat":"31.141109466","category":"500","category_name":"未知分类","address":"上海徐汇区梅陇路130号华东理工大学徐汇校区"},{"poiid":"B2094757D069A5F4409C","title":"上海健康职业技术学院","lon":"121.42435945","lat":"31.139170946","category":"253","category_name":"校园生活","address":"徐汇区梅陇路21号(近天等路)"},{"poiid":"B2094757D06FA5FA409D","title":"华东理工大学四教","lon":"121.42423009","lat":"31.142512028","category":"253","category_name":"校园生活","address":"上海徐汇区梅陇路130号"},{"poiid":"B2094757D068A3FB4793","title":"华东理工大学八教","lon":"121.426987","lat":"31.142914","category":"253","category_name":"校园生活","address":"上海徐汇区梅陇路130号"},{"poiid":"B2094654DB64A2FB4892","title":"上海体育职业学院西部校区","lon":"121.42909","lat":"31.14099","category":"52","category_name":"高等院校","address":"徐汇区老沪闵路775"},{"poiid":"B2094757D06AA1FD469C","title":"市国资委党校","lon":"121.42493438","lat":"31.140525817","category":"500","category_name":"未知分类","address":"上海徐汇区天等路501号"},{"poiid":"B2094757D068AAF94293","title":"华东理工大学五教","lon":"121.425336","lat":"31.140846","category":"253","category_name":"校园生活","address":"上海徐汇区梅陇路130号"},{"poiid":"B2094757D169A6F44198","title":"百乐迪量贩KTV","lon":"121.425118857","lat":"31.1414194918","category":"170","category_name":"KTV","address":"徐汇区龙州路995号华轻轻纺市场4楼(近梅陇路)"},{"poiid":"B2094757D069A2F54898","title":"音乐之声大酒店(梅陇路店)","lon":"121.42882","lat":"31.14306","category":"76","category_name":"上海菜","address":"徐汇区老沪闵路689号嘉登道2楼(近梅陇路)"},{"poiid":"B2094757D069A3F94398","title":"华东理工大学六教","lon":"121.42585661","lat":"31.142796184","category":"253","category_name":"校园生活","address":"上海徐汇区梅陇路130号"},{"poiid":"B2094757D06AA5F5449B","title":"梅陇六村","lon":"121.42579480056","lat":"31.139487689707","category":"252","category_name":"楼宇机构","address":"上海上中西路凌云路"},{"poiid":"B2094757D068A0FB4493","title":"华东理工大学第三食堂","lon":"121.422156618","lat":"31.1459460993","category":"253","category_name":"校园生活","address":"徐汇区梅陇路130号华东理工大学内(近天等路)"},{"poiid":"B2094757D16FA1FB499A","title":"华东理工大学大草坪","lon":"121.424604447","lat":"31.1439000415","category":"500","category_name":"未知分类","address":"上海市徐汇区梅陇路130号"},{"poiid":"B2094757D568ABFC4093","title":"华东理工大学商学院MBA教育中心","lon":"121.423591","lat":"31.143171","category":"52","category_name":"高等院校","address":"中国上海市徐汇区"},{"poiid":"B2094655D265A2FF4193","title":"华东理工大学外国语学院","lon":"121.42576","lat":"31.14301","category":"52","category_name":"高等院校","address":""},{"poiid":"B2094655D264ABFB409D","title":"华东理工大学商学院","lon":"121.42257","lat":"31.14301","category":"52","category_name":"高等院校","address":"上海市徐汇区梅陇路130号"},{"poiid":"B2094655D36CA3F5449C","title":"如家快捷酒店","lon":"121.42963","lat":"31.14365","category":"216","category_name":"经济型连锁酒店","address":"徐汇区老沪闵路714号(近梅陇路)"},{"poiid":"B2094757D664AAFB4393","title":"华东理工教工食堂","lon":"121.42533","lat":"31.14084","category":"68","category_name":"快餐厅","address":"徐汇区梅陇路130号华东理工大学西门(近天等路)"},{"poiid":"B2094655D26BA2F9419F","title":"天等路华东理工大学","lon":"121.42597","lat":"31.14047","category":"38","category_name":"公交车站","address":""},{"poiid":"B2094751DA6AA4F4479A","title":"顺风大酒店","lon":"121.425076","lat":"31.144158","category":"247","category_name":"餐饮美食","address":"瑞金二路打浦路"},{"poiid":"B2094757D064A7F94899","title":"重庆鸡公煲 梅陇路店","lon":"121.421974054","lat":"31.139343793","category":"247","category_name":"餐饮美食","address":"徐汇区梅陇路257号华东理工大学附近(近凌云路)"},{"poiid":"B2094752D46FA1F4489B","title":"上海植物园","lon":"121.425077","lat":"31.144158","category":"250","category_name":"公园户外","address":"龙吴路"},{"poiid":"B2094655D264A0FF4798","title":"华东理工大学理工优秀生部","lon":"121.42448","lat":"31.14262","category":"52","category_name":"高等院校","address":""},{"poiid":"B2094757D16AAAFB429C","title":"华东理工大学健身房","lon":"121.421625","lat":"31.142972","category":"148","category_name":"美容美发店","address":"上海徐汇校区大操场旁"},{"poiid":"B2094655D264ABF5409E","title":"华东理工大学数学系","lon":"121.42403","lat":"31.14385","category":"52","category_name":"高等院校","address":""},{"poiid":"B2094655D264AAFD429C","title":"华东理工大学物理系","lon":"121.42403","lat":"31.14386","category":"52","category_name":"高等院校","address":""},{"poiid":"B2094757D168A5FA459D","title":"吉龙豆捞","lon":"121.42448","lat":"31.13532","category":"86","category_name":"火锅店","address":"徐汇区龙州路925号(梅陇七村对面)"},{"poiid":"B2094757D568ABFE429F","title":"华东理工大学信息科学与工程学院","lon":"121.427268","lat":"31.143457","category":"52","category_name":"高等院校","address":"中国上海市徐汇区"},{"poiid":"B2094655D265A0FB4798","title":"华东理工大学数学实验教学中心","lon":"121.4269","lat":"31.14289","category":"52","category_name":"高等院校","address":""},{"poiid":"B2094655D268A2F84092","title":"上海市经济管理干部学院(东门)","lon":"121.4261","lat":"31.14001","category":"52","category_name":"高等院校","address":"天等路501号"},{"poiid":"B2094655D264ABF54293","title":"鲁华生态园","lon":"121.42709","lat":"31.14387","category":"196","category_name":"公园","address":""},{"poiid":"B2094654DB69A0F44398","title":"华东理工大学材料科学与工程学院","lon":"121.42485","lat":"31.14116","category":"52","category_name":"高等院校","address":""},{"poiid":"B2094655D264ABF5429F","title":"华东理工大学资源与环境专业实验教学中心","lon":"121.42497","lat":"31.14507","category":"52","category_name":"高等院校","address":""},{"poiid":"B2094751D26DA7F44899","title":"华东理工大学实验八楼","lon":"121.424568","lat":"31.143911","category":"500","category_name":"未知分类","address":null},{"poiid":"B2094655D265AAF9459E","title":"华东理工大学发酵工程实验教学中心","lon":"121.42497","lat":"31.14507","category":"52","category_name":"高等院校","address":""},{"poiid":"B2094757D464AAF4499D","title":"新疆雪莲花餐厅","lon":"121.428941054","lat":"31.142851793","category":"90","category_name":"清真餐馆","address":"徐汇区老沪闵路748号(梅陇路口)"},{"poiid":"B2094655D264A1FA4098","title":"华东理工大学化学与分子工程学院","lon":"121.42345","lat":"31.14424","category":"52","category_name":"高等院校","address":""},{"poiid":"B2094655D26BA6F94399","title":"华东理工大学化学实验教学中心","lon":"121.42345","lat":"31.14424","category":"52","category_name":"高等院校","address":""},{"poiid":"B2094655D26AA6FB429C","title":"晨园","lon":"121.425241054","lat":"31.142398793","category":"76","category_name":"上海菜","address":"徐汇区梅陇路130号华东理工大学内(近天等路)"},{"poiid":"B209475CD165ABFA479C","title":"东方明珠","lon":"121.427108","lat":"31.143968","category":"500","category_name":"未知分类","address":"上海市 陆家嘴"},{"poiid":"B2094655D26DA5FF489D","title":"华东理工大学","lon":"121.425","lat":"31.14313","category":"671","category_name":"高校中心点","address":"徐汇区梅陇路130号"},{"poiid":"B2094655D269ABFC419D","title":"华东理工大学徐汇校区","lon":"121.42857","lat":"31.14331","category":"247","category_name":"餐饮美食","address":"徐汇区梅陇路130号华东理工大学内(近天等路)"},{"poiid":"B2094757D06FA2F44192","title":"华东理工大学七教","lon":"121.42448527","lat":"31.141593448","category":"253","category_name":"校园生活","address":"上海徐汇区梅陇路130号"},{"poiid":"B2094654DA65AAFC449A","title":"嘉登道大饭店","lon":"121.42839","lat":"31.14289","category":"213","category_name":"五星级宾馆","address":"老沪闵路689号嘉登道大饭店1楼、3楼、4楼近梅陇路西南角"},{"poiid":"B2094757D06FAAF84398","title":"华东理工大学图书馆","lon":"121.42208612","lat":"31.142591023","category":"253","category_name":"校园生活","address":"徐汇区梅陇路130号华东理工大学内(近天等路)"},{"poiid":"B2094757D06FA7FF449C","title":"九头鸟烧烤","lon":"121.42878","lat":"31.14408","category":"68","category_name":"快餐厅","address":"徐汇区老沪闵路712号对面(近华东理工大学)"},{"poiid":"B2094757D068A5F84998","title":"上海市卫生学校","lon":"121.427007","lat":"31.140889","category":"55","category_name":"中学","address":"上海徐汇区梅陇路21号"},{"poiid":"B2094654DA65ABF44893","title":"上海市经济管理干部学院","lon":"121.42602","lat":"31.14","category":"671","category_name":"高校中心点","address":"徐汇区梅陇路161号(近天等路)"},{"poiid":"B2094757D06FA7FA489D","title":"上海职工医学院","lon":"121.42727","lat":"31.14061","category":"671","category_name":"高校中心点","address":"上海徐汇区梅陇路21号(近天等路)  "},{"poiid":"B2094757D068ABF4459B","title":"华东理工大学大操场","lon":"121.424847","lat":"31.143529","category":"253","category_name":"校园生活","address":"上海徐汇区梅陇路130号华东理工大学内"},{"poiid":"B2094757D069A0FF459A","title":"华东理工大学研究生楼","lon":"121.42620086","lat":"31.141109466","category":"500","category_name":"未知分类","address":"上海徐汇区梅陇路130号华东理工大学徐汇校区"},{"poiid":"B2094757D069A5F4409C","title":"上海健康职业技术学院","lon":"121.42435945","lat":"31.139170946","category":"253","category_name":"校园生活","address":"徐汇区梅陇路21号(近天等路)"},{"poiid":"B2094757D06FA5FA409D","title":"华东理工大学四教","lon":"121.42423009","lat":"31.142512028","category":"253","category_name":"校园生活","address":"上海徐汇区梅陇路130号"},{"poiid":"B2094757D068A3FB4793","title":"华东理工大学八教","lon":"121.426987","lat":"31.142914","category":"253","category_name":"校园生活","address":"上海徐汇区梅陇路130号"},{"poiid":"B2094654DB64A2FB4892","title":"上海体育职业学院西部校区","lon":"121.42909","lat":"31.14099","category":"52","category_name":"高等院校","address":"徐汇区老沪闵路775"},{"poiid":"B2094757D06AA1FD469C","title":"市国资委党校","lon":"121.42493438","lat":"31.140525817","category":"500","category_name":"未知分类","address":"上海徐汇区天等路501号"},{"poiid":"B2094757D068AAF94293","title":"华东理工大学五教","lon":"121.425336","lat":"31.140846","category":"253","category_name":"校园生活","address":"上海徐汇区梅陇路130号"},{"poiid":"B2094757D169A6F44198","title":"百乐迪量贩KTV","lon":"121.425118857","lat":"31.1414194918","category":"170","category_name":"KTV","address":"徐汇区龙州路995号华轻轻纺市场4楼(近梅陇路)"},{"poiid":"B2094757D069A2F54898","title":"音乐之声大酒店(梅陇路店)","lon":"121.42882","lat":"31.14306","category":"76","category_name":"上海菜","address":"徐汇区老沪闵路689号嘉登道2楼(近梅陇路)"},{"poiid":"B2094757D069A3F94398","title":"华东理工大学六教","lon":"121.42585661","lat":"31.142796184","category":"253","category_name":"校园生活","address":"上海徐汇区梅陇路130号"},{"poiid":"B2094757D06AA5F5449B","title":"梅陇六村","lon":"121.42579480056","lat":"31.139487689707","category":"252","category_name":"楼宇机构","address":"上海上中西路凌云路"},{"poiid":"B2094757D068A0FB4493","title":"华东理工大学第三食堂","lon":"121.422156618","lat":"31.1459460993","category":"253","category_name":"校园生活","address":"徐汇区梅陇路130号华东理工大学内(近天等路)"},{"poiid":"B2094757D16FA1FB499A","title":"华东理工大学大草坪","lon":"121.424604447","lat":"31.1439000415","category":"500","category_name":"未知分类","address":"上海市徐汇区梅陇路130号"},{"poiid":"B2094757D568ABFC4093","title":"华东理工大学商学院MBA教育中心","lon":"121.423591","lat":"31.143171","category":"52","category_name":"高等院校","address":"中国上海市徐汇区"},{"poiid":"B2094655D265A2FF4193","title":"华东理工大学外国语学院","lon":"121.42576","lat":"31.14301","category":"52","category_name":"高等院校","address":""},{"poiid":"B2094655D264ABFB409D","title":"华东理工大学商学院","lon":"121.42257","lat":"31.14301","category":"52","category_name":"高等院校","address":"上海市徐汇区梅陇路130号"},{"poiid":"B2094655D36CA3F5449C","title":"如家快捷酒店","lon":"121.42963","lat":"31.14365","category":"216","category_name":"经济型连锁酒店","address":"徐汇区老沪闵路714号(近梅陇路)"},{"poiid":"B2094757D664AAFB4393","title":"华东理工教工食堂","lon":"121.42533","lat":"31.14084","category":"68","category_name":"快餐厅","address":"徐汇区梅陇路130号华东理工大学西门(近天等路)"},{"poiid":"B2094655D26BA2F9419F","title":"天等路华东理工大学","lon":"121.42597","lat":"31.14047","category":"38","category_name":"公交车站","address":""},{"poiid":"B2094751DA6AA4F4479A","title":"顺风大酒店","lon":"121.425076","lat":"31.144158","category":"247","category_name":"餐饮美食","address":"瑞金二路打浦路"},{"poiid":"B2094757D064A7F94899","title":"重庆鸡公煲 梅陇路店","lon":"121.421974054","lat":"31.139343793","category":"247","category_name":"餐饮美食","address":"徐汇区梅陇路257号华东理工大学附近(近凌云路)"},{"poiid":"B2094752D46FA1F4489B","title":"上海植物园","lon":"121.425077","lat":"31.144158","category":"250","category_name":"公园户外","address":"龙吴路"},{"poiid":"B2094655D264A0FF4798","title":"华东理工大学理工优秀生部","lon":"121.42448","lat":"31.14262","category":"52","category_name":"高等院校","address":""},{"poiid":"B2094757D16AAAFB429C","title":"华东理工大学健身房","lon":"121.421625","lat":"31.142972","category":"148","category_name":"美容美发店","address":"上海徐汇校区大操场旁"},{"poiid":"B2094655D264ABF5409E","title":"华东理工大学数学系","lon":"121.42403","lat":"31.14385","category":"52","category_name":"高等院校","address":""},{"poiid":"B2094655D264AAFD429C","title":"华东理工大学物理系","lon":"121.42403","lat":"31.14386","category":"52","category_name":"高等院校","address":""},{"poiid":"B2094757D168A5FA459D","title":"吉龙豆捞","lon":"121.42448","lat":"31.13532","category":"86","category_name":"火锅店","address":"徐汇区龙州路925号(梅陇七村对面)"},{"poiid":"B2094757D568ABFE429F","title":"华东理工大学信息科学与工程学院","lon":"121.427268","lat":"31.143457","category":"52","category_name":"高等院校","address":"中国上海市徐汇区"},{"poiid":"B2094655D265A0FB4798","title":"华东理工大学数学实验教学中心","lon":"121.4269","lat":"31.14289","category":"52","category_name":"高等院校","address":""},{"poiid":"B2094655D268A2F84092","title":"上海市经济管理干部学院(东门)","lon":"121.4261","lat":"31.14001","category":"52","category_name":"高等院校","address":"天等路501号"},{"poiid":"B2094655D264ABF54293","title":"鲁华生态园","lon":"121.42709","lat":"31.14387","category":"196","category_name":"公园","address":""},{"poiid":"B2094654DB69A0F44398","title":"华东理工大学材料科学与工程学院","lon":"121.42485","lat":"31.14116","category":"52","category_name":"高等院校","address":""},{"poiid":"B2094655D264ABF5429F","title":"华东理工大学资源与环境专业实验教学中心","lon":"121.42497","lat":"31.14507","category":"52","category_name":"高等院校","address":""},{"poiid":"B2094751D26DA7F44899","title":"华东理工大学实验八楼","lon":"121.424568","lat":"31.143911","category":"500","category_name":"未知分类","address":null},{"poiid":"B2094655D265AAF9459E","title":"华东理工大学发酵工程实验教学中心","lon":"121.42497","lat":"31.14507","category":"52","category_name":"高等院校","address":""},{"poiid":"B2094757D464AAF4499D","title":"新疆雪莲花餐厅","lon":"121.428941054","lat":"31.142851793","category":"90","category_name":"清真餐馆","address":"徐汇区老沪闵路748号(梅陇路口)"},{"poiid":"B2094655D264A1FA4098","title":"华东理工大学化学与分子工程学院","lon":"121.42345","lat":"31.14424","category":"52","category_name":"高等院校","address":""},{"poiid":"B2094655D26BA6F94399","title":"华东理工大学化学实验教学中心","lon":"121.42345","lat":"31.14424","category":"52","category_name":"高等院校","address":""},{"poiid":"B2094655D26AA6FB429C","title":"晨园","lon":"121.425241054","lat":"31.142398793","category":"76","category_name":"上海菜","address":"徐汇区梅陇路130号华东理工大学内(近天等路)"},{"poiid":"B209475CD165ABFA479C","title":"东方明珠","lon":"121.427108","lat":"31.143968","category":"500","category_name":"未知分类","address":"上海市 陆家嘴"},{"poiid":"B2094655D26DA5FF489D","title":"华东理工大学","lon":"121.425","lat":"31.14313","category":"671","category_name":"高校中心点","address":"徐汇区梅陇路130号"},{"poiid":"B2094655D269ABFC419D","title":"华东理工大学徐汇校区","lon":"121.42857","lat":"31.14331","category":"247","category_name":"餐饮美食","address":"徐汇区梅陇路130号华东理工大学内(近天等路)"},{"poiid":"B2094757D06FA2F44192","title":"华东理工大学七教","lon":"121.42448527","lat":"31.141593448","category":"253","category_name":"校园生活","address":"上海徐汇区梅陇路130号"},{"poiid":"B2094654DA65AAFC449A","title":"嘉登道大饭店","lon":"121.42839","lat":"31.14289","category":"213","category_name":"五星级宾馆","address":"老沪闵路689号嘉登道大饭店1楼、3楼、4楼近梅陇路西南角"},{"poiid":"B2094757D06FAAF84398","title":"华东理工大学图书馆","lon":"121.42208612","lat":"31.142591023","category":"253","category_name":"校园生活","address":"徐汇区梅陇路130号华东理工大学内(近天等路)"},{"poiid":"B2094757D06FA7FF449C","title":"九头鸟烧烤","lon":"121.42878","lat":"31.14408","category":"68","category_name":"快餐厅","address":"徐汇区老沪闵路712号对面(近华东理工大学)"},{"poiid":"B2094757D068A5F84998","title":"上海市卫生学校","lon":"121.427007","lat":"31.140889","category":"55","category_name":"中学","address":"上海徐汇区梅陇路21号"},{"poiid":"B2094654DA65ABF44893","title":"上海市经济管理干部学院","lon":"121.42602","lat":"31.14","category":"671","category_name":"高校中心点","address":"徐汇区梅陇路161号(近天等路)"},{"poiid":"B2094757D06FA7FA489D","title":"上海职工医学院","lon":"121.42727","lat":"31.14061","category":"671","category_name":"高校中心点","address":"上海徐汇区梅陇路21号(近天等路)  "},{"poiid":"B2094757D068ABF4459B","title":"华东理工大学大操场","lon":"121.424847","lat":"31.143529","category":"253","category_name":"校园生活","address":"上海徐汇区梅陇路130号华东理工大学内"},{"poiid":"B2094757D069A0FF459A","title":"华东理工大学研究生楼","lon":"121.42620086","lat":"31.141109466","category":"500","category_name":"未知分类","address":"上海徐汇区梅陇路130号华东理工大学徐汇校区"},{"poiid":"B2094757D069A5F4409C","title":"上海健康职业技术学院","lon":"121.42435945","lat":"31.139170946","category":"253","category_name":"校园生活","address":"徐汇区梅陇路21号(近天等路)"},{"poiid":"B2094757D06FA5FA409D","title":"华东理工大学四教","lon":"121.42423009","lat":"31.142512028","category":"253","category_name":"校园生活","address":"上海徐汇区梅陇路130号"},{"poiid":"B2094757D068A3FB4793","title":"华东理工大学八教","lon":"121.426987","lat":"31.142914","category":"253","category_name":"校园生活","address":"上海徐汇区梅陇路130号"},{"poiid":"B2094654DB64A2FB4892","title":"上海体育职业学院西部校区","lon":"121.42909","lat":"31.14099","category":"52","category_name":"高等院校","address":"徐汇区老沪闵路775"},{"poiid":"B2094757D06AA1FD469C","title":"市国资委党校","lon":"121.42493438","lat":"31.140525817","category":"500","category_name":"未知分类","address":"上海徐汇区天等路501号"},{"poiid":"B2094757D068AAF94293","title":"华东理工大学五教","lon":"121.425336","lat":"31.140846","category":"253","category_name":"校园生活","address":"上海徐汇区梅陇路130号"},{"poiid":"B2094757D169A6F44198","title":"百乐迪量贩KTV","lon":"121.425118857","lat":"31.1414194918","category":"170","category_name":"KTV","address":"徐汇区龙州路995号华轻轻纺市场4楼(近梅陇路)"},{"poiid":"B2094757D069A2F54898","title":"音乐之声大酒店(梅陇路店)","lon":"121.42882","lat":"31.14306","category":"76","category_name":"上海菜","address":"徐汇区老沪闵路689号嘉登道2楼(近梅陇路)"},{"poiid":"B2094757D069A3F94398","title":"华东理工大学六教","lon":"121.42585661","lat":"31.142796184","category":"253","category_name":"校园生活","address":"上海徐汇区梅陇路130号"},{"poiid":"B2094757D06AA5F5449B","title":"梅陇六村","lon":"121.42579480056","lat":"31.139487689707","category":"252","category_name":"楼宇机构","address":"上海上中西路凌云路"},{"poiid":"B2094757D068A0FB4493","title":"华东理工大学第三食堂","lon":"121.422156618","lat":"31.1459460993","category":"253","category_name":"校园生活","address":"徐汇区梅陇路130号华东理工大学内(近天等路)"},{"poiid":"B2094757D16FA1FB499A","title":"华东理工大学大草坪","lon":"121.424604447","lat":"31.1439000415","category":"500","category_name":"未知分类","address":"上海市徐汇区梅陇路130号"},{"poiid":"B2094757D568ABFC4093","title":"华东理工大学商学院MBA教育中心","lon":"121.423591","lat":"31.143171","category":"52","category_name":"高等院校","address":"中国上海市徐汇区"},{"poiid":"B2094655D265A2FF4193","title":"华东理工大学外国语学院","lon":"121.42576","lat":"31.14301","category":"52","category_name":"高等院校","address":""},{"poiid":"B2094655D264ABFB409D","title":"华东理工大学商学院","lon":"121.42257","lat":"31.14301","category":"52","category_name":"高等院校","address":"上海市徐汇区梅陇路130号"},{"poiid":"B2094655D36CA3F5449C","title":"如家快捷酒店","lon":"121.42963","lat":"31.14365","category":"216","category_name":"经济型连锁酒店","address":"徐汇区老沪闵路714号(近梅陇路)"},{"poiid":"B2094757D664AAFB4393","title":"华东理工教工食堂","lon":"121.42533","lat":"31.14084","category":"68","category_name":"快餐厅","address":"徐汇区梅陇路130号华东理工大学西门(近天等路)"},{"poiid":"B2094655D26BA2F9419F","title":"天等路华东理工大学","lon":"121.42597","lat":"31.14047","category":"38","category_name":"公交车站","address":""},{"poiid":"B2094751DA6AA4F4479A","title":"顺风大酒店","lon":"121.425076","lat":"31.144158","category":"247","category_name":"餐饮美食","address":"瑞金二路打浦路"},{"poiid":"B2094757D064A7F94899","title":"重庆鸡公煲 梅陇路店","lon":"121.421974054","lat":"31.139343793","category":"247","category_name":"餐饮美食","address":"徐汇区梅陇路257号华东理工大学附近(近凌云路)"},{"poiid":"B2094752D46FA1F4489B","title":"上海植物园","lon":"121.425077","lat":"31.144158","category":"250","category_name":"公园户外","address":"龙吴路"},{"poiid":"B2094655D264A0FF4798","title":"华东理工大学理工优秀生部","lon":"121.42448","lat":"31.14262","category":"52","category_name":"高等院校","address":""},{"poiid":"B2094757D16AAAFB429C","title":"华东理工大学健身房","lon":"121.421625","lat":"31.142972","category":"148","category_name":"美容美发店","address":"上海徐汇校区大操场旁"},{"poiid":"B2094655D264ABF5409E","title":"华东理工大学数学系","lon":"121.42403","lat":"31.14385","category":"52","category_name":"高等院校","address":""},{"poiid":"B2094655D264AAFD429C","title":"华东理工大学物理系","lon":"121.42403","lat":"31.14386","category":"52","category_name":"高等院校","address":""},{"poiid":"B2094757D168A5FA459D","title":"吉龙豆捞","lon":"121.42448","lat":"31.13532","category":"86","category_name":"火锅店","address":"徐汇区龙州路925号(梅陇七村对面)"},{"poiid":"B2094757D568ABFE429F","title":"华东理工大学信息科学与工程学院","lon":"121.427268","lat":"31.143457","category":"52","category_name":"高等院校","address":"中国上海市徐汇区"},{"poiid":"B2094655D265A0FB4798","title":"华东理工大学数学实验教学中心","lon":"121.4269","lat":"31.14289","category":"52","category_name":"高等院校","address":""},{"poiid":"B2094655D268A2F84092","title":"上海市经济管理干部学院(东门)","lon":"121.4261","lat":"31.14001","category":"52","category_name":"高等院校","address":"天等路501号"},{"poiid":"B2094655D264ABF54293","title":"鲁华生态园","lon":"121.42709","lat":"31.14387","category":"196","category_name":"公园","address":""},{"poiid":"B2094654DB69A0F44398","title":"华东理工大学材料科学与工程学院","lon":"121.42485","lat":"31.14116","category":"52","category_name":"高等院校","address":""},{"poiid":"B2094655D264ABF5429F","title":"华东理工大学资源与环境专业实验教学中心","lon":"121.42497","lat":"31.14507","category":"52","category_name":"高等院校","address":""},{"poiid":"B2094751D26DA7F44899","title":"华东理工大学实验八楼","lon":"121.424568","lat":"31.143911","category":"500","category_name":"未知分类","address":null},{"poiid":"B2094655D265AAF9459E","title":"华东理工大学发酵工程实验教学中心","lon":"121.42497","lat":"31.14507","category":"52","category_name":"高等院校","address":""},{"poiid":"B2094757D464AAF4499D","title":"新疆雪莲花餐厅","lon":"121.428941054","lat":"31.142851793","category":"90","category_name":"清真餐馆","address":"徐汇区老沪闵路748号(梅陇路口)"},{"poiid":"B2094655D264A1FA4098","title":"华东理工大学化学与分子工程学院","lon":"121.42345","lat":"31.14424","category":"52","category_name":"高等院校","address":""},{"poiid":"B2094655D26BA6F94399","title":"华东理工大学化学实验教学中心","lon":"121.42345","lat":"31.14424","category":"52","category_name":"高等院校","address":""},{"poiid":"B2094655D26AA6FB429C","title":"晨园","lon":"121.425241054","lat":"31.142398793","category":"76","category_name":"上海菜","address":"徐汇区梅陇路130号华东理工大学内(近天等路)"},{"poiid":"B209475CD165ABFA479C","title":"东方明珠","lon":"121.427108","lat":"31.143968","category":"500","category_name":"未知分类","address":"上海市 陆家嘴"}]