[{"poiid":"B2094757D06FA3FC439B","title":"淞发路地铁站","lon":"121.500579","lat":"31.344674","category":"36","category_name":"地铁站","address":"上海轨道交通 三号线 轨交淞发路站 轻轨 3"},{"poiid":"B2094757D065AAFF409C","title":"汽車夢工場","lon":"121.50068383","lat":"31.349958154","category":"500","category_name":"未知分类","address":"上海市寶山區軍工路5169號"},{"poiid":"B2094757D06FA1FA4492","title":"建配龙家居商城","lon":"121.49426833","lat":"31.339484868","category":"123","category_name":"家具建材市场","address":"宝山区长逸路15号建配龙市场内(近逸仙路)"},{"poiid":"B2094757D06FA1FE469B","title":"淞南公园","lon":"121.486744987","lat":"31.3410313325","category":"196","category_name":"公园","address":"上海宝山区淞良路300号(近淞发路)"},{"poiid":"B2094757D06FA0FD4493","title":"汽车梦工厂","lon":"121.504417419","lat":"31.3494625092","category":"500","category_name":"未知分类","address":"上海宝山区军工路5169"},{"poiid":"B2094757D06FA4F8409B","title":"盛世宝邸","lon":"121.48964","lat":"31.33531","category":"47","category_name":"住宅区","address":"宝山区长江南路109号"},{"poiid":"B2094757D66EA6FB459F","title":"♥HÖmЁ♥","lon":"121.490882603","lat":"31.339821674","category":"500","category_name":"未知分类","address":null},{"poiid":"B2094757D06FA6FC439E","title":"华浜新村","lon":"121.49277","lat":"31.350016","category":"47","category_name":"住宅区","address":"上海长江路军工路"},{"poiid":"B2094757D465A1F84198","title":"豪皇海鲜大酒店","lon":"121.498222","lat":"31.340973","category":"72","category_name":"广东菜","address":"逸仙路3000号近长逸路"},{"poiid":"B2094757D068A0FA429E","title":"淞南三村","lon":"121.498","lat":"31.3495","category":"47","category_name":"住宅区","address":"淞南路301号"},{"poiid":"B2094655D265A0F8489B","title":"鎏园·中星新城","lon":"121.4983","lat":"31.34419","category":"47","category_name":"住宅区","address":"淞发路25号"},{"poiid":"B2094757D66BA3FA439F","title":"一崎碳烧 海伦生活广场店","lon":"121.4918308","lat":"31.3381991","category":"68","category_name":"快餐厅","address":"宝山区长逸路258号海伦精品生活广场1楼(近凇良路)"},{"poiid":"B2094655D36DA7F5489B","title":"淞南四村","lon":"121.4980655202","lat":"31.35075517499","category":"38","category_name":"公交车站","address":"上海市上海宝山区淞南四村站淞南路长江路"},{"poiid":"B2094757D064A6FE459F","title":"淞南七村","lon":"121.4885992726","lat":"31.339706632077","category":"500","category_name":"未知分类","address":"长逸路50弄"},{"poiid":"B2094654D469AAFC4798","title":"长宏新苑","lon":"121.49244","lat":"31.342192","category":"47","category_name":"住宅区","address":"上海市普陀区武宁路492号"},{"poiid":"B2094757D069A2FD439F","title":"新梅淞南苑","lon":"121.49153","lat":"31.33849","category":"47","category_name":"住宅区","address":"上海市宝山区长逸路301弄"},{"poiid":"B2094757D06BA4FE439F","title":"华浜二村","lon":"121.50059","lat":"31.346624","category":"252","category_name":"楼宇机构","address":"逸仙路3400号"},{"poiid":"B2094757D06FA6F94099","title":"鎏园","lon":"121.500579834","lat":"31.3446731567","category":"47","category_name":"住宅区","address":"上海市宝山区淞发路25弄"},{"poiid":"B2094757D569A2FF489D","title":"逸兴家园","lon":"121.49973","lat":"31.347683","category":"47","category_name":"住宅区","address":"上海市宝山区逸仙路3456号"},{"poiid":"B2094750D26BABF94598","title":"上海国际工业设计中心","lon":"121.496185","lat":"31.342046","category":"263","category_name":"公司","address":"宝山区逸仙路3000号(近长逸路)"},{"poiid":"B2094757D06BA2FC479B","title":"逸居苑","lon":"121.49728386","lat":"31.33884357","category":"47","category_name":"住宅区","address":"上海宝山区淞南路111弄"},{"poiid":"B2094757D768AAFF479F","title":"淞发路兰州正宗牛肉拉面","lon":"121.49955","lat":"31.34398","category":"90","category_name":"清真餐馆","address":"宝山区淞发路25弄3号(近逸仙路)"},{"poiid":"B2094655D26AA0F9429C","title":"地铁淞发路站","lon":"121.50057","lat":"31.34467","category":"36","category_name":"地铁站","address":""},{"poiid":"B2094654D469AAFC4592","title":"凇南三村","lon":"121.49083","lat":"31.34357","category":"47","category_name":"住宅区","address":"淞南镇"},{"poiid":"B2094757D06BA3FE499C","title":"淞南八村","lon":"121.487","lat":"31.3413","category":"252","category_name":"楼宇机构","address":"长江南路143号"},{"poiid":"B2094654D46AA1FF4199","title":"新逸仙公寓","lon":"121.49521","lat":"31.346046","category":"47","category_name":"住宅区","address":"新逸仙公寓位于宝山逸仙路靠近长江路"},{"poiid":"B2094655D36DA7FD4398","title":"张华浜","lon":"121.50039","lat":"31.35498","category":"38","category_name":"公交车站","address":""},{"poiid":"B2094757D06AA3F54792","title":"鹏程花苑","lon":"121.495","lat":"31.3436","category":"252","category_name":"楼宇机构","address":"上海长逸路388弄"},{"poiid":"B2094757D568A6FA4099","title":"尚城汇景园","lon":"121.50172","lat":"31.347908","category":"47","category_name":"住宅区","address":"逸仙路3508弄"},{"poiid":"B2094757D068A4FB4192","title":"复旦大学江湾校区李兆基图书馆","lon":"121.50644591","lat":"31.3361329136","category":"253","category_name":"校园生活","address":"上海杨浦区淞沪路2005号"},{"poiid":"B2094655D36DA6FF439C","title":"淞发路","lon":"121.50057","lat":"31.34467","category":"38","category_name":"公交车站","address":""},{"poiid":"B2094757D068AAFA4792","title":"复旦软件园","lon":"121.494193","lat":"31.339586","category":"500","category_name":"未知分类","address":"上海宝山区长逸路15号"},{"poiid":"B2094757D069AAF4479A","title":"淞南镇社区卫生服务中心","lon":"121.48908448","lat":"31.342121041","category":"162","category_name":"医院","address":"宝山区淞良路301号(近淞南公园)"},{"poiid":"B2094757D064A2F8419C","title":"淞南中心校","lon":"121.496860003","lat":"31.3464195122","category":"253","category_name":"校园生活","address":"宝山区华浜新村168号"},{"poiid":"B2094757D165A2F44293","title":"952路吴淞码头","lon":"121.4993664","lat":"31.34632481","category":"500","category_name":"未知分类","address":"上海吴淞码头站。"},{"poiid":"B2094757D16CA3FD479F","title":"上海邮政张华浜培训基地","lon":"121.502416","lat":"31.351685","category":"500","category_name":"未知分类","address":"上海逸仙路3777号"},{"poiid":"B2094757D16CA4FE4192","title":"依乐新天地幼儿园","lon":"121.49639129","lat":"31.347913653","category":"57","category_name":"幼儿园","address":"上海市宝山区淞南镇华浜二村142号"},{"poiid":"B2094757D465A1FC489B","title":"逸园味仙阁","lon":"121.50123","lat":"31.34717","category":"76","category_name":"上海菜","address":"宝山区逸仙路3456弄18号(近轻轨三号线淞发路站)"},{"poiid":"B2094654D46AA1FF439B","title":"群海足疗保健中心","lon":"121.49646","lat":"31.34384","category":"149","category_name":"洗浴推拿场所","address":"宝山区淞发路69号"},{"poiid":"B2094654D46AA1FF429B","title":"靓肤源宝山店","lon":"121.50066","lat":"31.34732","category":"148","category_name":"美容美发店","address":""},{"poiid":"B2094757D569A6FF4098","title":"万临家园","lon":"121.48648","lat":"31.342659","category":"47","category_name":"住宅区","address":"淞发路500弄"},{"poiid":"B2094757D66CA3FE4393","title":"東京站","lon":"121.501466831","lat":"31.3487941304","category":"500","category_name":"未知分类","address":"JR 東京站 日本"},{"poiid":"B2094757D66EA0F54593","title":"好饿","lon":"121.500372103","lat":"31.3465700153","category":"500","category_name":"未知分类","address":"上海回家路上"},{"poiid":"B2094757D66BA7F5499A","title":"老北京热气涮羊肉","lon":"121.48841","lat":"31.3422","category":"86","category_name":"火锅店","address":"杨浦区国和路971号"},{"poiid":"B2094750DB6CA3F5439C","title":"新江湾尚景苑","lon":"121.497032","lat":"31.341075","category":"47","category_name":"住宅区","address":"国权北路1450弄"},{"poiid":"B2094757D168AAFB4098","title":"上海铁路局北郊站何家湾货运办理中心","lon":"121.500597103","lat":"31.3432537459","category":"500","category_name":"未知分类","address":"上海逸仙路3001号"},{"poiid":"B2094750DA6EA6F8469E","title":"炫音KTV(淞南店)","lon":"121.490638","lat":"31.337848","category":"170","category_name":"KTV","address":"宝山区长逸路258号3幢海伦精致生活广场3楼01-14室"},{"poiid":"B2094757D06AA1FB499E","title":"永琪美容美发(淞南店)","lon":"121.49165","lat":"31.34391","category":"148","category_name":"美容美发店","address":"上海宝山区淞南路(近淞发路)"},{"poiid":"B2094757D065A7F84399","title":"逸仙公寓","lon":"121.505","lat":"31.3528","category":"252","category_name":"楼宇机构","address":"上海逸仙路3458弄"},{"poiid":"B2094757D56EA5F5439C","title":"淞发路站1号口(地铁3号线)","lon":"121.4996","lat":"31.343661","category":"251","category_name":"出行住宿","address":"中国上海市宝山区逸仙路"},{"poiid":"B2094757D06FA3FC439B","title":"淞发路地铁站","lon":"121.500579","lat":"31.344674","category":"36","category_name":"地铁站","address":"上海轨道交通 三号线 轨交淞发路站 轻轨 3"},{"poiid":"B2094757D065AAFF409C","title":"汽車夢工場","lon":"121.50068383","lat":"31.349958154","category":"500","category_name":"未知分类","address":"上海市寶山區軍工路5169號"},{"poiid":"B2094757D06FA1FA4492","title":"建配龙家居商城","lon":"121.49426833","lat":"31.339484868","category":"123","category_name":"家具建材市场","address":"宝山区长逸路15号建配龙市场内(近逸仙路)"},{"poiid":"B2094757D06FA1FE469B","title":"淞南公园","lon":"121.486744987","lat":"31.3410313325","category":"196","category_name":"公园","address":"上海宝山区淞良路300号(近淞发路)"},{"poiid":"B2094757D06FA0FD4493","title":"汽车梦工厂","lon":"121.504417419","lat":"31.3494625092","category":"500","category_name":"未知分类","address":"上海宝山区军工路5169"},{"poiid":"B2094757D06FA4F8409B","title":"盛世宝邸","lon":"121.48964","lat":"31.33531","category":"47","category_name":"住宅区","address":"宝山区长江南路109号"},{"poiid":"B2094757D66EA6FB459F","title":"♥HÖmЁ♥","lon":"121.490882603","lat":"31.339821674","category":"500","category_name":"未知分类","address":null},{"poiid":"B2094757D06FA6FC439E","title":"华浜新村","lon":"121.49277","lat":"31.350016","category":"47","category_name":"住宅区","address":"上海长江路军工路"},{"poiid":"B2094757D465A1F84198","title":"豪皇海鲜大酒店","lon":"121.498222","lat":"31.340973","category":"72","category_name":"广东菜","address":"逸仙路3000号近长逸路"},{"poiid":"B2094757D068A0FA429E","title":"淞南三村","lon":"121.498","lat":"31.3495","category":"47","category_name":"住宅区","address":"淞南路301号"},{"poiid":"B2094655D265A0F8489B","title":"鎏园·中星新城","lon":"121.4983","lat":"31.34419","category":"47","category_name":"住宅区","address":"淞发路25号"},{"poiid":"B2094757D66BA3FA439F","title":"一崎碳烧 海伦生活广场店","lon":"121.4918308","lat":"31.3381991","category":"68","category_name":"快餐厅","address":"宝山区长逸路258号海伦精品生活广场1楼(近凇良路)"},{"poiid":"B2094655D36DA7F5489B","title":"淞南四村","lon":"121.4980655202","lat":"31.35075517499","category":"38","category_name":"公交车站","address":"上海市上海宝山区淞南四村站淞南路长江路"},{"poiid":"B2094757D064A6FE459F","title":"淞南七村","lon":"121.4885992726","lat":"31.339706632077","category":"500","category_name":"未知分类","address":"长逸路50弄"},{"poiid":"B2094654D469AAFC4798","title":"长宏新苑","lon":"121.49244","lat":"31.342192","category":"47","category_name":"住宅区","address":"上海市普陀区武宁路492号"},{"poiid":"B2094757D069A2FD439F","title":"新梅淞南苑","lon":"121.49153","lat":"31.33849","category":"47","category_name":"住宅区","address":"上海市宝山区长逸路301弄"},{"poiid":"B2094757D06BA4FE439F","title":"华浜二村","lon":"121.50059","lat":"31.346624","category":"252","category_name":"楼宇机构","address":"逸仙路3400号"},{"poiid":"B2094757D06FA6F94099","title":"鎏园","lon":"121.500579834","lat":"31.3446731567","category":"47","category_name":"住宅区","address":"上海市宝山区淞发路25弄"},{"poiid":"B2094757D569A2FF489D","title":"逸兴家园","lon":"121.49973","lat":"31.347683","category":"47","category_name":"住宅区","address":"上海市宝山区逸仙路3456号"},{"poiid":"B2094750D26BABF94598","title":"上海国际工业设计中心","lon":"121.496185","lat":"31.342046","category":"263","category_name":"公司","address":"宝山区逸仙路3000号(近长逸路)"},{"poiid":"B2094757D06BA2FC479B","title":"逸居苑","lon":"121.49728386","lat":"31.33884357","category":"47","category_name":"住宅区","address":"上海宝山区淞南路111弄"},{"poiid":"B2094757D768AAFF479F","title":"淞发路兰州正宗牛肉拉面","lon":"121.49955","lat":"31.34398","category":"90","category_name":"清真餐馆","address":"宝山区淞发路25弄3号(近逸仙路)"},{"poiid":"B2094655D26AA0F9429C","title":"地铁淞发路站","lon":"121.50057","lat":"31.34467","category":"36","category_name":"地铁站","address":""},{"poiid":"B2094654D469AAFC4592","title":"凇南三村","lon":"121.49083","lat":"31.34357","category":"47","category_name":"住宅区","address":"淞南镇"},{"poiid":"B2094757D06BA3FE499C","title":"淞南八村","lon":"121.487","lat":"31.3413","category":"252","category_name":"楼宇机构","address":"长江南路143号"},{"poiid":"B2094654D46AA1FF4199","title":"新逸仙公寓","lon":"121.49521","lat":"31.346046","category":"47","category_name":"住宅区","address":"新逸仙公寓位于宝山逸仙路靠近长江路"},{"poiid":"B2094655D36DA7FD4398","title":"张华浜","lon":"121.50039","lat":"31.35498","category":"38","category_name":"公交车站","address":""},{"poiid":"B2094757D06AA3F54792","title":"鹏程花苑","lon":"121.495","lat":"31.3436","category":"252","category_name":"楼宇机构","address":"上海长逸路388弄"},{"poiid":"B2094757D568A6FA4099","title":"尚城汇景园","lon":"121.50172","lat":"31.347908","category":"47","category_name":"住宅区","address":"逸仙路3508弄"},{"poiid":"B2094757D068A4FB4192","title":"复旦大学江湾校区李兆基图书馆","lon":"121.50644591","lat":"31.3361329136","category":"253","category_name":"校园生活","address":"上海杨浦区淞沪路2005号"},{"poiid":"B2094655D36DA6FF439C","title":"淞发路","lon":"121.50057","lat":"31.34467","category":"38","category_name":"公交车站","address":""},{"poiid":"B2094757D068AAFA4792","title":"复旦软件园","lon":"121.494193","lat":"31.339586","category":"500","category_name":"未知分类","address":"上海宝山区长逸路15号"},{"poiid":"B2094757D069AAF4479A","title":"淞南镇社区卫生服务中心","lon":"121.48908448","lat":"31.342121041","category":"162","category_name":"医院","address":"宝山区淞良路301号(近淞南公园)"},{"poiid":"B2094757D064A2F8419C","title":"淞南中心校","lon":"121.496860003","lat":"31.3464195122","category":"253","category_name":"校园生活","address":"宝山区华浜新村168号"},{"poiid":"B2094757D165A2F44293","title":"952路吴淞码头","lon":"121.4993664","lat":"31.34632481","category":"500","category_name":"未知分类","address":"上海吴淞码头站。"},{"poiid":"B2094757D16CA3FD479F","title":"上海邮政张华浜培训基地","lon":"121.502416","lat":"31.351685","category":"500","category_name":"未知分类","address":"上海逸仙路3777号"},{"poiid":"B2094757D16CA4FE4192","title":"依乐新天地幼儿园","lon":"121.49639129","lat":"31.347913653","category":"57","category_name":"幼儿园","address":"上海市宝山区淞南镇华浜二村142号"},{"poiid":"B2094757D465A1FC489B","title":"逸园味仙阁","lon":"121.50123","lat":"31.34717","category":"76","category_name":"上海菜","address":"宝山区逸仙路3456弄18号(近轻轨三号线淞发路站)"},{"poiid":"B2094654D46AA1FF439B","title":"群海足疗保健中心","lon":"121.49646","lat":"31.34384","category":"149","category_name":"洗浴推拿场所","address":"宝山区淞发路69号"},{"poiid":"B2094654D46AA1FF429B","title":"靓肤源宝山店","lon":"121.50066","lat":"31.34732","category":"148","category_name":"美容美发店","address":""},{"poiid":"B2094757D569A6FF4098","title":"万临家园","lon":"121.48648","lat":"31.342659","category":"47","category_name":"住宅区","address":"淞发路500弄"},{"poiid":"B2094757D66CA3FE4393","title":"東京站","lon":"121.501466831","lat":"31.3487941304","category":"500","category_name":"未知分类","address":"JR 東京站 日本"},{"poiid":"B2094757D66EA0F54593","title":"好饿","lon":"121.500372103","lat":"31.3465700153","category":"500","category_name":"未知分类","address":"上海回家路上"},{"poiid":"B2094757D66BA7F5499A","title":"老北京热气涮羊肉","lon":"121.48841","lat":"31.3422","category":"86","category_name":"火锅店","address":"杨浦区国和路971号"},{"poiid":"B2094750DB6CA3F5439C","title":"新江湾尚景苑","lon":"121.497032","lat":"31.341075","category":"47","category_name":"住宅区","address":"国权北路1450弄"},{"poiid":"B2094757D168AAFB4098","title":"上海铁路局北郊站何家湾货运办理中心","lon":"121.500597103","lat":"31.3432537459","category":"500","category_name":"未知分类","address":"上海逸仙路3001号"},{"poiid":"B2094750DA6EA6F8469E","title":"炫音KTV(淞南店)","lon":"121.490638","lat":"31.337848","category":"170","category_name":"KTV","address":"宝山区长逸路258号3幢海伦精致生活广场3楼01-14室"},{"poiid":"B2094757D06AA1FB499E","title":"永琪美容美发(淞南店)","lon":"121.49165","lat":"31.34391","category":"148","category_name":"美容美发店","address":"上海宝山区淞南路(近淞发路)"},{"poiid":"B2094757D065A7F84399","title":"逸仙公寓","lon":"121.505","lat":"31.3528","category":"252","category_name":"楼宇机构","address":"上海逸仙路3458弄"},{"poiid":"B2094757D56EA5F5439C","title":"淞发路站1号口(地铁3号线)","lon":"121.4996","lat":"31.343661","category":"251","category_name":"出行住宿","address":"中国上海市宝山区逸仙路"},{"poiid":"B2094757D06FA3FC439B","title":"淞发路地铁站","lon":"121.500579","lat":"31.344674","category":"36","category_name":"地铁站","address":"上海轨道交通 三号线 轨交淞发路站 轻轨 3"},{"poiid":"B2094757D065AAFF409C","title":"汽車夢工場","lon":"121.50068383","lat":"31.349958154","category":"500","category_name":"未知分类","address":"上海市寶山區軍工路5169號"},{"poiid":"B2094757D06FA1FA4492","title":"建配龙家居商城","lon":"121.49426833","lat":"31.339484868","category":"123","category_name":"家具建材市场","address":"宝山区长逸路15号建配龙市场内(近逸仙路)"},{"poiid":"B2094757D06FA1FE469B","title":"淞南公园","lon":"121.486744987","lat":"31.3410313325","category":"196","category_name":"公园","address":"上海宝山区淞良路300号(近淞发路)"},{"poiid":"B2094757D06FA0FD4493","title":"汽车梦工厂","lon":"121.504417419","lat":"31.3494625092","category":"500","category_name":"未知分类","address":"上海宝山区军工路5169"},{"poiid":"B2094757D06FA4F8409B","title":"盛世宝邸","lon":"121.48964","lat":"31.33531","category":"47","category_name":"住宅区","address":"宝山区长江南路109号"},{"poiid":"B2094757D66EA6FB459F","title":"♥HÖmЁ♥","lon":"121.490882603","lat":"31.339821674","category":"500","category_name":"未知分类","address":null},{"poiid":"B2094757D06FA6FC439E","title":"华浜新村","lon":"121.49277","lat":"31.350016","category":"47","category_name":"住宅区","address":"上海长江路军工路"},{"poiid":"B2094757D465A1F84198","title":"豪皇海鲜大酒店","lon":"121.498222","lat":"31.340973","category":"72","category_name":"广东菜","address":"逸仙路3000号近长逸路"},{"poiid":"B2094757D068A0FA429E","title":"淞南三村","lon":"121.498","lat":"31.3495","category":"47","category_name":"住宅区","address":"淞南路301号"},{"poiid":"B2094655D265A0F8489B","title":"鎏园·中星新城","lon":"121.4983","lat":"31.34419","category":"47","category_name":"住宅区","address":"淞发路25号"},{"poiid":"B2094757D66BA3FA439F","title":"一崎碳烧 海伦生活广场店","lon":"121.4918308","lat":"31.3381991","category":"68","category_name":"快餐厅","address":"宝山区长逸路258号海伦精品生活广场1楼(近凇良路)"},{"poiid":"B2094655D36DA7F5489B","title":"淞南四村","lon":"121.4980655202","lat":"31.35075517499","category":"38","category_name":"公交车站","address":"上海市上海宝山区淞南四村站淞南路长江路"},{"poiid":"B2094757D064A6FE459F","title":"淞南七村","lon":"121.4885992726","lat":"31.339706632077","category":"500","category_name":"未知分类","address":"长逸路50弄"},{"poiid":"B2094654D469AAFC4798","title":"长宏新苑","lon":"121.49244","lat":"31.342192","category":"47","category_name":"住宅区","address":"上海市普陀区武宁路492号"},{"poiid":"B2094757D069A2FD439F","title":"新梅淞南苑","lon":"121.49153","lat":"31.33849","category":"47","category_name":"住宅区","address":"上海市宝山区长逸路301弄"},{"poiid":"B2094757D06BA4FE439F","title":"华浜二村","lon":"121.50059","lat":"31.346624","category":"252","category_name":"楼宇机构","address":"逸仙路3400号"},{"poiid":"B2094757D06FA6F94099","title":"鎏园","lon":"121.500579834","lat":"31.3446731567","category":"47","category_name":"住宅区","address":"上海市宝山区淞发路25弄"},{"poiid":"B2094757D569A2FF489D","title":"逸兴家园","lon":"121.49973","lat":"31.347683","category":"47","category_name":"住宅区","address":"上海市宝山区逸仙路3456号"},{"poiid":"B2094750D26BABF94598","title":"上海国际工业设计中心","lon":"121.496185","lat":"31.342046","category":"263","category_name":"公司","address":"宝山区逸仙路3000号(近长逸路)"},{"poiid":"B2094757D06BA2FC479B","title":"逸居苑","lon":"121.49728386","lat":"31.33884357","category":"47","category_name":"住宅区","address":"上海宝山区淞南路111弄"},{"poiid":"B2094757D768AAFF479F","title":"淞发路兰州正宗牛肉拉面","lon":"121.49955","lat":"31.34398","category":"90","category_name":"清真餐馆","address":"宝山区淞发路25弄3号(近逸仙路)"},{"poiid":"B2094655D26AA0F9429C","title":"地铁淞发路站","lon":"121.50057","lat":"31.34467","category":"36","category_name":"地铁站","address":""},{"poiid":"B2094654D469AAFC4592","title":"凇南三村","lon":"121.49083","lat":"31.34357","category":"47","category_name":"住宅区","address":"淞南镇"},{"poiid":"B2094757D06BA3FE499C","title":"淞南八村","lon":"121.487","lat":"31.3413","category":"252","category_name":"楼宇机构","address":"长江南路143号"},{"poiid":"B2094654D46AA1FF4199","title":"新逸仙公寓","lon":"121.49521","lat":"31.346046","category":"47","category_name":"住宅区","address":"新逸仙公寓位于宝山逸仙路靠近长江路"},{"poiid":"B2094655D36DA7FD4398","title":"张华浜","lon":"121.50039","lat":"31.35498","category":"38","category_name":"公交车站","address":""},{"poiid":"B2094757D06AA3F54792","title":"鹏程花苑","lon":"121.495","lat":"31.3436","category":"252","category_name":"楼宇机构","address":"上海长逸路388弄"},{"poiid":"B2094757D568A6FA4099","title":"尚城汇景园","lon":"121.50172","lat":"31.347908","category":"47","category_name":"住宅区","address":"逸仙路3508弄"},{"poiid":"B2094757D068A4FB4192","title":"复旦大学江湾校区李兆基图书馆","lon":"121.50644591","lat":"31.3361329136","category":"253","category_name":"校园生活","address":"上海杨浦区淞沪路2005号"},{"poiid":"B2094655D36DA6FF439C","title":"淞发路","lon":"121.50057","lat":"31.34467","category":"38","category_name":"公交车站","address":""},{"poiid":"B2094757D068AAFA4792","title":"复旦软件园","lon":"121.494193","lat":"31.339586","category":"500","category_name":"未知分类","address":"上海宝山区长逸路15号"},{"poiid":"B2094757D069AAF4479A","title":"淞南镇社区卫生服务中心","lon":"121.48908448","lat":"31.342121041","category":"162","category_name":"医院","address":"宝山区淞良路301号(近淞南公园)"},{"poiid":"B2094757D064A2F8419C","title":"淞南中心校","lon":"121.496860003","lat":"31.3464195122","category":"253","category_name":"校园生活","address":"宝山区华浜新村168号"},{"poiid":"B2094757D165A2F44293","title":"952路吴淞码头","lon":"121.4993664","lat":"31.34632481","category":"500","category_name":"未知分类","address":"上海吴淞码头站。"},{"poiid":"B2094757D16CA3FD479F","title":"上海邮政张华浜培训基地","lon":"121.502416","lat":"31.351685","category":"500","category_name":"未知分类","address":"上海逸仙路3777号"},{"poiid":"B2094757D16CA4FE4192","title":"依乐新天地幼儿园","lon":"121.49639129","lat":"31.347913653","category":"57","category_name":"幼儿园","address":"上海市宝山区淞南镇华浜二村142号"},{"poiid":"B2094757D465A1FC489B","title":"逸园味仙阁","lon":"121.50123","lat":"31.34717","category":"76","category_name":"上海菜","address":"宝山区逸仙路3456弄18号(近轻轨三号线淞发路站)"},{"poiid":"B2094654D46AA1FF439B","title":"群海足疗保健中心","lon":"121.49646","lat":"31.34384","category":"149","category_name":"洗浴推拿场所","address":"宝山区淞发路69号"},{"poiid":"B2094654D46AA1FF429B","title":"靓肤源宝山店","lon":"121.50066","lat":"31.34732","category":"148","category_name":"美容美发店","address":""},{"poiid":"B2094757D569A6FF4098","title":"万临家园","lon":"121.48648","lat":"31.342659","category":"47","category_name":"住宅区","address":"淞发路500弄"},{"poiid":"B2094757D66CA3FE4393","title":"東京站","lon":"121.501466831","lat":"31.3487941304","category":"500","category_name":"未知分类","address":"JR 東京站 日本"},{"poiid":"B2094757D66EA0F54593","title":"好饿","lon":"121.500372103","lat":"31.3465700153","category":"500","category_name":"未知分类","address":"上海回家路上"},{"poiid":"B2094757D66BA7F5499A","title":"老北京热气涮羊肉","lon":"121.48841","lat":"31.3422","category":"86","category_name":"火锅店","address":"杨浦区国和路971号"},{"poiid":"B2094750DB6CA3F5439C","title":"新江湾尚景苑","lon":"121.497032","lat":"31.341075","category":"47","category_name":"住宅区","address":"国权北路1450弄"},{"poiid":"B2094757D168AAFB4098","title":"上海铁路局北郊站何家湾货运办理中心","lon":"121.500597103","lat":"31.3432537459","category":"500","category_name":"未知分类","address":"上海逸仙路3001号"},{"poiid":"B2094750DA6EA6F8469E","title":"炫音KTV(淞南店)","lon":"121.490638","lat":"31.337848","category":"170","category_name":"KTV","address":"宝山区长逸路258号3幢海伦精致生活广场3楼01-14室"},{"poiid":"B2094757D06AA1FB499E","title":"永琪美容美发(淞南店)","lon":"121.49165","lat":"31.34391","category":"148","category_name":"美容美发店","address":"上海宝山区淞南路(近淞发路)"},{"poiid":"B2094757D065A7F84399","title":"逸仙公寓","lon":"121.505","lat":"31.3528","category":"252","category_name":"楼宇机构","address":"上海逸仙路3458弄"},{"poiid":"B2094757D56EA5F5439C","title":"淞发路站1号口(地铁3号线)","lon":"121.4996","lat":"31.343661","category":"251","category_name":"出行住宿","address":"中国上海市宝山区逸仙路"},{"poiid":"B2094757D06FA3FC439B","title":"淞发路地铁站","lon":"121.500579","lat":"31.344674","category":"36","category_name":"地铁站","address":"上海轨道交通 三号线 轨交淞发路站 轻轨 3"},{"poiid":"B2094757D065AAFF409C","title":"汽車夢工場","lon":"121.50068383","lat":"31.349958154","category":"500","category_name":"未知分类","address":"上海市寶山區軍工路5169號"},{"poiid":"B2094757D06FA1FA4492","title":"建配龙家居商城","lon":"121.49426833","lat":"31.339484868","category":"123","category_name":"家具建材市场","address":"宝山区长逸路15号建配龙市场内(近逸仙路)"},{"poiid":"B2094757D06FA1FE469B","title":"淞南公园","lon":"121.486744987","lat":"31.3410313325","category":"196","category_name":"公园","address":"上海宝山区淞良路300号(近淞发路)"},{"poiid":"B2094757D06FA0FD4493","title":"汽车梦工厂","lon":"121.504417419","lat":"31.3494625092","category":"500","category_name":"未知分类","address":"上海宝山区军工路5169"},{"poiid":"B2094757D06FA4F8409B","title":"盛世宝邸","lon":"121.48964","lat":"31.33531","category":"47","category_name":"住宅区","address":"宝山区长江南路109号"},{"poiid":"B2094757D66EA6FB459F","title":"♥HÖmЁ♥","lon":"121.490882603","lat":"31.339821674","category":"500","category_name":"未知分类","address":null},{"poiid":"B2094757D06FA6FC439E","title":"华浜新村","lon":"121.49277","lat":"31.350016","category":"47","category_name":"住宅区","address":"上海长江路军工路"},{"poiid":"B2094757D465A1F84198","title":"豪皇海鲜大酒店","lon":"121.498222","lat":"31.340973","category":"72","category_name":"广东菜","address":"逸仙路3000号近长逸路"},{"poiid":"B2094757D068A0FA429E","title":"淞南三村","lon":"121.498","lat":"31.3495","category":"47","category_name":"住宅区","address":"淞南路301号"},{"poiid":"B2094655D265A0F8489B","title":"鎏园·中星新城","lon":"121.4983","lat":"31.34419","category":"47","category_name":"住宅区","address":"淞发路25号"},{"poiid":"B2094757D66BA3FA439F","title":"一崎碳烧 海伦生活广场店","lon":"121.4918308","lat":"31.3381991","category":"68","category_name":"快餐厅","address":"宝山区长逸路258号海伦精品生活广场1楼(近凇良路)"},{"poiid":"B2094655D36DA7F5489B","title":"淞南四村","lon":"121.4980655202","lat":"31.35075517499","category":"38","category_name":"公交车站","address":"上海市上海宝山区淞南四村站淞南路长江路"},{"poiid":"B2094757D064A6FE459F","title":"淞南七村","lon":"121.4885992726","lat":"31.339706632077","category":"500","category_name":"未知分类","address":"长逸路50弄"},{"poiid":"B2094654D469AAFC4798","title":"长宏新苑","lon":"121.49244","lat":"31.342192","category":"47","category_name":"住宅区","address":"上海市普陀区武宁路492号"},{"poiid":"B2094757D069A2FD439F","title":"新梅淞南苑","lon":"121.49153","lat":"31.33849","category":"47","category_name":"住宅区","address":"上海市宝山区长逸路301弄"},{"poiid":"B2094757D06BA4FE439F","title":"华浜二村","lon":"121.50059","lat":"31.346624","category":"252","category_name":"楼宇机构","address":"逸仙路3400号"},{"poiid":"B2094757D06FA6F94099","title":"鎏园","lon":"121.500579834","lat":"31.3446731567","category":"47","category_name":"住宅区","address":"上海市宝山区淞发路25弄"},{"poiid":"B2094757D569A2FF489D","title":"逸兴家园","lon":"121.49973","lat":"31.347683","category":"47","category_name":"住宅区","address":"上海市宝山区逸仙路3456号"},{"poiid":"B2094750D26BABF94598","title":"上海国际工业设计中心","lon":"121.496185","lat":"31.342046","category":"263","category_name":"公司","address":"宝山区逸仙路3000号(近长逸路)"},{"poiid":"B2094757D06BA2FC479B","title":"逸居苑","lon":"121.49728386","lat":"31.33884357","category":"47","category_name":"住宅区","address":"上海宝山区淞南路111弄"},{"poiid":"B2094757D768AAFF479F","title":"淞发路兰州正宗牛肉拉面","lon":"121.49955","lat":"31.34398","category":"90","category_name":"清真餐馆","address":"宝山区淞发路25弄3号(近逸仙路)"},{"poiid":"B2094655D26AA0F9429C","title":"地铁淞发路站","lon":"121.50057","lat":"31.34467","category":"36","category_name":"地铁站","address":""},{"poiid":"B2094654D469AAFC4592","title":"凇南三村","lon":"121.49083","lat":"31.34357","category":"47","category_name":"住宅区","address":"淞南镇"},{"poiid":"B2094757D06BA3FE499C","title":"淞南八村","lon":"121.487","lat":"31.3413","category":"252","category_name":"楼宇机构","address":"长江南路143号"},{"poiid":"B2094654D46AA1FF4199","title":"新逸仙公寓","lon":"121.49521","lat":"31.346046","category":"47","category_name":"住宅区","address":"新逸仙公寓位于宝山逸仙路靠近长江路"},{"poiid":"B2094655D36DA7FD4398","title":"张华浜","lon":"121.50039","lat":"31.35498","category":"38","category_name":"公交车站","address":""},{"poiid":"B2094757D06AA3F54792","title":"鹏程花苑","lon":"121.495","lat":"31.3436","category":"252","category_name":"楼宇机构","address":"上海长逸路388弄"},{"poiid":"B2094757D568A6FA4099","title":"尚城汇景园","lon":"121.50172","lat":"31.347908","category":"47","category_name":"住宅区","address":"逸仙路3508弄"},{"poiid":"B2094757D068A4FB4192","title":"复旦大学江湾校区李兆基图书馆","lon":"121.50644591","lat":"31.3361329136","category":"253","category_name":"校园生活","address":"上海杨浦区淞沪路2005号"},{"poiid":"B2094655D36DA6FF439C","title":"淞发路","lon":"121.50057","lat":"31.34467","category":"38","category_name":"公交车站","address":""},{"poiid":"B2094757D068AAFA4792","title":"复旦软件园","lon":"121.494193","lat":"31.339586","category":"500","category_name":"未知分类","address":"上海宝山区长逸路15号"},{"poiid":"B2094757D069AAF4479A","title":"淞南镇社区卫生服务中心","lon":"121.48908448","lat":"31.342121041","category":"162","category_name":"医院","address":"宝山区淞良路301号(近淞南公园)"},{"poiid":"B2094757D064A2F8419C","title":"淞南中心校","lon":"121.496860003","lat":"31.3464195122","category":"253","category_name":"校园生活","address":"宝山区华浜新村168号"},{"poiid":"B2094757D165A2F44293","title":"952路吴淞码头","lon":"121.4993664","lat":"31.34632481","category":"500","category_name":"未知分类","address":"上海吴淞码头站。"},{"poiid":"B2094757D16CA3FD479F","title":"上海邮政张华浜培训基地","lon":"121.502416","lat":"31.351685","category":"500","category_name":"未知分类","address":"上海逸仙路3777号"},{"poiid":"B2094757D16CA4FE4192","title":"依乐新天地幼儿园","lon":"121.49639129","lat":"31.347913653","category":"57","category_name":"幼儿园","address":"上海市宝山区淞南镇华浜二村142号"},{"poiid":"B2094757D465A1FC489B","title":"逸园味仙阁","lon":"121.50123","lat":"31.34717","category":"76","category_name":"上海菜","address":"宝山区逸仙路3456弄18号(近轻轨三号线淞发路站)"},{"poiid":"B2094654D46AA1FF439B","title":"群海足疗保健中心","lon":"121.49646","lat":"31.34384","category":"149","category_name":"洗浴推拿场所","address":"宝山区淞发路69号"},{"poiid":"B2094654D46AA1FF429B","title":"靓肤源宝山店","lon":"121.50066","lat":"31.34732","category":"148","category_name":"美容美发店","address":""},{"poiid":"B2094757D569A6FF4098","title":"万临家园","lon":"121.48648","lat":"31.342659","category":"47","category_name":"住宅区","address":"淞发路500弄"},{"poiid":"B2094757D66CA3FE4393","title":"東京站","lon":"121.501466831","lat":"31.3487941304","category":"500","category_name":"未知分类","address":"JR 東京站 日本"},{"poiid":"B2094757D66EA0F54593","title":"好饿","lon":"121.500372103","lat":"31.3465700153","category":"500","category_name":"未知分类","address":"上海回家路上"},{"poiid":"B2094757D66BA7F5499A","title":"老北京热气涮羊肉","lon":"121.48841","lat":"31.3422","category":"86","category_name":"火锅店","address":"杨浦区国和路971号"},{"poiid":"B2094750DB6CA3F5439C","title":"新江湾尚景苑","lon":"121.497032","lat":"31.341075","category":"47","category_name":"住宅区","address":"国权北路1450弄"},{"poiid":"B2094757D168AAFB4098","title":"上海铁路局北郊站何家湾货运办理中心","lon":"121.500597103","lat":"31.3432537459","category":"500","category_name":"未知分类","address":"上海逸仙路3001号"},{"poiid":"B2094750DA6EA6F8469E","title":"炫音KTV(淞南店)","lon":"121.490638","lat":"31.337848","category":"170","category_name":"KTV","address":"宝山区长逸路258号3幢海伦精致生活广场3楼01-14室"},{"poiid":"B2094757D06AA1FB499E","title":"永琪美容美发(淞南店)","lon":"121.49165","lat":"31.34391","category":"148","category_name":"美容美发店","address":"上海宝山区淞南路(近淞发路)"},{"poiid":"B2094757D065A7F84399","title":"逸仙公寓","lon":"121.505","lat":"31.3528","category":"252","category_name":"楼宇机构","address":"上海逸仙路3458弄"},{"poiid":"B2094757D56EA5F5439C","title":"淞发路站1号口(地铁3号线)","lon":"121.4996","lat":"31.343661","category":"251","category_name":"出行住宿","address":"中国上海市宝山区逸仙路"}]