[{"poiid":"B2094654DB6AA6FF4699","title":"上海豫园万丽酒店","lon":"121.48799","lat":"31.22754","category":"213","category_name":"五星级宾馆","address":"上海黄浦区河南南路159号(近福佑路)"},{"poiid":"B2094757D66FA6FA459E","title":"城隍庙豫园老街","lon":"121.487217235","lat":"31.2276862092","category":"260","category_name":"其他","address":"上海市黄浦区福佑路"},{"poiid":"B2094757D065AAF84892","title":"上海老飯店","lon":"121.490577698","lat":"31.2276554108","category":"75","category_name":"浙江菜","address":"黄浦区福佑路242号"},{"poiid":"B2094753D76FAAFA449C","title":"上海滩国泰旗舰店","lon":"121.466011","lat":"31.216125","category":"249","category_name":"购物服务","address":"淮海中路868号"},{"poiid":"B209475CD564A7F84292","title":"上海滩新天地店","lon":"121.47463","lat":"31.22164","category":"119","category_name":"商场","address":"\"太仓路181弄新天地北里15号\r\n\""},{"poiid":"B209475CD564A7F84392","title":"上海滩浦东香格里拉店","lon":"121.50058","lat":"31.23634","category":"119","category_name":"商场","address":"浦东富成路33号香格里拉酒店内大堂层"},{"poiid":"B2094757D06FA6F4449A","title":"城隍庙第一购物中心","lon":"121.490396152","lat":"31.229039814","category":"119","category_name":"商场","address":"黄浦区丽水路88号城隍珠宝内(近城隍庙)"},{"poiid":"B2094654DB6BA4F9449B","title":"豫园老街","lon":"121.49114","lat":"31.22713","category":"116","category_name":"特色商业街","address":"黄浦区福佑路238号豫园内(近河南南路)"},{"poiid":"B2094757D66FA6FA4898","title":"豫园地铁站","lon":"121.48740085","lat":"31.22813753","category":"36","category_name":"地铁站","address":"上海轨道交通 十号线 轨交豫园站 10"},{"poiid":"B2094654DB64AAF44592","title":"哈根达斯豫园店","lon":"121.49119","lat":"31.2269","category":"113","category_name":"冷饮店","address":"黄浦区方浜中路168号豫龙坊1楼L122A号商铺(近昼锦路)"},{"poiid":"B2094757D06FA0F5449B","title":"必胜客(丽水店)","lon":"121.490532","lat":"31.228192","category":"94","category_name":"西餐厅","address":"黄浦区丽水路69号(近福佑路)"},{"poiid":"B2094750D364A7F44998","title":"上海南京路步行街","lon":"121.488845","lat":"31.22718","category":"249","category_name":"购物服务","address":"黄浦区步行街"},{"poiid":"B2094654DB65AAF4439B","title":"麦当劳(豫园店)","lon":"121.49037","lat":"31.22825","category":"68","category_name":"快餐厅","address":"黄浦区丽水路88号城隍珠宝内(近城隍庙)"},{"poiid":"B2094757D06FA4FE499B","title":"亚一金店(城隍庙店)","lon":"121.49034347","lat":"31.2277079844","category":"131","category_name":"珠宝首饰工艺品","address":"黄浦区福佑路288号(福佑路旧校场路)查看地图"},{"poiid":"B2094757D164AAF8419B","title":"南翔饅頭店-長兴樓","lon":"121.49004573","lat":"31.22789725","category":"500","category_name":"未知分类","address":"上海城隍廟"},{"poiid":"B2094654DA6EA5F54699","title":"豫园商城","lon":"121.49107","lat":"31.22773","category":"119","category_name":"商场","address":"黄浦区方浜中路269号(近城隍庙豫龙坊)"},{"poiid":"B2094655D26AA4FA479B","title":"万丽轩豫园万丽店","lon":"121.48799","lat":"31.22753","category":"72","category_name":"广东菜","address":"黄浦区河南南路159号豫园万丽大酒店4楼(河南南路吴家弄)"},{"poiid":"B2094757D069A0F84693","title":"豫园站","lon":"121.48705573","lat":"31.228868271","category":"500","category_name":"未知分类","address":"上海地铁十号线"},{"poiid":"B2094757D164A0FB4199","title":"南外滩","lon":"121.487013338","lat":"31.2261241126","category":"500","category_name":"未知分类","address":"上海中山东路"},{"poiid":"B2094654DA6EA5F54992","title":"福佑门小商品市场","lon":"121.48796","lat":"31.22811","category":"120","category_name":"小商品市场","address":"黄浦区福佑路427号(近河南南路)"},{"poiid":"B2094655D36DA6FF489C","title":"豫-上海","lon":"121.4909","lat":"31.22678","category":"72","category_name":"广东菜","address":"黄浦区旧校场路69号悦宾楼3楼(近沉香阁路)"},{"poiid":"B2094757D16CA0FC4398","title":"海上旧梦西餐厅","lon":"121.486337638","lat":"31.2285204637","category":"94","category_name":"西餐厅","address":"黄浦区金陵东路229号新上海城市广场2楼(河南南路口)"},{"poiid":"B2094757D068A7F8429A","title":"老凤祥银楼(福佑路店)","lon":"121.49116","lat":"31.22737","category":"500","category_name":"未知分类","address":"黄浦区福佑路239号1-3楼(近旧校场路)查看地图"},{"poiid":"B2094757D06FA1FA449D","title":"城隍庙小商品市场","lon":"121.49124873","lat":"31.226930229","category":"249","category_name":"购物服务","address":"上海福佑路"},{"poiid":"B2094654DA6EA4FC4399","title":"沈香阁","lon":"121.48999","lat":"31.22723","category":"244","category_name":"寺庙道观","address":"上海黄浦区沉香阁路29号(近福佑路)"},{"poiid":"B2094750D76EA0FF439D","title":"争鲜回转寿司(城隍庙店)","lon":"121.491","lat":"31.2262","category":"95","category_name":"日本料理","address":"黄浦区凝晖路39号(近豫园)"},{"poiid":"B2094751DA6CA0FC469C","title":"东京食尚","lon":"121.488815","lat":"31.227142","category":"247","category_name":"餐饮美食","address":"香港广场B1"},{"poiid":"B2094750D76FAAFF4198","title":"豫园万丽咖啡厅","lon":"121.488","lat":"31.2276","category":"268","category_name":"自助","address":"黄浦区河南南路159号豫园万丽大酒店4楼(近福佑路)"},{"poiid":"B2094751D364A2FE489E","title":"沉香阁","lon":"121.490036","lat":"31.227","category":"607","category_name":"一般景点","address":"黄浦区沉香阁路29号(近福佑路)"},{"poiid":"B2094757D069A4FF479E","title":"上海浦东保时捷中心","lon":"121.48821252","lat":"31.227043831","category":"158","category_name":"汽车销售","address":"上海浦东新区东方路1215－1217号陆家嘴软件园11号楼b楼一至二层"},{"poiid":"B2094751DA6AAAF84592","title":"宜山路地铁站","lon":"121.488866","lat":"31.227196","category":"36","category_name":"地铁站","address":"宜山路"},{"poiid":"B2094757D464AAF5479B","title":"吴越人家 豫园店","lon":"121.49135","lat":"31.22776","category":"68","category_name":"快餐厅","address":"黄浦区福佑路234号豫园2楼(近KFC)"},{"poiid":"B2094752D264ABFE499B","title":"藏珑泰厨","lon":"121.488815","lat":"31.227142","category":"247","category_name":"餐饮美食","address":"南京西路818广场"},{"poiid":"B2094757D468ABF84093","title":"避风塘 侯家路店","lon":"121.489356054","lat":"31.226734793","category":"113","category_name":"冷饮店","address":"黄浦区侯家路143号(近紫华路)"},{"poiid":"B2094757D16CA6FC4792","title":"枫泾古镇","lon":"121.48912273","lat":"31.227335238","category":"500","category_name":"未知分类","address":"上海金山"},{"poiid":"B2094757D16FA3FF449A","title":"豫.上海。悅賓樓","lon":"121.489531738","lat":"31.225862207","category":"500","category_name":"未知分类","address":"上海市黄浦区人民路"},{"poiid":"B2094654DA6EA4FC419F","title":"豫园小商品","lon":"121.48878","lat":"31.22757","category":"120","category_name":"小商品市场","address":"福佑路368识别"},{"poiid":"B2094750D36EAAF44699","title":"上海话剧艺术中心","lon":"121.491188","lat":"31.2268","category":"248","category_name":"生活娱乐","address":"安福路288号"},{"poiid":"B2094655D26EA7F84892","title":"吴家弄小吃","lon":"121.48898","lat":"31.22713","category":"68","category_name":"快餐厅","address":"吴家弄8号"},{"poiid":"B209475CD66CA4FE4893","title":"串趣成都串串香","lon":"121.488548","lat":"31.226491","category":"247","category_name":"餐饮美食","address":"上海市 上海黄浦区浙江南路48号"},{"poiid":"B2094757D168A6F5489C","title":"真德桂林米粉","lon":"121.48936973","lat":"31.22743324","category":"247","category_name":"餐饮美食","address":"黄浦区汉口路345号(山东中路和山西南路间)"},{"poiid":"B2094752D16FA4FB4698","title":"上海浦东机场","lon":"121.486963","lat":"31.227528","category":"627","category_name":"一般地点标志","address":null},{"poiid":"B2094655D26EA1FA4293","title":"避风塘福水缘茶楼","lon":"121.48905","lat":"31.22852","category":"66","category_name":"茶艺馆","address":"福佑路333号2层"},{"poiid":"B2094753DB68A3F9469D","title":"上海一九叁三（老场坊）BOBO","lon":"121.48954","lat":"31.227466","category":"247","category_name":"餐饮美食","address":"上海市 上海虹口区溧阳路611号1933老场坊1-305室"},{"poiid":"B2094750D16AA2FC439E","title":"轨道交通10号线豫园路站","lon":"121.4874028969","lat":"31.228092111481","category":"36","category_name":"地铁站","address":"轨道交通10号线豫园路站"},{"poiid":"B2094757D66EA1FC479C","title":"上海大飯堂(光大店)","lon":"121.489200738","lat":"31.2267752265","category":"247","category_name":"餐饮美食","address":"上海徐匯區康健路"},{"poiid":"B2094654DA6EA4FC429B","title":"豫园小商品(东门)","lon":"121.48908","lat":"31.2276","category":"120","category_name":"小商品市场","address":"侯家路18识别"},{"poiid":"B2094751D56BA6FB4799","title":"Iphone上海南京东路体验店","lon":"121.488815","lat":"31.227142","category":"500","category_name":"未知分类","address":null},{"poiid":"B2094757D569A2FB439C","title":"英皇明星城","lon":"121.48788981","lat":"31.22709717","category":"47","category_name":"住宅区","address":"河南南路175"},{"poiid":"B2094752D265A6FC449E","title":"斯利美甜品店","lon":"121.488815","lat":"31.227142","category":"500","category_name":"未知分类","address":null},{"poiid":"B2094654DB6AA6FF4699","title":"上海豫园万丽酒店","lon":"121.48799","lat":"31.22754","category":"213","category_name":"五星级宾馆","address":"上海黄浦区河南南路159号(近福佑路)"},{"poiid":"B2094757D66FA6FA459E","title":"城隍庙豫园老街","lon":"121.487217235","lat":"31.2276862092","category":"260","category_name":"其他","address":"上海市黄浦区福佑路"},{"poiid":"B2094757D065AAF84892","title":"上海老飯店","lon":"121.490577698","lat":"31.2276554108","category":"75","category_name":"浙江菜","address":"黄浦区福佑路242号"},{"poiid":"B2094753D76FAAFA449C","title":"上海滩国泰旗舰店","lon":"121.466011","lat":"31.216125","category":"249","category_name":"购物服务","address":"淮海中路868号"},{"poiid":"B209475CD564A7F84292","title":"上海滩新天地店","lon":"121.47463","lat":"31.22164","category":"119","category_name":"商场","address":"\"太仓路181弄新天地北里15号\r\n\""},{"poiid":"B209475CD564A7F84392","title":"上海滩浦东香格里拉店","lon":"121.50058","lat":"31.23634","category":"119","category_name":"商场","address":"浦东富成路33号香格里拉酒店内大堂层"},{"poiid":"B2094757D06FA6F4449A","title":"城隍庙第一购物中心","lon":"121.490396152","lat":"31.229039814","category":"119","category_name":"商场","address":"黄浦区丽水路88号城隍珠宝内(近城隍庙)"},{"poiid":"B2094654DB6BA4F9449B","title":"豫园老街","lon":"121.49114","lat":"31.22713","category":"116","category_name":"特色商业街","address":"黄浦区福佑路238号豫园内(近河南南路)"},{"poiid":"B2094757D66FA6FA4898","title":"豫园地铁站","lon":"121.48740085","lat":"31.22813753","category":"36","category_name":"地铁站","address":"上海轨道交通 十号线 轨交豫园站 10"},{"poiid":"B2094654DB64AAF44592","title":"哈根达斯豫园店","lon":"121.49119","lat":"31.2269","category":"113","category_name":"冷饮店","address":"黄浦区方浜中路168号豫龙坊1楼L122A号商铺(近昼锦路)"},{"poiid":"B2094757D06FA0F5449B","title":"必胜客(丽水店)","lon":"121.490532","lat":"31.228192","category":"94","category_name":"西餐厅","address":"黄浦区丽水路69号(近福佑路)"},{"poiid":"B2094750D364A7F44998","title":"上海南京路步行街","lon":"121.488845","lat":"31.22718","category":"249","category_name":"购物服务","address":"黄浦区步行街"},{"poiid":"B2094654DB65AAF4439B","title":"麦当劳(豫园店)","lon":"121.49037","lat":"31.22825","category":"68","category_name":"快餐厅","address":"黄浦区丽水路88号城隍珠宝内(近城隍庙)"},{"poiid":"B2094757D06FA4FE499B","title":"亚一金店(城隍庙店)","lon":"121.49034347","lat":"31.2277079844","category":"131","category_name":"珠宝首饰工艺品","address":"黄浦区福佑路288号(福佑路旧校场路)查看地图"},{"poiid":"B2094757D164AAF8419B","title":"南翔饅頭店-長兴樓","lon":"121.49004573","lat":"31.22789725","category":"500","category_name":"未知分类","address":"上海城隍廟"},{"poiid":"B2094654DA6EA5F54699","title":"豫园商城","lon":"121.49107","lat":"31.22773","category":"119","category_name":"商场","address":"黄浦区方浜中路269号(近城隍庙豫龙坊)"},{"poiid":"B2094655D26AA4FA479B","title":"万丽轩豫园万丽店","lon":"121.48799","lat":"31.22753","category":"72","category_name":"广东菜","address":"黄浦区河南南路159号豫园万丽大酒店4楼(河南南路吴家弄)"},{"poiid":"B2094757D069A0F84693","title":"豫园站","lon":"121.48705573","lat":"31.228868271","category":"500","category_name":"未知分类","address":"上海地铁十号线"},{"poiid":"B2094757D164A0FB4199","title":"南外滩","lon":"121.487013338","lat":"31.2261241126","category":"500","category_name":"未知分类","address":"上海中山东路"},{"poiid":"B2094654DA6EA5F54992","title":"福佑门小商品市场","lon":"121.48796","lat":"31.22811","category":"120","category_name":"小商品市场","address":"黄浦区福佑路427号(近河南南路)"},{"poiid":"B2094655D36DA6FF489C","title":"豫-上海","lon":"121.4909","lat":"31.22678","category":"72","category_name":"广东菜","address":"黄浦区旧校场路69号悦宾楼3楼(近沉香阁路)"},{"poiid":"B2094757D16CA0FC4398","title":"海上旧梦西餐厅","lon":"121.486337638","lat":"31.2285204637","category":"94","category_name":"西餐厅","address":"黄浦区金陵东路229号新上海城市广场2楼(河南南路口)"},{"poiid":"B2094757D068A7F8429A","title":"老凤祥银楼(福佑路店)","lon":"121.49116","lat":"31.22737","category":"500","category_name":"未知分类","address":"黄浦区福佑路239号1-3楼(近旧校场路)查看地图"},{"poiid":"B2094757D06FA1FA449D","title":"城隍庙小商品市场","lon":"121.49124873","lat":"31.226930229","category":"249","category_name":"购物服务","address":"上海福佑路"},{"poiid":"B2094654DA6EA4FC4399","title":"沈香阁","lon":"121.48999","lat":"31.22723","category":"244","category_name":"寺庙道观","address":"上海黄浦区沉香阁路29号(近福佑路)"},{"poiid":"B2094750D76EA0FF439D","title":"争鲜回转寿司(城隍庙店)","lon":"121.491","lat":"31.2262","category":"95","category_name":"日本料理","address":"黄浦区凝晖路39号(近豫园)"},{"poiid":"B2094751DA6CA0FC469C","title":"东京食尚","lon":"121.488815","lat":"31.227142","category":"247","category_name":"餐饮美食","address":"香港广场B1"},{"poiid":"B2094750D76FAAFF4198","title":"豫园万丽咖啡厅","lon":"121.488","lat":"31.2276","category":"268","category_name":"自助","address":"黄浦区河南南路159号豫园万丽大酒店4楼(近福佑路)"},{"poiid":"B2094751D364A2FE489E","title":"沉香阁","lon":"121.490036","lat":"31.227","category":"607","category_name":"一般景点","address":"黄浦区沉香阁路29号(近福佑路)"},{"poiid":"B2094757D069A4FF479E","title":"上海浦东保时捷中心","lon":"121.48821252","lat":"31.227043831","category":"158","category_name":"汽车销售","address":"上海浦东新区东方路1215－1217号陆家嘴软件园11号楼b楼一至二层"},{"poiid":"B2094751DA6AAAF84592","title":"宜山路地铁站","lon":"121.488866","lat":"31.227196","category":"36","category_name":"地铁站","address":"宜山路"},{"poiid":"B2094757D464AAF5479B","title":"吴越人家 豫园店","lon":"121.49135","lat":"31.22776","category":"68","category_name":"快餐厅","address":"黄浦区福佑路234号豫园2楼(近KFC)"},{"poiid":"B2094752D264ABFE499B","title":"藏珑泰厨","lon":"121.488815","lat":"31.227142","category":"247","category_name":"餐饮美食","address":"南京西路818广场"},{"poiid":"B2094757D468ABF84093","title":"避风塘 侯家路店","lon":"121.489356054","lat":"31.226734793","category":"113","category_name":"冷饮店","address":"黄浦区侯家路143号(近紫华路)"},{"poiid":"B2094757D16CA6FC4792","title":"枫泾古镇","lon":"121.48912273","lat":"31.227335238","category":"500","category_name":"未知分类","address":"上海金山"},{"poiid":"B2094757D16FA3FF449A","title":"豫.上海。悅賓樓","lon":"121.489531738","lat":"31.225862207","category":"500","category_name":"未知分类","address":"上海市黄浦区人民路"},{"poiid":"B2094654DA6EA4FC419F","title":"豫园小商品","lon":"121.48878","lat":"31.22757","category":"120","category_name":"小商品市场","address":"福佑路368识别"},{"poiid":"B2094750D36EAAF44699","title":"上海话剧艺术中心","lon":"121.491188","lat":"31.2268","category":"248","category_name":"生活娱乐","address":"安福路288号"},{"poiid":"B2094655D26EA7F84892","title":"吴家弄小吃","lon":"121.48898","lat":"31.22713","category":"68","category_name":"快餐厅","address":"吴家弄8号"},{"poiid":"B209475CD66CA4FE4893","title":"串趣成都串串香","lon":"121.488548","lat":"31.226491","category":"247","category_name":"餐饮美食","address":"上海市 上海黄浦区浙江南路48号"},{"poiid":"B2094757D168A6F5489C","title":"真德桂林米粉","lon":"121.48936973","lat":"31.22743324","category":"247","category_name":"餐饮美食","address":"黄浦区汉口路345号(山东中路和山西南路间)"},{"poiid":"B2094752D16FA4FB4698","title":"上海浦东机场","lon":"121.486963","lat":"31.227528","category":"627","category_name":"一般地点标志","address":null},{"poiid":"B2094655D26EA1FA4293","title":"避风塘福水缘茶楼","lon":"121.48905","lat":"31.22852","category":"66","category_name":"茶艺馆","address":"福佑路333号2层"},{"poiid":"B2094753DB68A3F9469D","title":"上海一九叁三（老场坊）BOBO","lon":"121.48954","lat":"31.227466","category":"247","category_name":"餐饮美食","address":"上海市 上海虹口区溧阳路611号1933老场坊1-305室"},{"poiid":"B2094750D16AA2FC439E","title":"轨道交通10号线豫园路站","lon":"121.4874028969","lat":"31.228092111481","category":"36","category_name":"地铁站","address":"轨道交通10号线豫园路站"},{"poiid":"B2094757D66EA1FC479C","title":"上海大飯堂(光大店)","lon":"121.489200738","lat":"31.2267752265","category":"247","category_name":"餐饮美食","address":"上海徐匯區康健路"},{"poiid":"B2094654DA6EA4FC429B","title":"豫园小商品(东门)","lon":"121.48908","lat":"31.2276","category":"120","category_name":"小商品市场","address":"侯家路18识别"},{"poiid":"B2094751D56BA6FB4799","title":"Iphone上海南京东路体验店","lon":"121.488815","lat":"31.227142","category":"500","category_name":"未知分类","address":null},{"poiid":"B2094757D569A2FB439C","title":"英皇明星城","lon":"121.48788981","lat":"31.22709717","category":"47","category_name":"住宅区","address":"河南南路175"},{"poiid":"B2094752D265A6FC449E","title":"斯利美甜品店","lon":"121.488815","lat":"31.227142","category":"500","category_name":"未知分类","address":null},{"poiid":"B2094654DB6AA6FF4699","title":"上海豫园万丽酒店","lon":"121.48799","lat":"31.22754","category":"213","category_name":"五星级宾馆","address":"上海黄浦区河南南路159号(近福佑路)"},{"poiid":"B2094757D66FA6FA459E","title":"城隍庙豫园老街","lon":"121.487217235","lat":"31.2276862092","category":"260","category_name":"其他","address":"上海市黄浦区福佑路"},{"poiid":"B2094757D065AAF84892","title":"上海老飯店","lon":"121.490577698","lat":"31.2276554108","category":"75","category_name":"浙江菜","address":"黄浦区福佑路242号"},{"poiid":"B2094753D76FAAFA449C","title":"上海滩国泰旗舰店","lon":"121.466011","lat":"31.216125","category":"249","category_name":"购物服务","address":"淮海中路868号"},{"poiid":"B209475CD564A7F84292","title":"上海滩新天地店","lon":"121.47463","lat":"31.22164","category":"119","category_name":"商场","address":"\"太仓路181弄新天地北里15号\r\n\""},{"poiid":"B209475CD564A7F84392","title":"上海滩浦东香格里拉店","lon":"121.50058","lat":"31.23634","category":"119","category_name":"商场","address":"浦东富成路33号香格里拉酒店内大堂层"},{"poiid":"B2094757D06FA6F4449A","title":"城隍庙第一购物中心","lon":"121.490396152","lat":"31.229039814","category":"119","category_name":"商场","address":"黄浦区丽水路88号城隍珠宝内(近城隍庙)"},{"poiid":"B2094654DB6BA4F9449B","title":"豫园老街","lon":"121.49114","lat":"31.22713","category":"116","category_name":"特色商业街","address":"黄浦区福佑路238号豫园内(近河南南路)"},{"poiid":"B2094757D66FA6FA4898","title":"豫园地铁站","lon":"121.48740085","lat":"31.22813753","category":"36","category_name":"地铁站","address":"上海轨道交通 十号线 轨交豫园站 10"},{"poiid":"B2094654DB64AAF44592","title":"哈根达斯豫园店","lon":"121.49119","lat":"31.2269","category":"113","category_name":"冷饮店","address":"黄浦区方浜中路168号豫龙坊1楼L122A号商铺(近昼锦路)"},{"poiid":"B2094757D06FA0F5449B","title":"必胜客(丽水店)","lon":"121.490532","lat":"31.228192","category":"94","category_name":"西餐厅","address":"黄浦区丽水路69号(近福佑路)"},{"poiid":"B2094750D364A7F44998","title":"上海南京路步行街","lon":"121.488845","lat":"31.22718","category":"249","category_name":"购物服务","address":"黄浦区步行街"},{"poiid":"B2094654DB65AAF4439B","title":"麦当劳(豫园店)","lon":"121.49037","lat":"31.22825","category":"68","category_name":"快餐厅","address":"黄浦区丽水路88号城隍珠宝内(近城隍庙)"},{"poiid":"B2094757D06FA4FE499B","title":"亚一金店(城隍庙店)","lon":"121.49034347","lat":"31.2277079844","category":"131","category_name":"珠宝首饰工艺品","address":"黄浦区福佑路288号(福佑路旧校场路)查看地图"},{"poiid":"B2094757D164AAF8419B","title":"南翔饅頭店-長兴樓","lon":"121.49004573","lat":"31.22789725","category":"500","category_name":"未知分类","address":"上海城隍廟"},{"poiid":"B2094654DA6EA5F54699","title":"豫园商城","lon":"121.49107","lat":"31.22773","category":"119","category_name":"商场","address":"黄浦区方浜中路269号(近城隍庙豫龙坊)"},{"poiid":"B2094655D26AA4FA479B","title":"万丽轩豫园万丽店","lon":"121.48799","lat":"31.22753","category":"72","category_name":"广东菜","address":"黄浦区河南南路159号豫园万丽大酒店4楼(河南南路吴家弄)"},{"poiid":"B2094757D069A0F84693","title":"豫园站","lon":"121.48705573","lat":"31.228868271","category":"500","category_name":"未知分类","address":"上海地铁十号线"},{"poiid":"B2094757D164A0FB4199","title":"南外滩","lon":"121.487013338","lat":"31.2261241126","category":"500","category_name":"未知分类","address":"上海中山东路"},{"poiid":"B2094654DA6EA5F54992","title":"福佑门小商品市场","lon":"121.48796","lat":"31.22811","category":"120","category_name":"小商品市场","address":"黄浦区福佑路427号(近河南南路)"},{"poiid":"B2094655D36DA6FF489C","title":"豫-上海","lon":"121.4909","lat":"31.22678","category":"72","category_name":"广东菜","address":"黄浦区旧校场路69号悦宾楼3楼(近沉香阁路)"},{"poiid":"B2094757D16CA0FC4398","title":"海上旧梦西餐厅","lon":"121.486337638","lat":"31.2285204637","category":"94","category_name":"西餐厅","address":"黄浦区金陵东路229号新上海城市广场2楼(河南南路口)"},{"poiid":"B2094757D068A7F8429A","title":"老凤祥银楼(福佑路店)","lon":"121.49116","lat":"31.22737","category":"500","category_name":"未知分类","address":"黄浦区福佑路239号1-3楼(近旧校场路)查看地图"},{"poiid":"B2094757D06FA1FA449D","title":"城隍庙小商品市场","lon":"121.49124873","lat":"31.226930229","category":"249","category_name":"购物服务","address":"上海福佑路"},{"poiid":"B2094654DA6EA4FC4399","title":"沈香阁","lon":"121.48999","lat":"31.22723","category":"244","category_name":"寺庙道观","address":"上海黄浦区沉香阁路29号(近福佑路)"},{"poiid":"B2094750D76EA0FF439D","title":"争鲜回转寿司(城隍庙店)","lon":"121.491","lat":"31.2262","category":"95","category_name":"日本料理","address":"黄浦区凝晖路39号(近豫园)"},{"poiid":"B2094751DA6CA0FC469C","title":"东京食尚","lon":"121.488815","lat":"31.227142","category":"247","category_name":"餐饮美食","address":"香港广场B1"},{"poiid":"B2094750D76FAAFF4198","title":"豫园万丽咖啡厅","lon":"121.488","lat":"31.2276","category":"268","category_name":"自助","address":"黄浦区河南南路159号豫园万丽大酒店4楼(近福佑路)"},{"poiid":"B2094751D364A2FE489E","title":"沉香阁","lon":"121.490036","lat":"31.227","category":"607","category_name":"一般景点","address":"黄浦区沉香阁路29号(近福佑路)"},{"poiid":"B2094757D069A4FF479E","title":"上海浦东保时捷中心","lon":"121.48821252","lat":"31.227043831","category":"158","category_name":"汽车销售","address":"上海浦东新区东方路1215－1217号陆家嘴软件园11号楼b楼一至二层"},{"poiid":"B2094751DA6AAAF84592","title":"宜山路地铁站","lon":"121.488866","lat":"31.227196","category":"36","category_name":"地铁站","address":"宜山路"},{"poiid":"B2094757D464AAF5479B","title":"吴越人家 豫园店","lon":"121.49135","lat":"31.22776","category":"68","category_name":"快餐厅","address":"黄浦区福佑路234号豫园2楼(近KFC)"},{"poiid":"B2094752D264ABFE499B","title":"藏珑泰厨","lon":"121.488815","lat":"31.227142","category":"247","category_name":"餐饮美食","address":"南京西路818广场"},{"poiid":"B2094757D468ABF84093","title":"避风塘 侯家路店","lon":"121.489356054","lat":"31.226734793","category":"113","category_name":"冷饮店","address":"黄浦区侯家路143号(近紫华路)"},{"poiid":"B2094757D16CA6FC4792","title":"枫泾古镇","lon":"121.48912273","lat":"31.227335238","category":"500","category_name":"未知分类","address":"上海金山"},{"poiid":"B2094757D16FA3FF449A","title":"豫.上海。悅賓樓","lon":"121.489531738","lat":"31.225862207","category":"500","category_name":"未知分类","address":"上海市黄浦区人民路"},{"poiid":"B2094654DA6EA4FC419F","title":"豫园小商品","lon":"121.48878","lat":"31.22757","category":"120","category_name":"小商品市场","address":"福佑路368识别"},{"poiid":"B2094750D36EAAF44699","title":"上海话剧艺术中心","lon":"121.491188","lat":"31.2268","category":"248","category_name":"生活娱乐","address":"安福路288号"},{"poiid":"B2094655D26EA7F84892","title":"吴家弄小吃","lon":"121.48898","lat":"31.22713","category":"68","category_name":"快餐厅","address":"吴家弄8号"},{"poiid":"B209475CD66CA4FE4893","title":"串趣成都串串香","lon":"121.488548","lat":"31.226491","category":"247","category_name":"餐饮美食","address":"上海市 上海黄浦区浙江南路48号"},{"poiid":"B2094757D168A6F5489C","title":"真德桂林米粉","lon":"121.48936973","lat":"31.22743324","category":"247","category_name":"餐饮美食","address":"黄浦区汉口路345号(山东中路和山西南路间)"},{"poiid":"B2094752D16FA4FB4698","title":"上海浦东机场","lon":"121.486963","lat":"31.227528","category":"627","category_name":"一般地点标志","address":null},{"poiid":"B2094655D26EA1FA4293","title":"避风塘福水缘茶楼","lon":"121.48905","lat":"31.22852","category":"66","category_name":"茶艺馆","address":"福佑路333号2层"},{"poiid":"B2094753DB68A3F9469D","title":"上海一九叁三（老场坊）BOBO","lon":"121.48954","lat":"31.227466","category":"247","category_name":"餐饮美食","address":"上海市 上海虹口区溧阳路611号1933老场坊1-305室"},{"poiid":"B2094750D16AA2FC439E","title":"轨道交通10号线豫园路站","lon":"121.4874028969","lat":"31.228092111481","category":"36","category_name":"地铁站","address":"轨道交通10号线豫园路站"},{"poiid":"B2094757D66EA1FC479C","title":"上海大飯堂(光大店)","lon":"121.489200738","lat":"31.2267752265","category":"247","category_name":"餐饮美食","address":"上海徐匯區康健路"},{"poiid":"B2094654DA6EA4FC429B","title":"豫园小商品(东门)","lon":"121.48908","lat":"31.2276","category":"120","category_name":"小商品市场","address":"侯家路18识别"},{"poiid":"B2094751D56BA6FB4799","title":"Iphone上海南京东路体验店","lon":"121.488815","lat":"31.227142","category":"500","category_name":"未知分类","address":null},{"poiid":"B2094757D569A2FB439C","title":"英皇明星城","lon":"121.48788981","lat":"31.22709717","category":"47","category_name":"住宅区","address":"河南南路175"},{"poiid":"B2094752D265A6FC449E","title":"斯利美甜品店","lon":"121.488815","lat":"31.227142","category":"500","category_name":"未知分类","address":null},{"poiid":"B2094654DB6AA6FF4699","title":"上海豫园万丽酒店","lon":"121.48799","lat":"31.22754","category":"213","category_name":"五星级宾馆","address":"上海黄浦区河南南路159号(近福佑路)"},{"poiid":"B2094757D66FA6FA459E","title":"城隍庙豫园老街","lon":"121.487217235","lat":"31.2276862092","category":"260","category_name":"其他","address":"上海市黄浦区福佑路"},{"poiid":"B2094757D065AAF84892","title":"上海老飯店","lon":"121.490577698","lat":"31.2276554108","category":"75","category_name":"浙江菜","address":"黄浦区福佑路242号"},{"poiid":"B2094753D76FAAFA449C","title":"上海滩国泰旗舰店","lon":"121.466011","lat":"31.216125","category":"249","category_name":"购物服务","address":"淮海中路868号"},{"poiid":"B209475CD564A7F84292","title":"上海滩新天地店","lon":"121.47463","lat":"31.22164","category":"119","category_name":"商场","address":"\"太仓路181弄新天地北里15号\r\n\""},{"poiid":"B209475CD564A7F84392","title":"上海滩浦东香格里拉店","lon":"121.50058","lat":"31.23634","category":"119","category_name":"商场","address":"浦东富成路33号香格里拉酒店内大堂层"},{"poiid":"B2094757D06FA6F4449A","title":"城隍庙第一购物中心","lon":"121.490396152","lat":"31.229039814","category":"119","category_name":"商场","address":"黄浦区丽水路88号城隍珠宝内(近城隍庙)"},{"poiid":"B2094654DB6BA4F9449B","title":"豫园老街","lon":"121.49114","lat":"31.22713","category":"116","category_name":"特色商业街","address":"黄浦区福佑路238号豫园内(近河南南路)"},{"poiid":"B2094757D66FA6FA4898","title":"豫园地铁站","lon":"121.48740085","lat":"31.22813753","category":"36","category_name":"地铁站","address":"上海轨道交通 十号线 轨交豫园站 10"},{"poiid":"B2094654DB64AAF44592","title":"哈根达斯豫园店","lon":"121.49119","lat":"31.2269","category":"113","category_name":"冷饮店","address":"黄浦区方浜中路168号豫龙坊1楼L122A号商铺(近昼锦路)"},{"poiid":"B2094757D06FA0F5449B","title":"必胜客(丽水店)","lon":"121.490532","lat":"31.228192","category":"94","category_name":"西餐厅","address":"黄浦区丽水路69号(近福佑路)"},{"poiid":"B2094750D364A7F44998","title":"上海南京路步行街","lon":"121.488845","lat":"31.22718","category":"249","category_name":"购物服务","address":"黄浦区步行街"},{"poiid":"B2094654DB65AAF4439B","title":"麦当劳(豫园店)","lon":"121.49037","lat":"31.22825","category":"68","category_name":"快餐厅","address":"黄浦区丽水路88号城隍珠宝内(近城隍庙)"},{"poiid":"B2094757D06FA4FE499B","title":"亚一金店(城隍庙店)","lon":"121.49034347","lat":"31.2277079844","category":"131","category_name":"珠宝首饰工艺品","address":"黄浦区福佑路288号(福佑路旧校场路)查看地图"},{"poiid":"B2094757D164AAF8419B","title":"南翔饅頭店-長兴樓","lon":"121.49004573","lat":"31.22789725","category":"500","category_name":"未知分类","address":"上海城隍廟"},{"poiid":"B2094654DA6EA5F54699","title":"豫园商城","lon":"121.49107","lat":"31.22773","category":"119","category_name":"商场","address":"黄浦区方浜中路269号(近城隍庙豫龙坊)"},{"poiid":"B2094655D26AA4FA479B","title":"万丽轩豫园万丽店","lon":"121.48799","lat":"31.22753","category":"72","category_name":"广东菜","address":"黄浦区河南南路159号豫园万丽大酒店4楼(河南南路吴家弄)"},{"poiid":"B2094757D069A0F84693","title":"豫园站","lon":"121.48705573","lat":"31.228868271","category":"500","category_name":"未知分类","address":"上海地铁十号线"},{"poiid":"B2094757D164A0FB4199","title":"南外滩","lon":"121.487013338","lat":"31.2261241126","category":"500","category_name":"未知分类","address":"上海中山东路"},{"poiid":"B2094654DA6EA5F54992","title":"福佑门小商品市场","lon":"121.48796","lat":"31.22811","category":"120","category_name":"小商品市场","address":"黄浦区福佑路427号(近河南南路)"},{"poiid":"B2094655D36DA6FF489C","title":"豫-上海","lon":"121.4909","lat":"31.22678","category":"72","category_name":"广东菜","address":"黄浦区旧校场路69号悦宾楼3楼(近沉香阁路)"},{"poiid":"B2094757D16CA0FC4398","title":"海上旧梦西餐厅","lon":"121.486337638","lat":"31.2285204637","category":"94","category_name":"西餐厅","address":"黄浦区金陵东路229号新上海城市广场2楼(河南南路口)"},{"poiid":"B2094757D068A7F8429A","title":"老凤祥银楼(福佑路店)","lon":"121.49116","lat":"31.22737","category":"500","category_name":"未知分类","address":"黄浦区福佑路239号1-3楼(近旧校场路)查看地图"},{"poiid":"B2094757D06FA1FA449D","title":"城隍庙小商品市场","lon":"121.49124873","lat":"31.226930229","category":"249","category_name":"购物服务","address":"上海福佑路"},{"poiid":"B2094654DA6EA4FC4399","title":"沈香阁","lon":"121.48999","lat":"31.22723","category":"244","category_name":"寺庙道观","address":"上海黄浦区沉香阁路29号(近福佑路)"},{"poiid":"B2094750D76EA0FF439D","title":"争鲜回转寿司(城隍庙店)","lon":"121.491","lat":"31.2262","category":"95","category_name":"日本料理","address":"黄浦区凝晖路39号(近豫园)"},{"poiid":"B2094751DA6CA0FC469C","title":"东京食尚","lon":"121.488815","lat":"31.227142","category":"247","category_name":"餐饮美食","address":"香港广场B1"},{"poiid":"B2094750D76FAAFF4198","title":"豫园万丽咖啡厅","lon":"121.488","lat":"31.2276","category":"268","category_name":"自助","address":"黄浦区河南南路159号豫园万丽大酒店4楼(近福佑路)"},{"poiid":"B2094751D364A2FE489E","title":"沉香阁","lon":"121.490036","lat":"31.227","category":"607","category_name":"一般景点","address":"黄浦区沉香阁路29号(近福佑路)"},{"poiid":"B2094757D069A4FF479E","title":"上海浦东保时捷中心","lon":"121.48821252","lat":"31.227043831","category":"158","category_name":"汽车销售","address":"上海浦东新区东方路1215－1217号陆家嘴软件园11号楼b楼一至二层"},{"poiid":"B2094751DA6AAAF84592","title":"宜山路地铁站","lon":"121.488866","lat":"31.227196","category":"36","category_name":"地铁站","address":"宜山路"},{"poiid":"B2094757D464AAF5479B","title":"吴越人家 豫园店","lon":"121.49135","lat":"31.22776","category":"68","category_name":"快餐厅","address":"黄浦区福佑路234号豫园2楼(近KFC)"},{"poiid":"B2094752D264ABFE499B","title":"藏珑泰厨","lon":"121.488815","lat":"31.227142","category":"247","category_name":"餐饮美食","address":"南京西路818广场"},{"poiid":"B2094757D468ABF84093","title":"避风塘 侯家路店","lon":"121.489356054","lat":"31.226734793","category":"113","category_name":"冷饮店","address":"黄浦区侯家路143号(近紫华路)"},{"poiid":"B2094757D16CA6FC4792","title":"枫泾古镇","lon":"121.48912273","lat":"31.227335238","category":"500","category_name":"未知分类","address":"上海金山"},{"poiid":"B2094757D16FA3FF449A","title":"豫.上海。悅賓樓","lon":"121.489531738","lat":"31.225862207","category":"500","category_name":"未知分类","address":"上海市黄浦区人民路"},{"poiid":"B2094654DA6EA4FC419F","title":"豫园小商品","lon":"121.48878","lat":"31.22757","category":"120","category_name":"小商品市场","address":"福佑路368识别"},{"poiid":"B2094750D36EAAF44699","title":"上海话剧艺术中心","lon":"121.491188","lat":"31.2268","category":"248","category_name":"生活娱乐","address":"安福路288号"},{"poiid":"B2094655D26EA7F84892","title":"吴家弄小吃","lon":"121.48898","lat":"31.22713","category":"68","category_name":"快餐厅","address":"吴家弄8号"},{"poiid":"B209475CD66CA4FE4893","title":"串趣成都串串香","lon":"121.488548","lat":"31.226491","category":"247","category_name":"餐饮美食","address":"上海市 上海黄浦区浙江南路48号"},{"poiid":"B2094757D168A6F5489C","title":"真德桂林米粉","lon":"121.48936973","lat":"31.22743324","category":"247","category_name":"餐饮美食","address":"黄浦区汉口路345号(山东中路和山西南路间)"},{"poiid":"B2094752D16FA4FB4698","title":"上海浦东机场","lon":"121.486963","lat":"31.227528","category":"627","category_name":"一般地点标志","address":null},{"poiid":"B2094655D26EA1FA4293","title":"避风塘福水缘茶楼","lon":"121.48905","lat":"31.22852","category":"66","category_name":"茶艺馆","address":"福佑路333号2层"},{"poiid":"B2094753DB68A3F9469D","title":"上海一九叁三（老场坊）BOBO","lon":"121.48954","lat":"31.227466","category":"247","category_name":"餐饮美食","address":"上海市 上海虹口区溧阳路611号1933老场坊1-305室"},{"poiid":"B2094750D16AA2FC439E","title":"轨道交通10号线豫园路站","lon":"121.4874028969","lat":"31.228092111481","category":"36","category_name":"地铁站","address":"轨道交通10号线豫园路站"},{"poiid":"B2094757D66EA1FC479C","title":"上海大飯堂(光大店)","lon":"121.489200738","lat":"31.2267752265","category":"247","category_name":"餐饮美食","address":"上海徐匯區康健路"},{"poiid":"B2094654DA6EA4FC429B","title":"豫园小商品(东门)","lon":"121.48908","lat":"31.2276","category":"120","category_name":"小商品市场","address":"侯家路18识别"},{"poiid":"B2094751D56BA6FB4799","title":"Iphone上海南京东路体验店","lon":"121.488815","lat":"31.227142","category":"500","category_name":"未知分类","address":null},{"poiid":"B2094757D569A2FB439C","title":"英皇明星城","lon":"121.48788981","lat":"31.22709717","category":"47","category_name":"住宅区","address":"河南南路175"},{"poiid":"B2094752D265A6FC449E","title":"斯利美甜品店","lon":"121.488815","lat":"31.227142","category":"500","category_name":"未知分类","address":null}]