[{"poiid":"B2094655D26BA3F94593","title":"丰收日(豫园店)","lon":"121.4891","lat":"31.22207","category":"75","category_name":"浙江菜","address":"黄浦区复兴东路789号1-2楼(河南南路口)"},{"poiid":"B2094757D069AAF8499C","title":"城皇庙九曲桥","lon":"121.48767571","lat":"31.22413437","category":"250","category_name":"公园户外","address":"上海城皇庙内"},{"poiid":"B2094757D568A6FF4598","title":"山海亭(复兴东路)","lon":"121.49009928","lat":"31.22246962","category":"268","category_name":"自助","address":"黄浦区河南南路489号香港名都4楼(近复兴东路)"},{"poiid":"B2094753D76FAAFA449C","title":"上海滩国泰旗舰店","lon":"121.466011","lat":"31.216125","category":"249","category_name":"购物服务","address":"淮海中路868号"},{"poiid":"B209475CD564A7F84292","title":"上海滩新天地店","lon":"121.47463","lat":"31.22164","category":"119","category_name":"商场","address":"\"太仓路181弄新天地北里15号\r\n\""},{"poiid":"B209475CD564A7F84392","title":"上海滩浦东香格里拉店","lon":"121.50058","lat":"31.23634","category":"119","category_name":"商场","address":"浦东富成路33号香格里拉酒店内大堂层"},{"poiid":"B2094654DA6EA5FF4493","title":"云悦酒店","lon":"121.4891","lat":"31.22208","category":"213","category_name":"五星级宾馆","address":"黄浦区复兴东路789号(近豫园)"},{"poiid":"B2094655D26FA1FE479A","title":"太阳都市花园","lon":"121.4887","lat":"31.22276","category":"47","category_name":"住宅区","address":"河南南路398弄1-4号"},{"poiid":"B2094750DA6FA1FC469C","title":"上海虹桥火车站","lon":"121.486068","lat":"31.225217","category":"500","category_name":"未知分类","address":null},{"poiid":"B2094750D364A7F44998","title":"上海南京路步行街","lon":"121.488845","lat":"31.22718","category":"249","category_name":"购物服务","address":"黄浦区步行街"},{"poiid":"B2094757D568A0FF469D","title":"M2香港名都","lon":"121.4895353","lat":"31.22338949","category":"119","category_name":"商场","address":"河南南路489号"},{"poiid":"B2094757D068A3FA4692","title":"申能国际大厦","lon":"121.489","lat":"31.2239","category":"46","category_name":"楼宇","address":"丰台学城海鹰路1号,3号"},{"poiid":"B2094753D76DA0FA4292","title":"K歌之王","lon":"121.487571","lat":"31.223407","category":"247","category_name":"餐饮美食","address":"上海市 金陵东路569号5楼"},{"poiid":"B2094757D66FA6FA4392","title":"新元素(西藏南路店)","lon":"121.489419","lat":"31.221615","category":"94","category_name":"西餐厅","address":"黄浦区西藏南路228号永银大厦6楼(桃源路西藏南路)"},{"poiid":"B2094757D164A0FB4199","title":"南外滩","lon":"121.487013338","lat":"31.2261241126","category":"500","category_name":"未知分类","address":"上海中山东路"},{"poiid":"B2094655D36CA7F94599","title":"河南南路复兴东路","lon":"121.48953","lat":"31.22242","category":"38","category_name":"公交车站","address":""},{"poiid":"B2094757D069AAFF489F","title":"西施豆腐坊(方浜中路店)","lon":"121.48932","lat":"31.22406","category":"68","category_name":"快餐厅","address":"黄浦区方浜中路454号(近城隍庙豫龙坊)"},{"poiid":"B2094757D068A5FB459D","title":"憨豆咖啡","lon":"121.48986773","lat":"31.22226513","category":"260","category_name":"其他","address":"黄浦区河南南路489号香港名都1楼(近复兴东路)"},{"poiid":"B2094757D464A4FE469F","title":"燕太太燕窝 香港名都店","lon":"121.49009","lat":"31.22246","category":"67","category_name":"甜品店","address":"黄浦区河南南路489号香港名都1楼L125室(近复兴东路)"},{"poiid":"B2094750DA64A5FF449F","title":"上海东方艺术中心","lon":"121.487915","lat":"31.222635","category":"500","category_name":"未知分类","address":null},{"poiid":"B2094655D26FA5FF4399","title":"佳日公寓","lon":"121.48738","lat":"31.224913","category":"47","category_name":"住宅区","address":"上海市黄浦区河南南路260号(近大境路)"},{"poiid":"B2094757DB6FA6F8439D","title":"陆家浜路9地铁站","lon":"121.488546","lat":"31.222738","category":"36","category_name":"地铁站","address":"陆家浜路"},{"poiid":"B2094757D06AAAFD409F","title":"方浜路夜排档","lon":"121.48544973","lat":"31.223300152","category":"247","category_name":"餐饮美食","address":"上海市人民路方浜路"},{"poiid":"B2094751D36AA5F8489E","title":"丰收日幸福家宴","lon":"121.49009","lat":"31.22246","category":"76","category_name":"上海菜","address":"黄浦区河南南路489号香港名都广场4楼(近复兴东路)"},{"poiid":"B2094750D76EA0F8499E","title":"日式碳火烧烤","lon":"121.487","lat":"31.2234","category":"68","category_name":"快餐厅","address":"黄浦区河南南路松雪街66弄(近太阳都市花园)"},{"poiid":"B2094654DB6BA4F9419B","title":"太阳都市花园西门","lon":"121.48741","lat":"31.2241","category":"47","category_name":"住宅区","address":""},{"poiid":"B2094654DA6EA5FF449D","title":"中国移动河南南路营业厅","lon":"121.48851","lat":"31.22393","category":"151","category_name":"电讯营业厅","address":"黄浦区河南南路370-372号"},{"poiid":"B2094750DB6EA6F54999","title":"美罗城","lon":"121.486221","lat":"31.223758","category":"249","category_name":"购物服务","address":"徐汇区肇嘉浜路1111号"},{"poiid":"B2094751D36EA0FC479C","title":"青耀园潮州菜馆","lon":"121.4892","lat":"31.22348","category":"72","category_name":"广东菜","address":"黄浦区河南南路489号香港名都5楼(近复兴中路)"},{"poiid":"B2094654DB6BA4F94693","title":"老头面馆","lon":"121.48967","lat":"31.22497","category":"257","category_name":"中餐厅","address":"黄浦区侯家路186号(近方浜中路上海老街)"},{"poiid":"B2094757D16EA6FF479A","title":"多宝古玩城","lon":"121.488159674","lat":"31.2241375358","category":"249","category_name":"购物服务","address":"上海黄浦区河南南路318号(近紫华路)"},{"poiid":"B2094654DB65A0FD469E","title":"阳光游泳俱乐部","lon":"121.48847","lat":"31.22367","category":"231","category_name":"游泳馆","address":"黄浦区河南南路380号(方浜中路河南南路)"},{"poiid":"B2094757D065A0FA419A","title":"金宝贝GYMBOREE(黄浦中心)","lon":"121.489456738","lat":"31.2228331425","category":"249","category_name":"购物服务","address":"上海市河南南路489号香港名都广场3楼"},{"poiid":"B2094757D16FA3FF449A","title":"豫.上海。悅賓樓","lon":"121.489531738","lat":"31.225862207","category":"500","category_name":"未知分类","address":"上海市黄浦区人民路"},{"poiid":"B2094655D26FA1F8489F","title":"福哥餐厅","lon":"121.48707","lat":"31.22369","category":"257","category_name":"中餐厅","address":"方浜中路566弄3号"},{"poiid":"B2094752D06EA2FC429F","title":"新天地时尚","lon":"121.485703","lat":"31.223812","category":"248","category_name":"生活娱乐","address":"新天地"},{"poiid":"B2094753DA65A1F4429B","title":"江边城外烤全鱼","lon":"121.488395","lat":"31.223239","category":"247","category_name":"餐饮美食","address":"上海市 金陵东路569号"},{"poiid":"B2094655D36CA3FF4092","title":"怡丰大厦","lon":"121.48759","lat":"31.22555","category":"46","category_name":"楼宇","address":"河南南路288号"},{"poiid":"B2094757D16AABF8479D","title":"浦发银行","lon":"121.488388062","lat":"31.2241783142","category":"500","category_name":"未知分类","address":"上海河南南路362号"},{"poiid":"B2094757D664A2FC4993","title":"六千馆","lon":"121.48975","lat":"31.22226","category":"76","category_name":"上海菜","address":"黄浦区河南南路489号香港名都5楼(近复兴东路)"},{"poiid":"B2094757D06BA4FD4592","title":"大城小事茶艺馆","lon":"121.48714673","lat":"31.225828206","category":"66","category_name":"茶艺馆","address":"上海徐汇区天钥桥路666号八万人体育场2号通道旁(近中山南二路)"},{"poiid":"B2094654DA6EA5FF449E","title":"中国银行上海市豫园支行","lon":"121.48831","lat":"31.2243","category":"150","category_name":"银行","address":"河南南路358"},{"poiid":"B2094654DA6EA4FF479F","title":"藏宝楼","lon":"121.48889","lat":"31.22457","category":"131","category_name":"珠宝首饰工艺品","address":"黄浦区方浜中路457号(近河南南路)"},{"poiid":"B2094750D56DA6FD429F","title":"慈修庵","lon":"121.486907","lat":"31.223812","category":"500","category_name":"未知分类","address":"黄浦区榛岭街15号(方浜中路三牌楼路)"},{"poiid":"B209475CD56FA5FB4899","title":"上海市城隍庙","lon":"121.488067","lat":"31.224939","category":"500","category_name":"未知分类","address":"上海市 上海市"},{"poiid":"B2094757D064A2FC449E","title":"复兴坊","lon":"121.48852703611","lat":"31.224638617041","category":"500","category_name":"未知分类","address":"上海复兴中路553弄"},{"poiid":"B2094757D065A4FF449D","title":"韩林炭烤 香港名都店","lon":"121.48988","lat":"31.22201","category":"96","category_name":"韩国料理","address":"黄浦区河南南路495-519号香港名都商场L4楼02(复兴东路河南南路)"},{"poiid":"B209475DD668A2FC4792","title":"上尚签成都特色料理","lon":"121.486267","lat":"31.223712","category":"247","category_name":"餐饮美食","address":"淮海东路99号（新尚数码广场507）"},{"poiid":"B2094654DA6EA5FF429E","title":"松雪街幼儿园","lon":"121.48723","lat":"31.22301","category":"57","category_name":"幼儿园","address":"黄浦区松雪街78号(近吉祥弄)"},{"poiid":"B2094752D664A4F4429F","title":"当代艺术博物馆","lon":"121.488549","lat":"31.222799","category":"500","category_name":"未知分类","address":"上海市花园港路200号"},{"poiid":"B2094655D26BA3F94593","title":"丰收日(豫园店)","lon":"121.4891","lat":"31.22207","category":"75","category_name":"浙江菜","address":"黄浦区复兴东路789号1-2楼(河南南路口)"},{"poiid":"B2094757D069AAF8499C","title":"城皇庙九曲桥","lon":"121.48767571","lat":"31.22413437","category":"250","category_name":"公园户外","address":"上海城皇庙内"},{"poiid":"B2094757D568A6FF4598","title":"山海亭(复兴东路)","lon":"121.49009928","lat":"31.22246962","category":"268","category_name":"自助","address":"黄浦区河南南路489号香港名都4楼(近复兴东路)"},{"poiid":"B2094753D76FAAFA449C","title":"上海滩国泰旗舰店","lon":"121.466011","lat":"31.216125","category":"249","category_name":"购物服务","address":"淮海中路868号"},{"poiid":"B209475CD564A7F84292","title":"上海滩新天地店","lon":"121.47463","lat":"31.22164","category":"119","category_name":"商场","address":"\"太仓路181弄新天地北里15号\r\n\""},{"poiid":"B209475CD564A7F84392","title":"上海滩浦东香格里拉店","lon":"121.50058","lat":"31.23634","category":"119","category_name":"商场","address":"浦东富成路33号香格里拉酒店内大堂层"},{"poiid":"B2094654DA6EA5FF4493","title":"云悦酒店","lon":"121.4891","lat":"31.22208","category":"213","category_name":"五星级宾馆","address":"黄浦区复兴东路789号(近豫园)"},{"poiid":"B2094655D26FA1FE479A","title":"太阳都市花园","lon":"121.4887","lat":"31.22276","category":"47","category_name":"住宅区","address":"河南南路398弄1-4号"},{"poiid":"B2094750DA6FA1FC469C","title":"上海虹桥火车站","lon":"121.486068","lat":"31.225217","category":"500","category_name":"未知分类","address":null},{"poiid":"B2094750D364A7F44998","title":"上海南京路步行街","lon":"121.488845","lat":"31.22718","category":"249","category_name":"购物服务","address":"黄浦区步行街"},{"poiid":"B2094757D568A0FF469D","title":"M2香港名都","lon":"121.4895353","lat":"31.22338949","category":"119","category_name":"商场","address":"河南南路489号"},{"poiid":"B2094757D068A3FA4692","title":"申能国际大厦","lon":"121.489","lat":"31.2239","category":"46","category_name":"楼宇","address":"丰台学城海鹰路1号,3号"},{"poiid":"B2094753D76DA0FA4292","title":"K歌之王","lon":"121.487571","lat":"31.223407","category":"247","category_name":"餐饮美食","address":"上海市 金陵东路569号5楼"},{"poiid":"B2094757D66FA6FA4392","title":"新元素(西藏南路店)","lon":"121.489419","lat":"31.221615","category":"94","category_name":"西餐厅","address":"黄浦区西藏南路228号永银大厦6楼(桃源路西藏南路)"},{"poiid":"B2094757D164A0FB4199","title":"南外滩","lon":"121.487013338","lat":"31.2261241126","category":"500","category_name":"未知分类","address":"上海中山东路"},{"poiid":"B2094655D36CA7F94599","title":"河南南路复兴东路","lon":"121.48953","lat":"31.22242","category":"38","category_name":"公交车站","address":""},{"poiid":"B2094757D069AAFF489F","title":"西施豆腐坊(方浜中路店)","lon":"121.48932","lat":"31.22406","category":"68","category_name":"快餐厅","address":"黄浦区方浜中路454号(近城隍庙豫龙坊)"},{"poiid":"B2094757D068A5FB459D","title":"憨豆咖啡","lon":"121.48986773","lat":"31.22226513","category":"260","category_name":"其他","address":"黄浦区河南南路489号香港名都1楼(近复兴东路)"},{"poiid":"B2094757D464A4FE469F","title":"燕太太燕窝 香港名都店","lon":"121.49009","lat":"31.22246","category":"67","category_name":"甜品店","address":"黄浦区河南南路489号香港名都1楼L125室(近复兴东路)"},{"poiid":"B2094750DA64A5FF449F","title":"上海东方艺术中心","lon":"121.487915","lat":"31.222635","category":"500","category_name":"未知分类","address":null},{"poiid":"B2094655D26FA5FF4399","title":"佳日公寓","lon":"121.48738","lat":"31.224913","category":"47","category_name":"住宅区","address":"上海市黄浦区河南南路260号(近大境路)"},{"poiid":"B2094757DB6FA6F8439D","title":"陆家浜路9地铁站","lon":"121.488546","lat":"31.222738","category":"36","category_name":"地铁站","address":"陆家浜路"},{"poiid":"B2094757D06AAAFD409F","title":"方浜路夜排档","lon":"121.48544973","lat":"31.223300152","category":"247","category_name":"餐饮美食","address":"上海市人民路方浜路"},{"poiid":"B2094751D36AA5F8489E","title":"丰收日幸福家宴","lon":"121.49009","lat":"31.22246","category":"76","category_name":"上海菜","address":"黄浦区河南南路489号香港名都广场4楼(近复兴东路)"},{"poiid":"B2094750D76EA0F8499E","title":"日式碳火烧烤","lon":"121.487","lat":"31.2234","category":"68","category_name":"快餐厅","address":"黄浦区河南南路松雪街66弄(近太阳都市花园)"},{"poiid":"B2094654DB6BA4F9419B","title":"太阳都市花园西门","lon":"121.48741","lat":"31.2241","category":"47","category_name":"住宅区","address":""},{"poiid":"B2094654DA6EA5FF449D","title":"中国移动河南南路营业厅","lon":"121.48851","lat":"31.22393","category":"151","category_name":"电讯营业厅","address":"黄浦区河南南路370-372号"},{"poiid":"B2094750DB6EA6F54999","title":"美罗城","lon":"121.486221","lat":"31.223758","category":"249","category_name":"购物服务","address":"徐汇区肇嘉浜路1111号"},{"poiid":"B2094751D36EA0FC479C","title":"青耀园潮州菜馆","lon":"121.4892","lat":"31.22348","category":"72","category_name":"广东菜","address":"黄浦区河南南路489号香港名都5楼(近复兴中路)"},{"poiid":"B2094654DB6BA4F94693","title":"老头面馆","lon":"121.48967","lat":"31.22497","category":"257","category_name":"中餐厅","address":"黄浦区侯家路186号(近方浜中路上海老街)"},{"poiid":"B2094757D16EA6FF479A","title":"多宝古玩城","lon":"121.488159674","lat":"31.2241375358","category":"249","category_name":"购物服务","address":"上海黄浦区河南南路318号(近紫华路)"},{"poiid":"B2094654DB65A0FD469E","title":"阳光游泳俱乐部","lon":"121.48847","lat":"31.22367","category":"231","category_name":"游泳馆","address":"黄浦区河南南路380号(方浜中路河南南路)"},{"poiid":"B2094757D065A0FA419A","title":"金宝贝GYMBOREE(黄浦中心)","lon":"121.489456738","lat":"31.2228331425","category":"249","category_name":"购物服务","address":"上海市河南南路489号香港名都广场3楼"},{"poiid":"B2094757D16FA3FF449A","title":"豫.上海。悅賓樓","lon":"121.489531738","lat":"31.225862207","category":"500","category_name":"未知分类","address":"上海市黄浦区人民路"},{"poiid":"B2094655D26FA1F8489F","title":"福哥餐厅","lon":"121.48707","lat":"31.22369","category":"257","category_name":"中餐厅","address":"方浜中路566弄3号"},{"poiid":"B2094752D06EA2FC429F","title":"新天地时尚","lon":"121.485703","lat":"31.223812","category":"248","category_name":"生活娱乐","address":"新天地"},{"poiid":"B2094753DA65A1F4429B","title":"江边城外烤全鱼","lon":"121.488395","lat":"31.223239","category":"247","category_name":"餐饮美食","address":"上海市 金陵东路569号"},{"poiid":"B2094655D36CA3FF4092","title":"怡丰大厦","lon":"121.48759","lat":"31.22555","category":"46","category_name":"楼宇","address":"河南南路288号"},{"poiid":"B2094757D16AABF8479D","title":"浦发银行","lon":"121.488388062","lat":"31.2241783142","category":"500","category_name":"未知分类","address":"上海河南南路362号"},{"poiid":"B2094757D664A2FC4993","title":"六千馆","lon":"121.48975","lat":"31.22226","category":"76","category_name":"上海菜","address":"黄浦区河南南路489号香港名都5楼(近复兴东路)"},{"poiid":"B2094757D06BA4FD4592","title":"大城小事茶艺馆","lon":"121.48714673","lat":"31.225828206","category":"66","category_name":"茶艺馆","address":"上海徐汇区天钥桥路666号八万人体育场2号通道旁(近中山南二路)"},{"poiid":"B2094654DA6EA5FF449E","title":"中国银行上海市豫园支行","lon":"121.48831","lat":"31.2243","category":"150","category_name":"银行","address":"河南南路358"},{"poiid":"B2094654DA6EA4FF479F","title":"藏宝楼","lon":"121.48889","lat":"31.22457","category":"131","category_name":"珠宝首饰工艺品","address":"黄浦区方浜中路457号(近河南南路)"},{"poiid":"B2094750D56DA6FD429F","title":"慈修庵","lon":"121.486907","lat":"31.223812","category":"500","category_name":"未知分类","address":"黄浦区榛岭街15号(方浜中路三牌楼路)"},{"poiid":"B209475CD56FA5FB4899","title":"上海市城隍庙","lon":"121.488067","lat":"31.224939","category":"500","category_name":"未知分类","address":"上海市 上海市"},{"poiid":"B2094757D064A2FC449E","title":"复兴坊","lon":"121.48852703611","lat":"31.224638617041","category":"500","category_name":"未知分类","address":"上海复兴中路553弄"},{"poiid":"B2094757D065A4FF449D","title":"韩林炭烤 香港名都店","lon":"121.48988","lat":"31.22201","category":"96","category_name":"韩国料理","address":"黄浦区河南南路495-519号香港名都商场L4楼02(复兴东路河南南路)"},{"poiid":"B209475DD668A2FC4792","title":"上尚签成都特色料理","lon":"121.486267","lat":"31.223712","category":"247","category_name":"餐饮美食","address":"淮海东路99号（新尚数码广场507）"},{"poiid":"B2094654DA6EA5FF429E","title":"松雪街幼儿园","lon":"121.48723","lat":"31.22301","category":"57","category_name":"幼儿园","address":"黄浦区松雪街78号(近吉祥弄)"},{"poiid":"B2094752D664A4F4429F","title":"当代艺术博物馆","lon":"121.488549","lat":"31.222799","category":"500","category_name":"未知分类","address":"上海市花园港路200号"},{"poiid":"B2094655D26BA3F94593","title":"丰收日(豫园店)","lon":"121.4891","lat":"31.22207","category":"75","category_name":"浙江菜","address":"黄浦区复兴东路789号1-2楼(河南南路口)"},{"poiid":"B2094757D069AAF8499C","title":"城皇庙九曲桥","lon":"121.48767571","lat":"31.22413437","category":"250","category_name":"公园户外","address":"上海城皇庙内"},{"poiid":"B2094757D568A6FF4598","title":"山海亭(复兴东路)","lon":"121.49009928","lat":"31.22246962","category":"268","category_name":"自助","address":"黄浦区河南南路489号香港名都4楼(近复兴东路)"},{"poiid":"B2094753D76FAAFA449C","title":"上海滩国泰旗舰店","lon":"121.466011","lat":"31.216125","category":"249","category_name":"购物服务","address":"淮海中路868号"},{"poiid":"B209475CD564A7F84292","title":"上海滩新天地店","lon":"121.47463","lat":"31.22164","category":"119","category_name":"商场","address":"\"太仓路181弄新天地北里15号\r\n\""},{"poiid":"B209475CD564A7F84392","title":"上海滩浦东香格里拉店","lon":"121.50058","lat":"31.23634","category":"119","category_name":"商场","address":"浦东富成路33号香格里拉酒店内大堂层"},{"poiid":"B2094654DA6EA5FF4493","title":"云悦酒店","lon":"121.4891","lat":"31.22208","category":"213","category_name":"五星级宾馆","address":"黄浦区复兴东路789号(近豫园)"},{"poiid":"B2094655D26FA1FE479A","title":"太阳都市花园","lon":"121.4887","lat":"31.22276","category":"47","category_name":"住宅区","address":"河南南路398弄1-4号"},{"poiid":"B2094750DA6FA1FC469C","title":"上海虹桥火车站","lon":"121.486068","lat":"31.225217","category":"500","category_name":"未知分类","address":null},{"poiid":"B2094750D364A7F44998","title":"上海南京路步行街","lon":"121.488845","lat":"31.22718","category":"249","category_name":"购物服务","address":"黄浦区步行街"},{"poiid":"B2094757D568A0FF469D","title":"M2香港名都","lon":"121.4895353","lat":"31.22338949","category":"119","category_name":"商场","address":"河南南路489号"},{"poiid":"B2094757D068A3FA4692","title":"申能国际大厦","lon":"121.489","lat":"31.2239","category":"46","category_name":"楼宇","address":"丰台学城海鹰路1号,3号"},{"poiid":"B2094753D76DA0FA4292","title":"K歌之王","lon":"121.487571","lat":"31.223407","category":"247","category_name":"餐饮美食","address":"上海市 金陵东路569号5楼"},{"poiid":"B2094757D66FA6FA4392","title":"新元素(西藏南路店)","lon":"121.489419","lat":"31.221615","category":"94","category_name":"西餐厅","address":"黄浦区西藏南路228号永银大厦6楼(桃源路西藏南路)"},{"poiid":"B2094757D164A0FB4199","title":"南外滩","lon":"121.487013338","lat":"31.2261241126","category":"500","category_name":"未知分类","address":"上海中山东路"},{"poiid":"B2094655D36CA7F94599","title":"河南南路复兴东路","lon":"121.48953","lat":"31.22242","category":"38","category_name":"公交车站","address":""},{"poiid":"B2094757D069AAFF489F","title":"西施豆腐坊(方浜中路店)","lon":"121.48932","lat":"31.22406","category":"68","category_name":"快餐厅","address":"黄浦区方浜中路454号(近城隍庙豫龙坊)"},{"poiid":"B2094757D068A5FB459D","title":"憨豆咖啡","lon":"121.48986773","lat":"31.22226513","category":"260","category_name":"其他","address":"黄浦区河南南路489号香港名都1楼(近复兴东路)"},{"poiid":"B2094757D464A4FE469F","title":"燕太太燕窝 香港名都店","lon":"121.49009","lat":"31.22246","category":"67","category_name":"甜品店","address":"黄浦区河南南路489号香港名都1楼L125室(近复兴东路)"},{"poiid":"B2094750DA64A5FF449F","title":"上海东方艺术中心","lon":"121.487915","lat":"31.222635","category":"500","category_name":"未知分类","address":null},{"poiid":"B2094655D26FA5FF4399","title":"佳日公寓","lon":"121.48738","lat":"31.224913","category":"47","category_name":"住宅区","address":"上海市黄浦区河南南路260号(近大境路)"},{"poiid":"B2094757DB6FA6F8439D","title":"陆家浜路9地铁站","lon":"121.488546","lat":"31.222738","category":"36","category_name":"地铁站","address":"陆家浜路"},{"poiid":"B2094757D06AAAFD409F","title":"方浜路夜排档","lon":"121.48544973","lat":"31.223300152","category":"247","category_name":"餐饮美食","address":"上海市人民路方浜路"},{"poiid":"B2094751D36AA5F8489E","title":"丰收日幸福家宴","lon":"121.49009","lat":"31.22246","category":"76","category_name":"上海菜","address":"黄浦区河南南路489号香港名都广场4楼(近复兴东路)"},{"poiid":"B2094750D76EA0F8499E","title":"日式碳火烧烤","lon":"121.487","lat":"31.2234","category":"68","category_name":"快餐厅","address":"黄浦区河南南路松雪街66弄(近太阳都市花园)"},{"poiid":"B2094654DB6BA4F9419B","title":"太阳都市花园西门","lon":"121.48741","lat":"31.2241","category":"47","category_name":"住宅区","address":""},{"poiid":"B2094654DA6EA5FF449D","title":"中国移动河南南路营业厅","lon":"121.48851","lat":"31.22393","category":"151","category_name":"电讯营业厅","address":"黄浦区河南南路370-372号"},{"poiid":"B2094750DB6EA6F54999","title":"美罗城","lon":"121.486221","lat":"31.223758","category":"249","category_name":"购物服务","address":"徐汇区肇嘉浜路1111号"},{"poiid":"B2094751D36EA0FC479C","title":"青耀园潮州菜馆","lon":"121.4892","lat":"31.22348","category":"72","category_name":"广东菜","address":"黄浦区河南南路489号香港名都5楼(近复兴中路)"},{"poiid":"B2094654DB6BA4F94693","title":"老头面馆","lon":"121.48967","lat":"31.22497","category":"257","category_name":"中餐厅","address":"黄浦区侯家路186号(近方浜中路上海老街)"},{"poiid":"B2094757D16EA6FF479A","title":"多宝古玩城","lon":"121.488159674","lat":"31.2241375358","category":"249","category_name":"购物服务","address":"上海黄浦区河南南路318号(近紫华路)"},{"poiid":"B2094654DB65A0FD469E","title":"阳光游泳俱乐部","lon":"121.48847","lat":"31.22367","category":"231","category_name":"游泳馆","address":"黄浦区河南南路380号(方浜中路河南南路)"},{"poiid":"B2094757D065A0FA419A","title":"金宝贝GYMBOREE(黄浦中心)","lon":"121.489456738","lat":"31.2228331425","category":"249","category_name":"购物服务","address":"上海市河南南路489号香港名都广场3楼"},{"poiid":"B2094757D16FA3FF449A","title":"豫.上海。悅賓樓","lon":"121.489531738","lat":"31.225862207","category":"500","category_name":"未知分类","address":"上海市黄浦区人民路"},{"poiid":"B2094655D26FA1F8489F","title":"福哥餐厅","lon":"121.48707","lat":"31.22369","category":"257","category_name":"中餐厅","address":"方浜中路566弄3号"},{"poiid":"B2094752D06EA2FC429F","title":"新天地时尚","lon":"121.485703","lat":"31.223812","category":"248","category_name":"生活娱乐","address":"新天地"},{"poiid":"B2094753DA65A1F4429B","title":"江边城外烤全鱼","lon":"121.488395","lat":"31.223239","category":"247","category_name":"餐饮美食","address":"上海市 金陵东路569号"},{"poiid":"B2094655D36CA3FF4092","title":"怡丰大厦","lon":"121.48759","lat":"31.22555","category":"46","category_name":"楼宇","address":"河南南路288号"},{"poiid":"B2094757D16AABF8479D","title":"浦发银行","lon":"121.488388062","lat":"31.2241783142","category":"500","category_name":"未知分类","address":"上海河南南路362号"},{"poiid":"B2094757D664A2FC4993","title":"六千馆","lon":"121.48975","lat":"31.22226","category":"76","category_name":"上海菜","address":"黄浦区河南南路489号香港名都5楼(近复兴东路)"},{"poiid":"B2094757D06BA4FD4592","title":"大城小事茶艺馆","lon":"121.48714673","lat":"31.225828206","category":"66","category_name":"茶艺馆","address":"上海徐汇区天钥桥路666号八万人体育场2号通道旁(近中山南二路)"},{"poiid":"B2094654DA6EA5FF449E","title":"中国银行上海市豫园支行","lon":"121.48831","lat":"31.2243","category":"150","category_name":"银行","address":"河南南路358"},{"poiid":"B2094654DA6EA4FF479F","title":"藏宝楼","lon":"121.48889","lat":"31.22457","category":"131","category_name":"珠宝首饰工艺品","address":"黄浦区方浜中路457号(近河南南路)"},{"poiid":"B2094750D56DA6FD429F","title":"慈修庵","lon":"121.486907","lat":"31.223812","category":"500","category_name":"未知分类","address":"黄浦区榛岭街15号(方浜中路三牌楼路)"},{"poiid":"B209475CD56FA5FB4899","title":"上海市城隍庙","lon":"121.488067","lat":"31.224939","category":"500","category_name":"未知分类","address":"上海市 上海市"},{"poiid":"B2094757D064A2FC449E","title":"复兴坊","lon":"121.48852703611","lat":"31.224638617041","category":"500","category_name":"未知分类","address":"上海复兴中路553弄"},{"poiid":"B2094757D065A4FF449D","title":"韩林炭烤 香港名都店","lon":"121.48988","lat":"31.22201","category":"96","category_name":"韩国料理","address":"黄浦区河南南路495-519号香港名都商场L4楼02(复兴东路河南南路)"},{"poiid":"B209475DD668A2FC4792","title":"上尚签成都特色料理","lon":"121.486267","lat":"31.223712","category":"247","category_name":"餐饮美食","address":"淮海东路99号（新尚数码广场507）"},{"poiid":"B2094654DA6EA5FF429E","title":"松雪街幼儿园","lon":"121.48723","lat":"31.22301","category":"57","category_name":"幼儿园","address":"黄浦区松雪街78号(近吉祥弄)"},{"poiid":"B2094752D664A4F4429F","title":"当代艺术博物馆","lon":"121.488549","lat":"31.222799","category":"500","category_name":"未知分类","address":"上海市花园港路200号"},{"poiid":"B2094655D26BA3F94593","title":"丰收日(豫园店)","lon":"121.4891","lat":"31.22207","category":"75","category_name":"浙江菜","address":"黄浦区复兴东路789号1-2楼(河南南路口)"},{"poiid":"B2094757D069AAF8499C","title":"城皇庙九曲桥","lon":"121.48767571","lat":"31.22413437","category":"250","category_name":"公园户外","address":"上海城皇庙内"},{"poiid":"B2094757D568A6FF4598","title":"山海亭(复兴东路)","lon":"121.49009928","lat":"31.22246962","category":"268","category_name":"自助","address":"黄浦区河南南路489号香港名都4楼(近复兴东路)"},{"poiid":"B2094753D76FAAFA449C","title":"上海滩国泰旗舰店","lon":"121.466011","lat":"31.216125","category":"249","category_name":"购物服务","address":"淮海中路868号"},{"poiid":"B209475CD564A7F84292","title":"上海滩新天地店","lon":"121.47463","lat":"31.22164","category":"119","category_name":"商场","address":"\"太仓路181弄新天地北里15号\r\n\""},{"poiid":"B209475CD564A7F84392","title":"上海滩浦东香格里拉店","lon":"121.50058","lat":"31.23634","category":"119","category_name":"商场","address":"浦东富成路33号香格里拉酒店内大堂层"},{"poiid":"B2094654DA6EA5FF4493","title":"云悦酒店","lon":"121.4891","lat":"31.22208","category":"213","category_name":"五星级宾馆","address":"黄浦区复兴东路789号(近豫园)"},{"poiid":"B2094655D26FA1FE479A","title":"太阳都市花园","lon":"121.4887","lat":"31.22276","category":"47","category_name":"住宅区","address":"河南南路398弄1-4号"},{"poiid":"B2094750DA6FA1FC469C","title":"上海虹桥火车站","lon":"121.486068","lat":"31.225217","category":"500","category_name":"未知分类","address":null},{"poiid":"B2094750D364A7F44998","title":"上海南京路步行街","lon":"121.488845","lat":"31.22718","category":"249","category_name":"购物服务","address":"黄浦区步行街"},{"poiid":"B2094757D568A0FF469D","title":"M2香港名都","lon":"121.4895353","lat":"31.22338949","category":"119","category_name":"商场","address":"河南南路489号"},{"poiid":"B2094757D068A3FA4692","title":"申能国际大厦","lon":"121.489","lat":"31.2239","category":"46","category_name":"楼宇","address":"丰台学城海鹰路1号,3号"},{"poiid":"B2094753D76DA0FA4292","title":"K歌之王","lon":"121.487571","lat":"31.223407","category":"247","category_name":"餐饮美食","address":"上海市 金陵东路569号5楼"},{"poiid":"B2094757D66FA6FA4392","title":"新元素(西藏南路店)","lon":"121.489419","lat":"31.221615","category":"94","category_name":"西餐厅","address":"黄浦区西藏南路228号永银大厦6楼(桃源路西藏南路)"},{"poiid":"B2094757D164A0FB4199","title":"南外滩","lon":"121.487013338","lat":"31.2261241126","category":"500","category_name":"未知分类","address":"上海中山东路"},{"poiid":"B2094655D36CA7F94599","title":"河南南路复兴东路","lon":"121.48953","lat":"31.22242","category":"38","category_name":"公交车站","address":""},{"poiid":"B2094757D069AAFF489F","title":"西施豆腐坊(方浜中路店)","lon":"121.48932","lat":"31.22406","category":"68","category_name":"快餐厅","address":"黄浦区方浜中路454号(近城隍庙豫龙坊)"},{"poiid":"B2094757D068A5FB459D","title":"憨豆咖啡","lon":"121.48986773","lat":"31.22226513","category":"260","category_name":"其他","address":"黄浦区河南南路489号香港名都1楼(近复兴东路)"},{"poiid":"B2094757D464A4FE469F","title":"燕太太燕窝 香港名都店","lon":"121.49009","lat":"31.22246","category":"67","category_name":"甜品店","address":"黄浦区河南南路489号香港名都1楼L125室(近复兴东路)"},{"poiid":"B2094750DA64A5FF449F","title":"上海东方艺术中心","lon":"121.487915","lat":"31.222635","category":"500","category_name":"未知分类","address":null},{"poiid":"B2094655D26FA5FF4399","title":"佳日公寓","lon":"121.48738","lat":"31.224913","category":"47","category_name":"住宅区","address":"上海市黄浦区河南南路260号(近大境路)"},{"poiid":"B2094757DB6FA6F8439D","title":"陆家浜路9地铁站","lon":"121.488546","lat":"31.222738","category":"36","category_name":"地铁站","address":"陆家浜路"},{"poiid":"B2094757D06AAAFD409F","title":"方浜路夜排档","lon":"121.48544973","lat":"31.223300152","category":"247","category_name":"餐饮美食","address":"上海市人民路方浜路"},{"poiid":"B2094751D36AA5F8489E","title":"丰收日幸福家宴","lon":"121.49009","lat":"31.22246","category":"76","category_name":"上海菜","address":"黄浦区河南南路489号香港名都广场4楼(近复兴东路)"},{"poiid":"B2094750D76EA0F8499E","title":"日式碳火烧烤","lon":"121.487","lat":"31.2234","category":"68","category_name":"快餐厅","address":"黄浦区河南南路松雪街66弄(近太阳都市花园)"},{"poiid":"B2094654DB6BA4F9419B","title":"太阳都市花园西门","lon":"121.48741","lat":"31.2241","category":"47","category_name":"住宅区","address":""},{"poiid":"B2094654DA6EA5FF449D","title":"中国移动河南南路营业厅","lon":"121.48851","lat":"31.22393","category":"151","category_name":"电讯营业厅","address":"黄浦区河南南路370-372号"},{"poiid":"B2094750DB6EA6F54999","title":"美罗城","lon":"121.486221","lat":"31.223758","category":"249","category_name":"购物服务","address":"徐汇区肇嘉浜路1111号"},{"poiid":"B2094751D36EA0FC479C","title":"青耀园潮州菜馆","lon":"121.4892","lat":"31.22348","category":"72","category_name":"广东菜","address":"黄浦区河南南路489号香港名都5楼(近复兴中路)"},{"poiid":"B2094654DB6BA4F94693","title":"老头面馆","lon":"121.48967","lat":"31.22497","category":"257","category_name":"中餐厅","address":"黄浦区侯家路186号(近方浜中路上海老街)"},{"poiid":"B2094757D16EA6FF479A","title":"多宝古玩城","lon":"121.488159674","lat":"31.2241375358","category":"249","category_name":"购物服务","address":"上海黄浦区河南南路318号(近紫华路)"},{"poiid":"B2094654DB65A0FD469E","title":"阳光游泳俱乐部","lon":"121.48847","lat":"31.22367","category":"231","category_name":"游泳馆","address":"黄浦区河南南路380号(方浜中路河南南路)"},{"poiid":"B2094757D065A0FA419A","title":"金宝贝GYMBOREE(黄浦中心)","lon":"121.489456738","lat":"31.2228331425","category":"249","category_name":"购物服务","address":"上海市河南南路489号香港名都广场3楼"},{"poiid":"B2094757D16FA3FF449A","title":"豫.上海。悅賓樓","lon":"121.489531738","lat":"31.225862207","category":"500","category_name":"未知分类","address":"上海市黄浦区人民路"},{"poiid":"B2094655D26FA1F8489F","title":"福哥餐厅","lon":"121.48707","lat":"31.22369","category":"257","category_name":"中餐厅","address":"方浜中路566弄3号"},{"poiid":"B2094752D06EA2FC429F","title":"新天地时尚","lon":"121.485703","lat":"31.223812","category":"248","category_name":"生活娱乐","address":"新天地"},{"poiid":"B2094753DA65A1F4429B","title":"江边城外烤全鱼","lon":"121.488395","lat":"31.223239","category":"247","category_name":"餐饮美食","address":"上海市 金陵东路569号"},{"poiid":"B2094655D36CA3FF4092","title":"怡丰大厦","lon":"121.48759","lat":"31.22555","category":"46","category_name":"楼宇","address":"河南南路288号"},{"poiid":"B2094757D16AABF8479D","title":"浦发银行","lon":"121.488388062","lat":"31.2241783142","category":"500","category_name":"未知分类","address":"上海河南南路362号"},{"poiid":"B2094757D664A2FC4993","title":"六千馆","lon":"121.48975","lat":"31.22226","category":"76","category_name":"上海菜","address":"黄浦区河南南路489号香港名都5楼(近复兴东路)"},{"poiid":"B2094757D06BA4FD4592","title":"大城小事茶艺馆","lon":"121.48714673","lat":"31.225828206","category":"66","category_name":"茶艺馆","address":"上海徐汇区天钥桥路666号八万人体育场2号通道旁(近中山南二路)"},{"poiid":"B2094654DA6EA5FF449E","title":"中国银行上海市豫园支行","lon":"121.48831","lat":"31.2243","category":"150","category_name":"银行","address":"河南南路358"},{"poiid":"B2094654DA6EA4FF479F","title":"藏宝楼","lon":"121.48889","lat":"31.22457","category":"131","category_name":"珠宝首饰工艺品","address":"黄浦区方浜中路457号(近河南南路)"},{"poiid":"B2094750D56DA6FD429F","title":"慈修庵","lon":"121.486907","lat":"31.223812","category":"500","category_name":"未知分类","address":"黄浦区榛岭街15号(方浜中路三牌楼路)"},{"poiid":"B209475CD56FA5FB4899","title":"上海市城隍庙","lon":"121.488067","lat":"31.224939","category":"500","category_name":"未知分类","address":"上海市 上海市"},{"poiid":"B2094757D064A2FC449E","title":"复兴坊","lon":"121.48852703611","lat":"31.224638617041","category":"500","category_name":"未知分类","address":"上海复兴中路553弄"},{"poiid":"B2094757D065A4FF449D","title":"韩林炭烤 香港名都店","lon":"121.48988","lat":"31.22201","category":"96","category_name":"韩国料理","address":"黄浦区河南南路495-519号香港名都商场L4楼02(复兴东路河南南路)"},{"poiid":"B209475DD668A2FC4792","title":"上尚签成都特色料理","lon":"121.486267","lat":"31.223712","category":"247","category_name":"餐饮美食","address":"淮海东路99号（新尚数码广场507）"},{"poiid":"B2094654DA6EA5FF429E","title":"松雪街幼儿园","lon":"121.48723","lat":"31.22301","category":"57","category_name":"幼儿园","address":"黄浦区松雪街78号(近吉祥弄)"},{"poiid":"B2094752D664A4F4429F","title":"当代艺术博物馆","lon":"121.488549","lat":"31.222799","category":"500","category_name":"未知分类","address":"上海市花园港路200号"}]