[{"poiid":"B2094655D268A6FC4293","title":"老码头","lon":"121.50566","lat":"31.21965","category":"119","category_name":"商场","address":"上海闵行区七莘路3166号七宝乐购对面(近新龙路)  "},{"poiid":"B2094757DA6EA7FB479F","title":"G Water Front","lon":"121.507171000002","lat":"31.2175409999998","category":"247","category_name":"餐饮美食","address":"黄浦区外马路601号老码头沃弗3号库112室、206室"},{"poiid":"B2094757D06FA6FF459E","title":"老码头·阳光沙滩","lon":"121.50603012","lat":"31.220198143","category":"234","category_name":"海滨浴场","address":"黄浦区外马路421号(近复兴东路)"},{"poiid":"B209475CD564A7F84392","title":"上海滩浦东香格里拉店","lon":"121.50058","lat":"31.23634","category":"119","category_name":"商场","address":"浦东富成路33号香格里拉酒店内大堂层"},{"poiid":"B2094757D66FA6FA4892","title":"星巴克(老码头店)","lon":"121.5050866","lat":"31.219239","category":"260","category_name":"其他","address":"黄浦区中山南路505弄老码头5号楼101室(近复兴东路)"},{"poiid":"B2094757D168A6FC439E","title":"奥斯卡会所&薇丝酒吧","lon":"121.507143738","lat":"31.2182860456","category":"174","category_name":"迪厅","address":"上海外滩"},{"poiid":"B2094757D06FA3F5449F","title":"waterhouse水舍","lon":"121.50584271","lat":"31.217899418","category":"217","category_name":"旅馆招待所","address":"黄浦区毛家园路1-3号(中山南路479弄老码头内)"},{"poiid":"B2094757D06FA3FF489B","title":"南外滩轻纺面料市场","lon":"121.50607078218","lat":"31.217393516946","category":"249","category_name":"购物服务","address":"黄浦区陆家浜路399号(近南仓街)"},{"poiid":"B2094757DA69A1F9469A","title":"尚九外滩店","lon":"121.50774328047","lat":"31.216663643904","category":"111","category_name":"休闲餐饮场所","address":"黄浦区外马路653号4号库5楼(近王家码头路)"},{"poiid":"B2094757D169A6FB4899","title":"Long House","lon":"121.505718738","lat":"31.2196240741","category":"110","category_name":"其他亚洲菜","address":"黄浦区中山南路505弄老码头7号楼105室"},{"poiid":"B2094757D16AA7F44893","title":"Sigma Film Club","lon":"121.507247738","lat":"31.2176420319","category":"72","category_name":"广东菜","address":"黄浦区外马路601号3号库3A楼(近老码头)"},{"poiid":"B2094757D068A2F94298","title":"黄浦江","lon":"121.50752895","lat":"31.220529166","category":"500","category_name":"未知分类","address":"上海黄浦江畔"},{"poiid":"B2094757D465ABFE419E","title":"濠芭 The Steak and Oyster Bar","lon":"121.50754451752","lat":"31.216563470075","category":"88","category_name":"海鲜酒楼","address":"黄浦区老码头外马路653号宏基2期四号库105号商铺"},{"poiid":"B2094757D069A2F94499","title":"小南国(老码头店)","lon":"121.50562073","lat":"31.219640074","category":"76","category_name":"上海菜","address":"虹口区四川北路1350号中信泰富申虹广场3楼304单元"},{"poiid":"B2094757D06FA5FF409A","title":"Kebabs On The Grille(克比印度料理)","lon":"121.50575665","lat":"31.218050483","category":"102","category_name":"印度风味","address":"黄浦区中山南路505弄老码头8号楼(近复兴东路)"},{"poiid":"B2094757DA6EAAF9489A","title":"纽约客匹萨(老码头店)","lon":"121.507447900002","lat":"31.2164712999997","category":"94","category_name":"西餐厅","address":"黄浦区外马路653号4库106室"},{"poiid":"B2094757D66BA1FC4793","title":"峯铁板烧","lon":"121.5069581","lat":"31.2178715","category":"269","category_name":"烧烤","address":"黄浦区外马路579号2号库302室"},{"poiid":"B2094757D468AAFA4393","title":"锘瓦 老码头店 NOVA","lon":"121.5074508","lat":"31.2164635","category":"94","category_name":"西餐厅","address":"黄浦区外马路653号4号库2楼(近王家码头路)"},{"poiid":"B2094757D168A2FF4999","title":"Rico Rico","lon":"121.507503738","lat":"31.2178780369","category":"500","category_name":"未知分类","address":"上海外滩奥斯卡"},{"poiid":"B2094757D169ABFE449D","title":"巴富仕游艇会","lon":"121.505978738","lat":"31.2121359146","category":"500","category_name":"未知分类","address":"上海市黄浦区幸福码头创意园区"},{"poiid":"B2094750D664A1FB489D","title":"外滩奥斯卡","lon":"121.507","lat":"31.2179","category":"260","category_name":"其他","address":"黄浦区外马路579号(近阳光沙滩)"},{"poiid":"B2094757D465ABF8479E","title":"鸟真 Banni","lon":"121.504442","lat":"31.221024","category":"269","category_name":"烧烤","address":"黄浦区中山南路505号老码头7号楼107室(近复兴东路)"},{"poiid":"B2094757D16FA7F8409F","title":"外马路601号","lon":"121.505543238","lat":"31.2164155057","category":"500","category_name":"未知分类","address":"上海外马路601号"},{"poiid":"B2094757D06EAAFE4493","title":"幸福码头创意园区","lon":"121.5111","lat":"31.216562","category":"45","category_name":"产业园区","address":"上海中山南路1029号"},{"poiid":"B2094751D36AA4FF4993","title":"景汇酒店","lon":"121.50783","lat":"31.21542","category":"72","category_name":"广东菜","address":"黄浦区外马路725号老码头二期五号库5-6楼"},{"poiid":"B2094750D565A4FE479E","title":"The Bund Virgo Club","lon":"121.50449762831113","lat":"31.2185896494834","category":"172","category_name":"酒吧","address":"黄浦区中山南路505号外码头11号楼(近复兴东路)"},{"poiid":"B2094654DB6BABF44892","title":"上海南外滩大楼","lon":"121.50641","lat":"31.21476","category":"46","category_name":"楼宇","address":"浦东新区金湘路225弄"},{"poiid":"B2094654DA6EA4FF4892","title":"华普科技大厦","lon":"121.508","lat":"31.2161","category":"46","category_name":"楼宇","address":"徐汇区田林路300号"},{"poiid":"B2094757D06AA5F84992","title":"The table NO.1","lon":"121.50536722","lat":"31.220391924","category":"94","category_name":"西餐厅","address":"上海毛家园路2号"},{"poiid":"B2094655D264A4F5479E","title":"中国人民财产保险公司大厦","lon":"121.50608","lat":"31.21533","category":"46","category_name":"楼宇","address":"行宫位于沈河北站一路41号"},{"poiid":"B2094757D465A4FA4193","title":"逦可餐厅 Rico Rico","lon":"121.507171","lat":"31.217541","category":"100","category_name":"地中海风格菜品","address":"黄浦区南外滩外马路601号114室(复兴轮渡南侧)"},{"poiid":"B2094757D068A6F9489E","title":"董家渡天主堂","lon":"121.504368429","lat":"31.2143143056","category":"245","category_name":"教堂","address":"黄浦区董家渡路175号(近万裕街)"},{"poiid":"B2094654DA68AAF84599","title":"谷泰滨江大厦","lon":"121.50619","lat":"31.213778","category":"46","category_name":"楼宇","address":"朝阳京城大厦西100米路北(新源里14号)"},{"poiid":"B2094654DB6BABF4499B","title":"汉庭快捷酒店(上海外滩店)","lon":"121.50508","lat":"31.22008","category":"216","category_name":"经济型连锁酒店","address":"上海黄浦区中山南路433号(近复兴东路)  "},{"poiid":"B2094757DB69A0F94398","title":"孔乙己月明楼","lon":"121.50743","lat":"31.21646","category":"72","category_name":"广东菜","address":"外马路653号四号库3楼近毛家园路"},{"poiid":"B2094757DB69A5FD4192","title":"小南国 上海码头店","lon":"121.506884","lat":"31.218189","category":"247","category_name":"餐饮美食","address":"外马路579号4楼近新码头街"},{"poiid":"B2094757D568A1FF439C","title":"老码头休闲创意园","lon":"121.5051547","lat":"31.21956889","category":"248","category_name":"生活娱乐","address":"中山南路479弄"},{"poiid":"B2094757D465A3FD449E","title":"外滩第一台 Table Number 1","lon":"121.504926","lat":"31.22005","category":"67","category_name":"甜品店","address":"黄浦区毛家园路1-3号(近中山南路)"},{"poiid":"B2094757D16DAAFE4999","title":"Char Bar","lon":"121.5052","lat":"31.21872","category":"260","category_name":"其他","address":"黄浦区中山南路505弄老码头10号楼B座(近外马路)"},{"poiid":"B2094757D068A4FA419F","title":"董家渡路轮渡","lon":"121.50824447","lat":"31.214948531","category":"35","category_name":"长途汽车站","address":"上海外马路737号"},{"poiid":"B2094757D16DAAF5439B","title":"外马路","lon":"121.503744938","lat":"31.2205340935","category":"500","category_name":"未知分类","address":"上海外马路"},{"poiid":"B2094750D76CABF4409B","title":"Bubba'sTexas-styleBBQ(老码头店)","lon":"121.507","lat":"31.2165","category":"94","category_name":"西餐厅","address":"黄浦区外马路653号103室(近码头路)"},{"poiid":"B2094757D168A2FD409D","title":"OT 歐堤餐廳酒吧","lon":"121.507375738","lat":"31.2176690324","category":"247","category_name":"餐饮美食","address":"上海黄浦区外馬路601號2號樓110A"},{"poiid":"B2094654DA6EA4F84692","title":"南浦大厦","lon":"121.51","lat":"31.2171","category":"46","category_name":"楼宇","address":"丰台学城海鹰路1号,3号"},{"poiid":"B2094750D26BA0FD409D","title":"Bravo意大利餐厅酒吧","lon":"121.50716213491819","lat":"31.217520040380812","category":"94","category_name":"西餐厅","address":"黄浦区外马路601号1楼111室"},{"poiid":"B2094757D468A4FE4992","title":"富钜德国餐厅 Stiller's Restaurant","lon":"121.504501054","lat":"31.221032793","category":"94","category_name":"西餐厅","address":"黄浦区中山南路505弄13号楼6-7楼(近复兴东路)"},{"poiid":"B2094757D16BA2FC469A","title":"峰”铁板烧","lon":"121.50623073","lat":"31.21851505","category":"247","category_name":"餐饮美食","address":"上海外马路579号2号苦302"},{"poiid":"B2094750D26EA7F94399","title":"老码头壹号会所 Club One Restaurant & Bar","lon":"121.504485054","lat":"31.221038793","category":"247","category_name":"餐饮美食","address":"中山南路505号老码头1号楼近复兴东路外滩"},{"poiid":"B2094654DA68AAFF4892","title":"上海金隆物业大楼","lon":"121.50598","lat":"31.21717","category":"46","category_name":"楼宇","address":"徐汇区田林路300号"},{"poiid":"B2094751D465A1F54798","title":"罗望子泰越餐厅酒吧","lon":"121.503281","lat":"31.220581","category":"99","category_name":"泰国／越南菜品餐厅","address":"黄浦区中山南路505号老码头10号楼B座(近新码头街)"},{"poiid":"B2094655D268A6FC4293","title":"老码头","lon":"121.50566","lat":"31.21965","category":"119","category_name":"商场","address":"上海闵行区七莘路3166号七宝乐购对面(近新龙路)  "},{"poiid":"B2094757DA6EA7FB479F","title":"G Water Front","lon":"121.507171000002","lat":"31.2175409999998","category":"247","category_name":"餐饮美食","address":"黄浦区外马路601号老码头沃弗3号库112室、206室"},{"poiid":"B2094757D06FA6FF459E","title":"老码头·阳光沙滩","lon":"121.50603012","lat":"31.220198143","category":"234","category_name":"海滨浴场","address":"黄浦区外马路421号(近复兴东路)"},{"poiid":"B209475CD564A7F84392","title":"上海滩浦东香格里拉店","lon":"121.50058","lat":"31.23634","category":"119","category_name":"商场","address":"浦东富成路33号香格里拉酒店内大堂层"},{"poiid":"B2094757D66FA6FA4892","title":"星巴克(老码头店)","lon":"121.5050866","lat":"31.219239","category":"260","category_name":"其他","address":"黄浦区中山南路505弄老码头5号楼101室(近复兴东路)"},{"poiid":"B2094757D168A6FC439E","title":"奥斯卡会所&薇丝酒吧","lon":"121.507143738","lat":"31.2182860456","category":"174","category_name":"迪厅","address":"上海外滩"},{"poiid":"B2094757D06FA3F5449F","title":"waterhouse水舍","lon":"121.50584271","lat":"31.217899418","category":"217","category_name":"旅馆招待所","address":"黄浦区毛家园路1-3号(中山南路479弄老码头内)"},{"poiid":"B2094757D06FA3FF489B","title":"南外滩轻纺面料市场","lon":"121.50607078218","lat":"31.217393516946","category":"249","category_name":"购物服务","address":"黄浦区陆家浜路399号(近南仓街)"},{"poiid":"B2094757DA69A1F9469A","title":"尚九外滩店","lon":"121.50774328047","lat":"31.216663643904","category":"111","category_name":"休闲餐饮场所","address":"黄浦区外马路653号4号库5楼(近王家码头路)"},{"poiid":"B2094757D169A6FB4899","title":"Long House","lon":"121.505718738","lat":"31.2196240741","category":"110","category_name":"其他亚洲菜","address":"黄浦区中山南路505弄老码头7号楼105室"},{"poiid":"B2094757D16AA7F44893","title":"Sigma Film Club","lon":"121.507247738","lat":"31.2176420319","category":"72","category_name":"广东菜","address":"黄浦区外马路601号3号库3A楼(近老码头)"},{"poiid":"B2094757D068A2F94298","title":"黄浦江","lon":"121.50752895","lat":"31.220529166","category":"500","category_name":"未知分类","address":"上海黄浦江畔"},{"poiid":"B2094757D465ABFE419E","title":"濠芭 The Steak and Oyster Bar","lon":"121.50754451752","lat":"31.216563470075","category":"88","category_name":"海鲜酒楼","address":"黄浦区老码头外马路653号宏基2期四号库105号商铺"},{"poiid":"B2094757D069A2F94499","title":"小南国(老码头店)","lon":"121.50562073","lat":"31.219640074","category":"76","category_name":"上海菜","address":"虹口区四川北路1350号中信泰富申虹广场3楼304单元"},{"poiid":"B2094757D06FA5FF409A","title":"Kebabs On The Grille(克比印度料理)","lon":"121.50575665","lat":"31.218050483","category":"102","category_name":"印度风味","address":"黄浦区中山南路505弄老码头8号楼(近复兴东路)"},{"poiid":"B2094757DA6EAAF9489A","title":"纽约客匹萨(老码头店)","lon":"121.507447900002","lat":"31.2164712999997","category":"94","category_name":"西餐厅","address":"黄浦区外马路653号4库106室"},{"poiid":"B2094757D66BA1FC4793","title":"峯铁板烧","lon":"121.5069581","lat":"31.2178715","category":"269","category_name":"烧烤","address":"黄浦区外马路579号2号库302室"},{"poiid":"B2094757D468AAFA4393","title":"锘瓦 老码头店 NOVA","lon":"121.5074508","lat":"31.2164635","category":"94","category_name":"西餐厅","address":"黄浦区外马路653号4号库2楼(近王家码头路)"},{"poiid":"B2094757D168A2FF4999","title":"Rico Rico","lon":"121.507503738","lat":"31.2178780369","category":"500","category_name":"未知分类","address":"上海外滩奥斯卡"},{"poiid":"B2094757D169ABFE449D","title":"巴富仕游艇会","lon":"121.505978738","lat":"31.2121359146","category":"500","category_name":"未知分类","address":"上海市黄浦区幸福码头创意园区"},{"poiid":"B2094750D664A1FB489D","title":"外滩奥斯卡","lon":"121.507","lat":"31.2179","category":"260","category_name":"其他","address":"黄浦区外马路579号(近阳光沙滩)"},{"poiid":"B2094757D465ABF8479E","title":"鸟真 Banni","lon":"121.504442","lat":"31.221024","category":"269","category_name":"烧烤","address":"黄浦区中山南路505号老码头7号楼107室(近复兴东路)"},{"poiid":"B2094757D16FA7F8409F","title":"外马路601号","lon":"121.505543238","lat":"31.2164155057","category":"500","category_name":"未知分类","address":"上海外马路601号"},{"poiid":"B2094757D06EAAFE4493","title":"幸福码头创意园区","lon":"121.5111","lat":"31.216562","category":"45","category_name":"产业园区","address":"上海中山南路1029号"},{"poiid":"B2094751D36AA4FF4993","title":"景汇酒店","lon":"121.50783","lat":"31.21542","category":"72","category_name":"广东菜","address":"黄浦区外马路725号老码头二期五号库5-6楼"},{"poiid":"B2094750D565A4FE479E","title":"The Bund Virgo Club","lon":"121.50449762831113","lat":"31.2185896494834","category":"172","category_name":"酒吧","address":"黄浦区中山南路505号外码头11号楼(近复兴东路)"},{"poiid":"B2094654DB6BABF44892","title":"上海南外滩大楼","lon":"121.50641","lat":"31.21476","category":"46","category_name":"楼宇","address":"浦东新区金湘路225弄"},{"poiid":"B2094654DA6EA4FF4892","title":"华普科技大厦","lon":"121.508","lat":"31.2161","category":"46","category_name":"楼宇","address":"徐汇区田林路300号"},{"poiid":"B2094757D06AA5F84992","title":"The table NO.1","lon":"121.50536722","lat":"31.220391924","category":"94","category_name":"西餐厅","address":"上海毛家园路2号"},{"poiid":"B2094655D264A4F5479E","title":"中国人民财产保险公司大厦","lon":"121.50608","lat":"31.21533","category":"46","category_name":"楼宇","address":"行宫位于沈河北站一路41号"},{"poiid":"B2094757D465A4FA4193","title":"逦可餐厅 Rico Rico","lon":"121.507171","lat":"31.217541","category":"100","category_name":"地中海风格菜品","address":"黄浦区南外滩外马路601号114室(复兴轮渡南侧)"},{"poiid":"B2094757D068A6F9489E","title":"董家渡天主堂","lon":"121.504368429","lat":"31.2143143056","category":"245","category_name":"教堂","address":"黄浦区董家渡路175号(近万裕街)"},{"poiid":"B2094654DA68AAF84599","title":"谷泰滨江大厦","lon":"121.50619","lat":"31.213778","category":"46","category_name":"楼宇","address":"朝阳京城大厦西100米路北(新源里14号)"},{"poiid":"B2094654DB6BABF4499B","title":"汉庭快捷酒店(上海外滩店)","lon":"121.50508","lat":"31.22008","category":"216","category_name":"经济型连锁酒店","address":"上海黄浦区中山南路433号(近复兴东路)  "},{"poiid":"B2094757DB69A0F94398","title":"孔乙己月明楼","lon":"121.50743","lat":"31.21646","category":"72","category_name":"广东菜","address":"外马路653号四号库3楼近毛家园路"},{"poiid":"B2094757DB69A5FD4192","title":"小南国 上海码头店","lon":"121.506884","lat":"31.218189","category":"247","category_name":"餐饮美食","address":"外马路579号4楼近新码头街"},{"poiid":"B2094757D568A1FF439C","title":"老码头休闲创意园","lon":"121.5051547","lat":"31.21956889","category":"248","category_name":"生活娱乐","address":"中山南路479弄"},{"poiid":"B2094757D465A3FD449E","title":"外滩第一台 Table Number 1","lon":"121.504926","lat":"31.22005","category":"67","category_name":"甜品店","address":"黄浦区毛家园路1-3号(近中山南路)"},{"poiid":"B2094757D16DAAFE4999","title":"Char Bar","lon":"121.5052","lat":"31.21872","category":"260","category_name":"其他","address":"黄浦区中山南路505弄老码头10号楼B座(近外马路)"},{"poiid":"B2094757D068A4FA419F","title":"董家渡路轮渡","lon":"121.50824447","lat":"31.214948531","category":"35","category_name":"长途汽车站","address":"上海外马路737号"},{"poiid":"B2094757D16DAAF5439B","title":"外马路","lon":"121.503744938","lat":"31.2205340935","category":"500","category_name":"未知分类","address":"上海外马路"},{"poiid":"B2094750D76CABF4409B","title":"Bubba'sTexas-styleBBQ(老码头店)","lon":"121.507","lat":"31.2165","category":"94","category_name":"西餐厅","address":"黄浦区外马路653号103室(近码头路)"},{"poiid":"B2094757D168A2FD409D","title":"OT 歐堤餐廳酒吧","lon":"121.507375738","lat":"31.2176690324","category":"247","category_name":"餐饮美食","address":"上海黄浦区外馬路601號2號樓110A"},{"poiid":"B2094654DA6EA4F84692","title":"南浦大厦","lon":"121.51","lat":"31.2171","category":"46","category_name":"楼宇","address":"丰台学城海鹰路1号,3号"},{"poiid":"B2094750D26BA0FD409D","title":"Bravo意大利餐厅酒吧","lon":"121.50716213491819","lat":"31.217520040380812","category":"94","category_name":"西餐厅","address":"黄浦区外马路601号1楼111室"},{"poiid":"B2094757D468A4FE4992","title":"富钜德国餐厅 Stiller's Restaurant","lon":"121.504501054","lat":"31.221032793","category":"94","category_name":"西餐厅","address":"黄浦区中山南路505弄13号楼6-7楼(近复兴东路)"},{"poiid":"B2094757D16BA2FC469A","title":"峰”铁板烧","lon":"121.50623073","lat":"31.21851505","category":"247","category_name":"餐饮美食","address":"上海外马路579号2号苦302"},{"poiid":"B2094750D26EA7F94399","title":"老码头壹号会所 Club One Restaurant & Bar","lon":"121.504485054","lat":"31.221038793","category":"247","category_name":"餐饮美食","address":"中山南路505号老码头1号楼近复兴东路外滩"},{"poiid":"B2094654DA68AAFF4892","title":"上海金隆物业大楼","lon":"121.50598","lat":"31.21717","category":"46","category_name":"楼宇","address":"徐汇区田林路300号"},{"poiid":"B2094751D465A1F54798","title":"罗望子泰越餐厅酒吧","lon":"121.503281","lat":"31.220581","category":"99","category_name":"泰国／越南菜品餐厅","address":"黄浦区中山南路505号老码头10号楼B座(近新码头街)"},{"poiid":"B2094655D268A6FC4293","title":"老码头","lon":"121.50566","lat":"31.21965","category":"119","category_name":"商场","address":"上海闵行区七莘路3166号七宝乐购对面(近新龙路)  "},{"poiid":"B2094757DA6EA7FB479F","title":"G Water Front","lon":"121.507171000002","lat":"31.2175409999998","category":"247","category_name":"餐饮美食","address":"黄浦区外马路601号老码头沃弗3号库112室、206室"},{"poiid":"B2094757D06FA6FF459E","title":"老码头·阳光沙滩","lon":"121.50603012","lat":"31.220198143","category":"234","category_name":"海滨浴场","address":"黄浦区外马路421号(近复兴东路)"},{"poiid":"B209475CD564A7F84392","title":"上海滩浦东香格里拉店","lon":"121.50058","lat":"31.23634","category":"119","category_name":"商场","address":"浦东富成路33号香格里拉酒店内大堂层"},{"poiid":"B2094757D66FA6FA4892","title":"星巴克(老码头店)","lon":"121.5050866","lat":"31.219239","category":"260","category_name":"其他","address":"黄浦区中山南路505弄老码头5号楼101室(近复兴东路)"},{"poiid":"B2094757D168A6FC439E","title":"奥斯卡会所&薇丝酒吧","lon":"121.507143738","lat":"31.2182860456","category":"174","category_name":"迪厅","address":"上海外滩"},{"poiid":"B2094757D06FA3F5449F","title":"waterhouse水舍","lon":"121.50584271","lat":"31.217899418","category":"217","category_name":"旅馆招待所","address":"黄浦区毛家园路1-3号(中山南路479弄老码头内)"},{"poiid":"B2094757D06FA3FF489B","title":"南外滩轻纺面料市场","lon":"121.50607078218","lat":"31.217393516946","category":"249","category_name":"购物服务","address":"黄浦区陆家浜路399号(近南仓街)"},{"poiid":"B2094757DA69A1F9469A","title":"尚九外滩店","lon":"121.50774328047","lat":"31.216663643904","category":"111","category_name":"休闲餐饮场所","address":"黄浦区外马路653号4号库5楼(近王家码头路)"},{"poiid":"B2094757D169A6FB4899","title":"Long House","lon":"121.505718738","lat":"31.2196240741","category":"110","category_name":"其他亚洲菜","address":"黄浦区中山南路505弄老码头7号楼105室"},{"poiid":"B2094757D16AA7F44893","title":"Sigma Film Club","lon":"121.507247738","lat":"31.2176420319","category":"72","category_name":"广东菜","address":"黄浦区外马路601号3号库3A楼(近老码头)"},{"poiid":"B2094757D068A2F94298","title":"黄浦江","lon":"121.50752895","lat":"31.220529166","category":"500","category_name":"未知分类","address":"上海黄浦江畔"},{"poiid":"B2094757D465ABFE419E","title":"濠芭 The Steak and Oyster Bar","lon":"121.50754451752","lat":"31.216563470075","category":"88","category_name":"海鲜酒楼","address":"黄浦区老码头外马路653号宏基2期四号库105号商铺"},{"poiid":"B2094757D069A2F94499","title":"小南国(老码头店)","lon":"121.50562073","lat":"31.219640074","category":"76","category_name":"上海菜","address":"虹口区四川北路1350号中信泰富申虹广场3楼304单元"},{"poiid":"B2094757D06FA5FF409A","title":"Kebabs On The Grille(克比印度料理)","lon":"121.50575665","lat":"31.218050483","category":"102","category_name":"印度风味","address":"黄浦区中山南路505弄老码头8号楼(近复兴东路)"},{"poiid":"B2094757DA6EAAF9489A","title":"纽约客匹萨(老码头店)","lon":"121.507447900002","lat":"31.2164712999997","category":"94","category_name":"西餐厅","address":"黄浦区外马路653号4库106室"},{"poiid":"B2094757D66BA1FC4793","title":"峯铁板烧","lon":"121.5069581","lat":"31.2178715","category":"269","category_name":"烧烤","address":"黄浦区外马路579号2号库302室"},{"poiid":"B2094757D468AAFA4393","title":"锘瓦 老码头店 NOVA","lon":"121.5074508","lat":"31.2164635","category":"94","category_name":"西餐厅","address":"黄浦区外马路653号4号库2楼(近王家码头路)"},{"poiid":"B2094757D168A2FF4999","title":"Rico Rico","lon":"121.507503738","lat":"31.2178780369","category":"500","category_name":"未知分类","address":"上海外滩奥斯卡"},{"poiid":"B2094757D169ABFE449D","title":"巴富仕游艇会","lon":"121.505978738","lat":"31.2121359146","category":"500","category_name":"未知分类","address":"上海市黄浦区幸福码头创意园区"},{"poiid":"B2094750D664A1FB489D","title":"外滩奥斯卡","lon":"121.507","lat":"31.2179","category":"260","category_name":"其他","address":"黄浦区外马路579号(近阳光沙滩)"},{"poiid":"B2094757D465ABF8479E","title":"鸟真 Banni","lon":"121.504442","lat":"31.221024","category":"269","category_name":"烧烤","address":"黄浦区中山南路505号老码头7号楼107室(近复兴东路)"},{"poiid":"B2094757D16FA7F8409F","title":"外马路601号","lon":"121.505543238","lat":"31.2164155057","category":"500","category_name":"未知分类","address":"上海外马路601号"},{"poiid":"B2094757D06EAAFE4493","title":"幸福码头创意园区","lon":"121.5111","lat":"31.216562","category":"45","category_name":"产业园区","address":"上海中山南路1029号"},{"poiid":"B2094751D36AA4FF4993","title":"景汇酒店","lon":"121.50783","lat":"31.21542","category":"72","category_name":"广东菜","address":"黄浦区外马路725号老码头二期五号库5-6楼"},{"poiid":"B2094750D565A4FE479E","title":"The Bund Virgo Club","lon":"121.50449762831113","lat":"31.2185896494834","category":"172","category_name":"酒吧","address":"黄浦区中山南路505号外码头11号楼(近复兴东路)"},{"poiid":"B2094654DB6BABF44892","title":"上海南外滩大楼","lon":"121.50641","lat":"31.21476","category":"46","category_name":"楼宇","address":"浦东新区金湘路225弄"},{"poiid":"B2094654DA6EA4FF4892","title":"华普科技大厦","lon":"121.508","lat":"31.2161","category":"46","category_name":"楼宇","address":"徐汇区田林路300号"},{"poiid":"B2094757D06AA5F84992","title":"The table NO.1","lon":"121.50536722","lat":"31.220391924","category":"94","category_name":"西餐厅","address":"上海毛家园路2号"},{"poiid":"B2094655D264A4F5479E","title":"中国人民财产保险公司大厦","lon":"121.50608","lat":"31.21533","category":"46","category_name":"楼宇","address":"行宫位于沈河北站一路41号"},{"poiid":"B2094757D465A4FA4193","title":"逦可餐厅 Rico Rico","lon":"121.507171","lat":"31.217541","category":"100","category_name":"地中海风格菜品","address":"黄浦区南外滩外马路601号114室(复兴轮渡南侧)"},{"poiid":"B2094757D068A6F9489E","title":"董家渡天主堂","lon":"121.504368429","lat":"31.2143143056","category":"245","category_name":"教堂","address":"黄浦区董家渡路175号(近万裕街)"},{"poiid":"B2094654DA68AAF84599","title":"谷泰滨江大厦","lon":"121.50619","lat":"31.213778","category":"46","category_name":"楼宇","address":"朝阳京城大厦西100米路北(新源里14号)"},{"poiid":"B2094654DB6BABF4499B","title":"汉庭快捷酒店(上海外滩店)","lon":"121.50508","lat":"31.22008","category":"216","category_name":"经济型连锁酒店","address":"上海黄浦区中山南路433号(近复兴东路)  "},{"poiid":"B2094757DB69A0F94398","title":"孔乙己月明楼","lon":"121.50743","lat":"31.21646","category":"72","category_name":"广东菜","address":"外马路653号四号库3楼近毛家园路"},{"poiid":"B2094757DB69A5FD4192","title":"小南国 上海码头店","lon":"121.506884","lat":"31.218189","category":"247","category_name":"餐饮美食","address":"外马路579号4楼近新码头街"},{"poiid":"B2094757D568A1FF439C","title":"老码头休闲创意园","lon":"121.5051547","lat":"31.21956889","category":"248","category_name":"生活娱乐","address":"中山南路479弄"},{"poiid":"B2094757D465A3FD449E","title":"外滩第一台 Table Number 1","lon":"121.504926","lat":"31.22005","category":"67","category_name":"甜品店","address":"黄浦区毛家园路1-3号(近中山南路)"},{"poiid":"B2094757D16DAAFE4999","title":"Char Bar","lon":"121.5052","lat":"31.21872","category":"260","category_name":"其他","address":"黄浦区中山南路505弄老码头10号楼B座(近外马路)"},{"poiid":"B2094757D068A4FA419F","title":"董家渡路轮渡","lon":"121.50824447","lat":"31.214948531","category":"35","category_name":"长途汽车站","address":"上海外马路737号"},{"poiid":"B2094757D16DAAF5439B","title":"外马路","lon":"121.503744938","lat":"31.2205340935","category":"500","category_name":"未知分类","address":"上海外马路"},{"poiid":"B2094750D76CABF4409B","title":"Bubba'sTexas-styleBBQ(老码头店)","lon":"121.507","lat":"31.2165","category":"94","category_name":"西餐厅","address":"黄浦区外马路653号103室(近码头路)"},{"poiid":"B2094757D168A2FD409D","title":"OT 歐堤餐廳酒吧","lon":"121.507375738","lat":"31.2176690324","category":"247","category_name":"餐饮美食","address":"上海黄浦区外馬路601號2號樓110A"},{"poiid":"B2094654DA6EA4F84692","title":"南浦大厦","lon":"121.51","lat":"31.2171","category":"46","category_name":"楼宇","address":"丰台学城海鹰路1号,3号"},{"poiid":"B2094750D26BA0FD409D","title":"Bravo意大利餐厅酒吧","lon":"121.50716213491819","lat":"31.217520040380812","category":"94","category_name":"西餐厅","address":"黄浦区外马路601号1楼111室"},{"poiid":"B2094757D468A4FE4992","title":"富钜德国餐厅 Stiller's Restaurant","lon":"121.504501054","lat":"31.221032793","category":"94","category_name":"西餐厅","address":"黄浦区中山南路505弄13号楼6-7楼(近复兴东路)"},{"poiid":"B2094757D16BA2FC469A","title":"峰”铁板烧","lon":"121.50623073","lat":"31.21851505","category":"247","category_name":"餐饮美食","address":"上海外马路579号2号苦302"},{"poiid":"B2094750D26EA7F94399","title":"老码头壹号会所 Club One Restaurant & Bar","lon":"121.504485054","lat":"31.221038793","category":"247","category_name":"餐饮美食","address":"中山南路505号老码头1号楼近复兴东路外滩"},{"poiid":"B2094654DA68AAFF4892","title":"上海金隆物业大楼","lon":"121.50598","lat":"31.21717","category":"46","category_name":"楼宇","address":"徐汇区田林路300号"},{"poiid":"B2094751D465A1F54798","title":"罗望子泰越餐厅酒吧","lon":"121.503281","lat":"31.220581","category":"99","category_name":"泰国／越南菜品餐厅","address":"黄浦区中山南路505号老码头10号楼B座(近新码头街)"},{"poiid":"B2094655D268A6FC4293","title":"老码头","lon":"121.50566","lat":"31.21965","category":"119","category_name":"商场","address":"上海闵行区七莘路3166号七宝乐购对面(近新龙路)  "},{"poiid":"B2094757DA6EA7FB479F","title":"G Water Front","lon":"121.507171000002","lat":"31.2175409999998","category":"247","category_name":"餐饮美食","address":"黄浦区外马路601号老码头沃弗3号库112室、206室"},{"poiid":"B2094757D06FA6FF459E","title":"老码头·阳光沙滩","lon":"121.50603012","lat":"31.220198143","category":"234","category_name":"海滨浴场","address":"黄浦区外马路421号(近复兴东路)"},{"poiid":"B209475CD564A7F84392","title":"上海滩浦东香格里拉店","lon":"121.50058","lat":"31.23634","category":"119","category_name":"商场","address":"浦东富成路33号香格里拉酒店内大堂层"},{"poiid":"B2094757D66FA6FA4892","title":"星巴克(老码头店)","lon":"121.5050866","lat":"31.219239","category":"260","category_name":"其他","address":"黄浦区中山南路505弄老码头5号楼101室(近复兴东路)"},{"poiid":"B2094757D168A6FC439E","title":"奥斯卡会所&薇丝酒吧","lon":"121.507143738","lat":"31.2182860456","category":"174","category_name":"迪厅","address":"上海外滩"},{"poiid":"B2094757D06FA3F5449F","title":"waterhouse水舍","lon":"121.50584271","lat":"31.217899418","category":"217","category_name":"旅馆招待所","address":"黄浦区毛家园路1-3号(中山南路479弄老码头内)"},{"poiid":"B2094757D06FA3FF489B","title":"南外滩轻纺面料市场","lon":"121.50607078218","lat":"31.217393516946","category":"249","category_name":"购物服务","address":"黄浦区陆家浜路399号(近南仓街)"},{"poiid":"B2094757DA69A1F9469A","title":"尚九外滩店","lon":"121.50774328047","lat":"31.216663643904","category":"111","category_name":"休闲餐饮场所","address":"黄浦区外马路653号4号库5楼(近王家码头路)"},{"poiid":"B2094757D169A6FB4899","title":"Long House","lon":"121.505718738","lat":"31.2196240741","category":"110","category_name":"其他亚洲菜","address":"黄浦区中山南路505弄老码头7号楼105室"},{"poiid":"B2094757D16AA7F44893","title":"Sigma Film Club","lon":"121.507247738","lat":"31.2176420319","category":"72","category_name":"广东菜","address":"黄浦区外马路601号3号库3A楼(近老码头)"},{"poiid":"B2094757D068A2F94298","title":"黄浦江","lon":"121.50752895","lat":"31.220529166","category":"500","category_name":"未知分类","address":"上海黄浦江畔"},{"poiid":"B2094757D465ABFE419E","title":"濠芭 The Steak and Oyster Bar","lon":"121.50754451752","lat":"31.216563470075","category":"88","category_name":"海鲜酒楼","address":"黄浦区老码头外马路653号宏基2期四号库105号商铺"},{"poiid":"B2094757D069A2F94499","title":"小南国(老码头店)","lon":"121.50562073","lat":"31.219640074","category":"76","category_name":"上海菜","address":"虹口区四川北路1350号中信泰富申虹广场3楼304单元"},{"poiid":"B2094757D06FA5FF409A","title":"Kebabs On The Grille(克比印度料理)","lon":"121.50575665","lat":"31.218050483","category":"102","category_name":"印度风味","address":"黄浦区中山南路505弄老码头8号楼(近复兴东路)"},{"poiid":"B2094757DA6EAAF9489A","title":"纽约客匹萨(老码头店)","lon":"121.507447900002","lat":"31.2164712999997","category":"94","category_name":"西餐厅","address":"黄浦区外马路653号4库106室"},{"poiid":"B2094757D66BA1FC4793","title":"峯铁板烧","lon":"121.5069581","lat":"31.2178715","category":"269","category_name":"烧烤","address":"黄浦区外马路579号2号库302室"},{"poiid":"B2094757D468AAFA4393","title":"锘瓦 老码头店 NOVA","lon":"121.5074508","lat":"31.2164635","category":"94","category_name":"西餐厅","address":"黄浦区外马路653号4号库2楼(近王家码头路)"},{"poiid":"B2094757D168A2FF4999","title":"Rico Rico","lon":"121.507503738","lat":"31.2178780369","category":"500","category_name":"未知分类","address":"上海外滩奥斯卡"},{"poiid":"B2094757D169ABFE449D","title":"巴富仕游艇会","lon":"121.505978738","lat":"31.2121359146","category":"500","category_name":"未知分类","address":"上海市黄浦区幸福码头创意园区"},{"poiid":"B2094750D664A1FB489D","title":"外滩奥斯卡","lon":"121.507","lat":"31.2179","category":"260","category_name":"其他","address":"黄浦区外马路579号(近阳光沙滩)"},{"poiid":"B2094757D465ABF8479E","title":"鸟真 Banni","lon":"121.504442","lat":"31.221024","category":"269","category_name":"烧烤","address":"黄浦区中山南路505号老码头7号楼107室(近复兴东路)"},{"poiid":"B2094757D16FA7F8409F","title":"外马路601号","lon":"121.505543238","lat":"31.2164155057","category":"500","category_name":"未知分类","address":"上海外马路601号"},{"poiid":"B2094757D06EAAFE4493","title":"幸福码头创意园区","lon":"121.5111","lat":"31.216562","category":"45","category_name":"产业园区","address":"上海中山南路1029号"},{"poiid":"B2094751D36AA4FF4993","title":"景汇酒店","lon":"121.50783","lat":"31.21542","category":"72","category_name":"广东菜","address":"黄浦区外马路725号老码头二期五号库5-6楼"},{"poiid":"B2094750D565A4FE479E","title":"The Bund Virgo Club","lon":"121.50449762831113","lat":"31.2185896494834","category":"172","category_name":"酒吧","address":"黄浦区中山南路505号外码头11号楼(近复兴东路)"},{"poiid":"B2094654DB6BABF44892","title":"上海南外滩大楼","lon":"121.50641","lat":"31.21476","category":"46","category_name":"楼宇","address":"浦东新区金湘路225弄"},{"poiid":"B2094654DA6EA4FF4892","title":"华普科技大厦","lon":"121.508","lat":"31.2161","category":"46","category_name":"楼宇","address":"徐汇区田林路300号"},{"poiid":"B2094757D06AA5F84992","title":"The table NO.1","lon":"121.50536722","lat":"31.220391924","category":"94","category_name":"西餐厅","address":"上海毛家园路2号"},{"poiid":"B2094655D264A4F5479E","title":"中国人民财产保险公司大厦","lon":"121.50608","lat":"31.21533","category":"46","category_name":"楼宇","address":"行宫位于沈河北站一路41号"},{"poiid":"B2094757D465A4FA4193","title":"逦可餐厅 Rico Rico","lon":"121.507171","lat":"31.217541","category":"100","category_name":"地中海风格菜品","address":"黄浦区南外滩外马路601号114室(复兴轮渡南侧)"},{"poiid":"B2094757D068A6F9489E","title":"董家渡天主堂","lon":"121.504368429","lat":"31.2143143056","category":"245","category_name":"教堂","address":"黄浦区董家渡路175号(近万裕街)"},{"poiid":"B2094654DA68AAF84599","title":"谷泰滨江大厦","lon":"121.50619","lat":"31.213778","category":"46","category_name":"楼宇","address":"朝阳京城大厦西100米路北(新源里14号)"},{"poiid":"B2094654DB6BABF4499B","title":"汉庭快捷酒店(上海外滩店)","lon":"121.50508","lat":"31.22008","category":"216","category_name":"经济型连锁酒店","address":"上海黄浦区中山南路433号(近复兴东路)  "},{"poiid":"B2094757DB69A0F94398","title":"孔乙己月明楼","lon":"121.50743","lat":"31.21646","category":"72","category_name":"广东菜","address":"外马路653号四号库3楼近毛家园路"},{"poiid":"B2094757DB69A5FD4192","title":"小南国 上海码头店","lon":"121.506884","lat":"31.218189","category":"247","category_name":"餐饮美食","address":"外马路579号4楼近新码头街"},{"poiid":"B2094757D568A1FF439C","title":"老码头休闲创意园","lon":"121.5051547","lat":"31.21956889","category":"248","category_name":"生活娱乐","address":"中山南路479弄"},{"poiid":"B2094757D465A3FD449E","title":"外滩第一台 Table Number 1","lon":"121.504926","lat":"31.22005","category":"67","category_name":"甜品店","address":"黄浦区毛家园路1-3号(近中山南路)"},{"poiid":"B2094757D16DAAFE4999","title":"Char Bar","lon":"121.5052","lat":"31.21872","category":"260","category_name":"其他","address":"黄浦区中山南路505弄老码头10号楼B座(近外马路)"},{"poiid":"B2094757D068A4FA419F","title":"董家渡路轮渡","lon":"121.50824447","lat":"31.214948531","category":"35","category_name":"长途汽车站","address":"上海外马路737号"},{"poiid":"B2094757D16DAAF5439B","title":"外马路","lon":"121.503744938","lat":"31.2205340935","category":"500","category_name":"未知分类","address":"上海外马路"},{"poiid":"B2094750D76CABF4409B","title":"Bubba'sTexas-styleBBQ(老码头店)","lon":"121.507","lat":"31.2165","category":"94","category_name":"西餐厅","address":"黄浦区外马路653号103室(近码头路)"},{"poiid":"B2094757D168A2FD409D","title":"OT 歐堤餐廳酒吧","lon":"121.507375738","lat":"31.2176690324","category":"247","category_name":"餐饮美食","address":"上海黄浦区外馬路601號2號樓110A"},{"poiid":"B2094654DA6EA4F84692","title":"南浦大厦","lon":"121.51","lat":"31.2171","category":"46","category_name":"楼宇","address":"丰台学城海鹰路1号,3号"},{"poiid":"B2094750D26BA0FD409D","title":"Bravo意大利餐厅酒吧","lon":"121.50716213491819","lat":"31.217520040380812","category":"94","category_name":"西餐厅","address":"黄浦区外马路601号1楼111室"},{"poiid":"B2094757D468A4FE4992","title":"富钜德国餐厅 Stiller's Restaurant","lon":"121.504501054","lat":"31.221032793","category":"94","category_name":"西餐厅","address":"黄浦区中山南路505弄13号楼6-7楼(近复兴东路)"},{"poiid":"B2094757D16BA2FC469A","title":"峰”铁板烧","lon":"121.50623073","lat":"31.21851505","category":"247","category_name":"餐饮美食","address":"上海外马路579号2号苦302"},{"poiid":"B2094750D26EA7F94399","title":"老码头壹号会所 Club One Restaurant & Bar","lon":"121.504485054","lat":"31.221038793","category":"247","category_name":"餐饮美食","address":"中山南路505号老码头1号楼近复兴东路外滩"},{"poiid":"B2094654DA68AAFF4892","title":"上海金隆物业大楼","lon":"121.50598","lat":"31.21717","category":"46","category_name":"楼宇","address":"徐汇区田林路300号"},{"poiid":"B2094751D465A1F54798","title":"罗望子泰越餐厅酒吧","lon":"121.503281","lat":"31.220581","category":"99","category_name":"泰国／越南菜品餐厅","address":"黄浦区中山南路505号老码头10号楼B座(近新码头街)"}]