[{"poiid":"B2094757D06EAAFA489F","title":"上海外滩英迪格酒店 (Hotel Indigo)","lon":"121.499735","lat":"31.226432","category":"217","category_name":"旅馆招待所","address":"黄浦区中山东二路585号(近东门路)"},{"poiid":"B2094757D06FA6FC429D","title":"外滩新十六铺","lon":"121.498305","lat":"31.227433","category":"234","category_name":"海滨浴场","address":"上海中山东二路531号"},{"poiid":"B2094757D06FA7FC4292","title":"浦江游轮","lon":"121.50081","lat":"31.22468","category":"260","category_name":"其他","address":"黄浦区十六铺站－公平路码头(会馆弄中山南路)查看地图"},{"poiid":"B209475CD564A7F84292","title":"上海滩新天地店","lon":"121.47463","lat":"31.22164","category":"119","category_name":"商场","address":"\"太仓路181弄新天地北里15号\r\n\""},{"poiid":"B209475CD564A7F84392","title":"上海滩浦东香格里拉店","lon":"121.50058","lat":"31.23634","category":"119","category_name":"商场","address":"浦东富成路33号香格里拉酒店内大堂层"},{"poiid":"B2094757D06FA4F8459F","title":"滨江欣景大酒店(Riverview Hotel)","lon":"121.49992806","lat":"31.224301883","category":"76","category_name":"上海菜","address":"黄浦区中山南路76号(会馆弄中山南路)"},{"poiid":"B2094757D068A5FA469B","title":"恰CHAR","lon":"121.50005411","lat":"31.225733464","category":"94","category_name":"西餐厅","address":"黄浦区中山东二路585号外滩英迪格酒店29-31楼(东门路)"},{"poiid":"B2094757D568A6FE449D","title":"松鹤楼(外滩店)","lon":"121.49712782","lat":"31.22868273","category":"76","category_name":"上海菜","address":"黄浦区中山东二路505号(近外马路)"},{"poiid":"B2094757D16FA0FF4092","title":"小南国(十六铺店)","lon":"121.500050938","lat":"31.2274259403","category":"76","category_name":"上海菜","address":"黄浦区中山东二路565号A楼(近东门路)"},{"poiid":"B2094757D06FA1FA419F","title":"复兴东路轮渡站","lon":"121.50405883","lat":"31.22277069","category":"35","category_name":"长途汽车站","address":"上海市黄浦区复兴东路1号"},{"poiid":"B2094757D06FA0F8499E","title":"交通银行上海分行","lon":"121.50114678","lat":"31.225955549","category":"46","category_name":"楼宇","address":"上海中山南路99号"},{"poiid":"B2094757D06AA2FD4298","title":"龙皇酒家","lon":"121.49882273","lat":"31.227382239","category":"72","category_name":"广东菜","address":"黄浦区中山东二路535号十六铺B栋楼(外马路中山东二路)"},{"poiid":"B2094654DB69A6F84893","title":"外滩.滨江名人苑","lon":"121.49835","lat":"31.223482","category":"47","category_name":"住宅区","address":"黄浦区中华路88弄"},{"poiid":"B2094757D069A6FE449C","title":"十六铺码头边","lon":"121.49703768","lat":"31.228610509","category":"500","category_name":"未知分类","address":"上海市,上海中山东二路"},{"poiid":"B2094757D068AAF44399","title":"士林华苑","lon":"121.497","lat":"31.2262","category":"47","category_name":"住宅区","address":"上海黄浦区河南南路555弄"},{"poiid":"B2094655D36DA1F5439B","title":"小东门","lon":"121.49708","lat":"31.22573","category":"38","category_name":"公交车站","address":""},{"poiid":"B2094757D664AAFB479B","title":"上海老街小吃","lon":"121.49814282332","lat":"31.22556929005","category":"68","category_name":"快餐厅","address":"黄浦区方浜中路77号(康家弄四牌楼路)"},{"poiid":"B2094757D168A0F8489B","title":"fesco adecco","lon":"121.49748523","lat":"31.224477577","category":"500","category_name":"未知分类","address":"上海市中山南路28号久事大厦附楼"},{"poiid":"B2094757D16DA5FB459D","title":"MJ  club","lon":"121.499573738","lat":"31.2269042292","category":"500","category_name":"未知分类","address":"上海市黄浦区中山南二路501号"},{"poiid":"B2094757D16DA0FB4493","title":"东方国际金融广场","lon":"121.502364","lat":"31.2216","category":"500","category_name":"未知分类","address":"上海中山南路318号"},{"poiid":"B2094757D06FA7FC4898","title":"十六铺面料城","lon":"121.49869","lat":"31.22476","category":"249","category_name":"购物服务","address":"黄浦区东门路168号(近中山东二路)"},{"poiid":"B2094757D16BA3FA489E","title":"外滩酒吧","lon":"121.501479738","lat":"31.2253351958","category":"247","category_name":"餐饮美食","address":"上海市中山东二路575号"},{"poiid":"B2094750DA6DA1F4419B","title":"上海泰康路 田子坊","lon":"121.500495","lat":"31.225341","category":"248","category_name":"生活娱乐","address":null},{"poiid":"B2094654DA6EABFF429A","title":"上海市十六铺旅游中心","lon":"121.50238","lat":"31.22376","category":"248","category_name":"生活娱乐","address":"中山南路171号"},{"poiid":"B2094757D568AAFF469D","title":"金外滩国际广场","lon":"121.5010639","lat":"31.22469278","category":"46","category_name":"楼宇","address":"黄浦中山南路,复兴路口"},{"poiid":"B2094654DA6EA5FA4093","title":"上海老街(人民路)","lon":"121.49656","lat":"31.22521","category":"116","category_name":"特色商业街","address":""},{"poiid":"B2094655D26AA7FD439C","title":"玫瑰公主号游轮","lon":"121.50117","lat":"31.22559","category":"247","category_name":"餐饮美食","address":"黄浦区外马路19号十六铺旅游集散中心内(近复兴路)查看地图"},{"poiid":"B2094654DA6EABFF439C","title":"久事大厦会议中心","lon":"121.49965","lat":"31.22504","category":"185","category_name":"会展中心","address":"中山南路28号久事大厦30层"},{"poiid":"B2094655D268A6F8459A","title":"浦江公馆","lon":"121.49944","lat":"31.222755","category":"47","category_name":"住宅区","address":"中华路168弄"},{"poiid":"B2094757D568A5F4499F","title":"滨江欣景商务楼B","lon":"121.5002938","lat":"31.22457058","category":"46","category_name":"楼宇","address":"中国上海市黄浦区"},{"poiid":"B2094757D06FABF4459F","title":"十六铺公交枢纽站","lon":"121.498995","lat":"31.223048","category":"38","category_name":"公交车站","address":"上海中山东二路新开河路"},{"poiid":"B2094757DB6CA6FC4199","title":"好乐迪","lon":"121.5043331429361","lat":"31.22490214062436","category":"248","category_name":"生活娱乐","address":"八佰伴"},{"poiid":"B2094750D269A0FD499F","title":"山海亭","lon":"121.497116","lat":"31.223377","category":"500","category_name":"未知分类","address":"河南南路489号"},{"poiid":"B2094757D464AAFB4193","title":"新外滩酒家 龙园店","lon":"121.501211054","lat":"31.224453793","category":"76","category_name":"上海菜","address":"黄浦区中山南路77号(近十六铺码头)"},{"poiid":"B2094750D26EAAFB499B","title":"金灿灿游轮 宴会厅","lon":"121.500245","lat":"31.226056","category":"76","category_name":"上海菜","address":"中山南路171号上海十六铺水上旅游中心近盐码头街"},{"poiid":"B2094757D569A1F5489B","title":"上海外滩商城","lon":"121.4990039","lat":"31.22648778","category":"46","category_name":"楼宇","address":"行宫位于沈河北站一路41号"},{"poiid":"B2094655D26FA5FB489E","title":"久事大厦(西门)","lon":"121.49905","lat":"31.22473","category":"48","category_name":"楼宇大门","address":"中山南路28号"},{"poiid":"B2094655D26EA7FB429B","title":"东门路渡口","lon":"121.50077","lat":"31.22607","category":"34","category_name":"港口码头","address":""},{"poiid":"B2094757D16CA3FF419F","title":"Starbucks 滨江店","lon":"121.50144373","lat":"31.224821184","category":"500","category_name":"未知分类","address":"上海陆家嘴"},{"poiid":"B2094750DA6CA2FD409D","title":"浦東正大廣場","lon":"121.500061","lat":"31.226211","category":"500","category_name":"未知分类","address":null},{"poiid":"B2094654DB69A7FE489C","title":"交银大厦","lon":"121.5019","lat":"31.22428","category":"46","category_name":"楼宇","address":"中山南路99"},{"poiid":"B2094757D66EA4FE479E","title":"浦江游览龙船","lon":"121.501307738","lat":"31.2254801989","category":"500","category_name":"未知分类","address":"上海市人民路"},{"poiid":"B2094654DB65A2FD489D","title":"良良商务楼","lon":"121.50183","lat":"31.22473","category":"46","category_name":"楼宇","address":"外马路80"},{"poiid":"B2094757D065A1FB409D","title":"懒洋洋的午休时间","lon":"121.50024952","lat":"31.226373487","category":"247","category_name":"餐饮美食","address":"上海不是在打瞌睡就是在等待瞌睡虫…嗷～"},{"poiid":"B2094654DA6EABFA4992","title":"绿苑大酒店","lon":"121.49954","lat":"31.22434","category":"215","category_name":"三星级宾馆","address":"黄浦区东门路外咸瓜街39号(东门路中华路)"},{"poiid":"B2094655D268A6F84492","title":"喜士多绿苑门市","lon":"121.49905","lat":"31.22451","category":"117","category_name":"便民商店/便利店","address":""},{"poiid":"B2094655D26CA4F54792","title":"绿苑大酒店(西门)","lon":"121.49922","lat":"31.22435","category":"215","category_name":"三星级宾馆","address":"(东门路)外咸瓜街39号"},{"poiid":"B2094750D769A3FB469F","title":"土耳其拉长冰淇淋","lon":"121.497","lat":"31.2255","category":"113","category_name":"冷饮店","address":"黄浦区方浜中路23号(近中华路)"},{"poiid":"B2094654DA6EABFF4593","title":"上海浦东发展银行外滩支行","lon":"121.49965","lat":"31.22504","category":"150","category_name":"银行","address":"黄浦区中山南路28号久事大厦24楼"},{"poiid":"B2094757D064A0F9449E","title":"名医堂","lon":"121.49637","lat":"31.2248","category":"162","category_name":"医院","address":"黄浦区方浜中路59号(近人民路)"},{"poiid":"B2094757D06EAAFA489F","title":"上海外滩英迪格酒店 (Hotel Indigo)","lon":"121.499735","lat":"31.226432","category":"217","category_name":"旅馆招待所","address":"黄浦区中山东二路585号(近东门路)"},{"poiid":"B2094757D06FA6FC429D","title":"外滩新十六铺","lon":"121.498305","lat":"31.227433","category":"234","category_name":"海滨浴场","address":"上海中山东二路531号"},{"poiid":"B2094757D06FA7FC4292","title":"浦江游轮","lon":"121.50081","lat":"31.22468","category":"260","category_name":"其他","address":"黄浦区十六铺站－公平路码头(会馆弄中山南路)查看地图"},{"poiid":"B209475CD564A7F84292","title":"上海滩新天地店","lon":"121.47463","lat":"31.22164","category":"119","category_name":"商场","address":"\"太仓路181弄新天地北里15号\r\n\""},{"poiid":"B209475CD564A7F84392","title":"上海滩浦东香格里拉店","lon":"121.50058","lat":"31.23634","category":"119","category_name":"商场","address":"浦东富成路33号香格里拉酒店内大堂层"},{"poiid":"B2094757D06FA4F8459F","title":"滨江欣景大酒店(Riverview Hotel)","lon":"121.49992806","lat":"31.224301883","category":"76","category_name":"上海菜","address":"黄浦区中山南路76号(会馆弄中山南路)"},{"poiid":"B2094757D068A5FA469B","title":"恰CHAR","lon":"121.50005411","lat":"31.225733464","category":"94","category_name":"西餐厅","address":"黄浦区中山东二路585号外滩英迪格酒店29-31楼(东门路)"},{"poiid":"B2094757D568A6FE449D","title":"松鹤楼(外滩店)","lon":"121.49712782","lat":"31.22868273","category":"76","category_name":"上海菜","address":"黄浦区中山东二路505号(近外马路)"},{"poiid":"B2094757D16FA0FF4092","title":"小南国(十六铺店)","lon":"121.500050938","lat":"31.2274259403","category":"76","category_name":"上海菜","address":"黄浦区中山东二路565号A楼(近东门路)"},{"poiid":"B2094757D06FA1FA419F","title":"复兴东路轮渡站","lon":"121.50405883","lat":"31.22277069","category":"35","category_name":"长途汽车站","address":"上海市黄浦区复兴东路1号"},{"poiid":"B2094757D06FA0F8499E","title":"交通银行上海分行","lon":"121.50114678","lat":"31.225955549","category":"46","category_name":"楼宇","address":"上海中山南路99号"},{"poiid":"B2094757D06AA2FD4298","title":"龙皇酒家","lon":"121.49882273","lat":"31.227382239","category":"72","category_name":"广东菜","address":"黄浦区中山东二路535号十六铺B栋楼(外马路中山东二路)"},{"poiid":"B2094654DB69A6F84893","title":"外滩.滨江名人苑","lon":"121.49835","lat":"31.223482","category":"47","category_name":"住宅区","address":"黄浦区中华路88弄"},{"poiid":"B2094757D069A6FE449C","title":"十六铺码头边","lon":"121.49703768","lat":"31.228610509","category":"500","category_name":"未知分类","address":"上海市,上海中山东二路"},{"poiid":"B2094757D068AAF44399","title":"士林华苑","lon":"121.497","lat":"31.2262","category":"47","category_name":"住宅区","address":"上海黄浦区河南南路555弄"},{"poiid":"B2094655D36DA1F5439B","title":"小东门","lon":"121.49708","lat":"31.22573","category":"38","category_name":"公交车站","address":""},{"poiid":"B2094757D664AAFB479B","title":"上海老街小吃","lon":"121.49814282332","lat":"31.22556929005","category":"68","category_name":"快餐厅","address":"黄浦区方浜中路77号(康家弄四牌楼路)"},{"poiid":"B2094757D168A0F8489B","title":"fesco adecco","lon":"121.49748523","lat":"31.224477577","category":"500","category_name":"未知分类","address":"上海市中山南路28号久事大厦附楼"},{"poiid":"B2094757D16DA5FB459D","title":"MJ  club","lon":"121.499573738","lat":"31.2269042292","category":"500","category_name":"未知分类","address":"上海市黄浦区中山南二路501号"},{"poiid":"B2094757D16DA0FB4493","title":"东方国际金融广场","lon":"121.502364","lat":"31.2216","category":"500","category_name":"未知分类","address":"上海中山南路318号"},{"poiid":"B2094757D06FA7FC4898","title":"十六铺面料城","lon":"121.49869","lat":"31.22476","category":"249","category_name":"购物服务","address":"黄浦区东门路168号(近中山东二路)"},{"poiid":"B2094757D16BA3FA489E","title":"外滩酒吧","lon":"121.501479738","lat":"31.2253351958","category":"247","category_name":"餐饮美食","address":"上海市中山东二路575号"},{"poiid":"B2094750DA6DA1F4419B","title":"上海泰康路 田子坊","lon":"121.500495","lat":"31.225341","category":"248","category_name":"生活娱乐","address":null},{"poiid":"B2094654DA6EABFF429A","title":"上海市十六铺旅游中心","lon":"121.50238","lat":"31.22376","category":"248","category_name":"生活娱乐","address":"中山南路171号"},{"poiid":"B2094757D568AAFF469D","title":"金外滩国际广场","lon":"121.5010639","lat":"31.22469278","category":"46","category_name":"楼宇","address":"黄浦中山南路,复兴路口"},{"poiid":"B2094654DA6EA5FA4093","title":"上海老街(人民路)","lon":"121.49656","lat":"31.22521","category":"116","category_name":"特色商业街","address":""},{"poiid":"B2094655D26AA7FD439C","title":"玫瑰公主号游轮","lon":"121.50117","lat":"31.22559","category":"247","category_name":"餐饮美食","address":"黄浦区外马路19号十六铺旅游集散中心内(近复兴路)查看地图"},{"poiid":"B2094654DA6EABFF439C","title":"久事大厦会议中心","lon":"121.49965","lat":"31.22504","category":"185","category_name":"会展中心","address":"中山南路28号久事大厦30层"},{"poiid":"B2094655D268A6F8459A","title":"浦江公馆","lon":"121.49944","lat":"31.222755","category":"47","category_name":"住宅区","address":"中华路168弄"},{"poiid":"B2094757D568A5F4499F","title":"滨江欣景商务楼B","lon":"121.5002938","lat":"31.22457058","category":"46","category_name":"楼宇","address":"中国上海市黄浦区"},{"poiid":"B2094757D06FABF4459F","title":"十六铺公交枢纽站","lon":"121.498995","lat":"31.223048","category":"38","category_name":"公交车站","address":"上海中山东二路新开河路"},{"poiid":"B2094757DB6CA6FC4199","title":"好乐迪","lon":"121.5043331429361","lat":"31.22490214062436","category":"248","category_name":"生活娱乐","address":"八佰伴"},{"poiid":"B2094750D269A0FD499F","title":"山海亭","lon":"121.497116","lat":"31.223377","category":"500","category_name":"未知分类","address":"河南南路489号"},{"poiid":"B2094757D464AAFB4193","title":"新外滩酒家 龙园店","lon":"121.501211054","lat":"31.224453793","category":"76","category_name":"上海菜","address":"黄浦区中山南路77号(近十六铺码头)"},{"poiid":"B2094750D26EAAFB499B","title":"金灿灿游轮 宴会厅","lon":"121.500245","lat":"31.226056","category":"76","category_name":"上海菜","address":"中山南路171号上海十六铺水上旅游中心近盐码头街"},{"poiid":"B2094757D569A1F5489B","title":"上海外滩商城","lon":"121.4990039","lat":"31.22648778","category":"46","category_name":"楼宇","address":"行宫位于沈河北站一路41号"},{"poiid":"B2094655D26FA5FB489E","title":"久事大厦(西门)","lon":"121.49905","lat":"31.22473","category":"48","category_name":"楼宇大门","address":"中山南路28号"},{"poiid":"B2094655D26EA7FB429B","title":"东门路渡口","lon":"121.50077","lat":"31.22607","category":"34","category_name":"港口码头","address":""},{"poiid":"B2094757D16CA3FF419F","title":"Starbucks 滨江店","lon":"121.50144373","lat":"31.224821184","category":"500","category_name":"未知分类","address":"上海陆家嘴"},{"poiid":"B2094750DA6CA2FD409D","title":"浦東正大廣場","lon":"121.500061","lat":"31.226211","category":"500","category_name":"未知分类","address":null},{"poiid":"B2094654DB69A7FE489C","title":"交银大厦","lon":"121.5019","lat":"31.22428","category":"46","category_name":"楼宇","address":"中山南路99"},{"poiid":"B2094757D66EA4FE479E","title":"浦江游览龙船","lon":"121.501307738","lat":"31.2254801989","category":"500","category_name":"未知分类","address":"上海市人民路"},{"poiid":"B2094654DB65A2FD489D","title":"良良商务楼","lon":"121.50183","lat":"31.22473","category":"46","category_name":"楼宇","address":"外马路80"},{"poiid":"B2094757D065A1FB409D","title":"懒洋洋的午休时间","lon":"121.50024952","lat":"31.226373487","category":"247","category_name":"餐饮美食","address":"上海不是在打瞌睡就是在等待瞌睡虫…嗷～"},{"poiid":"B2094654DA6EABFA4992","title":"绿苑大酒店","lon":"121.49954","lat":"31.22434","category":"215","category_name":"三星级宾馆","address":"黄浦区东门路外咸瓜街39号(东门路中华路)"},{"poiid":"B2094655D268A6F84492","title":"喜士多绿苑门市","lon":"121.49905","lat":"31.22451","category":"117","category_name":"便民商店/便利店","address":""},{"poiid":"B2094655D26CA4F54792","title":"绿苑大酒店(西门)","lon":"121.49922","lat":"31.22435","category":"215","category_name":"三星级宾馆","address":"(东门路)外咸瓜街39号"},{"poiid":"B2094750D769A3FB469F","title":"土耳其拉长冰淇淋","lon":"121.497","lat":"31.2255","category":"113","category_name":"冷饮店","address":"黄浦区方浜中路23号(近中华路)"},{"poiid":"B2094654DA6EABFF4593","title":"上海浦东发展银行外滩支行","lon":"121.49965","lat":"31.22504","category":"150","category_name":"银行","address":"黄浦区中山南路28号久事大厦24楼"},{"poiid":"B2094757D064A0F9449E","title":"名医堂","lon":"121.49637","lat":"31.2248","category":"162","category_name":"医院","address":"黄浦区方浜中路59号(近人民路)"},{"poiid":"B2094757D06EAAFA489F","title":"上海外滩英迪格酒店 (Hotel Indigo)","lon":"121.499735","lat":"31.226432","category":"217","category_name":"旅馆招待所","address":"黄浦区中山东二路585号(近东门路)"},{"poiid":"B2094757D06FA6FC429D","title":"外滩新十六铺","lon":"121.498305","lat":"31.227433","category":"234","category_name":"海滨浴场","address":"上海中山东二路531号"},{"poiid":"B2094757D06FA7FC4292","title":"浦江游轮","lon":"121.50081","lat":"31.22468","category":"260","category_name":"其他","address":"黄浦区十六铺站－公平路码头(会馆弄中山南路)查看地图"},{"poiid":"B209475CD564A7F84292","title":"上海滩新天地店","lon":"121.47463","lat":"31.22164","category":"119","category_name":"商场","address":"\"太仓路181弄新天地北里15号\r\n\""},{"poiid":"B209475CD564A7F84392","title":"上海滩浦东香格里拉店","lon":"121.50058","lat":"31.23634","category":"119","category_name":"商场","address":"浦东富成路33号香格里拉酒店内大堂层"},{"poiid":"B2094757D06FA4F8459F","title":"滨江欣景大酒店(Riverview Hotel)","lon":"121.49992806","lat":"31.224301883","category":"76","category_name":"上海菜","address":"黄浦区中山南路76号(会馆弄中山南路)"},{"poiid":"B2094757D068A5FA469B","title":"恰CHAR","lon":"121.50005411","lat":"31.225733464","category":"94","category_name":"西餐厅","address":"黄浦区中山东二路585号外滩英迪格酒店29-31楼(东门路)"},{"poiid":"B2094757D568A6FE449D","title":"松鹤楼(外滩店)","lon":"121.49712782","lat":"31.22868273","category":"76","category_name":"上海菜","address":"黄浦区中山东二路505号(近外马路)"},{"poiid":"B2094757D16FA0FF4092","title":"小南国(十六铺店)","lon":"121.500050938","lat":"31.2274259403","category":"76","category_name":"上海菜","address":"黄浦区中山东二路565号A楼(近东门路)"},{"poiid":"B2094757D06FA1FA419F","title":"复兴东路轮渡站","lon":"121.50405883","lat":"31.22277069","category":"35","category_name":"长途汽车站","address":"上海市黄浦区复兴东路1号"},{"poiid":"B2094757D06FA0F8499E","title":"交通银行上海分行","lon":"121.50114678","lat":"31.225955549","category":"46","category_name":"楼宇","address":"上海中山南路99号"},{"poiid":"B2094757D06AA2FD4298","title":"龙皇酒家","lon":"121.49882273","lat":"31.227382239","category":"72","category_name":"广东菜","address":"黄浦区中山东二路535号十六铺B栋楼(外马路中山东二路)"},{"poiid":"B2094654DB69A6F84893","title":"外滩.滨江名人苑","lon":"121.49835","lat":"31.223482","category":"47","category_name":"住宅区","address":"黄浦区中华路88弄"},{"poiid":"B2094757D069A6FE449C","title":"十六铺码头边","lon":"121.49703768","lat":"31.228610509","category":"500","category_name":"未知分类","address":"上海市,上海中山东二路"},{"poiid":"B2094757D068AAF44399","title":"士林华苑","lon":"121.497","lat":"31.2262","category":"47","category_name":"住宅区","address":"上海黄浦区河南南路555弄"},{"poiid":"B2094655D36DA1F5439B","title":"小东门","lon":"121.49708","lat":"31.22573","category":"38","category_name":"公交车站","address":""},{"poiid":"B2094757D664AAFB479B","title":"上海老街小吃","lon":"121.49814282332","lat":"31.22556929005","category":"68","category_name":"快餐厅","address":"黄浦区方浜中路77号(康家弄四牌楼路)"},{"poiid":"B2094757D168A0F8489B","title":"fesco adecco","lon":"121.49748523","lat":"31.224477577","category":"500","category_name":"未知分类","address":"上海市中山南路28号久事大厦附楼"},{"poiid":"B2094757D16DA5FB459D","title":"MJ  club","lon":"121.499573738","lat":"31.2269042292","category":"500","category_name":"未知分类","address":"上海市黄浦区中山南二路501号"},{"poiid":"B2094757D16DA0FB4493","title":"东方国际金融广场","lon":"121.502364","lat":"31.2216","category":"500","category_name":"未知分类","address":"上海中山南路318号"},{"poiid":"B2094757D06FA7FC4898","title":"十六铺面料城","lon":"121.49869","lat":"31.22476","category":"249","category_name":"购物服务","address":"黄浦区东门路168号(近中山东二路)"},{"poiid":"B2094757D16BA3FA489E","title":"外滩酒吧","lon":"121.501479738","lat":"31.2253351958","category":"247","category_name":"餐饮美食","address":"上海市中山东二路575号"},{"poiid":"B2094750DA6DA1F4419B","title":"上海泰康路 田子坊","lon":"121.500495","lat":"31.225341","category":"248","category_name":"生活娱乐","address":null},{"poiid":"B2094654DA6EABFF429A","title":"上海市十六铺旅游中心","lon":"121.50238","lat":"31.22376","category":"248","category_name":"生活娱乐","address":"中山南路171号"},{"poiid":"B2094757D568AAFF469D","title":"金外滩国际广场","lon":"121.5010639","lat":"31.22469278","category":"46","category_name":"楼宇","address":"黄浦中山南路,复兴路口"},{"poiid":"B2094654DA6EA5FA4093","title":"上海老街(人民路)","lon":"121.49656","lat":"31.22521","category":"116","category_name":"特色商业街","address":""},{"poiid":"B2094655D26AA7FD439C","title":"玫瑰公主号游轮","lon":"121.50117","lat":"31.22559","category":"247","category_name":"餐饮美食","address":"黄浦区外马路19号十六铺旅游集散中心内(近复兴路)查看地图"},{"poiid":"B2094654DA6EABFF439C","title":"久事大厦会议中心","lon":"121.49965","lat":"31.22504","category":"185","category_name":"会展中心","address":"中山南路28号久事大厦30层"},{"poiid":"B2094655D268A6F8459A","title":"浦江公馆","lon":"121.49944","lat":"31.222755","category":"47","category_name":"住宅区","address":"中华路168弄"},{"poiid":"B2094757D568A5F4499F","title":"滨江欣景商务楼B","lon":"121.5002938","lat":"31.22457058","category":"46","category_name":"楼宇","address":"中国上海市黄浦区"},{"poiid":"B2094757D06FABF4459F","title":"十六铺公交枢纽站","lon":"121.498995","lat":"31.223048","category":"38","category_name":"公交车站","address":"上海中山东二路新开河路"},{"poiid":"B2094757DB6CA6FC4199","title":"好乐迪","lon":"121.5043331429361","lat":"31.22490214062436","category":"248","category_name":"生活娱乐","address":"八佰伴"},{"poiid":"B2094750D269A0FD499F","title":"山海亭","lon":"121.497116","lat":"31.223377","category":"500","category_name":"未知分类","address":"河南南路489号"},{"poiid":"B2094757D464AAFB4193","title":"新外滩酒家 龙园店","lon":"121.501211054","lat":"31.224453793","category":"76","category_name":"上海菜","address":"黄浦区中山南路77号(近十六铺码头)"},{"poiid":"B2094750D26EAAFB499B","title":"金灿灿游轮 宴会厅","lon":"121.500245","lat":"31.226056","category":"76","category_name":"上海菜","address":"中山南路171号上海十六铺水上旅游中心近盐码头街"},{"poiid":"B2094757D569A1F5489B","title":"上海外滩商城","lon":"121.4990039","lat":"31.22648778","category":"46","category_name":"楼宇","address":"行宫位于沈河北站一路41号"},{"poiid":"B2094655D26FA5FB489E","title":"久事大厦(西门)","lon":"121.49905","lat":"31.22473","category":"48","category_name":"楼宇大门","address":"中山南路28号"},{"poiid":"B2094655D26EA7FB429B","title":"东门路渡口","lon":"121.50077","lat":"31.22607","category":"34","category_name":"港口码头","address":""},{"poiid":"B2094757D16CA3FF419F","title":"Starbucks 滨江店","lon":"121.50144373","lat":"31.224821184","category":"500","category_name":"未知分类","address":"上海陆家嘴"},{"poiid":"B2094750DA6CA2FD409D","title":"浦東正大廣場","lon":"121.500061","lat":"31.226211","category":"500","category_name":"未知分类","address":null},{"poiid":"B2094654DB69A7FE489C","title":"交银大厦","lon":"121.5019","lat":"31.22428","category":"46","category_name":"楼宇","address":"中山南路99"},{"poiid":"B2094757D66EA4FE479E","title":"浦江游览龙船","lon":"121.501307738","lat":"31.2254801989","category":"500","category_name":"未知分类","address":"上海市人民路"},{"poiid":"B2094654DB65A2FD489D","title":"良良商务楼","lon":"121.50183","lat":"31.22473","category":"46","category_name":"楼宇","address":"外马路80"},{"poiid":"B2094757D065A1FB409D","title":"懒洋洋的午休时间","lon":"121.50024952","lat":"31.226373487","category":"247","category_name":"餐饮美食","address":"上海不是在打瞌睡就是在等待瞌睡虫…嗷～"},{"poiid":"B2094654DA6EABFA4992","title":"绿苑大酒店","lon":"121.49954","lat":"31.22434","category":"215","category_name":"三星级宾馆","address":"黄浦区东门路外咸瓜街39号(东门路中华路)"},{"poiid":"B2094655D268A6F84492","title":"喜士多绿苑门市","lon":"121.49905","lat":"31.22451","category":"117","category_name":"便民商店/便利店","address":""},{"poiid":"B2094655D26CA4F54792","title":"绿苑大酒店(西门)","lon":"121.49922","lat":"31.22435","category":"215","category_name":"三星级宾馆","address":"(东门路)外咸瓜街39号"},{"poiid":"B2094750D769A3FB469F","title":"土耳其拉长冰淇淋","lon":"121.497","lat":"31.2255","category":"113","category_name":"冷饮店","address":"黄浦区方浜中路23号(近中华路)"},{"poiid":"B2094654DA6EABFF4593","title":"上海浦东发展银行外滩支行","lon":"121.49965","lat":"31.22504","category":"150","category_name":"银行","address":"黄浦区中山南路28号久事大厦24楼"},{"poiid":"B2094757D064A0F9449E","title":"名医堂","lon":"121.49637","lat":"31.2248","category":"162","category_name":"医院","address":"黄浦区方浜中路59号(近人民路)"},{"poiid":"B2094757D06EAAFA489F","title":"上海外滩英迪格酒店 (Hotel Indigo)","lon":"121.499735","lat":"31.226432","category":"217","category_name":"旅馆招待所","address":"黄浦区中山东二路585号(近东门路)"},{"poiid":"B2094757D06FA6FC429D","title":"外滩新十六铺","lon":"121.498305","lat":"31.227433","category":"234","category_name":"海滨浴场","address":"上海中山东二路531号"},{"poiid":"B2094757D06FA7FC4292","title":"浦江游轮","lon":"121.50081","lat":"31.22468","category":"260","category_name":"其他","address":"黄浦区十六铺站－公平路码头(会馆弄中山南路)查看地图"},{"poiid":"B209475CD564A7F84292","title":"上海滩新天地店","lon":"121.47463","lat":"31.22164","category":"119","category_name":"商场","address":"\"太仓路181弄新天地北里15号\r\n\""},{"poiid":"B209475CD564A7F84392","title":"上海滩浦东香格里拉店","lon":"121.50058","lat":"31.23634","category":"119","category_name":"商场","address":"浦东富成路33号香格里拉酒店内大堂层"},{"poiid":"B2094757D06FA4F8459F","title":"滨江欣景大酒店(Riverview Hotel)","lon":"121.49992806","lat":"31.224301883","category":"76","category_name":"上海菜","address":"黄浦区中山南路76号(会馆弄中山南路)"},{"poiid":"B2094757D068A5FA469B","title":"恰CHAR","lon":"121.50005411","lat":"31.225733464","category":"94","category_name":"西餐厅","address":"黄浦区中山东二路585号外滩英迪格酒店29-31楼(东门路)"},{"poiid":"B2094757D568A6FE449D","title":"松鹤楼(外滩店)","lon":"121.49712782","lat":"31.22868273","category":"76","category_name":"上海菜","address":"黄浦区中山东二路505号(近外马路)"},{"poiid":"B2094757D16FA0FF4092","title":"小南国(十六铺店)","lon":"121.500050938","lat":"31.2274259403","category":"76","category_name":"上海菜","address":"黄浦区中山东二路565号A楼(近东门路)"},{"poiid":"B2094757D06FA1FA419F","title":"复兴东路轮渡站","lon":"121.50405883","lat":"31.22277069","category":"35","category_name":"长途汽车站","address":"上海市黄浦区复兴东路1号"},{"poiid":"B2094757D06FA0F8499E","title":"交通银行上海分行","lon":"121.50114678","lat":"31.225955549","category":"46","category_name":"楼宇","address":"上海中山南路99号"},{"poiid":"B2094757D06AA2FD4298","title":"龙皇酒家","lon":"121.49882273","lat":"31.227382239","category":"72","category_name":"广东菜","address":"黄浦区中山东二路535号十六铺B栋楼(外马路中山东二路)"},{"poiid":"B2094654DB69A6F84893","title":"外滩.滨江名人苑","lon":"121.49835","lat":"31.223482","category":"47","category_name":"住宅区","address":"黄浦区中华路88弄"},{"poiid":"B2094757D069A6FE449C","title":"十六铺码头边","lon":"121.49703768","lat":"31.228610509","category":"500","category_name":"未知分类","address":"上海市,上海中山东二路"},{"poiid":"B2094757D068AAF44399","title":"士林华苑","lon":"121.497","lat":"31.2262","category":"47","category_name":"住宅区","address":"上海黄浦区河南南路555弄"},{"poiid":"B2094655D36DA1F5439B","title":"小东门","lon":"121.49708","lat":"31.22573","category":"38","category_name":"公交车站","address":""},{"poiid":"B2094757D664AAFB479B","title":"上海老街小吃","lon":"121.49814282332","lat":"31.22556929005","category":"68","category_name":"快餐厅","address":"黄浦区方浜中路77号(康家弄四牌楼路)"},{"poiid":"B2094757D168A0F8489B","title":"fesco adecco","lon":"121.49748523","lat":"31.224477577","category":"500","category_name":"未知分类","address":"上海市中山南路28号久事大厦附楼"},{"poiid":"B2094757D16DA5FB459D","title":"MJ  club","lon":"121.499573738","lat":"31.2269042292","category":"500","category_name":"未知分类","address":"上海市黄浦区中山南二路501号"},{"poiid":"B2094757D16DA0FB4493","title":"东方国际金融广场","lon":"121.502364","lat":"31.2216","category":"500","category_name":"未知分类","address":"上海中山南路318号"},{"poiid":"B2094757D06FA7FC4898","title":"十六铺面料城","lon":"121.49869","lat":"31.22476","category":"249","category_name":"购物服务","address":"黄浦区东门路168号(近中山东二路)"},{"poiid":"B2094757D16BA3FA489E","title":"外滩酒吧","lon":"121.501479738","lat":"31.2253351958","category":"247","category_name":"餐饮美食","address":"上海市中山东二路575号"},{"poiid":"B2094750DA6DA1F4419B","title":"上海泰康路 田子坊","lon":"121.500495","lat":"31.225341","category":"248","category_name":"生活娱乐","address":null},{"poiid":"B2094654DA6EABFF429A","title":"上海市十六铺旅游中心","lon":"121.50238","lat":"31.22376","category":"248","category_name":"生活娱乐","address":"中山南路171号"},{"poiid":"B2094757D568AAFF469D","title":"金外滩国际广场","lon":"121.5010639","lat":"31.22469278","category":"46","category_name":"楼宇","address":"黄浦中山南路,复兴路口"},{"poiid":"B2094654DA6EA5FA4093","title":"上海老街(人民路)","lon":"121.49656","lat":"31.22521","category":"116","category_name":"特色商业街","address":""},{"poiid":"B2094655D26AA7FD439C","title":"玫瑰公主号游轮","lon":"121.50117","lat":"31.22559","category":"247","category_name":"餐饮美食","address":"黄浦区外马路19号十六铺旅游集散中心内(近复兴路)查看地图"},{"poiid":"B2094654DA6EABFF439C","title":"久事大厦会议中心","lon":"121.49965","lat":"31.22504","category":"185","category_name":"会展中心","address":"中山南路28号久事大厦30层"},{"poiid":"B2094655D268A6F8459A","title":"浦江公馆","lon":"121.49944","lat":"31.222755","category":"47","category_name":"住宅区","address":"中华路168弄"},{"poiid":"B2094757D568A5F4499F","title":"滨江欣景商务楼B","lon":"121.5002938","lat":"31.22457058","category":"46","category_name":"楼宇","address":"中国上海市黄浦区"},{"poiid":"B2094757D06FABF4459F","title":"十六铺公交枢纽站","lon":"121.498995","lat":"31.223048","category":"38","category_name":"公交车站","address":"上海中山东二路新开河路"},{"poiid":"B2094757DB6CA6FC4199","title":"好乐迪","lon":"121.5043331429361","lat":"31.22490214062436","category":"248","category_name":"生活娱乐","address":"八佰伴"},{"poiid":"B2094750D269A0FD499F","title":"山海亭","lon":"121.497116","lat":"31.223377","category":"500","category_name":"未知分类","address":"河南南路489号"},{"poiid":"B2094757D464AAFB4193","title":"新外滩酒家 龙园店","lon":"121.501211054","lat":"31.224453793","category":"76","category_name":"上海菜","address":"黄浦区中山南路77号(近十六铺码头)"},{"poiid":"B2094750D26EAAFB499B","title":"金灿灿游轮 宴会厅","lon":"121.500245","lat":"31.226056","category":"76","category_name":"上海菜","address":"中山南路171号上海十六铺水上旅游中心近盐码头街"},{"poiid":"B2094757D569A1F5489B","title":"上海外滩商城","lon":"121.4990039","lat":"31.22648778","category":"46","category_name":"楼宇","address":"行宫位于沈河北站一路41号"},{"poiid":"B2094655D26FA5FB489E","title":"久事大厦(西门)","lon":"121.49905","lat":"31.22473","category":"48","category_name":"楼宇大门","address":"中山南路28号"},{"poiid":"B2094655D26EA7FB429B","title":"东门路渡口","lon":"121.50077","lat":"31.22607","category":"34","category_name":"港口码头","address":""},{"poiid":"B2094757D16CA3FF419F","title":"Starbucks 滨江店","lon":"121.50144373","lat":"31.224821184","category":"500","category_name":"未知分类","address":"上海陆家嘴"},{"poiid":"B2094750DA6CA2FD409D","title":"浦東正大廣場","lon":"121.500061","lat":"31.226211","category":"500","category_name":"未知分类","address":null},{"poiid":"B2094654DB69A7FE489C","title":"交银大厦","lon":"121.5019","lat":"31.22428","category":"46","category_name":"楼宇","address":"中山南路99"},{"poiid":"B2094757D66EA4FE479E","title":"浦江游览龙船","lon":"121.501307738","lat":"31.2254801989","category":"500","category_name":"未知分类","address":"上海市人民路"},{"poiid":"B2094654DB65A2FD489D","title":"良良商务楼","lon":"121.50183","lat":"31.22473","category":"46","category_name":"楼宇","address":"外马路80"},{"poiid":"B2094757D065A1FB409D","title":"懒洋洋的午休时间","lon":"121.50024952","lat":"31.226373487","category":"247","category_name":"餐饮美食","address":"上海不是在打瞌睡就是在等待瞌睡虫…嗷～"},{"poiid":"B2094654DA6EABFA4992","title":"绿苑大酒店","lon":"121.49954","lat":"31.22434","category":"215","category_name":"三星级宾馆","address":"黄浦区东门路外咸瓜街39号(东门路中华路)"},{"poiid":"B2094655D268A6F84492","title":"喜士多绿苑门市","lon":"121.49905","lat":"31.22451","category":"117","category_name":"便民商店/便利店","address":""},{"poiid":"B2094655D26CA4F54792","title":"绿苑大酒店(西门)","lon":"121.49922","lat":"31.22435","category":"215","category_name":"三星级宾馆","address":"(东门路)外咸瓜街39号"},{"poiid":"B2094750D769A3FB469F","title":"土耳其拉长冰淇淋","lon":"121.497","lat":"31.2255","category":"113","category_name":"冷饮店","address":"黄浦区方浜中路23号(近中华路)"},{"poiid":"B2094654DA6EABFF4593","title":"上海浦东发展银行外滩支行","lon":"121.49965","lat":"31.22504","category":"150","category_name":"银行","address":"黄浦区中山南路28号久事大厦24楼"},{"poiid":"B2094757D064A0F9449E","title":"名医堂","lon":"121.49637","lat":"31.2248","category":"162","category_name":"医院","address":"黄浦区方浜中路59号(近人民路)"}]