[{"poiid":"B2094757D06FA3FD4598","title":"衡山路","lon":"121.44432","lat":"31.20163","category":"260","category_name":"其他","address":"徐汇区衡山路(衡山路吴兴路)"},{"poiid":"B2094757D06EAAFA499A","title":"上海歌城(徐家汇店)","lon":"121.44864654","lat":"31.19801712","category":"170","category_name":"KTV","address":"徐汇区肇嘉浜路789号均瑶国际广场2-3楼(近高安路)"},{"poiid":"B2094757D06EAAFB469A","title":"耶里夏丽西域餐厅(The Silk Road)","lon":"121.44944","lat":"31.19932","category":"90","category_name":"清真餐馆","address":"徐汇区肇嘉浜路680号金钟大厦2号楼(近乌鲁木齐南路)"},{"poiid":"B2094753D76FAAFA449C","title":"上海滩国泰旗舰店","lon":"121.466011","lat":"31.216125","category":"249","category_name":"购物服务","address":"淮海中路868号"},{"poiid":"B2094654DA6DAAFF4092","title":"青松城大酒店","lon":"121.4494","lat":"31.19849","category":"214","category_name":"四星级宾馆","address":"上海市徐汇区东安路8号(徐家汇地区 肇嘉浜路口)"},{"poiid":"B2094654DA6DAAF8419F","title":"均瑶国际广场","lon":"121.44863","lat":"31.19802","category":"46","category_name":"楼宇","address":"徐汇区肇嘉浜路789号"},{"poiid":"B2094757D06EAAFB479A","title":"肇嘉浜路地铁站","lon":"121.45029188","lat":"31.199558753","category":"36","category_name":"地铁站","address":"上海轨道交通 七号线 九号线 轨交肇嘉浜路站 7 9"},{"poiid":"B2094655D26EA7FC459F","title":"星巴克(均瑶店)","lon":"121.448641","lat":"31.198025","category":"260","category_name":"其他","address":"徐汇区肇嘉浜路789号均瑶国际广场1楼(近高安路)"},{"poiid":"B2094757D468ABF94692","title":"小南国 均瑶店","lon":"121.448066","lat":"31.198374","category":"76","category_name":"上海菜","address":"徐汇区肇嘉浜路789号均瑶国际广场5楼(近东安路)"},{"poiid":"B2094757D06FA7F9419B","title":"飞雕国际大厦","lon":"121.447783","lat":"31.200662","category":"46","category_name":"楼宇","address":"徐汇区肇嘉浜路1065号甲(天钥桥路口)"},{"poiid":"B2094757D068ABFF4399","title":"肇嘉浜路","lon":"121.44627625","lat":"31.199099322","category":"260","category_name":"其他","address":"上海肇嘉浜路"},{"poiid":"B2094757D06FAAFB409A","title":"徐家汇国际大厦","lon":"121.448","lat":"31.2012","category":"46","category_name":"楼宇","address":"上海市徐汇区肇嘉浜路1033号"},{"poiid":"B2094757D068A5F9499D","title":"复旦大学医科图书馆","lon":"121.44932102","lat":"31.196121364","category":"253","category_name":"校园生活","address":"上海徐汇区东安路130号复旦大学枫林校区内(西苑篮球场西侧)"},{"poiid":"B2094654DA6DA7FB469D","title":"虹桥人家酒楼","lon":"121.4501","lat":"31.19989","category":"76","category_name":"上海菜","address":"徐汇区乌鲁木齐南路406号(肇嘉浜路口)"},{"poiid":"B2094750D76EA1FE4199","title":"渝香情(肇嘉浜路)","lon":"121.447","lat":"31.1979","category":"71","category_name":"四川菜","address":"徐汇区肇嘉浜路825号(近宛平南路)"},{"poiid":"B2094757D16DA0F54892","title":"徐汇营业厅","lon":"121.447819","lat":"31.197941","category":"150","category_name":"银行","address":"徐汇区肇嘉浜路807号五洲国际大厦102室"},{"poiid":"B2094757D068A1F8459F","title":"豪记茶餐厅","lon":"121.449034","lat":"31.197891","category":"72","category_name":"广东菜","address":"徐汇区肇嘉浜路789号均瑶国际广场1楼(近高安路)"},{"poiid":"B2094654DA6DA0FE439B","title":"汇嘉大厦","lon":"121.446","lat":"31.1986","category":"46","category_name":"楼宇","address":"上海市闵行区莲花南路1500弄"},{"poiid":"B2094757D66AA6FA4292","title":"青松城大酒店餐厅","lon":"121.449889054","lat":"31.198602793","category":"76","category_name":"上海菜","address":"肇嘉浜路777号青松城大酒店4楼东安路口"},{"poiid":"B2094757D064AAFC419E","title":"肇家浜路地铁站","lon":"121.449108","lat":"31.198858","category":"36","category_name":"地铁站","address":"上海轨道交通七号线"},{"poiid":"B2094655D36CA6F4459F","title":"东安路青松城","lon":"121.4484","lat":"31.1985","category":"38","category_name":"公交车站","address":""},{"poiid":"B2094757D069A1F8469D","title":"近江和牛","lon":"121.44934158","lat":"31.199178823","category":"247","category_name":"餐饮美食","address":"上海市徐汇区青松城一楼"},{"poiid":"B2094757D16CA7F84099","title":"上海市律师协会","lon":"121.448656","lat":"31.198299","category":"46","category_name":"楼宇","address":"肇嘉浜路789号均瑶国际广场33,35层"},{"poiid":"B2094757D568ABF4479F","title":"青松城大酒店商务楼","lon":"121.449531","lat":"31.198129","category":"46","category_name":"楼宇","address":"东安路8"},{"poiid":"B2094757D16EA4FC4492","title":"吴记麻辣火锅","lon":"121.44694458","lat":"31.198324807","category":"247","category_name":"餐饮美食","address":"上海天钥桥路"},{"poiid":"B2094757D06BA6FC469D","title":"东安路","lon":"121.448682","lat":"31.199259","category":"500","category_name":"未知分类","address":"上海肇家浜路东安路"},{"poiid":"B2094757D66BA3FA409D","title":"近江和牛正传 东安路店","lon":"121.45051","lat":"31.198248","category":"95","category_name":"日本料理","address":"徐汇区东安路8号青松城1楼"},{"poiid":"B2094757D06FA2FD439A","title":"7-ELEVEN(均瑶店)","lon":"121.448318572","lat":"31.1982087356","category":"117","category_name":"便民商店/便利店","address":"徐汇区肇嘉浜路789号均瑶国际广场内(近吴兴路)"},{"poiid":"B2094750D66DA4F5439A","title":"徐汇区牙防所","lon":"121.448135","lat":"31.198812","category":"500","category_name":"未知分类","address":null},{"poiid":"B2094654DA6DA0FC429B","title":"中福实业大厦","lon":"121.448","lat":"31.1993","category":"46","category_name":"楼宇","address":"浦东区崂山东路410号"},{"poiid":"B2094757D06FA2F9409F","title":"生仕鱼林港(肇嘉浜路店)","lon":"121.44753","lat":"31.19755","category":"86","category_name":"火锅店","address":"徐汇区肇嘉浜路825号(近宛平南路)"},{"poiid":"B2094757D16BA1FD4493","title":"Club15","lon":"121.450645586","lat":"31.1989508194","category":"500","category_name":"未知分类","address":"上海市徐汇区东安路15号"},{"poiid":"B2094750D26BABF44793","title":"文化广场","lon":"121.449485","lat":"31.199029","category":"500","category_name":"未知分类","address":"陕西南路"},{"poiid":"B2094655D36DA7FE449A","title":"肇家浜路东安路","lon":"121.4491","lat":"31.19885","category":"38","category_name":"公交车站","address":""},{"poiid":"B2094655D36DA7FE439A","title":"肇嘉浜路东安路","lon":"121.44858","lat":"31.19862","category":"38","category_name":"公交车站","address":""},{"poiid":"B2094654DA6DAAF9419A","title":"珊珊茶面馆 肇嘉浜路店","lon":"121.44794578047","lat":"31.19785511912","category":"68","category_name":"快餐厅","address":"徐汇区肇家浜路825号(近东安路)"},{"poiid":"B2094750D26AA0FB4893","title":"徐家汇牙防所","lon":"121.448081","lat":"31.19874","category":"627","category_name":"一般地点标志","address":"肇嘉浜路685号"},{"poiid":"B2094750D26FA1FB4098","title":"均谣国际广场","lon":"121.44874016700362","lat":"31.198129034330982","category":"119","category_name":"商场","address":"徐汇区肇嘉浜路789号"},{"poiid":"B2094655D26EA7FB429F","title":"中国建设银行上海肇嘉浜路支行","lon":"121.44943","lat":"31.19863","category":"150","category_name":"银行","address":"肇嘉浜路769"},{"poiid":"B2094757D16BA2FB409B","title":"Carl'sJr. (美罗城)","lon":"121.44802808","lat":"31.196717505","category":"500","category_name":"未知分类","address":"上海肇嘉浜路1111号美罗城B1-33"},{"poiid":"B2094654DB6BA5FA479B","title":"上海市徐家汇工商管理进修学院(肇嘉浜路)","lon":"121.44822","lat":"31.19934","category":"53","category_name":"成人教育","address":"肇嘉浜路716"},{"poiid":"B2094757D16EA6FD4593","title":"青松城百花厅","lon":"121.449641","lat":"31.198596","category":"500","category_name":"未知分类","address":"上海青松城"},{"poiid":"B2094757D66CA7FA4193","title":"上海轨道交通7号线肇嘉滨路站","lon":"121.450491894","lat":"31.1994188993","category":"500","category_name":"未知分类","address":"上海肇嘉浜路"},{"poiid":"B2094654DA6DAAF94198","title":"尚秀商务楼","lon":"121.44696","lat":"31.19771","category":"46","category_name":"楼宇","address":"崇文区夕照寺大街"},{"poiid":"B209475DD56AA4F4459E","title":"January cafe","lon":"121.447898","lat":"31.19926","category":"247","category_name":"餐饮美食","address":"上海市 高安路101号"},{"poiid":"B2094751D465A2FF4098","title":"大宁国际","lon":"121.449509","lat":"31.198578","category":"247","category_name":"餐饮美食","address":null},{"poiid":"B2094757D068A2FF4592","title":"喜多屋 徐家汇店","lon":"121.447002054","lat":"31.197438793","category":"247","category_name":"餐饮美食","address":"肇嘉浜路789号均瑶国际广场5楼近高安路"},{"poiid":"B2094750D66AABF4469F","title":"普罗旺斯.明晨阳光","lon":"121.447891","lat":"31.199216","category":"247","category_name":"餐饮美食","address":"乌鲁木齐路302号"},{"poiid":"B2094757D068A7FB4692","title":"全家便利(肇家浜路店)","lon":"121.44845","lat":"31.19786","category":"117","category_name":"便民商店/便利店","address":"上海徐汇区肇嘉浜路789号均瑶国际广场内(近吴兴路)"},{"poiid":"B2094654DB64A4F4429E","title":"上海市注册会计师协会","lon":"121.44863","lat":"31.19803","category":"250","category_name":"公园户外","address":"肇嘉浜路789号均瑶国际广场36层"},{"poiid":"B2094757D06FA3FD4598","title":"衡山路","lon":"121.44432","lat":"31.20163","category":"260","category_name":"其他","address":"徐汇区衡山路(衡山路吴兴路)"},{"poiid":"B2094757D06EAAFA499A","title":"上海歌城(徐家汇店)","lon":"121.44864654","lat":"31.19801712","category":"170","category_name":"KTV","address":"徐汇区肇嘉浜路789号均瑶国际广场2-3楼(近高安路)"},{"poiid":"B2094757D06EAAFB469A","title":"耶里夏丽西域餐厅(The Silk Road)","lon":"121.44944","lat":"31.19932","category":"90","category_name":"清真餐馆","address":"徐汇区肇嘉浜路680号金钟大厦2号楼(近乌鲁木齐南路)"},{"poiid":"B2094753D76FAAFA449C","title":"上海滩国泰旗舰店","lon":"121.466011","lat":"31.216125","category":"249","category_name":"购物服务","address":"淮海中路868号"},{"poiid":"B2094654DA6DAAFF4092","title":"青松城大酒店","lon":"121.4494","lat":"31.19849","category":"214","category_name":"四星级宾馆","address":"上海市徐汇区东安路8号(徐家汇地区 肇嘉浜路口)"},{"poiid":"B2094654DA6DAAF8419F","title":"均瑶国际广场","lon":"121.44863","lat":"31.19802","category":"46","category_name":"楼宇","address":"徐汇区肇嘉浜路789号"},{"poiid":"B2094757D06EAAFB479A","title":"肇嘉浜路地铁站","lon":"121.45029188","lat":"31.199558753","category":"36","category_name":"地铁站","address":"上海轨道交通 七号线 九号线 轨交肇嘉浜路站 7 9"},{"poiid":"B2094655D26EA7FC459F","title":"星巴克(均瑶店)","lon":"121.448641","lat":"31.198025","category":"260","category_name":"其他","address":"徐汇区肇嘉浜路789号均瑶国际广场1楼(近高安路)"},{"poiid":"B2094757D468ABF94692","title":"小南国 均瑶店","lon":"121.448066","lat":"31.198374","category":"76","category_name":"上海菜","address":"徐汇区肇嘉浜路789号均瑶国际广场5楼(近东安路)"},{"poiid":"B2094757D06FA7F9419B","title":"飞雕国际大厦","lon":"121.447783","lat":"31.200662","category":"46","category_name":"楼宇","address":"徐汇区肇嘉浜路1065号甲(天钥桥路口)"},{"poiid":"B2094757D068ABFF4399","title":"肇嘉浜路","lon":"121.44627625","lat":"31.199099322","category":"260","category_name":"其他","address":"上海肇嘉浜路"},{"poiid":"B2094757D06FAAFB409A","title":"徐家汇国际大厦","lon":"121.448","lat":"31.2012","category":"46","category_name":"楼宇","address":"上海市徐汇区肇嘉浜路1033号"},{"poiid":"B2094757D068A5F9499D","title":"复旦大学医科图书馆","lon":"121.44932102","lat":"31.196121364","category":"253","category_name":"校园生活","address":"上海徐汇区东安路130号复旦大学枫林校区内(西苑篮球场西侧)"},{"poiid":"B2094654DA6DA7FB469D","title":"虹桥人家酒楼","lon":"121.4501","lat":"31.19989","category":"76","category_name":"上海菜","address":"徐汇区乌鲁木齐南路406号(肇嘉浜路口)"},{"poiid":"B2094750D76EA1FE4199","title":"渝香情(肇嘉浜路)","lon":"121.447","lat":"31.1979","category":"71","category_name":"四川菜","address":"徐汇区肇嘉浜路825号(近宛平南路)"},{"poiid":"B2094757D16DA0F54892","title":"徐汇营业厅","lon":"121.447819","lat":"31.197941","category":"150","category_name":"银行","address":"徐汇区肇嘉浜路807号五洲国际大厦102室"},{"poiid":"B2094757D068A1F8459F","title":"豪记茶餐厅","lon":"121.449034","lat":"31.197891","category":"72","category_name":"广东菜","address":"徐汇区肇嘉浜路789号均瑶国际广场1楼(近高安路)"},{"poiid":"B2094654DA6DA0FE439B","title":"汇嘉大厦","lon":"121.446","lat":"31.1986","category":"46","category_name":"楼宇","address":"上海市闵行区莲花南路1500弄"},{"poiid":"B2094757D66AA6FA4292","title":"青松城大酒店餐厅","lon":"121.449889054","lat":"31.198602793","category":"76","category_name":"上海菜","address":"肇嘉浜路777号青松城大酒店4楼东安路口"},{"poiid":"B2094757D064AAFC419E","title":"肇家浜路地铁站","lon":"121.449108","lat":"31.198858","category":"36","category_name":"地铁站","address":"上海轨道交通七号线"},{"poiid":"B2094655D36CA6F4459F","title":"东安路青松城","lon":"121.4484","lat":"31.1985","category":"38","category_name":"公交车站","address":""},{"poiid":"B2094757D069A1F8469D","title":"近江和牛","lon":"121.44934158","lat":"31.199178823","category":"247","category_name":"餐饮美食","address":"上海市徐汇区青松城一楼"},{"poiid":"B2094757D16CA7F84099","title":"上海市律师协会","lon":"121.448656","lat":"31.198299","category":"46","category_name":"楼宇","address":"肇嘉浜路789号均瑶国际广场33,35层"},{"poiid":"B2094757D568ABF4479F","title":"青松城大酒店商务楼","lon":"121.449531","lat":"31.198129","category":"46","category_name":"楼宇","address":"东安路8"},{"poiid":"B2094757D16EA4FC4492","title":"吴记麻辣火锅","lon":"121.44694458","lat":"31.198324807","category":"247","category_name":"餐饮美食","address":"上海天钥桥路"},{"poiid":"B2094757D06BA6FC469D","title":"东安路","lon":"121.448682","lat":"31.199259","category":"500","category_name":"未知分类","address":"上海肇家浜路东安路"},{"poiid":"B2094757D66BA3FA409D","title":"近江和牛正传 东安路店","lon":"121.45051","lat":"31.198248","category":"95","category_name":"日本料理","address":"徐汇区东安路8号青松城1楼"},{"poiid":"B2094757D06FA2FD439A","title":"7-ELEVEN(均瑶店)","lon":"121.448318572","lat":"31.1982087356","category":"117","category_name":"便民商店/便利店","address":"徐汇区肇嘉浜路789号均瑶国际广场内(近吴兴路)"},{"poiid":"B2094750D66DA4F5439A","title":"徐汇区牙防所","lon":"121.448135","lat":"31.198812","category":"500","category_name":"未知分类","address":null},{"poiid":"B2094654DA6DA0FC429B","title":"中福实业大厦","lon":"121.448","lat":"31.1993","category":"46","category_name":"楼宇","address":"浦东区崂山东路410号"},{"poiid":"B2094757D06FA2F9409F","title":"生仕鱼林港(肇嘉浜路店)","lon":"121.44753","lat":"31.19755","category":"86","category_name":"火锅店","address":"徐汇区肇嘉浜路825号(近宛平南路)"},{"poiid":"B2094757D16BA1FD4493","title":"Club15","lon":"121.450645586","lat":"31.1989508194","category":"500","category_name":"未知分类","address":"上海市徐汇区东安路15号"},{"poiid":"B2094750D26BABF44793","title":"文化广场","lon":"121.449485","lat":"31.199029","category":"500","category_name":"未知分类","address":"陕西南路"},{"poiid":"B2094655D36DA7FE449A","title":"肇家浜路东安路","lon":"121.4491","lat":"31.19885","category":"38","category_name":"公交车站","address":""},{"poiid":"B2094655D36DA7FE439A","title":"肇嘉浜路东安路","lon":"121.44858","lat":"31.19862","category":"38","category_name":"公交车站","address":""},{"poiid":"B2094654DA6DAAF9419A","title":"珊珊茶面馆 肇嘉浜路店","lon":"121.44794578047","lat":"31.19785511912","category":"68","category_name":"快餐厅","address":"徐汇区肇家浜路825号(近东安路)"},{"poiid":"B2094750D26AA0FB4893","title":"徐家汇牙防所","lon":"121.448081","lat":"31.19874","category":"627","category_name":"一般地点标志","address":"肇嘉浜路685号"},{"poiid":"B2094750D26FA1FB4098","title":"均谣国际广场","lon":"121.44874016700362","lat":"31.198129034330982","category":"119","category_name":"商场","address":"徐汇区肇嘉浜路789号"},{"poiid":"B2094655D26EA7FB429F","title":"中国建设银行上海肇嘉浜路支行","lon":"121.44943","lat":"31.19863","category":"150","category_name":"银行","address":"肇嘉浜路769"},{"poiid":"B2094757D16BA2FB409B","title":"Carl'sJr. (美罗城)","lon":"121.44802808","lat":"31.196717505","category":"500","category_name":"未知分类","address":"上海肇嘉浜路1111号美罗城B1-33"},{"poiid":"B2094654DB6BA5FA479B","title":"上海市徐家汇工商管理进修学院(肇嘉浜路)","lon":"121.44822","lat":"31.19934","category":"53","category_name":"成人教育","address":"肇嘉浜路716"},{"poiid":"B2094757D16EA6FD4593","title":"青松城百花厅","lon":"121.449641","lat":"31.198596","category":"500","category_name":"未知分类","address":"上海青松城"},{"poiid":"B2094757D66CA7FA4193","title":"上海轨道交通7号线肇嘉滨路站","lon":"121.450491894","lat":"31.1994188993","category":"500","category_name":"未知分类","address":"上海肇嘉浜路"},{"poiid":"B2094654DA6DAAF94198","title":"尚秀商务楼","lon":"121.44696","lat":"31.19771","category":"46","category_name":"楼宇","address":"崇文区夕照寺大街"},{"poiid":"B209475DD56AA4F4459E","title":"January cafe","lon":"121.447898","lat":"31.19926","category":"247","category_name":"餐饮美食","address":"上海市 高安路101号"},{"poiid":"B2094751D465A2FF4098","title":"大宁国际","lon":"121.449509","lat":"31.198578","category":"247","category_name":"餐饮美食","address":null},{"poiid":"B2094757D068A2FF4592","title":"喜多屋 徐家汇店","lon":"121.447002054","lat":"31.197438793","category":"247","category_name":"餐饮美食","address":"肇嘉浜路789号均瑶国际广场5楼近高安路"},{"poiid":"B2094750D66AABF4469F","title":"普罗旺斯.明晨阳光","lon":"121.447891","lat":"31.199216","category":"247","category_name":"餐饮美食","address":"乌鲁木齐路302号"},{"poiid":"B2094757D068A7FB4692","title":"全家便利(肇家浜路店)","lon":"121.44845","lat":"31.19786","category":"117","category_name":"便民商店/便利店","address":"上海徐汇区肇嘉浜路789号均瑶国际广场内(近吴兴路)"},{"poiid":"B2094654DB64A4F4429E","title":"上海市注册会计师协会","lon":"121.44863","lat":"31.19803","category":"250","category_name":"公园户外","address":"肇嘉浜路789号均瑶国际广场36层"},{"poiid":"B2094757D06FA3FD4598","title":"衡山路","lon":"121.44432","lat":"31.20163","category":"260","category_name":"其他","address":"徐汇区衡山路(衡山路吴兴路)"},{"poiid":"B2094757D06EAAFA499A","title":"上海歌城(徐家汇店)","lon":"121.44864654","lat":"31.19801712","category":"170","category_name":"KTV","address":"徐汇区肇嘉浜路789号均瑶国际广场2-3楼(近高安路)"},{"poiid":"B2094757D06EAAFB469A","title":"耶里夏丽西域餐厅(The Silk Road)","lon":"121.44944","lat":"31.19932","category":"90","category_name":"清真餐馆","address":"徐汇区肇嘉浜路680号金钟大厦2号楼(近乌鲁木齐南路)"},{"poiid":"B2094753D76FAAFA449C","title":"上海滩国泰旗舰店","lon":"121.466011","lat":"31.216125","category":"249","category_name":"购物服务","address":"淮海中路868号"},{"poiid":"B2094654DA6DAAFF4092","title":"青松城大酒店","lon":"121.4494","lat":"31.19849","category":"214","category_name":"四星级宾馆","address":"上海市徐汇区东安路8号(徐家汇地区 肇嘉浜路口)"},{"poiid":"B2094654DA6DAAF8419F","title":"均瑶国际广场","lon":"121.44863","lat":"31.19802","category":"46","category_name":"楼宇","address":"徐汇区肇嘉浜路789号"},{"poiid":"B2094757D06EAAFB479A","title":"肇嘉浜路地铁站","lon":"121.45029188","lat":"31.199558753","category":"36","category_name":"地铁站","address":"上海轨道交通 七号线 九号线 轨交肇嘉浜路站 7 9"},{"poiid":"B2094655D26EA7FC459F","title":"星巴克(均瑶店)","lon":"121.448641","lat":"31.198025","category":"260","category_name":"其他","address":"徐汇区肇嘉浜路789号均瑶国际广场1楼(近高安路)"},{"poiid":"B2094757D468ABF94692","title":"小南国 均瑶店","lon":"121.448066","lat":"31.198374","category":"76","category_name":"上海菜","address":"徐汇区肇嘉浜路789号均瑶国际广场5楼(近东安路)"},{"poiid":"B2094757D06FA7F9419B","title":"飞雕国际大厦","lon":"121.447783","lat":"31.200662","category":"46","category_name":"楼宇","address":"徐汇区肇嘉浜路1065号甲(天钥桥路口)"},{"poiid":"B2094757D068ABFF4399","title":"肇嘉浜路","lon":"121.44627625","lat":"31.199099322","category":"260","category_name":"其他","address":"上海肇嘉浜路"},{"poiid":"B2094757D06FAAFB409A","title":"徐家汇国际大厦","lon":"121.448","lat":"31.2012","category":"46","category_name":"楼宇","address":"上海市徐汇区肇嘉浜路1033号"},{"poiid":"B2094757D068A5F9499D","title":"复旦大学医科图书馆","lon":"121.44932102","lat":"31.196121364","category":"253","category_name":"校园生活","address":"上海徐汇区东安路130号复旦大学枫林校区内(西苑篮球场西侧)"},{"poiid":"B2094654DA6DA7FB469D","title":"虹桥人家酒楼","lon":"121.4501","lat":"31.19989","category":"76","category_name":"上海菜","address":"徐汇区乌鲁木齐南路406号(肇嘉浜路口)"},{"poiid":"B2094750D76EA1FE4199","title":"渝香情(肇嘉浜路)","lon":"121.447","lat":"31.1979","category":"71","category_name":"四川菜","address":"徐汇区肇嘉浜路825号(近宛平南路)"},{"poiid":"B2094757D16DA0F54892","title":"徐汇营业厅","lon":"121.447819","lat":"31.197941","category":"150","category_name":"银行","address":"徐汇区肇嘉浜路807号五洲国际大厦102室"},{"poiid":"B2094757D068A1F8459F","title":"豪记茶餐厅","lon":"121.449034","lat":"31.197891","category":"72","category_name":"广东菜","address":"徐汇区肇嘉浜路789号均瑶国际广场1楼(近高安路)"},{"poiid":"B2094654DA6DA0FE439B","title":"汇嘉大厦","lon":"121.446","lat":"31.1986","category":"46","category_name":"楼宇","address":"上海市闵行区莲花南路1500弄"},{"poiid":"B2094757D66AA6FA4292","title":"青松城大酒店餐厅","lon":"121.449889054","lat":"31.198602793","category":"76","category_name":"上海菜","address":"肇嘉浜路777号青松城大酒店4楼东安路口"},{"poiid":"B2094757D064AAFC419E","title":"肇家浜路地铁站","lon":"121.449108","lat":"31.198858","category":"36","category_name":"地铁站","address":"上海轨道交通七号线"},{"poiid":"B2094655D36CA6F4459F","title":"东安路青松城","lon":"121.4484","lat":"31.1985","category":"38","category_name":"公交车站","address":""},{"poiid":"B2094757D069A1F8469D","title":"近江和牛","lon":"121.44934158","lat":"31.199178823","category":"247","category_name":"餐饮美食","address":"上海市徐汇区青松城一楼"},{"poiid":"B2094757D16CA7F84099","title":"上海市律师协会","lon":"121.448656","lat":"31.198299","category":"46","category_name":"楼宇","address":"肇嘉浜路789号均瑶国际广场33,35层"},{"poiid":"B2094757D568ABF4479F","title":"青松城大酒店商务楼","lon":"121.449531","lat":"31.198129","category":"46","category_name":"楼宇","address":"东安路8"},{"poiid":"B2094757D16EA4FC4492","title":"吴记麻辣火锅","lon":"121.44694458","lat":"31.198324807","category":"247","category_name":"餐饮美食","address":"上海天钥桥路"},{"poiid":"B2094757D06BA6FC469D","title":"东安路","lon":"121.448682","lat":"31.199259","category":"500","category_name":"未知分类","address":"上海肇家浜路东安路"},{"poiid":"B2094757D66BA3FA409D","title":"近江和牛正传 东安路店","lon":"121.45051","lat":"31.198248","category":"95","category_name":"日本料理","address":"徐汇区东安路8号青松城1楼"},{"poiid":"B2094757D06FA2FD439A","title":"7-ELEVEN(均瑶店)","lon":"121.448318572","lat":"31.1982087356","category":"117","category_name":"便民商店/便利店","address":"徐汇区肇嘉浜路789号均瑶国际广场内(近吴兴路)"},{"poiid":"B2094750D66DA4F5439A","title":"徐汇区牙防所","lon":"121.448135","lat":"31.198812","category":"500","category_name":"未知分类","address":null},{"poiid":"B2094654DA6DA0FC429B","title":"中福实业大厦","lon":"121.448","lat":"31.1993","category":"46","category_name":"楼宇","address":"浦东区崂山东路410号"},{"poiid":"B2094757D06FA2F9409F","title":"生仕鱼林港(肇嘉浜路店)","lon":"121.44753","lat":"31.19755","category":"86","category_name":"火锅店","address":"徐汇区肇嘉浜路825号(近宛平南路)"},{"poiid":"B2094757D16BA1FD4493","title":"Club15","lon":"121.450645586","lat":"31.1989508194","category":"500","category_name":"未知分类","address":"上海市徐汇区东安路15号"},{"poiid":"B2094750D26BABF44793","title":"文化广场","lon":"121.449485","lat":"31.199029","category":"500","category_name":"未知分类","address":"陕西南路"},{"poiid":"B2094655D36DA7FE449A","title":"肇家浜路东安路","lon":"121.4491","lat":"31.19885","category":"38","category_name":"公交车站","address":""},{"poiid":"B2094655D36DA7FE439A","title":"肇嘉浜路东安路","lon":"121.44858","lat":"31.19862","category":"38","category_name":"公交车站","address":""},{"poiid":"B2094654DA6DAAF9419A","title":"珊珊茶面馆 肇嘉浜路店","lon":"121.44794578047","lat":"31.19785511912","category":"68","category_name":"快餐厅","address":"徐汇区肇家浜路825号(近东安路)"},{"poiid":"B2094750D26AA0FB4893","title":"徐家汇牙防所","lon":"121.448081","lat":"31.19874","category":"627","category_name":"一般地点标志","address":"肇嘉浜路685号"},{"poiid":"B2094750D26FA1FB4098","title":"均谣国际广场","lon":"121.44874016700362","lat":"31.198129034330982","category":"119","category_name":"商场","address":"徐汇区肇嘉浜路789号"},{"poiid":"B2094655D26EA7FB429F","title":"中国建设银行上海肇嘉浜路支行","lon":"121.44943","lat":"31.19863","category":"150","category_name":"银行","address":"肇嘉浜路769"},{"poiid":"B2094757D16BA2FB409B","title":"Carl'sJr. (美罗城)","lon":"121.44802808","lat":"31.196717505","category":"500","category_name":"未知分类","address":"上海肇嘉浜路1111号美罗城B1-33"},{"poiid":"B2094654DB6BA5FA479B","title":"上海市徐家汇工商管理进修学院(肇嘉浜路)","lon":"121.44822","lat":"31.19934","category":"53","category_name":"成人教育","address":"肇嘉浜路716"},{"poiid":"B2094757D16EA6FD4593","title":"青松城百花厅","lon":"121.449641","lat":"31.198596","category":"500","category_name":"未知分类","address":"上海青松城"},{"poiid":"B2094757D66CA7FA4193","title":"上海轨道交通7号线肇嘉滨路站","lon":"121.450491894","lat":"31.1994188993","category":"500","category_name":"未知分类","address":"上海肇嘉浜路"},{"poiid":"B2094654DA6DAAF94198","title":"尚秀商务楼","lon":"121.44696","lat":"31.19771","category":"46","category_name":"楼宇","address":"崇文区夕照寺大街"},{"poiid":"B209475DD56AA4F4459E","title":"January cafe","lon":"121.447898","lat":"31.19926","category":"247","category_name":"餐饮美食","address":"上海市 高安路101号"},{"poiid":"B2094751D465A2FF4098","title":"大宁国际","lon":"121.449509","lat":"31.198578","category":"247","category_name":"餐饮美食","address":null},{"poiid":"B2094757D068A2FF4592","title":"喜多屋 徐家汇店","lon":"121.447002054","lat":"31.197438793","category":"247","category_name":"餐饮美食","address":"肇嘉浜路789号均瑶国际广场5楼近高安路"},{"poiid":"B2094750D66AABF4469F","title":"普罗旺斯.明晨阳光","lon":"121.447891","lat":"31.199216","category":"247","category_name":"餐饮美食","address":"乌鲁木齐路302号"},{"poiid":"B2094757D068A7FB4692","title":"全家便利(肇家浜路店)","lon":"121.44845","lat":"31.19786","category":"117","category_name":"便民商店/便利店","address":"上海徐汇区肇嘉浜路789号均瑶国际广场内(近吴兴路)"},{"poiid":"B2094654DB64A4F4429E","title":"上海市注册会计师协会","lon":"121.44863","lat":"31.19803","category":"250","category_name":"公园户外","address":"肇嘉浜路789号均瑶国际广场36层"},{"poiid":"B2094757D06FA3FD4598","title":"衡山路","lon":"121.44432","lat":"31.20163","category":"260","category_name":"其他","address":"徐汇区衡山路(衡山路吴兴路)"},{"poiid":"B2094757D06EAAFA499A","title":"上海歌城(徐家汇店)","lon":"121.44864654","lat":"31.19801712","category":"170","category_name":"KTV","address":"徐汇区肇嘉浜路789号均瑶国际广场2-3楼(近高安路)"},{"poiid":"B2094757D06EAAFB469A","title":"耶里夏丽西域餐厅(The Silk Road)","lon":"121.44944","lat":"31.19932","category":"90","category_name":"清真餐馆","address":"徐汇区肇嘉浜路680号金钟大厦2号楼(近乌鲁木齐南路)"},{"poiid":"B2094753D76FAAFA449C","title":"上海滩国泰旗舰店","lon":"121.466011","lat":"31.216125","category":"249","category_name":"购物服务","address":"淮海中路868号"},{"poiid":"B2094654DA6DAAFF4092","title":"青松城大酒店","lon":"121.4494","lat":"31.19849","category":"214","category_name":"四星级宾馆","address":"上海市徐汇区东安路8号(徐家汇地区 肇嘉浜路口)"},{"poiid":"B2094654DA6DAAF8419F","title":"均瑶国际广场","lon":"121.44863","lat":"31.19802","category":"46","category_name":"楼宇","address":"徐汇区肇嘉浜路789号"},{"poiid":"B2094757D06EAAFB479A","title":"肇嘉浜路地铁站","lon":"121.45029188","lat":"31.199558753","category":"36","category_name":"地铁站","address":"上海轨道交通 七号线 九号线 轨交肇嘉浜路站 7 9"},{"poiid":"B2094655D26EA7FC459F","title":"星巴克(均瑶店)","lon":"121.448641","lat":"31.198025","category":"260","category_name":"其他","address":"徐汇区肇嘉浜路789号均瑶国际广场1楼(近高安路)"},{"poiid":"B2094757D468ABF94692","title":"小南国 均瑶店","lon":"121.448066","lat":"31.198374","category":"76","category_name":"上海菜","address":"徐汇区肇嘉浜路789号均瑶国际广场5楼(近东安路)"},{"poiid":"B2094757D06FA7F9419B","title":"飞雕国际大厦","lon":"121.447783","lat":"31.200662","category":"46","category_name":"楼宇","address":"徐汇区肇嘉浜路1065号甲(天钥桥路口)"},{"poiid":"B2094757D068ABFF4399","title":"肇嘉浜路","lon":"121.44627625","lat":"31.199099322","category":"260","category_name":"其他","address":"上海肇嘉浜路"},{"poiid":"B2094757D06FAAFB409A","title":"徐家汇国际大厦","lon":"121.448","lat":"31.2012","category":"46","category_name":"楼宇","address":"上海市徐汇区肇嘉浜路1033号"},{"poiid":"B2094757D068A5F9499D","title":"复旦大学医科图书馆","lon":"121.44932102","lat":"31.196121364","category":"253","category_name":"校园生活","address":"上海徐汇区东安路130号复旦大学枫林校区内(西苑篮球场西侧)"},{"poiid":"B2094654DA6DA7FB469D","title":"虹桥人家酒楼","lon":"121.4501","lat":"31.19989","category":"76","category_name":"上海菜","address":"徐汇区乌鲁木齐南路406号(肇嘉浜路口)"},{"poiid":"B2094750D76EA1FE4199","title":"渝香情(肇嘉浜路)","lon":"121.447","lat":"31.1979","category":"71","category_name":"四川菜","address":"徐汇区肇嘉浜路825号(近宛平南路)"},{"poiid":"B2094757D16DA0F54892","title":"徐汇营业厅","lon":"121.447819","lat":"31.197941","category":"150","category_name":"银行","address":"徐汇区肇嘉浜路807号五洲国际大厦102室"},{"poiid":"B2094757D068A1F8459F","title":"豪记茶餐厅","lon":"121.449034","lat":"31.197891","category":"72","category_name":"广东菜","address":"徐汇区肇嘉浜路789号均瑶国际广场1楼(近高安路)"},{"poiid":"B2094654DA6DA0FE439B","title":"汇嘉大厦","lon":"121.446","lat":"31.1986","category":"46","category_name":"楼宇","address":"上海市闵行区莲花南路1500弄"},{"poiid":"B2094757D66AA6FA4292","title":"青松城大酒店餐厅","lon":"121.449889054","lat":"31.198602793","category":"76","category_name":"上海菜","address":"肇嘉浜路777号青松城大酒店4楼东安路口"},{"poiid":"B2094757D064AAFC419E","title":"肇家浜路地铁站","lon":"121.449108","lat":"31.198858","category":"36","category_name":"地铁站","address":"上海轨道交通七号线"},{"poiid":"B2094655D36CA6F4459F","title":"东安路青松城","lon":"121.4484","lat":"31.1985","category":"38","category_name":"公交车站","address":""},{"poiid":"B2094757D069A1F8469D","title":"近江和牛","lon":"121.44934158","lat":"31.199178823","category":"247","category_name":"餐饮美食","address":"上海市徐汇区青松城一楼"},{"poiid":"B2094757D16CA7F84099","title":"上海市律师协会","lon":"121.448656","lat":"31.198299","category":"46","category_name":"楼宇","address":"肇嘉浜路789号均瑶国际广场33,35层"},{"poiid":"B2094757D568ABF4479F","title":"青松城大酒店商务楼","lon":"121.449531","lat":"31.198129","category":"46","category_name":"楼宇","address":"东安路8"},{"poiid":"B2094757D16EA4FC4492","title":"吴记麻辣火锅","lon":"121.44694458","lat":"31.198324807","category":"247","category_name":"餐饮美食","address":"上海天钥桥路"},{"poiid":"B2094757D06BA6FC469D","title":"东安路","lon":"121.448682","lat":"31.199259","category":"500","category_name":"未知分类","address":"上海肇家浜路东安路"},{"poiid":"B2094757D66BA3FA409D","title":"近江和牛正传 东安路店","lon":"121.45051","lat":"31.198248","category":"95","category_name":"日本料理","address":"徐汇区东安路8号青松城1楼"},{"poiid":"B2094757D06FA2FD439A","title":"7-ELEVEN(均瑶店)","lon":"121.448318572","lat":"31.1982087356","category":"117","category_name":"便民商店/便利店","address":"徐汇区肇嘉浜路789号均瑶国际广场内(近吴兴路)"},{"poiid":"B2094750D66DA4F5439A","title":"徐汇区牙防所","lon":"121.448135","lat":"31.198812","category":"500","category_name":"未知分类","address":null},{"poiid":"B2094654DA6DA0FC429B","title":"中福实业大厦","lon":"121.448","lat":"31.1993","category":"46","category_name":"楼宇","address":"浦东区崂山东路410号"},{"poiid":"B2094757D06FA2F9409F","title":"生仕鱼林港(肇嘉浜路店)","lon":"121.44753","lat":"31.19755","category":"86","category_name":"火锅店","address":"徐汇区肇嘉浜路825号(近宛平南路)"},{"poiid":"B2094757D16BA1FD4493","title":"Club15","lon":"121.450645586","lat":"31.1989508194","category":"500","category_name":"未知分类","address":"上海市徐汇区东安路15号"},{"poiid":"B2094750D26BABF44793","title":"文化广场","lon":"121.449485","lat":"31.199029","category":"500","category_name":"未知分类","address":"陕西南路"},{"poiid":"B2094655D36DA7FE449A","title":"肇家浜路东安路","lon":"121.4491","lat":"31.19885","category":"38","category_name":"公交车站","address":""},{"poiid":"B2094655D36DA7FE439A","title":"肇嘉浜路东安路","lon":"121.44858","lat":"31.19862","category":"38","category_name":"公交车站","address":""},{"poiid":"B2094654DA6DAAF9419A","title":"珊珊茶面馆 肇嘉浜路店","lon":"121.44794578047","lat":"31.19785511912","category":"68","category_name":"快餐厅","address":"徐汇区肇家浜路825号(近东安路)"},{"poiid":"B2094750D26AA0FB4893","title":"徐家汇牙防所","lon":"121.448081","lat":"31.19874","category":"627","category_name":"一般地点标志","address":"肇嘉浜路685号"},{"poiid":"B2094750D26FA1FB4098","title":"均谣国际广场","lon":"121.44874016700362","lat":"31.198129034330982","category":"119","category_name":"商场","address":"徐汇区肇嘉浜路789号"},{"poiid":"B2094655D26EA7FB429F","title":"中国建设银行上海肇嘉浜路支行","lon":"121.44943","lat":"31.19863","category":"150","category_name":"银行","address":"肇嘉浜路769"},{"poiid":"B2094757D16BA2FB409B","title":"Carl'sJr. (美罗城)","lon":"121.44802808","lat":"31.196717505","category":"500","category_name":"未知分类","address":"上海肇嘉浜路1111号美罗城B1-33"},{"poiid":"B2094654DB6BA5FA479B","title":"上海市徐家汇工商管理进修学院(肇嘉浜路)","lon":"121.44822","lat":"31.19934","category":"53","category_name":"成人教育","address":"肇嘉浜路716"},{"poiid":"B2094757D16EA6FD4593","title":"青松城百花厅","lon":"121.449641","lat":"31.198596","category":"500","category_name":"未知分类","address":"上海青松城"},{"poiid":"B2094757D66CA7FA4193","title":"上海轨道交通7号线肇嘉滨路站","lon":"121.450491894","lat":"31.1994188993","category":"500","category_name":"未知分类","address":"上海肇嘉浜路"},{"poiid":"B2094654DA6DAAF94198","title":"尚秀商务楼","lon":"121.44696","lat":"31.19771","category":"46","category_name":"楼宇","address":"崇文区夕照寺大街"},{"poiid":"B209475DD56AA4F4459E","title":"January cafe","lon":"121.447898","lat":"31.19926","category":"247","category_name":"餐饮美食","address":"上海市 高安路101号"},{"poiid":"B2094751D465A2FF4098","title":"大宁国际","lon":"121.449509","lat":"31.198578","category":"247","category_name":"餐饮美食","address":null},{"poiid":"B2094757D068A2FF4592","title":"喜多屋 徐家汇店","lon":"121.447002054","lat":"31.197438793","category":"247","category_name":"餐饮美食","address":"肇嘉浜路789号均瑶国际广场5楼近高安路"},{"poiid":"B2094750D66AABF4469F","title":"普罗旺斯.明晨阳光","lon":"121.447891","lat":"31.199216","category":"247","category_name":"餐饮美食","address":"乌鲁木齐路302号"},{"poiid":"B2094757D068A7FB4692","title":"全家便利(肇家浜路店)","lon":"121.44845","lat":"31.19786","category":"117","category_name":"便民商店/便利店","address":"上海徐汇区肇嘉浜路789号均瑶国际广场内(近吴兴路)"},{"poiid":"B2094654DB64A4F4429E","title":"上海市注册会计师协会","lon":"121.44863","lat":"31.19803","category":"250","category_name":"公园户外","address":"肇嘉浜路789号均瑶国际广场36层"}]