[{"poiid":"B2094655D26AABF84698","title":"小鹭鹭酒家武宁南路店","lon":"121.43216","lat":"31.23152","category":"71","category_name":"四川菜","address":"静安区武宁南路383号(近余姚路)"},{"poiid":"B2094757D06FA2FF459B","title":"天上人间(武宁路店)","lon":"121.43187","lat":"31.23269","category":"260","category_name":"其他","address":"上海普陀区武宁路468号(近长寿路)  "},{"poiid":"B2094757D06FA2FE4299","title":"上海市公安局","lon":"121.435191","lat":"31.228343","category":"609","category_name":"警察局","address":"上海武宁南路128号"},{"poiid":"B209475CD564A7F8439E","title":"上海滩中信泰富店","lon":"121.45602","lat":"31.22851","category":"119","category_name":"商场","address":"\"南京西路1168号中信泰富广场，店铺号221.\r\n\""},{"poiid":"B2094757D068AAFC4799","title":"武宁南路康定路","lon":"121.43359714","lat":"31.2304910374","category":"260","category_name":"其他","address":"上海静安区武宁南路康定路口"},{"poiid":"B2094757D06AA2F4489C","title":"婚姻登记处(静安区登记处)","lon":"121.43274416","lat":"31.230187056","category":"46","category_name":"楼宇","address":"静安区康定路405号(近陕西北路)查看地图"},{"poiid":"B2094757D068A4FC449B","title":"瑞士人家","lon":"121.43354559","lat":"31.2285712694","category":"94","category_name":"西餐厅","address":"静安区康定路1582号(近万航渡路)"},{"poiid":"B2094757D068A1FE4292","title":"竹家庄避风塘","lon":"121.43373458","lat":"31.230659439","category":"72","category_name":"广东菜","address":"静安区武宁南路377号(近余姚路)"},{"poiid":"B209475CD76DA7F4419F","title":"唐宫海鲜舫","lon":"121.432838","lat":"31.227283","category":"247","category_name":"餐饮美食","address":"上海市 万航渡路889号悦达889广场4楼"},{"poiid":"B2094655D26AA4FB479E","title":"名流汽车销售公司","lon":"121.43425","lat":"31.23041","category":"247","category_name":"餐饮美食","address":"静安区康定路1171号(近万航渡路)"},{"poiid":"B2094757D069A1FC4392","title":"忻康里","lon":"121.430892942","lat":"31.2295717874","category":"38","category_name":"公交车站","address":"上海23路终点站"},{"poiid":"B2094757D068A4FA4398","title":"静安区社保中心","lon":"121.434334","lat":"31.228899","category":"500","category_name":"未知分类","address":"上海武宁南路221号"},{"poiid":"B2094655D26CAAFC479A","title":"静鼎安邦府邸","lon":"121.43263","lat":"31.230587","category":"47","category_name":"住宅区","address":"康定路1268弄1-29号"},{"poiid":"B2094757D16EA2FA4099","title":"上海汽车集团财务有限责任公司","lon":"121.43272558","lat":"31.229958425","category":"46","category_name":"楼宇","address":"上海康定路1199号"},{"poiid":"B2094757D16AA3F84498","title":"静安区妇幼保健所","lon":"121.43324","lat":"31.22984","category":"162","category_name":"医院","address":"静安区康定路1297号(近武宁南路)"},{"poiid":"B2094757D064A0FC489F","title":"静安区人力资源和社会保障局","lon":"121.43430671","lat":"31.2289472835","category":"46","category_name":"楼宇","address":"上海静安区武宁南路241号"},{"poiid":"B2094654DB6BA6FF4093","title":"金峰世纪大厦(万航渡路)","lon":"121.4307","lat":"31.22793","category":"46","category_name":"楼宇","address":"上海市静安区万航渡路789号"},{"poiid":"B2094757D16DA2FE4392","title":"小鹭鹭","lon":"121.431546586","lat":"31.2320484666","category":"249","category_name":"购物服务","address":"上海市普陀区武宁南路"},{"poiid":"B2094655D36CA3FE4498","title":"裕和堂","lon":"121.43156","lat":"31.23086","category":"149","category_name":"洗浴推拿场所","address":"余姚路790号(近达安花园4号门)"},{"poiid":"B2094757D468AAFB4392","title":"寿司奈良本","lon":"121.43089","lat":"31.229711","category":"95","category_name":"日本料理","address":"静安区余姚路801号"},{"poiid":"B2094757D16AA1F4429C","title":"曹燕华乒乓培训学校(静安校区)","lon":"121.43323","lat":"31.22991","category":"220","category_name":"运动场所","address":"静安区康定路151号静安体育中心内(武定路口)"},{"poiid":"B2094655D26CABFB4093","title":"康定汽车公寓(北门)","lon":"121.4332","lat":"31.23009","category":"47","category_name":"住宅区","address":"康定路1201弄"},{"poiid":"B2094655D36DA0F54093","title":"余姚路武宁南路","lon":"121.43224","lat":"31.23118","category":"38","category_name":"公交车站","address":""},{"poiid":"B2094655D26BA2FC429C","title":"武宁南路武定西路","lon":"121.43426","lat":"31.22957","category":"38","category_name":"公交车站","address":""},{"poiid":"B2094757D16EA7F4489D","title":"一品健检","lon":"121.431484586","lat":"31.2308544433","category":"500","category_name":"未知分类","address":"静安区康定路1437号2楼"},{"poiid":"B2094654D565A1FD4299","title":"上海市房地产交易中心《上海楼市》编辑部","lon":"121.43327","lat":"31.22976","category":"252","category_name":"楼宇机构","address":""},{"poiid":"B2094654D565A1FD4199","title":"志诚里","lon":"121.43266","lat":"31.22965","category":"47","category_name":"住宅区","address":"康定路1335弄1-7号"},{"poiid":"B2094654D565A1FC4893","title":"上海市市西初级中学","lon":"121.43038","lat":"31.23022","category":"55","category_name":"中学","address":"静安区余姚路818号(康定路余姚路)"},{"poiid":"B2094757D16AA1F5499F","title":"胡子青藏牛肉拉面","lon":"121.43328058","lat":"31.230431435","category":"247","category_name":"餐饮美食","address":"上海市静安区康定路武宁南路"},{"poiid":"B2094654DB6BA6F9469B","title":"上海君城","lon":"121.43363110043","lat":"31.230441068108","category":"46","category_name":"楼宇","address":"长宁区长宁路320号(近江苏路)"},{"poiid":"B2094753D66AA1F4439B","title":"空中花园","lon":"121.432998","lat":"31.231393","category":"47","category_name":"住宅区","address":"上海市 上海市静安区康定路1018号"},{"poiid":"B2094757D069A2FE479B","title":"雀圣汇棋牌会所","lon":"121.43305","lat":"31.23101","category":"175","category_name":"棋牌室","address":"上海静安区武宁南路428号(近余姚路)  "},{"poiid":"B2094655D26CABFB409D","title":"康定汽车公寓","lon":"121.43362","lat":"31.229452","category":"47","category_name":"住宅区","address":"康定路1201弄"},{"poiid":"B2094752D36CABFB489E","title":"上海市第九人民医院","lon":"121.431854","lat":"31.229996","category":"162","category_name":"医院","address":null},{"poiid":"B2094654D565A1FD409F","title":"凯司令曹家渡店","lon":"121.43192","lat":"31.22949","category":"112","category_name":"糕饼店","address":"静安区康定路1361-1363号(近万航渡路)"},{"poiid":"B2094655D26AA1F84092","title":"安吉瑞欧销售服务公司","lon":"121.43372","lat":"31.2297","category":"247","category_name":"餐饮美食","address":"静安区武宁南路287号(近康定路)"},{"poiid":"B2094757D66DA1FC4399","title":"万春街","lon":"121.433623586","lat":"31.2302524315","category":"500","category_name":"未知分类","address":"上海回不去的从前"},{"poiid":"B2094757D169A4F5479F","title":"游麻地","lon":"121.432277919","lat":"31.2308491098","category":"260","category_name":"其他","address":"静安区余姚路772号2楼(近武宁南路)"},{"poiid":"B2094757D06BA6F84093","title":"欣宏嘉园","lon":"121.43408","lat":"31.228691","category":"47","category_name":"住宅区","address":"上海市静安区武宁南路195弄"},{"poiid":"B2094757D065A0F44398","title":"上海汽车集团 康定路","lon":"121.433414","lat":"31.230097","category":"500","category_name":"未知分类","address":"上海康定路1199号"},{"poiid":"B2094757D16DA7F9469A","title":"下一城","lon":"121.43269578","lat":"31.229583918","category":"500","category_name":"未知分类","address":"上海吴江路267号"},{"poiid":"B2094757D16BA3FD439B","title":"静安区劳动人事争议仲裁院","lon":"121.432784","lat":"31.230908","category":"500","category_name":"未知分类","address":"上海武宁南路323号"},{"poiid":"B2094757D16AA7F54393","title":"上海诚信拍卖有限公司","lon":"121.433258","lat":"31.230115","category":"263","category_name":"公司","address":"上海市康定路1287号"},{"poiid":"B2094757D06AA7FF4393","title":"斯柯达安吉斯鸿","lon":"121.43431996","lat":"31.231078616","category":"500","category_name":"未知分类","address":"上海康定路1155号"},{"poiid":"B2094757D069ABFD469E","title":"Moussy(新天地店)","lon":"121.4331666","lat":"31.23126071","category":"141","category_name":"服装鞋帽皮具店","address":"卢湾区马当路245号新天地时尚购物广场1楼113号商铺(近复兴中路)"},{"poiid":"B2094655D26DABF4469F","title":"康余绿地","lon":"121.43124","lat":"31.22958","category":"202","category_name":"公园广场","address":"静安区曹家渡忻康里(康定路余姚路)"},{"poiid":"B2094757D069ABF94493","title":"集鲜阁","lon":"121.43094","lat":"31.22766","category":"76","category_name":"上海菜","address":"静安区万航渡路789号3楼(近康定路)"},{"poiid":"B2094654D565A2FF409D","title":"源品私房菜","lon":"121.43502","lat":"31.22809","category":"72","category_name":"广东菜","address":"静安区武宁南路183号(近康定路)"},{"poiid":"B2094757D06AA1F9409E","title":"康骏会馆","lon":"121.43149673","lat":"31.232041161","category":"500","category_name":"未知分类","address":"静安区武宁南路415号(近余姚路)"},{"poiid":"B2094757D06AA0F5409C","title":"南山竹海","lon":"121.432089","lat":"31.229611","category":"500","category_name":"未知分类","address":"常州江苏溧阳"},{"poiid":"B2094655D26AABF84698","title":"小鹭鹭酒家武宁南路店","lon":"121.43216","lat":"31.23152","category":"71","category_name":"四川菜","address":"静安区武宁南路383号(近余姚路)"},{"poiid":"B2094757D06FA2FF459B","title":"天上人间(武宁路店)","lon":"121.43187","lat":"31.23269","category":"260","category_name":"其他","address":"上海普陀区武宁路468号(近长寿路)  "},{"poiid":"B2094757D06FA2FE4299","title":"上海市公安局","lon":"121.435191","lat":"31.228343","category":"609","category_name":"警察局","address":"上海武宁南路128号"},{"poiid":"B209475CD564A7F8439E","title":"上海滩中信泰富店","lon":"121.45602","lat":"31.22851","category":"119","category_name":"商场","address":"\"南京西路1168号中信泰富广场，店铺号221.\r\n\""},{"poiid":"B2094757D068AAFC4799","title":"武宁南路康定路","lon":"121.43359714","lat":"31.2304910374","category":"260","category_name":"其他","address":"上海静安区武宁南路康定路口"},{"poiid":"B2094757D06AA2F4489C","title":"婚姻登记处(静安区登记处)","lon":"121.43274416","lat":"31.230187056","category":"46","category_name":"楼宇","address":"静安区康定路405号(近陕西北路)查看地图"},{"poiid":"B2094757D068A4FC449B","title":"瑞士人家","lon":"121.43354559","lat":"31.2285712694","category":"94","category_name":"西餐厅","address":"静安区康定路1582号(近万航渡路)"},{"poiid":"B2094757D068A1FE4292","title":"竹家庄避风塘","lon":"121.43373458","lat":"31.230659439","category":"72","category_name":"广东菜","address":"静安区武宁南路377号(近余姚路)"},{"poiid":"B209475CD76DA7F4419F","title":"唐宫海鲜舫","lon":"121.432838","lat":"31.227283","category":"247","category_name":"餐饮美食","address":"上海市 万航渡路889号悦达889广场4楼"},{"poiid":"B2094655D26AA4FB479E","title":"名流汽车销售公司","lon":"121.43425","lat":"31.23041","category":"247","category_name":"餐饮美食","address":"静安区康定路1171号(近万航渡路)"},{"poiid":"B2094757D069A1FC4392","title":"忻康里","lon":"121.430892942","lat":"31.2295717874","category":"38","category_name":"公交车站","address":"上海23路终点站"},{"poiid":"B2094757D068A4FA4398","title":"静安区社保中心","lon":"121.434334","lat":"31.228899","category":"500","category_name":"未知分类","address":"上海武宁南路221号"},{"poiid":"B2094655D26CAAFC479A","title":"静鼎安邦府邸","lon":"121.43263","lat":"31.230587","category":"47","category_name":"住宅区","address":"康定路1268弄1-29号"},{"poiid":"B2094757D16EA2FA4099","title":"上海汽车集团财务有限责任公司","lon":"121.43272558","lat":"31.229958425","category":"46","category_name":"楼宇","address":"上海康定路1199号"},{"poiid":"B2094757D16AA3F84498","title":"静安区妇幼保健所","lon":"121.43324","lat":"31.22984","category":"162","category_name":"医院","address":"静安区康定路1297号(近武宁南路)"},{"poiid":"B2094757D064A0FC489F","title":"静安区人力资源和社会保障局","lon":"121.43430671","lat":"31.2289472835","category":"46","category_name":"楼宇","address":"上海静安区武宁南路241号"},{"poiid":"B2094654DB6BA6FF4093","title":"金峰世纪大厦(万航渡路)","lon":"121.4307","lat":"31.22793","category":"46","category_name":"楼宇","address":"上海市静安区万航渡路789号"},{"poiid":"B2094757D16DA2FE4392","title":"小鹭鹭","lon":"121.431546586","lat":"31.2320484666","category":"249","category_name":"购物服务","address":"上海市普陀区武宁南路"},{"poiid":"B2094655D36CA3FE4498","title":"裕和堂","lon":"121.43156","lat":"31.23086","category":"149","category_name":"洗浴推拿场所","address":"余姚路790号(近达安花园4号门)"},{"poiid":"B2094757D468AAFB4392","title":"寿司奈良本","lon":"121.43089","lat":"31.229711","category":"95","category_name":"日本料理","address":"静安区余姚路801号"},{"poiid":"B2094757D16AA1F4429C","title":"曹燕华乒乓培训学校(静安校区)","lon":"121.43323","lat":"31.22991","category":"220","category_name":"运动场所","address":"静安区康定路151号静安体育中心内(武定路口)"},{"poiid":"B2094655D26CABFB4093","title":"康定汽车公寓(北门)","lon":"121.4332","lat":"31.23009","category":"47","category_name":"住宅区","address":"康定路1201弄"},{"poiid":"B2094655D36DA0F54093","title":"余姚路武宁南路","lon":"121.43224","lat":"31.23118","category":"38","category_name":"公交车站","address":""},{"poiid":"B2094655D26BA2FC429C","title":"武宁南路武定西路","lon":"121.43426","lat":"31.22957","category":"38","category_name":"公交车站","address":""},{"poiid":"B2094757D16EA7F4489D","title":"一品健检","lon":"121.431484586","lat":"31.2308544433","category":"500","category_name":"未知分类","address":"静安区康定路1437号2楼"},{"poiid":"B2094654D565A1FD4299","title":"上海市房地产交易中心《上海楼市》编辑部","lon":"121.43327","lat":"31.22976","category":"252","category_name":"楼宇机构","address":""},{"poiid":"B2094654D565A1FD4199","title":"志诚里","lon":"121.43266","lat":"31.22965","category":"47","category_name":"住宅区","address":"康定路1335弄1-7号"},{"poiid":"B2094654D565A1FC4893","title":"上海市市西初级中学","lon":"121.43038","lat":"31.23022","category":"55","category_name":"中学","address":"静安区余姚路818号(康定路余姚路)"},{"poiid":"B2094757D16AA1F5499F","title":"胡子青藏牛肉拉面","lon":"121.43328058","lat":"31.230431435","category":"247","category_name":"餐饮美食","address":"上海市静安区康定路武宁南路"},{"poiid":"B2094654DB6BA6F9469B","title":"上海君城","lon":"121.43363110043","lat":"31.230441068108","category":"46","category_name":"楼宇","address":"长宁区长宁路320号(近江苏路)"},{"poiid":"B2094753D66AA1F4439B","title":"空中花园","lon":"121.432998","lat":"31.231393","category":"47","category_name":"住宅区","address":"上海市 上海市静安区康定路1018号"},{"poiid":"B2094757D069A2FE479B","title":"雀圣汇棋牌会所","lon":"121.43305","lat":"31.23101","category":"175","category_name":"棋牌室","address":"上海静安区武宁南路428号(近余姚路)  "},{"poiid":"B2094655D26CABFB409D","title":"康定汽车公寓","lon":"121.43362","lat":"31.229452","category":"47","category_name":"住宅区","address":"康定路1201弄"},{"poiid":"B2094752D36CABFB489E","title":"上海市第九人民医院","lon":"121.431854","lat":"31.229996","category":"162","category_name":"医院","address":null},{"poiid":"B2094654D565A1FD409F","title":"凯司令曹家渡店","lon":"121.43192","lat":"31.22949","category":"112","category_name":"糕饼店","address":"静安区康定路1361-1363号(近万航渡路)"},{"poiid":"B2094655D26AA1F84092","title":"安吉瑞欧销售服务公司","lon":"121.43372","lat":"31.2297","category":"247","category_name":"餐饮美食","address":"静安区武宁南路287号(近康定路)"},{"poiid":"B2094757D66DA1FC4399","title":"万春街","lon":"121.433623586","lat":"31.2302524315","category":"500","category_name":"未知分类","address":"上海回不去的从前"},{"poiid":"B2094757D169A4F5479F","title":"游麻地","lon":"121.432277919","lat":"31.2308491098","category":"260","category_name":"其他","address":"静安区余姚路772号2楼(近武宁南路)"},{"poiid":"B2094757D06BA6F84093","title":"欣宏嘉园","lon":"121.43408","lat":"31.228691","category":"47","category_name":"住宅区","address":"上海市静安区武宁南路195弄"},{"poiid":"B2094757D065A0F44398","title":"上海汽车集团 康定路","lon":"121.433414","lat":"31.230097","category":"500","category_name":"未知分类","address":"上海康定路1199号"},{"poiid":"B2094757D16DA7F9469A","title":"下一城","lon":"121.43269578","lat":"31.229583918","category":"500","category_name":"未知分类","address":"上海吴江路267号"},{"poiid":"B2094757D16BA3FD439B","title":"静安区劳动人事争议仲裁院","lon":"121.432784","lat":"31.230908","category":"500","category_name":"未知分类","address":"上海武宁南路323号"},{"poiid":"B2094757D16AA7F54393","title":"上海诚信拍卖有限公司","lon":"121.433258","lat":"31.230115","category":"263","category_name":"公司","address":"上海市康定路1287号"},{"poiid":"B2094757D06AA7FF4393","title":"斯柯达安吉斯鸿","lon":"121.43431996","lat":"31.231078616","category":"500","category_name":"未知分类","address":"上海康定路1155号"},{"poiid":"B2094757D069ABFD469E","title":"Moussy(新天地店)","lon":"121.4331666","lat":"31.23126071","category":"141","category_name":"服装鞋帽皮具店","address":"卢湾区马当路245号新天地时尚购物广场1楼113号商铺(近复兴中路)"},{"poiid":"B2094655D26DABF4469F","title":"康余绿地","lon":"121.43124","lat":"31.22958","category":"202","category_name":"公园广场","address":"静安区曹家渡忻康里(康定路余姚路)"},{"poiid":"B2094757D069ABF94493","title":"集鲜阁","lon":"121.43094","lat":"31.22766","category":"76","category_name":"上海菜","address":"静安区万航渡路789号3楼(近康定路)"},{"poiid":"B2094654D565A2FF409D","title":"源品私房菜","lon":"121.43502","lat":"31.22809","category":"72","category_name":"广东菜","address":"静安区武宁南路183号(近康定路)"},{"poiid":"B2094757D06AA1F9409E","title":"康骏会馆","lon":"121.43149673","lat":"31.232041161","category":"500","category_name":"未知分类","address":"静安区武宁南路415号(近余姚路)"},{"poiid":"B2094757D06AA0F5409C","title":"南山竹海","lon":"121.432089","lat":"31.229611","category":"500","category_name":"未知分类","address":"常州江苏溧阳"},{"poiid":"B2094655D26AABF84698","title":"小鹭鹭酒家武宁南路店","lon":"121.43216","lat":"31.23152","category":"71","category_name":"四川菜","address":"静安区武宁南路383号(近余姚路)"},{"poiid":"B2094757D06FA2FF459B","title":"天上人间(武宁路店)","lon":"121.43187","lat":"31.23269","category":"260","category_name":"其他","address":"上海普陀区武宁路468号(近长寿路)  "},{"poiid":"B2094757D06FA2FE4299","title":"上海市公安局","lon":"121.435191","lat":"31.228343","category":"609","category_name":"警察局","address":"上海武宁南路128号"},{"poiid":"B209475CD564A7F8439E","title":"上海滩中信泰富店","lon":"121.45602","lat":"31.22851","category":"119","category_name":"商场","address":"\"南京西路1168号中信泰富广场，店铺号221.\r\n\""},{"poiid":"B2094757D068AAFC4799","title":"武宁南路康定路","lon":"121.43359714","lat":"31.2304910374","category":"260","category_name":"其他","address":"上海静安区武宁南路康定路口"},{"poiid":"B2094757D06AA2F4489C","title":"婚姻登记处(静安区登记处)","lon":"121.43274416","lat":"31.230187056","category":"46","category_name":"楼宇","address":"静安区康定路405号(近陕西北路)查看地图"},{"poiid":"B2094757D068A4FC449B","title":"瑞士人家","lon":"121.43354559","lat":"31.2285712694","category":"94","category_name":"西餐厅","address":"静安区康定路1582号(近万航渡路)"},{"poiid":"B2094757D068A1FE4292","title":"竹家庄避风塘","lon":"121.43373458","lat":"31.230659439","category":"72","category_name":"广东菜","address":"静安区武宁南路377号(近余姚路)"},{"poiid":"B209475CD76DA7F4419F","title":"唐宫海鲜舫","lon":"121.432838","lat":"31.227283","category":"247","category_name":"餐饮美食","address":"上海市 万航渡路889号悦达889广场4楼"},{"poiid":"B2094655D26AA4FB479E","title":"名流汽车销售公司","lon":"121.43425","lat":"31.23041","category":"247","category_name":"餐饮美食","address":"静安区康定路1171号(近万航渡路)"},{"poiid":"B2094757D069A1FC4392","title":"忻康里","lon":"121.430892942","lat":"31.2295717874","category":"38","category_name":"公交车站","address":"上海23路终点站"},{"poiid":"B2094757D068A4FA4398","title":"静安区社保中心","lon":"121.434334","lat":"31.228899","category":"500","category_name":"未知分类","address":"上海武宁南路221号"},{"poiid":"B2094655D26CAAFC479A","title":"静鼎安邦府邸","lon":"121.43263","lat":"31.230587","category":"47","category_name":"住宅区","address":"康定路1268弄1-29号"},{"poiid":"B2094757D16EA2FA4099","title":"上海汽车集团财务有限责任公司","lon":"121.43272558","lat":"31.229958425","category":"46","category_name":"楼宇","address":"上海康定路1199号"},{"poiid":"B2094757D16AA3F84498","title":"静安区妇幼保健所","lon":"121.43324","lat":"31.22984","category":"162","category_name":"医院","address":"静安区康定路1297号(近武宁南路)"},{"poiid":"B2094757D064A0FC489F","title":"静安区人力资源和社会保障局","lon":"121.43430671","lat":"31.2289472835","category":"46","category_name":"楼宇","address":"上海静安区武宁南路241号"},{"poiid":"B2094654DB6BA6FF4093","title":"金峰世纪大厦(万航渡路)","lon":"121.4307","lat":"31.22793","category":"46","category_name":"楼宇","address":"上海市静安区万航渡路789号"},{"poiid":"B2094757D16DA2FE4392","title":"小鹭鹭","lon":"121.431546586","lat":"31.2320484666","category":"249","category_name":"购物服务","address":"上海市普陀区武宁南路"},{"poiid":"B2094655D36CA3FE4498","title":"裕和堂","lon":"121.43156","lat":"31.23086","category":"149","category_name":"洗浴推拿场所","address":"余姚路790号(近达安花园4号门)"},{"poiid":"B2094757D468AAFB4392","title":"寿司奈良本","lon":"121.43089","lat":"31.229711","category":"95","category_name":"日本料理","address":"静安区余姚路801号"},{"poiid":"B2094757D16AA1F4429C","title":"曹燕华乒乓培训学校(静安校区)","lon":"121.43323","lat":"31.22991","category":"220","category_name":"运动场所","address":"静安区康定路151号静安体育中心内(武定路口)"},{"poiid":"B2094655D26CABFB4093","title":"康定汽车公寓(北门)","lon":"121.4332","lat":"31.23009","category":"47","category_name":"住宅区","address":"康定路1201弄"},{"poiid":"B2094655D36DA0F54093","title":"余姚路武宁南路","lon":"121.43224","lat":"31.23118","category":"38","category_name":"公交车站","address":""},{"poiid":"B2094655D26BA2FC429C","title":"武宁南路武定西路","lon":"121.43426","lat":"31.22957","category":"38","category_name":"公交车站","address":""},{"poiid":"B2094757D16EA7F4489D","title":"一品健检","lon":"121.431484586","lat":"31.2308544433","category":"500","category_name":"未知分类","address":"静安区康定路1437号2楼"},{"poiid":"B2094654D565A1FD4299","title":"上海市房地产交易中心《上海楼市》编辑部","lon":"121.43327","lat":"31.22976","category":"252","category_name":"楼宇机构","address":""},{"poiid":"B2094654D565A1FD4199","title":"志诚里","lon":"121.43266","lat":"31.22965","category":"47","category_name":"住宅区","address":"康定路1335弄1-7号"},{"poiid":"B2094654D565A1FC4893","title":"上海市市西初级中学","lon":"121.43038","lat":"31.23022","category":"55","category_name":"中学","address":"静安区余姚路818号(康定路余姚路)"},{"poiid":"B2094757D16AA1F5499F","title":"胡子青藏牛肉拉面","lon":"121.43328058","lat":"31.230431435","category":"247","category_name":"餐饮美食","address":"上海市静安区康定路武宁南路"},{"poiid":"B2094654DB6BA6F9469B","title":"上海君城","lon":"121.43363110043","lat":"31.230441068108","category":"46","category_name":"楼宇","address":"长宁区长宁路320号(近江苏路)"},{"poiid":"B2094753D66AA1F4439B","title":"空中花园","lon":"121.432998","lat":"31.231393","category":"47","category_name":"住宅区","address":"上海市 上海市静安区康定路1018号"},{"poiid":"B2094757D069A2FE479B","title":"雀圣汇棋牌会所","lon":"121.43305","lat":"31.23101","category":"175","category_name":"棋牌室","address":"上海静安区武宁南路428号(近余姚路)  "},{"poiid":"B2094655D26CABFB409D","title":"康定汽车公寓","lon":"121.43362","lat":"31.229452","category":"47","category_name":"住宅区","address":"康定路1201弄"},{"poiid":"B2094752D36CABFB489E","title":"上海市第九人民医院","lon":"121.431854","lat":"31.229996","category":"162","category_name":"医院","address":null},{"poiid":"B2094654D565A1FD409F","title":"凯司令曹家渡店","lon":"121.43192","lat":"31.22949","category":"112","category_name":"糕饼店","address":"静安区康定路1361-1363号(近万航渡路)"},{"poiid":"B2094655D26AA1F84092","title":"安吉瑞欧销售服务公司","lon":"121.43372","lat":"31.2297","category":"247","category_name":"餐饮美食","address":"静安区武宁南路287号(近康定路)"},{"poiid":"B2094757D66DA1FC4399","title":"万春街","lon":"121.433623586","lat":"31.2302524315","category":"500","category_name":"未知分类","address":"上海回不去的从前"},{"poiid":"B2094757D169A4F5479F","title":"游麻地","lon":"121.432277919","lat":"31.2308491098","category":"260","category_name":"其他","address":"静安区余姚路772号2楼(近武宁南路)"},{"poiid":"B2094757D06BA6F84093","title":"欣宏嘉园","lon":"121.43408","lat":"31.228691","category":"47","category_name":"住宅区","address":"上海市静安区武宁南路195弄"},{"poiid":"B2094757D065A0F44398","title":"上海汽车集团 康定路","lon":"121.433414","lat":"31.230097","category":"500","category_name":"未知分类","address":"上海康定路1199号"},{"poiid":"B2094757D16DA7F9469A","title":"下一城","lon":"121.43269578","lat":"31.229583918","category":"500","category_name":"未知分类","address":"上海吴江路267号"},{"poiid":"B2094757D16BA3FD439B","title":"静安区劳动人事争议仲裁院","lon":"121.432784","lat":"31.230908","category":"500","category_name":"未知分类","address":"上海武宁南路323号"},{"poiid":"B2094757D16AA7F54393","title":"上海诚信拍卖有限公司","lon":"121.433258","lat":"31.230115","category":"263","category_name":"公司","address":"上海市康定路1287号"},{"poiid":"B2094757D06AA7FF4393","title":"斯柯达安吉斯鸿","lon":"121.43431996","lat":"31.231078616","category":"500","category_name":"未知分类","address":"上海康定路1155号"},{"poiid":"B2094757D069ABFD469E","title":"Moussy(新天地店)","lon":"121.4331666","lat":"31.23126071","category":"141","category_name":"服装鞋帽皮具店","address":"卢湾区马当路245号新天地时尚购物广场1楼113号商铺(近复兴中路)"},{"poiid":"B2094655D26DABF4469F","title":"康余绿地","lon":"121.43124","lat":"31.22958","category":"202","category_name":"公园广场","address":"静安区曹家渡忻康里(康定路余姚路)"},{"poiid":"B2094757D069ABF94493","title":"集鲜阁","lon":"121.43094","lat":"31.22766","category":"76","category_name":"上海菜","address":"静安区万航渡路789号3楼(近康定路)"},{"poiid":"B2094654D565A2FF409D","title":"源品私房菜","lon":"121.43502","lat":"31.22809","category":"72","category_name":"广东菜","address":"静安区武宁南路183号(近康定路)"},{"poiid":"B2094757D06AA1F9409E","title":"康骏会馆","lon":"121.43149673","lat":"31.232041161","category":"500","category_name":"未知分类","address":"静安区武宁南路415号(近余姚路)"},{"poiid":"B2094757D06AA0F5409C","title":"南山竹海","lon":"121.432089","lat":"31.229611","category":"500","category_name":"未知分类","address":"常州江苏溧阳"},{"poiid":"B2094655D26AABF84698","title":"小鹭鹭酒家武宁南路店","lon":"121.43216","lat":"31.23152","category":"71","category_name":"四川菜","address":"静安区武宁南路383号(近余姚路)"},{"poiid":"B2094757D06FA2FF459B","title":"天上人间(武宁路店)","lon":"121.43187","lat":"31.23269","category":"260","category_name":"其他","address":"上海普陀区武宁路468号(近长寿路)  "},{"poiid":"B2094757D06FA2FE4299","title":"上海市公安局","lon":"121.435191","lat":"31.228343","category":"609","category_name":"警察局","address":"上海武宁南路128号"},{"poiid":"B209475CD564A7F8439E","title":"上海滩中信泰富店","lon":"121.45602","lat":"31.22851","category":"119","category_name":"商场","address":"\"南京西路1168号中信泰富广场，店铺号221.\r\n\""},{"poiid":"B2094757D068AAFC4799","title":"武宁南路康定路","lon":"121.43359714","lat":"31.2304910374","category":"260","category_name":"其他","address":"上海静安区武宁南路康定路口"},{"poiid":"B2094757D06AA2F4489C","title":"婚姻登记处(静安区登记处)","lon":"121.43274416","lat":"31.230187056","category":"46","category_name":"楼宇","address":"静安区康定路405号(近陕西北路)查看地图"},{"poiid":"B2094757D068A4FC449B","title":"瑞士人家","lon":"121.43354559","lat":"31.2285712694","category":"94","category_name":"西餐厅","address":"静安区康定路1582号(近万航渡路)"},{"poiid":"B2094757D068A1FE4292","title":"竹家庄避风塘","lon":"121.43373458","lat":"31.230659439","category":"72","category_name":"广东菜","address":"静安区武宁南路377号(近余姚路)"},{"poiid":"B209475CD76DA7F4419F","title":"唐宫海鲜舫","lon":"121.432838","lat":"31.227283","category":"247","category_name":"餐饮美食","address":"上海市 万航渡路889号悦达889广场4楼"},{"poiid":"B2094655D26AA4FB479E","title":"名流汽车销售公司","lon":"121.43425","lat":"31.23041","category":"247","category_name":"餐饮美食","address":"静安区康定路1171号(近万航渡路)"},{"poiid":"B2094757D069A1FC4392","title":"忻康里","lon":"121.430892942","lat":"31.2295717874","category":"38","category_name":"公交车站","address":"上海23路终点站"},{"poiid":"B2094757D068A4FA4398","title":"静安区社保中心","lon":"121.434334","lat":"31.228899","category":"500","category_name":"未知分类","address":"上海武宁南路221号"},{"poiid":"B2094655D26CAAFC479A","title":"静鼎安邦府邸","lon":"121.43263","lat":"31.230587","category":"47","category_name":"住宅区","address":"康定路1268弄1-29号"},{"poiid":"B2094757D16EA2FA4099","title":"上海汽车集团财务有限责任公司","lon":"121.43272558","lat":"31.229958425","category":"46","category_name":"楼宇","address":"上海康定路1199号"},{"poiid":"B2094757D16AA3F84498","title":"静安区妇幼保健所","lon":"121.43324","lat":"31.22984","category":"162","category_name":"医院","address":"静安区康定路1297号(近武宁南路)"},{"poiid":"B2094757D064A0FC489F","title":"静安区人力资源和社会保障局","lon":"121.43430671","lat":"31.2289472835","category":"46","category_name":"楼宇","address":"上海静安区武宁南路241号"},{"poiid":"B2094654DB6BA6FF4093","title":"金峰世纪大厦(万航渡路)","lon":"121.4307","lat":"31.22793","category":"46","category_name":"楼宇","address":"上海市静安区万航渡路789号"},{"poiid":"B2094757D16DA2FE4392","title":"小鹭鹭","lon":"121.431546586","lat":"31.2320484666","category":"249","category_name":"购物服务","address":"上海市普陀区武宁南路"},{"poiid":"B2094655D36CA3FE4498","title":"裕和堂","lon":"121.43156","lat":"31.23086","category":"149","category_name":"洗浴推拿场所","address":"余姚路790号(近达安花园4号门)"},{"poiid":"B2094757D468AAFB4392","title":"寿司奈良本","lon":"121.43089","lat":"31.229711","category":"95","category_name":"日本料理","address":"静安区余姚路801号"},{"poiid":"B2094757D16AA1F4429C","title":"曹燕华乒乓培训学校(静安校区)","lon":"121.43323","lat":"31.22991","category":"220","category_name":"运动场所","address":"静安区康定路151号静安体育中心内(武定路口)"},{"poiid":"B2094655D26CABFB4093","title":"康定汽车公寓(北门)","lon":"121.4332","lat":"31.23009","category":"47","category_name":"住宅区","address":"康定路1201弄"},{"poiid":"B2094655D36DA0F54093","title":"余姚路武宁南路","lon":"121.43224","lat":"31.23118","category":"38","category_name":"公交车站","address":""},{"poiid":"B2094655D26BA2FC429C","title":"武宁南路武定西路","lon":"121.43426","lat":"31.22957","category":"38","category_name":"公交车站","address":""},{"poiid":"B2094757D16EA7F4489D","title":"一品健检","lon":"121.431484586","lat":"31.2308544433","category":"500","category_name":"未知分类","address":"静安区康定路1437号2楼"},{"poiid":"B2094654D565A1FD4299","title":"上海市房地产交易中心《上海楼市》编辑部","lon":"121.43327","lat":"31.22976","category":"252","category_name":"楼宇机构","address":""},{"poiid":"B2094654D565A1FD4199","title":"志诚里","lon":"121.43266","lat":"31.22965","category":"47","category_name":"住宅区","address":"康定路1335弄1-7号"},{"poiid":"B2094654D565A1FC4893","title":"上海市市西初级中学","lon":"121.43038","lat":"31.23022","category":"55","category_name":"中学","address":"静安区余姚路818号(康定路余姚路)"},{"poiid":"B2094757D16AA1F5499F","title":"胡子青藏牛肉拉面","lon":"121.43328058","lat":"31.230431435","category":"247","category_name":"餐饮美食","address":"上海市静安区康定路武宁南路"},{"poiid":"B2094654DB6BA6F9469B","title":"上海君城","lon":"121.43363110043","lat":"31.230441068108","category":"46","category_name":"楼宇","address":"长宁区长宁路320号(近江苏路)"},{"poiid":"B2094753D66AA1F4439B","title":"空中花园","lon":"121.432998","lat":"31.231393","category":"47","category_name":"住宅区","address":"上海市 上海市静安区康定路1018号"},{"poiid":"B2094757D069A2FE479B","title":"雀圣汇棋牌会所","lon":"121.43305","lat":"31.23101","category":"175","category_name":"棋牌室","address":"上海静安区武宁南路428号(近余姚路)  "},{"poiid":"B2094655D26CABFB409D","title":"康定汽车公寓","lon":"121.43362","lat":"31.229452","category":"47","category_name":"住宅区","address":"康定路1201弄"},{"poiid":"B2094752D36CABFB489E","title":"上海市第九人民医院","lon":"121.431854","lat":"31.229996","category":"162","category_name":"医院","address":null},{"poiid":"B2094654D565A1FD409F","title":"凯司令曹家渡店","lon":"121.43192","lat":"31.22949","category":"112","category_name":"糕饼店","address":"静安区康定路1361-1363号(近万航渡路)"},{"poiid":"B2094655D26AA1F84092","title":"安吉瑞欧销售服务公司","lon":"121.43372","lat":"31.2297","category":"247","category_name":"餐饮美食","address":"静安区武宁南路287号(近康定路)"},{"poiid":"B2094757D66DA1FC4399","title":"万春街","lon":"121.433623586","lat":"31.2302524315","category":"500","category_name":"未知分类","address":"上海回不去的从前"},{"poiid":"B2094757D169A4F5479F","title":"游麻地","lon":"121.432277919","lat":"31.2308491098","category":"260","category_name":"其他","address":"静安区余姚路772号2楼(近武宁南路)"},{"poiid":"B2094757D06BA6F84093","title":"欣宏嘉园","lon":"121.43408","lat":"31.228691","category":"47","category_name":"住宅区","address":"上海市静安区武宁南路195弄"},{"poiid":"B2094757D065A0F44398","title":"上海汽车集团 康定路","lon":"121.433414","lat":"31.230097","category":"500","category_name":"未知分类","address":"上海康定路1199号"},{"poiid":"B2094757D16DA7F9469A","title":"下一城","lon":"121.43269578","lat":"31.229583918","category":"500","category_name":"未知分类","address":"上海吴江路267号"},{"poiid":"B2094757D16BA3FD439B","title":"静安区劳动人事争议仲裁院","lon":"121.432784","lat":"31.230908","category":"500","category_name":"未知分类","address":"上海武宁南路323号"},{"poiid":"B2094757D16AA7F54393","title":"上海诚信拍卖有限公司","lon":"121.433258","lat":"31.230115","category":"263","category_name":"公司","address":"上海市康定路1287号"},{"poiid":"B2094757D06AA7FF4393","title":"斯柯达安吉斯鸿","lon":"121.43431996","lat":"31.231078616","category":"500","category_name":"未知分类","address":"上海康定路1155号"},{"poiid":"B2094757D069ABFD469E","title":"Moussy(新天地店)","lon":"121.4331666","lat":"31.23126071","category":"141","category_name":"服装鞋帽皮具店","address":"卢湾区马当路245号新天地时尚购物广场1楼113号商铺(近复兴中路)"},{"poiid":"B2094655D26DABF4469F","title":"康余绿地","lon":"121.43124","lat":"31.22958","category":"202","category_name":"公园广场","address":"静安区曹家渡忻康里(康定路余姚路)"},{"poiid":"B2094757D069ABF94493","title":"集鲜阁","lon":"121.43094","lat":"31.22766","category":"76","category_name":"上海菜","address":"静安区万航渡路789号3楼(近康定路)"},{"poiid":"B2094654D565A2FF409D","title":"源品私房菜","lon":"121.43502","lat":"31.22809","category":"72","category_name":"广东菜","address":"静安区武宁南路183号(近康定路)"},{"poiid":"B2094757D06AA1F9409E","title":"康骏会馆","lon":"121.43149673","lat":"31.232041161","category":"500","category_name":"未知分类","address":"静安区武宁南路415号(近余姚路)"},{"poiid":"B2094757D06AA0F5409C","title":"南山竹海","lon":"121.432089","lat":"31.229611","category":"500","category_name":"未知分类","address":"常州江苏溧阳"}]