[{"poiid":"B2094654DB6BA4FD4592","title":"上海音乐学院","lon":"121.45487","lat":"31.21309","category":"671","category_name":"高校中心点","address":"徐汇区汾阳路20号(近复兴中路)"},{"poiid":"B2094654DB65A5F8479D","title":"贺绿汀音乐厅","lon":"121.45461","lat":"31.21331","category":"179","category_name":"音乐厅","address":"徐汇区汾阳路20号上海音乐学院内(近淮海中路)"},{"poiid":"B2094757D068A1F8429A","title":"熠盛粤味","lon":"121.457178","lat":"31.210503","category":"72","category_name":"广东菜","address":"徐汇区永康路132号(近襄阳南路)"},{"poiid":"B2094753D76FAAFA449C","title":"上海滩国泰旗舰店","lon":"121.466011","lat":"31.216125","category":"249","category_name":"购物服务","address":"淮海中路868号"},{"poiid":"B209475CD564A7F84292","title":"上海滩新天地店","lon":"121.47463","lat":"31.22164","category":"119","category_name":"商场","address":"\"太仓路181弄新天地北里15号\r\n\""},{"poiid":"B209475CD564A7F8439E","title":"上海滩中信泰富店","lon":"121.45602","lat":"31.22851","category":"119","category_name":"商场","address":"\"南京西路1168号中信泰富广场，店铺号221.\r\n\""},{"poiid":"B2094757D06FA5FE4898","title":"老地方面馆","lon":"121.45791","lat":"31.21153","category":"68","category_name":"快餐厅","address":"徐汇区襄阳南路233号(近永康路)"},{"poiid":"B2094757D16AAAFD459A","title":"上海汾陽花園酒店","lon":"121.455160738","lat":"31.212530923","category":"217","category_name":"旅馆招待所","address":"上海汾陽45號"},{"poiid":"B2094757D06EAAFA429F","title":"It's Café (Espresso Club)","lon":"121.458087","lat":"31.21099","category":"65","category_name":"咖啡厅","address":"上海徐汇区永康路64号"},{"poiid":"B2094757D069A3F54799","title":"El Patio","lon":"121.45368458","lat":"31.210532045","category":"94","category_name":"西餐厅","address":"徐汇区汾阳路110号(近太原路)"},{"poiid":"B2094654DA6DA6F8439A","title":"上海市第二中学","lon":"121.45536","lat":"31.21034","category":"55","category_name":"中学","address":"徐汇区永康路200号(近太原路)"},{"poiid":"B2094757D068A6F8449D","title":"邮电医院南部","lon":"121.45559842","lat":"31.211518436","category":"162","category_name":"医院","address":"徐汇区复兴中路1315号(近汾阳路)"},{"poiid":"B2094757D06AA3FB4292","title":"上海工艺美术博物馆","lon":"121.45460284","lat":"31.210373083","category":"182","category_name":"博物馆","address":"徐汇区汾阳路79号(永康路与太原路之间)"},{"poiid":"B2094757D468A4FE439C","title":"埃哇餐厅 汾阳路店 AURA","lon":"121.454274","lat":"31.2113792","category":"94","category_name":"西餐厅","address":"徐汇区汾阳路64弄4号(近复兴中路)"},{"poiid":"B2094752D269A5FA4293","title":"半岛小厨","lon":"121.457703","lat":"31.212662","category":"247","category_name":"餐饮美食","address":"徐汇区复兴中路1251号2楼(襄阳南路口)"},{"poiid":"B2094757DA6FA3FE439F","title":"恋恋仙草(永康店)","lon":"121.457996","lat":"31.2109670000002","category":"113","category_name":"冷饮店","address":"徐汇区永康路70号(襄阳南路口)"},{"poiid":"B2094757D065A3F94398","title":"茜茜莉亚音乐咖啡","lon":"121.4542747","lat":"31.211379","category":"65","category_name":"咖啡厅","address":"徐汇区汾阳路64弄2号(近复兴中路)"},{"poiid":"B2094757D06EAAFD4392","title":"磨咕咖啡馆 mogoo cafe","lon":"121.454309054","lat":"31.211203793","category":"260","category_name":"其他","address":"徐汇区汾阳路77号(近音乐学院)"},{"poiid":"B2094655D265A7FF429F","title":"上海音乐学院(南门)","lon":"121.45434","lat":"31.21193","category":"52","category_name":"高等院校","address":"复兴中路1330"},{"poiid":"B2094757D468A4FE499B","title":"阿斯曼","lon":"121.456708054","lat":"31.212441793","category":"84","category_name":"西北菜","address":"复兴中路1251号近襄阳南路"},{"poiid":"B2094751D465A3F5449A","title":"hoF","lon":"121.455483","lat":"31.211434","category":"249","category_name":"购物服务","address":"思南路淮海中路"},{"poiid":"B2094752D668A4FD489A","title":"查餐厅","lon":"121.455439","lat":"31.211717","category":"247","category_name":"餐饮美食","address":"思南路"},{"poiid":"B2094757D068A5FA489A","title":"位育初级中学","lon":"121.45677509","lat":"31.211933819","category":"55","category_name":"中学","address":"徐汇区复兴中路1261号(近襄阳南路)"},{"poiid":"B2094757D06FA7FA4998","title":"Memo bar & restaurant","lon":"121.4543","lat":"31.21143","category":"94","category_name":"西餐厅","address":"嘉善路259弄旁嘉善老市内（建国西路和永嘉路之间）"},{"poiid":"B2094757D16AA1FA469F","title":"永康里","lon":"121.45614","lat":"31.20967","category":"76","category_name":"上海菜","address":"徐汇区永康路(近襄阳路)"},{"poiid":"B2094757D568A0F4459D","title":"汾阳花园酒店","lon":"121.45546767","lat":"31.21291558","category":"214","category_name":"四星级宾馆","address":"上海徐汇区汾阳路45号(近复兴中路)"},{"poiid":"B2094654DA6DA6FD459F","title":"花子","lon":"121.45753735595","lat":"31.211939687057","category":"95","category_name":"日本料理","address":"徐汇区襄阳南路207-3号(近复兴中路)"},{"poiid":"B2094757D16CA3F84298","title":"汾阳路","lon":"121.456418738","lat":"31.2133589406","category":"260","category_name":"其他","address":"上海汾阳路"},{"poiid":"B2094757DA65A6FC4299","title":"1933老場坊","lon":"121.457631","lat":"31.21133","category":"248","category_name":"生活娱乐","address":"上海市虹口區漂陽路611號1933老場坊"},{"poiid":"B2094757D764A5F4449F","title":"IT'S COFFEE","lon":"121.458087","lat":"31.21099","category":"260","category_name":"其他","address":"徐汇区永康路64号(近复兴中路)"},{"poiid":"B2094757D068AAFA4999","title":"猫咖啡 Cat cafe bliss","lon":"121.45400997","lat":"31.209424931","category":"260","category_name":"其他","address":"徐汇区太原路8弄1号2楼(近汾阳路)"},{"poiid":"B2094757D16BABF8469A","title":"El Gato Verde","lon":"121.454563586","lat":"31.2111980588","category":"94","category_name":"西餐厅","address":"徐汇区汾阳路74号(近复兴中路)"},{"poiid":"B2094757D769A4F8479B","title":"奥芙莉 襄阳南路店 Awfully Chocolate","lon":"121.456886054","lat":"31.212959793","category":"67","category_name":"甜品店","address":"徐汇区襄阳南路174号(近复兴中路)"},{"poiid":"B2094655D265A7FB4798","title":"悟茶茶馆","lon":"121.45489","lat":"31.21179","category":"66","category_name":"茶艺馆","address":"复兴中路1315-2临"},{"poiid":"B2094654DA6DA6F84298","title":"上海工艺美术博物馆多功能厅","lon":"121.4546","lat":"31.21037","category":"182","category_name":"博物馆","address":"汾阳路79"},{"poiid":"B2094654DA6DA6F84199","title":"安盛商务楼","lon":"121.4543","lat":"31.21079","category":"46","category_name":"楼宇","address":"汾阳路77号"},{"poiid":"B2094752D36EAAFA489B","title":"阿娘面馆","lon":"121.455424","lat":"31.211701","category":"247","category_name":"餐饮美食","address":"司南路36号"},{"poiid":"B2094757DB6CA3FC4699","title":"上海汾阳花园酒店","lon":"121.455148","lat":"31.212659","category":"213","category_name":"五星级宾馆","address":"上海市徐汇区汾阳路45号(近复兴中路)"},{"poiid":"B2094654DB6BA5FB4093","title":"巴比馒头 汾阳路店 Babi Food","lon":"121.454144054","lat":"31.211533793","category":"68","category_name":"快餐厅","address":"徐汇区汾阳路57号(近复兴路)"},{"poiid":"B2094654DA6DA6FF4599","title":"天平街道桃源村小区","lon":"121.45625","lat":"31.21143","category":"47","category_name":"住宅区","address":"复兴中路1295弄1-75号"},{"poiid":"B209475CD46AA5FD4599","title":"么么甜品","lon":"121.456237","lat":"31.212278","category":"247","category_name":"餐饮美食","address":"上海市 复兴中路1277号"},{"poiid":"B2094753D66FABFD469E","title":"梦苑咖啡影吧","lon":"121.457076","lat":"31.211774","category":"65","category_name":"咖啡厅","address":"徐汇区襄阳南路222号"},{"poiid":"B2094654DA6DA6FF459E","title":"桃源村卫生服务站","lon":"121.45626","lat":"31.21143","category":"162","category_name":"医院","address":"复兴中路1295弄13号"},{"poiid":"B2094757D068A1F84792","title":"现代电子城","lon":"121.45725822","lat":"31.212201762","category":"249","category_name":"购物服务","address":"徐汇区襄阳南路218号(近复兴中路)"},{"poiid":"B2094654DA6DA4F4499C","title":"杰天阁随意小吃","lon":"121.4542","lat":"31.21141","category":"76","category_name":"上海菜","address":"徐汇区汾阳路64弄1号"},{"poiid":"B2094757D064A4F94199","title":"永康路38弄","lon":"121.45685573","lat":"31.210449478","category":"46","category_name":"楼宇","address":"上海徐汇区永康路38弄"},{"poiid":"B2094757D568AAFE4892","title":"上海音乐学院餐厅","lon":"121.4545131","lat":"31.21272194","category":"68","category_name":"快餐厅","address":"徐汇区汾阳路20号上海音乐学院内(近复兴中路)"},{"poiid":"B2094654DA6DA6FF459F","title":"玛莎","lon":"121.45577","lat":"31.21206","category":"141","category_name":"服装鞋帽皮具店","address":"复兴中路1303"},{"poiid":"B2094655D26BA2FA439C","title":"太原路永嘉路","lon":"121.45407","lat":"31.20982","category":"38","category_name":"公交车站","address":""},{"poiid":"B2094757D16AA3FA409B","title":"台北永康","lon":"121.45818773","lat":"31.210877887","category":"500","category_name":"未知分类","address":"上海永康路66号"},{"poiid":"B2094654DB6BA4FD4592","title":"上海音乐学院","lon":"121.45487","lat":"31.21309","category":"671","category_name":"高校中心点","address":"徐汇区汾阳路20号(近复兴中路)"},{"poiid":"B2094654DB65A5F8479D","title":"贺绿汀音乐厅","lon":"121.45461","lat":"31.21331","category":"179","category_name":"音乐厅","address":"徐汇区汾阳路20号上海音乐学院内(近淮海中路)"},{"poiid":"B2094757D068A1F8429A","title":"熠盛粤味","lon":"121.457178","lat":"31.210503","category":"72","category_name":"广东菜","address":"徐汇区永康路132号(近襄阳南路)"},{"poiid":"B2094753D76FAAFA449C","title":"上海滩国泰旗舰店","lon":"121.466011","lat":"31.216125","category":"249","category_name":"购物服务","address":"淮海中路868号"},{"poiid":"B209475CD564A7F84292","title":"上海滩新天地店","lon":"121.47463","lat":"31.22164","category":"119","category_name":"商场","address":"\"太仓路181弄新天地北里15号\r\n\""},{"poiid":"B209475CD564A7F8439E","title":"上海滩中信泰富店","lon":"121.45602","lat":"31.22851","category":"119","category_name":"商场","address":"\"南京西路1168号中信泰富广场，店铺号221.\r\n\""},{"poiid":"B2094757D06FA5FE4898","title":"老地方面馆","lon":"121.45791","lat":"31.21153","category":"68","category_name":"快餐厅","address":"徐汇区襄阳南路233号(近永康路)"},{"poiid":"B2094757D16AAAFD459A","title":"上海汾陽花園酒店","lon":"121.455160738","lat":"31.212530923","category":"217","category_name":"旅馆招待所","address":"上海汾陽45號"},{"poiid":"B2094757D06EAAFA429F","title":"It's Café (Espresso Club)","lon":"121.458087","lat":"31.21099","category":"65","category_name":"咖啡厅","address":"上海徐汇区永康路64号"},{"poiid":"B2094757D069A3F54799","title":"El Patio","lon":"121.45368458","lat":"31.210532045","category":"94","category_name":"西餐厅","address":"徐汇区汾阳路110号(近太原路)"},{"poiid":"B2094654DA6DA6F8439A","title":"上海市第二中学","lon":"121.45536","lat":"31.21034","category":"55","category_name":"中学","address":"徐汇区永康路200号(近太原路)"},{"poiid":"B2094757D068A6F8449D","title":"邮电医院南部","lon":"121.45559842","lat":"31.211518436","category":"162","category_name":"医院","address":"徐汇区复兴中路1315号(近汾阳路)"},{"poiid":"B2094757D06AA3FB4292","title":"上海工艺美术博物馆","lon":"121.45460284","lat":"31.210373083","category":"182","category_name":"博物馆","address":"徐汇区汾阳路79号(永康路与太原路之间)"},{"poiid":"B2094757D468A4FE439C","title":"埃哇餐厅 汾阳路店 AURA","lon":"121.454274","lat":"31.2113792","category":"94","category_name":"西餐厅","address":"徐汇区汾阳路64弄4号(近复兴中路)"},{"poiid":"B2094752D269A5FA4293","title":"半岛小厨","lon":"121.457703","lat":"31.212662","category":"247","category_name":"餐饮美食","address":"徐汇区复兴中路1251号2楼(襄阳南路口)"},{"poiid":"B2094757DA6FA3FE439F","title":"恋恋仙草(永康店)","lon":"121.457996","lat":"31.2109670000002","category":"113","category_name":"冷饮店","address":"徐汇区永康路70号(襄阳南路口)"},{"poiid":"B2094757D065A3F94398","title":"茜茜莉亚音乐咖啡","lon":"121.4542747","lat":"31.211379","category":"65","category_name":"咖啡厅","address":"徐汇区汾阳路64弄2号(近复兴中路)"},{"poiid":"B2094757D06EAAFD4392","title":"磨咕咖啡馆 mogoo cafe","lon":"121.454309054","lat":"31.211203793","category":"260","category_name":"其他","address":"徐汇区汾阳路77号(近音乐学院)"},{"poiid":"B2094655D265A7FF429F","title":"上海音乐学院(南门)","lon":"121.45434","lat":"31.21193","category":"52","category_name":"高等院校","address":"复兴中路1330"},{"poiid":"B2094757D468A4FE499B","title":"阿斯曼","lon":"121.456708054","lat":"31.212441793","category":"84","category_name":"西北菜","address":"复兴中路1251号近襄阳南路"},{"poiid":"B2094751D465A3F5449A","title":"hoF","lon":"121.455483","lat":"31.211434","category":"249","category_name":"购物服务","address":"思南路淮海中路"},{"poiid":"B2094752D668A4FD489A","title":"查餐厅","lon":"121.455439","lat":"31.211717","category":"247","category_name":"餐饮美食","address":"思南路"},{"poiid":"B2094757D068A5FA489A","title":"位育初级中学","lon":"121.45677509","lat":"31.211933819","category":"55","category_name":"中学","address":"徐汇区复兴中路1261号(近襄阳南路)"},{"poiid":"B2094757D06FA7FA4998","title":"Memo bar & restaurant","lon":"121.4543","lat":"31.21143","category":"94","category_name":"西餐厅","address":"嘉善路259弄旁嘉善老市内（建国西路和永嘉路之间）"},{"poiid":"B2094757D16AA1FA469F","title":"永康里","lon":"121.45614","lat":"31.20967","category":"76","category_name":"上海菜","address":"徐汇区永康路(近襄阳路)"},{"poiid":"B2094757D568A0F4459D","title":"汾阳花园酒店","lon":"121.45546767","lat":"31.21291558","category":"214","category_name":"四星级宾馆","address":"上海徐汇区汾阳路45号(近复兴中路)"},{"poiid":"B2094654DA6DA6FD459F","title":"花子","lon":"121.45753735595","lat":"31.211939687057","category":"95","category_name":"日本料理","address":"徐汇区襄阳南路207-3号(近复兴中路)"},{"poiid":"B2094757D16CA3F84298","title":"汾阳路","lon":"121.456418738","lat":"31.2133589406","category":"260","category_name":"其他","address":"上海汾阳路"},{"poiid":"B2094757DA65A6FC4299","title":"1933老場坊","lon":"121.457631","lat":"31.21133","category":"248","category_name":"生活娱乐","address":"上海市虹口區漂陽路611號1933老場坊"},{"poiid":"B2094757D764A5F4449F","title":"IT'S COFFEE","lon":"121.458087","lat":"31.21099","category":"260","category_name":"其他","address":"徐汇区永康路64号(近复兴中路)"},{"poiid":"B2094757D068AAFA4999","title":"猫咖啡 Cat cafe bliss","lon":"121.45400997","lat":"31.209424931","category":"260","category_name":"其他","address":"徐汇区太原路8弄1号2楼(近汾阳路)"},{"poiid":"B2094757D16BABF8469A","title":"El Gato Verde","lon":"121.454563586","lat":"31.2111980588","category":"94","category_name":"西餐厅","address":"徐汇区汾阳路74号(近复兴中路)"},{"poiid":"B2094757D769A4F8479B","title":"奥芙莉 襄阳南路店 Awfully Chocolate","lon":"121.456886054","lat":"31.212959793","category":"67","category_name":"甜品店","address":"徐汇区襄阳南路174号(近复兴中路)"},{"poiid":"B2094655D265A7FB4798","title":"悟茶茶馆","lon":"121.45489","lat":"31.21179","category":"66","category_name":"茶艺馆","address":"复兴中路1315-2临"},{"poiid":"B2094654DA6DA6F84298","title":"上海工艺美术博物馆多功能厅","lon":"121.4546","lat":"31.21037","category":"182","category_name":"博物馆","address":"汾阳路79"},{"poiid":"B2094654DA6DA6F84199","title":"安盛商务楼","lon":"121.4543","lat":"31.21079","category":"46","category_name":"楼宇","address":"汾阳路77号"},{"poiid":"B2094752D36EAAFA489B","title":"阿娘面馆","lon":"121.455424","lat":"31.211701","category":"247","category_name":"餐饮美食","address":"司南路36号"},{"poiid":"B2094757DB6CA3FC4699","title":"上海汾阳花园酒店","lon":"121.455148","lat":"31.212659","category":"213","category_name":"五星级宾馆","address":"上海市徐汇区汾阳路45号(近复兴中路)"},{"poiid":"B2094654DB6BA5FB4093","title":"巴比馒头 汾阳路店 Babi Food","lon":"121.454144054","lat":"31.211533793","category":"68","category_name":"快餐厅","address":"徐汇区汾阳路57号(近复兴路)"},{"poiid":"B2094654DA6DA6FF4599","title":"天平街道桃源村小区","lon":"121.45625","lat":"31.21143","category":"47","category_name":"住宅区","address":"复兴中路1295弄1-75号"},{"poiid":"B209475CD46AA5FD4599","title":"么么甜品","lon":"121.456237","lat":"31.212278","category":"247","category_name":"餐饮美食","address":"上海市 复兴中路1277号"},{"poiid":"B2094753D66FABFD469E","title":"梦苑咖啡影吧","lon":"121.457076","lat":"31.211774","category":"65","category_name":"咖啡厅","address":"徐汇区襄阳南路222号"},{"poiid":"B2094654DA6DA6FF459E","title":"桃源村卫生服务站","lon":"121.45626","lat":"31.21143","category":"162","category_name":"医院","address":"复兴中路1295弄13号"},{"poiid":"B2094757D068A1F84792","title":"现代电子城","lon":"121.45725822","lat":"31.212201762","category":"249","category_name":"购物服务","address":"徐汇区襄阳南路218号(近复兴中路)"},{"poiid":"B2094654DA6DA4F4499C","title":"杰天阁随意小吃","lon":"121.4542","lat":"31.21141","category":"76","category_name":"上海菜","address":"徐汇区汾阳路64弄1号"},{"poiid":"B2094757D064A4F94199","title":"永康路38弄","lon":"121.45685573","lat":"31.210449478","category":"46","category_name":"楼宇","address":"上海徐汇区永康路38弄"},{"poiid":"B2094757D568AAFE4892","title":"上海音乐学院餐厅","lon":"121.4545131","lat":"31.21272194","category":"68","category_name":"快餐厅","address":"徐汇区汾阳路20号上海音乐学院内(近复兴中路)"},{"poiid":"B2094654DA6DA6FF459F","title":"玛莎","lon":"121.45577","lat":"31.21206","category":"141","category_name":"服装鞋帽皮具店","address":"复兴中路1303"},{"poiid":"B2094655D26BA2FA439C","title":"太原路永嘉路","lon":"121.45407","lat":"31.20982","category":"38","category_name":"公交车站","address":""},{"poiid":"B2094757D16AA3FA409B","title":"台北永康","lon":"121.45818773","lat":"31.210877887","category":"500","category_name":"未知分类","address":"上海永康路66号"},{"poiid":"B2094654DB6BA4FD4592","title":"上海音乐学院","lon":"121.45487","lat":"31.21309","category":"671","category_name":"高校中心点","address":"徐汇区汾阳路20号(近复兴中路)"},{"poiid":"B2094654DB65A5F8479D","title":"贺绿汀音乐厅","lon":"121.45461","lat":"31.21331","category":"179","category_name":"音乐厅","address":"徐汇区汾阳路20号上海音乐学院内(近淮海中路)"},{"poiid":"B2094757D068A1F8429A","title":"熠盛粤味","lon":"121.457178","lat":"31.210503","category":"72","category_name":"广东菜","address":"徐汇区永康路132号(近襄阳南路)"},{"poiid":"B2094753D76FAAFA449C","title":"上海滩国泰旗舰店","lon":"121.466011","lat":"31.216125","category":"249","category_name":"购物服务","address":"淮海中路868号"},{"poiid":"B209475CD564A7F84292","title":"上海滩新天地店","lon":"121.47463","lat":"31.22164","category":"119","category_name":"商场","address":"\"太仓路181弄新天地北里15号\r\n\""},{"poiid":"B209475CD564A7F8439E","title":"上海滩中信泰富店","lon":"121.45602","lat":"31.22851","category":"119","category_name":"商场","address":"\"南京西路1168号中信泰富广场，店铺号221.\r\n\""},{"poiid":"B2094757D06FA5FE4898","title":"老地方面馆","lon":"121.45791","lat":"31.21153","category":"68","category_name":"快餐厅","address":"徐汇区襄阳南路233号(近永康路)"},{"poiid":"B2094757D16AAAFD459A","title":"上海汾陽花園酒店","lon":"121.455160738","lat":"31.212530923","category":"217","category_name":"旅馆招待所","address":"上海汾陽45號"},{"poiid":"B2094757D06EAAFA429F","title":"It's Café (Espresso Club)","lon":"121.458087","lat":"31.21099","category":"65","category_name":"咖啡厅","address":"上海徐汇区永康路64号"},{"poiid":"B2094757D069A3F54799","title":"El Patio","lon":"121.45368458","lat":"31.210532045","category":"94","category_name":"西餐厅","address":"徐汇区汾阳路110号(近太原路)"},{"poiid":"B2094654DA6DA6F8439A","title":"上海市第二中学","lon":"121.45536","lat":"31.21034","category":"55","category_name":"中学","address":"徐汇区永康路200号(近太原路)"},{"poiid":"B2094757D068A6F8449D","title":"邮电医院南部","lon":"121.45559842","lat":"31.211518436","category":"162","category_name":"医院","address":"徐汇区复兴中路1315号(近汾阳路)"},{"poiid":"B2094757D06AA3FB4292","title":"上海工艺美术博物馆","lon":"121.45460284","lat":"31.210373083","category":"182","category_name":"博物馆","address":"徐汇区汾阳路79号(永康路与太原路之间)"},{"poiid":"B2094757D468A4FE439C","title":"埃哇餐厅 汾阳路店 AURA","lon":"121.454274","lat":"31.2113792","category":"94","category_name":"西餐厅","address":"徐汇区汾阳路64弄4号(近复兴中路)"},{"poiid":"B2094752D269A5FA4293","title":"半岛小厨","lon":"121.457703","lat":"31.212662","category":"247","category_name":"餐饮美食","address":"徐汇区复兴中路1251号2楼(襄阳南路口)"},{"poiid":"B2094757DA6FA3FE439F","title":"恋恋仙草(永康店)","lon":"121.457996","lat":"31.2109670000002","category":"113","category_name":"冷饮店","address":"徐汇区永康路70号(襄阳南路口)"},{"poiid":"B2094757D065A3F94398","title":"茜茜莉亚音乐咖啡","lon":"121.4542747","lat":"31.211379","category":"65","category_name":"咖啡厅","address":"徐汇区汾阳路64弄2号(近复兴中路)"},{"poiid":"B2094757D06EAAFD4392","title":"磨咕咖啡馆 mogoo cafe","lon":"121.454309054","lat":"31.211203793","category":"260","category_name":"其他","address":"徐汇区汾阳路77号(近音乐学院)"},{"poiid":"B2094655D265A7FF429F","title":"上海音乐学院(南门)","lon":"121.45434","lat":"31.21193","category":"52","category_name":"高等院校","address":"复兴中路1330"},{"poiid":"B2094757D468A4FE499B","title":"阿斯曼","lon":"121.456708054","lat":"31.212441793","category":"84","category_name":"西北菜","address":"复兴中路1251号近襄阳南路"},{"poiid":"B2094751D465A3F5449A","title":"hoF","lon":"121.455483","lat":"31.211434","category":"249","category_name":"购物服务","address":"思南路淮海中路"},{"poiid":"B2094752D668A4FD489A","title":"查餐厅","lon":"121.455439","lat":"31.211717","category":"247","category_name":"餐饮美食","address":"思南路"},{"poiid":"B2094757D068A5FA489A","title":"位育初级中学","lon":"121.45677509","lat":"31.211933819","category":"55","category_name":"中学","address":"徐汇区复兴中路1261号(近襄阳南路)"},{"poiid":"B2094757D06FA7FA4998","title":"Memo bar & restaurant","lon":"121.4543","lat":"31.21143","category":"94","category_name":"西餐厅","address":"嘉善路259弄旁嘉善老市内（建国西路和永嘉路之间）"},{"poiid":"B2094757D16AA1FA469F","title":"永康里","lon":"121.45614","lat":"31.20967","category":"76","category_name":"上海菜","address":"徐汇区永康路(近襄阳路)"},{"poiid":"B2094757D568A0F4459D","title":"汾阳花园酒店","lon":"121.45546767","lat":"31.21291558","category":"214","category_name":"四星级宾馆","address":"上海徐汇区汾阳路45号(近复兴中路)"},{"poiid":"B2094654DA6DA6FD459F","title":"花子","lon":"121.45753735595","lat":"31.211939687057","category":"95","category_name":"日本料理","address":"徐汇区襄阳南路207-3号(近复兴中路)"},{"poiid":"B2094757D16CA3F84298","title":"汾阳路","lon":"121.456418738","lat":"31.2133589406","category":"260","category_name":"其他","address":"上海汾阳路"},{"poiid":"B2094757DA65A6FC4299","title":"1933老場坊","lon":"121.457631","lat":"31.21133","category":"248","category_name":"生活娱乐","address":"上海市虹口區漂陽路611號1933老場坊"},{"poiid":"B2094757D764A5F4449F","title":"IT'S COFFEE","lon":"121.458087","lat":"31.21099","category":"260","category_name":"其他","address":"徐汇区永康路64号(近复兴中路)"},{"poiid":"B2094757D068AAFA4999","title":"猫咖啡 Cat cafe bliss","lon":"121.45400997","lat":"31.209424931","category":"260","category_name":"其他","address":"徐汇区太原路8弄1号2楼(近汾阳路)"},{"poiid":"B2094757D16BABF8469A","title":"El Gato Verde","lon":"121.454563586","lat":"31.2111980588","category":"94","category_name":"西餐厅","address":"徐汇区汾阳路74号(近复兴中路)"},{"poiid":"B2094757D769A4F8479B","title":"奥芙莉 襄阳南路店 Awfully Chocolate","lon":"121.456886054","lat":"31.212959793","category":"67","category_name":"甜品店","address":"徐汇区襄阳南路174号(近复兴中路)"},{"poiid":"B2094655D265A7FB4798","title":"悟茶茶馆","lon":"121.45489","lat":"31.21179","category":"66","category_name":"茶艺馆","address":"复兴中路1315-2临"},{"poiid":"B2094654DA6DA6F84298","title":"上海工艺美术博物馆多功能厅","lon":"121.4546","lat":"31.21037","category":"182","category_name":"博物馆","address":"汾阳路79"},{"poiid":"B2094654DA6DA6F84199","title":"安盛商务楼","lon":"121.4543","lat":"31.21079","category":"46","category_name":"楼宇","address":"汾阳路77号"},{"poiid":"B2094752D36EAAFA489B","title":"阿娘面馆","lon":"121.455424","lat":"31.211701","category":"247","category_name":"餐饮美食","address":"司南路36号"},{"poiid":"B2094757DB6CA3FC4699","title":"上海汾阳花园酒店","lon":"121.455148","lat":"31.212659","category":"213","category_name":"五星级宾馆","address":"上海市徐汇区汾阳路45号(近复兴中路)"},{"poiid":"B2094654DB6BA5FB4093","title":"巴比馒头 汾阳路店 Babi Food","lon":"121.454144054","lat":"31.211533793","category":"68","category_name":"快餐厅","address":"徐汇区汾阳路57号(近复兴路)"},{"poiid":"B2094654DA6DA6FF4599","title":"天平街道桃源村小区","lon":"121.45625","lat":"31.21143","category":"47","category_name":"住宅区","address":"复兴中路1295弄1-75号"},{"poiid":"B209475CD46AA5FD4599","title":"么么甜品","lon":"121.456237","lat":"31.212278","category":"247","category_name":"餐饮美食","address":"上海市 复兴中路1277号"},{"poiid":"B2094753D66FABFD469E","title":"梦苑咖啡影吧","lon":"121.457076","lat":"31.211774","category":"65","category_name":"咖啡厅","address":"徐汇区襄阳南路222号"},{"poiid":"B2094654DA6DA6FF459E","title":"桃源村卫生服务站","lon":"121.45626","lat":"31.21143","category":"162","category_name":"医院","address":"复兴中路1295弄13号"},{"poiid":"B2094757D068A1F84792","title":"现代电子城","lon":"121.45725822","lat":"31.212201762","category":"249","category_name":"购物服务","address":"徐汇区襄阳南路218号(近复兴中路)"},{"poiid":"B2094654DA6DA4F4499C","title":"杰天阁随意小吃","lon":"121.4542","lat":"31.21141","category":"76","category_name":"上海菜","address":"徐汇区汾阳路64弄1号"},{"poiid":"B2094757D064A4F94199","title":"永康路38弄","lon":"121.45685573","lat":"31.210449478","category":"46","category_name":"楼宇","address":"上海徐汇区永康路38弄"},{"poiid":"B2094757D568AAFE4892","title":"上海音乐学院餐厅","lon":"121.4545131","lat":"31.21272194","category":"68","category_name":"快餐厅","address":"徐汇区汾阳路20号上海音乐学院内(近复兴中路)"},{"poiid":"B2094654DA6DA6FF459F","title":"玛莎","lon":"121.45577","lat":"31.21206","category":"141","category_name":"服装鞋帽皮具店","address":"复兴中路1303"},{"poiid":"B2094655D26BA2FA439C","title":"太原路永嘉路","lon":"121.45407","lat":"31.20982","category":"38","category_name":"公交车站","address":""},{"poiid":"B2094757D16AA3FA409B","title":"台北永康","lon":"121.45818773","lat":"31.210877887","category":"500","category_name":"未知分类","address":"上海永康路66号"},{"poiid":"B2094654DB6BA4FD4592","title":"上海音乐学院","lon":"121.45487","lat":"31.21309","category":"671","category_name":"高校中心点","address":"徐汇区汾阳路20号(近复兴中路)"},{"poiid":"B2094654DB65A5F8479D","title":"贺绿汀音乐厅","lon":"121.45461","lat":"31.21331","category":"179","category_name":"音乐厅","address":"徐汇区汾阳路20号上海音乐学院内(近淮海中路)"},{"poiid":"B2094757D068A1F8429A","title":"熠盛粤味","lon":"121.457178","lat":"31.210503","category":"72","category_name":"广东菜","address":"徐汇区永康路132号(近襄阳南路)"},{"poiid":"B2094753D76FAAFA449C","title":"上海滩国泰旗舰店","lon":"121.466011","lat":"31.216125","category":"249","category_name":"购物服务","address":"淮海中路868号"},{"poiid":"B209475CD564A7F84292","title":"上海滩新天地店","lon":"121.47463","lat":"31.22164","category":"119","category_name":"商场","address":"\"太仓路181弄新天地北里15号\r\n\""},{"poiid":"B209475CD564A7F8439E","title":"上海滩中信泰富店","lon":"121.45602","lat":"31.22851","category":"119","category_name":"商场","address":"\"南京西路1168号中信泰富广场，店铺号221.\r\n\""},{"poiid":"B2094757D06FA5FE4898","title":"老地方面馆","lon":"121.45791","lat":"31.21153","category":"68","category_name":"快餐厅","address":"徐汇区襄阳南路233号(近永康路)"},{"poiid":"B2094757D16AAAFD459A","title":"上海汾陽花園酒店","lon":"121.455160738","lat":"31.212530923","category":"217","category_name":"旅馆招待所","address":"上海汾陽45號"},{"poiid":"B2094757D06EAAFA429F","title":"It's Café (Espresso Club)","lon":"121.458087","lat":"31.21099","category":"65","category_name":"咖啡厅","address":"上海徐汇区永康路64号"},{"poiid":"B2094757D069A3F54799","title":"El Patio","lon":"121.45368458","lat":"31.210532045","category":"94","category_name":"西餐厅","address":"徐汇区汾阳路110号(近太原路)"},{"poiid":"B2094654DA6DA6F8439A","title":"上海市第二中学","lon":"121.45536","lat":"31.21034","category":"55","category_name":"中学","address":"徐汇区永康路200号(近太原路)"},{"poiid":"B2094757D068A6F8449D","title":"邮电医院南部","lon":"121.45559842","lat":"31.211518436","category":"162","category_name":"医院","address":"徐汇区复兴中路1315号(近汾阳路)"},{"poiid":"B2094757D06AA3FB4292","title":"上海工艺美术博物馆","lon":"121.45460284","lat":"31.210373083","category":"182","category_name":"博物馆","address":"徐汇区汾阳路79号(永康路与太原路之间)"},{"poiid":"B2094757D468A4FE439C","title":"埃哇餐厅 汾阳路店 AURA","lon":"121.454274","lat":"31.2113792","category":"94","category_name":"西餐厅","address":"徐汇区汾阳路64弄4号(近复兴中路)"},{"poiid":"B2094752D269A5FA4293","title":"半岛小厨","lon":"121.457703","lat":"31.212662","category":"247","category_name":"餐饮美食","address":"徐汇区复兴中路1251号2楼(襄阳南路口)"},{"poiid":"B2094757DA6FA3FE439F","title":"恋恋仙草(永康店)","lon":"121.457996","lat":"31.2109670000002","category":"113","category_name":"冷饮店","address":"徐汇区永康路70号(襄阳南路口)"},{"poiid":"B2094757D065A3F94398","title":"茜茜莉亚音乐咖啡","lon":"121.4542747","lat":"31.211379","category":"65","category_name":"咖啡厅","address":"徐汇区汾阳路64弄2号(近复兴中路)"},{"poiid":"B2094757D06EAAFD4392","title":"磨咕咖啡馆 mogoo cafe","lon":"121.454309054","lat":"31.211203793","category":"260","category_name":"其他","address":"徐汇区汾阳路77号(近音乐学院)"},{"poiid":"B2094655D265A7FF429F","title":"上海音乐学院(南门)","lon":"121.45434","lat":"31.21193","category":"52","category_name":"高等院校","address":"复兴中路1330"},{"poiid":"B2094757D468A4FE499B","title":"阿斯曼","lon":"121.456708054","lat":"31.212441793","category":"84","category_name":"西北菜","address":"复兴中路1251号近襄阳南路"},{"poiid":"B2094751D465A3F5449A","title":"hoF","lon":"121.455483","lat":"31.211434","category":"249","category_name":"购物服务","address":"思南路淮海中路"},{"poiid":"B2094752D668A4FD489A","title":"查餐厅","lon":"121.455439","lat":"31.211717","category":"247","category_name":"餐饮美食","address":"思南路"},{"poiid":"B2094757D068A5FA489A","title":"位育初级中学","lon":"121.45677509","lat":"31.211933819","category":"55","category_name":"中学","address":"徐汇区复兴中路1261号(近襄阳南路)"},{"poiid":"B2094757D06FA7FA4998","title":"Memo bar & restaurant","lon":"121.4543","lat":"31.21143","category":"94","category_name":"西餐厅","address":"嘉善路259弄旁嘉善老市内（建国西路和永嘉路之间）"},{"poiid":"B2094757D16AA1FA469F","title":"永康里","lon":"121.45614","lat":"31.20967","category":"76","category_name":"上海菜","address":"徐汇区永康路(近襄阳路)"},{"poiid":"B2094757D568A0F4459D","title":"汾阳花园酒店","lon":"121.45546767","lat":"31.21291558","category":"214","category_name":"四星级宾馆","address":"上海徐汇区汾阳路45号(近复兴中路)"},{"poiid":"B2094654DA6DA6FD459F","title":"花子","lon":"121.45753735595","lat":"31.211939687057","category":"95","category_name":"日本料理","address":"徐汇区襄阳南路207-3号(近复兴中路)"},{"poiid":"B2094757D16CA3F84298","title":"汾阳路","lon":"121.456418738","lat":"31.2133589406","category":"260","category_name":"其他","address":"上海汾阳路"},{"poiid":"B2094757DA65A6FC4299","title":"1933老場坊","lon":"121.457631","lat":"31.21133","category":"248","category_name":"生活娱乐","address":"上海市虹口區漂陽路611號1933老場坊"},{"poiid":"B2094757D764A5F4449F","title":"IT'S COFFEE","lon":"121.458087","lat":"31.21099","category":"260","category_name":"其他","address":"徐汇区永康路64号(近复兴中路)"},{"poiid":"B2094757D068AAFA4999","title":"猫咖啡 Cat cafe bliss","lon":"121.45400997","lat":"31.209424931","category":"260","category_name":"其他","address":"徐汇区太原路8弄1号2楼(近汾阳路)"},{"poiid":"B2094757D16BABF8469A","title":"El Gato Verde","lon":"121.454563586","lat":"31.2111980588","category":"94","category_name":"西餐厅","address":"徐汇区汾阳路74号(近复兴中路)"},{"poiid":"B2094757D769A4F8479B","title":"奥芙莉 襄阳南路店 Awfully Chocolate","lon":"121.456886054","lat":"31.212959793","category":"67","category_name":"甜品店","address":"徐汇区襄阳南路174号(近复兴中路)"},{"poiid":"B2094655D265A7FB4798","title":"悟茶茶馆","lon":"121.45489","lat":"31.21179","category":"66","category_name":"茶艺馆","address":"复兴中路1315-2临"},{"poiid":"B2094654DA6DA6F84298","title":"上海工艺美术博物馆多功能厅","lon":"121.4546","lat":"31.21037","category":"182","category_name":"博物馆","address":"汾阳路79"},{"poiid":"B2094654DA6DA6F84199","title":"安盛商务楼","lon":"121.4543","lat":"31.21079","category":"46","category_name":"楼宇","address":"汾阳路77号"},{"poiid":"B2094752D36EAAFA489B","title":"阿娘面馆","lon":"121.455424","lat":"31.211701","category":"247","category_name":"餐饮美食","address":"司南路36号"},{"poiid":"B2094757DB6CA3FC4699","title":"上海汾阳花园酒店","lon":"121.455148","lat":"31.212659","category":"213","category_name":"五星级宾馆","address":"上海市徐汇区汾阳路45号(近复兴中路)"},{"poiid":"B2094654DB6BA5FB4093","title":"巴比馒头 汾阳路店 Babi Food","lon":"121.454144054","lat":"31.211533793","category":"68","category_name":"快餐厅","address":"徐汇区汾阳路57号(近复兴路)"},{"poiid":"B2094654DA6DA6FF4599","title":"天平街道桃源村小区","lon":"121.45625","lat":"31.21143","category":"47","category_name":"住宅区","address":"复兴中路1295弄1-75号"},{"poiid":"B209475CD46AA5FD4599","title":"么么甜品","lon":"121.456237","lat":"31.212278","category":"247","category_name":"餐饮美食","address":"上海市 复兴中路1277号"},{"poiid":"B2094753D66FABFD469E","title":"梦苑咖啡影吧","lon":"121.457076","lat":"31.211774","category":"65","category_name":"咖啡厅","address":"徐汇区襄阳南路222号"},{"poiid":"B2094654DA6DA6FF459E","title":"桃源村卫生服务站","lon":"121.45626","lat":"31.21143","category":"162","category_name":"医院","address":"复兴中路1295弄13号"},{"poiid":"B2094757D068A1F84792","title":"现代电子城","lon":"121.45725822","lat":"31.212201762","category":"249","category_name":"购物服务","address":"徐汇区襄阳南路218号(近复兴中路)"},{"poiid":"B2094654DA6DA4F4499C","title":"杰天阁随意小吃","lon":"121.4542","lat":"31.21141","category":"76","category_name":"上海菜","address":"徐汇区汾阳路64弄1号"},{"poiid":"B2094757D064A4F94199","title":"永康路38弄","lon":"121.45685573","lat":"31.210449478","category":"46","category_name":"楼宇","address":"上海徐汇区永康路38弄"},{"poiid":"B2094757D568AAFE4892","title":"上海音乐学院餐厅","lon":"121.4545131","lat":"31.21272194","category":"68","category_name":"快餐厅","address":"徐汇区汾阳路20号上海音乐学院内(近复兴中路)"},{"poiid":"B2094654DA6DA6FF459F","title":"玛莎","lon":"121.45577","lat":"31.21206","category":"141","category_name":"服装鞋帽皮具店","address":"复兴中路1303"},{"poiid":"B2094655D26BA2FA439C","title":"太原路永嘉路","lon":"121.45407","lat":"31.20982","category":"38","category_name":"公交车站","address":""},{"poiid":"B2094757D16AA3FA409B","title":"台北永康","lon":"121.45818773","lat":"31.210877887","category":"500","category_name":"未知分类","address":"上海永康路66号"}]