[{"poiid":"B2094757D06FABFC409B","title":"张杨路民生路","lon":"121.544163704","lat":"31.2360301375","category":"500","category_name":"未知分类","address":"上海市浦东新区张杨路民生路"},{"poiid":"B2094757D06FA1FF439E","title":"民生路地铁站","lon":"121.542912661","lat":"31.2356123472","category":"36","category_name":"地铁站","address":"上海轨道交通 六号线 轨交民生路站 6"},{"poiid":"B2094654DA69ABF5489C","title":"嘉瑞酒店","lon":"121.542","lat":"31.2346","category":"214","category_name":"四星级宾馆","address":"浦东新区潍坊路328号(潍坊路源深路)"},{"poiid":"B2094654DA69A2FA469F","title":"进才中学北校","lon":"121.54643","lat":"31.23424","category":"55","category_name":"中学","address":"羽山路601号"},{"poiid":"B2094757D06FABFF429A","title":"山水国际(陆家嘴美丽苑)","lon":"121.542354","lat":"31.233936","category":"500","category_name":"未知分类","address":"上海羽山路383弄"},{"poiid":"B2094757D069A6FF499B","title":"苗圃路张扬路","lon":"121.550906","lat":"31.237402","category":"500","category_name":"未知分类","address":"上海苗圃路张扬路"},{"poiid":"B2094757D16FA3FE489F","title":"张杨路巨野路","lon":"121.54704473","lat":"31.236199427","category":"500","category_name":"未知分类","address":"上海市民生路"},{"poiid":"B2094757D06AA1FF419E","title":"中星海上景庭","lon":"121.54897","lat":"31.238739","category":"47","category_name":"住宅区","address":"上海市浦东新区杨高中路1708弄"},{"poiid":"B2094752D66BA1FD4999","title":"世纪大道地铁站","lon":"121.548349","lat":"31.234841","category":"36","category_name":"地铁站","address":"东方路世纪大道"},{"poiid":"B2094750D26AA4FD499B","title":"国金中心","lon":"121.547012","lat":"31.234117","category":"500","category_name":"未知分类","address":null},{"poiid":"B2094757D16FA6F8459C","title":"一品粥坊","lon":"121.54344","lat":"31.23776","category":"72","category_name":"广东菜","address":"浦东新区民生路(近沈家弄路)"},{"poiid":"B2094654DA69A2F4449E","title":"第5大道东方中华园","lon":"121.54735","lat":"31.23353","category":"47","category_name":"住宅区","address":"羽山路600弄1-33号"},{"poiid":"B2094757D068A3FE459C","title":"招商銀行民生支行","lon":"121.54723358","lat":"31.237001419","category":"150","category_name":"银行","address":"上海市浦东新区民生路600号"},{"poiid":"B2094654DA69A2FA489B","title":"乔家栅 巨野店","lon":"121.548596054","lat":"31.237229793","category":"68","category_name":"快餐厅","address":"浦东新区巨野路469号(张杨路口)"},{"poiid":"B2094750D768A4FA4799","title":"达美乐比萨(张杨路店)","lon":"121.544","lat":"31.2356","category":"94","category_name":"西餐厅","address":"浦东新区张杨路1632号(近民生路)"},{"poiid":"B2094757D16BA3F9459A","title":"风向标张杨路店","lon":"121.546076038","lat":"31.2353173085","category":"500","category_name":"未知分类","address":"浦东新区张杨路1608号(近民生路)"},{"poiid":"B2094654DB6BAAFC449D","title":"海苑大厦","lon":"121.54575","lat":"31.235352","category":"47","category_name":"住宅区","address":"张杨路1662弄8-9号"},{"poiid":"B2094655D26BA0FC4198","title":"上海交通大学医学院附属仁济医院北院","lon":"121.55102","lat":"31.23343","category":"162","category_name":"医院","address":"浦东新区灵山路(巨野路口)"},{"poiid":"B2094757D16EA1FA439B","title":"民生路羽山路","lon":"121.548331","lat":"31.234406","category":"500","category_name":"未知分类","address":"上海民生路羽山路"},{"poiid":"B2094757D065A7FB489B","title":"羽北小区","lon":"121.54767673","lat":"31.237448453","category":"252","category_name":"楼宇机构","address":"上海市浦东新区巨野路"},{"poiid":"B2094757D065A7F4499B","title":"上海地铁六号线民生控制中心","lon":"121.546379738","lat":"31.2343373876","category":"500","category_name":"未知分类","address":"上海浦东羽山路民生路"},{"poiid":"B2094750D56CA5FC4298","title":"淮海路无限度广场","lon":"121.546142","lat":"31.235282","category":"500","category_name":"未知分类","address":null},{"poiid":"B2094753DB6AAAF8459A","title":"源深体育中心地铁站","lon":"121.545013","lat":"31.236406","category":"36","category_name":"地铁站","address":"上海市 源深路张扬路"},{"poiid":"B2094655D36CA0FC419B","title":"巨野路羽山路","lon":"121.54896","lat":"31.23563","category":"38","category_name":"公交车站","address":""},{"poiid":"B2094654DA69A2FA4898","title":"龙威名邸","lon":"121.54856","lat":"31.237009","category":"47","category_name":"住宅区","address":"上海市浦东新区巨野路455弄1-2号"},{"poiid":"B2094654DA69A2FA479C","title":"上海市浦东新区第二中心小学","lon":"121.55004","lat":"31.23579","category":"56","category_name":"小学","address":"浦东新区巨野路517号(近张杨路)"},{"poiid":"B2094757D568A0FB439C","title":"泾南一街坊","lon":"121.5461956","lat":"31.23672833","category":"47","category_name":"住宅区","address":"泾南一街坊位于浦东张杨路1698弄"},{"poiid":"B2094753D26EA3FB459F","title":"新白鹿","lon":"121.547653","lat":"31.235489","category":"249","category_name":"购物服务","address":"上海市 南京东路东方商厦9楼"},{"poiid":"B2094654DB6BABF44393","title":"锦江之星(民生路店)","lon":"121.54267","lat":"31.23818","category":"216","category_name":"经济型连锁酒店","address":"浦东新区民生路606号(近沈家弄路)"},{"poiid":"B2094757D065A7FA4293","title":"东方有线浦东分公司","lon":"121.548495","lat":"31.237051","category":"500","category_name":"未知分类","address":"上海张杨路1800号"},{"poiid":"B2094757D069A6FB4093","title":"7-ELEVEN(羽山店)","lon":"121.545643598","lat":"31.2330598165","category":"117","category_name":"便民商店/便利店","address":"浦东新区羽山路422号(近民生路)"},{"poiid":"B2094654DA68AAFC4798","title":"永琪美容美发张杨二店","lon":"121.54429","lat":"31.23651","category":"148","category_name":"美容美发店","address":""},{"poiid":"B2094757D16BA7FF4992","title":"上海银行洋泾支行","lon":"121.54636173","lat":"31.23588542","category":"150","category_name":"银行","address":"上海沈家弄路1101号"},{"poiid":"B2094655D26DA5FC439C","title":"快客No.5131","lon":"121.54638","lat":"31.23711","category":"117","category_name":"便民商店/便利店","address":""},{"poiid":"B2094655D36CA0FC4192","title":"巨野路","lon":"121.54901","lat":"31.23762","category":"38","category_name":"公交车站","address":""},{"poiid":"B2094752D668A5FD419A","title":"上海海洋水族馆","lon":"121.546154","lat":"31.236673","category":"249","category_name":"购物服务","address":null},{"poiid":"B2094757D16CA7F8469A","title":"火火麻辣烫","lon":"121.5439","lat":"31.23605","category":"68","category_name":"快餐厅","address":"浦东新区民生路(张杨路口)"},{"poiid":"B2094654DB6BABF4479D","title":"添盛居","lon":"121.54727","lat":"31.23744","category":"66","category_name":"茶艺馆","address":"浦东新区张杨路1731号(近巨野路)"},{"poiid":"B2094757D16CABFC469C","title":"烹然心动创意厨艺坊(民生路店)","lon":"121.54457","lat":"31.23627","category":"67","category_name":"甜品店","address":"浦东新区民生路666A(张杨路口)"},{"poiid":"B2094757D064A7F5439C","title":"民生路","lon":"121.54518141","lat":"31.231733962","category":"500","category_name":"未知分类","address":"上海民生路"},{"poiid":"B2094654DA68AAFC4892","title":"中星张杨苑","lon":"121.54574","lat":"31.23703","category":"47","category_name":"住宅区","address":"沈家弄路877弄"},{"poiid":"B2094752D164ABFA459D","title":"东方医院","lon":"121.544907","lat":"31.23381","category":"162","category_name":"医院","address":null},{"poiid":"B2094757D66EA5FD429D","title":"世纪皇冠假日酒店泳池池畔露台","lon":"121.54578","lat":"31.23316","category":"217","category_name":"旅馆招待所","address":"浦东新区民生路1433号世纪皇冠假日酒店6楼(民生路羽山路)"},{"poiid":"B2094757D165A7FF479C","title":"易初莲花","lon":"121.551837738","lat":"31.2341403834","category":"249","category_name":"购物服务","address":"上海市浦东新区杨高中路"},{"poiid":"B2094757D664A1FC4793","title":"重庆鸡公煲民生店","lon":"121.54551","lat":"31.23343","category":"71","category_name":"四川菜","address":"浦东新区民生路(近张杨路)"},{"poiid":"B2094655D26AA0FA4398","title":"地铁民生路站","lon":"121.54288","lat":"31.23564","category":"36","category_name":"地铁站","address":""},{"poiid":"B2094654DA69A2FA489A","title":"巨东小区","lon":"121.54988","lat":"31.236679","category":"47","category_name":"住宅区","address":"上海巨野路469弄"},{"poiid":"B2094757D66CA3F84793","title":"上海卓力雪佛兰","lon":"121.54716973","lat":"31.237080446","category":"500","category_name":"未知分类","address":"上海市浦东新区民生路"},{"poiid":"B2094757D165A2F5469D","title":"Nuonuo Bakery","lon":"121.55002973","lat":"31.235213406","category":"112","category_name":"糕饼店","address":"浦东新区羽山路670号(近巨野路)"},{"poiid":"B2094757D569A7FE4198","title":"大桶大足浴(巨野路)","lon":"121.54959825","lat":"31.23412679","category":"149","category_name":"洗浴推拿场所","address":"巨野路640"},{"poiid":"B2094757D06FABFC409B","title":"张杨路民生路","lon":"121.544163704","lat":"31.2360301375","category":"500","category_name":"未知分类","address":"上海市浦东新区张杨路民生路"},{"poiid":"B2094757D06FA1FF439E","title":"民生路地铁站","lon":"121.542912661","lat":"31.2356123472","category":"36","category_name":"地铁站","address":"上海轨道交通 六号线 轨交民生路站 6"},{"poiid":"B2094654DA69ABF5489C","title":"嘉瑞酒店","lon":"121.542","lat":"31.2346","category":"214","category_name":"四星级宾馆","address":"浦东新区潍坊路328号(潍坊路源深路)"},{"poiid":"B2094654DA69A2FA469F","title":"进才中学北校","lon":"121.54643","lat":"31.23424","category":"55","category_name":"中学","address":"羽山路601号"},{"poiid":"B2094757D06FABFF429A","title":"山水国际(陆家嘴美丽苑)","lon":"121.542354","lat":"31.233936","category":"500","category_name":"未知分类","address":"上海羽山路383弄"},{"poiid":"B2094757D069A6FF499B","title":"苗圃路张扬路","lon":"121.550906","lat":"31.237402","category":"500","category_name":"未知分类","address":"上海苗圃路张扬路"},{"poiid":"B2094757D16FA3FE489F","title":"张杨路巨野路","lon":"121.54704473","lat":"31.236199427","category":"500","category_name":"未知分类","address":"上海市民生路"},{"poiid":"B2094757D06AA1FF419E","title":"中星海上景庭","lon":"121.54897","lat":"31.238739","category":"47","category_name":"住宅区","address":"上海市浦东新区杨高中路1708弄"},{"poiid":"B2094752D66BA1FD4999","title":"世纪大道地铁站","lon":"121.548349","lat":"31.234841","category":"36","category_name":"地铁站","address":"东方路世纪大道"},{"poiid":"B2094750D26AA4FD499B","title":"国金中心","lon":"121.547012","lat":"31.234117","category":"500","category_name":"未知分类","address":null},{"poiid":"B2094757D16FA6F8459C","title":"一品粥坊","lon":"121.54344","lat":"31.23776","category":"72","category_name":"广东菜","address":"浦东新区民生路(近沈家弄路)"},{"poiid":"B2094654DA69A2F4449E","title":"第5大道东方中华园","lon":"121.54735","lat":"31.23353","category":"47","category_name":"住宅区","address":"羽山路600弄1-33号"},{"poiid":"B2094757D068A3FE459C","title":"招商銀行民生支行","lon":"121.54723358","lat":"31.237001419","category":"150","category_name":"银行","address":"上海市浦东新区民生路600号"},{"poiid":"B2094654DA69A2FA489B","title":"乔家栅 巨野店","lon":"121.548596054","lat":"31.237229793","category":"68","category_name":"快餐厅","address":"浦东新区巨野路469号(张杨路口)"},{"poiid":"B2094750D768A4FA4799","title":"达美乐比萨(张杨路店)","lon":"121.544","lat":"31.2356","category":"94","category_name":"西餐厅","address":"浦东新区张杨路1632号(近民生路)"},{"poiid":"B2094757D16BA3F9459A","title":"风向标张杨路店","lon":"121.546076038","lat":"31.2353173085","category":"500","category_name":"未知分类","address":"浦东新区张杨路1608号(近民生路)"},{"poiid":"B2094654DB6BAAFC449D","title":"海苑大厦","lon":"121.54575","lat":"31.235352","category":"47","category_name":"住宅区","address":"张杨路1662弄8-9号"},{"poiid":"B2094655D26BA0FC4198","title":"上海交通大学医学院附属仁济医院北院","lon":"121.55102","lat":"31.23343","category":"162","category_name":"医院","address":"浦东新区灵山路(巨野路口)"},{"poiid":"B2094757D16EA1FA439B","title":"民生路羽山路","lon":"121.548331","lat":"31.234406","category":"500","category_name":"未知分类","address":"上海民生路羽山路"},{"poiid":"B2094757D065A7FB489B","title":"羽北小区","lon":"121.54767673","lat":"31.237448453","category":"252","category_name":"楼宇机构","address":"上海市浦东新区巨野路"},{"poiid":"B2094757D065A7F4499B","title":"上海地铁六号线民生控制中心","lon":"121.546379738","lat":"31.2343373876","category":"500","category_name":"未知分类","address":"上海浦东羽山路民生路"},{"poiid":"B2094750D56CA5FC4298","title":"淮海路无限度广场","lon":"121.546142","lat":"31.235282","category":"500","category_name":"未知分类","address":null},{"poiid":"B2094753DB6AAAF8459A","title":"源深体育中心地铁站","lon":"121.545013","lat":"31.236406","category":"36","category_name":"地铁站","address":"上海市 源深路张扬路"},{"poiid":"B2094655D36CA0FC419B","title":"巨野路羽山路","lon":"121.54896","lat":"31.23563","category":"38","category_name":"公交车站","address":""},{"poiid":"B2094654DA69A2FA4898","title":"龙威名邸","lon":"121.54856","lat":"31.237009","category":"47","category_name":"住宅区","address":"上海市浦东新区巨野路455弄1-2号"},{"poiid":"B2094654DA69A2FA479C","title":"上海市浦东新区第二中心小学","lon":"121.55004","lat":"31.23579","category":"56","category_name":"小学","address":"浦东新区巨野路517号(近张杨路)"},{"poiid":"B2094757D568A0FB439C","title":"泾南一街坊","lon":"121.5461956","lat":"31.23672833","category":"47","category_name":"住宅区","address":"泾南一街坊位于浦东张杨路1698弄"},{"poiid":"B2094753D26EA3FB459F","title":"新白鹿","lon":"121.547653","lat":"31.235489","category":"249","category_name":"购物服务","address":"上海市 南京东路东方商厦9楼"},{"poiid":"B2094654DB6BABF44393","title":"锦江之星(民生路店)","lon":"121.54267","lat":"31.23818","category":"216","category_name":"经济型连锁酒店","address":"浦东新区民生路606号(近沈家弄路)"},{"poiid":"B2094757D065A7FA4293","title":"东方有线浦东分公司","lon":"121.548495","lat":"31.237051","category":"500","category_name":"未知分类","address":"上海张杨路1800号"},{"poiid":"B2094757D069A6FB4093","title":"7-ELEVEN(羽山店)","lon":"121.545643598","lat":"31.2330598165","category":"117","category_name":"便民商店/便利店","address":"浦东新区羽山路422号(近民生路)"},{"poiid":"B2094654DA68AAFC4798","title":"永琪美容美发张杨二店","lon":"121.54429","lat":"31.23651","category":"148","category_name":"美容美发店","address":""},{"poiid":"B2094757D16BA7FF4992","title":"上海银行洋泾支行","lon":"121.54636173","lat":"31.23588542","category":"150","category_name":"银行","address":"上海沈家弄路1101号"},{"poiid":"B2094655D26DA5FC439C","title":"快客No.5131","lon":"121.54638","lat":"31.23711","category":"117","category_name":"便民商店/便利店","address":""},{"poiid":"B2094655D36CA0FC4192","title":"巨野路","lon":"121.54901","lat":"31.23762","category":"38","category_name":"公交车站","address":""},{"poiid":"B2094752D668A5FD419A","title":"上海海洋水族馆","lon":"121.546154","lat":"31.236673","category":"249","category_name":"购物服务","address":null},{"poiid":"B2094757D16CA7F8469A","title":"火火麻辣烫","lon":"121.5439","lat":"31.23605","category":"68","category_name":"快餐厅","address":"浦东新区民生路(张杨路口)"},{"poiid":"B2094654DB6BABF4479D","title":"添盛居","lon":"121.54727","lat":"31.23744","category":"66","category_name":"茶艺馆","address":"浦东新区张杨路1731号(近巨野路)"},{"poiid":"B2094757D16CABFC469C","title":"烹然心动创意厨艺坊(民生路店)","lon":"121.54457","lat":"31.23627","category":"67","category_name":"甜品店","address":"浦东新区民生路666A(张杨路口)"},{"poiid":"B2094757D064A7F5439C","title":"民生路","lon":"121.54518141","lat":"31.231733962","category":"500","category_name":"未知分类","address":"上海民生路"},{"poiid":"B2094654DA68AAFC4892","title":"中星张杨苑","lon":"121.54574","lat":"31.23703","category":"47","category_name":"住宅区","address":"沈家弄路877弄"},{"poiid":"B2094752D164ABFA459D","title":"东方医院","lon":"121.544907","lat":"31.23381","category":"162","category_name":"医院","address":null},{"poiid":"B2094757D66EA5FD429D","title":"世纪皇冠假日酒店泳池池畔露台","lon":"121.54578","lat":"31.23316","category":"217","category_name":"旅馆招待所","address":"浦东新区民生路1433号世纪皇冠假日酒店6楼(民生路羽山路)"},{"poiid":"B2094757D165A7FF479C","title":"易初莲花","lon":"121.551837738","lat":"31.2341403834","category":"249","category_name":"购物服务","address":"上海市浦东新区杨高中路"},{"poiid":"B2094757D664A1FC4793","title":"重庆鸡公煲民生店","lon":"121.54551","lat":"31.23343","category":"71","category_name":"四川菜","address":"浦东新区民生路(近张杨路)"},{"poiid":"B2094655D26AA0FA4398","title":"地铁民生路站","lon":"121.54288","lat":"31.23564","category":"36","category_name":"地铁站","address":""},{"poiid":"B2094654DA69A2FA489A","title":"巨东小区","lon":"121.54988","lat":"31.236679","category":"47","category_name":"住宅区","address":"上海巨野路469弄"},{"poiid":"B2094757D66CA3F84793","title":"上海卓力雪佛兰","lon":"121.54716973","lat":"31.237080446","category":"500","category_name":"未知分类","address":"上海市浦东新区民生路"},{"poiid":"B2094757D165A2F5469D","title":"Nuonuo Bakery","lon":"121.55002973","lat":"31.235213406","category":"112","category_name":"糕饼店","address":"浦东新区羽山路670号(近巨野路)"},{"poiid":"B2094757D569A7FE4198","title":"大桶大足浴(巨野路)","lon":"121.54959825","lat":"31.23412679","category":"149","category_name":"洗浴推拿场所","address":"巨野路640"},{"poiid":"B2094757D06FABFC409B","title":"张杨路民生路","lon":"121.544163704","lat":"31.2360301375","category":"500","category_name":"未知分类","address":"上海市浦东新区张杨路民生路"},{"poiid":"B2094757D06FA1FF439E","title":"民生路地铁站","lon":"121.542912661","lat":"31.2356123472","category":"36","category_name":"地铁站","address":"上海轨道交通 六号线 轨交民生路站 6"},{"poiid":"B2094654DA69ABF5489C","title":"嘉瑞酒店","lon":"121.542","lat":"31.2346","category":"214","category_name":"四星级宾馆","address":"浦东新区潍坊路328号(潍坊路源深路)"},{"poiid":"B2094654DA69A2FA469F","title":"进才中学北校","lon":"121.54643","lat":"31.23424","category":"55","category_name":"中学","address":"羽山路601号"},{"poiid":"B2094757D06FABFF429A","title":"山水国际(陆家嘴美丽苑)","lon":"121.542354","lat":"31.233936","category":"500","category_name":"未知分类","address":"上海羽山路383弄"},{"poiid":"B2094757D069A6FF499B","title":"苗圃路张扬路","lon":"121.550906","lat":"31.237402","category":"500","category_name":"未知分类","address":"上海苗圃路张扬路"},{"poiid":"B2094757D16FA3FE489F","title":"张杨路巨野路","lon":"121.54704473","lat":"31.236199427","category":"500","category_name":"未知分类","address":"上海市民生路"},{"poiid":"B2094757D06AA1FF419E","title":"中星海上景庭","lon":"121.54897","lat":"31.238739","category":"47","category_name":"住宅区","address":"上海市浦东新区杨高中路1708弄"},{"poiid":"B2094752D66BA1FD4999","title":"世纪大道地铁站","lon":"121.548349","lat":"31.234841","category":"36","category_name":"地铁站","address":"东方路世纪大道"},{"poiid":"B2094750D26AA4FD499B","title":"国金中心","lon":"121.547012","lat":"31.234117","category":"500","category_name":"未知分类","address":null},{"poiid":"B2094757D16FA6F8459C","title":"一品粥坊","lon":"121.54344","lat":"31.23776","category":"72","category_name":"广东菜","address":"浦东新区民生路(近沈家弄路)"},{"poiid":"B2094654DA69A2F4449E","title":"第5大道东方中华园","lon":"121.54735","lat":"31.23353","category":"47","category_name":"住宅区","address":"羽山路600弄1-33号"},{"poiid":"B2094757D068A3FE459C","title":"招商銀行民生支行","lon":"121.54723358","lat":"31.237001419","category":"150","category_name":"银行","address":"上海市浦东新区民生路600号"},{"poiid":"B2094654DA69A2FA489B","title":"乔家栅 巨野店","lon":"121.548596054","lat":"31.237229793","category":"68","category_name":"快餐厅","address":"浦东新区巨野路469号(张杨路口)"},{"poiid":"B2094750D768A4FA4799","title":"达美乐比萨(张杨路店)","lon":"121.544","lat":"31.2356","category":"94","category_name":"西餐厅","address":"浦东新区张杨路1632号(近民生路)"},{"poiid":"B2094757D16BA3F9459A","title":"风向标张杨路店","lon":"121.546076038","lat":"31.2353173085","category":"500","category_name":"未知分类","address":"浦东新区张杨路1608号(近民生路)"},{"poiid":"B2094654DB6BAAFC449D","title":"海苑大厦","lon":"121.54575","lat":"31.235352","category":"47","category_name":"住宅区","address":"张杨路1662弄8-9号"},{"poiid":"B2094655D26BA0FC4198","title":"上海交通大学医学院附属仁济医院北院","lon":"121.55102","lat":"31.23343","category":"162","category_name":"医院","address":"浦东新区灵山路(巨野路口)"},{"poiid":"B2094757D16EA1FA439B","title":"民生路羽山路","lon":"121.548331","lat":"31.234406","category":"500","category_name":"未知分类","address":"上海民生路羽山路"},{"poiid":"B2094757D065A7FB489B","title":"羽北小区","lon":"121.54767673","lat":"31.237448453","category":"252","category_name":"楼宇机构","address":"上海市浦东新区巨野路"},{"poiid":"B2094757D065A7F4499B","title":"上海地铁六号线民生控制中心","lon":"121.546379738","lat":"31.2343373876","category":"500","category_name":"未知分类","address":"上海浦东羽山路民生路"},{"poiid":"B2094750D56CA5FC4298","title":"淮海路无限度广场","lon":"121.546142","lat":"31.235282","category":"500","category_name":"未知分类","address":null},{"poiid":"B2094753DB6AAAF8459A","title":"源深体育中心地铁站","lon":"121.545013","lat":"31.236406","category":"36","category_name":"地铁站","address":"上海市 源深路张扬路"},{"poiid":"B2094655D36CA0FC419B","title":"巨野路羽山路","lon":"121.54896","lat":"31.23563","category":"38","category_name":"公交车站","address":""},{"poiid":"B2094654DA69A2FA4898","title":"龙威名邸","lon":"121.54856","lat":"31.237009","category":"47","category_name":"住宅区","address":"上海市浦东新区巨野路455弄1-2号"},{"poiid":"B2094654DA69A2FA479C","title":"上海市浦东新区第二中心小学","lon":"121.55004","lat":"31.23579","category":"56","category_name":"小学","address":"浦东新区巨野路517号(近张杨路)"},{"poiid":"B2094757D568A0FB439C","title":"泾南一街坊","lon":"121.5461956","lat":"31.23672833","category":"47","category_name":"住宅区","address":"泾南一街坊位于浦东张杨路1698弄"},{"poiid":"B2094753D26EA3FB459F","title":"新白鹿","lon":"121.547653","lat":"31.235489","category":"249","category_name":"购物服务","address":"上海市 南京东路东方商厦9楼"},{"poiid":"B2094654DB6BABF44393","title":"锦江之星(民生路店)","lon":"121.54267","lat":"31.23818","category":"216","category_name":"经济型连锁酒店","address":"浦东新区民生路606号(近沈家弄路)"},{"poiid":"B2094757D065A7FA4293","title":"东方有线浦东分公司","lon":"121.548495","lat":"31.237051","category":"500","category_name":"未知分类","address":"上海张杨路1800号"},{"poiid":"B2094757D069A6FB4093","title":"7-ELEVEN(羽山店)","lon":"121.545643598","lat":"31.2330598165","category":"117","category_name":"便民商店/便利店","address":"浦东新区羽山路422号(近民生路)"},{"poiid":"B2094654DA68AAFC4798","title":"永琪美容美发张杨二店","lon":"121.54429","lat":"31.23651","category":"148","category_name":"美容美发店","address":""},{"poiid":"B2094757D16BA7FF4992","title":"上海银行洋泾支行","lon":"121.54636173","lat":"31.23588542","category":"150","category_name":"银行","address":"上海沈家弄路1101号"},{"poiid":"B2094655D26DA5FC439C","title":"快客No.5131","lon":"121.54638","lat":"31.23711","category":"117","category_name":"便民商店/便利店","address":""},{"poiid":"B2094655D36CA0FC4192","title":"巨野路","lon":"121.54901","lat":"31.23762","category":"38","category_name":"公交车站","address":""},{"poiid":"B2094752D668A5FD419A","title":"上海海洋水族馆","lon":"121.546154","lat":"31.236673","category":"249","category_name":"购物服务","address":null},{"poiid":"B2094757D16CA7F8469A","title":"火火麻辣烫","lon":"121.5439","lat":"31.23605","category":"68","category_name":"快餐厅","address":"浦东新区民生路(张杨路口)"},{"poiid":"B2094654DB6BABF4479D","title":"添盛居","lon":"121.54727","lat":"31.23744","category":"66","category_name":"茶艺馆","address":"浦东新区张杨路1731号(近巨野路)"},{"poiid":"B2094757D16CABFC469C","title":"烹然心动创意厨艺坊(民生路店)","lon":"121.54457","lat":"31.23627","category":"67","category_name":"甜品店","address":"浦东新区民生路666A(张杨路口)"},{"poiid":"B2094757D064A7F5439C","title":"民生路","lon":"121.54518141","lat":"31.231733962","category":"500","category_name":"未知分类","address":"上海民生路"},{"poiid":"B2094654DA68AAFC4892","title":"中星张杨苑","lon":"121.54574","lat":"31.23703","category":"47","category_name":"住宅区","address":"沈家弄路877弄"},{"poiid":"B2094752D164ABFA459D","title":"东方医院","lon":"121.544907","lat":"31.23381","category":"162","category_name":"医院","address":null},{"poiid":"B2094757D66EA5FD429D","title":"世纪皇冠假日酒店泳池池畔露台","lon":"121.54578","lat":"31.23316","category":"217","category_name":"旅馆招待所","address":"浦东新区民生路1433号世纪皇冠假日酒店6楼(民生路羽山路)"},{"poiid":"B2094757D165A7FF479C","title":"易初莲花","lon":"121.551837738","lat":"31.2341403834","category":"249","category_name":"购物服务","address":"上海市浦东新区杨高中路"},{"poiid":"B2094757D664A1FC4793","title":"重庆鸡公煲民生店","lon":"121.54551","lat":"31.23343","category":"71","category_name":"四川菜","address":"浦东新区民生路(近张杨路)"},{"poiid":"B2094655D26AA0FA4398","title":"地铁民生路站","lon":"121.54288","lat":"31.23564","category":"36","category_name":"地铁站","address":""},{"poiid":"B2094654DA69A2FA489A","title":"巨东小区","lon":"121.54988","lat":"31.236679","category":"47","category_name":"住宅区","address":"上海巨野路469弄"},{"poiid":"B2094757D66CA3F84793","title":"上海卓力雪佛兰","lon":"121.54716973","lat":"31.237080446","category":"500","category_name":"未知分类","address":"上海市浦东新区民生路"},{"poiid":"B2094757D165A2F5469D","title":"Nuonuo Bakery","lon":"121.55002973","lat":"31.235213406","category":"112","category_name":"糕饼店","address":"浦东新区羽山路670号(近巨野路)"},{"poiid":"B2094757D569A7FE4198","title":"大桶大足浴(巨野路)","lon":"121.54959825","lat":"31.23412679","category":"149","category_name":"洗浴推拿场所","address":"巨野路640"},{"poiid":"B2094757D06FABFC409B","title":"张杨路民生路","lon":"121.544163704","lat":"31.2360301375","category":"500","category_name":"未知分类","address":"上海市浦东新区张杨路民生路"},{"poiid":"B2094757D06FA1FF439E","title":"民生路地铁站","lon":"121.542912661","lat":"31.2356123472","category":"36","category_name":"地铁站","address":"上海轨道交通 六号线 轨交民生路站 6"},{"poiid":"B2094654DA69ABF5489C","title":"嘉瑞酒店","lon":"121.542","lat":"31.2346","category":"214","category_name":"四星级宾馆","address":"浦东新区潍坊路328号(潍坊路源深路)"},{"poiid":"B2094654DA69A2FA469F","title":"进才中学北校","lon":"121.54643","lat":"31.23424","category":"55","category_name":"中学","address":"羽山路601号"},{"poiid":"B2094757D06FABFF429A","title":"山水国际(陆家嘴美丽苑)","lon":"121.542354","lat":"31.233936","category":"500","category_name":"未知分类","address":"上海羽山路383弄"},{"poiid":"B2094757D069A6FF499B","title":"苗圃路张扬路","lon":"121.550906","lat":"31.237402","category":"500","category_name":"未知分类","address":"上海苗圃路张扬路"},{"poiid":"B2094757D16FA3FE489F","title":"张杨路巨野路","lon":"121.54704473","lat":"31.236199427","category":"500","category_name":"未知分类","address":"上海市民生路"},{"poiid":"B2094757D06AA1FF419E","title":"中星海上景庭","lon":"121.54897","lat":"31.238739","category":"47","category_name":"住宅区","address":"上海市浦东新区杨高中路1708弄"},{"poiid":"B2094752D66BA1FD4999","title":"世纪大道地铁站","lon":"121.548349","lat":"31.234841","category":"36","category_name":"地铁站","address":"东方路世纪大道"},{"poiid":"B2094750D26AA4FD499B","title":"国金中心","lon":"121.547012","lat":"31.234117","category":"500","category_name":"未知分类","address":null},{"poiid":"B2094757D16FA6F8459C","title":"一品粥坊","lon":"121.54344","lat":"31.23776","category":"72","category_name":"广东菜","address":"浦东新区民生路(近沈家弄路)"},{"poiid":"B2094654DA69A2F4449E","title":"第5大道东方中华园","lon":"121.54735","lat":"31.23353","category":"47","category_name":"住宅区","address":"羽山路600弄1-33号"},{"poiid":"B2094757D068A3FE459C","title":"招商銀行民生支行","lon":"121.54723358","lat":"31.237001419","category":"150","category_name":"银行","address":"上海市浦东新区民生路600号"},{"poiid":"B2094654DA69A2FA489B","title":"乔家栅 巨野店","lon":"121.548596054","lat":"31.237229793","category":"68","category_name":"快餐厅","address":"浦东新区巨野路469号(张杨路口)"},{"poiid":"B2094750D768A4FA4799","title":"达美乐比萨(张杨路店)","lon":"121.544","lat":"31.2356","category":"94","category_name":"西餐厅","address":"浦东新区张杨路1632号(近民生路)"},{"poiid":"B2094757D16BA3F9459A","title":"风向标张杨路店","lon":"121.546076038","lat":"31.2353173085","category":"500","category_name":"未知分类","address":"浦东新区张杨路1608号(近民生路)"},{"poiid":"B2094654DB6BAAFC449D","title":"海苑大厦","lon":"121.54575","lat":"31.235352","category":"47","category_name":"住宅区","address":"张杨路1662弄8-9号"},{"poiid":"B2094655D26BA0FC4198","title":"上海交通大学医学院附属仁济医院北院","lon":"121.55102","lat":"31.23343","category":"162","category_name":"医院","address":"浦东新区灵山路(巨野路口)"},{"poiid":"B2094757D16EA1FA439B","title":"民生路羽山路","lon":"121.548331","lat":"31.234406","category":"500","category_name":"未知分类","address":"上海民生路羽山路"},{"poiid":"B2094757D065A7FB489B","title":"羽北小区","lon":"121.54767673","lat":"31.237448453","category":"252","category_name":"楼宇机构","address":"上海市浦东新区巨野路"},{"poiid":"B2094757D065A7F4499B","title":"上海地铁六号线民生控制中心","lon":"121.546379738","lat":"31.2343373876","category":"500","category_name":"未知分类","address":"上海浦东羽山路民生路"},{"poiid":"B2094750D56CA5FC4298","title":"淮海路无限度广场","lon":"121.546142","lat":"31.235282","category":"500","category_name":"未知分类","address":null},{"poiid":"B2094753DB6AAAF8459A","title":"源深体育中心地铁站","lon":"121.545013","lat":"31.236406","category":"36","category_name":"地铁站","address":"上海市 源深路张扬路"},{"poiid":"B2094655D36CA0FC419B","title":"巨野路羽山路","lon":"121.54896","lat":"31.23563","category":"38","category_name":"公交车站","address":""},{"poiid":"B2094654DA69A2FA4898","title":"龙威名邸","lon":"121.54856","lat":"31.237009","category":"47","category_name":"住宅区","address":"上海市浦东新区巨野路455弄1-2号"},{"poiid":"B2094654DA69A2FA479C","title":"上海市浦东新区第二中心小学","lon":"121.55004","lat":"31.23579","category":"56","category_name":"小学","address":"浦东新区巨野路517号(近张杨路)"},{"poiid":"B2094757D568A0FB439C","title":"泾南一街坊","lon":"121.5461956","lat":"31.23672833","category":"47","category_name":"住宅区","address":"泾南一街坊位于浦东张杨路1698弄"},{"poiid":"B2094753D26EA3FB459F","title":"新白鹿","lon":"121.547653","lat":"31.235489","category":"249","category_name":"购物服务","address":"上海市 南京东路东方商厦9楼"},{"poiid":"B2094654DB6BABF44393","title":"锦江之星(民生路店)","lon":"121.54267","lat":"31.23818","category":"216","category_name":"经济型连锁酒店","address":"浦东新区民生路606号(近沈家弄路)"},{"poiid":"B2094757D065A7FA4293","title":"东方有线浦东分公司","lon":"121.548495","lat":"31.237051","category":"500","category_name":"未知分类","address":"上海张杨路1800号"},{"poiid":"B2094757D069A6FB4093","title":"7-ELEVEN(羽山店)","lon":"121.545643598","lat":"31.2330598165","category":"117","category_name":"便民商店/便利店","address":"浦东新区羽山路422号(近民生路)"},{"poiid":"B2094654DA68AAFC4798","title":"永琪美容美发张杨二店","lon":"121.54429","lat":"31.23651","category":"148","category_name":"美容美发店","address":""},{"poiid":"B2094757D16BA7FF4992","title":"上海银行洋泾支行","lon":"121.54636173","lat":"31.23588542","category":"150","category_name":"银行","address":"上海沈家弄路1101号"},{"poiid":"B2094655D26DA5FC439C","title":"快客No.5131","lon":"121.54638","lat":"31.23711","category":"117","category_name":"便民商店/便利店","address":""},{"poiid":"B2094655D36CA0FC4192","title":"巨野路","lon":"121.54901","lat":"31.23762","category":"38","category_name":"公交车站","address":""},{"poiid":"B2094752D668A5FD419A","title":"上海海洋水族馆","lon":"121.546154","lat":"31.236673","category":"249","category_name":"购物服务","address":null},{"poiid":"B2094757D16CA7F8469A","title":"火火麻辣烫","lon":"121.5439","lat":"31.23605","category":"68","category_name":"快餐厅","address":"浦东新区民生路(张杨路口)"},{"poiid":"B2094654DB6BABF4479D","title":"添盛居","lon":"121.54727","lat":"31.23744","category":"66","category_name":"茶艺馆","address":"浦东新区张杨路1731号(近巨野路)"},{"poiid":"B2094757D16CABFC469C","title":"烹然心动创意厨艺坊(民生路店)","lon":"121.54457","lat":"31.23627","category":"67","category_name":"甜品店","address":"浦东新区民生路666A(张杨路口)"},{"poiid":"B2094757D064A7F5439C","title":"民生路","lon":"121.54518141","lat":"31.231733962","category":"500","category_name":"未知分类","address":"上海民生路"},{"poiid":"B2094654DA68AAFC4892","title":"中星张杨苑","lon":"121.54574","lat":"31.23703","category":"47","category_name":"住宅区","address":"沈家弄路877弄"},{"poiid":"B2094752D164ABFA459D","title":"东方医院","lon":"121.544907","lat":"31.23381","category":"162","category_name":"医院","address":null},{"poiid":"B2094757D66EA5FD429D","title":"世纪皇冠假日酒店泳池池畔露台","lon":"121.54578","lat":"31.23316","category":"217","category_name":"旅馆招待所","address":"浦东新区民生路1433号世纪皇冠假日酒店6楼(民生路羽山路)"},{"poiid":"B2094757D165A7FF479C","title":"易初莲花","lon":"121.551837738","lat":"31.2341403834","category":"249","category_name":"购物服务","address":"上海市浦东新区杨高中路"},{"poiid":"B2094757D664A1FC4793","title":"重庆鸡公煲民生店","lon":"121.54551","lat":"31.23343","category":"71","category_name":"四川菜","address":"浦东新区民生路(近张杨路)"},{"poiid":"B2094655D26AA0FA4398","title":"地铁民生路站","lon":"121.54288","lat":"31.23564","category":"36","category_name":"地铁站","address":""},{"poiid":"B2094654DA69A2FA489A","title":"巨东小区","lon":"121.54988","lat":"31.236679","category":"47","category_name":"住宅区","address":"上海巨野路469弄"},{"poiid":"B2094757D66CA3F84793","title":"上海卓力雪佛兰","lon":"121.54716973","lat":"31.237080446","category":"500","category_name":"未知分类","address":"上海市浦东新区民生路"},{"poiid":"B2094757D165A2F5469D","title":"Nuonuo Bakery","lon":"121.55002973","lat":"31.235213406","category":"112","category_name":"糕饼店","address":"浦东新区羽山路670号(近巨野路)"},{"poiid":"B2094757D569A7FE4198","title":"大桶大足浴(巨野路)","lon":"121.54959825","lat":"31.23412679","category":"149","category_name":"洗浴推拿场所","address":"巨野路640"}]