[{"poiid":"B2094757D06FA2FA429B","title":"上海国际时尚中心","lon":"121.55726862","lat":"31.270837313","category":"260","category_name":"其他","address":"杨浦区杨树浦路2866号(近内江路)"},{"poiid":"B2094750D76CA3FC4492","title":"金钱豹(杨树浦路店)","lon":"121.557","lat":"31.2714","category":"87","category_name":"特色／地方风味餐厅","address":"杨树浦路2866号(近内江路6月开业)"},{"poiid":"B2094654D56FA7F44298","title":"上海市杨浦区中心医院","lon":"121.55075","lat":"31.27167","category":"162","category_name":"医院","address":"杨浦区腾越路450号(海州路腾越路)"},{"poiid":"B2094752D36BA0F8479F","title":"星巴克(杨树浦路店)","lon":"121.557357","lat":"31.271385","category":"247","category_name":"餐饮美食","address":"杨浦区杨树浦路2866号(近内江路)"},{"poiid":"B2094757D068ABFD409B","title":"上海双拥大厦","lon":"121.564009619","lat":"31.26092478","category":"46","category_name":"楼宇","address":"浦东新区浦东大道2601号(近居家桥路)"},{"poiid":"B2094757D06BA5FE4799","title":"定海桥轮渡站","lon":"121.56264308","lat":"31.272182024","category":"500","category_name":"未知分类","address":"上海共青路4号"},{"poiid":"B2094757D06FA5FD439C","title":"定海路","lon":"121.553181","lat":"31.27667","category":"500","category_name":"未知分类","address":"上海定海路"},{"poiid":"B2094750DB6DA0F5409A","title":"米瑟 MIXER","lon":"121.557283","lat":"31.271839","category":"67","category_name":"甜品店","address":"杨浦区杨树浦路2866号国际时尚中心(近内江路)"},{"poiid":"B2094751DA6AAAF54099","title":"星巴克时尚中心店","lon":"121.558759","lat":"31.271","category":"247","category_name":"餐饮美食","address":null},{"poiid":"B2094655D36DA0F9429A","title":"杨树浦路内江路","lon":"121.55652","lat":"31.2711","category":"38","category_name":"公交车站","address":""},{"poiid":"B2094757D16DABF94099","title":"定海桥","lon":"121.56081333","lat":"31.271165283","category":"500","category_name":"未知分类","address":"上海杨浦区定海路"},{"poiid":"B2094757D16BA6FC429E","title":"上海国家保密局","lon":"121.55471453","lat":"31.269237939","category":"247","category_name":"餐饮美食","address":"上海凉州路381号"},{"poiid":"B2094654DB6BA2F84393","title":"上海市杨浦区中心医院门诊","lon":"121.54994","lat":"31.27151","category":"162","category_name":"医院","address":"腾越路450号"},{"poiid":"B2094757D06AA5FD459A","title":"杨浦区中心医院急诊室","lon":"121.549722203","lat":"31.2726692692","category":"902","category_name":"楼宇机构","address":null},{"poiid":"B2094750D26FA5FC499D","title":"阁楼足球会所","lon":"121.554924","lat":"31.271301","category":"248","category_name":"生活娱乐","address":"杨浦区贵阳路38号(近杨树浦路)"},{"poiid":"B2094752D26DA6FF4599","title":"珍得巧克力剧院","lon":"121.55661","lat":"31.2713","category":"67","category_name":"甜品店","address":"杨浦区杨树浦路2866号上海国际时尚中心内(近内江路)"},{"poiid":"B2094757D06FA2FE449A","title":"军工路隧道","lon":"121.564936863","lat":"31.2710545852","category":"260","category_name":"其他","address":"上海市杨浦区军工路-浦东新区金桥路"},{"poiid":"B2094757D66DAAF4409F","title":"同濟大學附屬楊浦中心醫院","lon":"121.554519339","lat":"31.2694552445","category":"500","category_name":"未知分类","address":"上海楊浦區隆昌路"},{"poiid":"B2094757D164A7FB459F","title":"杨树浦路隆昌路","lon":"121.553443903","lat":"31.2691503957","category":"47","category_name":"住宅区","address":"上海杨树浦路2569弄"},{"poiid":"B2094750D56AA0FC479C","title":"东外滩1号","lon":"121.554301","lat":"31.273948","category":"47","category_name":"住宅区","address":"杨浦区内江路16弄(近杨树浦路)"},{"poiid":"B2094753D26EA6F44699","title":"金星舞蹈团","lon":"121.559699","lat":"31.271037","category":"500","category_name":"未知分类","address":"上海市 杨浦区杨树浦路2866号"},{"poiid":"B2094750DB6DA1FC4293","title":"杨浦 奥特莱斯","lon":"121.55368","lat":"31.272339","category":"249","category_name":"购物服务","address":"杨树浦路"},{"poiid":"B2094757D068A7FC439B","title":"源泰食品加工生产园区","lon":"121.557941789","lat":"31.270738764","category":"500","category_name":"未知分类","address":"上海波阳路290号"},{"poiid":"B2094655D26BA5FF499A","title":"裕康里(东南门)","lon":"121.5562","lat":"31.27108","category":"47","category_name":"住宅区","address":""},{"poiid":"B2094654D56FA6FC449A","title":"上海第十七棉纺织总厂","lon":"121.55752","lat":"31.27144","category":"263","category_name":"公司","address":"杨树浦路2866"},{"poiid":"B2094655D26BAAFC489A","title":"香樟苑(西南门)","lon":"121.557","lat":"31.2717","category":"47","category_name":"住宅区","address":""},{"poiid":"B2094655D264AAFC459E","title":"裕康里","lon":"121.55602","lat":"31.27126","category":"47","category_name":"住宅区","address":""},{"poiid":"B2094655D26BA4FF439F","title":"香樟苑","lon":"121.55647","lat":"31.27227","category":"47","category_name":"住宅区","address":""},{"poiid":"B2094655D268ABFE409F","title":"杨浦定海开业园区","lon":"121.55811","lat":"31.27267","category":"47","category_name":"住宅区","address":"杨浦区杨树浦路2893"},{"poiid":"B2094757D16CA0F44193","title":"东外滩一号","lon":"121.5498301","lat":"31.271440443","category":"500","category_name":"未知分类","address":"上海市杨浦区内江路(近杨树浦路)"},{"poiid":"B2094751DA65A4F5479E","title":"星巴克","lon":"121.556102","lat":"31.274213","category":"247","category_name":"餐饮美食","address":"杨树浦路店"},{"poiid":"B2094655D26FA6F5429E","title":"金茂花园","lon":"121.558914","lat":"31.259183","category":"47","category_name":"住宅区","address":"浦东上海市浦东大道2515"},{"poiid":"B2094655D26CA3FC459F","title":"上海五州轴承座厂","lon":"121.55537","lat":"31.27069","category":"263","category_name":"公司","address":"贵阳路30弄2号"},{"poiid":"B2094654D568A2F4459C","title":"可的(复兴岛大酒店南)","lon":"121.56236","lat":"31.27213","category":"117","category_name":"便民商店/便利店","address":""},{"poiid":"B2094757D16BAAFC489D","title":"老公家","lon":"121.55514533","lat":"31.270516268","category":"500","category_name":"未知分类","address":"海洲路105弄"},{"poiid":"B2094655D26FA7F8439C","title":"阳光园(西南门)","lon":"121.55809","lat":"31.27313","category":"47","category_name":"住宅区","address":"定海路150"},{"poiid":"B2094757D068A6F8459D","title":"金桥轮渡站","lon":"121.56765957","lat":"31.269204681","category":"251","category_name":"出行住宿","address":"上海金桥路1号"},{"poiid":"B2094654D568A3F94198","title":"阳光园","lon":"121.55811","lat":"31.27329","category":"47","category_name":"住宅区","address":"定海路150"},{"poiid":"B2094655D26DABFE479C","title":"定海路170弄小区","lon":"121.55779","lat":"31.27389","category":"47","category_name":"住宅区","address":"定海路170弄"},{"poiid":"B2094757D065A3F5499B","title":"黄浦江游轮","lon":"121.55846688","lat":"31.26314064","category":"247","category_name":"餐饮美食","address":"上海黄浦江上"},{"poiid":"B2094655D36CA1FF459D","title":"隆昌路杨树浦路","lon":"121.55057","lat":"31.26848","category":"38","category_name":"公交车站","address":""},{"poiid":"B2094757D069A6F9479E","title":"靛卧阁","lon":"121.5535736","lat":"31.272186279","category":"46","category_name":"楼宇","address":"上海靛苑深处"},{"poiid":"B2094757D068A4FE4692","title":"平凉路第四小学","lon":"121.557","lat":"31.27798","category":"56","category_name":"小学","address":"杨浦区平凉路2767弄5号(近军工路)"},{"poiid":"B2094654D568A3F8499A","title":"好德便利No.725","lon":"121.55956","lat":"31.27422","category":"117","category_name":"便民商店/便利店","address":"杨树浦路3075"},{"poiid":"B2094655D26CA6F8429C","title":"定海路170弄小区(西南门)","lon":"121.55743","lat":"31.27363","category":"47","category_name":"住宅区","address":"定海路170弄"},{"poiid":"B2094654D568A3F8499D","title":"杨树浦路3061弄住宅小区(东门)","lon":"121.55948","lat":"31.27404","category":"47","category_name":"住宅区","address":"杨树浦路3061弄"},{"poiid":"B2094757D66DA2FA449B","title":"广汽丰田永达长荣店","lon":"121.554068","lat":"31.267660364","category":"500","category_name":"未知分类","address":"上海市浦东新区御桥路1458号"},{"poiid":"B2094654D56FA7F4429D","title":"波阳公园","lon":"121.55166","lat":"31.27222","category":"196","category_name":"公园","address":"杨浦区波阳路200号(近贵阳路)"},{"poiid":"B2094654D568A2FB4792","title":"中国石油化工股份有限公司上海润滑油销售分公司","lon":"121.55895","lat":"31.273","category":"263","category_name":"公司","address":"杨树浦路3024"},{"poiid":"B2094757D069A5F84192","title":"新亚大包 腾越路店","lon":"121.549597054","lat":"31.271465793","category":"68","category_name":"快餐厅","address":"杨浦区腾越路467号(波阳路腾越路)"},{"poiid":"B2094757D66EA3F9499D","title":"腾越路兰州拉面","lon":"121.55096","lat":"31.27041","category":"68","category_name":"快餐厅","address":"杨浦区腾越路(近海州路)"},{"poiid":"B2094757D66CABFD409F","title":"维络城嘉茂七宝购物广场体验站","lon":"121.56043613","lat":"31.273314433","category":"500","category_name":"未知分类","address":"上海闵行区七莘路3655号嘉茂七宝购物广场正门入口右侧"},{"poiid":"B2094757D069A6F44493","title":"海州路105弄小区","lon":"121.55370315599","lat":"31.273427940307","category":"47","category_name":"住宅区","address":"上海海州路105弄"},{"poiid":"B2094757D569A1F8409A","title":"协亨德平店","lon":"121.5607169","lat":"31.26431889","category":"138","category_name":"家电电子卖场","address":"浦东大道2384-2386号"},{"poiid":"B2094655D26BA7FB4292","title":"杨浦143街坊国际滨江城","lon":"121.55522","lat":"31.27384","category":"47","category_name":"住宅区","address":"内江路18号"},{"poiid":"B2094654D56FA7F44799","title":"上海市辛灵中学","lon":"121.55094","lat":"31.26942","category":"55","category_name":"中学","address":"海州路268"},{"poiid":"B2094654D568A3F8499B","title":"上海龙头股份有限公司运动场","lon":"121.55901","lat":"31.27471","category":"224","category_name":"综合体育馆","address":""},{"poiid":"B2094654D56FA6FC4699","title":"天天唱吧No.03","lon":"121.5541","lat":"31.27341","category":"170","category_name":"KTV","address":""},{"poiid":"B2094757D065A6FE449E","title":"黎平路杨树浦路龙头股份足球训练场","lon":"121.558913339","lat":"31.274695365","category":"148","category_name":"美容美发店","address":"上海黎平路杨树浦路"},{"poiid":"B2094655D26CA5F9439D","title":"大德里小区","lon":"121.55157891683","lat":"31.269477004249","category":"47","category_name":"住宅区","address":"宜山北路9弄"},{"poiid":"B2094757D16EA7F5409B","title":"富同商务大厦","lon":"121.55266373","lat":"31.267519794","category":"252","category_name":"楼宇机构","address":"上海杨树浦路2300号"},{"poiid":"B2094750D26CA6FF4598","title":"浦东新区人民法院","lon":"121.556554","lat":"31.263903","category":"608","category_name":"法院","address":null},{"poiid":"B2094757D16CA2FE4793","title":"黎平路杨树浦路","lon":"121.55920333","lat":"31.275318379","category":"500","category_name":"未知分类","address":"上海黎平路杨树浦路"},{"poiid":"B2094757D66DA3FE439A","title":"定海路170弄","lon":"121.55656369","lat":"31.273962929","category":"500","category_name":"未知分类","address":"上海定海路170弄"},{"poiid":"B2094757D06BA1FD469E","title":"强强熟食店","lon":"121.54965","lat":"31.26891","category":"68","category_name":"快餐厅","address":"杨浦区隆昌路164号(近海州路)"},{"poiid":"B2094654D56FA6FC4099","title":"光明便利No.051","lon":"121.55087","lat":"31.26848","category":"117","category_name":"便民商店/便利店","address":""},{"poiid":"B2094654D568A3F84892","title":"金龙公寓(东门)","lon":"121.55955","lat":"31.2752","category":"47","category_name":"住宅区","address":"黎平路63弄"},{"poiid":"B2094757D66CAAFB4498","title":"波阳路冷库","lon":"121.5524201","lat":"31.270150416","category":"500","category_name":"未知分类","address":"上海市杨浦区平凉路"},{"poiid":"B2094757D165A7FD4593","title":"海州路418弄小区","lon":"121.551634575","lat":"31.2713594555","category":"47","category_name":"住宅区","address":"上海市杨浦区海州路"},{"poiid":"B2094757D068A2FB4098","title":"25路平凉路军工路站","lon":"121.557719756","lat":"31.2785505256","category":"38","category_name":"公交车站","address":"上海杨浦区平凉路军工路"},{"poiid":"B2094757D169A1FF439B","title":"隆昌路东方书报亭","lon":"121.553543091","lat":"31.2721672058","category":"500","category_name":"未知分类","address":"上海隆昌路542弄口（近长阳路）"},{"poiid":"B2094757D16BA2FA489F","title":"贵阳路143弄","lon":"121.552094403","lat":"31.2710232348","category":"500","category_name":"未知分类","address":"上海贵阳路143弄83之弄8号"},{"poiid":"B2094654D56FA7F5499E","title":"隆昌路88弄小区","lon":"121.55026","lat":"31.26895","category":"47","category_name":"住宅区","address":"隆昌路88弄"},{"poiid":"B2094757D16BA2FE4098","title":"上海航天802研究所","lon":"121.55847533","lat":"31.276697411","category":"500","category_name":"未知分类","address":"上海市杨浦区黎平路218号"},{"poiid":"B2094757D465A0FB459D","title":"福根餐厅","lon":"121.549595054","lat":"31.269061793","category":"76","category_name":"上海菜","address":"杨浦区海州路199号(近隆昌路)"},{"poiid":"B2094655D26BA1FC489C","title":"平凉路定海路","lon":"121.55397","lat":"31.27721","category":"38","category_name":"公交车站","address":""},{"poiid":"B2094757D168A4F9449C","title":"村夫烤鱼 重庆鸡公煲","lon":"121.5535023","lat":"31.276778955","category":"71","category_name":"四川菜","address":"杨浦区平凉路2539号(近爱国路)"},{"poiid":"B2094655D265A3FE459D","title":"上海市东辽阳中学","lon":"121.55149","lat":"31.27343","category":"55","category_name":"中学","address":"贵阳路254"},{"poiid":"B2094757D165AAFC489D","title":"汶水路粵秀路車站","lon":"121.5539381","lat":"31.273234481","category":"500","category_name":"未知分类","address":"上海汶水路"},{"poiid":"B2094654DB65A3F94692","title":"白丽大厦","lon":"121.54926","lat":"31.2657","category":"46","category_name":"楼宇","address":"越秀区环市东路362-366号"},{"poiid":"B2094654DB64AAF4429D","title":"上海市贵阳中学","lon":"121.55149","lat":"31.27342","category":"55","category_name":"中学","address":"贵阳路254"},{"poiid":"B2094757D064A2F84999","title":"杨浦区委党校","lon":"121.55581399","lat":"31.277936695","category":"253","category_name":"校园生活","address":"上海杨浦区平凉路2691号"},{"poiid":"B2094654D568A3F8489C","title":"四一八杂货店","lon":"121.55781","lat":"31.27577","category":"117","category_name":"便民商店/便利店","address":"定海港路418"},{"poiid":"B2094654D56FA7F4429E","title":"波阳小吃店","lon":"121.552","lat":"31.26904","category":"68","category_name":"快餐厅","address":"杨浦区腾越路(近杨浦区中心医院)"},{"poiid":"B2094654D56FA7F5499F","title":"隆昌路88弄小区(1号门)","lon":"121.55039","lat":"31.26869","category":"47","category_name":"住宅区","address":""},{"poiid":"B2094655D265A3F9459A","title":"腾越路465弄小区(东北门)","lon":"121.54979","lat":"31.27114","category":"47","category_name":"住宅区","address":"腾越路465弄"},{"poiid":"B2094655D26FA7FE4898","title":"上海市辛灵中学(西门)","lon":"121.55031","lat":"31.26968","category":"678","category_name":"学校大门","address":"海州路268"},{"poiid":"B2094757D064A5F9479C","title":"平凉路第三小学","lon":"121.55118","lat":"31.27461","category":"56","category_name":"小学","address":"杨浦区平凉路2400号(近内江路)"},{"poiid":"B2094655D26FA6FD419C","title":"隆昌路88弄小区(南门)","lon":"121.55026","lat":"31.26876","category":"47","category_name":"住宅区","address":""},{"poiid":"B2094654D568A2F4449F","title":"上海民办存志育海初级中学","lon":"121.56343","lat":"31.27529","category":"55","category_name":"中学","address":"共青路82弄7号"},{"poiid":"B2094655D26EA7FC409B","title":"定海路街道定港居委会图书室","lon":"121.55864","lat":"31.27608","category":"181","category_name":"图书馆","address":"定海港路445"},{"poiid":"B2094655D265A3FE479A","title":"吉馨休闲坊","lon":"121.55122","lat":"31.26828","category":"149","category_name":"洗浴推拿场所","address":"隆昌路16"},{"poiid":"B2094757D069A6F94293","title":"平凉小区","lon":"121.55817","lat":"31.277742","category":"47","category_name":"住宅区","address":"上海市杨浦区平凉路2828弄"},{"poiid":"B2094757D66BABFD4199","title":"阿木龙虾 平凉路店","lon":"121.55141","lat":"31.27513","category":"269","category_name":"烧烤","address":"平凉路555号近许昌路"},{"poiid":"B2094757D16DAAF94892","title":"滨江龙居苑","lon":"121.564821","lat":"31.26251","category":"47","category_name":"住宅区","address":"浦东龙居路2号、浦东大道2448号"},{"poiid":"B2094655D36DA6FF459A","title":"金桥路渡口","lon":"121.568","lat":"31.2691","category":"38","category_name":"公交车站","address":""},{"poiid":"B2094757D66FA2FF4598","title":"馨园家常菜","lon":"121.5529","lat":"31.27632","category":"76","category_name":"上海菜","address":"杨浦区平凉路2537号(近爱国路)"},{"poiid":"B2094757D065A3FE459F","title":"大桥四线","lon":"121.56484922","lat":"31.274729995","category":"38","category_name":"公交车站","address":"上海安图路靖宇东路~五莲路双桥路"},{"poiid":"B2094655D264ABF84293","title":"上海杨浦区海康敬老院","lon":"121.55157","lat":"31.26823","category":"615","category_name":"敬老院","address":"隆昌路8号"},{"poiid":"B2094757D16BA4F5459F","title":"隆昌路海州路燒烤路邊攤","lon":"121.5504731","lat":"31.269131395","category":"500","category_name":"未知分类","address":"上海市杨浦区隆昌路"},{"poiid":"B2094655D26BA7FB479A","title":"居家桥路19弄小区","lon":"121.56058","lat":"31.26158","category":"47","category_name":"住宅区","address":"居家桥路19弄1-10号"},{"poiid":"B2094757D065A0F54893","title":"杨公大酒店","lon":"121.55354309","lat":"31.272167205","category":"260","category_name":"其他","address":"上海平凉路电力学院隔壁"},{"poiid":"B2094655D26CA5FA4593","title":"喜士多","lon":"121.54975","lat":"31.2712","category":"117","category_name":"便民商店/便利店","address":"腾越路467-1"},{"poiid":"B2094654D568A5F5449A","title":"东桥路渡口","lon":"121.56777","lat":"31.26921","category":"34","category_name":"港口码头","address":""},{"poiid":"B2094654DB6BA2F8449A","title":"国泰君安证券股份有限公司(杨树浦路)","lon":"121.55184","lat":"31.26804","category":"219","category_name":"其他","address":"杨树浦路2525号"},{"poiid":"B2094655D265A3F4489A","title":"振声里","lon":"121.54882","lat":"31.26855","category":"47","category_name":"住宅区","address":"海州路165弄"},{"poiid":"B2094655D26CA5FB4999","title":"同华里(东门)","lon":"121.54965","lat":"31.26929","category":"47","category_name":"住宅区","address":"海州路215弄"},{"poiid":"B2094655D26CA6FD4799","title":"光明便利No.021","lon":"121.54945","lat":"31.27139","category":"117","category_name":"便民商店/便利店","address":""},{"poiid":"B2094757D164A5FE4898","title":"凯茗老北京热气涮羊肉","lon":"121.548858203","lat":"31.2700644148","category":"247","category_name":"餐饮美食","address":"上海杨浦区隆昌路219号"},{"poiid":"B2094655D265A3FF4399","title":"居家桥路19弄小区(西门)","lon":"121.56002","lat":"31.26114","category":"47","category_name":"住宅区","address":"居家桥路19弄1-10号"},{"poiid":"B2094757D16FA3FD439A","title":"靛池","lon":"121.550660665","lat":"31.2690094367","category":"148","category_name":"美容美发店","address":"上海靛苑露天处"},{"poiid":"B2094757D069A1F54298","title":"中原地区","lon":"121.54994201","lat":"31.271507263","category":"47","category_name":"住宅区","address":"上海杨浦区中原路"},{"poiid":"B2094654DA69AAF4419D","title":"沪东大楼","lon":"121.56255948272","lat":"31.261019642808","category":"46","category_name":"楼宇","address":"浦东大道810,814"},{"poiid":"B2094655D26EA2FF4998","title":"同华里","lon":"121.54939","lat":"31.26948","category":"47","category_name":"住宅区","address":"海州路215弄"},{"poiid":"B2094655D26BA6FD479E","title":"腾越路465弄小区","lon":"121.54955","lat":"31.27081","category":"47","category_name":"住宅区","address":"腾越路465弄"},{"poiid":"B2094655D26DA6F9469A","title":"博海商务楼","lon":"121.5485","lat":"31.26969","category":"46","category_name":"楼宇","address":"隆昌路208-212"},{"poiid":"B2094654D568A2F4449C","title":"上海航道局职工教育培训中心","lon":"121.56343","lat":"31.27529","category":"190","category_name":"培训机构","address":"共青路82弄7号"},{"poiid":"B2094654D56FA7F44292","title":"波阳公园(北门)","lon":"121.55123","lat":"31.27237","category":"680","category_name":"楼宇机构","address":"波阳路200"},{"poiid":"B2094654D56FA7F4439F","title":"快客No.6562","lon":"121.55056","lat":"31.27369","category":"117","category_name":"便民商店/便利店","address":"贵阳路292"},{"poiid":"B2094750D664A1FE4099","title":"王记老北京挂炉烤鸭(隆昌路店)","lon":"121.549","lat":"31.2694","category":"68","category_name":"快餐厅","address":"杨浦区隆昌路168号(近杭州路)"},{"poiid":"B2094654D568A3FF4592","title":"凯迪牛奶棚(平凉路)","lon":"121.55531","lat":"31.27763","category":"112","category_name":"糕饼店","address":""},{"poiid":"B2094654D56FA6F94092","title":"上海知识产权园","lon":"121.54929","lat":"31.26571","category":"45","category_name":"产业园区","address":"杨树浦路2310号"},{"poiid":"B2094655D26BA1FE4493","title":"内江路平凉路","lon":"121.5513","lat":"31.27587","category":"38","category_name":"公交车站","address":""},{"poiid":"B2094655D26DAAFF4492","title":"大桥花苑","lon":"121.56166","lat":"31.26059","category":"47","category_name":"住宅区","address":"居家桥路151弄11-33号"},{"poiid":"B2094751DA6EAAF4499F","title":"上海浦东嘉里大酒店","lon":"121.553441","lat":"31.262215","category":"500","category_name":"未知分类","address":null},{"poiid":"B2094654D56FA6F9409D","title":"国家专利技术展示交易中心上海展示馆","lon":"121.54929","lat":"31.26572","category":"183","category_name":"展览馆","address":"杨树浦路2310号上海知识产权园"},{"poiid":"B2094654D56FA6FF499E","title":"良友金伴便利连锁No.292","lon":"121.54861","lat":"31.26779","category":"117","category_name":"便民商店/便利店","address":"海州路124"},{"poiid":"B2094757D16BAAF9489F","title":"上海通略阳浦驾校","lon":"121.5504491","lat":"31.267806367","category":"260","category_name":"其他","address":"上海杨浦区隆昌路55号"},{"poiid":"B2094654D56FA7FB439B","title":"上海杨树浦复兴经济开发城二分部","lon":"121.55152","lat":"31.27519","category":"45","category_name":"产业园区","address":"平凉路2440"},{"poiid":"B2094654D568A3F84899","title":"黎平路幼儿园","lon":"121.55844","lat":"31.27749","category":"57","category_name":"幼儿园","address":"杨浦区平凉路2828弄4号"},{"poiid":"B2094654D568A3F8439F","title":"上海延吉经济园区航天新亚都市工业园","lon":"121.55636","lat":"31.2774","category":"45","category_name":"产业园区","address":"平凉路2716"},{"poiid":"B2094757D168A5F4479C","title":"定海路烧烤摊","lon":"121.553839103","lat":"31.2772445648","category":"247","category_name":"餐饮美食","address":"上海平凉路定海路"},{"poiid":"B2094654D56FA7FB469F","title":"光明牛奶平凉冷库","lon":"121.54988","lat":"31.27372","category":"117","category_name":"便民商店/便利店","address":"平凉路2288"},{"poiid":"B2094655D26BA4FF4093","title":"上海双拥工作展览馆","lon":"121.56413","lat":"31.26108","category":"183","category_name":"展览馆","address":"浦东大道2601号"},{"poiid":"B2094757D16AA3FF499F","title":"华源药房连锁(海州店)","lon":"121.54982","lat":"31.26891","category":"255","category_name":"专卖店","address":"杨浦区海州路211号(海州路隆昌路)"},{"poiid":"B2094757D469A0FA409F","title":"来伊份 平凉路店","lon":"121.55141","lat":"31.27513","category":"87","category_name":"特色／地方风味餐厅","address":"杨浦区平凉路1890号全堂鸿1楼"},{"poiid":"B2094654D568A3F84699","title":"上海延吉经济园区航天新亚都市工业园(北门)","lon":"121.55593","lat":"31.27749","category":"45","category_name":"产业园区","address":"平凉路2716"},{"poiid":"B2094654D568A2F4449B","title":"上海港复兴船务公司复兴岛基地","lon":"121.56355","lat":"31.2751","category":"263","category_name":"公司","address":""},{"poiid":"B2094654D568A5F5449D","title":"三郎艺术纹身馆","lon":"121.56861","lat":"31.26868","category":"148","category_name":"美容美发店","address":"金桥路41"},{"poiid":"B2094654D568A3FF4593","title":"白洋淀新村","lon":"121.55521","lat":"31.278118","category":"47","category_name":"住宅区","address":"平凉路2677"},{"poiid":"B2094757D66CA1FD449B","title":"来香缘酒家","lon":"121.555331","lat":"31.27735","category":"247","category_name":"餐饮美食","address":"上海杨浦区平凉路2684号"},{"poiid":"B2094654D568A2F4489D","title":"中华造船厂","lon":"121.56265","lat":"31.27717","category":"263","category_name":"公司","address":"共青路130"},{"poiid":"B2094757D66DAAFF479E","title":"华源大药房(平凉路店)","lon":"121.55616","lat":"31.27748","category":"162","category_name":"医院","address":"上海杨浦区平凉路2707号(近通北路)  "},{"poiid":"B2094655D26CA6F8409D","title":"好德No.837","lon":"121.5529","lat":"31.27684","category":"117","category_name":"便民商店/便利店","address":"平凉路2553"},{"poiid":"B2094655D26CA5F84499","title":"上房玺丰苑","lon":"121.56236","lat":"31.26025","category":"47","category_name":"住宅区","address":"浦东大道2567弄1-24号"},{"poiid":"B2094654DB6BA2F4419F","title":"光明便利No.204","lon":"121.55495","lat":"31.27752","category":"117","category_name":"便民商店/便利店","address":"平凉路2663"},{"poiid":"B2094655D264A1F84899","title":"湘府飨菜","lon":"121.55502","lat":"31.27742","category":"77","category_name":"湖南菜","address":"杨浦区平凉路340号(临青路平凉路)"},{"poiid":"B2094655D26CA6FC459F","title":"好德No.728","lon":"121.5568","lat":"31.27799","category":"117","category_name":"便民商店/便利店","address":"平凉路2761"},{"poiid":"B2094757D064A0FE4898","title":"coco奶茶(博山东路)","lon":"121.562695256","lat":"31.2605817739","category":"247","category_name":"餐饮美食","address":"上海博山东路博达百货"},{"poiid":"B2094654D568A3FF449A","title":"快客No.6956","lon":"121.5567","lat":"31.27796","category":"117","category_name":"便民商店/便利店","address":"平凉路2753"},{"poiid":"B2094757D068A4F44293","title":"定海路449弄","lon":"121.552832","lat":"31.276395","category":"47","category_name":"住宅区","address":"上海定海路定海港路路口"},{"poiid":"B2094757D065A3FC4698","title":"定海桥渡口站","lon":"121.56801633","lat":"31.269210238","category":"251","category_name":"出行住宿","address":"上海杨浦区定海路"},{"poiid":"B2094654D568A3FE499D","title":"光明便利(平凉路)","lon":"121.55299","lat":"31.27691","category":"117","category_name":"便民商店/便利店","address":"杨浦区平凉路2557号(爱国路平凉路)"},{"poiid":"B2094757D16AA0FD429B","title":"定海剧场","lon":"121.553086","lat":"31.277293","category":"179","category_name":"音乐厅","address":"爱国路800号"},{"poiid":"B2094655D264A1FF4592","title":"中轩丽苑二期","lon":"121.55572","lat":"31.27803","category":"47","category_name":"住宅区","address":"上海市杨浦区平凉路2691号"},{"poiid":"B2094654D568A2F4449E","title":"上海海事局航海图书印制中心","lon":"121.56343","lat":"31.27528","category":"248","category_name":"生活娱乐","address":"共青路82弄7号"},{"poiid":"B2094757D06AA2FE419A","title":"224","lon":"121.553016","lat":"31.277017","category":"38","category_name":"公交车站","address":"上海224公交车上"},{"poiid":"B2094654D568A7F8429B","title":"大桥花苑(西门)","lon":"121.56079","lat":"31.26","category":"47","category_name":"住宅区","address":"居家桥路151弄11-33号"},{"poiid":"B2094654D568A3F9469C","title":"群益轴承座销售部","lon":"121.55233","lat":"31.27599","category":"123","category_name":"家具建材市场","address":""},{"poiid":"B2094757D16FAAFD469D","title":"对岸琴行","lon":"121.563225","lat":"31.260264","category":"179","category_name":"音乐厅","address":"浦东新区浦东大道"},{"poiid":"B2094757D16AAAFD4392","title":"155路航交所车站","lon":"121.549641","lat":"31.266235","category":"500","category_name":"未知分类","address":"上海杨树浦路88号"},{"poiid":"B2094654D568A3FE4993","title":"益民小区(南门)","lon":"121.55281","lat":"31.27671","category":"47","category_name":"住宅区","address":"平凉路2545弄"},{"poiid":"B2094654D568A4F5459D","title":"金浜大厦","lon":"121.55953","lat":"31.25906","category":"46","category_name":"楼宇","address":"浦东大道2511弄19号"},{"poiid":"B2094757D16AA3FE489C","title":"简发","lon":"121.55168","lat":"31.27486","category":"500","category_name":"未知分类","address":"杨浦区平凉路1193号(近眉州路)"},{"poiid":"B2094654D568A7F84099","title":"克丽缇娜居家桥店","lon":"121.56278","lat":"31.25994","category":"148","category_name":"美容美发店","address":"浦东新区浦东大道2581号(近云山路)"},{"poiid":"B2094654DB6BA2F44198","title":"平凉路2767弄小区(南门)","lon":"121.55706","lat":"31.27822","category":"47","category_name":"住宅区","address":"平凉路2767弄"},{"poiid":"B2094654D568A3FF429D","title":"纺平大楼小区","lon":"121.55794667","lat":"31.27898","category":"47","category_name":"住宅区","address":"上海杨浦区平凉路2771弄"},{"poiid":"B2094654DB6BA2F4499E","title":"中国船舶工业集团公司沪东中华造船(集团)有限公司共青路","lon":"121.56266","lat":"31.27717","category":"263","category_name":"公司","address":"共青路130"},{"poiid":"B2094757D065A6FC4693","title":"三得利光明啤酒(上海)有限公司","lon":"121.555103","lat":"31.277073","category":"500","category_name":"未知分类","address":"上海平凉路2678号"},{"poiid":"B2094757D569A0FA459F","title":"永乐电器(德平店)","lon":"121.5612863","lat":"31.25927681","category":"138","category_name":"家电电子卖场","address":"浦东大道2535号"},{"poiid":"B2094757D064A4FB459D","title":"本溪艺术幼儿园","lon":"121.557754339","lat":"31.2786514559","category":"57","category_name":"幼儿园","address":"上海杨浦区凉州路620号"},{"poiid":"B2094654D568A7F84192","title":"良友金伴便利连锁No.828","lon":"121.56133","lat":"31.25923","category":"117","category_name":"便民商店/便利店","address":"浦东大道2537"},{"poiid":"B2094654D568A7F84092","title":"中国电信居家桥路营业厅","lon":"121.56226","lat":"31.25961","category":"151","category_name":"电讯营业厅","address":"浦东大道2559号"},{"poiid":"B2094654D568A7F84198","title":"可的(上房玺丰苑)","lon":"121.56189","lat":"31.25941","category":"117","category_name":"便民商店/便利店","address":"浦东大道"},{"poiid":"B2094757D66EA0FA419A","title":"英倫造型","lon":"121.548498103","lat":"31.2681918756","category":"148","category_name":"美容美发店","address":"上海隆昌路205號"},{"poiid":"B2094654D56FA6F8469F","title":"上海沪纺新物资有限公司杨树浦路仓库","lon":"121.54925","lat":"31.2663","category":"263","category_name":"公司","address":"杨树浦路2361"},{"poiid":"B2094654D568A4F5499D","title":"金茂花园(东门)","lon":"121.56078","lat":"31.25929","category":"47","category_name":"住宅区","address":"浦东大道2515、2521"},{"poiid":"B2094757D168A1FB4292","title":"中国建设银行(定海桥支行)","lon":"121.55271553","lat":"31.276772855","category":"150","category_name":"银行","address":"杨浦区爱国路8号(爱国路河间路)"},{"poiid":"B2094757D06AA6F8409F","title":"平凉路军工路","lon":"121.557705339","lat":"31.2788104596","category":"500","category_name":"未知分类","address":"上海平凉路2767弄"},{"poiid":"B2094757D16FA0F94499","title":"上海交通大學附屬第一人民醫院","lon":"121.557866339","lat":"31.2781664448","category":"500","category_name":"未知分类","address":"上海武進路75號"},{"poiid":"B2094757DA6EAAFB4793","title":"艺博画廊","lon":"121.549252","lat":"31.2663039999998","category":"248","category_name":"生活娱乐","address":"杨浦区杨树浦路2361号8号楼"},{"poiid":"B2094654D568A7F8409E","title":"上房玺丰苑(南门)","lon":"121.56256","lat":"31.25984","category":"47","category_name":"住宅区","address":"浦东大道2567弄1-24号"},{"poiid":"B2094757DA6EAAFB489F","title":"合艺街","lon":"121.549252","lat":"31.2663039999998","category":"248","category_name":"生活娱乐","address":"杨浦区杨树浦路2361号8号楼"},{"poiid":"B2094654DB6BA2F4419C","title":"芳芳扦脚","lon":"121.55318","lat":"31.27662","category":"149","category_name":"洗浴推拿场所","address":"平凉路2562"},{"poiid":"B2094757D16AA5FC4393","title":"Mei's 床","lon":"121.55691133","lat":"31.277848437","category":"500","category_name":"未知分类","address":null},{"poiid":"B2094757D06BA2FB459A","title":"LingLing's home","lon":"121.557689339","lat":"31.2781484444","category":"500","category_name":"未知分类","address":null},{"poiid":"B2094757D06BABFB409E","title":"外滩24号 工行营业部","lon":"121.552514103","lat":"31.2766855532","category":"500","category_name":"未知分类","address":"上海中山东一路24号"},{"poiid":"B2094757D16FA4F9449A","title":"史上最2電車","lon":"121.557643339","lat":"31.2781494444","category":"500","category_name":"未知分类","address":null},{"poiid":"B2094654D568A3F9479A","title":"上海通略驾校报名点","lon":"121.55253","lat":"31.27614","category":"248","category_name":"生活娱乐","address":"平凉路2542号"},{"poiid":"B2094753D66EA0FA489E","title":"陆家嘴","lon":"121.56208","lat":"31.25977","category":"500","category_name":"未知分类","address":"上海市 新念大酒店"},{"poiid":"B2094757D16FA7FD489C","title":"勇強圖文廣告","lon":"121.552886103","lat":"31.2769055578","category":"500","category_name":"未知分类","address":"上海平涼路2558號"},{"poiid":"B2094757D66EA3FA4698","title":"中国电信居家桥营业厅","lon":"121.562259","lat":"31.259607","category":"150","category_name":"银行","address":"上海浦东大道2559号"},{"poiid":"B2094655D26CA6FD439D","title":"定海路449弄小区(东门)","lon":"121.55419","lat":"31.27642","category":"656","category_name":"大门","address":"定海路449弄"},{"poiid":"B2094654D568A3F84898","title":"平凉小区(东门)","lon":"121.55875","lat":"31.27766","category":"656","category_name":"大门","address":"平凉路2828弄"},{"poiid":"B2094654D568A3FF469D","title":"中轩丽苑(南门)","lon":"121.55419","lat":"31.27749","category":"656","category_name":"大门","address":"平凉路2625弄"},{"poiid":"B2094655D26FA0FA4093","title":"定海路449弄小区(后门)","lon":"121.55264","lat":"31.27621","category":"656","category_name":"大门","address":"定海路449弄"},{"poiid":"B2094655D26CA6FD439C","title":"白洋淀新村(南二门)","lon":"121.55553","lat":"31.27765","category":"656","category_name":"大门","address":""},{"poiid":"B2094655D26FA1F4489D","title":"白洋淀新村(南一门)","lon":"121.55525","lat":"31.27761","category":"656","category_name":"大门","address":"平凉路2677"},{"poiid":"B2094655D26CA7F5409B","title":"平凉小区(北门)","lon":"121.55769","lat":"31.27825","category":"656","category_name":"大门","address":"平凉路2828弄"},{"poiid":"B2094655D26FA7FE4799","title":"纺平大楼小区(东一门)","lon":"121.55815","lat":"31.27891","category":"656","category_name":"大门","address":""}]