[{"poiid":"B2094757D069A0F5459B","title":"金山城市沙滩","lon":"121.34800112","lat":"30.708106956","category":"500","category_name":"未知分类","address":"上海市金山区沪杭公路7741号"},{"poiid":"B2094655D268A6FA459A","title":"金山城市沙滩(北一门)","lon":"121.3511","lat":"30.71108","category":"680","category_name":"楼宇机构","address":""},{"poiid":"B2094757D068A3F9499B","title":"滨海皇家金煦大酒店","lon":"121.34416903","lat":"30.704743411","category":"76","category_name":"上海菜","address":"近郊金山石化新城路1号(近金山城市沙滩)"},{"poiid":"B2094655D265ABF84893","title":"华府海景","lon":"121.358607","lat":"30.719758","category":"47","category_name":"住宅区","address":"金山区杭州湾大道118弄"},{"poiid":"B2094757D06AA2F8409D","title":"石化海棠新村","lon":"121.34726333","lat":"30.718804363","category":"500","category_name":"未知分类","address":"上海市金山区石化隆安路"},{"poiid":"B2094757D069A7FE439D","title":"滨海公园","lon":"121.34492638","lat":"30.70620388","category":"196","category_name":"公园","address":"近郊金山区石化街道新城路16号"},{"poiid":"B2094757D069A0FD489C","title":"塞纳河畔(金山店)","lon":"121.3443","lat":"30.71614","category":"75","category_name":"浙江菜","address":"近郊石化蒙山路333号(沪杭公路金一东路)"},{"poiid":"B2094654DB69A1FA4098","title":"金山区石化社区卫生服务中心","lon":"121.35047","lat":"30.71162","category":"162","category_name":"医院","address":"象州路12"},{"poiid":"B2094654DB69A1F94892","title":"十村小区","lon":"121.35184","lat":"30.713615","category":"47","category_name":"住宅区","address":"象州路11弄"},{"poiid":"B2094757DB6FA4FC419B","title":"City Bread","lon":"121.347846","lat":"30.710801","category":"112","category_name":"糕饼店","address":"金山区石化象州路81号(蒙山路口)"},{"poiid":"B2094654DB69A1FA4099","title":"上海市金山区牙病防治所","lon":"121.35047","lat":"30.71162","category":"162","category_name":"医院","address":"近郊金山区象州路12号3楼(富川路象州路)"},{"poiid":"B2094654DB69A1F9499F","title":"良友金伴NO.456","lon":"121.35131","lat":"30.71307","category":"117","category_name":"便民商店/便利店","address":""},{"poiid":"B2094654DB69A1F94998","title":"好德便利NO.8822","lon":"121.35111","lat":"30.71304","category":"117","category_name":"便民商店/便利店","address":""},{"poiid":"B2094654DB69A0FE4693","title":"上海金山沙滩排球场","lon":"121.34556","lat":"30.705","category":"233","category_name":"户外健身场所","address":"近郊金山区新城路5号城市沙滩内(南康路新城路)"},{"poiid":"B2094655D26FAAFD4899","title":"十村小区(三号门)","lon":"121.35108","lat":"30.71261","category":"47","category_name":"住宅区","address":""},{"poiid":"B2094654DB69A1F94893","title":"石化百货(石化七村南)","lon":"121.35078","lat":"30.7134","category":"119","category_name":"商场","address":"石化十村42号"},{"poiid":"B2094655D26BA7FA4592","title":"新远山别墅","lon":"121.3531","lat":"30.71534","category":"47","category_name":"住宅区","address":"近郊金山石化沪杭公路7765号(戚家墩路海边路口)"},{"poiid":"B2094654DB69A1FA409E","title":"上海市金山区石化地段医院","lon":"121.35047","lat":"30.71162","category":"162","category_name":"医院","address":"金山区象州路12号"},{"poiid":"B2094655D26FAAFD489F","title":"十村小区(一号门)","lon":"121.35072","lat":"30.71317","category":"47","category_name":"住宅区","address":""},{"poiid":"B2094655D26FAAFD489E","title":"鸿海大楼(北门)","lon":"121.35029","lat":"30.71098","category":"47","category_name":"住宅区","address":"鸿芸小区"},{"poiid":"B2094655D268A6FA4493","title":"芸海大楼(北门)","lon":"121.35029","lat":"30.71098","category":"47","category_name":"住宅区","address":"鸿芸小区"},{"poiid":"B2094654DB69A1FA409F","title":"鸿芸小区","lon":"121.35027","lat":"30.710682","category":"47","category_name":"住宅区","address":"鸿芸小区"},{"poiid":"B2094757D66CA0F5429A","title":"居适家(金山百联店)","lon":"121.35191764","lat":"30.712834314","category":"500","category_name":"未知分类","address":"近郊金山区卫清西路168弄99号百联金山购物中心C101室(近松卫南路)"},{"poiid":"B2094655D268A6FA4492","title":"芸海大楼","lon":"121.35023","lat":"30.71041","category":"47","category_name":"住宅区","address":"鸿芸小区"},{"poiid":"B2094654DB69A1F94899","title":"石化街道十村2号门","lon":"121.35057","lat":"30.7144","category":"47","category_name":"住宅区","address":""},{"poiid":"B2094654DB69A1FA4198","title":"石化十三村小区(象州路)","lon":"121.34909","lat":"30.71085","category":"47","category_name":"住宅区","address":""},{"poiid":"B2094757D16CA5F5499C","title":"上海师范大学第二附属中学","lon":"121.351709","lat":"30.719266","category":"55","category_name":"中学","address":"近郊金山卫城区隆安路48号(近临潮街)"},{"poiid":"B2094654DB69A1FA409C","title":"鸿海大楼","lon":"121.357","lat":"30.717","category":"46","category_name":"楼宇","address":"鸿海大楼"},{"poiid":"B2094757D165A6F4499E","title":"台州火车站","lon":"121.35884426","lat":"30.705528283","category":"22","category_name":"火车站","address":"上海台州火车站"},{"poiid":"B2094655D268A6FA459E","title":"都市家园","lon":"121.353201054","lat":"30.715564793","category":"76","category_name":"上海菜","address":"石化沪杭公路7855号近富川路"},{"poiid":"B2094654DB64A7F84398","title":"石化街道九村小区","lon":"121.34848","lat":"30.71205","category":"47","category_name":"住宅区","address":""},{"poiid":"B2094757D66BA7FF4499","title":"蒙山餐厅","lon":"121.34773","lat":"30.709151","category":"76","category_name":"上海菜","address":"近郊金山区石化蒙山路(近乐购购物中心)"},{"poiid":"B2094654DB69A1F54293","title":"金粮经济小区","lon":"121.353","lat":"30.7164","category":"47","category_name":"住宅区","address":"象州路103号"},{"poiid":"B2094654DB69A1F94399","title":"良友金伴NO.459","lon":"121.3504","lat":"30.71538","category":"117","category_name":"便民商店/便利店","address":"富川路166"},{"poiid":"B2094655D36CA7FA4892","title":"海浒新村","lon":"121.3542","lat":"30.720472","category":"38","category_name":"公交车站","address":"海浒新村"},{"poiid":"B2094655D26FAAFD4699","title":"石化街道临潮三村小区(一号门)","lon":"121.35067","lat":"30.71594","category":"47","category_name":"住宅区","address":""},{"poiid":"B2094654DB69A1F8459D","title":"临潮二村","lon":"121.35009","lat":"30.717976","category":"47","category_name":"住宅区","address":"临潮二村"},{"poiid":"B2094752D169A0FD409D","title":"复旦大学附属金山医院","lon":"121.353104","lat":"30.715958","category":"162","category_name":"医院","address":null},{"poiid":"B2094655D268A7FA499C","title":"上海小南国金山店","lon":"121.34374","lat":"30.71495","category":"76","category_name":"上海菜","address":"近郊金山区石化金一东路1号金山宾馆1楼"},{"poiid":"B2094654DB69A1FA499E","title":"金山区石化街道十二村","lon":"121.34746","lat":"30.70955","category":"47","category_name":"住宅区","address":""},{"poiid":"B2094655D26BA2F44299","title":"戚家墩","lon":"121.35207","lat":"30.71911","category":"38","category_name":"公交车站","address":""},{"poiid":"B2094655D26FAAFD469E","title":"七村小区(四号门)","lon":"121.34902","lat":"30.71337","category":"47","category_name":"住宅区","address":""},{"poiid":"B2094654DB68AAF44598","title":"金山卫车客渡码头","lon":"121.35812","lat":"30.71783","category":"34","category_name":"港口码头","address":""},{"poiid":"B2094655D36CA5FC489A","title":"大堤路","lon":"121.3484","lat":"30.71544","category":"38","category_name":"公交车站","address":""},{"poiid":"B2094757D065A4F4429C","title":"鹤亭つるていTSURUTEL","lon":"121.35239337","lat":"30.720572026","category":"500","category_name":"未知分类","address":"上海金山百联3楼"},{"poiid":"B2094654DB69A1FA459C","title":"九村小区","lon":"121.34835","lat":"30.71299","category":"47","category_name":"住宅区","address":""},{"poiid":"B2094655D268A7FE429C","title":"金山城市沙滩(北门)","lon":"121.348","lat":"30.70845","category":"680","category_name":"楼宇机构","address":""},{"poiid":"B2094757D16AA3FD4693","title":"石化少年宫(金山区第二少年宫)","lon":"121.3470277","lat":"30.7128958","category":"500","category_name":"未知分类","address":"上海市金山区柳城路95号"},{"poiid":"B2094655D268A6FB489C","title":"七村小区(二号门)","lon":"121.34706","lat":"30.71417","category":"47","category_name":"住宅区","address":""},{"poiid":"B2094757DB6BA7F54199","title":"长生源粥店 柳城路店","lon":"121.348265","lat":"30.713253","category":"68","category_name":"快餐厅","address":"近郊金山区柳城路84号(近蒙山路)"},{"poiid":"B2094654DB69A1F94292","title":"石化街道临潮三村","lon":"121.35216","lat":"30.71808","category":"47","category_name":"住宅区","address":""},{"poiid":"B2094757D064A4F84999","title":"上海石化临潮三村","lon":"121.351809154","lat":"30.7175149448","category":"500","category_name":"未知分类","address":"上海市金山区石化临潮三村"},{"poiid":"B2094654DB69A1FA459D","title":"石化街道七村小区1号门","lon":"121.34825","lat":"30.71366","category":"47","category_name":"住宅区","address":""},{"poiid":"B2094654DB69A1FA469C","title":"可的NO.667","lon":"121.34762","lat":"30.71317","category":"117","category_name":"便民商店/便利店","address":"柳城路50-1"},{"poiid":"B2094655D26FAAFC469C","title":"临潮二村(南门)","lon":"121.35054","lat":"30.71673","category":"47","category_name":"住宅区","address":""},{"poiid":"B2094757D16DAAFB499E","title":"金山区教师进修学院","lon":"121.345139645","lat":"30.7129103158","category":"253","category_name":"校园生活","address":"柳城路280号"},{"poiid":"B2094757D065AAFD4793","title":"世安海昇大酒店","lon":"121.357524","lat":"30.721257","category":"217","category_name":"旅馆招待所","address":"近郊金山区杭州湾大道128号"},{"poiid":"B2094757D66EAAF8469D","title":"石化海棠新村","lon":"121.34915161","lat":"30.709688186","category":"500","category_name":"未知分类","address":"上海市金山区石化蒙山路"},{"poiid":"B2094655D268A0F4489A","title":"海浒新村南区","lon":"121.35591","lat":"30.71838","category":"47","category_name":"住宅区","address":""},{"poiid":"B2094654DB64A7F8439B","title":"石化十三村小区(西门)","lon":"121.34786","lat":"30.70946","category":"47","category_name":"住宅区","address":""},{"poiid":"B209475CD565A7F8469F","title":"little cafe（小咖啡）","lon":"121.347724","lat":"30.710731","category":"500","category_name":"未知分类","address":"上海市 蒙山路46号"},{"poiid":"B2094654DB69A1FA429C","title":"七村小区","lon":"121.34811","lat":"30.71411","category":"47","category_name":"住宅区","address":""},{"poiid":"B2094654DB69A1F44893","title":"广霖大楼","lon":"121.353","lat":"30.7187","category":"46","category_name":"楼宇","address":"广霖大楼"},{"poiid":"B2094654DB69A1F9429D","title":"临潮一村3号门","lon":"121.34957","lat":"30.71654","category":"47","category_name":"住宅区","address":""},{"poiid":"B2094654DB69A1FA4298","title":"良友金伴NO.458","lon":"121.3474","lat":"30.71336","category":"117","category_name":"便民商店/便利店","address":"柳城路56-1"},{"poiid":"B2094752D46AA2F84799","title":"中国农业银行象州路支行","lon":"121.35061","lat":"30.716227","category":"150","category_name":"银行","address":"上海市金山区石化象州路228号"},{"poiid":"B2094654DB69A1F5439A","title":"良友金伴NO.462","lon":"121.34642","lat":"30.71029","category":"117","category_name":"便民商店/便利店","address":"象州路105"},{"poiid":"B2094757D468A3FB449D","title":"君诚渔庄","lon":"121.34905","lat":"30.71889","category":"86","category_name":"火锅店","address":"近郊金山区石化隆安路168号海棠新村商铺(近临潮新村公用事业收费所)"},{"poiid":"B2094655D268A4FA4498","title":"石化街道九村小区(东门)","lon":"121.35058","lat":"30.7122","category":"656","category_name":"大门","address":""},{"poiid":"B2094757D464A0FA419A","title":"海上皇宫","lon":"121.349207054","lat":"30.718874793","category":"76","category_name":"上海菜","address":"近郊金山蒙山路1001号"},{"poiid":"B2094752D365A3F54099","title":"元悦精菜馆","lon":"121.355991","lat":"30.720482","category":"247","category_name":"餐饮美食","address":null},{"poiid":"B2094654DB69A1F94192","title":"石化临潮三村2号门","lon":"121.35152","lat":"30.71796","category":"47","category_name":"住宅区","address":""},{"poiid":"B2094654DB69A1F54092","title":"石化商厦","lon":"121.34601","lat":"30.71086","category":"119","category_name":"商场","address":""},{"poiid":"B2094655D36CA2F5439B","title":"上师大二附中","lon":"121.3491","lat":"30.71867","category":"38","category_name":"公交车站","address":""},{"poiid":"B2094654DB69A1F4499A","title":"石化六村(南门)","lon":"121.34629","lat":"30.71294","category":"47","category_name":"住宅区","address":""},{"poiid":"B2094654DB69A1F9439B","title":"A吧","lon":"121.35036","lat":"30.71557","category":"248","category_name":"生活娱乐","address":""},{"poiid":"B2094654DB65A6F9409F","title":"上海市平乐中学","lon":"121.34695","lat":"30.71483","category":"55","category_name":"中学","address":"金山区石化七村759号"},{"poiid":"B2094654DB69A1F54398","title":"十二村小区(象州路)","lon":"121.34612","lat":"30.70941","category":"47","category_name":"住宅区","address":""},{"poiid":"B2094654DB69A1F5419B","title":"青年游乐场","lon":"121.34601","lat":"30.71086","category":"195","category_name":"游乐场","address":"象州路"},{"poiid":"B2094654DB69A1F8469B","title":"良友金伴NO.463","lon":"121.35138","lat":"30.71882","category":"117","category_name":"便民商店/便利店","address":"隆安路55"},{"poiid":"B2094654DB69A1F5439D","title":"乐厦商场","lon":"121.34577","lat":"30.7102","category":"119","category_name":"商场","address":"象州路119"},{"poiid":"B2094654DB69A1F8449E","title":"临潮一村(隆安路)","lon":"121.34754","lat":"30.71737","category":"47","category_name":"住宅区","address":"石化"},{"poiid":"B2094655D268A0F44699","title":"海浒新村南区(北门)","lon":"121.3558","lat":"30.71955","category":"47","category_name":"住宅区","address":""},{"poiid":"B2094757D665A4FA4293","title":"克莉丝汀 龙胜店","lon":"121.348441054","lat":"30.718756793","category":"67","category_name":"甜品店","address":"近郊金山区龙胜路155号(近隆安路)"},{"poiid":"B2094655D268A4F4419A","title":"石化八村东区(东大门)","lon":"121.34574","lat":"30.71256","category":"47","category_name":"住宅区","address":""},{"poiid":"B2094753D569ABFC4492","title":"元悦精菜馆","lon":"121.358741","lat":"30.72002","category":"247","category_name":"餐饮美食","address":"上海市 杭州湾大道108号"},{"poiid":"B2094655D36CA7FB449D","title":"海滨公园","lon":"121.34333","lat":"30.70772","category":"38","category_name":"公交车站","address":""},{"poiid":"B2094757D66BA5FA4899","title":"沈家门小海鲜","lon":"121.344724054","lat":"30.713690793","category":"88","category_name":"海鲜酒楼","address":"近郊金山区卫清西路382号"},{"poiid":"B2094654DB69A1F84898","title":"海浒新村2号门","lon":"121.35415","lat":"30.71967","category":"47","category_name":"住宅区","address":""},{"poiid":"B2094757D06AA3FC469B","title":"三品香小菜(隆安路店)","lon":"121.34504","lat":"30.71775","category":"76","category_name":"上海菜","address":"近郊金山区石化隆安路350号(近蒙山路)"},{"poiid":"B2094655D268A0F44792","title":"海浒新村(一号门)","lon":"121.35552","lat":"30.71984","category":"47","category_name":"住宅区","address":""},{"poiid":"B2094757D66DA0F44898","title":"石化社区卫生中心","lon":"121.348241645","lat":"30.7153123725","category":"500","category_name":"未知分类","address":"上海石化象州路"},{"poiid":"B2094654DB69A1F4489B","title":"六村小区","lon":"121.34536","lat":"30.71362","category":"47","category_name":"住宅区","address":""},{"poiid":"B2094655D268A0F44692","title":"临潮二村(四号门)","lon":"121.34999","lat":"30.71858","category":"47","category_name":"住宅区","address":""},{"poiid":"B2094757D568A7F8469D","title":"金山区青少年业余体育学校(石化街道七村小区西北)","lon":"121.34777751","lat":"30.71484592","category":"253","category_name":"校园生活","address":"石化七村759"},{"poiid":"B2094654DB64A7F8439A","title":"露美美发厅","lon":"121.35651","lat":"30.71997","category":"148","category_name":"美容美发店","address":"隆安东路302识别"},{"poiid":"B2094655D26EA1FC4692","title":"临潮小学","lon":"121.34795","lat":"30.717","category":"56","category_name":"小学","address":"临潮街298"},{"poiid":"B2094757D065AAF9479C","title":"欣达食苑","lon":"121.34259","lat":"30.71013","category":"76","category_name":"上海菜","address":"近郊金山区石化新城路十一村4号(近驿宾楼)"},{"poiid":"B2094655D26FAAFD469D","title":"石化街道九村小区(北一门)","lon":"121.34915","lat":"30.71304","category":"656","category_name":"大门","address":""},{"poiid":"B209475CD36BA4FB419D","title":"元悦精菜馆","lon":"121.35779","lat":"30.72082","category":"75","category_name":"浙江菜","address":"金山区杭州湾大道108号(近华府海景广场)"},{"poiid":"B2094757D66DA4F84599","title":"金山城市沙滩世游赛赛场","lon":"121.34811634","lat":"30.706189957","category":"500","category_name":"未知分类","address":"上海金山新城路"},{"poiid":"B2094654DB69A1F4469D","title":"上海大光明院线","lon":"121.344831","lat":"30.710587","category":"178","category_name":"电影院","address":"象州路198"},{"poiid":"B2094757D065ABF8489C","title":"农工商超市石化店","lon":"121.34572148","lat":"30.717248655","category":"500","category_name":"未知分类","address":"近郊金山石化蒙山路333-335号"},{"poiid":"B2094654DB69A1F4479C","title":"三十二铺小商品市场","lon":"121.34459","lat":"30.71133","category":"120","category_name":"小商品市场","address":""},{"poiid":"B2094757D66EA4F44392","title":"石化工人影剧院","lon":"121.34465702","lat":"30.711033196","category":"248","category_name":"生活娱乐","address":"上海金山区石化贸中"},{"poiid":"B2094757D464A0FA4498","title":"永乐大酒店中餐厅","lon":"121.363688054","lat":"30.720214793","category":"76","category_name":"上海菜","address":"近郊金山区沪杭公路6472号(隆安路蒙山路)"},{"poiid":"B2094757D16CA1FB479A","title":"绍兴饭店(金山店)","lon":"121.35744717","lat":"30.720920072","category":"247","category_name":"餐饮美食","address":"漕泾镇杭州湾大道128号世安海昇酒店2-3楼近沪杭公路"},{"poiid":"B2094654DB69A0FE439E","title":"驿宾楼","lon":"121.34324","lat":"30.70979","category":"46","category_name":"楼宇","address":"新城路105"},{"poiid":"B2094655D268A6FB489F","title":"金山区教师进修学院(南门)","lon":"121.34466","lat":"30.71264","category":"678","category_name":"学校大门","address":"柳城路280"},{"poiid":"B2094654DB69A1F4469F","title":"上海市中心图书馆金山分馆","lon":"121.34403","lat":"30.7104","category":"181","category_name":"图书馆","address":"象州路238"},{"poiid":"B2094655D36CA6FF419B","title":"富川大楼","lon":"121.355","lat":"30.7213","category":"38","category_name":"公交车站","address":"金山区石化沪杭公路7855号"},{"poiid":"B2094654DB69A1F5469F","title":"中国人寿保险股份有限公司(蒙山路)","lon":"121.34721","lat":"30.71132","category":"219","category_name":"其他","address":"蒙山路61号"},{"poiid":"B2094654DB69A1F4499D","title":"金山区第二少年宫石化社区文化活动中心","lon":"121.34428","lat":"30.71196","category":"188","category_name":"文化宫","address":"柳城路95"},{"poiid":"B2094654DB69A1F54599","title":"名角女士生活馆NO.4308","lon":"121.34442","lat":"30.70996","category":"148","category_name":"美容美发店","address":"象州路211"},{"poiid":"B2094655D268A3FD4992","title":"上岛咖啡(金一东路)","lon":"121.34373","lat":"30.71495","category":"65","category_name":"咖啡厅","address":"金一东路1号金山宾馆2层"},{"poiid":"B2094654DB69A1F84992","title":"戚家墩商场","lon":"121.35269","lat":"30.72117","category":"119","category_name":"商场","address":""},{"poiid":"B2094655D268A0F4469F","title":"临潮一村(东门)","lon":"121.34985","lat":"30.71565","category":"656","category_name":"大门","address":""},{"poiid":"B2094750DB6CA1F4469A","title":"金山城市沙滩","lon":"121.346443","lat":"30.707511","category":"248","category_name":"生活娱乐","address":"金山区石化镇海滨"},{"poiid":"B2094654DB69A1F94799","title":"农工商超市金山店","lon":"121.34551","lat":"30.71615","category":"118","category_name":"超级市场","address":""},{"poiid":"B2094757D065A3FD4693","title":"黄金海岸","lon":"121.34472","lat":"30.71734","category":"170","category_name":"KTV","address":"上海近郊金山区石化隆安路357号"},{"poiid":"B2094655D268A5F5409C","title":"海棠新村(二号门)","lon":"121.34769","lat":"30.71863","category":"47","category_name":"住宅区","address":""},{"poiid":"B2094654DB69A1F9459A","title":"宏盛餐饮","lon":"121.34723","lat":"30.7185","category":"257","category_name":"中餐厅","address":"近郊金山区隆安路236号(近蒙山路)"},{"poiid":"B2094757D66EABF5409A","title":"吉享客 金山店","lon":"121.346329054","lat":"30.718651793","category":"68","category_name":"快餐厅","address":"近郊金山区石化隆安路303号(近家得利)"},{"poiid":"B2094757D66FA7FD4892","title":"海宁煲总店(石化)","lon":"121.34448964","lat":"30.710213252","category":"500","category_name":"未知分类","address":"上海象州路"},{"poiid":"B2094757D168A1FC4493","title":"上海海滨皇家金熙大酒店","lon":"121.34396206","lat":"30.704881286","category":"217","category_name":"旅馆招待所","address":"上海金山区石化新城路1号"},{"poiid":"B2094654DB69A1F9449E","title":"可的NO.686","lon":"121.34751","lat":"30.71895","category":"117","category_name":"便民商店/便利店","address":"近郊金山区海棠街23号"},{"poiid":"B2094654DB69A1FF489B","title":"金宏达商务楼","lon":"121.3458","lat":"30.7176","category":"46","category_name":"楼宇","address":"蒙山路363"},{"poiid":"B2094757D16CABF8429E","title":"贝儿多爸爸(金山百联店)","lon":"121.345837","lat":"30.717094","category":"247","category_name":"餐饮美食","address":"上海金山区卫清西路168弄99号百联金山购物中心"},{"poiid":"B2094655D268A0F4479B","title":"石化街道九村小区(北二门)","lon":"121.34773","lat":"30.71284","category":"656","category_name":"大门","address":""},{"poiid":"B209475CD26BA4FA469C","title":"城市沙滩","lon":"121.358734","lat":"30.720972","category":"500","category_name":"未知分类","address":"上海市 金山"},{"poiid":"B2094655D268A0F4479E","title":"石化街道九村小区(西门)","lon":"121.34741","lat":"30.71207","category":"656","category_name":"大门","address":""},{"poiid":"B2094654DB69A1FF4793","title":"上海老城隍庙小吃金山店","lon":"121.34584","lat":"30.71751","category":"68","category_name":"快餐厅","address":"石化"},{"poiid":"B2094757D164A3F5439E","title":"吉宝家","lon":"121.355198671","lat":"30.7205840653","category":"500","category_name":"未知分类","address":null},{"poiid":"B2094757D16FA7F84999","title":"阿尔法特餐厅","lon":"121.34245407","lat":"30.711763128","category":"90","category_name":"清真餐馆","address":"近郊金山卫零路"},{"poiid":"B2094654DB69A0FE429A","title":"良友金伴便利连锁NO.457","lon":"121.34357","lat":"30.70852","category":"117","category_name":"便民商店/便利店","address":"新城路77"},{"poiid":"B2094757D164A3FC4693","title":"老城隍庙小吃","lon":"121.34570002","lat":"30.71743105","category":"247","category_name":"餐饮美食","address":"上海蒙山路349号"},{"poiid":"B2094654DB69A1F54799","title":"广宇大楼","lon":"121.346","lat":"30.7188","category":"46","category_name":"楼宇","address":"广宇大楼"},{"poiid":"B2094654DB69A1F5469A","title":"石化十二村(5号门)","lon":"121.34384","lat":"30.70869","category":"47","category_name":"住宅区","address":"石化十二村116号"},{"poiid":"B2094654DB69A1FF469C","title":"城建商办大楼","lon":"121.34564","lat":"30.71826","category":"46","category_name":"楼宇","address":"隆安路290"},{"poiid":"B2094655D268A4F4409E","title":"石化八村(东门)","lon":"121.34354","lat":"30.71181","category":"47","category_name":"住宅区","address":""},{"poiid":"B2094654DB69A1F4469E","title":"上海市金山区文化馆","lon":"121.34403","lat":"30.7104","category":"188","category_name":"文化宫","address":"近郊象州路238号"},{"poiid":"B2094654DB69A0FE4399","title":"石化十一村4号门","lon":"121.34333","lat":"30.70951","category":"47","category_name":"住宅区","address":""},{"poiid":"B2094655D268A6FB4898","title":"石化八村","lon":"121.34265","lat":"30.71142","category":"47","category_name":"住宅区","address":"上海金山石化八村"},{"poiid":"B2094654DB69A1F5409A","title":"金山区石化街道八村(南门)","lon":"121.34298","lat":"30.71087","category":"47","category_name":"住宅区","address":""},{"poiid":"B2094757D068ABFF4998","title":"中国西藏诺亚方舟船票营销中心","lon":"121.345087645","lat":"30.7171214151","category":"263","category_name":"公司","address":"拉萨林芝"},{"poiid":"B2094654DB69A1F9439C","title":"海棠新村","lon":"121.34729","lat":"30.719778","category":"47","category_name":"住宅区","address":"海棠新村"},{"poiid":"B2094757DA65A5F4409C","title":"上海云根庭酒店（金山店）","lon":"121.344177","lat":"30.717392","category":"216","category_name":"经济型连锁酒店","address":"上海市金山区隆安路355号(近梅州街)"},{"poiid":"B2094655D268A5F54099","title":"六村小区(东一门)","lon":"121.34671","lat":"30.71339","category":"656","category_name":"大门","address":""},{"poiid":"B2094757D16BABFA489B","title":"沈家门海鲜","lon":"121.342549645","lat":"30.7120462955","category":"247","category_name":"餐饮美食","address":"上海市金山区随塘河步行街"},{"poiid":"B2094654DB69A1FF4698","title":"海棠一村","lon":"121.34729","lat":"30.719774","category":"47","category_name":"住宅区","address":"海棠新村188"},{"poiid":"B2094655D26FAAFD479A","title":"海棠新村(六号门)","lon":"121.3488","lat":"30.7213","category":"47","category_name":"住宅区","address":""},{"poiid":"B2094757D16DA0FE409A","title":"浦发银行金山支行","lon":"121.344121745","lat":"30.7128943155","category":"150","category_name":"银行","address":"上海石化象州路198号"},{"poiid":"B2094655D268A4F4409F","title":"十二村小区(北一门)","lon":"121.34613","lat":"30.71015","category":"656","category_name":"大门","address":""},{"poiid":"B2094654DB69A1FF4699","title":"梅州新村5号门","lon":"121.34562","lat":"30.7186","category":"47","category_name":"住宅区","address":""},{"poiid":"B2094654DB69A0FE419F","title":"石化十一村1号门","lon":"121.34267","lat":"30.70871","category":"47","category_name":"住宅区","address":""},{"poiid":"B2094757D568A4FA449C","title":"GO GO CITY量贩式KTV","lon":"121.3443519","lat":"30.71705389","category":"170","category_name":"KTV","address":"石化蒙山路333号"},{"poiid":"B2094654DB69A1F5479D","title":"金山轮滑球馆","lon":"121.34412","lat":"30.70564","category":"220","category_name":"运动场所","address":"近郊金山区石化新城路5号(近沪杭公路)"},{"poiid":"B2094655D268A5F54098","title":"六村小区(东门)","lon":"121.34655","lat":"30.71406","category":"656","category_name":"大门","address":""},{"poiid":"B2094757D66DA3FF439C","title":"富翔足浴","lon":"121.34765064","lat":"30.719585473","category":"148","category_name":"美容美发店","address":"上海海棠"},{"poiid":"B2094654DB69A1FF4693","title":"中国建设银行上海市隆安支行","lon":"121.34619","lat":"30.71798","category":"150","category_name":"银行","address":"隆安路271"},{"poiid":"B2094655D26FAAFD479E","title":"金山区石化街道海棠一村(北门)","lon":"121.35029","lat":"30.72177","category":"47","category_name":"住宅区","address":""},{"poiid":"B2094654DB69A1F4499C","title":"金山区石化街道党员服务中心","lon":"121.34429","lat":"30.71196","category":"248","category_name":"生活娱乐","address":"柳城路95"},{"poiid":"B2094655D268A6FB489A","title":"滨海公园(西门)","lon":"121.34426","lat":"30.70659","category":"680","category_name":"楼宇机构","address":"新城路16"},{"poiid":"B2094753D56DA4F9409B","title":"金山百联购物中心","lon":"121.342597","lat":"30.710325","category":"500","category_name":"未知分类","address":"上海市 上海金山卫镇板桥西路"},{"poiid":"B2094654DB69A1FF4992","title":"田野农家菜","lon":"121.34424","lat":"30.71801","category":"257","category_name":"中餐厅","address":"隆安路368"},{"poiid":"B2094654DB69A1FF4799","title":"申银万国证券股份有限公司(蒙山路)","lon":"121.34604","lat":"30.71665","category":"219","category_name":"其他","address":"蒙山路279"},{"poiid":"B2094654DB69A1F4499B","title":"六村小区(南门)(柳城路)","lon":"121.34526","lat":"30.71287","category":"656","category_name":"大门","address":"石化六村641号"},{"poiid":"B2094757D164A5F44392","title":"铭洋尊尚SPA养生会所","lon":"121.343292145","lat":"30.7146909704","category":"500","category_name":"未知分类","address":"上海金山区金山宾馆底楼西部"},{"poiid":"B2094654DB69A2F54298","title":"上海金山联合环境工程公司","lon":"121.35249","lat":"30.7217","category":"263","category_name":"公司","address":""},{"poiid":"B2094757D065A0FB479D","title":"金山区国家税务局","lon":"121.344638645","lat":"30.7174684233","category":"500","category_name":"未知分类","address":"上海市金山区浩源路80号"},{"poiid":"B2094757D66EA4F5499C","title":"金山嘴海鲜","lon":"121.34378534","lat":"30.705143332","category":"500","category_name":"未知分类","address":"上海金山嘴"},{"poiid":"B2094757D164ABFC419F","title":"海滨皇家金煦大酒店","lon":"121.344125","lat":"30.704996","category":"217","category_name":"旅馆招待所","address":"上海金山新城路1号"},{"poiid":"B2094654DB69A1F4499F","title":"六村小区(南一门)","lon":"121.34427","lat":"30.71274","category":"656","category_name":"大门","address":""},{"poiid":"B2094654DB69A1FF469D","title":"中信证券(隆安路)","lon":"121.34563","lat":"30.71826","category":"219","category_name":"其他","address":"隆安路290"},{"poiid":"B2094655D26EA1FC479B","title":"海棠新村(南门)","lon":"121.34731","lat":"30.71853","category":"656","category_name":"大门","address":""},{"poiid":"B2094655D26FAAFE469F","title":"海棠新村(西门)","lon":"121.34588","lat":"30.71875","category":"656","category_name":"大门","address":""}]