[{"poiid":"B2094757D16CA6FA479B","title":"徐汇滨江龙腾大道","lon":"121.46242978","lat":"31.171125424","category":"500","category_name":"未知分类","address":"上海龙腾大道丰谷路"},{"poiid":"B2094757D169A6FA489C","title":"魔都","lon":"121.48171873","lat":"31.169546008","category":"500","category_name":"未知分类","address":"上海"},{"poiid":"B2094757D069A6FB459F","title":"龙腾大道","lon":"121.45933573","lat":"31.175346131","category":"500","category_name":"未知分类","address":"上海龙腾大道"},{"poiid":"B2094654DA6DAAFC4193","title":"中国民用航空学院职业技术学院","lon":"121.45514","lat":"31.17076","category":"54","category_name":"职业技术学校","address":""},{"poiid":"B2094757D06FA3FD499E","title":"晟豪驾校","lon":"121.45466","lat":"31.16915","category":"68","category_name":"快餐厅","address":"徐汇区龙华西路1号(云锦路口)"},{"poiid":"B2094757D06FA6FD4293","title":"龙腾大道","lon":"121.46263851","lat":"31.171261612","category":"260","category_name":"其他","address":"上海徐汇滨江亲水区"},{"poiid":"B2094757D164AAFB479F","title":"东方体育中心海上皇冠","lon":"121.479249738","lat":"31.156806737","category":"500","category_name":"未知分类","address":"上海8号线东方体育中心"},{"poiid":"B2094757D06FABF9439D","title":"上海民航中专","lon":"121.45486666","lat":"31.170237367","category":"253","category_name":"校园生活","address":"上海龙华西路1号"},{"poiid":"B2094757D06FA2FA4293","title":"后滩地铁站","lon":"121.46936755","lat":"31.174126931","category":"36","category_name":"地铁站","address":"上海轨道交通 七号线 轨交后滩站 7"},{"poiid":"B2094757D069A7FF4598","title":"上海世博园冰雕艺术展","lon":"121.469558038","lat":"31.1745844152","category":"500","category_name":"未知分类","address":"浦东新区世博大道1200号梅赛德斯奔驰文化中心"},{"poiid":"B2094654DB65A6FA4592","title":"新世纪花苑(南门)","lon":"121.48059","lat":"31.17204","category":"656","category_name":"大门","address":"耀华路579弄1-127号"},{"poiid":"B2094757D06AA1F8459F","title":"卢浦大桥耀华路下匝道","lon":"121.481870571","lat":"31.1688133424","category":"500","category_name":"未知分类","address":"上海耀华路西营路"},{"poiid":"B2094757D06FAAFB479E","title":"东方体育中心室外跳水池(月亮湾)","lon":"121.47687046","lat":"31.155626569","category":"220","category_name":"运动场所","address":"上海浦东新区泳耀路50号东方体育中心内"},{"poiid":"B2094757D068A7FD4893","title":"济阳公园","lon":"121.47993589","lat":"31.169316816","category":"196","category_name":"公园","address":"浦东新区耀华路600号(济阳路口)"},{"poiid":"B2094753D164A0F9499F","title":"华东理工大学","lon":"121.471017","lat":"31.160169","category":"500","category_name":"未知分类","address":"上海市 上海市徐汇区梅陇路130号"},{"poiid":"B2094752D76FA4F5459A","title":"梅赛德斯奔驰文化中心","lon":"121.461502","lat":"31.166077","category":"500","category_name":"未知分类","address":"梅赛德斯奔驰文化中心"},{"poiid":"B2094654DA65ABFA479F","title":"上海市第42机动车安全检测站(徐汇)","lon":"121.46109","lat":"31.15756","category":"250","category_name":"公园户外","address":"龙水南路95号"},{"poiid":"B2094757D068A0F9499B","title":"龙耀路隧道","lon":"121.46893149","lat":"31.165607593","category":"260","category_name":"其他","address":"上海徐汇区龙耀路-浦东新区济阳路"},{"poiid":"B2094757D06FAAF4429D","title":"麦盛莉(耀华店)","lon":"121.4763831","lat":"31.176898854","category":"76","category_name":"上海菜","address":"浦东新区耀华路488号(西营路口)"},{"poiid":"B209475CD76EA1FC429F","title":"stayreal cafe","lon":"121.466125","lat":"31.164196","category":"500","category_name":"未知分类","address":"上海市 上海徐汇区环贸iapm"},{"poiid":"B2094750DA69A3FC489A","title":"台北纯K（打浦桥店）","lon":"121.461555","lat":"31.166128","category":"248","category_name":"生活娱乐","address":"徐家汇路618号日月光中心广场3楼(近瑞金二路)"},{"poiid":"B2094752DA69A1F5449B","title":"博大汽车公园","lon":"121.472341","lat":"31.179505","category":"500","category_name":"未知分类","address":"上海市 国展路189号"},{"poiid":"B2094753D164ABFC469D","title":"上海东方电视台","lon":"121.471478","lat":"31.160071","category":"500","category_name":"未知分类","address":"上海市 东方路2000号"},{"poiid":"B2094750D565A2FE4692","title":"上海民航职业技术学院","lon":"121.457061","lat":"31.17053","category":"671","category_name":"高校中心点","address":"上海市徐汇区龙华西路1号"},{"poiid":"B2094757D065A4F84592","title":"龙耀路越江隧道","lon":"121.46685238","lat":"31.165439582","category":"260","category_name":"其他","address":"上海徐汇区龙耀路跨黄浦江浦东新区济阳路之间隧道"},{"poiid":"B2094655D26BA2FF4798","title":"通耀路耀龙路","lon":"121.4746","lat":"31.16836","category":"38","category_name":"公交车站","address":""},{"poiid":"B2094753D06AA3F5429A","title":"全家便利店(龙腾大道店)","lon":"121.4626","lat":"31.16612","category":"117","category_name":"便民商店/便利店","address":"徐汇区龙腾大道(东安路口)"},{"poiid":"B2094757D165AAFE459A","title":"龙耀路隧道","lon":"121.45982573","lat":"31.161783842","category":"500","category_name":"未知分类","address":"上海市徐汇区龙耀路"},{"poiid":"B2094753D265AAFC4493","title":"Isola,Bella美丽岛意大利餐厅(龙腾大道店)","lon":"121.462697","lat":"31.171052","category":"98","category_name":"意式菜品餐厅","address":"滨江龙腾大道3222号(东安路路口)"},{"poiid":"B209475CD56DA3F9499A","title":"西岸2013建筑与当代艺术双年展","lon":"121.462661","lat":"31.164426","category":"500","category_name":"未知分类","address":"上海市 上海市徐汇区龙腾大道2350号(近龙耀路)"},{"poiid":"B2094654DB6BA5FB4599","title":"上海市申江两岸开发建设投资集团","lon":"121.47288","lat":"31.16833","category":"263","category_name":"公司","address":"耀华路699"},{"poiid":"B2094654DA6DAAFC409E","title":"上海晟豪机动车驾驶员培训有限公司","lon":"121.45805","lat":"31.17028","category":"192","category_name":"驾校","address":"机场东一路1"},{"poiid":"B2094753D26FA7F84593","title":"高行绿洲","lon":"121.471016","lat":"31.160172","category":"47","category_name":"住宅区","address":"上海市 张杨北路秋岚路"},{"poiid":"B2094753D26BAAF8429F","title":"平壤高丽饭店","lon":"121.471485","lat":"31.160077","category":"247","category_name":"餐饮美食","address":"上海市 上海浦东松林路"},{"poiid":"B2094654DA6DAAFC429F","title":"上海侨泰高尔夫俱乐部龙华练习场","lon":"121.46215","lat":"31.16647","category":"206","category_name":"高尔夫相关","address":"徐汇区龙华西路8号(机场东一路8号)"},{"poiid":"B2094654DA6DAAFC409F","title":"民苑小区","lon":"121.45907","lat":"31.17126","category":"47","category_name":"住宅区","address":"上海云锦路201弄"},{"poiid":"B2094750D26CA4FF489F","title":"日月光","lon":"121.480506","lat":"31.167711","category":"500","category_name":"未知分类","address":"日月光"},{"poiid":"B2094752DA6FA4F4429C","title":"新天地","lon":"121.461569","lat":"31.166135","category":"500","category_name":"未知分类","address":"上海市 复兴中路"},{"poiid":"B2094655D26AA0F9469C","title":"地铁浦江耀华站","lon":"121.47117","lat":"31.17349","category":"36","category_name":"地铁站","address":""},{"poiid":"B2094757D16EA4FA4692","title":"上海大众燃气输配部管线巡检站","lon":"121.46472073","lat":"31.170357025","category":"500","category_name":"未知分类","address":"上海市徐汇区龙腾大道"},{"poiid":"B2094752DB69ABF44592","title":"Dazzling cafe","lon":"121.461562","lat":"31.166137","category":"500","category_name":"未知分类","address":"上海市 上海卢湾区徐家汇618号日月光中心1层"},{"poiid":"B2094757D168ABFD4293","title":"龙耀路隧道","lon":"121.476461","lat":"31.166906","category":"500","category_name":"未知分类","address":"上海市浦东新区龙耀路段"},{"poiid":"B2094757D16FA6FD4492","title":"香港海港城starbucks","lon":"121.46558113","lat":"31.172269899","category":"500","category_name":"未知分类","address":"上海九龙尖沙咀广东道3-27号"},{"poiid":"B2094654DA65ABFA459A","title":"锦江苑","lon":"121.464","lat":"31.16","category":"47","category_name":"住宅区","address":"龙水南路292-298号"},{"poiid":"B2094753D26AA5F44099","title":"寻梦园","lon":"121.471478","lat":"31.160071","category":"500","category_name":"未知分类","address":"上海市 青浦沈太路"},{"poiid":"B2094751DA65A6F9419A","title":"淮海中路","lon":"121.461562","lat":"31.166136","category":"500","category_name":"未知分类","address":null},{"poiid":"B2094654DA6DAAFC4192","title":"中国交通职业技术学院南校区","lon":"121.45514","lat":"31.17075","category":"54","category_name":"职业技术学校","address":""},{"poiid":"B2094655D26FA6F54993","title":"济阳三村","lon":"121.48139","lat":"31.16656","category":"47","category_name":"住宅区","address":"德州路465弄"},{"poiid":"B2094753D268ABF4479A","title":"杨浦区 本溪路","lon":"121.471007","lat":"31.160157","category":"500","category_name":"未知分类","address":"上海市 23"},{"poiid":"B2094655D264ABFB4893","title":"徐汇滨江开发投资建设有限公司","lon":"121.46281","lat":"31.16892","category":"263","category_name":"公司","address":"丰溪路666"},{"poiid":"B2094752D665A3F44892","title":"世博展览馆","lon":"121.461502","lat":"31.166077","category":"248","category_name":"生活娱乐","address":null},{"poiid":"B2094753D26AA0F84599","title":"m1nt","lon":"121.471485","lat":"31.160077","category":"500","category_name":"未知分类","address":"上海市 上海市福州路山东中路"},{"poiid":"B2094757D66CA6F4489E","title":"工行号","lon":"121.46302032","lat":"31.170089721","category":"500","category_name":"未知分类","address":"上海黄浦江"},{"poiid":"B2094757D66DA6F9499D","title":"四川北路桥","lon":"121.47620473","lat":"31.166596056","category":"500","category_name":"未知分类","address":"上海四川北路苏州河"},{"poiid":"B2094753D469A5F4479C","title":"环球港","lon":"121.475517","lat":"31.158182","category":"500","category_name":"未知分类","address":"上海市 金沙江路站"},{"poiid":"B2094757D16CA7F9489F","title":"上海森那美汽车(经营捷豹路虎劳斯莱斯等车型)","lon":"121.459034","lat":"31.15685","category":"500","category_name":"未知分类","address":"上海龙水南路201号2幢"},{"poiid":"B2094757D169A2FF419F","title":"长峰新村","lon":"121.46319498301","lat":"31.156955126594","category":"47","category_name":"住宅区","address":"长峰新村位于徐汇上海徐汇天钥桥南路1249弄"},{"poiid":"B2094757D068A4FD4592","title":"上海飞机设计研究院","lon":"121.457473516","lat":"31.1714706279","category":"191","category_name":"科研机构","address":"上海云锦路5号"},{"poiid":"B2094757D069A0FC479C","title":"百匯園","lon":"121.45893307","lat":"31.17263744","category":"500","category_name":"未知分类","address":"上海市卢湾区济南路8号"},{"poiid":"B2094654DA6DA6F4469F","title":"上海市第二轻工业学校分部","lon":"121.47637","lat":"31.1714","category":"54","category_name":"职业技术学校","address":"耀华支路14"},{"poiid":"B2094654DB69A6F4499E","title":"迈达康高尔夫(侨泰店)","lon":"121.46087","lat":"31.16941","category":"206","category_name":"高尔夫相关","address":"徐汇区龙华机场机场东一路1号"},{"poiid":"B2094654DA6DA6F4479B","title":"大顾饮食店","lon":"121.4761","lat":"31.1719","category":"257","category_name":"中餐厅","address":""},{"poiid":"B2094654DA6DAAFC419A","title":"华龙新苑小区","lon":"121.45664","lat":"31.17359","category":"47","category_name":"住宅区","address":"上海徐汇区云锦路50弄"},{"poiid":"B2094655D264A2FB489F","title":"徐汇车辆检测站","lon":"121.45964","lat":"31.17044","category":"250","category_name":"公园户外","address":""},{"poiid":"B2094751D46BA4F5409A","title":"七年八班","lon":"121.4810861","lat":"31.1688818","category":"247","category_name":"餐饮美食","address":"长清路"},{"poiid":"B2094757D06BA7FB499B","title":"济阳新村","lon":"121.481516361","lat":"31.1692341526","category":"47","category_name":"住宅区","address":"上海耀华路"},{"poiid":"B2094654DA6DABF54993","title":"金龙花苑玫瑰园","lon":"121.45657","lat":"31.168856","category":"47","category_name":"住宅区","address":"丰谷路315弄"},{"poiid":"B2094757D069A0FB449E","title":"济阳路德州路","lon":"121.481116","lat":"31.166044","category":"500","category_name":"未知分类","address":"上海济阳路近德州路"},{"poiid":"B2094753D664AAFC4599","title":"泰晤士小镇","lon":"121.47602","lat":"31.158117","category":"500","category_name":"未知分类","address":"上海市 松江区"},{"poiid":"B2094655D265A7F8489E","title":"川杨河桥","lon":"121.48162","lat":"31.163","category":"250","category_name":"公园户外","address":"上海长清路西营路"},{"poiid":"B2094654DA65ABFA469F","title":"上海市徐汇区汽车驾驶员培训部","lon":"121.46115","lat":"31.15591","category":"192","category_name":"驾校","address":"龙水南路60-2临"},{"poiid":"B2094753D669A6FF479F","title":"復旦大學","lon":"121.475532","lat":"31.158187","category":"671","category_name":"高校中心点","address":"上海市 邯鄲路"},{"poiid":"B2094757D168ABFC4598","title":"上海克虏伯不锈钢有限公司","lon":"121.476977","lat":"31.174015","category":"46","category_name":"楼宇","address":"上海雪野西路101号"},{"poiid":"B2094654DA6DABF54493","title":"俞一小区","lon":"121.458","lat":"31.1762","category":"47","category_name":"住宅区","address":"龙华西路31弄"},{"poiid":"B2094655D36DA2FE4298","title":"龙耀路隧道","lon":"121.45984","lat":"31.16181","category":"250","category_name":"公园户外","address":""},{"poiid":"B2094757D66FA1F44092","title":"SA泵站","lon":"121.459239638","lat":"31.1664010411","category":"263","category_name":"公司","address":"上海耀华支路140号"},{"poiid":"B2094757D164A5FC4392","title":"一号线锦江乐园站","lon":"121.460916738","lat":"31.1730130817","category":"500","category_name":"未知分类","address":"上海市徐汇区沪闵路高架"},{"poiid":"B2094757D164A7F84899","title":"梅园苏州汤包馆","lon":"121.482910638","lat":"31.1690608977","category":"68","category_name":"快餐厅","address":"浦东新区西营路56号(近成山路)"},{"poiid":"B2094753D26EA2F4429B","title":"南京西路","lon":"121.474813","lat":"31.173199","category":"500","category_name":"未知分类","address":"上海市 南京西路"},{"poiid":"B2094655D26DA5FF489C","title":"龙南六村","lon":"121.458196","lat":"31.1615","category":"47","category_name":"住宅区","address":"喜泰北路2号-44号"},{"poiid":"B2094757D16BA3FF429F","title":"上海宝狮东风标致4S店","lon":"121.45920733","lat":"31.155595811","category":"500","category_name":"未知分类","address":"上海市龙水南路201号一幢"},{"poiid":"B2094757D164AAF4499A","title":"绿邑新境","lon":"121.459011","lat":"31.160283","category":"47","category_name":"住宅区","address":"上海市杨浦区国顺东路179弄"},{"poiid":"B2094757D66EA2FF429E","title":"东方体育中心主新闻中心","lon":"121.478507438","lat":"31.1588350802","category":"500","category_name":"未知分类","address":"上海媒体咨询台"},{"poiid":"B2094757D168A2FE419E","title":"东体中心跳水馆月亮湾","lon":"121.47618853","lat":"31.157495051","category":"500","category_name":"未知分类","address":"上海济阳路"},{"poiid":"B2094655D268A5FB459C","title":"民苑小区(南门)","lon":"121.458","lat":"31.17047","category":"47","category_name":"住宅区","address":""},{"poiid":"B2094655D26FAAF4439A","title":"济阳二村","lon":"121.48161","lat":"31.170979","category":"47","category_name":"住宅区","address":"耀华路550弄"},{"poiid":"B2094654DA65ABFA499D","title":"上海文化广播影视集团演艺中心","lon":"121.46175","lat":"31.15995","category":"189","category_name":"文艺团体","address":"龙水南路95-15"},{"poiid":"B2094655D36DA1FA439C","title":"鑫龙苑一期","lon":"121.455551","lat":"31.164209","category":"47","category_name":"住宅区","address":"上海市徐汇区龙吴路515号"},{"poiid":"B2094753D665A5F8429D","title":"东方体育中心羽毛球馆","lon":"121.47866","lat":"31.158872","category":"500","category_name":"未知分类","address":"上海市 耀体路701"},{"poiid":"B2094757D16CA4F5479C","title":"同里粥庄","lon":"121.477101071","lat":"31.1742154407","category":"247","category_name":"餐饮美食","address":"上海上南路894号(近昌里路)"},{"poiid":"B2094654DA68A2F44699","title":"济阳一村","lon":"121.48282","lat":"31.16599","category":"47","category_name":"住宅区","address":"德州路436号"},{"poiid":"B2094750DA69A5FC4393","title":"上海市第九人民医院","lon":"121.46212","lat":"31.177307","category":"162","category_name":"医院","address":"制造局路639号"},{"poiid":"B2094654DA65ABFB409B","title":"上海汇忠霓虹灯光工程有限公司","lon":"121.46183","lat":"31.16026","category":"263","category_name":"公司","address":"龙水南路95-18"},{"poiid":"B2094655D26BA5FD4399","title":"鑫龙苑二期","lon":"121.456","lat":"31.1641","category":"47","category_name":"住宅区","address":"上海市徐汇区龙吴路515号"},{"poiid":"B2094753D668A2F8429E","title":"虹口龙之梦","lon":"121.481583","lat":"31.17323","category":"500","category_name":"未知分类","address":"上海市 虹口区"},{"poiid":"B2094757DB6CA5F8469F","title":"世博园区","lon":"121.4741098971819","lat":"31.1762945128317","category":"500","category_name":"未知分类","address":"婚博会"},{"poiid":"B2094757DA6AA5F8419B","title":"昌里路","lon":"121.4558120285802","lat":"31.166104679025","category":"500","category_name":"未知分类","address":"昌里路"},{"poiid":"B2094654DA65ABFA499E","title":"长风汽车修理厂","lon":"121.46169","lat":"31.15953","category":"159","category_name":"汽车维修","address":"龙水南路95-11"},{"poiid":"B2094750DA65A3FF4898","title":"徐汇滨江","lon":"121.467994","lat":"31.181165","category":"47","category_name":"住宅区","address":null},{"poiid":"B2094654DA6DABF54793","title":"金龙花苑梅花园","lon":"121.45402","lat":"31.16789","category":"47","category_name":"住宅区","address":"丰谷路220弄1-17号"},{"poiid":"B2094757D16FA4FD459A","title":"民航上海中专食堂","lon":"121.45469","lat":"31.16911","category":"68","category_name":"快餐厅","address":"徐汇区龙华西路1号龙华机场内(丰谷路龙华西路)"},{"poiid":"B2094753D568A6FA499E","title":"五角场","lon":"121.47554","lat":"31.158193","category":"500","category_name":"未知分类","address":"上海市 万达广场"},{"poiid":"B2094655D26FAAF4449A","title":"金龙花苑牡丹园(西门)","lon":"121.45526","lat":"31.16689","category":"47","category_name":"住宅区","address":""},{"poiid":"B209475CD26FA6F84999","title":"虹桥机场","lon":"121.47599","lat":"31.1581","category":"500","category_name":"未知分类","address":"上海市 虹桥机场"},{"poiid":"B209475CD164A1F5429B","title":"上海希尔顿酒店","lon":"121.47602","lat":"31.158111","category":"500","category_name":"未知分类","address":"上海市 上海静安区华山路250"},{"poiid":"B2094757D16DA0FB4799","title":"沫府","lon":"121.48142473","lat":"31.167577966","category":"247","category_name":"餐饮美食","address":"上海市浦东新区耀华路"},{"poiid":"B2094753D56CA4F94093","title":"徐家汇","lon":"121.47554","lat":"31.158201","category":"500","category_name":"未知分类","address":"上海市 南丹东路"},{"poiid":"B2094757D16AA3FF469C","title":"早餐很重要！","lon":"121.47877893","lat":"31.17062143","category":"500","category_name":"未知分类","address":"上海饭桌边"},{"poiid":"B209475CD16FA1FF479E","title":"复旦大学江湾校区","lon":"121.47602","lat":"31.158115","category":"500","category_name":"未知分类","address":"上海市 上海淞沪路"},{"poiid":"B2094655D264ABFB499A","title":"快客","lon":"121.45603","lat":"31.17017","category":"117","category_name":"便民商店/便利店","address":"丰谷路191"},{"poiid":"B2094753D76DA7F9419F","title":"上海南站","lon":"121.475532","lat":"31.15818","category":"500","category_name":"未知分类","address":"上海市 上海南站"},{"poiid":"B2094654DB6BA5F5469D","title":"龙华苑","lon":"121.458","lat":"31.1738","category":"47","category_name":"住宅区","address":"龙华机场新村34-61号"},{"poiid":"B2094654DA68A2F4419D","title":"耀华幼儿园","lon":"121.48131","lat":"31.17114","category":"57","category_name":"幼儿园","address":"浦东新区耀华路550弄1号"},{"poiid":"B2094655D265A7F9439A","title":"百汇园(南一门)","lon":"121.46152","lat":"31.17142","category":"656","category_name":"大门","address":""},{"poiid":"B2094750DA6DA4FC409D","title":"中国民用航空上海民航职业技术学院","lon":"121.455337","lat":"31.170598","category":"253","category_name":"校园生活","address":null},{"poiid":"B2094757D06FA7FE4999","title":"梅龙镇新都会","lon":"121.48346923","lat":"31.164926209","category":"119","category_name":"商场","address":"上海闵行区莲花南路1500号(银都路口)  "},{"poiid":"B2094752D56AABF44693","title":"世博展览馆","lon":"121.476251","lat":"31.172501","category":"627","category_name":"一般地点标志","address":null},{"poiid":"B2094757D068AAFC409C","title":"东方体育大厦","lon":"121.478506075","lat":"31.1553712705","category":"46","category_name":"楼宇","address":"上海市泳耀路300号(近耀龙路)"},{"poiid":"B2094753D765A6F8419B","title":"文华东方大酒店","lon":"121.476005","lat":"31.158102","category":"500","category_name":"未知分类","address":"上海市 浦东南路111号"},{"poiid":"B2094655D26FAAF4439C","title":"金龙花苑茶花园(北门)","lon":"121.45642","lat":"31.17012","category":"47","category_name":"住宅区","address":""},{"poiid":"B2094655D26FA5FF409F","title":"联城花苑","lon":"121.48121","lat":"31.17263","category":"47","category_name":"住宅区","address":"耀华路555弄1-18号"},{"poiid":"B2094757D168A6FB4298","title":"百匯園25號502室 小邀畫室","lon":"121.459506738","lat":"31.1724820704","category":"500","category_name":"未知分类","address":"上海市徐汇区龙恒路"},{"poiid":"B2094752DB68A3F94398","title":"博大汽车公园","lon":"121.470067","lat":"31.1769","category":"500","category_name":"未知分类","address":"上海市 国展路189号"},{"poiid":"B2094757D66EA7FB4793","title":"明珠花苑","lon":"121.483440238","lat":"31.1681748788","category":"47","category_name":"住宅区","address":"上海市浦东新区西营路106号"},{"poiid":"B2094753D465A7FF4698","title":"福州路集邮专卖店","lon":"121.476028","lat":"31.158124","category":"249","category_name":"购物服务","address":"上海市 上海市黄浦区福州路333号"},{"poiid":"B2094757D169ABFE409F","title":"上海第四机动车检测站","lon":"121.45682203","lat":"31.171134041","category":"500","category_name":"未知分类","address":"上海云锦路丰谷路口"},{"poiid":"B2094654DA6DAAFC4092","title":"光明乳业石龙配送站","lon":"121.45722","lat":"31.17314","category":"117","category_name":"便民商店/便利店","address":""},{"poiid":"B2094757D168A7FC4592","title":"梅园苏州汤包","lon":"121.482812538","lat":"31.1687178904","category":"247","category_name":"餐饮美食","address":"上海西营路56号"},{"poiid":"B2094750DA6BA2FA499B","title":"中国商飞民用飞机试飞中心","lon":"121.457092","lat":"31.173355","category":"263","category_name":"公司","address":"云锦路5号"},{"poiid":"B2094757D069A6FE459C","title":"德州路420弄","lon":"121.481666","lat":"31.167469","category":"500","category_name":"未知分类","address":"上海济阳一村"},{"poiid":"B2094757D16BA7FF4192","title":"上海交通职业技术学院南校区寝室楼","lon":"121.45696673","lat":"31.172769076","category":"500","category_name":"未知分类","address":"上海市龙华西路1号"},{"poiid":"B2094654DA6DAAFC4093","title":"新徐汇幼儿园","lon":"121.45671","lat":"31.17332","category":"57","category_name":"幼儿园","address":"徐汇区云锦路80弄10号龙华飞机场内"},{"poiid":"B2094654DA68A2F4459C","title":"重庆鸡公煲德州店","lon":"121.4834","lat":"31.16675","category":"257","category_name":"中餐厅","address":"德州路409-1临"},{"poiid":"B2094655D264ABF94798","title":"百汇园(南门)","lon":"121.46052","lat":"31.17132","category":"656","category_name":"大门","address":"宛平南路1518弄15-16号、22-29号"},{"poiid":"B2094753D26AAAFD4392","title":"巴黎春天","lon":"121.478516","lat":"31.174197","category":"500","category_name":"未知分类","address":"上海市 浦东新区成山路"},{"poiid":"B2094654DB6BA5F54699","title":"融金KTV会所","lon":"121.45452","lat":"31.16937","category":"170","category_name":"KTV","address":"龙华西路1号4层"},{"poiid":"B209475CD769A0FF439A","title":"墨西哥艺术中心","lon":"121.479209","lat":"31.173645","category":"500","category_name":"未知分类","address":"上海市 上海市世博园国展路410号"},{"poiid":"B2094757D16FA2FD499D","title":"家里~","lon":"121.454508738","lat":"31.1667419483","category":"500","category_name":"未知分类","address":null},{"poiid":"B2094654DA68A6FA419E","title":"联城花苑(南门)","lon":"121.4812","lat":"31.17238","category":"47","category_name":"住宅区","address":"耀华路555弄1-18号"},{"poiid":"B2094750DB6CA5FD4992","title":"中华艺术宫","lon":"121.455485","lat":"31.172717","category":"500","category_name":"未知分类","address":null},{"poiid":"B2094752D265A7F4479B","title":"法华学问寺","lon":"121.47398","lat":"31.154162","category":"250","category_name":"公园户外","address":"上海市华夏西路"},{"poiid":"B2094655D265A7FD459C","title":"龙华壹号KTV","lon":"121.45453","lat":"31.16937","category":"170","category_name":"KTV","address":"龙华西路1"},{"poiid":"B2094654DA6DAAFC419D","title":"东华大学职业技术学院","lon":"121.45515","lat":"31.17076","category":"54","category_name":"职业技术学校","address":""},{"poiid":"B2094757D168A3FC489F","title":"来伊份(德州路店)","lon":"121.48338","lat":"31.16609","category":"500","category_name":"未知分类","address":"浦东新区德州路325-327号(近长清路)"},{"poiid":"B2094757D16DA5F54692","title":"极度不爽！！！","lon":"121.4564367","lat":"31.162201046","category":"500","category_name":"未知分类","address":"上海！！！！"},{"poiid":"B2094655D265A6F94899","title":"济阳二村(南门)","lon":"121.48338","lat":"31.16673","category":"47","category_name":"住宅区","address":"德州路421弄1-32号"},{"poiid":"B2094655D268A3FE4192","title":"济阳二村(北门)","lon":"121.48165","lat":"31.17191","category":"47","category_name":"住宅区","address":"耀华路550弄"},{"poiid":"B2094757D169AAFE479F","title":"耀龙路","lon":"121.468658447","lat":"31.1781234741","category":"500","category_name":"未知分类","address":"上海耀龙路"},{"poiid":"B2094654DA68A2F44598","title":"博峰宾馆","lon":"121.48302","lat":"31.16667","category":"250","category_name":"公园户外","address":"浦东新区德州路425"},{"poiid":"B2094655D268A5FB469B","title":"金龙花苑梅花园(东门)","lon":"121.45413","lat":"31.16814","category":"47","category_name":"住宅区","address":""},{"poiid":"B2094654DA68A2F4459E","title":"亚萍便利店","lon":"121.48313","lat":"31.16669","category":"117","category_name":"便民商店/便利店","address":""},{"poiid":"B2094757D164AAFD4092","title":"黄龙体育馆","lon":"121.481685738","lat":"31.1694940069","category":"220","category_name":"运动场所","address":"杭州黄龙体育馆"},{"poiid":"B2094752D46AA2F44199","title":"上海云峰徐汇汽车销售服务有限公司","lon":"121.456797","lat":"31.161089","category":"158","category_name":"汽车销售","address":"徐汇区龙吴路580号(龙水南路罗城路)"},{"poiid":"B2094753D469A3FF4398","title":"水蜜儿","lon":"121.458892","lat":"31.17468","category":"500","category_name":"未知分类","address":"上海市 百脑汇B1"},{"poiid":"B2094757D16EA3FD469E","title":"shihao's home","lon":"121.48156373","lat":"31.169370004","category":"500","category_name":"未知分类","address":"上海市浦东新区"},{"poiid":"B2094655D26FA1FE4699","title":"联华超市(德州路)","lon":"121.48352","lat":"31.16679","category":"118","category_name":"超级市场","address":"德州路409-1临"},{"poiid":"B2094752D469A7F9479D","title":"2062新能源主题公园","lon":"121.4704194","lat":"31.1804502","category":"250","category_name":"公园户外","address":"塘子泾路191号"},{"poiid":"B2094757D16DA1FC469D","title":"世博廁所","lon":"121.46837616","lat":"31.1779270172","category":"253","category_name":"校园生活","address":"上海世博"},{"poiid":"B2094655D26BA3FF409B","title":"龙华汽配城","lon":"121.45909","lat":"31.15531","category":"116","category_name":"特色商业街","address":"徐汇区龙水南路201号;;"},{"poiid":"B209475CD668A5F84793","title":"徐汇滨江","lon":"121.472816","lat":"31.179346","category":"47","category_name":"住宅区","address":"上海市 龙腾大道"},{"poiid":"B2094654DA65ABFA469E","title":"上海市交通安全教育学校徐汇分部","lon":"121.46116","lat":"31.15591","category":"253","category_name":"校园生活","address":"徐汇区龙水南路60号"},{"poiid":"B2094757D064A4FD4299","title":"Yvett's","lon":"121.4565527","lat":"31.1605922","category":"500","category_name":"未知分类","address":"上海龙耀路喜泰路"},{"poiid":"B2094654DA6DAAFC409A","title":"龙华邮政支局","lon":"121.45594","lat":"31.16952","category":"248","category_name":"生活娱乐","address":"徐汇区丰谷路205弄7号甲"},{"poiid":"B2094750DB68AAFB469E","title":"新天地时尚","lon":"121.461364","lat":"31.177936","category":"500","category_name":"未知分类","address":null},{"poiid":"B2094654DA65ABFA469D","title":"云峰集团上海云峰石油有限公司","lon":"121.46141","lat":"31.15608","category":"263","category_name":"公司","address":"龙水南路60"},{"poiid":"B2094655D264ABF9479B","title":"百汇园(西门)","lon":"121.45941","lat":"31.17274","category":"656","category_name":"大门","address":"龙华镇"},{"poiid":"B2094655D26FAAF44398","title":"济阳公园(侧门)","lon":"121.48013","lat":"31.1676","category":"656","category_name":"大门","address":""},{"poiid":"B2094655D26FA7FB489B","title":"济阳公园(北门)","lon":"121.47911","lat":"31.17045","category":"656","category_name":"大门","address":""},{"poiid":"B2094757D165A7FA4098","title":"威尔造型","lon":"121.457189738","lat":"31.1732790874","category":"148","category_name":"美容美发店","address":"上海云锦路84号"},{"poiid":"B2094750D768ABF8449B","title":"查尔斯咖啡","lon":"121.462","lat":"31.1773","category":"260","category_name":"其他","address":"徐汇区龙腾大道3036号"},{"poiid":"B2094757D16EA6FD4092","title":"民航中专实训楼","lon":"121.454522","lat":"31.169372","category":"500","category_name":"未知分类","address":"上海徐汇区龙华西路一号"},{"poiid":"B2094757D66DA3FB4999","title":"世博二号物流仓库","lon":"121.471099854","lat":"31.1786327362","category":"500","category_name":"未知分类","address":"上海后滩八号门"},{"poiid":"B2094757D568AAFB489B","title":"全家(后滩路)","lon":"121.47403537","lat":"31.17884006","category":"117","category_name":"便民商店/便利店","address":"上海世博园区"},{"poiid":"B2094757D064A7F5409F","title":"汇萃坊","lon":"121.48333","lat":"31.16627","category":"500","category_name":"未知分类","address":"上海浦东新区德州路427号(近西营路)  "},{"poiid":"B2094757D66FA7F4469D","title":"万千宠爱宠物乐园","lon":"121.45453873","lat":"31.168107977","category":"500","category_name":"未知分类","address":"上海丰谷路249号"},{"poiid":"B2094757D16BA3F8499B","title":"西营南路新华苑","lon":"121.454342586","lat":"31.1649161545","category":"500","category_name":"未知分类","address":"上海西营南路"},{"poiid":"B2094655D26CAAFD4398","title":"济阳公园(西门)","lon":"121.48055","lat":"31.16646","category":"656","category_name":"大门","address":""},{"poiid":"B2094757D06BA0F94998","title":"标致4S店","lon":"121.460362","lat":"31.155678","category":"500","category_name":"未知分类","address":"上海龙水南路201号"},{"poiid":"B2094655D26EAAFF409D","title":"侨泰高尔夫俱乐部","lon":"121.45411","lat":"31.1701","category":"206","category_name":"高尔夫相关","address":"徐汇区龙华西路1号侨泰高尔夫练习场"},{"poiid":"B2094654DA6DAAFC409C","title":"上飞新村","lon":"121.464091","lat":"31.179351","category":"47","category_name":"住宅区","address":"徐汇区云锦路185弄1-13号"},{"poiid":"B2094752D364A3F44293","title":"新四季大酒店","lon":"121.480079","lat":"31.175937","category":"76","category_name":"上海菜","address":"浦东新区耀华路385号(长清路站地铁口)"},{"poiid":"B2094757D66CA5FC449C","title":"农工商西营路店","lon":"121.48288843","lat":"31.169001696","category":"500","category_name":"未知分类","address":"浦东新区西营路98号(成山路西营路)"},{"poiid":"B2094655D265A5F54293","title":"上海森那美汽车维修服务有限公司","lon":"121.46002","lat":"31.15598","category":"158","category_name":"汽车销售","address":"龙水南路201号2幢"},{"poiid":"B2094757D569A3FE499D","title":"德州干货行","lon":"121.483215","lat":"31.166389","category":"255","category_name":"专卖店","address":"德州路422"},{"poiid":"B2094757D569A3F5479C","title":"jack狂派车贴车模店","lon":"121.4601819","lat":"31.15618806","category":"249","category_name":"购物服务","address":"徐汇区龙水南路201号龙南汽配汽车用品城20栋12号(近吴中路)"},{"poiid":"B2094757D66DA2F4429C","title":"世博园B片区","lon":"121.470866","lat":"31.181044","category":"500","category_name":"未知分类","address":"上海世博园内"},{"poiid":"B2094752D56CA3FD4892","title":"博大汽车公园","lon":"121.470101","lat":"31.180778","category":"250","category_name":"公园户外","address":"国展路后滩路"},{"poiid":"B2094757D66CA5F4429F","title":"上海铭铜品牌策划有限公司","lon":"121.465512938","lat":"31.1768965644","category":"260","category_name":"其他","address":"上海浦东新区耀龙路190号(世博冰雕艺术园)"},{"poiid":"B209475CD264A3F5469F","title":"上海地铁11号线龙耀路站","lon":"121.462966","lat":"31.153446","category":"500","category_name":"未知分类","address":"上海市 上海市徐汇区龙耀路"},{"poiid":"B2094757D169AAFC489C","title":"龙华路","lon":"121.45602473","lat":"31.174308109","category":"500","category_name":"未知分类","address":"上海龙兆苑"},{"poiid":"B2094750DB68ABF44999","title":"后滩公园","lon":"121.470046","lat":"31.180978","category":"196","category_name":"公园","address":null},{"poiid":"B2094655D265A1F94398","title":"中心广场(巴西馆西)","lon":"121.47553","lat":"31.17951","category":"201","category_name":"城市广场","address":"上海世博园区"},{"poiid":"B2094655D26FAAF44399","title":"济阳一村(侧门)","lon":"121.48165","lat":"31.16597","category":"656","category_name":"大门","address":""},{"poiid":"B2094654DB6BABFF429D","title":"济阳三村(南门)(德州路)","lon":"121.48159","lat":"31.16629","category":"656","category_name":"大门","address":"德州路465弄"},{"poiid":"B2094757D568A6F9449F","title":"老李足浴","lon":"121.4594833","lat":"31.15536222","category":"149","category_name":"洗浴推拿场所","address":"龙水南路200号"},{"poiid":"B2094757D66EA4F8479C","title":"团购","lon":"121.47294573","lat":"31.179820226","category":"500","category_name":"未知分类","address":"上海团购"},{"poiid":"B2094654DB65A1F54898","title":"济阳三村(南门)(博峰宾馆西南)","lon":"121.48252","lat":"31.16654","category":"656","category_name":"大门","address":""},{"poiid":"B2094655D26FA7F94898","title":"济阳一村(北门)","lon":"121.48258","lat":"31.16621","category":"656","category_name":"大门","address":"德州路436号"},{"poiid":"B2094752D06BABFE489F","title":"商城路","lon":"121.480804","lat":"31.172869","category":"627","category_name":"一般地点标志","address":null},{"poiid":"B2094757D16EA0F9439B","title":"世界游泳百年回顾展展厅","lon":"121.47775573","lat":"31.155700713","category":"260","category_name":"其他","address":"上海市浦东新区耀体路 东方体育中心 玉兰桥内"}]