[{"poiid":"B2094757D06FA1FA469A","title":"龙华烈士陵园","lon":"121.44877","lat":"31.17546","category":"620","category_name":"丧葬","address":"徐汇区龙华西路180号(近龙华路)"},{"poiid":"B2094757D66DA6FB459A","title":"天华科技信息园","lon":"121.45","lat":"31.1771","category":"500","category_name":"未知分类","address":"上海市徐汇区漕东支路"},{"poiid":"B2094655D36CA1F84493","title":"龙华","lon":"121.4447","lat":"31.17314","category":"38","category_name":"公交车站","address":""},{"poiid":"B2094757D06FA1FE409E","title":"宋记香辣蟹(天钥桥路店)","lon":"121.44487","lat":"31.17894","category":"71","category_name":"四川菜","address":"徐汇区天钥桥路898号(近中山南二路)"},{"poiid":"B2094757D06FA4FA4792","title":"花园酒楼 龙华店","lon":"121.4508068482","lat":"31.172764130042","category":"75","category_name":"浙江菜","address":"徐汇区龙华西路109号(龙华寺对面)"},{"poiid":"B2094654DA6DA7FE4292","title":"2577创意大院","lon":"121.45108","lat":"31.17846","category":"45","category_name":"产业园区","address":"徐汇区龙华路2577号(近龙华寺)"},{"poiid":"B2094655D265A0FA489E","title":"D1国际创意空间","lon":"121.44582","lat":"31.17874","category":"45","category_name":"产业园区","address":"上海徐汇区天钥桥路909号"},{"poiid":"B2094654DB69A5FF439A","title":"莫泰168连锁旅店(天钥桥路店)","lon":"121.44567","lat":"31.1791","category":"216","category_name":"经济型连锁酒店","address":"上海市徐汇区天钥桥路909号（近中山南二路）"},{"poiid":"B2094751DA65A1FF4693","title":"新奢奢侈品护理","lon":"121.446152","lat":"31.17868","category":"249","category_name":"购物服务","address":"天钥桥路909号D1国际创意空间3号楼218室"},{"poiid":"B2094753D569ABFC439D","title":"上海八万人体育场","lon":"121.445259","lat":"31.178665","category":"500","category_name":"未知分类","address":"上海市 上海八万人体育场"},{"poiid":"B2094654DA6DA7FE4992","title":"龙华烈士纪念馆(3号门)","lon":"121.44662","lat":"31.17637","category":"680","category_name":"楼宇机构","address":"天钥桥路1155"},{"poiid":"B2094750DB6BA1F4479D","title":"宜家家居IKEA","lon":"121.443565","lat":"31.17851","category":"249","category_name":"购物服务","address":"漕溪北路中山西路"},{"poiid":"B2094655D265A3F8499C","title":"汉庭快捷酒店上海万体馆南店","lon":"121.44645","lat":"31.1739","category":"216","category_name":"经济型连锁酒店","address":"徐汇区零陵路789弄19号(近漕溪北路)"},{"poiid":"B2094654DA6DA2F9439C","title":"宏润大厦","lon":"121.448","lat":"31.1757","category":"46","category_name":"楼宇","address":"北一环与亳州路交叉口(庐阳区政府对面)"},{"poiid":"B2094757D06FAAF8459F","title":"徐汇苑","lon":"121.44469","lat":"31.176945","category":"47","category_name":"住宅区","address":"上海市徐汇区天钥桥路968号"},{"poiid":"B2094654DA6DA7FD449A","title":"上海市城市建设工程学校","lon":"121.44886","lat":"31.17233","category":"54","category_name":"职业技术学校","address":"上海龙水北路999号"},{"poiid":"B2094654DB6BA5FA4398","title":"月亮湾酒家","lon":"121.44524","lat":"31.17872","category":"257","category_name":"中餐厅","address":"徐汇区天钥桥路909号(近中山南二路)"},{"poiid":"B2094655D26EA0F5479B","title":"上缝小区","lon":"121.44619","lat":"31.173052","category":"47","category_name":"住宅区","address":"龙华西路285弄2-30号"},{"poiid":"B2094753D76CABFD4698","title":"上上签串串香火锅","lon":"121.446235","lat":"31.175706","category":"247","category_name":"餐饮美食","address":"上海市 龙华西路585号(近中山南二路)"},{"poiid":"B2094757D66DA1F4499A","title":"龙华寺斋堂","lon":"121.451551586","lat":"31.1751613546","category":"500","category_name":"未知分类","address":"上海龙华寺内"},{"poiid":"B2094654DA6DA7FE499D","title":"龙华烈士陵园(3号门)","lon":"121.44663","lat":"31.17638","category":"250","category_name":"公园户外","address":"天钥桥路1155"},{"poiid":"B2094654DB65A4FC4392","title":"神舟商旅酒店(上海徐汇店)","lon":"121.44316","lat":"31.17587","category":"250","category_name":"公园户外","address":"上海市徐汇区龙华西路501号(近中山南二路)"},{"poiid":"B2094654DA6DA7FE4893","title":"上海师大附中附属龙华中学","lon":"121.44607","lat":"31.17425","category":"55","category_name":"中学","address":"上海龙华西路292号"},{"poiid":"B2094757D069AAF44792","title":"Very  CD","lon":"121.446434021","lat":"31.1764907837","category":"46","category_name":"楼宇","address":"上海天钥桥路909号D1国际创意空间"},{"poiid":"B2094654DA6DA7FF4098","title":"新惠宾馆","lon":"121.44573","lat":"31.17825","category":"250","category_name":"公园户外","address":"徐汇区天钥桥路1001号"},{"poiid":"B2094753D56CA0FB4898","title":"上上谦串串香火锅旗舰店","lon":"121.445762","lat":"31.175743","category":"247","category_name":"餐饮美食","address":"上海市龙华西路 585号 华富大厦 B座1F"},{"poiid":"B2094757D065A4FE4893","title":"吴江路生煎 (龙华西路店)","lon":"121.448254155","lat":"31.1732468896","category":"68","category_name":"快餐厅","address":"徐汇区龙华西路9号(近龙恒路44路下客站)"},{"poiid":"B2094655D264AAF84798","title":"徐汇苑酒店式公寓","lon":"121.44482","lat":"31.17756","category":"250","category_name":"公园户外","address":""},{"poiid":"B2094654DA6DA7FF4199","title":"宛南六村","lon":"121.44566","lat":"31.179573","category":"47","category_name":"住宅区","address":"上海天钥桥路905弄"},{"poiid":"B2094750D16BA5F8489B","title":"非洲国际","lon":"121.446037","lat":"31.179267","category":"252","category_name":"楼宇机构","address":null},{"poiid":"B2094757D064A1F9409A","title":"强生花苑","lon":"121.44524","lat":"31.176025","category":"252","category_name":"楼宇机构","address":"上海市徐汇区龙华西路398号"},{"poiid":"B2094757D169A6F9469F","title":"环球实业大厦","lon":"121.446751586","lat":"31.1758363677","category":"252","category_name":"楼宇机构","address":"上海市徐汇区龙华西路"},{"poiid":"B2094757D06FA1FF479F","title":"天华信息科技园","lon":"121.44504547","lat":"31.17243576","category":"500","category_name":"未知分类","address":"上海市徐汇区龙田路190号"},{"poiid":"B2094750D164A7F9469B","title":"7天连锁酒店上海万体馆店","lon":"121.44309706986","lat":"31.174478910449","category":"216","category_name":"经济型连锁酒店","address":"上海市徐汇区龙华西路315弄"},{"poiid":"B2094757D069A1FD439E","title":"姑苏邨","lon":"121.44552307288","lat":"31.176713112403","category":"68","category_name":"快餐厅","address":"徐汇区天钥桥路909号(近中山南二路)"},{"poiid":"B2094757D16EAAFA4398","title":"白玉兰茶餐厅","lon":"121.44619558","lat":"31.173788327","category":"68","category_name":"快餐厅","address":"徐汇区龙华西路286号(近龙华中学)"},{"poiid":"B2094654DA6DA7FE499F","title":"龙华烈士陵园(2号门)","lon":"121.44759","lat":"31.17519","category":"680","category_name":"楼宇机构","address":"天钥桥路1501号"},{"poiid":"B2094655D265A5FB409C","title":"湖南乡村风味","lon":"121.4473","lat":"31.17489","category":"87","category_name":"特色／地方风味餐厅","address":"徐汇区中山南二路969号"},{"poiid":"B2094757D568A6FA419B","title":"中国工商银行(天钥桥路)","lon":"121.44682834","lat":"31.17548475","category":"150","category_name":"银行","address":"中国上海市徐汇区天钥桥路"},{"poiid":"B2094654DA6DA7FE499E","title":"龙华烈士纪念馆(2号门)","lon":"121.44759","lat":"31.17519","category":"250","category_name":"公园户外","address":"天钥桥路1501号"},{"poiid":"B2094655D268A7F8479B","title":"龙华新村小区","lon":"121.4463","lat":"31.17778","category":"47","category_name":"住宅区","address":""},{"poiid":"B2094757D169A5F54092","title":"中国电信天钥桥分局","lon":"121.447242586","lat":"31.1750973533","category":"500","category_name":"未知分类","address":"上海天钥桥路1180号"},{"poiid":"B2094757D16DA6FE4793","title":"宛平医院","lon":"121.449437","lat":"31.180191","category":"162","category_name":"医院","address":"上海双峰路446号"},{"poiid":"B2094751D469A6FF469C","title":"龙华地段医院","lon":"121.445136","lat":"31.175706","category":"162","category_name":"医院","address":"龙华西路"},{"poiid":"B2094757D068A5F8499E","title":"三夫户外用品(天钥桥路店)","lon":"121.44465","lat":"31.17978","category":"140","category_name":"体育用品店","address":"徐汇区天钥桥路859号北海大厦2楼(近零陵路)"},{"poiid":"B2094654DB65A1FC4998","title":"中国电信南区电信局","lon":"121.44496","lat":"31.17814","category":"263","category_name":"公司","address":"天钥桥路980号"},{"poiid":"B2094654DA6DA7F8479B","title":"枫林街道社区卫生服务中心","lon":"121.4493","lat":"31.18004","category":"162","category_name":"医院","address":"徐汇区双峰路450号(近中山南二路)"},{"poiid":"B2094655D26FA4F8479E","title":"上海金佳快捷酒店","lon":"121.44843","lat":"31.17407","category":"250","category_name":"公园户外","address":"徐汇区天钥桥路1885号(近龙华西路)"},{"poiid":"B2094757D064A7F44093","title":"友联生煎(龙华西路店)","lon":"121.44634","lat":"31.1736","category":"68","category_name":"快餐厅","address":"徐汇区龙华西路284号龙华中学旁(近龙吴路)"},{"poiid":"B2094757D66DA3FF419A","title":"上海领先体育投资管理有限公司","lon":"121.44628216","lat":"31.176338893","category":"263","category_name":"公司","address":"上海市徐汇区天钥桥路1121弄1号"},{"poiid":"B2094757D568ABFB469B","title":"华氏大药房六百店","lon":"121.4455656","lat":"31.17746917","category":"162","category_name":"医院","address":"天钥桥路1068号"},{"poiid":"B2094757D16CA3FC409B","title":"鼎中鼎万体馆店","lon":"121.44844453","lat":"31.177118726","category":"500","category_name":"未知分类","address":"上海万体馆南侧"},{"poiid":"B2094654DA6DA7FD419A","title":"徐汇区疾病预防控制精神卫生分中心","lon":"121.44708","lat":"31.17323","category":"162","category_name":"医院","address":"龙华西路249-251"},{"poiid":"B2094757D065A7FD439D","title":"万周线—万体馆—起点终点站","lon":"121.44598628","lat":"31.176271623","category":"500","category_name":"未知分类","address":"上海漕溪路公交枢纽站"},{"poiid":"B2094757D66BA4FD489A","title":"早阳汤包 龙华西路店","lon":"121.449268","lat":"31.173315","category":"68","category_name":"快餐厅","address":"徐汇区龙华西路252号(近天钥桥路)"},{"poiid":"B2094655D268A6FE439D","title":"龙华新村小区(西门)","lon":"121.4456","lat":"31.17772","category":"47","category_name":"住宅区","address":""},{"poiid":"B2094655D26BA4FF439A","title":"上水市南公司天钥桥路营业站","lon":"121.44647","lat":"31.17591","category":"219","category_name":"其他","address":"天钥桥路1164"},{"poiid":"B2094655D26FAAF9419D","title":"上海市宛平中学","lon":"121.44718","lat":"31.17884","category":"55","category_name":"中学","address":"徐汇区宛南六村46号(近天钥桥路)"},{"poiid":"B2094757D069A0FB489B","title":"Ethan Hotel","lon":"121.445822","lat":"31.176225","category":"217","category_name":"旅馆招待所","address":"上海龙华西路398弄"},{"poiid":"B2094655D26FA3FB449F","title":"得意咖啡馆(天钥桥路)","lon":"121.44843","lat":"31.17407","category":"65","category_name":"咖啡厅","address":"徐汇区天钥桥路1885号"},{"poiid":"B2094654DA6DA7FE4793","title":"上海市电信有限公司南区电信局天钥电话站","lon":"121.44718","lat":"31.17506","category":"263","category_name":"公司","address":"天钥桥路1180"},{"poiid":"B209475CDB6EA1FF479D","title":"上海徐汇体育场和颐酒店","lon":"121.4430535","lat":"31.17621498","category":"214","category_name":"四星级宾馆","address":"上海市徐汇区龙华西路515号(航天神州大厦旁)"},{"poiid":"B2094654DA6DA7FF409C","title":"喜士多便利连锁(天钥桥路)","lon":"121.44519","lat":"31.17903","category":"117","category_name":"便民商店/便利店","address":"徐汇区天钥桥路907号"},{"poiid":"B2094757D469A0F5449A","title":"程新双峰小吃","lon":"121.44896415472","lat":"31.180590560618","category":"68","category_name":"快餐厅","address":"徐汇区双峰路双峰街市旁"},{"poiid":"B2094757D16EA0FD409C","title":"日月明大食堂(天钥桥路店)","lon":"121.4487","lat":"31.1738","category":"260","category_name":"其他","address":"徐汇区天钥桥路1887号(近龙华西路)"},{"poiid":"B2094757D665ABF94699","title":"豪大大台湾大鸡排 龙华店","lon":"121.44822","lat":"31.17298","category":"68","category_name":"快餐厅","address":"徐汇区龙水北路1014号(龙水北路天钥桥路)"},{"poiid":"B2094757D068A5FF499D","title":"艳阳红涮肉馆","lon":"121.44558","lat":"31.18003","category":"86","category_name":"火锅店","address":"徐汇区中山南二路999号(近天钥桥路)"},{"poiid":"B2094757D16CA1FB4498","title":"87路终点站","lon":"121.44852858","lat":"31.174704345","category":"500","category_name":"未知分类","address":"上海龙华"},{"poiid":"B2094654DA6DA7FE499B","title":"大脚丫鞋类批发城(天钥桥路)","lon":"121.44837","lat":"31.17423","category":"141","category_name":"服装鞋帽皮具店","address":"天钥桥路1881"},{"poiid":"B2094757D16AA3F4429E","title":"衡山路梧桐道","lon":"121.444138086","lat":"31.17799901","category":"500","category_name":"未知分类","address":"上海衡山路"},{"poiid":"B2094655D26AAAFC499E","title":"无形艺术陶艺中心","lon":"121.45136","lat":"31.17862","category":"87","category_name":"特色／地方风味餐厅","address":"徐汇区龙华路2577号创意大院12号(近龙华寺)"},{"poiid":"B2094654DA6DA7FD459A","title":"龙华烈士纪念馆(1号门)","lon":"121.4504","lat":"31.17352","category":"680","category_name":"楼宇机构","address":"龙华西路180"},{"poiid":"B2094757D169A4FC4299","title":"徐汇苑健身会所","lon":"121.44497","lat":"31.17836","category":"148","category_name":"美容美发店","address":"徐汇区天钥桥路968号"},{"poiid":"B2094752D66EA7FD409F","title":"徐匯苑","lon":"121.444931","lat":"31.178375","category":"47","category_name":"住宅区","address":null},{"poiid":"B2094655D269AAFB449C","title":"DREAMBOX摄影会所","lon":"121.4453","lat":"31.17861","category":"247","category_name":"餐饮美食","address":"徐汇区天钥桥路909号D1国际创意空间3号楼301室(近中山南二路)"},{"poiid":"B2094655D26FABF5469B","title":"龙华西路309弄小区(东门)","lon":"121.44441","lat":"31.17445","category":"47","category_name":"住宅区","address":"龙华西路309弄2-3、5-8号"},{"poiid":"B2094655D26AA7FF4298","title":"云裳室内设计","lon":"121.4453","lat":"31.17861","category":"247","category_name":"餐饮美食","address":"徐汇区天钥桥路909号1号楼2楼(近中山南二路)"},{"poiid":"B2094757D06BA6FF4999","title":"中国石化加油站","lon":"121.44554507","lat":"31.173531862","category":"154","category_name":"加油加气站","address":"上海龙吴路2号近龙华西路"},{"poiid":"B2094654DB65A3FF449E","title":"好德No.238","lon":"121.44566","lat":"31.17351","category":"117","category_name":"便民商店/便利店","address":"龙华西路297识别"},{"poiid":"B2094655D26FABFE4798","title":"上海市城市建设工程学校(西门)","lon":"121.44873","lat":"31.17294","category":"678","category_name":"学校大门","address":"龙水北路999"},{"poiid":"B2094654DB6BA5FA409D","title":"快客龙华西路店","lon":"121.44777","lat":"31.17322","category":"117","category_name":"便民商店/便利店","address":""},{"poiid":"B2094757D064A6FB4892","title":"龙华街道社区卫生服务中心","lon":"121.447087","lat":"31.17324","category":"500","category_name":"未知分类","address":"上海龙华西路249号"},{"poiid":"B2094757D16DA3F8499D","title":"龙华中学","lon":"121.44716","lat":"31.173487","category":"253","category_name":"校园生活","address":"徐汇区龙华西路292号(近龙吴路)"},{"poiid":"B2094654DA6DA1FE4899","title":"沪大国际外语学院徐汇校区","lon":"121.44387","lat":"31.17488","category":"52","category_name":"高等院校","address":"龙华西路323"},{"poiid":"B2094753D56EA2FE4199","title":"龙华寺三尺精舍","lon":"121.448318","lat":"31.179548","category":"244","category_name":"寺庙道观","address":"上海市 上海市徐汇区龙华路2853号"},{"poiid":"B2094655D26EA0F44593","title":"上海师范大学中新科技管理学院(南门)","lon":"121.44376","lat":"31.17496","category":"52","category_name":"高等院校","address":"徐汇区龙华西路323"},{"poiid":"B2094751D464A7F4479E","title":"玫瑰坊","lon":"121.4451359","lat":"31.1757063","category":"248","category_name":"生活娱乐","address":"中山公园"},{"poiid":"B2094757D16FA2F8479A","title":"宜仕宜家","lon":"121.44704001","lat":"31.174233884","category":"249","category_name":"购物服务","address":"上海龙华西路"},{"poiid":"B2094654DB6BA5FA409C","title":"海王星辰健康药房","lon":"121.44766","lat":"31.17324","category":"162","category_name":"医院","address":"龙华西路235-1识别"},{"poiid":"B2094655D26EABF9479B","title":"金陵老鸭粉丝煲","lon":"121.4481","lat":"31.17318","category":"257","category_name":"中餐厅","address":"徐汇区龙华西路219-1号(近龙水北路)"},{"poiid":"B2094655D264A7FA4092","title":"嘉萱苑","lon":"121.444284","lat":"31.173461","category":"47","category_name":"住宅区","address":"上海市徐汇区三江路88弄"},{"poiid":"B2094757D064AAF4409E","title":"住友公寓","lon":"121.44302","lat":"31.175503","category":"500","category_name":"未知分类","address":"住友公寓位于徐汇龙华西路345号"},{"poiid":"B2094655D26FA7F4489E","title":"强生花苑(东门)","lon":"121.44626","lat":"31.17618","category":"656","category_name":"大门","address":"天钥桥路1162"},{"poiid":"B2094655D26FAAF84699","title":"PCEC科技管理学院","lon":"121.44387","lat":"31.17488","category":"52","category_name":"高等院校","address":"龙华西路323号"},{"poiid":"B2094655D26FAAF84698","title":"英国斯泰福厦大学上海代表处","lon":"121.44386","lat":"31.17488","category":"52","category_name":"高等院校","address":"龙华西路323"},{"poiid":"B2094757D66CA2FD439A","title":"104路终点站","lon":"121.44792328","lat":"31.173747226","category":"500","category_name":"未知分类","address":"上海龙华"},{"poiid":"B2094757D16EA1F5449F","title":"漕溪三村","lon":"121.44387292701","lat":"31.176370185723","category":"252","category_name":"楼宇机构","address":"上海漕东支路 漕溪三村"},{"poiid":"B2094655D268A3F94793","title":"沪大国际外语学院徐汇校区(南门)","lon":"121.44381","lat":"31.17466","category":"52","category_name":"高等院校","address":"龙华西路323"},{"poiid":"B2094654DA6DA7FF419E","title":"永琪美容美发(天钥桥路)","lon":"121.44527","lat":"31.17969","category":"148","category_name":"美容美发店","address":"徐汇区天钥桥路905号"},{"poiid":"B2094654DB6AA7F54393","title":"上海科技学院","lon":"121.44376","lat":"31.17496","category":"52","category_name":"高等院校","address":"徐汇区龙华西路323号"},{"poiid":"B2094654DB65A2F54699","title":"上海师范大学中新科技管理学院","lon":"121.44387","lat":"31.17487","category":"52","category_name":"高等院校","address":"龙华西路323"},{"poiid":"B2094655D268A7F44699","title":"上海市民办杉育高级中学","lon":"121.44386","lat":"31.17487","category":"55","category_name":"中学","address":"龙华西路323号"},{"poiid":"B2094753D76DA1FD4692","title":"上海世博展览馆","lon":"121.449218","lat":"31.179176","category":"500","category_name":"未知分类","address":"上海市 浦东新区国展路1099号"},{"poiid":"B2094654DB6AA7FA4692","title":"中国城市车辆华东公司上海大众特许销售店","lon":"121.4457","lat":"31.17792","category":"158","category_name":"汽车销售","address":"徐汇区天钥桥路1121弄1号"},{"poiid":"B2094655D268A7F44698","title":"PCEC科技管理学院(南门)","lon":"121.44367","lat":"31.17462","category":"52","category_name":"高等院校","address":"龙华西路323号"},{"poiid":"B2094654DA6DA7FF409A","title":"晟豪驾校报名点(天钥桥路)","lon":"121.4457","lat":"31.17792","category":"248","category_name":"生活娱乐","address":"天钥桥路1121弄1-5号"},{"poiid":"B2094757D168A3F8449C","title":"73路龙华终点站","lon":"121.446861245","lat":"31.1736181592","category":"500","category_name":"未知分类","address":"上海徐汇区龙华西路天钥桥路"},{"poiid":"B2094757D66DA0FB4199","title":"四合院","lon":"121.44935","lat":"31.18049","category":"76","category_name":"上海菜","address":"徐汇区双峰路349号(近中山南二路)"},{"poiid":"B2094757D16CA6F9439E","title":"ceo会所","lon":"121.44702625","lat":"31.178939652","category":"500","category_name":"未知分类","address":"上海八万人体育场"},{"poiid":"B2094655D265A6F84399","title":"明佳苑网球场","lon":"121.44274","lat":"31.17672","category":"226","category_name":"网球场","address":"龙华西路545号4层"},{"poiid":"B2094654DA6DA7FE469E","title":"协昌小区","lon":"121.44444","lat":"31.179728","category":"47","category_name":"住宅区","address":"中山南二路1057弄"},{"poiid":"B2094655D265A0FA4693","title":"强生花苑(东一门)","lon":"121.44598","lat":"31.17652","category":"656","category_name":"大门","address":""},{"poiid":"B2094654DB6BA5FA4199","title":"龙缘公寓","lon":"121.44766","lat":"31.17267","category":"47","category_name":"住宅区","address":"龙水北路998弄1-5号"},{"poiid":"B2094752DA6BA2FD4299","title":"上海体育馆","lon":"121.443359","lat":"31.176468","category":"500","category_name":"未知分类","address":"上海市 4号扶梯入口"},{"poiid":"B2094750D668AAF8479F","title":"腾飞广场","lon":"121.444862","lat":"31.179262","category":"500","category_name":"未知分类","address":"天钥桥路"},{"poiid":"B2094654DA6DA7FD4498","title":"避风塘茶楼(龙华西路)","lon":"121.44962","lat":"31.17303","category":"66","category_name":"茶艺馆","address":"龙华西路127-2号近龙华路"},{"poiid":"B2094654DB6BA5FA419F","title":"龙华革命烈士纪念地","lon":"121.4504","lat":"31.17353","category":"243","category_name":"纪念馆","address":"龙华西路180"},{"poiid":"B2094654DA6DA7FF4099","title":"999桑拿会所","lon":"121.44533","lat":"31.17836","category":"149","category_name":"洗浴推拿场所","address":"天钥桥路999"},{"poiid":"B2094753D569AAFC429D","title":"上海八万人体育馆","lon":"121.446014","lat":"31.179534","category":"500","category_name":"未知分类","address":"上海市 上海市徐汇区"},{"poiid":"B2094654DA6DA1FE489E","title":"伊叶舞蹈","lon":"121.44387","lat":"31.17487","category":"190","category_name":"培训机构","address":"徐汇区龙华西路323号4楼(龙华西路龙吴路)"},{"poiid":"B2094751D564ABF94392","title":"top sports","lon":"121.445649","lat":"31.178898","category":"248","category_name":"生活娱乐","address":"上海天钥桥路666号八万人体育场2号扶梯下"},{"poiid":"B2094655D265A3FB489A","title":"皖人会馆","lon":"121.44847","lat":"31.1741","category":"248","category_name":"生活娱乐","address":"天钥桥路1885"},{"poiid":"B2094757D66EA2F9419C","title":"国际创意产业园区","lon":"121.44518","lat":"31.178647","category":"252","category_name":"楼宇机构","address":"上海天钥桥路909号"},{"poiid":"B2094757D66DAAFD469F","title":"玫瑰私人莊園","lon":"121.44563053","lat":"31.179051663","category":"500","category_name":"未知分类","address":null},{"poiid":"B2094654DA6DA1FE409A","title":"中国农业银行徐汇区龙华支行","lon":"121.4438","lat":"31.17564","category":"150","category_name":"银行","address":"徐汇区龙华西路333号"},{"poiid":"B2094654DA6DA1FE489A","title":"光明便利No.007","lon":"121.44328","lat":"31.17454","category":"117","category_name":"便民商店/便利店","address":"龙华镇"},{"poiid":"B2094655D268ABFC439C","title":"宛南六村(西门)","lon":"121.44508","lat":"31.17931","category":"47","category_name":"住宅区","address":"天钥桥路905弄"},{"poiid":"B2094757D16FAAFA449E","title":"东亚大厦20楼","lon":"121.4478302","lat":"31.179008483","category":"500","category_name":"未知分类","address":"上海中山南二路1500号"},{"poiid":"B2094757D465A3FC469A","title":"爱情麻辣烫 龙华店","lon":"121.444841054","lat":"31.173218793","category":"257","category_name":"中餐厅","address":"徐汇区龙吴线终点站(近上海城市建设学校)"},{"poiid":"B2094655D26FA7FF409C","title":"明佳苑(南门)","lon":"121.44288","lat":"31.1764","category":"47","category_name":"住宅区","address":"龙华西路535弄1-11号"},{"poiid":"B2094757D165A2FD4099","title":"兰州正宗牛肉拉面","lon":"121.44849","lat":"31.1727","category":"247","category_name":"餐饮美食","address":"上海徐汇区龙水北路1010号  "},{"poiid":"B2094757D468A6FE479B","title":"才富大烤场","lon":"121.447567","lat":"31.171736","category":"269","category_name":"烧烤","address":"龙华路3098号近龙水北路"},{"poiid":"B2094654DA6DA7FE409A","title":"宛南五村(2号门)","lon":"121.44891","lat":"31.17985","category":"47","category_name":"住宅区","address":"枫林路"},{"poiid":"B2094654DB65A6F84392","title":"上海市徐汇区宛平地段医院","lon":"121.44931","lat":"31.18011","category":"162","category_name":"医院","address":"徐汇区双峰北路450号"},{"poiid":"B2094655D26FABFD4898","title":"华容小区(北门)","lon":"121.44992","lat":"31.17988","category":"47","category_name":"住宅区","address":""},{"poiid":"B2094654DA6DA7FF4192","title":"梅园新村","lon":"121.44589","lat":"31.18017","category":"47","category_name":"住宅区","address":"中山南二路1023弄1-20号"},{"poiid":"B2094655D26AA7FA4592","title":"蓝波迪俱乐部","lon":"121.44299","lat":"31.17468","category":"247","category_name":"餐饮美食","address":"徐汇区龙华西路1号(近龙华机场)"},{"poiid":"B2094655D268ABFC4399","title":"协昌小区(东门)","lon":"121.44475","lat":"31.17949","category":"47","category_name":"住宅区","address":"中山南二路1057弄"},{"poiid":"B2094654DA6DA7FD499C","title":"华容小区","lon":"121.44994","lat":"31.179544","category":"47","category_name":"住宅区","address":"华容路111弄1-7号"},{"poiid":"B2094654DA6DA7FE439D","title":"中航期货","lon":"121.44465","lat":"31.17531","category":"219","category_name":"其他","address":"龙华西路396号"},{"poiid":"B2094655D268A2FD449C","title":"龙吴路11弄小区(东门)","lon":"121.44453","lat":"31.17337","category":"47","category_name":"住宅区","address":"龙吴路11弄1-37号"},{"poiid":"B2094655D268A2FD4498","title":"龙吴路9弄小区","lon":"121.44411","lat":"31.1737","category":"47","category_name":"住宅区","address":"龙吴路9弄1-12号"},{"poiid":"B2094753D66BA7FF4692","title":"绿地中心正大乐城","lon":"121.447257","lat":"31.180236","category":"500","category_name":"未知分类","address":"上海市 东安路599号"},{"poiid":"B2094655D265A0FA489F","title":"香港尊筑国际设计集团","lon":"121.44582","lat":"31.17874","category":"263","category_name":"公司","address":"天钥桥路909临D1国际创意空间"},{"poiid":"B2094757D064A4F9489E","title":"郁闷烦乱事情多的不想说话中","lon":"121.444631","lat":"31.178526","category":"500","category_name":"未知分类","address":null},{"poiid":"B2094752DA6EA6F84592","title":"上海虹桥机场T2","lon":"121.444824","lat":"31.172714","category":"500","category_name":"未知分类","address":"上海市 上海虹桥机场T2"},{"poiid":"B2094757D064A5F84093","title":"西雅图嘉萱苑","lon":"121.445","lat":"31.1731","category":"500","category_name":"未知分类","address":"三江路88弄"},{"poiid":"B2094757D06BA0F84498","title":"上海土土录音棚","lon":"121.451082","lat":"31.178459","category":"260","category_name":"其他","address":"徐汇区龙华路2577号创意大院26号(近宛平路)"},{"poiid":"B2094654DA6DA7FE439F","title":"航空证券有限责任公司龙华西路证券营业部","lon":"121.44465","lat":"31.17531","category":"219","category_name":"其他","address":"龙华西路396号"},{"poiid":"B2094757D064A7FA429F","title":"808路终点站","lon":"121.44496154","lat":"31.17880249","category":"500","category_name":"未知分类","address":"上海万体馆"},{"poiid":"B2094654DA6DA1FD489D","title":"思尔形象设计","lon":"121.44281","lat":"31.17669","category":"148","category_name":"美容美发店","address":"龙华西路545"},{"poiid":"B2094655D264AAF8479B","title":"徐汇苑三期(东门)","lon":"121.44543","lat":"31.17728","category":"656","category_name":"大门","address":"枫林路"},{"poiid":"B2094757D065A4FF4292","title":"阳光岛","lon":"121.44805358","lat":"31.173201316","category":"500","category_name":"未知分类","address":"上海徐汇"},{"poiid":"B2094655D264ABFC4998","title":"星宛公寓","lon":"121.44971","lat":"31.17972","category":"47","category_name":"住宅区","address":"华容路111弄2"},{"poiid":"B2094654DB65A2FC4099","title":"煤科公寓","lon":"121.44532","lat":"31.180462","category":"47","category_name":"住宅区","address":"中山南二路1023弄1-20号"},{"poiid":"B2094757D16EA0FC409D","title":"957路(徐家汇站)","lon":"121.44483358","lat":"31.173594324","category":"500","category_name":"未知分类","address":"上海肇嘉浜路天平路"},{"poiid":"B2094757D06AA7F84899","title":"104路","lon":"121.448224","lat":"31.172917","category":"500","category_name":"未知分类","address":"上海终点站龙华"},{"poiid":"B2094752D26FA4F9479E","title":"创意大院2577","lon":"121.446361","lat":"31.179799","category":"263","category_name":"公司","address":"龙华路2577号"},{"poiid":"B2094757D16BA4FF4499","title":"龙水公寓","lon":"121.44732651","lat":"31.171670658","category":"47","category_name":"住宅区","address":"上海龙水北路987-989号"},{"poiid":"B2094757D16CAAF5439B","title":"徐汇芳草苑","lon":"121.45","lat":"31.179","category":"500","category_name":"未知分类","address":"芳草苑位于徐汇龙吴路15号"},{"poiid":"B2094752D369A4FE479C","title":"锦江乐园","lon":"121.44651","lat":"31.180184","category":"500","category_name":"未知分类","address":null},{"poiid":"B2094655D26FA4FE4192","title":"住友公寓(东门)","lon":"121.44377","lat":"31.1757","category":"48","category_name":"楼宇大门","address":"龙华西路333号、345弄1-3号"},{"poiid":"B2094655D26FA1FF479D","title":"公主小厨","lon":"121.444475054","lat":"31.179580793","category":"257","category_name":"中餐厅","address":"天钥桥路890号近中山南二路"},{"poiid":"B2094654DA6DA7FD409C","title":"上海市徐汇区龙华菜场","lon":"121.44514","lat":"31.17256","category":"117","category_name":"便民商店/便利店","address":"龙吴路20"},{"poiid":"B2094655D26FAAF4439B","title":"龙华小区(东门)","lon":"121.45105","lat":"31.17894","category":"47","category_name":"住宅区","address":""},{"poiid":"B2094757D66DA0FD4698","title":"天华","lon":"121.44579688","lat":"31.173154115","category":"249","category_name":"购物服务","address":"上海龙田路195号"},{"poiid":"B2094757D16BA0F54398","title":"歷成路(田倉龍蝦)","lon":"121.44943288","lat":"31.173307618","category":"500","category_name":"未知分类","address":"上海昌里路"},{"poiid":"B2094655D26CA4FD429F","title":"住友公寓(东2门)","lon":"121.44408","lat":"31.17519","category":"48","category_name":"楼宇大门","address":"龙华西路345弄1-3号"},{"poiid":"B2094654DA6DA7FD4393","title":"上海市城建学校培训部龙华教学点","lon":"121.4486","lat":"31.17283","category":"190","category_name":"培训机构","address":"龙水北路999-1识别"},{"poiid":"B2094654DB64A4FF4299","title":"兴友宾馆","lon":"121.44467","lat":"31.17994","category":"250","category_name":"公园户外","address":"天钥桥路888号"},{"poiid":"B2094757D168A1F5449D","title":"佘山工商所","lon":"121.445106","lat":"31.179338","category":"500","category_name":"未知分类","address":"上海天新路46号"},{"poiid":"B2094654DA6DA7FE409B","title":"徐汇区枫林街道社区学校","lon":"121.4489","lat":"31.17985","category":"253","category_name":"校园生活","address":"宛南五村19号"},{"poiid":"B2094757D06AAAFA469F","title":"上海交通职业技术学院南校区","lon":"121.44298553","lat":"31.174747467","category":"253","category_name":"校园生活","address":"上海徐汇区龙华西路一号"},{"poiid":"B209475DD16BA3FE439B","title":"ICON","lon":"121.443656","lat":"31.178985","category":"500","category_name":"未知分类","address":"上海市 上海体育场7号门"},{"poiid":"B2094753D569A4FB419D","title":"2013五月天诺亚方舟|明日重生世界巡回演唱会-上海站","lon":"121.446083","lat":"31.180698","category":"500","category_name":"未知分类","address":"上海市 上海体育场"},{"poiid":"B2094757D165A0FB469C","title":"海宁路1132弄集锐思摄影","lon":"121.44385588","lat":"31.17853297","category":"500","category_name":"未知分类","address":"上海海宁路1132弄17号2楼"},{"poiid":"B2094655D264AAF84799","title":"徐汇苑三期(东一门)","lon":"121.44511","lat":"31.17792","category":"656","category_name":"大门","address":""},{"poiid":"B2094655D265A7FD489F","title":"强生花苑(西门)","lon":"121.4443","lat":"31.1759","category":"656","category_name":"大门","address":""},{"poiid":"B2094757D66AA6F4479C","title":"龙逸茶坊","lon":"121.45013","lat":"31.17312","category":"260","category_name":"其他","address":"徐汇区龙华西路127号(近龙华寺/龙华烈士陵园)"},{"poiid":"B2094757D16AA1FC479F","title":"养路费办公室第二征收稽查所","lon":"121.44468262","lat":"31.17326944","category":"500","category_name":"未知分类","address":"上海龙吴路17号"},{"poiid":"B2094655D26AAAF5419C","title":"怦怦咖啡茶饮","lon":"121.444569054","lat":"31.181186793","category":"260","category_name":"其他","address":"徐汇区天钥桥路900号(近中山南二路)"},{"poiid":"B2094757D16DA5FA479F","title":"中国建设银行上海龙华支行","lon":"121.450136","lat":"31.172956","category":"500","category_name":"未知分类","address":"上海龙华西路127号"},{"poiid":"B2094757D164A0F5419D","title":"银燕悬灸养生美容(旗舰店)","lon":"121.442883586","lat":"31.1757613663","category":"148","category_name":"美容美发店","address":"徐汇区龙华西路501号神舟商旅酒店3楼(近中山南二路)"},{"poiid":"B2094753DB6CA3F84793","title":"上海市精神病治疗中心","lon":"121.450736","lat":"31.179309","category":"500","category_name":"未知分类","address":"上海市 上海市徐汇区零陵路585"},{"poiid":"B2094757D66EA0F44192","title":"vinos kanwa","lon":"121.448864586","lat":"31.1802784545","category":"500","category_name":"未知分类","address":"上海肇嘉浜路1111号美罗城B1楼(近漕溪北路)"},{"poiid":"B2094655D265A6FB4892","title":"徐汇苑三期(西门)","lon":"121.44386","lat":"31.17642","category":"656","category_name":"大门","address":"枫林路"},{"poiid":"B2094655D264AAF8479E","title":"徐汇苑三期(东二门)","lon":"121.44496","lat":"31.17842","category":"656","category_name":"大门","address":""},{"poiid":"B2094655D26FABFE4692","title":"上缝小区(北门)","lon":"121.44619","lat":"31.17343","category":"656","category_name":"大门","address":""},{"poiid":"B2094655D26BA3FA429D","title":"Castellari","lon":"121.45136","lat":"31.17862","category":"260","category_name":"其他","address":"徐汇区龙华路2577号11幢107室(近华容路)"},{"poiid":"B2094655D26FA7F4489A","title":"明安馨苑(东门)","lon":"121.4429","lat":"31.17612","category":"48","category_name":"楼宇大门","address":"龙华西路525弄"},{"poiid":"B2094757D06AAAF54792","title":"kiki home","lon":"121.444545736","lat":"31.1725933044","category":"500","category_name":"未知分类","address":"上海市龙漕路"},{"poiid":"B2094654DA6DA7FE4698","title":"天长咖啡园","lon":"121.4447","lat":"31.1798","category":"260","category_name":"其他","address":"徐汇区天钥桥路892号(近中山南二路)"},{"poiid":"B2094654DA6DA7FE4699","title":"上海天南实业有限公司","lon":"121.4447","lat":"31.1798","category":"263","category_name":"公司","address":"天钥桥路896"},{"poiid":"B2094757D165A6FC4693","title":"漕东公寓","lon":"121.445128","lat":"31.180273","category":"252","category_name":"楼宇机构","address":"上海漕东路30弄"},{"poiid":"B2094655D26EA7FC409D","title":"棋牌娱乐","lon":"121.44962","lat":"31.17303","category":"175","category_name":"棋牌室","address":"龙华西路127-2临"},{"poiid":"B2094655D268A2FD449A","title":"龙吴路9弄小区(东一门)","lon":"121.44448","lat":"31.17395","category":"656","category_name":"大门","address":"龙吴路9弄1-12号"},{"poiid":"B2094655D268A2FD449B","title":"龙吴路9弄小区(东门)","lon":"121.4445","lat":"31.17373","category":"656","category_name":"大门","address":"龙吴路9弄1-12号"},{"poiid":"B2094654DB6BA5FA409F","title":"上缝小区(南门)","lon":"121.44725","lat":"31.17198","category":"656","category_name":"大门","address":"龙水北路960弄4-21号"},{"poiid":"B2094655D26BABFD469F","title":"宛南五村小区(西门)","lon":"121.44784","lat":"31.18016","category":"656","category_name":"大门","address":""},{"poiid":"B2094655D26FABFE479E","title":"上缝小区(西门)","lon":"121.44504","lat":"31.17232","category":"656","category_name":"大门","address":""}]