[{"poiid":"B2094757D06FAAFC419F","title":"海底捞火锅(龙茗路店)","lon":"121.3848","lat":"31.14438","category":"86","category_name":"火锅店","address":"闵行区龙茗路1300弄58号古美生活购物广场3楼(古龙路口)"},{"poiid":"B2094757D06FA2F4429A","title":"和记小菜(顾戴路店)","lon":"121.38527","lat":"31.13815","category":"76","category_name":"上海菜","address":"闵行区顾戴路1236号(近龙茗路)"},{"poiid":"B2094757D06AABF54893","title":"清花池会所","lon":"121.385418857","lat":"31.1430372242","category":"500","category_name":"未知分类","address":"上海龙茗路1300弄118号古美生活购物广场3F(靠平吉路)"},{"poiid":"B2094757D06FAAFE419E","title":"藏乐汤坊(龙茗店)","lon":"121.38731","lat":"31.13775","category":"72","category_name":"广东菜","address":"闵行区龙茗路990号十尚坊(近顾戴路)"},{"poiid":"B2094655D264A2FA459F","title":"古美生活购物广场","lon":"121.38602","lat":"31.14339","category":"119","category_name":"商场","address":"闵行区龙茗路平吉路"},{"poiid":"B2094757D06FA4FF479E","title":"东苑半岛花园","lon":"121.38399","lat":"31.139565","category":"47","category_name":"住宅区","address":"上海顾戴路1266弄"},{"poiid":"B2094757D068A1FE4093","title":"必胜客(龙茗路店)","lon":"121.38696","lat":"31.13832","category":"94","category_name":"西餐厅","address":"闵行区龙茗路1024号(近顾戴路)"},{"poiid":"B2094757D068A4F4479D","title":"蓝色港湾","lon":"121.3858","lat":"31.1476","category":"47","category_name":"住宅区","address":"上海龙茗路1458弄"},{"poiid":"B2094655D36CA1FF489A","title":"龙茗路古龙路","lon":"121.38472","lat":"31.14469","category":"38","category_name":"公交车站","address":""},{"poiid":"B2094757D06FAAFF449B","title":"东北人 龙茗路店","lon":"121.386900054","lat":"31.137288793","category":"82","category_name":"东北菜","address":"闵行区龙茗路974号(近顾戴路)"},{"poiid":"B2094757D06FA4FC4992","title":"一兆韦德(古美店)","lon":"121.38578","lat":"31.14249","category":"221","category_name":"健身中心","address":"闵行区龙茗路1300弄58号古美生活购物广场401室、501室(近十尚坊)"},{"poiid":"B2094757D66BABFF4193","title":"700啤酒屋 龙茗路店","lon":"121.38724","lat":"31.13662","category":"260","category_name":"其他","address":"闵行区龙茗路950号(近顾戴路)"},{"poiid":"B2094757D068A7F84698","title":"新时代花园","lon":"121.38811","lat":"31.14085","category":"47","category_name":"住宅区","address":"上海顾戴路1100弄"},{"poiid":"B2094757D069A1FE4499","title":"肯德基 龙茗店 KFC","lon":"121.386409054","lat":"31.138955793","category":"68","category_name":"快餐厅","address":"闵行区龙茗路1048号(近顾戴路)"},{"poiid":"B2094757D068A3FD4393","title":"世纪联华(龙茗路店)","lon":"121.38559","lat":"31.14352","category":"118","category_name":"超级市场","address":"闵行区龙茗路1256号(近平吉路)"},{"poiid":"B2094655D26FA5FC4398","title":"新时代富嘉花园","lon":"121.38657","lat":"31.144928","category":"47","category_name":"住宅区","address":"上海市普陀区新泉路66弄"},{"poiid":"B2094654DB6AA3FA4298","title":"澳门街","lon":"121.38642","lat":"31.13805","category":"260","category_name":"其他","address":"闵行区龙茗路1015号(近顾戴路)"},{"poiid":"B2094757D56CAAFD449C","title":"鸿润兴面馆","lon":"121.385271","lat":"31.144027","category":"68","category_name":"快餐厅","address":"闵行区龙茗路1256号"},{"poiid":"B2094654DB6CA3FA459B","title":"平吉一村(南门)","lon":"121.3828","lat":"31.14497","category":"47","category_name":"住宅区","address":""},{"poiid":"B2094757D069A7FA499F","title":"味千拉面 龙茗路店","lon":"121.386865054","lat":"31.138706793","category":"95","category_name":"日本料理","address":"闵行区龙茗路1048号112单元1楼(近顾戴路)"},{"poiid":"B2094757D06FA6FD409D","title":"平吉二村","lon":"121.380914","lat":"31.142429","category":"252","category_name":"楼宇机构","address":"上海虹莘路2288号"},{"poiid":"B2094757D66EA3F54592","title":"宁波海鲜码头","lon":"121.386685857","lat":"31.1432392282","category":"75","category_name":"浙江菜","address":"闵行区龙茗路1300弄183号1楼(平吉路口)"},{"poiid":"B2094654DB6CA3FA439D","title":"上海市文来中学(高中部)","lon":"121.38175","lat":"31.14015","category":"55","category_name":"中学","address":"闵行区虹莘路2166号(近平吉路)"},{"poiid":"B2094757DB6DA5FC469C","title":"维也纳国际酒店（上海九星店）","lon":"121.385759","lat":"31.142071","category":"216","category_name":"经济型连锁酒店","address":"上海市闵行区龙茗路1300弄181号(近漕宝路)"},{"poiid":"B2094654DA65ABFD449C","title":"吉亨面馆 龙茗路店","lon":"121.386076054","lat":"31.137458793","category":"68","category_name":"快餐厅","address":"闵行区龙茗路991号(近顾戴路)"},{"poiid":"B2094757D46AABF8449B","title":"龙茗路大胡子烧烤","lon":"121.384584","lat":"31.145686","category":"269","category_name":"烧烤","address":"闵行区龙茗路1408号(近古龙路)"},{"poiid":"B2094655D265A4F4469E","title":"新记茶餐厅","lon":"121.385663054","lat":"31.141303793","category":"72","category_name":"广东菜","address":"闵行区龙茗路1242号(近世纪联华)"},{"poiid":"B2094757D069A6FD449D","title":"85度C(龙茗二店)","lon":"121.38648941","lat":"31.13741984","category":"67","category_name":"甜品店","address":"闵行区龙茗路1045号(近顾戴路)"},{"poiid":"B2094757D068A1F5439E","title":"龙之道保健养生会所(龙茗路店)","lon":"121.38668","lat":"31.1381","category":"149","category_name":"洗浴推拿场所","address":"闵行区龙茗路1025号(近顾戴路)"},{"poiid":"B2094757D165ABFC4799","title":"龙茗路","lon":"121.381011857","lat":"31.1446962574","category":"500","category_name":"未知分类","address":"上海市闵行区星友路"},{"poiid":"B2094654DB64A6FA459C","title":"棒约翰比萨 龙茗店 Papa John's Pizza","lon":"121.38652951858","lat":"31.138571761299","category":"94","category_name":"西餐厅","address":"闵行区龙茗路1048号113单元(近顾戴路)"},{"poiid":"B2094654DA65ABFD449D","title":"红辣椒牛蛙馆","lon":"121.386487054","lat":"31.136871793","category":"71","category_name":"四川菜","address":"闵行区龙茗路999号(近顾戴路)"},{"poiid":"B2094757D164A1FF4299","title":"品味小厨","lon":"121.38273885","lat":"31.14436125","category":"76","category_name":"上海菜","address":"闵行区古龙路平吉一村(近龙茗路)"},{"poiid":"B2094750D36BA5FC4599","title":"上海清花池温泉会","lon":"121.38575531993","lat":"31.143819707043","category":"250","category_name":"公园户外","address":"闵行区龙茗路1300弄古美生活购物广场3楼(近平吉路)"},{"poiid":"B2094655D268A6F9449F","title":"可颂坊 龙茗路店 Croissants de France","lon":"121.385755054","lat":"31.140106793","category":"112","category_name":"糕饼店","address":"闵行区龙茗路1077号(近顾戴路)"},{"poiid":"B2094654DA64A1F8489B","title":"当代艺墅","lon":"121.38243293428","lat":"31.140925704199","category":"47","category_name":"住宅区","address":"当代艺墅位于闵行顾戴路1801号"},{"poiid":"B2094757D16BA1F5439B","title":"重庆鸡公煲 龙茗路店","lon":"121.384559","lat":"31.145326","category":"71","category_name":"四川菜","address":"闵行区龙茗路1680号欧风新天地内(近东兰路)"},{"poiid":"B2094757D06AA7F5479F","title":"古美高级中学羽毛球馆","lon":"121.383572856","lat":"31.1498091576","category":"253","category_name":"校园生活","address":"闵行区龙茗路1628号(近平南路)"},{"poiid":"B2094757D068A7F54698","title":"黎安二村","lon":"121.384","lat":"31.1387","category":"252","category_name":"楼宇机构","address":"上海市闵行区黎安路443号"},{"poiid":"B2094655D264A0FE499D","title":"江南星城一期","lon":"121.38811","lat":"31.13917","category":"47","category_name":"住宅区","address":"上海市闵行区顾戴路1199弄"},{"poiid":"B2094654DB6CA3F9449D","title":"上海菊兴口腔门诊部","lon":"121.38496","lat":"31.14468","category":"162","category_name":"医院","address":"闵行区龙茗路1322号"},{"poiid":"B2094655D26FA2FA469E","title":"红辣椒湘菜馆(龙茗路店)","lon":"121.38544","lat":"31.14337","category":"77","category_name":"湖南菜","address":"闵行区龙茗路999号"},{"poiid":"B2094757D068A6FC4998","title":"富嘉花园","lon":"121.3857054","lat":"31.145056848","category":"47","category_name":"住宅区","address":"上海古龙路1065号"},{"poiid":"B2094654DB6CA3FA449A","title":"可的(古龙路)","lon":"121.38381","lat":"31.14485","category":"117","category_name":"便民商店/便利店","address":"闵行区古龙路1209号"},{"poiid":"B2094757D06BA0FB489D","title":"新記茶餐廳","lon":"121.38506317","lat":"31.144187927","category":"500","category_name":"未知分类","address":"上海閔行區龍茗路1300號"},{"poiid":"B2094654DB6CA3FA4392","title":"闵行区平吉小学","lon":"121.38261","lat":"31.14196","category":"56","category_name":"小学","address":"平吉路1288"},{"poiid":"B2094757DB68A2F54993","title":"南方商城","lon":"121.3857456503745","lat":"31.14095133321386","category":"249","category_name":"购物服务","address":"沪闵路"},{"poiid":"B2094655D265A6FB4299","title":"都市麦风","lon":"121.38441","lat":"31.14504","category":"112","category_name":"糕饼店","address":""},{"poiid":"B2094654DB6AA6FF429A","title":"平吉一村","lon":"121.38234","lat":"31.145792","category":"47","category_name":"住宅区","address":"虹莘路2388弄"},{"poiid":"B2094750D76DA0FB459C","title":"台湾正宗牛肉面","lon":"121.384","lat":"31.1453","category":"68","category_name":"快餐厅","address":"闵行区龙茗路东北菜旁(古龙路龙茗路)"},{"poiid":"B2094757D06FAAFC419F","title":"海底捞火锅(龙茗路店)","lon":"121.3848","lat":"31.14438","category":"86","category_name":"火锅店","address":"闵行区龙茗路1300弄58号古美生活购物广场3楼(古龙路口)"},{"poiid":"B2094757D06FA2F4429A","title":"和记小菜(顾戴路店)","lon":"121.38527","lat":"31.13815","category":"76","category_name":"上海菜","address":"闵行区顾戴路1236号(近龙茗路)"},{"poiid":"B2094757D06AABF54893","title":"清花池会所","lon":"121.385418857","lat":"31.1430372242","category":"500","category_name":"未知分类","address":"上海龙茗路1300弄118号古美生活购物广场3F(靠平吉路)"},{"poiid":"B2094757D06FAAFE419E","title":"藏乐汤坊(龙茗店)","lon":"121.38731","lat":"31.13775","category":"72","category_name":"广东菜","address":"闵行区龙茗路990号十尚坊(近顾戴路)"},{"poiid":"B2094655D264A2FA459F","title":"古美生活购物广场","lon":"121.38602","lat":"31.14339","category":"119","category_name":"商场","address":"闵行区龙茗路平吉路"},{"poiid":"B2094757D06FA4FF479E","title":"东苑半岛花园","lon":"121.38399","lat":"31.139565","category":"47","category_name":"住宅区","address":"上海顾戴路1266弄"},{"poiid":"B2094757D068A1FE4093","title":"必胜客(龙茗路店)","lon":"121.38696","lat":"31.13832","category":"94","category_name":"西餐厅","address":"闵行区龙茗路1024号(近顾戴路)"},{"poiid":"B2094757D068A4F4479D","title":"蓝色港湾","lon":"121.3858","lat":"31.1476","category":"47","category_name":"住宅区","address":"上海龙茗路1458弄"},{"poiid":"B2094655D36CA1FF489A","title":"龙茗路古龙路","lon":"121.38472","lat":"31.14469","category":"38","category_name":"公交车站","address":""},{"poiid":"B2094757D06FAAFF449B","title":"东北人 龙茗路店","lon":"121.386900054","lat":"31.137288793","category":"82","category_name":"东北菜","address":"闵行区龙茗路974号(近顾戴路)"},{"poiid":"B2094757D06FA4FC4992","title":"一兆韦德(古美店)","lon":"121.38578","lat":"31.14249","category":"221","category_name":"健身中心","address":"闵行区龙茗路1300弄58号古美生活购物广场401室、501室(近十尚坊)"},{"poiid":"B2094757D66BABFF4193","title":"700啤酒屋 龙茗路店","lon":"121.38724","lat":"31.13662","category":"260","category_name":"其他","address":"闵行区龙茗路950号(近顾戴路)"},{"poiid":"B2094757D068A7F84698","title":"新时代花园","lon":"121.38811","lat":"31.14085","category":"47","category_name":"住宅区","address":"上海顾戴路1100弄"},{"poiid":"B2094757D069A1FE4499","title":"肯德基 龙茗店 KFC","lon":"121.386409054","lat":"31.138955793","category":"68","category_name":"快餐厅","address":"闵行区龙茗路1048号(近顾戴路)"},{"poiid":"B2094757D068A3FD4393","title":"世纪联华(龙茗路店)","lon":"121.38559","lat":"31.14352","category":"118","category_name":"超级市场","address":"闵行区龙茗路1256号(近平吉路)"},{"poiid":"B2094655D26FA5FC4398","title":"新时代富嘉花园","lon":"121.38657","lat":"31.144928","category":"47","category_name":"住宅区","address":"上海市普陀区新泉路66弄"},{"poiid":"B2094654DB6AA3FA4298","title":"澳门街","lon":"121.38642","lat":"31.13805","category":"260","category_name":"其他","address":"闵行区龙茗路1015号(近顾戴路)"},{"poiid":"B2094757D56CAAFD449C","title":"鸿润兴面馆","lon":"121.385271","lat":"31.144027","category":"68","category_name":"快餐厅","address":"闵行区龙茗路1256号"},{"poiid":"B2094654DB6CA3FA459B","title":"平吉一村(南门)","lon":"121.3828","lat":"31.14497","category":"47","category_name":"住宅区","address":""},{"poiid":"B2094757D069A7FA499F","title":"味千拉面 龙茗路店","lon":"121.386865054","lat":"31.138706793","category":"95","category_name":"日本料理","address":"闵行区龙茗路1048号112单元1楼(近顾戴路)"},{"poiid":"B2094757D06FA6FD409D","title":"平吉二村","lon":"121.380914","lat":"31.142429","category":"252","category_name":"楼宇机构","address":"上海虹莘路2288号"},{"poiid":"B2094757D66EA3F54592","title":"宁波海鲜码头","lon":"121.386685857","lat":"31.1432392282","category":"75","category_name":"浙江菜","address":"闵行区龙茗路1300弄183号1楼(平吉路口)"},{"poiid":"B2094654DB6CA3FA439D","title":"上海市文来中学(高中部)","lon":"121.38175","lat":"31.14015","category":"55","category_name":"中学","address":"闵行区虹莘路2166号(近平吉路)"},{"poiid":"B2094757DB6DA5FC469C","title":"维也纳国际酒店（上海九星店）","lon":"121.385759","lat":"31.142071","category":"216","category_name":"经济型连锁酒店","address":"上海市闵行区龙茗路1300弄181号(近漕宝路)"},{"poiid":"B2094654DA65ABFD449C","title":"吉亨面馆 龙茗路店","lon":"121.386076054","lat":"31.137458793","category":"68","category_name":"快餐厅","address":"闵行区龙茗路991号(近顾戴路)"},{"poiid":"B2094757D46AABF8449B","title":"龙茗路大胡子烧烤","lon":"121.384584","lat":"31.145686","category":"269","category_name":"烧烤","address":"闵行区龙茗路1408号(近古龙路)"},{"poiid":"B2094655D265A4F4469E","title":"新记茶餐厅","lon":"121.385663054","lat":"31.141303793","category":"72","category_name":"广东菜","address":"闵行区龙茗路1242号(近世纪联华)"},{"poiid":"B2094757D069A6FD449D","title":"85度C(龙茗二店)","lon":"121.38648941","lat":"31.13741984","category":"67","category_name":"甜品店","address":"闵行区龙茗路1045号(近顾戴路)"},{"poiid":"B2094757D068A1F5439E","title":"龙之道保健养生会所(龙茗路店)","lon":"121.38668","lat":"31.1381","category":"149","category_name":"洗浴推拿场所","address":"闵行区龙茗路1025号(近顾戴路)"},{"poiid":"B2094757D165ABFC4799","title":"龙茗路","lon":"121.381011857","lat":"31.1446962574","category":"500","category_name":"未知分类","address":"上海市闵行区星友路"},{"poiid":"B2094654DB64A6FA459C","title":"棒约翰比萨 龙茗店 Papa John's Pizza","lon":"121.38652951858","lat":"31.138571761299","category":"94","category_name":"西餐厅","address":"闵行区龙茗路1048号113单元(近顾戴路)"},{"poiid":"B2094654DA65ABFD449D","title":"红辣椒牛蛙馆","lon":"121.386487054","lat":"31.136871793","category":"71","category_name":"四川菜","address":"闵行区龙茗路999号(近顾戴路)"},{"poiid":"B2094757D164A1FF4299","title":"品味小厨","lon":"121.38273885","lat":"31.14436125","category":"76","category_name":"上海菜","address":"闵行区古龙路平吉一村(近龙茗路)"},{"poiid":"B2094750D36BA5FC4599","title":"上海清花池温泉会","lon":"121.38575531993","lat":"31.143819707043","category":"250","category_name":"公园户外","address":"闵行区龙茗路1300弄古美生活购物广场3楼(近平吉路)"},{"poiid":"B2094655D268A6F9449F","title":"可颂坊 龙茗路店 Croissants de France","lon":"121.385755054","lat":"31.140106793","category":"112","category_name":"糕饼店","address":"闵行区龙茗路1077号(近顾戴路)"},{"poiid":"B2094654DA64A1F8489B","title":"当代艺墅","lon":"121.38243293428","lat":"31.140925704199","category":"47","category_name":"住宅区","address":"当代艺墅位于闵行顾戴路1801号"},{"poiid":"B2094757D16BA1F5439B","title":"重庆鸡公煲 龙茗路店","lon":"121.384559","lat":"31.145326","category":"71","category_name":"四川菜","address":"闵行区龙茗路1680号欧风新天地内(近东兰路)"},{"poiid":"B2094757D06AA7F5479F","title":"古美高级中学羽毛球馆","lon":"121.383572856","lat":"31.1498091576","category":"253","category_name":"校园生活","address":"闵行区龙茗路1628号(近平南路)"},{"poiid":"B2094757D068A7F54698","title":"黎安二村","lon":"121.384","lat":"31.1387","category":"252","category_name":"楼宇机构","address":"上海市闵行区黎安路443号"},{"poiid":"B2094655D264A0FE499D","title":"江南星城一期","lon":"121.38811","lat":"31.13917","category":"47","category_name":"住宅区","address":"上海市闵行区顾戴路1199弄"},{"poiid":"B2094654DB6CA3F9449D","title":"上海菊兴口腔门诊部","lon":"121.38496","lat":"31.14468","category":"162","category_name":"医院","address":"闵行区龙茗路1322号"},{"poiid":"B2094655D26FA2FA469E","title":"红辣椒湘菜馆(龙茗路店)","lon":"121.38544","lat":"31.14337","category":"77","category_name":"湖南菜","address":"闵行区龙茗路999号"},{"poiid":"B2094757D068A6FC4998","title":"富嘉花园","lon":"121.3857054","lat":"31.145056848","category":"47","category_name":"住宅区","address":"上海古龙路1065号"},{"poiid":"B2094654DB6CA3FA449A","title":"可的(古龙路)","lon":"121.38381","lat":"31.14485","category":"117","category_name":"便民商店/便利店","address":"闵行区古龙路1209号"},{"poiid":"B2094757D06BA0FB489D","title":"新記茶餐廳","lon":"121.38506317","lat":"31.144187927","category":"500","category_name":"未知分类","address":"上海閔行區龍茗路1300號"},{"poiid":"B2094654DB6CA3FA4392","title":"闵行区平吉小学","lon":"121.38261","lat":"31.14196","category":"56","category_name":"小学","address":"平吉路1288"},{"poiid":"B2094757DB68A2F54993","title":"南方商城","lon":"121.3857456503745","lat":"31.14095133321386","category":"249","category_name":"购物服务","address":"沪闵路"},{"poiid":"B2094655D265A6FB4299","title":"都市麦风","lon":"121.38441","lat":"31.14504","category":"112","category_name":"糕饼店","address":""},{"poiid":"B2094654DB6AA6FF429A","title":"平吉一村","lon":"121.38234","lat":"31.145792","category":"47","category_name":"住宅区","address":"虹莘路2388弄"},{"poiid":"B2094750D76DA0FB459C","title":"台湾正宗牛肉面","lon":"121.384","lat":"31.1453","category":"68","category_name":"快餐厅","address":"闵行区龙茗路东北菜旁(古龙路龙茗路)"},{"poiid":"B2094757D06FAAFC419F","title":"海底捞火锅(龙茗路店)","lon":"121.3848","lat":"31.14438","category":"86","category_name":"火锅店","address":"闵行区龙茗路1300弄58号古美生活购物广场3楼(古龙路口)"},{"poiid":"B2094757D06FA2F4429A","title":"和记小菜(顾戴路店)","lon":"121.38527","lat":"31.13815","category":"76","category_name":"上海菜","address":"闵行区顾戴路1236号(近龙茗路)"},{"poiid":"B2094757D06AABF54893","title":"清花池会所","lon":"121.385418857","lat":"31.1430372242","category":"500","category_name":"未知分类","address":"上海龙茗路1300弄118号古美生活购物广场3F(靠平吉路)"},{"poiid":"B2094757D06FAAFE419E","title":"藏乐汤坊(龙茗店)","lon":"121.38731","lat":"31.13775","category":"72","category_name":"广东菜","address":"闵行区龙茗路990号十尚坊(近顾戴路)"},{"poiid":"B2094655D264A2FA459F","title":"古美生活购物广场","lon":"121.38602","lat":"31.14339","category":"119","category_name":"商场","address":"闵行区龙茗路平吉路"},{"poiid":"B2094757D06FA4FF479E","title":"东苑半岛花园","lon":"121.38399","lat":"31.139565","category":"47","category_name":"住宅区","address":"上海顾戴路1266弄"},{"poiid":"B2094757D068A1FE4093","title":"必胜客(龙茗路店)","lon":"121.38696","lat":"31.13832","category":"94","category_name":"西餐厅","address":"闵行区龙茗路1024号(近顾戴路)"},{"poiid":"B2094757D068A4F4479D","title":"蓝色港湾","lon":"121.3858","lat":"31.1476","category":"47","category_name":"住宅区","address":"上海龙茗路1458弄"},{"poiid":"B2094655D36CA1FF489A","title":"龙茗路古龙路","lon":"121.38472","lat":"31.14469","category":"38","category_name":"公交车站","address":""},{"poiid":"B2094757D06FAAFF449B","title":"东北人 龙茗路店","lon":"121.386900054","lat":"31.137288793","category":"82","category_name":"东北菜","address":"闵行区龙茗路974号(近顾戴路)"},{"poiid":"B2094757D06FA4FC4992","title":"一兆韦德(古美店)","lon":"121.38578","lat":"31.14249","category":"221","category_name":"健身中心","address":"闵行区龙茗路1300弄58号古美生活购物广场401室、501室(近十尚坊)"},{"poiid":"B2094757D66BABFF4193","title":"700啤酒屋 龙茗路店","lon":"121.38724","lat":"31.13662","category":"260","category_name":"其他","address":"闵行区龙茗路950号(近顾戴路)"},{"poiid":"B2094757D068A7F84698","title":"新时代花园","lon":"121.38811","lat":"31.14085","category":"47","category_name":"住宅区","address":"上海顾戴路1100弄"},{"poiid":"B2094757D069A1FE4499","title":"肯德基 龙茗店 KFC","lon":"121.386409054","lat":"31.138955793","category":"68","category_name":"快餐厅","address":"闵行区龙茗路1048号(近顾戴路)"},{"poiid":"B2094757D068A3FD4393","title":"世纪联华(龙茗路店)","lon":"121.38559","lat":"31.14352","category":"118","category_name":"超级市场","address":"闵行区龙茗路1256号(近平吉路)"},{"poiid":"B2094655D26FA5FC4398","title":"新时代富嘉花园","lon":"121.38657","lat":"31.144928","category":"47","category_name":"住宅区","address":"上海市普陀区新泉路66弄"},{"poiid":"B2094654DB6AA3FA4298","title":"澳门街","lon":"121.38642","lat":"31.13805","category":"260","category_name":"其他","address":"闵行区龙茗路1015号(近顾戴路)"},{"poiid":"B2094757D56CAAFD449C","title":"鸿润兴面馆","lon":"121.385271","lat":"31.144027","category":"68","category_name":"快餐厅","address":"闵行区龙茗路1256号"},{"poiid":"B2094654DB6CA3FA459B","title":"平吉一村(南门)","lon":"121.3828","lat":"31.14497","category":"47","category_name":"住宅区","address":""},{"poiid":"B2094757D069A7FA499F","title":"味千拉面 龙茗路店","lon":"121.386865054","lat":"31.138706793","category":"95","category_name":"日本料理","address":"闵行区龙茗路1048号112单元1楼(近顾戴路)"},{"poiid":"B2094757D06FA6FD409D","title":"平吉二村","lon":"121.380914","lat":"31.142429","category":"252","category_name":"楼宇机构","address":"上海虹莘路2288号"},{"poiid":"B2094757D66EA3F54592","title":"宁波海鲜码头","lon":"121.386685857","lat":"31.1432392282","category":"75","category_name":"浙江菜","address":"闵行区龙茗路1300弄183号1楼(平吉路口)"},{"poiid":"B2094654DB6CA3FA439D","title":"上海市文来中学(高中部)","lon":"121.38175","lat":"31.14015","category":"55","category_name":"中学","address":"闵行区虹莘路2166号(近平吉路)"},{"poiid":"B2094757DB6DA5FC469C","title":"维也纳国际酒店（上海九星店）","lon":"121.385759","lat":"31.142071","category":"216","category_name":"经济型连锁酒店","address":"上海市闵行区龙茗路1300弄181号(近漕宝路)"},{"poiid":"B2094654DA65ABFD449C","title":"吉亨面馆 龙茗路店","lon":"121.386076054","lat":"31.137458793","category":"68","category_name":"快餐厅","address":"闵行区龙茗路991号(近顾戴路)"},{"poiid":"B2094757D46AABF8449B","title":"龙茗路大胡子烧烤","lon":"121.384584","lat":"31.145686","category":"269","category_name":"烧烤","address":"闵行区龙茗路1408号(近古龙路)"},{"poiid":"B2094655D265A4F4469E","title":"新记茶餐厅","lon":"121.385663054","lat":"31.141303793","category":"72","category_name":"广东菜","address":"闵行区龙茗路1242号(近世纪联华)"},{"poiid":"B2094757D069A6FD449D","title":"85度C(龙茗二店)","lon":"121.38648941","lat":"31.13741984","category":"67","category_name":"甜品店","address":"闵行区龙茗路1045号(近顾戴路)"},{"poiid":"B2094757D068A1F5439E","title":"龙之道保健养生会所(龙茗路店)","lon":"121.38668","lat":"31.1381","category":"149","category_name":"洗浴推拿场所","address":"闵行区龙茗路1025号(近顾戴路)"},{"poiid":"B2094757D165ABFC4799","title":"龙茗路","lon":"121.381011857","lat":"31.1446962574","category":"500","category_name":"未知分类","address":"上海市闵行区星友路"},{"poiid":"B2094654DB64A6FA459C","title":"棒约翰比萨 龙茗店 Papa John's Pizza","lon":"121.38652951858","lat":"31.138571761299","category":"94","category_name":"西餐厅","address":"闵行区龙茗路1048号113单元(近顾戴路)"},{"poiid":"B2094654DA65ABFD449D","title":"红辣椒牛蛙馆","lon":"121.386487054","lat":"31.136871793","category":"71","category_name":"四川菜","address":"闵行区龙茗路999号(近顾戴路)"},{"poiid":"B2094757D164A1FF4299","title":"品味小厨","lon":"121.38273885","lat":"31.14436125","category":"76","category_name":"上海菜","address":"闵行区古龙路平吉一村(近龙茗路)"},{"poiid":"B2094750D36BA5FC4599","title":"上海清花池温泉会","lon":"121.38575531993","lat":"31.143819707043","category":"250","category_name":"公园户外","address":"闵行区龙茗路1300弄古美生活购物广场3楼(近平吉路)"},{"poiid":"B2094655D268A6F9449F","title":"可颂坊 龙茗路店 Croissants de France","lon":"121.385755054","lat":"31.140106793","category":"112","category_name":"糕饼店","address":"闵行区龙茗路1077号(近顾戴路)"},{"poiid":"B2094654DA64A1F8489B","title":"当代艺墅","lon":"121.38243293428","lat":"31.140925704199","category":"47","category_name":"住宅区","address":"当代艺墅位于闵行顾戴路1801号"},{"poiid":"B2094757D16BA1F5439B","title":"重庆鸡公煲 龙茗路店","lon":"121.384559","lat":"31.145326","category":"71","category_name":"四川菜","address":"闵行区龙茗路1680号欧风新天地内(近东兰路)"},{"poiid":"B2094757D06AA7F5479F","title":"古美高级中学羽毛球馆","lon":"121.383572856","lat":"31.1498091576","category":"253","category_name":"校园生活","address":"闵行区龙茗路1628号(近平南路)"},{"poiid":"B2094757D068A7F54698","title":"黎安二村","lon":"121.384","lat":"31.1387","category":"252","category_name":"楼宇机构","address":"上海市闵行区黎安路443号"},{"poiid":"B2094655D264A0FE499D","title":"江南星城一期","lon":"121.38811","lat":"31.13917","category":"47","category_name":"住宅区","address":"上海市闵行区顾戴路1199弄"},{"poiid":"B2094654DB6CA3F9449D","title":"上海菊兴口腔门诊部","lon":"121.38496","lat":"31.14468","category":"162","category_name":"医院","address":"闵行区龙茗路1322号"},{"poiid":"B2094655D26FA2FA469E","title":"红辣椒湘菜馆(龙茗路店)","lon":"121.38544","lat":"31.14337","category":"77","category_name":"湖南菜","address":"闵行区龙茗路999号"},{"poiid":"B2094757D068A6FC4998","title":"富嘉花园","lon":"121.3857054","lat":"31.145056848","category":"47","category_name":"住宅区","address":"上海古龙路1065号"},{"poiid":"B2094654DB6CA3FA449A","title":"可的(古龙路)","lon":"121.38381","lat":"31.14485","category":"117","category_name":"便民商店/便利店","address":"闵行区古龙路1209号"},{"poiid":"B2094757D06BA0FB489D","title":"新記茶餐廳","lon":"121.38506317","lat":"31.144187927","category":"500","category_name":"未知分类","address":"上海閔行區龍茗路1300號"},{"poiid":"B2094654DB6CA3FA4392","title":"闵行区平吉小学","lon":"121.38261","lat":"31.14196","category":"56","category_name":"小学","address":"平吉路1288"},{"poiid":"B2094757DB68A2F54993","title":"南方商城","lon":"121.3857456503745","lat":"31.14095133321386","category":"249","category_name":"购物服务","address":"沪闵路"},{"poiid":"B2094655D265A6FB4299","title":"都市麦风","lon":"121.38441","lat":"31.14504","category":"112","category_name":"糕饼店","address":""},{"poiid":"B2094654DB6AA6FF429A","title":"平吉一村","lon":"121.38234","lat":"31.145792","category":"47","category_name":"住宅区","address":"虹莘路2388弄"},{"poiid":"B2094750D76DA0FB459C","title":"台湾正宗牛肉面","lon":"121.384","lat":"31.1453","category":"68","category_name":"快餐厅","address":"闵行区龙茗路东北菜旁(古龙路龙茗路)"},{"poiid":"B2094757D06FAAFC419F","title":"海底捞火锅(龙茗路店)","lon":"121.3848","lat":"31.14438","category":"86","category_name":"火锅店","address":"闵行区龙茗路1300弄58号古美生活购物广场3楼(古龙路口)"},{"poiid":"B2094757D06FA2F4429A","title":"和记小菜(顾戴路店)","lon":"121.38527","lat":"31.13815","category":"76","category_name":"上海菜","address":"闵行区顾戴路1236号(近龙茗路)"},{"poiid":"B2094757D06AABF54893","title":"清花池会所","lon":"121.385418857","lat":"31.1430372242","category":"500","category_name":"未知分类","address":"上海龙茗路1300弄118号古美生活购物广场3F(靠平吉路)"},{"poiid":"B2094757D06FAAFE419E","title":"藏乐汤坊(龙茗店)","lon":"121.38731","lat":"31.13775","category":"72","category_name":"广东菜","address":"闵行区龙茗路990号十尚坊(近顾戴路)"},{"poiid":"B2094655D264A2FA459F","title":"古美生活购物广场","lon":"121.38602","lat":"31.14339","category":"119","category_name":"商场","address":"闵行区龙茗路平吉路"},{"poiid":"B2094757D06FA4FF479E","title":"东苑半岛花园","lon":"121.38399","lat":"31.139565","category":"47","category_name":"住宅区","address":"上海顾戴路1266弄"},{"poiid":"B2094757D068A1FE4093","title":"必胜客(龙茗路店)","lon":"121.38696","lat":"31.13832","category":"94","category_name":"西餐厅","address":"闵行区龙茗路1024号(近顾戴路)"},{"poiid":"B2094757D068A4F4479D","title":"蓝色港湾","lon":"121.3858","lat":"31.1476","category":"47","category_name":"住宅区","address":"上海龙茗路1458弄"},{"poiid":"B2094655D36CA1FF489A","title":"龙茗路古龙路","lon":"121.38472","lat":"31.14469","category":"38","category_name":"公交车站","address":""},{"poiid":"B2094757D06FAAFF449B","title":"东北人 龙茗路店","lon":"121.386900054","lat":"31.137288793","category":"82","category_name":"东北菜","address":"闵行区龙茗路974号(近顾戴路)"},{"poiid":"B2094757D06FA4FC4992","title":"一兆韦德(古美店)","lon":"121.38578","lat":"31.14249","category":"221","category_name":"健身中心","address":"闵行区龙茗路1300弄58号古美生活购物广场401室、501室(近十尚坊)"},{"poiid":"B2094757D66BABFF4193","title":"700啤酒屋 龙茗路店","lon":"121.38724","lat":"31.13662","category":"260","category_name":"其他","address":"闵行区龙茗路950号(近顾戴路)"},{"poiid":"B2094757D068A7F84698","title":"新时代花园","lon":"121.38811","lat":"31.14085","category":"47","category_name":"住宅区","address":"上海顾戴路1100弄"},{"poiid":"B2094757D069A1FE4499","title":"肯德基 龙茗店 KFC","lon":"121.386409054","lat":"31.138955793","category":"68","category_name":"快餐厅","address":"闵行区龙茗路1048号(近顾戴路)"},{"poiid":"B2094757D068A3FD4393","title":"世纪联华(龙茗路店)","lon":"121.38559","lat":"31.14352","category":"118","category_name":"超级市场","address":"闵行区龙茗路1256号(近平吉路)"},{"poiid":"B2094655D26FA5FC4398","title":"新时代富嘉花园","lon":"121.38657","lat":"31.144928","category":"47","category_name":"住宅区","address":"上海市普陀区新泉路66弄"},{"poiid":"B2094654DB6AA3FA4298","title":"澳门街","lon":"121.38642","lat":"31.13805","category":"260","category_name":"其他","address":"闵行区龙茗路1015号(近顾戴路)"},{"poiid":"B2094757D56CAAFD449C","title":"鸿润兴面馆","lon":"121.385271","lat":"31.144027","category":"68","category_name":"快餐厅","address":"闵行区龙茗路1256号"},{"poiid":"B2094654DB6CA3FA459B","title":"平吉一村(南门)","lon":"121.3828","lat":"31.14497","category":"47","category_name":"住宅区","address":""},{"poiid":"B2094757D069A7FA499F","title":"味千拉面 龙茗路店","lon":"121.386865054","lat":"31.138706793","category":"95","category_name":"日本料理","address":"闵行区龙茗路1048号112单元1楼(近顾戴路)"},{"poiid":"B2094757D06FA6FD409D","title":"平吉二村","lon":"121.380914","lat":"31.142429","category":"252","category_name":"楼宇机构","address":"上海虹莘路2288号"},{"poiid":"B2094757D66EA3F54592","title":"宁波海鲜码头","lon":"121.386685857","lat":"31.1432392282","category":"75","category_name":"浙江菜","address":"闵行区龙茗路1300弄183号1楼(平吉路口)"},{"poiid":"B2094654DB6CA3FA439D","title":"上海市文来中学(高中部)","lon":"121.38175","lat":"31.14015","category":"55","category_name":"中学","address":"闵行区虹莘路2166号(近平吉路)"},{"poiid":"B2094757DB6DA5FC469C","title":"维也纳国际酒店（上海九星店）","lon":"121.385759","lat":"31.142071","category":"216","category_name":"经济型连锁酒店","address":"上海市闵行区龙茗路1300弄181号(近漕宝路)"},{"poiid":"B2094654DA65ABFD449C","title":"吉亨面馆 龙茗路店","lon":"121.386076054","lat":"31.137458793","category":"68","category_name":"快餐厅","address":"闵行区龙茗路991号(近顾戴路)"},{"poiid":"B2094757D46AABF8449B","title":"龙茗路大胡子烧烤","lon":"121.384584","lat":"31.145686","category":"269","category_name":"烧烤","address":"闵行区龙茗路1408号(近古龙路)"},{"poiid":"B2094655D265A4F4469E","title":"新记茶餐厅","lon":"121.385663054","lat":"31.141303793","category":"72","category_name":"广东菜","address":"闵行区龙茗路1242号(近世纪联华)"},{"poiid":"B2094757D069A6FD449D","title":"85度C(龙茗二店)","lon":"121.38648941","lat":"31.13741984","category":"67","category_name":"甜品店","address":"闵行区龙茗路1045号(近顾戴路)"},{"poiid":"B2094757D068A1F5439E","title":"龙之道保健养生会所(龙茗路店)","lon":"121.38668","lat":"31.1381","category":"149","category_name":"洗浴推拿场所","address":"闵行区龙茗路1025号(近顾戴路)"},{"poiid":"B2094757D165ABFC4799","title":"龙茗路","lon":"121.381011857","lat":"31.1446962574","category":"500","category_name":"未知分类","address":"上海市闵行区星友路"},{"poiid":"B2094654DB64A6FA459C","title":"棒约翰比萨 龙茗店 Papa John's Pizza","lon":"121.38652951858","lat":"31.138571761299","category":"94","category_name":"西餐厅","address":"闵行区龙茗路1048号113单元(近顾戴路)"},{"poiid":"B2094654DA65ABFD449D","title":"红辣椒牛蛙馆","lon":"121.386487054","lat":"31.136871793","category":"71","category_name":"四川菜","address":"闵行区龙茗路999号(近顾戴路)"},{"poiid":"B2094757D164A1FF4299","title":"品味小厨","lon":"121.38273885","lat":"31.14436125","category":"76","category_name":"上海菜","address":"闵行区古龙路平吉一村(近龙茗路)"},{"poiid":"B2094750D36BA5FC4599","title":"上海清花池温泉会","lon":"121.38575531993","lat":"31.143819707043","category":"250","category_name":"公园户外","address":"闵行区龙茗路1300弄古美生活购物广场3楼(近平吉路)"},{"poiid":"B2094655D268A6F9449F","title":"可颂坊 龙茗路店 Croissants de France","lon":"121.385755054","lat":"31.140106793","category":"112","category_name":"糕饼店","address":"闵行区龙茗路1077号(近顾戴路)"},{"poiid":"B2094654DA64A1F8489B","title":"当代艺墅","lon":"121.38243293428","lat":"31.140925704199","category":"47","category_name":"住宅区","address":"当代艺墅位于闵行顾戴路1801号"},{"poiid":"B2094757D16BA1F5439B","title":"重庆鸡公煲 龙茗路店","lon":"121.384559","lat":"31.145326","category":"71","category_name":"四川菜","address":"闵行区龙茗路1680号欧风新天地内(近东兰路)"},{"poiid":"B2094757D06AA7F5479F","title":"古美高级中学羽毛球馆","lon":"121.383572856","lat":"31.1498091576","category":"253","category_name":"校园生活","address":"闵行区龙茗路1628号(近平南路)"},{"poiid":"B2094757D068A7F54698","title":"黎安二村","lon":"121.384","lat":"31.1387","category":"252","category_name":"楼宇机构","address":"上海市闵行区黎安路443号"},{"poiid":"B2094655D264A0FE499D","title":"江南星城一期","lon":"121.38811","lat":"31.13917","category":"47","category_name":"住宅区","address":"上海市闵行区顾戴路1199弄"},{"poiid":"B2094654DB6CA3F9449D","title":"上海菊兴口腔门诊部","lon":"121.38496","lat":"31.14468","category":"162","category_name":"医院","address":"闵行区龙茗路1322号"},{"poiid":"B2094655D26FA2FA469E","title":"红辣椒湘菜馆(龙茗路店)","lon":"121.38544","lat":"31.14337","category":"77","category_name":"湖南菜","address":"闵行区龙茗路999号"},{"poiid":"B2094757D068A6FC4998","title":"富嘉花园","lon":"121.3857054","lat":"31.145056848","category":"47","category_name":"住宅区","address":"上海古龙路1065号"},{"poiid":"B2094654DB6CA3FA449A","title":"可的(古龙路)","lon":"121.38381","lat":"31.14485","category":"117","category_name":"便民商店/便利店","address":"闵行区古龙路1209号"},{"poiid":"B2094757D06BA0FB489D","title":"新記茶餐廳","lon":"121.38506317","lat":"31.144187927","category":"500","category_name":"未知分类","address":"上海閔行區龍茗路1300號"},{"poiid":"B2094654DB6CA3FA4392","title":"闵行区平吉小学","lon":"121.38261","lat":"31.14196","category":"56","category_name":"小学","address":"平吉路1288"},{"poiid":"B2094757DB68A2F54993","title":"南方商城","lon":"121.3857456503745","lat":"31.14095133321386","category":"249","category_name":"购物服务","address":"沪闵路"},{"poiid":"B2094655D265A6FB4299","title":"都市麦风","lon":"121.38441","lat":"31.14504","category":"112","category_name":"糕饼店","address":""},{"poiid":"B2094654DB6AA6FF429A","title":"平吉一村","lon":"121.38234","lat":"31.145792","category":"47","category_name":"住宅区","address":"虹莘路2388弄"},{"poiid":"B2094750D76DA0FB459C","title":"台湾正宗牛肉面","lon":"121.384","lat":"31.1453","category":"68","category_name":"快餐厅","address":"闵行区龙茗路东北菜旁(古龙路龙茗路)"}]