[{"poiid":"B2094654DA6CA2F4429B","title":"广电大厦","lon":"121.46485","lat":"31.23036","category":"46","category_name":"楼宇","address":"上海市静安区南京西路651号"},{"poiid":"B2094757D06FA3F4449B","title":"泰廊","lon":"121.46409","lat":"31.2338","category":"99","category_name":"泰国／越南菜品餐厅","address":"静安区大田路127号(近北京西路)"},{"poiid":"B2094757D06FA1F9489A","title":"藏珑泰厨","lon":"121.46120173","lat":"31.230886314","category":"99","category_name":"泰国／越南菜品餐厅","address":"静安区南京西路818号818广场6楼(近石门一路)"},{"poiid":"B2094753D76FAAFA449C","title":"上海滩国泰旗舰店","lon":"121.466011","lat":"31.216125","category":"249","category_name":"购物服务","address":"淮海中路868号"},{"poiid":"B209475CD564A7F84292","title":"上海滩新天地店","lon":"121.47463","lat":"31.22164","category":"119","category_name":"商场","address":"\"太仓路181弄新天地北里15号\r\n\""},{"poiid":"B209475CD564A7F8439E","title":"上海滩中信泰富店","lon":"121.45602","lat":"31.22851","category":"119","category_name":"商场","address":"\"南京西路1168号中信泰富广场，店铺号221.\r\n\""},{"poiid":"B2094750DA6DAAFD4099","title":"MOOK CLUB","lon":"121.4629","lat":"31.23149","category":"172","category_name":"酒吧","address":"静安区南京西路758号5-6楼(近凤阳路)"},{"poiid":"B2094655D26FA6FB4892","title":"文新报业大厦","lon":"121.464","lat":"31.2318","category":"46","category_name":"楼宇","address":"上海市静安区威海路755号"},{"poiid":"B2094757D06FA2FA459B","title":"wooden box cafe","lon":"121.46442794","lat":"31.230162879","category":"65","category_name":"咖啡厅","address":"静安区青海路9号(近上海电视台)"},{"poiid":"B2094757D06FA2FC439F","title":"静安雕塑公园","lon":"121.46159","lat":"31.2328","category":"196","category_name":"公园","address":"静安区石门二路128号(近北京西路)"},{"poiid":"B2094654DA6CA1F84292","title":"王家沙(南京西路)","lon":"121.46122","lat":"31.23063","category":"257","category_name":"中餐厅","address":"静安区南京西路805号(近石门一路)"},{"poiid":"B2094757D06FA2FB449B","title":"岳阳医院名医特诊部(青海路分院)","lon":"121.46431","lat":"31.23029","category":"162","category_name":"医院","address":"静安区青海路44号(近南京西路)"},{"poiid":"B2094757D06FA0F44298","title":"WINDOWS(青海路店)","lon":"121.46414","lat":"31.2309","category":"260","category_name":"其他","address":"静安区南京西路698号(上海电视台对面)"},{"poiid":"B2094757D06FABFE419D","title":"吴江路","lon":"121.463009","lat":"31.230562","category":"260","category_name":"其他","address":"上海静安区吴江路"},{"poiid":"B2094655D26EA4FC409E","title":"甜蜜蜜(吴江店)","lon":"121.46241","lat":"31.23028","category":"87","category_name":"特色／地方风味餐厅","address":"静安区吴江路178号(近泰兴路)"},{"poiid":"B2094750DA6DABF5439F","title":"MOOK CLUB","lon":"121.462947","lat":"31.231401","category":"248","category_name":"生活娱乐","address":"静安区南京西路758号"},{"poiid":"B2094757D06FA4FF499D","title":"小南国(众鑫店)","lon":"121.46378","lat":"31.23014","category":"76","category_name":"上海菜","address":"静安区吴江路31号东方众鑫大厦2-5楼(近吴江路)"},{"poiid":"B2094757D06AA5F4459D","title":"Awfully Chocolate","lon":"121.461541738","lat":"31.2302323001","category":"500","category_name":"未知分类","address":"上海市静安区泰兴路"},{"poiid":"B2094757D06FA3FF419F","title":"Wagas沃歌斯(吴江路店)","lon":"121.46191406","lat":"31.230632782","category":"94","category_name":"西餐厅","address":"静安区吴江路169号四季坊116室(近泰兴路)"},{"poiid":"B2094655D26BA1FF469C","title":"南京西路上海电视台","lon":"121.46267","lat":"31.23099","category":"38","category_name":"公交车站","address":""},{"poiid":"B2094757D069A1FC459B","title":"相扑烤肉","lon":"121.462337738","lat":"31.2299672945","category":"257","category_name":"中餐厅","address":"上海吴江路169号四季坊商场2楼201﹣206单元"},{"poiid":"B2094757D068A3FB429B","title":"上海市东方公证处","lon":"121.4634585","lat":"31.231949636","category":"46","category_name":"楼宇","address":"上海静安区凤阳路660号（接待大厅 凤阳路598号）"},{"poiid":"B2094757D069A2F9429D","title":"玛莎百货咖啡厅","lon":"121.460338054","lat":"31.230278793","category":"65","category_name":"咖啡厅","address":"南京西路863号玛莎百货4楼近石门一路"},{"poiid":"B2094757D06FAAF8499A","title":"嘉发大厦","lon":"121.4627151","lat":"31.23285293","category":"46","category_name":"楼宇","address":"新华都商务花园位于长宁定西路685号"},{"poiid":"B2094757DA6EAAFD429A","title":"御景轩凯宾斯基酒店","lon":"121.465211999998","lat":"31.2323450000001","category":"251","category_name":"出行住宿","address":"静安区凤阳路601号"},{"poiid":"B2094750DB6BA3F4469B","title":"mook","lon":"121.462669","lat":"31.23101","category":"500","category_name":"未知分类","address":null},{"poiid":"B2094654DA6CA2FB489D","title":"华华川菜馆","lon":"121.46253","lat":"31.2302","category":"71","category_name":"四川菜","address":"静安区奉贤路61号(近石门二路)"},{"poiid":"B2094757D069A3FB4693","title":"东方有线大厦","lon":"121.463497653","lat":"31.2304960495","category":"46","category_name":"楼宇","address":"上海南京西路699号"},{"poiid":"B2094757D06FA4FD459D","title":"爱茜茜里(吴江路店)","lon":"121.46266","lat":"31.23008","category":"257","category_name":"中餐厅","address":"静安区吴江路166号1楼(近石门一路)"},{"poiid":"B2094750D364A2F84692","title":"eden-LoungeClub","lon":"121.46263588015","lat":"31.23111042168","category":"111","category_name":"休闲餐饮场所","address":"南京西路760号博爱大厦4楼(阿斯顿.马丁车展厅楼上近石门二路)"},{"poiid":"B2094654DB6BA6F4449B","title":"振鼎鸡(静安店)","lon":"121.46159","lat":"31.23197","category":"68","category_name":"快餐厅","address":"静安区石门二路61号(近北京西路)"},{"poiid":"B2094655D26DA6FE439A","title":"上海小南国吴江店","lon":"121.46344","lat":"31.23039","category":"257","category_name":"中餐厅","address":""},{"poiid":"B2094757D468AAF9459C","title":"GCX","lon":"121.461331","lat":"31.230426","category":"94","category_name":"西餐厅","address":"静安区吴江路休闲步行街138号2楼(近石门一路)"},{"poiid":"B2094757D06FA0FA4992","title":"上海壹街区","lon":"121.465136","lat":"31.232562","category":"47","category_name":"住宅区","address":"静安区凤阳路588弄"},{"poiid":"B2094757D465A6F8469C","title":"味千拉面 818广场店","lon":"121.461623054","lat":"31.231004793","category":"95","category_name":"日本料理","address":"静安区南京西路818号818广场B1楼104B(近石门一路)"},{"poiid":"B2094757D068A7F8459B","title":"南京美发店(南京西路店)","lon":"121.46209","lat":"31.23075","category":"148","category_name":"美容美发店","address":"静安区南京西路784号(近石门一路)"},{"poiid":"B2094654DA6CA2FB409D","title":"东方众鑫大厦","lon":"121.46334","lat":"31.23035","category":"46","category_name":"楼宇","address":"朝阳亚运村北炎黄艺术馆旁"},{"poiid":"B2094757D16EA7FD4293","title":"东来顺","lon":"121.462352738","lat":"31.2320483388","category":"500","category_name":"未知分类","address":"上海石门二路215号"},{"poiid":"B2094654DA6CA2FF469A","title":"东展商业大厦","lon":"121.46185","lat":"31.23266","category":"46","category_name":"楼宇","address":"丰台学城海鹰路1号，3号"},{"poiid":"B2094654DA6CA2F8499B","title":"吴江路东段小吃街","lon":"121.46176","lat":"31.23032","category":"116","category_name":"特色商业街","address":"吴江路"},{"poiid":"B2094757DB64A6FF489A","title":"酷酷璐（四季坊店）","lon":"121.462","lat":"31.2299","category":"87","category_name":"特色／地方风味餐厅","address":"上海静安区吴江路169号 四季坊一层"},{"poiid":"B2094751D56FA1FE479C","title":"大阪王将","lon":"121.463198","lat":"31.230088","category":"247","category_name":"餐饮美食","address":"静安区吴江路169号四季坊1楼(近石门一路)"},{"poiid":"B2094757D068A3F4439C","title":"虾球传","lon":"121.461917054","lat":"31.231753793","category":"71","category_name":"四川菜","address":"静安区奉贤路55号(近石门二路)"},{"poiid":"B2094757D06FA2FF409A","title":"无印良品MUJI(南京西路)","lon":"121.46100542","lat":"31.231078614","category":"123","category_name":"家具建材市场","address":"上海静安区南京西路818号818广场308-311(近石门一路)"},{"poiid":"B2094654DA6CA2FA479A","title":"小黑蚝情 吴江路店","lon":"121.45784441073","lat":"31.232374844312","category":"257","category_name":"中餐厅","address":"吴江路82号近石门一路"},{"poiid":"B2094757D068A2FE409E","title":"蜀地辣子鱼 静安店","lon":"121.46161651611","lat":"31.231472015381","category":"71","category_name":"四川菜","address":"静安区奉贤路53号(近石门二路)"},{"poiid":"B2094757D16BA2FE479B","title":"快乐柠檬","lon":"121.46243273","lat":"31.229699288","category":"113","category_name":"冷饮店","address":"静安区吴江路150-1号(近石门一路)"},{"poiid":"B2094757D16AA6F84193","title":"地铁一号线衡山路","lon":"121.461844738","lat":"31.2327313534","category":"500","category_name":"未知分类","address":"上海市静安区泰兴路"},{"poiid":"B2094655D26FA7FB4898","title":"甜中甜蜜中蜜港式美食专门店(吴江路)","lon":"121.46224","lat":"31.23043","category":"257","category_name":"中餐厅","address":"吴江路73号"},{"poiid":"B2094654DA6CA2F8449C","title":"吉藏","lon":"121.46176","lat":"31.23151","category":"269","category_name":"烧烤","address":"静安区石门二路19号(近南京西路)"},{"poiid":"B2094757D06FA5FB449D","title":"Windows Underground","lon":"121.46417286","lat":"31.231047915","category":"172","category_name":"酒吧","address":"上海静安区南京西路698号"},{"poiid":"B2094753D669A7FC489D","title":"MOOK酒吧","lon":"121.462707","lat":"31.23109","category":"247","category_name":"餐饮美食","address":"上海市 石门一路南京西路"},{"poiid":"B2094751D56AA5F8449D","title":"木鸭梨","lon":"121.46265","lat":"31.231571","category":"247","category_name":"餐饮美食","address":"，科勒大厦"},{"poiid":"B2094654DB65A7F4409B","title":"禾绿回转寿司南京西路店","lon":"121.46335","lat":"31.23035","category":"95","category_name":"日本料理","address":"吴江路31号东方众鑫大厦1楼近南京西路"},{"poiid":"B2094750D564AAFB4292","title":"藏龙云海","lon":"121.461257","lat":"31.230861","category":"247","category_name":"餐饮美食","address":"南京西路818广场6楼"},{"poiid":"B2094750D76DA5F8499F","title":"阿宝面馆","lon":"121.465","lat":"31.2308","category":"68","category_name":"快餐厅","address":"静安区南京西路580号南证大厦4楼(近成都路)"},{"poiid":"B2094757D169A3FC469B","title":"吉藏日本料理","lon":"121.461995738","lat":"31.2331023613","category":"500","category_name":"未知分类","address":"上海静安区石门二路19号(近南京西路)"},{"poiid":"B2094757D064A7FA499D","title":"上海电视台17楼东方卫视","lon":"121.46445823","lat":"31.232827705","category":"500","category_name":"未知分类","address":"上海威海路298号"},{"poiid":"B2094757D06BA3F9489C","title":"一茶一座(四季坊)","lon":"121.461664738","lat":"31.2301002973","category":"47","category_name":"住宅区","address":"上海吴江路169号"},{"poiid":"B2094750D164ABFC419E","title":"凯宾斯基御锦轩(The One Shanghai)","lon":"121.46516923247","lat":"31.232415869772","category":"215","category_name":"三星级宾馆","address":"上海市静安区凤阳路601号"},{"poiid":"B2094757D069ABF8499B","title":"Doutonbori takoyaki kukuru","lon":"121.46205673","lat":"31.2302423","category":"500","category_name":"未知分类","address":"上海市吴江路"},{"poiid":"B2094757D16CA4FA409E","title":"玉房","lon":"121.461591054","lat":"31.232884793","category":"95","category_name":"日本料理","address":"静安区北京西路691号(近石门二路)"},{"poiid":"B2094654DA6CA2F44298","title":"上海文广新闻传媒集团","lon":"121.46484","lat":"31.23036","category":"252","category_name":"楼宇机构","address":"南京西路651号广电大厦"},{"poiid":"B2094757D66DABFE449D","title":"棒约翰","lon":"121.46230673","lat":"31.229854292","category":"500","category_name":"未知分类","address":"上海市静安区吴江路"},{"poiid":"B2094654DA6CA2F5419B","title":"上海中医药大学附属岳阳中西医结合医院门诊部","lon":"121.46398","lat":"31.23037","category":"162","category_name":"医院","address":"青海路44"},{"poiid":"B2094757D06FA6FF4998","title":"阿斯顿马丁旗舰店","lon":"121.46210383","lat":"31.229873452","category":"158","category_name":"汽车销售","address":"上海南京西路758号博爱大厦一楼"},{"poiid":"B2094655D26CABF84298","title":"嘉发大厦A栋","lon":"121.46391","lat":"31.23291","category":"46","category_name":"楼宇","address":"大田路129弄1号"},{"poiid":"B2094655D26CABFE489A","title":"威海别墅","lon":"121.464","lat":"31.2322","category":"47","category_name":"住宅区","address":"威海路727弄2-40号"},{"poiid":"B2094757D069A3F94198","title":"现代生活餐厅","lon":"121.462380886","lat":"31.2310643208","category":"91","category_name":"台湾菜","address":"静安区石门二路19号-2(近南京西路)"},{"poiid":"B2094757D16DAAFB489A","title":"天津路","lon":"121.462785838","lat":"31.2316248298","category":"47","category_name":"住宅区","address":"上海天津路"},{"poiid":"B2094654DA6CA2F8499A","title":"马哥孛罗 南京西路店 Marco Polo","lon":"121.461523054","lat":"31.230966793","category":"112","category_name":"糕饼店","address":"静安区南京西路772号(近石门一路)"},{"poiid":"B2094757D06FA6FD499A","title":"全家便利 FamilyMart(石门店)","lon":"121.46218","lat":"31.23099","category":"117","category_name":"便民商店/便利店","address":"上海静安区石门二路3号(近南京西路)"},{"poiid":"B2094655D264A5FA4698","title":"新京大厦","lon":"121.46324","lat":"31.23049","category":"46","category_name":"楼宇","address":"宣武区南横街东口"},{"poiid":"B2094757D06AA6F8469B","title":"意花园","lon":"121.46225","lat":"31.23249","category":"94","category_name":"西餐厅","address":"静安区北京西路607号(近石门二路)"},{"poiid":"B2094750DB6AA6FD499E","title":"上海广电大厦","lon":"121.46302","lat":"31.230594","category":"263","category_name":"公司","address":"南京西路651号"},{"poiid":"B2094757D468A4FF449B","title":"池上便当 奉贤路店","lon":"121.462017054","lat":"31.231723793","category":"68","category_name":"快餐厅","address":"静安区奉贤路55号(近石门二路)"},{"poiid":"B2094757D16DA7F5439C","title":"益普索","lon":"121.461008738","lat":"31.2315363279","category":"46","category_name":"楼宇","address":"上海南京西路1038号梅龙镇广场9楼"},{"poiid":"B2094753D26EA3FE499A","title":"The Cookery酷瑞西餐馆","lon":"121.464401","lat":"31.233083","category":"247","category_name":"餐饮美食","address":"上海市 南京西路388号仙乐斯广场108单元(近黄陂北路)"},{"poiid":"B2094757D16DAAFC4999","title":"尼泊尔联邦民主共和国驻上海名誉领事馆(Honorary Consul of Federal Democratic Republic of Nepal in Shanghai)","lon":"121.461889426","lat":"31.2326477102","category":"46","category_name":"楼宇","address":"上海静安区北京西路669号东展商业大厦16楼A座(近石门二路)"},{"poiid":"B2094757D06AA0F4409B","title":"法拉利马莎拉蒂","lon":"121.46148507","lat":"31.231865594","category":"247","category_name":"餐饮美食","address":"上海北京西路708"},{"poiid":"B2094655D26FA2F94593","title":"九龙冰室(石门二路店)","lon":"121.46173","lat":"31.23163","category":"113","category_name":"冷饮店","address":"静安区石门二路19号"},{"poiid":"B2094654DA6CA2FF4892","title":"上外静安外国语中学","lon":"121.46219","lat":"31.23269","category":"55","category_name":"中学","address":"静安区北京西路653号(近石门二路)"},{"poiid":"B2094654DA6CA2F84892","title":"南京美发","lon":"121.46163","lat":"31.23106","category":"148","category_name":"美容美发店","address":"南京西路784"},{"poiid":"B2094654DA6CA2F84099","title":"凯司令西饼(奉贤路)","lon":"121.46191","lat":"31.23197","category":"112","category_name":"糕饼店","address":"静安区奉贤路50号(近石门二路)"},{"poiid":"B2094655D26EA1F44093","title":"青海路休闲街","lon":"121.46408","lat":"31.23017","category":"116","category_name":"特色商业街","address":""},{"poiid":"B2094750D464A1FA409A","title":"一兆韦德(凤阳路)","lon":"121.462295","lat":"31.232021","category":"248","category_name":"生活娱乐","address":"静安区凤阳路601号3楼(近大田路)"},{"poiid":"B2094751D264ABFB489E","title":"COSTA上海SMG上视大厦","lon":"121.464447","lat":"31.230576","category":"247","category_name":"餐饮美食","address":null},{"poiid":"B2094654DB6BA6F4449D","title":"嘉发大厦B栋","lon":"121.46347","lat":"31.23278","category":"46","category_name":"楼宇","address":"北京西路605弄57号"},{"poiid":"B2094753DB68A4FE419D","title":"山下料理","lon":"121.462577","lat":"31.231161","category":"247","category_name":"餐饮美食","address":"上海市 南京西路818号"},{"poiid":"B2094757DA69A2F54193","title":"梦蔓亭","lon":"121.46320450808","lat":"31.231082899506","category":"119","category_name":"商场","address":"南京西路758号博爱大厦11楼C座"},{"poiid":"B2094753DA6AA4FF479B","title":"pascasa元意","lon":"121.461463","lat":"31.231111","category":"500","category_name":"未知分类","address":"上海市 南京西路818号5楼"},{"poiid":"B2094757D16AA3FE459F","title":"中医门诊部","lon":"121.46316","lat":"31.2302","category":"162","category_name":"医院","address":"上海静安区石门路(近大沽路)  "},{"poiid":"B2094752DB6DABF9479B","title":"倍乐创意韩国料理","lon":"121.463","lat":"31.229635","category":"247","category_name":"餐饮美食","address":"上海市 上海市静安区新闸路848号"},{"poiid":"B2094757D069A7FA4893","title":"吉祥日本料理 818广场店","lon":"121.461569054","lat":"31.231063793","category":"95","category_name":"日本料理","address":"上海静安区南京西路818号 818广场六层"},{"poiid":"B2094654DB6AA3FD4899","title":"红宝石(石门店)","lon":"121.46171","lat":"31.23026","category":"247","category_name":"餐饮美食","address":"静安区石门一路366号(近吴江路)"},{"poiid":"B2094655D26DA7FD429D","title":"王家沙花苑(北门)","lon":"121.46275","lat":"31.23323","category":"47","category_name":"住宅区","address":"北京西路605弄2-63号"},{"poiid":"B2094757D16AAAFE469E","title":"爱茜茜里","lon":"121.46193673","lat":"31.229962294","category":"247","category_name":"餐饮美食","address":"上海市静安区泰兴路"},{"poiid":"B2094655D26FA2F4459A","title":"济州岛韩国料理(吴江路店)","lon":"121.46205","lat":"31.23051","category":"96","category_name":"韩国料理","address":"静安区吴江路102号(近石门一路)"},{"poiid":"B2094757DB64A6F8499D","title":"牛太本阵（四季坊店）","lon":"121.462","lat":"31.2299","category":"86","category_name":"火锅店","address":"上海静安区吴江路169号 四季坊二层"},{"poiid":"B2094757D068A5F8469C","title":"成都北路南京西路","lon":"121.46225284","lat":"31.231437265","category":"500","category_name":"未知分类","address":"上海成都北路南京西路"},{"poiid":"B2094655D264A4FE429F","title":"长春藤大厦","lon":"121.46127","lat":"31.23099","category":"46","category_name":"楼宇","address":"南京西路804号"},{"poiid":"B2094655D26DA3FE4593","title":"同孚大楼","lon":"121.46129","lat":"31.230652","category":"46","category_name":"楼宇","address":"南京西路803号"},{"poiid":"B2094654DA6CA2FA489D","title":"五月花商务中心","lon":"121.46395","lat":"31.23072","category":"46","category_name":"楼宇","address":"静安区吴江路15"},{"poiid":"B2094757D16AA0FC439B","title":"新华保险分公司","lon":"121.461539238","lat":"31.2320774728","category":"46","category_name":"楼宇","address":"上海北京西路669号"},{"poiid":"B2094655D268ABFE429D","title":"集邮大厦","lon":"121.46403","lat":"31.23116","category":"46","category_name":"楼宇","address":"南京西路698号"},{"poiid":"B2094655D26AA0FD449A","title":"Neverland桌面游戏南京西路店","lon":"121.46413","lat":"31.23307","category":"247","category_name":"餐饮美食","address":"静安区大田路129弄嘉发大厦B幢8A室(近凤阳路)"},{"poiid":"B2094654DA6CA2F9419F","title":"华联投资商务楼","lon":"121.46437","lat":"31.23258","category":"46","category_name":"楼宇","address":"大田路105"},{"poiid":"B2094654DA6CA2F84298","title":"妃香酒馆 凤阳路店 Syoukousyu Bar","lon":"121.46230256232","lat":"31.231283008569","category":"247","category_name":"餐饮美食","address":"凤阳路728号近南京西路"},{"poiid":"B2094757D16BA2FC4198","title":"大田路","lon":"121.464386","lat":"31.232592","category":"500","category_name":"未知分类","address":"上海市静安区,大田路山海关路"},{"poiid":"B2094654DA6CA2FF499A","title":"可的(北京西路)","lon":"121.46218","lat":"31.233","category":"117","category_name":"便民商店/便利店","address":"静安区北京西路651号(北京西路石门二路)"},{"poiid":"B2094654DA6CA2FB4092","title":"罗森便利","lon":"121.46334","lat":"31.23036","category":"117","category_name":"便民商店/便利店","address":"吴江路31号东方众鑫大厦1层"},{"poiid":"B2094654DA6CA2FA4592","title":"仔仔烤鱼","lon":"121.46175","lat":"31.23046","category":"87","category_name":"特色／地方风味餐厅","address":"吴江路120"},{"poiid":"B2094757D66AA6FE429F","title":"杂家辣味馆 奉贤路店","lon":"121.461198054","lat":"31.231352793","category":"71","category_name":"四川菜","address":"上海静安区奉贤路61号(近石门二路)  "},{"poiid":"B2094655D268A3FE4498","title":"王家沙花苑","lon":"121.46306","lat":"31.233019","category":"47","category_name":"住宅区","address":"北京西路605弄2-63号"},{"poiid":"B2094757D169A4FD479D","title":"Hello Kitty Cafe(四季坊店)","lon":"121.461917","lat":"31.230633","category":"500","category_name":"未知分类","address":"静安区吴江路169号四季坊B1楼B114(近石门一路)"},{"poiid":"B2094654DB69A6FE4592","title":"上海浙江商贸城","lon":"121.463","lat":"31.2323","category":"47","category_name":"住宅区","address":"上海浙江商贸城位于静安陕西北路162号"},{"poiid":"B209475CD764A2FB4493","title":"星巴克 南京西路店","lon":"121.46287","lat":"31.23117","category":"65","category_name":"咖啡厅","address":"南京西路760号1楼"},{"poiid":"B2094752D46DA7F9469C","title":"DS WORLD","lon":"121.46242","lat":"31.230416","category":"500","category_name":"未知分类","address":"上海市南京西路762号"},{"poiid":"B2094654DA6CA2F84398","title":"好德(石门二路)","lon":"121.46217","lat":"31.2313","category":"117","category_name":"便民商店/便利店","address":"石门二路2-4"},{"poiid":"B2094654DA6CA2FB499F","title":"良友金伴(吴江路)","lon":"121.46199","lat":"31.23035","category":"117","category_name":"便民商店/便利店","address":"吴江路107"},{"poiid":"B2094654DA6CA2FF449F","title":"西王小区","lon":"121.46118","lat":"31.232212","category":"47","category_name":"住宅区","address":"奉贤路68弄10-68号"},{"poiid":"B2094654DA6CA2FF489D","title":"上海市建承中学","lon":"121.4622","lat":"31.2327","category":"55","category_name":"中学","address":"北京西路653"},{"poiid":"B2094752D36FA6FB419B","title":"C\\'est la vie流年咖啡馆","lon":"121.463909","lat":"31.232638","category":"247","category_name":"餐饮美食","address":"南京西路"},{"poiid":"B2094655D26EA4FB439A","title":"风波庄武侠主题餐厅","lon":"121.46118","lat":"31.23155","category":"68","category_name":"快餐厅","address":"静安区奉贤路61号"},{"poiid":"B2094654DA6CA2F8449D","title":"德义大楼(石门二路)","lon":"121.46182","lat":"31.23123","category":"47","category_name":"住宅区","address":"石门二路15弄3"},{"poiid":"B2094750DB6DA4FE4093","title":"地铁2号线","lon":"121.461776","lat":"31.232238","category":"500","category_name":"未知分类","address":null},{"poiid":"B2094757D164A2F8499C","title":"上外静安外国语小学","lon":"121.463903738","lat":"31.2331573625","category":"253","category_name":"校园生活","address":"静安区北京西路605弄47号(近大田路)"},{"poiid":"B2094757D66CA2F8459E","title":"丽尔美甲","lon":"121.46161","lat":"31.23053","category":"122","category_name":"个人用品/化妆品店","address":"上海静安区南京西路818号818广场405单元(近石门一路)  "},{"poiid":"B2094655D26DA3FA4998","title":"中国电信奉贤路营业厅","lon":"121.46215","lat":"31.23205","category":"151","category_name":"电讯营业厅","address":"奉贤路48号"},{"poiid":"B2094655D26DABF54099","title":"上海147桌球俱乐部","lon":"121.46455","lat":"31.23286","category":"171","category_name":"台球厅","address":"静安区大田路128号B1楼(近北京西路)"},{"poiid":"B2094654DB6AA3F9469E","title":"新华书店静安区店","lon":"121.46209","lat":"31.23085","category":"125","category_name":"书店","address":"上海市静安区南京西路777号"},{"poiid":"B2094753DA6BA1FD479D","title":"Cat Eyes猫咪咖啡屋","lon":"121.463531","lat":"31.232856","category":"500","category_name":"未知分类","address":"上海市 大田路"},{"poiid":"B2094753D46BA3FC4092","title":"重庆小天鹅","lon":"121.461227","lat":"31.230819","category":"500","category_name":"未知分类","address":"上海市 南京西路818号818广场负一楼B101单元"},{"poiid":"B2094757D16DA1FD459A","title":"舒仕纤体运动馆(吴江路店)","lon":"121.46362","lat":"31.23008","category":"148","category_name":"美容美发店","address":"上海静安区吴江路31号东方众鑫大厦7层(近南京西路)  "},{"poiid":"B2094654DA6CA1FE4392","title":"静安新村","lon":"121.4651","lat":"31.231558","category":"47","category_name":"住宅区","address":"南京西路612弄3-88号"},{"poiid":"B2094757D168A4FB4898","title":"南京西路石门路口","lon":"121.462783714","lat":"31.2309323651","category":"500","category_name":"未知分类","address":"上海南京西路石门路口"},{"poiid":"B2094654DA6CA1F84293","title":"中国工商银行石门一路支行","lon":"121.46132","lat":"31.23066","category":"150","category_name":"银行","address":"静安区南京西路801号近石门一路(南京西路石门一路)"},{"poiid":"B2094757D069A0FA449E","title":"星工坊(石门二路店)","lon":"121.46191072","lat":"31.231170175","category":"500","category_name":"未知分类","address":"上海石门二路9-11号"},{"poiid":"B2094757D068ABF44592","title":"石门二路北京西路","lon":"121.46167755","lat":"31.232124328","category":"260","category_name":"其他","address":"上海石门二路北京西路"},{"poiid":"B2094655D26DA7FE489B","title":"德义大楼(东门)","lon":"121.46186","lat":"31.23133","category":"47","category_name":"住宅区","address":""},{"poiid":"B2094654DB6BA6F4449C","title":"德义大楼(一门)","lon":"121.46168","lat":"31.23107","category":"47","category_name":"住宅区","address":"南京西路778"},{"poiid":"B2094655D26DA7FE429C","title":"业华里(北门)","lon":"121.46212","lat":"31.23089","category":"47","category_name":"住宅区","address":"南京西路769弄2-12号"},{"poiid":"B2094655D26DA7FE419D","title":"天乐坊(北门)","lon":"121.46305","lat":"31.23042","category":"47","category_name":"住宅区","address":"吴江路61弄1-58号"},{"poiid":"B2094655D26DA7FD499F","title":"柏德里(北门)","lon":"121.4623","lat":"31.23023","category":"47","category_name":"住宅区","address":""},{"poiid":"B2094655D26DA2FC4799","title":"德义大楼(二门)","lon":"121.46159","lat":"31.23103","category":"47","category_name":"住宅区","address":"南京西路788"},{"poiid":"B2094757D66CAAF4449E","title":"罗森便利(天山路店)","lon":"121.463379","lat":"31.230353","category":"249","category_name":"购物服务","address":"上海长宁区天山路弘鑫广场地铁2号线娄山关路4号出口"},{"poiid":"B2094757D068A5FE4299","title":"凤阳路大田路路口","lon":"121.464323","lat":"31.232573","category":"500","category_name":"未知分类","address":"上海到家了"},{"poiid":"B2094757D064A1F8489F","title":"江阴路花鸟市场","lon":"121.46436371","lat":"31.230124222","category":"249","category_name":"购物服务","address":"黄浦区黄家阙路(永宁街中华路)"},{"poiid":"B2094757DA69A1FD429E","title":"寺库上海库会所","lon":"121.46305430466","lat":"31.231284728328","category":"638","category_name":"金融服务类公司","address":"静安区南京西路758号博爱大厦1-3楼"},{"poiid":"B2094654DA6CA2F8449F","title":"天缘阁 石门路店","lon":"121.46183747021","lat":"31.231023970019","category":"260","category_name":"其他","address":"静安区石门二路19号(近南京西路)"},{"poiid":"B2094757DB6EABF5449A","title":"新天地朗廷","lon":"121.462867","lat":"31.23327","category":"500","category_name":"未知分类","address":"马当路99号"},{"poiid":"B2094757D06AA7FB459B","title":"emoi基本生活(818广场店)","lon":"121.46114975","lat":"31.230848771","category":"123","category_name":"家具建材市场","address":"静安区南京西路818号818广场314号(近石门一路)"},{"poiid":"B2094757D065AAFB419D","title":"游戏2000","lon":"121.46364","lat":"31.2316","category":"138","category_name":"家电电子卖场","address":"黄浦区大田路105号(近地铁2号线南京西路站)"},{"poiid":"B2094757D16BA3F9429A","title":"miracle makers时尚彩绘店","lon":"121.464426738","lat":"31.2321653413","category":"500","category_name":"未知分类","address":"上海凤阳路578号"},{"poiid":"B2094750DB6AA2FE4398","title":"花旗银行南京西路支行","lon":"121.462455","lat":"31.230775","category":"500","category_name":"未知分类","address":"南京西路760号"},{"poiid":"B2094750D565A7FA489B","title":"一兆伟德","lon":"121.465133","lat":"31.23213","category":"500","category_name":"未知分类","address":"凤阳路"},{"poiid":"B209475CD664ABF5419B","title":"上海虹桥机场","lon":"121.464492","lat":"31.232608","category":"500","category_name":"未知分类","address":"上海市 上海虹桥机场"},{"poiid":"B2094757D16FA0FE489D","title":"大中里项目部","lon":"121.463853738","lat":"31.2300092954","category":"500","category_name":"未知分类","address":"上海南京西路石门一路"},{"poiid":"B2094750D66AA0F54998","title":"levis","lon":"121.461715","lat":"31.230827","category":"249","category_name":"购物服务","address":"南京西路790号"},{"poiid":"B2094757D66CA0F4429F","title":"少年儿童书店","lon":"121.46233","lat":"31.23091","category":"125","category_name":"书店","address":"静安区石门二路3号(南京西路口)"},{"poiid":"B2094654DA6CA2FF459D","title":"上海浦东发展银行静安支行","lon":"121.46173","lat":"31.23266","category":"150","category_name":"银行","address":"静安区石门二路88号"},{"poiid":"B2094753D66FA4F4449E","title":"藏龙泰厨","lon":"121.461349","lat":"31.230621","category":"500","category_name":"未知分类","address":"上海市 静安区南京西路818号6楼"},{"poiid":"B2094757D16BA1FF409A","title":"新华人寿上海分公司","lon":"121.461422238","lat":"31.2327982548","category":"500","category_name":"未知分类","address":"上海市北京西路669号"},{"poiid":"B2094757D164A7F54498","title":"广电大厦8楼","lon":"121.464007738","lat":"31.2302973015","category":"500","category_name":"未知分类","address":"上海市静安区南京西路651号"},{"poiid":"B2094654DA6CA2FF479E","title":"尼泊尔驻上海领事馆签证处","lon":"121.46184","lat":"31.23266","category":"252","category_name":"楼宇机构","address":"北京西路669号东展商业大厦16-A"},{"poiid":"B2094655D26CABF9449B","title":"建安雕塑公园(一号门)","lon":"121.46137","lat":"31.23304","category":"680","category_name":"楼宇机构","address":"石门二路128号"},{"poiid":"B2094757D069A1FE449B","title":"幻维","lon":"121.46452573","lat":"31.230009295","category":"263","category_name":"公司","address":"上海南京西路651号 二号楼三楼"},{"poiid":"B2094757D065A6F8449E","title":"浦东发展银行(静安支行营业部)","lon":"121.46173","lat":"31.232997","category":"500","category_name":"未知分类","address":"上海静安区北京西路669号"},{"poiid":"B2094757D568A5FC409C","title":"万达奴","lon":"121.46203017","lat":"31.23086914","category":"140","category_name":"体育用品店","address":"普陀区南京西路775号(江宁路南京西路)"},{"poiid":"B2094757D06AA4FA4598","title":"施华洛世奇水晶轩(新世界百货店)","lon":"121.461475","lat":"31.232564","category":"131","category_name":"珠宝首饰工艺品","address":"上海南京西路2-88号1楼"},{"poiid":"B2094752D56FA6FE4098","title":"DS World（南京西路店）","lon":"121.462762","lat":"31.231353","category":"159","category_name":"汽车维修","address":"静安区南京西路760号"},{"poiid":"B2094654DA6CA2F9429F","title":"香港修身堂","lon":"121.4639","lat":"31.23291","category":"263","category_name":"公司","address":"普陀区长寿路圣天地大厦302室"},{"poiid":"B2094757D568A5FA499C","title":"京都日式大浴场","lon":"121.4641325","lat":"31.23307194","category":"149","category_name":"洗浴推拿场所","address":"大田路129号"},{"poiid":"B2094654DA6CA2F44299","title":"上海广播电视国际新闻交流中心","lon":"121.46485","lat":"31.23036","category":"252","category_name":"楼宇机构","address":"南京西路651号广电大厦"},{"poiid":"B2094654DA6CA2F84993","title":"现代设计集团上海现代华盖建筑设计有限公司","lon":"121.46396","lat":"31.23175","category":"263","category_name":"公司","address":"南京西路692号上海光通大厦"},{"poiid":"B2094655D26DA2F5419B","title":"西门町","lon":"121.46163","lat":"31.23072","category":"248","category_name":"生活娱乐","address":"黄浦区人民大道9-99号香港名店街内(近人民广场地铁站)"},{"poiid":"B2094654DA6CA1FE429D","title":"中国建设银行上海市中支行","lon":"121.46287","lat":"31.23115","category":"150","category_name":"银行","address":"静安区南京西路758号(凤阳路南京西路)"},{"poiid":"B2094750D76FA2F84892","title":"Lind(凯宾斯基店)","lon":"121.465","lat":"31.2323","category":"260","category_name":"其他","address":"静安区凤阳路601号御锦轩凯宾斯基酒店1楼(近南京西路)"},{"poiid":"B2094757D168A7FE409F","title":"凡尘冰镇桌游吧","lon":"121.46447","lat":"31.23297","category":"175","category_name":"棋牌室","address":"上海静安区大田路129弄1号嘉发大厦A幢10楼E室(近北京西路)  "},{"poiid":"B2094654DA6CA2FB4698","title":"东方有线网络有限公司(吴江路)","lon":"121.46335","lat":"31.23035","category":"263","category_name":"公司","address":"吴江路31号东方众鑫大厦25层"},{"poiid":"B2094757D168A4FF479C","title":"吴江路第一摊麻辣烫","lon":"121.46267","lat":"31.23014","category":"500","category_name":"未知分类","address":"上海静安区吴江路63号(近石门一路)  "},{"poiid":"B2094757D06AA4FE479B","title":"¢!¢! home","lon":"121.461358385","lat":"31.2325572322","category":"500","category_name":"未知分类","address":null},{"poiid":"B2094752D66AABFA449C","title":"一兆韦德凤阳路店","lon":"121.464992","lat":"31.23226","category":"248","category_name":"生活娱乐","address":"上海市凤阳路"},{"poiid":"B209475CDA6BA4FF4192","title":"黑桃皇后密室逃脱","lon":"121.462569","lat":"31.231179","category":"248","category_name":"生活娱乐","address":"上海市静安区南京西路758号4楼"},{"poiid":"B2094757D16EABF84292","title":"博爱大厦13层","lon":"121.462242738","lat":"31.231072318","category":"252","category_name":"楼宇机构","address":"上海市静安区"},{"poiid":"B2094654DA6CA1FE4293","title":"春兰","lon":"121.46342","lat":"31.23122","category":"263","category_name":"公司","address":"南京西路722"},{"poiid":"B2094654DA6CA2FB4692","title":"西格里特种石墨(上海)有限公司","lon":"121.46336","lat":"31.23035","category":"263","category_name":"公司","address":"吴江路31号东方众鑫大厦31层"},{"poiid":"B2094654DB6BA6F44598","title":"每华食品(上海)有限公司(南京西路)","lon":"121.46293","lat":"31.23124","category":"263","category_name":"公司","address":"南京西路758号博爱大厦9层B"},{"poiid":"B2094654DA6CA2FB4299","title":"诚越市场研究有限公司","lon":"121.46336","lat":"31.23035","category":"263","category_name":"公司","address":"吴江路31号东方众鑫大厦8A02、05"},{"poiid":"B2094654DA6CA2FF469E","title":"新华人寿保险股份有限公司(北京西路)","lon":"121.46185","lat":"31.23266","category":"219","category_name":"其他","address":"北京西路669号东展商业大厦7-8F"},{"poiid":"B2094757D169AAFC4898","title":"语之森文化传播有限公司","lon":"121.46389418","lat":"31.231873105","category":"263","category_name":"公司","address":"上海峻岭广场2503"},{"poiid":"B2094654DA6CA2F9449E","title":"心歌单身交友会所","lon":"121.46391","lat":"31.2329","category":"248","category_name":"生活娱乐","address":"大田路129弄1号嘉发大厦A栋17层17D"},{"poiid":"B2094654DA6CA2FF4393","title":"鸿金图文","lon":"121.46118","lat":"31.23149","category":"248","category_name":"生活娱乐","address":"奉贤路63号2层"},{"poiid":"B2094757D568ABFC419F","title":"GAME MAX桌面游戏","lon":"121.4641325","lat":"31.23307194","category":"248","category_name":"生活娱乐","address":"大田路129号嘉发大厦B幢15D"},{"poiid":"B2094654DA6CA2FF479B","title":"中国人力资源网","lon":"121.46184","lat":"31.23266","category":"248","category_name":"生活娱乐","address":"北京西路669号东展商业大厦4-A-E"},{"poiid":"B2094654DA6CA2F94299","title":"秦鹏口腔诊所","lon":"121.46391","lat":"31.23291","category":"668","category_name":"诊所","address":"大田路129弄1号嘉发大厦A栋1层1E"},{"poiid":"B2094750D364A7F4429C","title":"德佑地产官方微博","lon":"121.46335","lat":"31.23035","category":"637","category_name":"房地产类公司","address":"南京西路699号东方有线大厦28楼"},{"poiid":"B2094655D268A4FE4499","title":"静安华庭(南门)","lon":"121.46508","lat":"31.23274","category":"656","category_name":"大门","address":"凤阳路588弄1-27"},{"poiid":"B2094654DB6BA6F4499E","title":"静安华庭(西门)","lon":"121.46443","lat":"31.23304","category":"656","category_name":"大门","address":"大田路158"},{"poiid":"B2094655D26DA6FF479F","title":"东方众鑫大厦(北二门)","lon":"121.46347","lat":"31.23057","category":"656","category_name":"大门","address":"吴江路31号"},{"poiid":"B2094655D26DA7FE4399","title":"东方众鑫大厦(北一门)","lon":"121.46312","lat":"31.23043","category":"656","category_name":"大门","address":"吴江路31号"},{"poiid":"B2094655D26DA7FE4898","title":"西王小区(南门)","lon":"121.46133","lat":"31.23181","category":"656","category_name":"大门","address":"奉贤路68弄10-68号"},{"poiid":"B2094655D26DA5F8449C","title":"西王小区(北门)","lon":"121.46102","lat":"31.23251","category":"656","category_name":"大门","address":"北京西路707弄2-8号"}]