[{"poiid":"B2094654DB65A1FE4298","title":"上海文化广场","lon":"121.46212","lat":"31.21173","category":"202","category_name":"公园广场","address":"卢湾区复兴中路576号(近陕西南路)"},{"poiid":"B2094757D06FA3FC409E","title":"瑞福园(茂名店)","lon":"121.46258","lat":"31.21393","category":"76","category_name":"上海菜","address":"卢湾区茂名南路132号乙(近复兴中路)"},{"poiid":"B2094654DB6BA4FE439F","title":"上海文化广场(北门)","lon":"121.46134","lat":"31.21353","category":"202","category_name":"公园广场","address":"复兴中路597"},{"poiid":"B2094753D76FAAFA449C","title":"上海滩国泰旗舰店","lon":"121.466011","lat":"31.216125","category":"249","category_name":"购物服务","address":"淮海中路868号"},{"poiid":"B209475CD564A7F84292","title":"上海滩新天地店","lon":"121.47463","lat":"31.22164","category":"119","category_name":"商场","address":"\"太仓路181弄新天地北里15号\r\n\""},{"poiid":"B209475CD564A7F8439E","title":"上海滩中信泰富店","lon":"121.45602","lat":"31.22851","category":"119","category_name":"商场","address":"\"南京西路1168号中信泰富广场，店铺号221.\r\n\""},{"poiid":"B2094757D06FA2FE419C","title":"意粉屋 Pasta Inn","lon":"121.46229","lat":"31.21471","category":"94","category_name":"西餐厅","address":"卢湾区茂名南路132号(近南昌路)"},{"poiid":"B2094753DB6CA2FE419F","title":"百丽宫影城（环贸iapm 店）","lon":"121.461425","lat":"31.214521","category":"178","category_name":"电影院","address":"淮海中路999号环贸广场"},{"poiid":"B2094757D06FA2FA489F","title":"Le Creme Milano(永嘉路店)","lon":"121.4610629","lat":"31.210917858","category":"113","category_name":"冷饮店","address":"上海徐汇区陕西南路434号(近永嘉路)"},{"poiid":"B2094654DA6EA1FE499F","title":"竹屋川菜","lon":"121.46006400887","lat":"31.214710755142","category":"71","category_name":"四川菜","address":"卢湾区陕西南路145-3号(南昌路口)"},{"poiid":"B2094757D06FA2FC409E","title":"蓝蛙(茂名店)","lon":"121.46315667","lat":"31.212204032","category":"260","category_name":"其他","address":"卢湾区茂名南路207号(近复兴中路)"},{"poiid":"B2094757D069A5FC499A","title":"太原别墅","lon":"121.461","lat":"31.2126","category":"47","category_name":"住宅区","address":"上海市徐汇区太原路160号"},{"poiid":"B2094757D16EA0F9449A","title":"永康路","lon":"121.460757538","lat":"31.2108748877","category":"500","category_name":"未知分类","address":"上海徐汇区永康路"},{"poiid":"B2094750D268A5FC4399","title":"Mimosa","lon":"121.461822","lat":"31.210657","category":"94","category_name":"西餐厅","address":"卢湾区永嘉路43号(近陕西南路)"},{"poiid":"B2094757D06AA3FC4693","title":"Geisha艺","lon":"121.460734698","lat":"31.2131813248","category":"172","category_name":"酒吧","address":"上海陕西南路390号，靠近复兴中路"},{"poiid":"B2094757D068A3F8499B","title":"園烧肉酒场","lon":"121.46081","lat":"31.21307","category":"269","category_name":"烧烤","address":"徐汇区陕西南路400号(近复兴中路)"},{"poiid":"B2094757D068A3FD4793","title":"华检体检中心(徐汇分院)","lon":"121.459014996","lat":"31.211539631","category":"162","category_name":"医院","address":"徐汇区嘉善路118号明园B座3楼(近永康路)"},{"poiid":"B2094757D06FA7FB4199","title":"振鼎鸡(复兴店)","lon":"121.46082","lat":"31.21297","category":"68","category_name":"快餐厅","address":"徐汇区复兴中路1195号上海理工大学旁(上海电影院斜对面)"},{"poiid":"B2094757D664A1F8479D","title":"维园悦谱","lon":"121.46077","lat":"31.21282","category":"72","category_name":"广东菜","address":"徐汇区陕西南路396-1号(近复兴中路)"},{"poiid":"B2094757D065A2FB4699","title":"Muses Cafe","lon":"121.459490738","lat":"31.2115059012","category":"500","category_name":"未知分类","address":"卢湾区陕西南路438-2号(上海文化广场对面)"},{"poiid":"B2094654DA6EA1F5499D","title":"瑞金宾馆(西门)","lon":"121.46297","lat":"31.21274","category":"250","category_name":"公园户外","address":"茂名南路207"},{"poiid":"B2094757D06FA2F54798","title":"陕西南路复兴中路口","lon":"121.459220886","lat":"31.2131328583","category":"260","category_name":"其他","address":"上海陕西南路复兴中路口"},{"poiid":"B2094654DA6EA1FF4692","title":"福瑞园联谊餐室","lon":"121.46203","lat":"31.21497","category":"257","category_name":"中餐厅","address":"茂名南路132号乙"},{"poiid":"B209475CD46CA1FD4099","title":"StayReal Café by GABEE.","lon":"121.458085","lat":"31.214526","category":"247","category_name":"餐饮美食","address":"上海市徐汇区淮海中路999号环贸广场iapm LG2-246号"},{"poiid":"B2094757D068A6F8469E","title":"瑞金医院36号楼","lon":"121.46151091","lat":"31.2122581836","category":"162","category_name":"医院","address":"上海思南路72号"},{"poiid":"B2094753DB69AAF84892","title":"千两","lon":"121.462593","lat":"31.213531","category":"247","category_name":"餐饮美食","address":"上海市 淮海中路999号环贸广场"},{"poiid":"B2094753D768A3FE4199","title":"上海市徐汇区中心医院","lon":"121.461021","lat":"31.213911","category":"162","category_name":"医院","address":"上海市 淮海路陕西南路"},{"poiid":"B2094750DA6BA1F9409B","title":"上海理工大学中英国际学院","lon":"121.460227","lat":"31.21158","category":"500","category_name":"未知分类","address":"复兴中路1195号"},{"poiid":"B2094757D069A5FD4492","title":"京世造型复兴店","lon":"121.46034773","lat":"31.212293917","category":"148","category_name":"美容美发店","address":"上海市徐汇区复兴中路1195号"},{"poiid":"B209475CD469A5F8459D","title":"一风堂","lon":"121.461448","lat":"31.214548","category":"500","category_name":"未知分类","address":"上海市 iapm"},{"poiid":"B2094757D06FA5FA479A","title":"吉野家(陕西南路店)","lon":"121.46013","lat":"31.2152","category":"95","category_name":"日本料理","address":"卢湾区陕西南路141号(近南昌路)"},{"poiid":"B2094654DA6EA1FB469A","title":"Pane e Vino","lon":"121.46327","lat":"31.21199","category":"94","category_name":"西餐厅","address":"卢湾区思南路47号(近复兴中路)"},{"poiid":"B209475CD76CA5F8419D","title":"白熊咖喱（iapm环贸购物中心）","lon":"121.462478","lat":"31.213878","category":"500","category_name":"未知分类","address":"上海市 淮海中路999号环贸广场L5-512(近陕西南路)"},{"poiid":"B2094751DA6DA0FF4293","title":"Quinn\\'s cafe 晴咖啡","lon":"121.460342","lat":"31.213989","category":"247","category_name":"餐饮美食","address":"上海市陕西南路165号"},{"poiid":"B2094757D06AA0F94492","title":"新吉柯德土菜馆","lon":"121.460006","lat":"31.214986","category":"247","category_name":"餐饮美食","address":"上海陕西南路145号"},{"poiid":"B2094753DB68A2F9499C","title":"老吉士","lon":"121.461433","lat":"31.214521","category":"247","category_name":"餐饮美食","address":"上海市 淮海中路999号环贸iapm商场3楼"},{"poiid":"B209475DD76FA7FB4492","title":"恋暖の初茶","lon":"121.461441","lat":"31.214523","category":"247","category_name":"餐饮美食","address":"上海市 淮海中路999号环贸iapm广场LG2-227号铺"},{"poiid":"B2094655D36CA2FB4999","title":"陕西南路永嘉路","lon":"121.46139","lat":"31.21103","category":"38","category_name":"公交车站","address":""},{"poiid":"B2094757D064A3F9469C","title":"紋兵衛 瑞金店","lon":"121.46328773","lat":"31.213058934","category":"257","category_name":"中餐厅","address":"上海茂名南路205瑞金大厦１ＦA室"},{"poiid":"B209475CD66BA4FE4399","title":"鹿港小镇（环贸广场店）","lon":"121.462371","lat":"31.214084","category":"500","category_name":"未知分类","address":"上海市 淮海中路999号环贸IAPM广场LG1-143（陕西南路）"},{"poiid":"B2094655D26FAAFC4498","title":"上海理工大学东门(陕西南路)","lon":"121.46114","lat":"31.21159","category":"52","category_name":"高等院校","address":""},{"poiid":"B209475DDA64A7FD4392","title":"KABB(iapm店)","lon":"121.462455","lat":"31.213277","category":"247","category_name":"餐饮美食","address":"上海市 上海市iapm环贸LG1"},{"poiid":"B2094757D465A3F9499B","title":"新吉诃德土菜馆","lon":"121.46006400887","lat":"31.214710755142","category":"76","category_name":"上海菜","address":"卢湾区陕西南路145号(近南昌路)"},{"poiid":"B2094757D16AA1FC439E","title":"民防科普教育馆","lon":"121.46327","lat":"31.21381","category":"179","category_name":"音乐厅","address":"上海卢湾区复兴中路593号民防大厦内(近瑞金二路)  "},{"poiid":"B209475DD26BA4FB419F","title":"查厘士港式餐厅","lon":"121.463211","lat":"31.213726","category":"247","category_name":"餐饮美食","address":"上海市 徐汇区淮海中路988号3F"},{"poiid":"B209475CD66CA4FD419D","title":"一风堂","lon":"121.461013","lat":"31.213504","category":"500","category_name":"未知分类","address":"上海市 apm"},{"poiid":"B2094654DA6DA6FE419F","title":"晚星餐厅","lon":"121.45943","lat":"31.21146","category":"76","category_name":"上海菜","address":"徐汇区嘉善路87号(近复兴中路)"},{"poiid":"B2094757D464A0F4479C","title":"百碗盛","lon":"121.462444054","lat":"31.213329793","category":"68","category_name":"快餐厅","address":"卢湾区茂名南路136号(近复兴中路)"},{"poiid":"B2094757D064A7F8409E","title":"上海电影院","lon":"121.460184","lat":"31.213463","category":"178","category_name":"电影院","address":"徐汇区复兴中路1186号(近陕西南路)"},{"poiid":"B2094654DB69AAF9419E","title":"中国银行卢湾支行","lon":"121.4629","lat":"31.21385","category":"150","category_name":"银行","address":"上海市卢湾区茂名南路205号"},{"poiid":"B209475CD46CA5F9429F","title":"STAYREAL CAFE","lon":"121.459999","lat":"31.214502","category":"500","category_name":"未知分类","address":"上海市 徐汇区淮海中路999号环贸广场"},{"poiid":"B209475DDA69A5F4419F","title":"AIME PATISSERIE","lon":"121.460853","lat":"31.214288","category":"247","category_name":"餐饮美食","address":"上海市 上海淮海中路1008号"},{"poiid":"B2094654DA6EA1FE459A","title":"陕南邨","lon":"121.46089","lat":"31.21369","category":"47","category_name":"住宅区","address":"陕西南路151-185号,187弄1-87号"},{"poiid":"B209475CD66AA0F9419D","title":"百丽宫影城（环贸iapm店）","lon":"121.461448","lat":"31.214538","category":"178","category_name":"电影院","address":"上海市 淮海中路999号"},{"poiid":"B2094757D069AAF4499F","title":"come buy 复兴中路店","lon":"121.460389054","lat":"31.213396793","category":"113","category_name":"冷饮店","address":"卢湾区复兴中路1195号上海理工大学内(近陕西南路)"},{"poiid":"B2094757D065AAFF4399","title":"明谦咖啡","lon":"121.46298473","lat":"31.213294939","category":"260","category_name":"其他","address":"卢湾区茂名南路205号瑞金大厦1楼内(近复兴中路)"},{"poiid":"B2094751D369A3FC4392","title":"Molinari caffee","lon":"121.4611","lat":"31.21191","category":"65","category_name":"咖啡厅","address":"卢湾区陕西南路438号"},{"poiid":"B2094757D16CA6F94693","title":"丝廷水疗zeta spa","lon":"121.459088788","lat":"31.2142862137","category":"148","category_name":"美容美发店","address":"上海卢湾区太仓路181弄9号1座"},{"poiid":"B2094654DA6DA6FD449A","title":"明园商务中心","lon":"121.45883","lat":"31.21254","category":"46","category_name":"楼宇","address":"复兴中路1199"},{"poiid":"B2094654DB64A7F4419D","title":"上海市卢湾区瑞金二路地段医院","lon":"121.46035","lat":"31.21453","category":"162","category_name":"医院","address":"陕西南路147号"},{"poiid":"B2094654DA6EA1FB4592","title":"大吉日本料理(茂名南路)","lon":"121.46321","lat":"31.21212","category":"95","category_name":"日本料理","address":"卢湾区茂名南路207号(近复兴中路)"},{"poiid":"B2094655D36CA6FF439D","title":"复兴中路陕西南路","lon":"121.45977","lat":"31.21328","category":"38","category_name":"公交车站","address":""},{"poiid":"B2094454D36FA1F9419B","title":"El pomposo","lon":"121.462432","lat":"31.213983","category":"247","category_name":"餐饮美食","address":"上海市 淮海路iapm"},{"poiid":"B2094655D265A7FC439A","title":"潘多啦","lon":"121.46299","lat":"31.21246","category":"247","category_name":"餐饮美食","address":"卢湾区茂名南路18号(近延安中路)"},{"poiid":"B2094757D065A4FB4299","title":"徐汇区第一中心小学","lon":"121.45966503","lat":"31.212183815","category":"253","category_name":"校园生活","address":"上海复兴西路嘉善路"},{"poiid":"B2094757D16FA3FB469F","title":"清华中学","lon":"121.461878","lat":"31.214652","category":"55","category_name":"中学","address":"卢湾区茂名南路144号(近复兴中路)"},{"poiid":"B2094655D26AABFF4198","title":"新吉柯德","lon":"121.46002","lat":"31.21507","category":"247","category_name":"餐饮美食","address":"卢湾区陕西南路145号近南昌路;;"},{"poiid":"B209475CDA6EA7F5429A","title":"珍寶海鮮","lon":"121.461479","lat":"31.214473","category":"247","category_name":"餐饮美食","address":"上海市 上海市徐匯區淮海中路999號環貿廣場L5-502"},{"poiid":"B2094757D064A1FE4392","title":"生活工场","lon":"121.4607019","lat":"31.2134841","category":"119","category_name":"商场","address":"卢湾区陕西南路428号(近复兴中路)"},{"poiid":"B209475CD764AAF9499F","title":"复茂小龙虾 复兴路店 FOMO","lon":"121.46192586743","lat":"31.213923920516","category":"269","category_name":"烧烤","address":"复兴中路597号近陕西南路口"},{"poiid":"B2094753D66AA7FB439C","title":"思南公馆酒店法国餐厅Aux Jardins Massenet","lon":"121.459266","lat":"31.212884","category":"500","category_name":"未知分类","address":"上海市 卢湾区思南路55号思南公馆57号楼(近复兴中路)"},{"poiid":"B2094757D06AA1FD419A","title":"CY塔罗占卜馆","lon":"121.46117","lat":"31.21509","category":"260","category_name":"其他","address":"卢湾区南昌路205弄1号(近陕西南路)"},{"poiid":"B2094757D568AAFA429B","title":"瑞金宾馆银杏厅","lon":"121.4629739","lat":"31.21274306","category":"251","category_name":"出行住宿","address":"上海瑞金二路118号"},{"poiid":"B2094654DB65A1FC4999","title":"上海理工大学宾馆","lon":"121.46125","lat":"31.21096","category":"250","category_name":"公园户外","address":"上海市徐汇区陕西南路436号(近复兴中路)"},{"poiid":"B2094655D26EAAFD439C","title":"马德里咖啡吧 Madrid","lon":"121.4610994253","lat":"31.21673525358","category":"247","category_name":"餐饮美食","address":"茂名南路146号近复兴中路"},{"poiid":"B2094655D26FA7F5409F","title":"茂名坊小区","lon":"121.46234","lat":"31.21468","category":"47","category_name":"住宅区","address":"茂名南路169弄1-22号"},{"poiid":"B2094654DB6BA4FD4992","title":"上海市卢湾区第二中心小学","lon":"121.46244","lat":"31.21438","category":"56","category_name":"小学","address":"徐汇区复兴中路642号(近茂名南路)"},{"poiid":"B2094757D168AAFB439D","title":"星公館","lon":"121.461856738","lat":"31.2135289443","category":"500","category_name":"未知分类","address":"上海市徐汇区淮海中路1415 淮海國際45樓"},{"poiid":"B2094757D068A0FC459F","title":"朴坊(陕西南路店)","lon":"121.46137084","lat":"31.210858316","category":"123","category_name":"家具建材市场","address":"徐汇区陕西南路438-4号(近永嘉路)"},{"poiid":"B2094454D06DA0FA489D","title":"BANG","lon":"121.462455","lat":"31.214494","category":"247","category_name":"餐饮美食","address":"上海市 iapm 环贸5楼"},{"poiid":"B2094654DA6EA1FE4599","title":"瑞金二路街道社区卫生服务中心(陕西南路)","lon":"121.46035","lat":"31.21453","category":"162","category_name":"医院","address":"卢湾区陕西南路147号(近南昌路)"},{"poiid":"B2094757D568A6F5469A","title":"意大利手工冰淇淋","lon":"121.46119276","lat":"31.21118815","category":"113","category_name":"冷饮店","address":"陕西南路434-3"},{"poiid":"B2094757D164ABFA409C","title":"維園悅譜","lon":"121.460695738","lat":"31.2129979329","category":"500","category_name":"未知分类","address":"上海陝西南路復興中路"},{"poiid":"B2094654DB65A3F4499E","title":"咖喱美食坊","lon":"121.460683054","lat":"31.213479793","category":"257","category_name":"中餐厅","address":"复兴中路1186号近陕西南路"},{"poiid":"B2094757D06BA5FD439D","title":"卢湾区住房保障和房屋管理局","lon":"121.462180738","lat":"31.2150579768","category":"46","category_name":"楼宇","address":"上海瑞金二路48弄12号"},{"poiid":"B2094655D26EA7FD439A","title":"东宏商务中心","lon":"121.45952","lat":"31.213","category":"46","category_name":"楼宇","address":"复兴中路1197"},{"poiid":"B209475CD36DA1FF4699","title":"LaVida","lon":"121.460827","lat":"31.212657","category":"65","category_name":"咖啡厅","address":"陕西南路402号近复兴中路"},{"poiid":"B2094757D66BA6F44099","title":"爱丽舍面包房 陕西南路店","lon":"121.45997","lat":"31.21505","category":"67","category_name":"甜品店","address":"卢湾区陕西南路145号-2(近南昌路)"},{"poiid":"B2094654DA6EA2FA4398","title":"好德便利No.003","lon":"121.45997","lat":"31.21342","category":"117","category_name":"便民商店/便利店","address":"复兴中路1194"},{"poiid":"B209475CD668A0FD459E","title":"Stayreal café","lon":"121.461738","lat":"31.214496","category":"500","category_name":"未知分类","address":"上海市 黄浦区淮海中路999号LG2-246"},{"poiid":"B2094750D26AA7F94098","title":"Phmeni Donas 女神的占卜師們","lon":"121.460334","lat":"31.214143","category":"248","category_name":"生活娱乐","address":"陝西南路165號5室"},{"poiid":"B209475DD76DA1F84693","title":"K11","lon":"121.460029","lat":"31.212287","category":"249","category_name":"购物服务","address":"上海市 淮海中路300号"},{"poiid":"B2094757D465A5FB4899","title":"ArtDeco咖啡厅","lon":"121.462689054","lat":"31.213735793","category":"65","category_name":"咖啡厅","address":"瑞金二路118号瑞金宾馆3号楼近复兴中路"},{"poiid":"B2094757D16AA1F9499B","title":"上海理工大學(復興路校區) 操場","lon":"121.46031073","lat":"31.211409899","category":"500","category_name":"未知分类","address":"上海復興中路1195號"},{"poiid":"B2094655D265A1FF449C","title":"复茂小龙虾 复兴中路店 FOMO","lon":"121.46391592385","lat":"31.214619613477","category":"257","category_name":"中餐厅","address":"复兴中路595号近茂名南路口"},{"poiid":"B209475CD46BA5F84498","title":"苹果零售店","lon":"121.462104","lat":"31.214239","category":"249","category_name":"购物服务","address":"上海市 上海市徐汇区淮海中路999号 环茂 iapm 商场"},{"poiid":"B2094757D064AAFF4292","title":"中国邮政复兴中路邮政所","lon":"121.458617","lat":"31.213082","category":"252","category_name":"楼宇机构","address":"上海徐汇区复兴中路1246号近陕西南路"},{"poiid":"B2094752D46DA0F54993","title":"上海植物园","lon":"121.461442","lat":"31.211517","category":"500","category_name":"未知分类","address":"徐汇区龙吴路1111号"},{"poiid":"B2094655D26EA5F84693","title":"Orange","lon":"121.46105","lat":"31.21193","category":"247","category_name":"餐饮美食","address":"陕西南路424号"},{"poiid":"B209475CD465A0FB419F","title":"麵屋武藏","lon":"121.462387","lat":"31.21388","category":"500","category_name":"未知分类","address":"上海市 淮海中路999号环贸iapm"},{"poiid":"B2094757D16CA5FE499C","title":"罗森便利(瑞金大厦店)","lon":"121.46262395","lat":"31.21381414","category":"117","category_name":"便民商店/便利店","address":"上海茂名南路205-2号"},{"poiid":"B2094654DA6EA2FA429B","title":"汇丰大药房复兴店","lon":"121.46047","lat":"31.21357","category":"162","category_name":"医院","address":"徐汇区复兴中路1180号(近陕西南路)"},{"poiid":"B2094757D16CA1FE4198","title":"老刘野生大鱼坊","lon":"121.46256256","lat":"31.213943481","category":"247","category_name":"餐饮美食","address":"上海陕西南路117号二层"},{"poiid":"B2094655D26CA1FC449F","title":"新安坊","lon":"121.45949","lat":"31.21329","category":"47","category_name":"住宅区","address":"复兴中路1218弄甲支弄"},{"poiid":"B2094655D26FA4FB4898","title":"复兴中路1248弄小区(南门)","lon":"121.45859","lat":"31.21303","category":"47","category_name":"住宅区","address":"复兴中路1248弄1-21号"},{"poiid":"B2094655D268A2FB459C","title":"白尔登公寓(西门)","lon":"121.46116","lat":"31.21249","category":"47","category_name":"住宅区","address":"陕西南路213"},{"poiid":"B2094655D26CA4FA4492","title":"永盛里（西门）","lon":"121.45929","lat":"31.21125","category":"47","category_name":"住宅区","address":""},{"poiid":"B209475DD16CA0F9439F","title":"恋暖初茶","lon":"121.462409","lat":"31.213405","category":"500","category_name":"未知分类","address":"上海市 淮海中路999号环贸iapm广场LG2-227号铺"},{"poiid":"B2094757D164A4FC4798","title":"上海理工大学SBC tea room","lon":"121.460230738","lat":"31.2109508893","category":"500","category_name":"未知分类","address":"上海市徐汇区复兴中路1195号"},{"poiid":"B209475CD46DA5FB4299","title":"stayreal cafe","lon":"121.461456","lat":"31.214536","category":"500","category_name":"未知分类","address":"上海市 环贸iapm"},{"poiid":"B2094655D268ABFD439E","title":"复兴中路1232弄小区(南门)","lon":"121.45902","lat":"31.21313","category":"47","category_name":"住宅区","address":"复兴中路1232弄1-20号"},{"poiid":"B2094752D564A7FB4993","title":"LAVIDA JAZZ","lon":"121.462143","lat":"31.212616","category":"248","category_name":"生活娱乐","address":"陕西南路402号"},{"poiid":"B2094654DB69ABFA459E","title":"上品行花艺生活馆(陕西南路店)","lon":"121.4612","lat":"31.21136","category":"117","category_name":"便民商店/便利店","address":"卢湾区陕西南路432号(近复兴中路)"},{"poiid":"B2094654DA6EA2FA459B","title":"明星美发厅","lon":"121.4587","lat":"31.21309","category":"148","category_name":"美容美发店","address":"复兴中路1244"},{"poiid":"B2094655D265A1FF4292","title":"原法国总会(花园饭店裙房)","lon":"121.46257","lat":"31.21375","category":"250","category_name":"公园户外","address":"茂名南路58号"},{"poiid":"B209475CD76EA0FD4893","title":"环贸广场 （IAPM）stayreal cafe","lon":"121.462341","lat":"31.213787","category":"500","category_name":"未知分类","address":"上海市 上海市淮海中路"},{"poiid":"B209475CD46CA1FE4993","title":"STAYREAL CAFÉ BY GABEE(iapm店)","lon":"121.462348","lat":"31.213254","category":"500","category_name":"未知分类","address":"上海市 卢湾区淮海中路999号环贸广场iapm LG245-246号(近陕西南路)"},{"poiid":"B2094752D66BA5FC459C","title":"淮海中路香港广场M2","lon":"121.459793","lat":"31.211014","category":"500","category_name":"未知分类","address":null},{"poiid":"B2094750DB6AA3FC459E","title":"上海帝国理工中英皇家国际学院","lon":"121.460617","lat":"31.211284","category":"253","category_name":"校园生活","address":"复兴中路1195号"},{"poiid":"B2094654DA6EA2FA459E","title":"起点造型上海久益连锁复兴店","lon":"121.45859","lat":"31.21306","category":"148","category_name":"美容美发店","address":"复兴中路1246甲"},{"poiid":"B2094654DA6EA2FA409D","title":"大众书店","lon":"121.46012","lat":"31.21431","category":"125","category_name":"书店","address":""},{"poiid":"B209475CD46CA3F8439F","title":"上海新国际展览中心","lon":"121.459381","lat":"31.211812","category":"500","category_name":"未知分类","address":"上海市 浦东新区龙阳路2345号"},{"poiid":"B209475DD169A2F9439F","title":"白熊咖喱（环贸广场店）","lon":"121.462226","lat":"31.214082","category":"500","category_name":"未知分类","address":"上海市 淮海中路999号环贸广场L5-512"},{"poiid":"B209475DD268A5FD4792","title":"iapm","lon":"121.462051","lat":"31.214008","category":"500","category_name":"未知分类","address":"上海市 淮海中路999號"},{"poiid":"B209475CD26FABFD449D","title":"兰心大剧院","lon":"121.46125","lat":"31.214418","category":"500","category_name":"未知分类","address":"上海市 茂名南路57号"},{"poiid":"B209475DDA6DA4F5459D","title":"静安嘉里中心","lon":"121.46331","lat":"31.212835","category":"248","category_name":"生活娱乐","address":"上海市 南京西路"},{"poiid":"B2094757D169A5F44798","title":"上海理工大学中英国际学院第五宿舍一楼澡堂","lon":"121.45979173","lat":"31.212341919","category":"500","category_name":"未知分类","address":null},{"poiid":"B2094757D06AA1FB4792","title":"明园文化艺术中心","lon":"121.45866394","lat":"31.212945938","category":"500","category_name":"未知分类","address":"上海复兴中路1199号"},{"poiid":"B209475CD769A3F8499B","title":"stay real cafe","lon":"121.460006","lat":"31.214506","category":"500","category_name":"未知分类","address":"上海市 陕西南路apm地下二层"},{"poiid":"B2094654DA6EA1FF4799","title":"上海卢湾区私立前程进修学校","lon":"121.46188","lat":"31.21465","category":"53","category_name":"成人教育","address":"茂名南路144号3号楼215室"},{"poiid":"B209475CD46EA2FB439F","title":"StayReal Cafe","lon":"121.46035","lat":"31.214534","category":"500","category_name":"未知分类","address":"上海市 淮海路iapm环贸广场"},{"poiid":"B2094757D16DA2F94392","title":"茂名坊","lon":"121.46205073","lat":"31.214669968","category":"500","category_name":"未知分类","address":"上海卢湾区茂名南路169弄"},{"poiid":"B209475DD46DA4FB419F","title":"上海理工大学中英国际学院","lon":"121.459892","lat":"31.214179","category":"253","category_name":"校园生活","address":"上海市 徐汇区复兴中路1195号"},{"poiid":"B2094654DA6EA2FA409E","title":"热浪(陕西南路)","lon":"121.46002","lat":"31.21448","category":"141","category_name":"服装鞋帽皮具店","address":"陕西南路360"},{"poiid":"B2094757D06AA1F54598","title":"迪士尼英语","lon":"121.46195868","lat":"31.215079012","category":"253","category_name":"校园生活","address":"上海市茂名南路165号"},{"poiid":"B209475CD46CA1FD459E","title":"stay real café","lon":"121.462364","lat":"31.21331","category":"500","category_name":"未知分类","address":"上海市 淮海中路999号"},{"poiid":"B2094753D56FABFB479D","title":"千代保","lon":"121.459426","lat":"31.214483","category":"500","category_name":"未知分类","address":"上海市 东湖路20号2楼"},{"poiid":"B209475CD565A4FC419D","title":"柴田西点嘉善店","lon":"121.461013","lat":"31.212913","category":"500","category_name":"未知分类","address":"上海市 嘉善路309号"},{"poiid":"B2094752D669A2F84892","title":"上海音乐厅","lon":"121.462103","lat":"31.21137","category":"500","category_name":"未知分类","address":null},{"poiid":"B209475CD664A1FA499D","title":"Stayreal Cafe","lon":"121.460014","lat":"31.214708","category":"500","category_name":"未知分类","address":"上海市 环贸iapm商场LG-2"},{"poiid":"B2094757D16AA4FC4193","title":"甲舞风韵","lon":"121.461195238","lat":"31.2109728898","category":"500","category_name":"未知分类","address":"卢湾区陕西南路164号(长乐路口)"},{"poiid":"B2094654DA6EA2FA4192","title":"Nini Collection","lon":"121.46041","lat":"31.21372","category":"140","category_name":"体育用品店","address":"陕西南路380号2层"},{"poiid":"B2094750DA69AAFE4199","title":"SBC","lon":"121.459335","lat":"31.213745","category":"249","category_name":"购物服务","address":"宛平南路336"},{"poiid":"B2094757D16BAAF5449A","title":"强森健身俱乐部","lon":"121.459068298","lat":"31.212387085","category":"220","category_name":"运动场所","address":"上海嘉善路复兴中路口"},{"poiid":"B2094757D068A0FF479F","title":"麦肯光明","lon":"121.45899963","lat":"31.214208602","category":"500","category_name":"未知分类","address":"上海淮海国际广场25楼"},{"poiid":"B2094757D164A6FF4798","title":"明园世纪城商务中心","lon":"121.458936388","lat":"31.2117879372","category":"500","category_name":"未知分类","address":"上海嘉善路98号"},{"poiid":"B2094654DB6BA5FA499A","title":"上海银行复兴中路支行","lon":"121.45902","lat":"31.21252","category":"150","category_name":"银行","address":"上海复兴中路1199号"},{"poiid":"B2094757D66CA2F4479F","title":"USST-SBC Laundry","lon":"121.459795738","lat":"31.2124009202","category":"500","category_name":"未知分类","address":"上海卢湾区复兴中路1195号"},{"poiid":"B2094757D165A5FA4299","title":"华侨银行卢湾支行","lon":"121.46192673","lat":"31.213682947","category":"500","category_name":"未知分类","address":"上海复兴西路644号"},{"poiid":"B2094757D169A4FD4293","title":"白尔登公寓","lon":"121.46128","lat":"31.212658","category":"500","category_name":"未知分类","address":"上海陕西南路213号"},{"poiid":"B2094757D068A0F8479C","title":"卡地亚(淮海店)","lon":"121.4607791","lat":"31.214829485","category":"131","category_name":"珠宝首饰工艺品","address":"卢湾区淮海中路806号(近陕西南路)"},{"poiid":"B2094750D069ABFC4498","title":"中国工商银行徐汇嘉善路支行","lon":"121.459","lat":"31.212","category":"150","category_name":"银行","address":"上海市嘉善路18号"},{"poiid":"B2094655D26BA5F94592","title":"KS十字绣复兴中路店","lon":"121.46121","lat":"31.21318","category":"255","category_name":"专卖店","address":"复兴中路599号"},{"poiid":"B2094757D064ABF5469A","title":"happy salt 盐","lon":"121.461246","lat":"31.210807","category":"500","category_name":"未知分类","address":"上海陕西南路438号"},{"poiid":"B2094757D069A7F84193","title":"狗窩","lon":"121.459791","lat":"31.213586","category":"500","category_name":"未知分类","address":null},{"poiid":"B2094757D068A7F54693","title":"上海理工大学SBC第五学生宿舍117","lon":"121.459735738","lat":"31.2124109204","category":"500","category_name":"未知分类","address":null},{"poiid":"B2094757D068A6FD459B","title":"马德里","lon":"121.46228","lat":"31.21421","category":"260","category_name":"其他","address":"卢湾区茂名南路146号(近复兴中路)"},{"poiid":"B2094654DA6DA6FD4398","title":"上海明圆文化艺术中心","lon":"121.45884","lat":"31.21253","category":"252","category_name":"楼宇机构","address":"徐汇区复兴中路1199号明园商务中心1-5层"},{"poiid":"B2094654DB6BA4FE409A","title":"华侨银行","lon":"121.4617","lat":"31.21401","category":"150","category_name":"银行","address":"复兴中路644乙"},{"poiid":"B2094757D065A5FE4493","title":"上海理工大学SBC五号宿舍楼厕所","lon":"121.46062173","lat":"31.212435721","category":"500","category_name":"未知分类","address":null},{"poiid":"B2094757D66DA5FC489B","title":"加油站","lon":"121.46018473","lat":"31.21383995","category":"500","category_name":"未知分类","address":"徐汇区宛平路(近肇嘉浜路)"},{"poiid":"B2094654DA6DA6FD419C","title":"七宝农家特产","lon":"121.45997","lat":"31.21316","category":"255","category_name":"专卖店","address":""},{"poiid":"B2094654DB6AA1FC469E","title":"日立信息系统(上海)有限公司浦西办事处","lon":"121.4629","lat":"31.21385","category":"263","category_name":"公司","address":"茂名南路205号瑞金大厦1407B号1409室"},{"poiid":"B2094757D165A0FB459F","title":"上海理工大学教学楼T403","lon":"121.46026133","lat":"31.211292196","category":"500","category_name":"未知分类","address":null},{"poiid":"B2094757D16DA5F8479E","title":"小桃园自定义别墅","lon":"121.458847738","lat":"31.2137139482","category":"500","category_name":"未知分类","address":null},{"poiid":"B2094654DA6EA1FE459B","title":"海鲸画廊","lon":"121.46063","lat":"31.21392","category":"252","category_name":"楼宇机构","address":"卢湾区陕西南路165号(近长乐路)"},{"poiid":"B2094655D26FAAFE459F","title":"瑞金大厦(西一门)","lon":"121.46271","lat":"31.21369","category":"48","category_name":"楼宇大门","address":"茂名南路205"},{"poiid":"B2094757D165A0FB469D","title":"艾格(陕西南路)","lon":"121.459224","lat":"31.213132","category":"249","category_name":"购物服务","address":"上海复兴中路陕西南路"},{"poiid":"B2094655D26BA3F5459E","title":"JEANS1195 SALON","lon":"121.4597","lat":"31.21318","category":"248","category_name":"生活娱乐","address":"卢湾区复兴中路1195号(近陕西南路)"},{"poiid":"B2094751D268A5FF4392","title":"南昌路新生活（春天画廊）","lon":"121.460166","lat":"31.215017","category":"248","category_name":"生活娱乐","address":"卢湾区南昌路209号5弄"},{"poiid":"B2094757D569A3FD459F","title":"Nature & Beauty","lon":"121.46299","lat":"31.21246333","category":"249","category_name":"购物服务","address":"茂名南路18号南"},{"poiid":"B2094751D26CA5FA439E","title":"瑞金医院14楼专家门诊","lon":"121.46196201209","lat":"31.211872533391","category":"627","category_name":"一般地点标志","address":"瑞金二路197号"},{"poiid":"B2094654DA6DA6FD499F","title":"亚威科技","lon":"121.45918","lat":"31.21181","category":"263","category_name":"公司","address":"嘉善路98、118号明园商务中心B座5层"},{"poiid":"B2094757D165A4FC4398","title":"TITO Post Production","lon":"121.461313638","lat":"31.2120746133","category":"260","category_name":"其他","address":"上海陕西南路151号"},{"poiid":"B2094757D568A5FB4398","title":"Chicco Doro Cafe","lon":"121.4631719","lat":"31.21205241","category":"260","category_name":"其他","address":"卢湾区茂名南路207-5号(近淮海中路)"},{"poiid":"B2094757D568A0FA479E","title":"瑞金宾馆白玉兰厅","lon":"121.4629739","lat":"31.21274306","category":"251","category_name":"出行住宿","address":"瑞金二路118号(近复兴中路)"}]