[{"poiid":"B2094654D56CA7FC4298","title":"万寿斋","lon":"121.48483604535","lat":"31.266169526803","category":"68","category_name":"快餐厅","address":"虹口区山阴路123号(四达路吉祥路间)"},{"poiid":"B2094757D16CA3FB4692","title":"930私房菜(欧阳路店)","lon":"121.489328103","lat":"31.2680273722","category":"76","category_name":"上海菜","address":"虹口区欧阳路196号1号楼3楼(近四达路)"},{"poiid":"B2094757D16EA1F4449B","title":"法兰桥创意园区","lon":"121.488876103","lat":"31.2667803462","category":"119","category_name":"商场","address":"上海虹口区欧阳路196号"},{"poiid":"B2094757D06FABFD459D","title":"荣欣大厦","lon":"121.490138","lat":"31.26684","category":"252","category_name":"楼宇机构","address":"上海市四川北路1851号"},{"poiid":"B2094757D069A2F84693","title":"巴黎贝甜(欧阳店)","lon":"121.48845857","lat":"31.266445989","category":"67","category_name":"甜品店","address":"虹口区欧阳路198号(近吉祥路)"},{"poiid":"B2094655D26DA4FB449A","title":"溧阳华府","lon":"121.48854","lat":"31.26298","category":"47","category_name":"住宅区","address":"上海市虹口区宝安路1号"},{"poiid":"B2094757D06FA5FF4893","title":"溧园咖啡","lon":"121.487339","lat":"31.262971","category":"260","category_name":"其他","address":"虹口区溧阳路1208弄5号老洋房花园内(四川北路四平路间)"},{"poiid":"B2094654D56CA0FB419C","title":"绿洲紫荆花园","lon":"121.48959","lat":"31.268484","category":"47","category_name":"住宅区","address":"上海市虹口区欧阳路289号"},{"poiid":"B2094655D26AAAFD4492","title":"上海莫泰168连锁酒店四平路店","lon":"121.49122","lat":"31.26606","category":"250","category_name":"公园户外","address":"上海市虹口区四平路333号（近四达路）"},{"poiid":"B2094757D065A6FC4093","title":"光头生煎","lon":"121.4845941","lat":"31.266254335","category":"68","category_name":"快餐厅","address":"虹口区山阴路141号(近吉祥路)"},{"poiid":"B2094757D468A4F8449A","title":"海尚香","lon":"121.488248","lat":"31.267171","category":"76","category_name":"上海菜","address":"虹口区欧阳路196号法兰桥创意园(近四平路)"},{"poiid":"B2094757D169A5FF439E","title":"知茵坊","lon":"121.4891937","lat":"31.266933649","category":"76","category_name":"上海菜","address":"虹口区欧阳路196弄22-23号"},{"poiid":"B2094757D06FABF9409F","title":"虹口区青少年活动中心","lon":"121.48973131","lat":"31.265364815","category":"260","category_name":"其他","address":"虹口区欧阳路67号(近四平路)"},{"poiid":"B2094757D068A2F5479C","title":"南馨园酒店","lon":"121.48543489","lat":"31.268350135","category":"72","category_name":"广东菜","address":"虹口区山阴路277号(近鲁迅公园)"},{"poiid":"B2094757D068A1F5429B","title":"光头面馆 山阴路店","lon":"121.48487","lat":"31.266139","category":"68","category_name":"快餐厅","address":"虹口区山阴路139号(近吉祥路)"},{"poiid":"B2094654DB69A0F5419B","title":"鲁迅故居","lon":"121.48435","lat":"31.26613","category":"243","category_name":"纪念馆","address":"虹口区山阴路132弄(大陆新村)9号"},{"poiid":"B2094757D16AABFB449F","title":"溧阳路","lon":"121.486091","lat":"31.263604","category":"500","category_name":"未知分类","address":"上海溧阳路四川北路"},{"poiid":"B2094655D269AAF4429D","title":"如家快捷酒店欧阳路店","lon":"121.48817","lat":"31.26579","category":"247","category_name":"餐饮美食","address":"上海市虹口区吉祥路69号(近欧阳路)"},{"poiid":"B2094757D06AA0FF479C","title":"85度C(欧阳店)","lon":"121.489107","lat":"31.2660613","category":"112","category_name":"糕饼店","address":"虹口区欧阳路196号1号楼1楼4-20室(近吉祥路)"},{"poiid":"B209475DD76AA3FB449B","title":"猫山王","lon":"121.487907","lat":"31.266302","category":"247","category_name":"餐饮美食","address":"上海市 甜爱路"},{"poiid":"B2094654D56CA0F44299","title":"美玫美发","lon":"121.48892","lat":"31.26576","category":"148","category_name":"美容美发店","address":"欧阳路88"},{"poiid":"B2094757D06FA1FB459D","title":"四达路","lon":"121.48822784","lat":"31.267992019","category":"500","category_name":"未知分类","address":"上海四达路欧阳路"},{"poiid":"B2094655D26FA6F5459E","title":"上海市虹口区欧阳地段医院","lon":"121.48887","lat":"31.26667","category":"162","category_name":"医院","address":"虹口区欧阳路149号(吉祥路四达路)"},{"poiid":"B2094654D56CA0FB499B","title":"欧阳路街道社区卫生服务中心","lon":"121.48888","lat":"31.26667","category":"162","category_name":"医院","address":"欧阳路149"},{"poiid":"B2094757D064A0FD489A","title":"明杨豪苑","lon":"121.48762","lat":"31.267271","category":"47","category_name":"住宅区","address":"上海市虹口区欧阳路218号"},{"poiid":"B2094757D664AAFB4093","title":"西安美食餐馆","lon":"121.486905054","lat":"31.267279793","category":"68","category_name":"快餐厅","address":"虹口区宝安路296号(宝安路四达路)"},{"poiid":"B2094757D068A7FA489C","title":"予约时尚(山阴路店)","lon":"121.48487469","lat":"31.264853465","category":"148","category_name":"美容美发店","address":"虹口区山阴路51号(近东泰休闲广场)"},{"poiid":"B2094654D56CA0F4489F","title":"吉祥苑","lon":"121.48873","lat":"31.265705","category":"47","category_name":"住宅区","address":"上海市虹口区欧阳路90号(吉祥路口"},{"poiid":"B2094757D069A2F54398","title":"ART OF MEDITERRANEAN","lon":"121.4866609","lat":"31.266087731","category":"184","category_name":"美术馆","address":"上海虹口区欧阳路196号法兰桥创意园4号楼B座区底座"},{"poiid":"B2094757D66AA5FD4793","title":"次郎日式快餐 四平店","lon":"121.49134445846","lat":"31.265653123995","category":"68","category_name":"快餐厅","address":"虹口区四平路170号(近溧阳路)"},{"poiid":"B2094757D16EA2FF469B","title":"8号线曲阳路站","lon":"121.489662103","lat":"31.264428297","category":"500","category_name":"未知分类","address":"上海曲阳路大连路"},{"poiid":"B2094757D06BA2FD4699","title":"四平路溧阳路口","lon":"121.487234603","lat":"31.2656203219","category":"38","category_name":"公交车站","address":"上海四平路溧阳路口"},{"poiid":"B2094654D56CA0F44698","title":"金叶商楼","lon":"121.48673","lat":"31.267","category":"46","category_name":"楼宇","address":"宝安路272"},{"poiid":"B2094654D56CA0FB4292","title":"虹口区第三中心幼儿园","lon":"121.4884","lat":"31.2677","category":"57","category_name":"幼儿园","address":"欧阳路273"},{"poiid":"B2094757D16AA4FF4893","title":"宠爱有家","lon":"121.48883819","lat":"31.266691207","category":"247","category_name":"餐饮美食","address":"上海虹口区欧阳路"},{"poiid":"B2094751D164AAFF479A","title":"虹桥机场2号","lon":"121.4883","lat":"31.26739","category":"500","category_name":"未知分类","address":null},{"poiid":"B2094753D565A2F5439D","title":"串趣-成都串串香","lon":"121.484336","lat":"31.267522","category":"247","category_name":"餐饮美食","address":"上海市 虹口区东江湾路444号虹口足球场106室"},{"poiid":"B2094654D56CA0F4429E","title":"华氏大药房欧阳路药房","lon":"121.48889","lat":"31.26581","category":"162","category_name":"医院","address":"欧阳路90"},{"poiid":"B2094655D26AA3FF4992","title":"紫荆健身馆游泳池","lon":"121.48841","lat":"31.26834","category":"247","category_name":"餐饮美食","address":"虹口区欧阳路299号2楼(近四达路)"},{"poiid":"B2094655D26BA1FD489C","title":"欧阳路四达路","lon":"121.48802","lat":"31.26852","category":"38","category_name":"公交车站","address":""},{"poiid":"B2094654D56CA5FD449A","title":"鑫成大楼","lon":"121.486","lat":"31.267","category":"46","category_name":"楼宇","address":"宝山路746号"},{"poiid":"B209475DD26CA4FE449B","title":"网鱼网咖（甜爱店）","lon":"121.487327","lat":"31.266651","category":"248","category_name":"生活娱乐","address":"上海市 甜爱支路23号-33号2楼(虹口公园对面)"},{"poiid":"B2094753D564A0FB469A","title":"鲁迅公园","lon":"121.488998","lat":"31.266696","category":"500","category_name":"未知分类","address":"上海市 上海虹口区甜爱路"},{"poiid":"B2094655D26EA5FA409A","title":"金美美容美发(虹口)","lon":"121.48833","lat":"31.2678","category":"148","category_name":"美容美发店","address":"虹口区欧阳路283号紫荆花园门口(近四达路)"},{"poiid":"B2094655D26FA7FA4398","title":"安吉里(北门)","lon":"121.48772","lat":"31.2654","category":"47","category_name":"住宅区","address":"吉祥路84弄1-63号"},{"poiid":"B2094654D56CA7FC429A","title":"东照里","lon":"121.48529","lat":"31.265934","category":"47","category_name":"住宅区","address":"山阴路133弄1-113号"},{"poiid":"B2094654D56CA0F44793","title":"安吉里","lon":"121.48798","lat":"31.265289","category":"47","category_name":"住宅区","address":"吉祥路84弄1-63号"},{"poiid":"B2094750D564A3F4429F","title":"中梁海伦国际","lon":"121.485882","lat":"31.267202","category":"47","category_name":"住宅区","address":"宝山路748号"},{"poiid":"B2094654D56CA0F4419E","title":"新文苑","lon":"121.48899","lat":"31.265003","category":"47","category_name":"住宅区","address":"上海市虹口区欧阳路18号(近四平路)"},{"poiid":"B2094654D56CA0FB4692","title":"欧祥养老院","lon":"121.48868","lat":"31.26704","category":"207","category_name":"度假疗养场所","address":"欧阳路175号2层"},{"poiid":"B2094655D269AAF4409F","title":"锦江之星海伦路店","lon":"121.49014","lat":"31.26358","category":"247","category_name":"餐饮美食","address":"虹口区四平路285号(近物华路)"},{"poiid":"B2094757D168A5F9479C","title":"爱婴室","lon":"121.488026","lat":"31.265882","category":"500","category_name":"未知分类","address":"虹口区欧阳路8号(欧阳路四达路)"},{"poiid":"B2094757D169A5F9409B","title":"Le Salon浪族造型","lon":"121.48662289","lat":"31.266343589","category":"148","category_name":"美容美发店","address":"虹口区四川北路2195号2楼(近鲁迅公园)"},{"poiid":"B2094654D56CA7FC4792","title":"恒盛里(东门)","lon":"121.48775","lat":"31.26475","category":"47","category_name":"住宅区","address":"宝安路160弄1-59号"},{"poiid":"B2094654D56CA0F4429A","title":"佐登妮丝美容生活馆四平店","lon":"121.48908","lat":"31.26547","category":"148","category_name":"美容美发店","address":"欧阳路76"},{"poiid":"B2094757D164A2FB4193","title":"必勝宅急送","lon":"121.489606103","lat":"31.2659543289","category":"247","category_name":"餐饮美食","address":"上海市虹口区歐陽路"},{"poiid":"B2094757D06BA1FD4892","title":"金象大厦","lon":"121.485","lat":"31.2673","category":"252","category_name":"楼宇机构","address":"上海市虹口区华昌路9号"},{"poiid":"B2094757D66CABFC479D","title":"浦东国际机场T2停车场","lon":"121.489784103","lat":"31.2642642936","category":"21","category_name":"飞机场","address":"上海浦东"},{"poiid":"B2094757D16EA2F5419C","title":"意宅","lon":"121.486660903","lat":"31.2660877317","category":"500","category_name":"未知分类","address":"上海欧阳路196号"},{"poiid":"B2094757D06BA7FB469C","title":"虹口区第三中心小学","lon":"121.48555","lat":"31.2654","category":"253","category_name":"校园生活","address":"虹口区山阴路103号(吉祥路山阴路)"},{"poiid":"B2094654D56CA0FB429D","title":"新东方泡泡少儿英语","lon":"121.48833","lat":"31.2678","category":"190","category_name":"培训机构","address":"虹口区欧阳路283号2楼(近鲁迅公园)"},{"poiid":"B2094757D069AAFC499A","title":"『笨笨熊♥窩』","lon":"121.488165103","lat":"31.2654503184","category":"500","category_name":"未知分类","address":"上海市虹口区吉祥路"},{"poiid":"B2094654D56CA0F4419D","title":"上海虹口区志汇鸿食品店","lon":"121.48911","lat":"31.26543","category":"117","category_name":"便民商店/便利店","address":""},{"poiid":"B2094655D26CA0F84499","title":"四达路234弄小区(南门)","lon":"121.48675","lat":"31.26803","category":"47","category_name":"住宅区","address":"四达路234弄1-6号"},{"poiid":"B2094757D16CA0FE439C","title":"世博花园二期 馥敦坊","lon":"121.490123743","lat":"31.2679906114","category":"47","category_name":"住宅区","address":"上海市虹口区四达路58弄"},{"poiid":"B2094751DB65A2FF469A","title":"真蕊手工面食","lon":"121.48867","lat":"31.26452","category":"68","category_name":"快餐厅","address":"虹口区宝安支路20号"},{"poiid":"B2094655D26EA6FF4692","title":"章氏","lon":"121.48817","lat":"31.26579","category":"248","category_name":"生活娱乐","address":"虹口区吉祥路69号"},{"poiid":"B209475CD168A6FC4893","title":"costa coffee","lon":"121.486206","lat":"31.266719","category":"500","category_name":"未知分类","address":"上海市 虹口区四川北路"},{"poiid":"B2094655D26CA0F9429F","title":"四达路99弄小区(西门)","lon":"121.48992","lat":"31.26693","category":"47","category_name":"住宅区","address":"四达路99弄1-10号"},{"poiid":"B2094654D56CA0F44999","title":"明杨豪苑(东门)","lon":"121.48805","lat":"31.26754","category":"48","category_name":"楼宇大门","address":"欧阳路218弄1-3号"},{"poiid":"B2094757D16CA0FC4193","title":"小扁头老鸭粉丝汤","lon":"121.48416","lat":"31.26715","category":"68","category_name":"快餐厅","address":"虹口区山阴路274弄9号(近鲁迅公园)"},{"poiid":"B2094654D56CA7FC409D","title":"兴业坊","lon":"121.48522","lat":"31.266668","category":"47","category_name":"住宅区","address":"山阴路165弄1-87号"},{"poiid":"B2094654D56CA7FC479D","title":"恒盛里","lon":"121.4874","lat":"31.264652","category":"47","category_name":"住宅区","address":"宝安路160弄1-59号"},{"poiid":"B2094654D56CA0FB449C","title":"虹口区第三中心小学分部","lon":"121.49035","lat":"31.26765","category":"56","category_name":"小学","address":"四达路96"},{"poiid":"B2094757D06AA4FD409C","title":"深水潭","lon":"121.4882291","lat":"31.265300315","category":"500","category_name":"未知分类","address":"上海市虹口区吉祥路"},{"poiid":"B2094757D16BA0FD409D","title":"重庆谢记麻辣烫","lon":"121.482","lat":"31.2651","category":"68","category_name":"快餐厅","address":"虹口区山阴路228号"},{"poiid":"B2094654DB6AAAF8479D","title":"瞿秋白故居","lon":"121.48529","lat":"31.26593","category":"243","category_name":"纪念馆","address":"山阴路133弄12号"},{"poiid":"B2094753D16CA5FC499E","title":"攀宇健身中心(欧阳路店)","lon":"121.4881","lat":"31.26819","category":"221","category_name":"健身中心","address":"虹口区欧阳路299弄(近祥德路)"},{"poiid":"B2094757D165AAF4409F","title":"华浦教育","lon":"121.489415","lat":"31.266284","category":"500","category_name":"未知分类","address":"上海牡丹江路1760号文化馆二楼"},{"poiid":"B2094655D26CA1FA4098","title":"四达路99弄小区","lon":"121.49016","lat":"31.26697","category":"47","category_name":"住宅区","address":"四达路99弄1-10号"},{"poiid":"B2094757D168A0FE4099","title":"100路欧阳路四达路站","lon":"121.488228","lat":"31.267992","category":"500","category_name":"未知分类","address":"上海虹口区欧阳路(近四达路)"},{"poiid":"B2094655D26DA5FB469E","title":"好德便利No.261","lon":"121.48945","lat":"31.26476","category":"117","category_name":"便民商店/便利店","address":"欧阳路12"},{"poiid":"B2094655D26DABF8419C","title":"上海市鲁迅初级中学","lon":"121.48667","lat":"31.26424","category":"55","category_name":"中学","address":"溧阳路1203弄19"},{"poiid":"B2094757D06FA6F84899","title":"四平路临平北路公交车站","lon":"121.49063873","lat":"31.264434814","category":"38","category_name":"公交车站","address":"上海四平路311号"},{"poiid":"B2094654DB6AAAF84799","title":"吉祥苑(北门)","lon":"121.4883","lat":"31.2656","category":"48","category_name":"楼宇大门","address":"吉祥路38弄1-6号"},{"poiid":"B2094654D56CA0F5499C","title":"山三小区","lon":"121.48532","lat":"31.267092","category":"47","category_name":"住宅区","address":"山阴路191弄1-10号"},{"poiid":"B209475CD16EABFD489F","title":"城隍庙","lon":"121.485801","lat":"31.265775","category":"500","category_name":"未知分类","address":"上海市 黄埔"},{"poiid":"B2094757D16EABF5409B","title":"老马烧烤","lon":"121.4846772","lat":"31.267349258","category":"68","category_name":"快餐厅","address":"虹口区甜爱路152号(近鲁迅公园)"},{"poiid":"B2094655D26CA0F8449E","title":"四达路234弄小区","lon":"121.48654","lat":"31.26841","category":"47","category_name":"住宅区","address":"四达路234弄1-6号"},{"poiid":"B2094655D264A5F4469D","title":"百味鱼","lon":"121.48485","lat":"31.26495","category":"71","category_name":"四川菜","address":"虹口区山阴路63号(近四川北路)"},{"poiid":"B2094655D265A0FD429B","title":"郎克网吧","lon":"121.48841","lat":"31.26771","category":"248","category_name":"生活娱乐","address":"虹口区欧阳路273号2楼(近鲁迅公园)"},{"poiid":"B2094757D16DA2FC4492","title":"四达路220弄","lon":"121.486756","lat":"31.2678793","category":"252","category_name":"楼宇机构","address":"上海虹口四达路220弄"},{"poiid":"B2094757D069A3FB459D","title":"一品干锅蛙","lon":"121.48837","lat":"31.26689","category":"71","category_name":"四川菜","address":"虹口区欧阳路196号法兰桥创意园1号楼2楼(近四达路)"},{"poiid":"B2094655D36CA2FB4793","title":"山阴路吉祥路","lon":"121.48469","lat":"31.26597","category":"38","category_name":"公交车站","address":""},{"poiid":"B2094655D26CA1FD4592","title":"良友金伴便利连锁No.141","lon":"121.48491","lat":"31.26648","category":"117","category_name":"便民商店/便利店","address":"山阴路155"},{"poiid":"B2094654D56CA0FB4798","title":"上海神东船务有限公司","lon":"121.48952","lat":"31.2659","category":"263","category_name":"公司","address":"上海市虹口区欧阳路85号金陵国际大厦"},{"poiid":"B2094757D66EA1F4479D","title":"江湾路幼儿园","lon":"121.488269103","lat":"31.2689943924","category":"57","category_name":"幼儿园","address":"虹口区山阴路303弄15号"},{"poiid":"B2094654D56CA0F44993","title":"上海宏阳物业有限公司","lon":"121.48754","lat":"31.26814","category":"263","category_name":"公司","address":"四达路200"},{"poiid":"B2094655D36CA2FB489A","title":"山阴路四达路","lon":"121.48501","lat":"31.26808","category":"38","category_name":"公交车站","address":""},{"poiid":"B2094757D568A6F4449B","title":"瞿秋白寓所旧址","lon":"121.4852981","lat":"31.26593694","category":"250","category_name":"公园户外","address":"虹口区山阴路133弄12号(吉祥路山阴路)"},{"poiid":"B2094654D56CA0F5499D","title":"山三小区(西门)","lon":"121.48503","lat":"31.26699","category":"47","category_name":"住宅区","address":"山阴路191弄1-10号"},{"poiid":"B2094654D56CA7FC409C","title":"兴业坊(西门)","lon":"121.48493","lat":"31.26658","category":"47","category_name":"住宅区","address":"山阴路165弄1-87号"},{"poiid":"B2094654D56CA7FC4192","title":"东照里(西门)","lon":"121.48489","lat":"31.26604","category":"47","category_name":"住宅区","address":"山阴路133弄1-113号"},{"poiid":"B2094654D56CA0FB479A","title":"上海洪亮物流有限公司","lon":"121.48951","lat":"31.2659","category":"248","category_name":"生活娱乐","address":"欧阳路85号金陵国际大厦24层"},{"poiid":"B2094655D26FA1F54699","title":"金陵国际大厦(西二门)","lon":"121.4893","lat":"31.26614","category":"656","category_name":"大门","address":"欧阳路85"},{"poiid":"B2094654D56CA0F4489C","title":"可颂坊 四平路店 Croissants de France","lon":"121.491196054","lat":"31.265359793","category":"67","category_name":"甜品店","address":"四平路311号近欧阳路"},{"poiid":"B2094655D26CA0F8449D","title":"山阴路229弄小区(西门)","lon":"121.48506","lat":"31.2676","category":"47","category_name":"住宅区","address":"山阴路229弄1-9号"},{"poiid":"B2094654DB6AAAF8499B","title":"国美电器四平路店","lon":"121.49085","lat":"31.26515","category":"138","category_name":"家电电子卖场","address":"虹口区四平路311号(近临平路)"},{"poiid":"B2094751D565AAF8409F","title":"潮汕砂锅粥","lon":"121.4861688534152","lat":"31.26384637959021","category":"247","category_name":"餐饮美食","address":"四平路188号"},{"poiid":"B2094654D56CA6FF4593","title":"文华别墅","lon":"121.48465","lat":"31.2673","category":"47","category_name":"住宅区","address":"山阴路208弄8-53号"},{"poiid":"B2094751D56AA6FF449B","title":"上海图书馆","lon":"121.4856","lat":"31.26494","category":"500","category_name":"未知分类","address":null},{"poiid":"B2094655D26FA7F84593","title":"文华别墅(东门)","lon":"121.48477","lat":"31.26717","category":"47","category_name":"住宅区","address":"山阴路208弄8-53号"},{"poiid":"B2094655D269AAF4469B","title":"姬莲娜","lon":"121.49047","lat":"31.26478","category":"247","category_name":"餐饮美食","address":"虹口区四平路311号恒城花苑甲座405(近临平路)"},{"poiid":"B2094757D16DA4FC4393","title":"外灘隧道入口","lon":"121.488612253","lat":"31.2637664332","category":"500","category_name":"未知分类","address":"上海延安東路江西南路"},{"poiid":"B2094655D26CA0F8449C","title":"馨园咖啡吧","lon":"121.48522","lat":"31.26845","category":"65","category_name":"咖啡厅","address":"山阴路277"},{"poiid":"B2094654D56CA6FF459D","title":"大陆新村","lon":"121.48456","lat":"31.266121","category":"47","category_name":"住宅区","address":"山阴路132弄1-10号"},{"poiid":"B2094654DB6AAAF84792","title":"迪迪龙英语(吉祥路)","lon":"121.48551","lat":"31.26537","category":"190","category_name":"培训机构","address":"虹口区山阴路85弄8号(近吉祥路)"},{"poiid":"B2094757D16BA6F44893","title":"肉肉蜗居","lon":"121.4852779","lat":"31.266863347","category":"217","category_name":"旅馆招待所","address":"上海山阴路"},{"poiid":"B2094654DB6AAAF94899","title":"鲁迅故居(东门)","lon":"121.4846","lat":"31.26602","category":"680","category_name":"楼宇机构","address":"山阴路132弄1-10号"},{"poiid":"B2094655D26CA0FF4898","title":"四达路25弄小区(北门)","lon":"121.49127","lat":"31.26681","category":"47","category_name":"住宅区","address":"四达路25弄1-4号"},{"poiid":"B2094655D26CA1FA409F","title":"虹临嘉园","lon":"121.48936","lat":"31.263929","category":"47","category_name":"住宅区","address":"上海市虹口区四平路283号"},{"poiid":"B2094655D265A7F8479F","title":"飞利浦国美四平路店","lon":"121.49046","lat":"31.26448","category":"138","category_name":"家电电子卖场","address":"四平路311号"},{"poiid":"B2094655D36DA7F54998","title":"溧阳路宝安路","lon":"121.48737","lat":"31.26291","category":"38","category_name":"公交车站","address":""},{"poiid":"B2094655D26FAAF8449B","title":"山二小区(东门)","lon":"121.48458","lat":"31.26544","category":"47","category_name":"住宅区","address":""},{"poiid":"B2094654D56CA7F84998","title":"四达里","lon":"121.48496","lat":"31.26491","category":"47","category_name":"住宅区","address":"山阴路57"},{"poiid":"B2094655D26EA1FC439B","title":"山阴路343弄小区","lon":"121.48567","lat":"31.2693","category":"47","category_name":"住宅区","address":"山阴路343弄1-28号"},{"poiid":"B2094757D06FA4FD439E","title":"余庆坊","lon":"121.491","lat":"31.2679","category":"500","category_name":"未知分类","address":"上海虹口区四川北路1906号"},{"poiid":"B2094655D26DAAFB409F","title":"虹临花园","lon":"121.49","lat":"31.263592","category":"47","category_name":"住宅区","address":"四平路283号"},{"poiid":"B2094757D165ABF8419A","title":"凯蒂美甲屋","lon":"121.49072503","lat":"31.26698423","category":"148","category_name":"美容美发店","address":"虹口区欧阳路196号法兰桥创意园步行街(四达路口)"},{"poiid":"B2094757D16EA6FA499C","title":"乖乖宠物店","lon":"121.484813","lat":"31.267499","category":"249","category_name":"购物服务","address":"上海虹口区山阴路210号"},{"poiid":"B2094654D56CA7FD429F","title":"郭沫若故居","lon":"121.48696","lat":"31.26333","category":"243","category_name":"纪念馆","address":"虹口区溧阳路1269号(近四平路)"},{"poiid":"B2094655D26FA7FE419C","title":"四达里(西门)","lon":"121.48484","lat":"31.26485","category":"47","category_name":"住宅区","address":"山阴路57"},{"poiid":"B2094655D26FA7F54692","title":"金陵国际大厦(西一门)","lon":"121.48955","lat":"31.26561","category":"656","category_name":"大门","address":""},{"poiid":"B2094654D56CA0F5439A","title":"绿缘小区","lon":"121.48724","lat":"31.270113","category":"47","category_name":"住宅区","address":"欧阳路328弄1-6号"},{"poiid":"B2094655D26FAAF84392","title":"积善里(东门)","lon":"121.48502","lat":"31.26906","category":"47","category_name":"住宅区","address":"山阴路340弄1-31号"},{"poiid":"B2094654D56CA7FE409F","title":"溧阳华府(南门)","lon":"121.48904","lat":"31.26295","category":"47","category_name":"住宅区","address":"四平路283号"},{"poiid":"B2094655D26CA0FD449E","title":"关紫兰旧居","lon":"121.48597","lat":"31.26375","category":"243","category_name":"纪念馆","address":"溧阳路1333弄1号"},{"poiid":"B2094654D56CA0F54993","title":"华城餐厅","lon":"121.48494","lat":"31.26674","category":"260","category_name":"其他","address":"虹口区山阴路175号(近吉祥路)"},{"poiid":"B2094750D165ABFF499B","title":"萤火虫亲子阅读馆","lon":"121.48487","lat":"31.266456","category":"248","category_name":"生活娱乐","address":"上海市虹口区山阴路168弄33号"},{"poiid":"B2094654D56CA7FD4993","title":"玛萨SPA专业美容香薰生活馆旗舰店","lon":"121.49032","lat":"31.26389","category":"148","category_name":"美容美发店","address":"四平路293"},{"poiid":"B2094655D26CA1F9499A","title":"瞿秋白故居(西门)","lon":"121.4849","lat":"31.26604","category":"680","category_name":"楼宇机构","address":"山阴路133弄12号"},{"poiid":"B2094655D26FAAF8449A","title":"山二小区","lon":"121.48425","lat":"31.26553","category":"47","category_name":"住宅区","address":""},{"poiid":"B2094654D56EA0FF479D","title":"绿洲紫荆花园(西门)","lon":"121.4884","lat":"31.26816","category":"656","category_name":"大门","address":"欧阳路289弄"},{"poiid":"B2094654D56CA0F54998","title":"上海申艺塑料制品厂","lon":"121.48516","lat":"31.26738","category":"263","category_name":"公司","address":"山阴路209弄2号"},{"poiid":"B2094757D068A2F5459C","title":"恒丰里","lon":"121.485046","lat":"31.265118","category":"252","category_name":"楼宇机构","address":"上海山阴路69弄"},{"poiid":"B2094752DA69A1F94398","title":"甜爱路","lon":"121.487852","lat":"31.262784","category":"500","category_name":"未知分类","address":"上海市 甜爱路四川北路"},{"poiid":"B2094752D468ABFF4699","title":"红房子妇产科医院杨浦院区","lon":"121.488754","lat":"31.269523","category":"252","category_name":"楼宇机构","address":"上海市杨浦区沈阳路"},{"poiid":"B2094654DB6AAAF8489A","title":"长春小区(南门)","lon":"121.48584","lat":"31.26372","category":"47","category_name":"住宅区","address":"溧阳路1333弄1-21号"},{"poiid":"B2094757D16BA6F5449F","title":"四达路25弄","lon":"121.491079","lat":"31.266557","category":"252","category_name":"楼宇机构","address":"四达路25弄1-4号"},{"poiid":"B2094655D26EA6FD4993","title":"姬莲娜婚纱礼服定制馆","lon":"121.49049","lat":"31.26446","category":"141","category_name":"服装鞋帽皮具店","address":"虹口区四平路311号恒城花苑甲座405"},{"poiid":"B2094757D66DA4FA4892","title":"一家人面馆","lon":"121.4870443","lat":"31.262881364","category":"247","category_name":"餐饮美食","address":"上海虹口区刑家桥北路102号"},{"poiid":"B2094655D26CA0F8449F","title":"山阴路343弄小区(西门)","lon":"121.48532","lat":"31.26929","category":"47","category_name":"住宅区","address":"山阴路343弄1-28号"},{"poiid":"B2094654DB6AAAF8479B","title":"新文苑(东二门)","lon":"121.48917","lat":"31.26529","category":"656","category_name":"大门","address":""},{"poiid":"B2094757D66EA6FE429F","title":"上海政法学院信112","lon":"121.48775877","lat":"31.269391792","category":"500","category_name":"未知分类","address":"上海外青松公路"},{"poiid":"B2094655D26DA5FB469C","title":"虹临嘉园(南门)","lon":"121.48905","lat":"31.26295","category":"47","category_name":"住宅区","address":"四平路283号"},{"poiid":"B2094655D26FA7F94198","title":"新文苑(东一门)","lon":"121.48934","lat":"31.2649","category":"656","category_name":"大门","address":"欧阳路28弄1-6号"},{"poiid":"B2094751D26CA1FF419E","title":"七宝老街","lon":"121.484146","lat":"31.266344","category":"627","category_name":"一般地点标志","address":"七宝老街"},{"poiid":"B2094655D26FA7FE4298","title":"郭沫若故居(南门)","lon":"121.48693","lat":"31.26321","category":"680","category_name":"楼宇机构","address":"溧阳路1267-1269"},{"poiid":"B2094757D16EAAF9439C","title":"山阴路四达里","lon":"121.484901603","lat":"31.2648693062","category":"500","category_name":"未知分类","address":"上海虹口区山阴路57弄"},{"poiid":"B2094757D064A5FB4399","title":"等车","lon":"121.487110003","lat":"31.2697032072","category":"249","category_name":"购物服务","address":"上海只是寂寞又百无聊赖地等公车等地铁，无法逃避。"},{"poiid":"B209475DD06DA5F9479A","title":"齐云山庄","lon":"121.491188","lat":"31.268463","category":"500","category_name":"未知分类","address":"上海市 欧阳路196号，法兰桥20楼"},{"poiid":"B2094757D16CA7F84293","title":"协详影像制作中心(上海)","lon":"121.487097103","lat":"31.2696397059","category":"500","category_name":"未知分类","address":"上海祥德路264弄乙1号"},{"poiid":"B2094654D56CA0F54292","title":"上海捷时达实物投递有限公司","lon":"121.48769","lat":"31.26948","category":"248","category_name":"生活娱乐","address":"欧阳路320"},{"poiid":"B2094654D56CA7FC469C","title":"新文苑(南门)","lon":"121.48895","lat":"31.26463","category":"656","category_name":"大门","address":""},{"poiid":"B2094752D16EA3F84692","title":"上海浦东国际机场T2航站楼","lon":"121.48705","lat":"31.270128","category":"500","category_name":"未知分类","address":null},{"poiid":"B2094655D26CA0FD439C","title":"SVA世博花园(南二门)","lon":"121.49047","lat":"31.26719","category":"656","category_name":"大门","address":""},{"poiid":"B2094757D16BA1F5429F","title":"苏奈儿专业美甲","lon":"121.4861581","lat":"31.263519628","category":"148","category_name":"美容美发店","address":"虹口区四川北路2002弄(近溧阳路)"},{"poiid":"B2094757D065A5FF459F","title":"积善里","lon":"121.48502349","lat":"31.269060134","category":"500","category_name":"未知分类","address":"上海虹口区山阴路340弄-31号"},{"poiid":"B2094757D16DA5F4459D","title":"东方宇美容美发","lon":"121.48841562","lat":"31.2701996332","category":"148","category_name":"美容美发店","address":"上海虹口区欧阳路502号"},{"poiid":"B2094654D56EA0FF4792","title":"绿洲紫荆花园(东门)","lon":"121.49007","lat":"31.2681","category":"656","category_name":"大门","address":""},{"poiid":"B2094757D66DA5FA489A","title":"利通洗车店","lon":"121.48834766","lat":"31.270209672","category":"163","category_name":"4S店","address":"上海欧阳路268号"},{"poiid":"B2094757D068A1FB479E","title":"宁来疯桌游吧","lon":"121.49114555","lat":"31.266924018","category":"175","category_name":"棋牌室","address":"虹口区四平路SVA世博花园29号702室(近曲阳路)"},{"poiid":"B2094757D66DA2FC4098","title":"欧阳路351弄","lon":"121.4899321","lat":"31.269704407","category":"252","category_name":"楼宇机构","address":"上海欧阳路351弄"},{"poiid":"B2094654DB6AAAF8479C","title":"绿缘小区(东二门)","lon":"121.4877","lat":"31.26925","category":"656","category_name":"大门","address":""},{"poiid":"B2094655D265ABFC4599","title":"秋风之墩音乐工厂书房录音室","lon":"121.48609","lat":"31.2636","category":"248","category_name":"生活娱乐","address":"溧阳路1331号1203弄21号"},{"poiid":"B2094655D26EA2F44098","title":"大陆新邨(东五门)","lon":"121.48474","lat":"31.26678","category":"656","category_name":"大门","address":"山阴路180弄41-50号"},{"poiid":"B2094655D26FA0FA4598","title":"恒城花苑(南门)","lon":"121.49023","lat":"31.26451","category":"656","category_name":"大门","address":"四平路311号"},{"poiid":"B2094655D26FA1F54199","title":"大陆新邨(东一门)","lon":"121.48461","lat":"31.26602","category":"656","category_name":"大门","address":"山阴路132弄1-10号"},{"poiid":"B2094654D56CA7FF4492","title":"恒城花苑(东门)","lon":"121.49114","lat":"31.26576","category":"656","category_name":"大门","address":"四平路311号"},{"poiid":"B2094655D26FA0FD489F","title":"SVA世博花园(南一门)","lon":"121.49138","lat":"31.26698","category":"656","category_name":"大门","address":"四达路58弄"},{"poiid":"B2094655D26CA0FF4899","title":"虹临花园(北门)","lon":"121.48995","lat":"31.26416","category":"656","category_name":"大门","address":""},{"poiid":"B2094655D26CA0FD439E","title":"SVA世博花园(西门)","lon":"121.4907","lat":"31.26866","category":"656","category_name":"大门","address":""},{"poiid":"B2094654DB6AAAF8489F","title":"虹临花园(南门)","lon":"121.48904","lat":"31.26295","category":"656","category_name":"大门","address":"四平路283号"},{"poiid":"B2094655D26FA0FD429B","title":"绿缘小区(东一门)","lon":"121.48756","lat":"31.27003","category":"656","category_name":"大门","address":"欧阳路328弄1-6号"}]