[{"poiid":"B2094757D06FA0FF499F","title":"夜市豆浆油条店","lon":"121.5123","lat":"31.25417","category":"111","category_name":"休闲餐饮场所","address":"虹口区霍山路203号(近临潼路)"},{"poiid":"B2094757D06EAAFF479A","title":"杨树浦路地铁站","lon":"121.51719604","lat":"31.252407847","category":"36","category_name":"地铁站","address":"上海轨道交通 四号线 轨交杨树浦路站 轻轨 4"},{"poiid":"B2094757D06BA4F5439B","title":"上海最牛的大饼油条夜排档","lon":"121.512013078","lat":"31.2548289864","category":"500","category_name":"未知分类","address":"上海霍山路203号"},{"poiid":"B209475CD564A7F84392","title":"上海滩浦东香格里拉店","lon":"121.50058","lat":"31.23634","category":"119","category_name":"商场","address":"浦东富成路33号香格里拉酒店内大堂层"},{"poiid":"B2094654D56FA3F44099","title":"上海瑞丰国际大厦","lon":"121.51557","lat":"31.25078","category":"46","category_name":"楼宇","address":"上海市奉贤区环城东路455、465弄"},{"poiid":"B2094757D06FA3FC479F","title":"上海航运交易所","lon":"121.51347327","lat":"31.250775518","category":"260","category_name":"其他","address":"上海杨树浦路88号(近惠民路)"},{"poiid":"B2094757D06FA3FF4692","title":"提篮桥监狱","lon":"121.51515197","lat":"31.253217697","category":"608","category_name":"法院","address":"上海市虹口区长阳路147号"},{"poiid":"B2094654D56FA2FF449E","title":"老店麻辣烫(霍山路)","lon":"121.51065","lat":"31.25342","category":"68","category_name":"快餐厅","address":"虹口区霍山路94号(近舟山路)"},{"poiid":"B2094655D26CA6FC4493","title":"61号老栈(百联创意)","lon":"121.51188","lat":"31.25121","category":"46","category_name":"楼宇","address":"杨树浦路61号"},{"poiid":"B2094757D16DABF9429A","title":"浦江游览","lon":"121.516154","lat":"31.249603","category":"607","category_name":"一般景点","address":"上海秦皇岛"},{"poiid":"B2094654DB69A5FE4693","title":"肯德基 KFC (杨树浦店)","lon":"121.51166","lat":"31.25119","category":"68","category_name":"快餐厅","address":"虹口区杨树浦路45号(近浦江海关)"},{"poiid":"B2094757D068A3FF4898","title":"霍山公园","lon":"121.51133895","lat":"31.253346625","category":"196","category_name":"公园","address":"虹口区霍山路118号(近舟山路)"},{"poiid":"B2094655D264ABF8459A","title":"马登国际航运商务中心","lon":"121.51322","lat":"31.25147","category":"46","category_name":"楼宇","address":"杨树浦路147号"},{"poiid":"B2094654D56FA3FB479A","title":"港运大厦","lon":"121.51116","lat":"31.25012","category":"46","category_name":"楼宇","address":"静安区长寿路(万航渡路口)"},{"poiid":"B2094654DB69A5FF429A","title":"莫泰168连锁旅店(霍山路店)","lon":"121.51356","lat":"31.2559","category":"216","category_name":"经济型连锁酒店","address":"上海虹口区霍山路300号（近大连路）"},{"poiid":"B2094655D36CA0FB4799","title":"霍山路临潼路","lon":"121.51298","lat":"31.25114","category":"38","category_name":"公交车站","address":"霍山路临潼路"},{"poiid":"B2094757D66FA0FD499C","title":"北外滩东信酒店","lon":"121.5116325","lat":"31.252110289","category":"217","category_name":"旅馆招待所","address":"虹口区惠民路36号(近杨树浦路东大名路)"},{"poiid":"B2094757D065A4FB449B","title":"老头菜饭","lon":"121.51482053","lat":"31.25163419","category":"68","category_name":"快餐厅","address":"杨浦区杨树浦路205号(临潼路口)"},{"poiid":"B2094757D16DABFE4293","title":"临潼路早饭摊","lon":"121.511980736","lat":"31.254653917","category":"247","category_name":"餐饮美食","address":"上海虹口区霍山路临潼路"},{"poiid":"B2094757D66BA4F8409D","title":"阿王菜饭","lon":"121.5143770854","lat":"31.251560061639","category":"68","category_name":"快餐厅","address":"杨浦区杨树浦路197-1号(近临潼路)"},{"poiid":"B2094751DA6EA0F5439F","title":"上海市中西结合医院","lon":"121.513936","lat":"31.252164","category":"162","category_name":"医院","address":"保定路230号"},{"poiid":"B2094654D56FA3F5419F","title":"来伊客餐厅","lon":"121.51357","lat":"31.25299","category":"68","category_name":"快餐厅","address":"虹口区临潼路101号(近霍山路)"},{"poiid":"B2094757D06AA5FF4493","title":"临潼苑","lon":"121.51397","lat":"31.252007","category":"500","category_name":"未知分类","address":"上海市虹口区杨树浦路183号"},{"poiid":"B2094757D464A7F44099","title":"石库门牛排面馆","lon":"121.51113","lat":"31.25174","category":"68","category_name":"快餐厅","address":"虹口区惠民路21弄5号(近远洋宾馆)"},{"poiid":"B2094655D268A7FF4893","title":"马登仓库办公大楼","lon":"121.51322","lat":"31.25146","category":"46","category_name":"楼宇","address":"杨树浦路147、155"},{"poiid":"B2094655D36CA1F94799","title":"临潼路杨树浦路","lon":"121.5143","lat":"31.25222","category":"38","category_name":"公交车站","address":""},{"poiid":"B2094654D56FA2FE4199","title":"为民点心店","lon":"121.51166","lat":"31.2521","category":"68","category_name":"快餐厅","address":"虹口区惠民路62号(近杨树浦路)"},{"poiid":"B2094655D26AA0F9409B","title":"地铁杨树浦路站","lon":"121.5172","lat":"31.25241","category":"36","category_name":"地铁站","address":""},{"poiid":"B2094655D26CA6FC449C","title":"临潼路99弄小区","lon":"121.51351","lat":"31.25278","category":"47","category_name":"住宅区","address":"临潼路99弄4-16号"},{"poiid":"B2094655D26DAAF94392","title":"临潼路99弄小区(北门)","lon":"121.51364","lat":"31.25291","category":"47","category_name":"住宅区","address":"临潼路99弄4-16号"},{"poiid":"B2094654D56FA3F44292","title":"海上人家","lon":"121.515036054","lat":"31.251712793","category":"257","category_name":"中餐厅","address":"上海杨浦区平凉路1号(近隆昌路)  "},{"poiid":"B2094757D16EA2F5479D","title":"蓝桥麻辣烫","lon":"121.51224","lat":"31.25241","category":"68","category_name":"快餐厅","address":"虹口区惠民路85号(近临潼路)"},{"poiid":"B2094757D068A4F5479A","title":"隧道工程股份有限公司","lon":"121.517015","lat":"31.253451","category":"263","category_name":"公司","address":"上海大连路118号"},{"poiid":"B2094757D065A0F9419D","title":"小江北特色烧烤","lon":"121.511359054","lat":"31.253935793","category":"68","category_name":"快餐厅","address":"虹口区霍山路120号(近临潼路)"},{"poiid":"B2094757D464A6FD489C","title":"霍山路香吧岛龙虾","lon":"121.51164475398","lat":"31.254086781934","category":"247","category_name":"餐饮美食","address":"虹口区霍山路163号(近临潼路)"},{"poiid":"B2094655D36CA0FB499D","title":"惠民路","lon":"121.51419","lat":"31.2546","category":"38","category_name":"公交车站","address":""},{"poiid":"B2094655D36DA6FE4992","title":"杨树浦路","lon":"121.5172","lat":"31.25241","category":"38","category_name":"公交车站","address":""},{"poiid":"B2094750D76FAAFE4193","title":"光头正宗千里香馄饨","lon":"121.512","lat":"31.2523","category":"68","category_name":"快餐厅","address":"虹口区惠民路71号(近临潼路)"},{"poiid":"B2094757D465A0FB4199","title":"临潼路水饺馆","lon":"121.512927054","lat":"31.254031793","category":"68","category_name":"快餐厅","address":"虹口区临潼路281号(近霍山路)"},{"poiid":"B2094757D164A7FF459C","title":"保定路","lon":"121.5124551","lat":"31.252942057","category":"500","category_name":"未知分类","address":"上海市虹口区保定路"},{"poiid":"B2094757D06AA7FB489D","title":"豪享来(霍山店)","lon":"121.51042","lat":"31.25297","category":"94","category_name":"西餐厅","address":"虹口区霍山路69号(近舟山路)"},{"poiid":"B2094655D26FA0FC489A","title":"海翔小区南区","lon":"121.51294","lat":"31.25293","category":"47","category_name":"住宅区","address":"惠民路150弄5-6号"},{"poiid":"B2094757D06AA5FC4693","title":"提篮桥(惠民路东大名路)站(公交28终,510,875,842)","lon":"121.511633","lat":"31.25213","category":"38","category_name":"公交车站","address":"上海市虹口区临潼路东大名路"},{"poiid":"B2094757D66AA6FF4392","title":"瑛记药膳火锅鸡","lon":"121.51161","lat":"31.25417","category":"86","category_name":"火锅店","address":"虹口区霍山路170号A-103座(近临潼路)"},{"poiid":"B2094655D26BA7F94892","title":"重庆鸡公煲 霍山路店","lon":"121.511950054","lat":"31.255014793","category":"71","category_name":"四川菜","address":"虹口区霍山路203号(近临潼路)"},{"poiid":"B2094654D56FA3F4449C","title":"上海市虹口区临潼路幼儿园","lon":"121.51345","lat":"31.25343","category":"57","category_name":"幼儿园","address":"虹口区临潼路130号(惠民路临潼路)"},{"poiid":"B2094750DA6FA5FD4098","title":"兰芳园港式冻饮","lon":"121.51267","lat":"31.25323","category":"113","category_name":"冷饮店","address":"虹口区惠民路154号(近临潼路)"},{"poiid":"B2094655D36CA3FF469B","title":"上海美博城","lon":"121.51167","lat":"31.2512","category":"46","category_name":"楼宇","address":"杨树浦路61号"},{"poiid":"B2094654D56FA2FD4999","title":"云舫小区","lon":"121.51371","lat":"31.255001","category":"47","category_name":"住宅区","address":"保定路20弄10-40号"},{"poiid":"B2094753D669A3F4439A","title":"蘭记芬芳港式饮品专门店","lon":"121.512764","lat":"31.253368","category":"247","category_name":"餐饮美食","address":"上海市虹口区惠民路154号"},{"poiid":"B2094757D06FA0FF499F","title":"夜市豆浆油条店","lon":"121.5123","lat":"31.25417","category":"111","category_name":"休闲餐饮场所","address":"虹口区霍山路203号(近临潼路)"},{"poiid":"B2094757D06EAAFF479A","title":"杨树浦路地铁站","lon":"121.51719604","lat":"31.252407847","category":"36","category_name":"地铁站","address":"上海轨道交通 四号线 轨交杨树浦路站 轻轨 4"},{"poiid":"B2094757D06BA4F5439B","title":"上海最牛的大饼油条夜排档","lon":"121.512013078","lat":"31.2548289864","category":"500","category_name":"未知分类","address":"上海霍山路203号"},{"poiid":"B209475CD564A7F84392","title":"上海滩浦东香格里拉店","lon":"121.50058","lat":"31.23634","category":"119","category_name":"商场","address":"浦东富成路33号香格里拉酒店内大堂层"},{"poiid":"B2094654D56FA3F44099","title":"上海瑞丰国际大厦","lon":"121.51557","lat":"31.25078","category":"46","category_name":"楼宇","address":"上海市奉贤区环城东路455、465弄"},{"poiid":"B2094757D06FA3FC479F","title":"上海航运交易所","lon":"121.51347327","lat":"31.250775518","category":"260","category_name":"其他","address":"上海杨树浦路88号(近惠民路)"},{"poiid":"B2094757D06FA3FF4692","title":"提篮桥监狱","lon":"121.51515197","lat":"31.253217697","category":"608","category_name":"法院","address":"上海市虹口区长阳路147号"},{"poiid":"B2094654D56FA2FF449E","title":"老店麻辣烫(霍山路)","lon":"121.51065","lat":"31.25342","category":"68","category_name":"快餐厅","address":"虹口区霍山路94号(近舟山路)"},{"poiid":"B2094655D26CA6FC4493","title":"61号老栈(百联创意)","lon":"121.51188","lat":"31.25121","category":"46","category_name":"楼宇","address":"杨树浦路61号"},{"poiid":"B2094757D16DABF9429A","title":"浦江游览","lon":"121.516154","lat":"31.249603","category":"607","category_name":"一般景点","address":"上海秦皇岛"},{"poiid":"B2094654DB69A5FE4693","title":"肯德基 KFC (杨树浦店)","lon":"121.51166","lat":"31.25119","category":"68","category_name":"快餐厅","address":"虹口区杨树浦路45号(近浦江海关)"},{"poiid":"B2094757D068A3FF4898","title":"霍山公园","lon":"121.51133895","lat":"31.253346625","category":"196","category_name":"公园","address":"虹口区霍山路118号(近舟山路)"},{"poiid":"B2094655D264ABF8459A","title":"马登国际航运商务中心","lon":"121.51322","lat":"31.25147","category":"46","category_name":"楼宇","address":"杨树浦路147号"},{"poiid":"B2094654D56FA3FB479A","title":"港运大厦","lon":"121.51116","lat":"31.25012","category":"46","category_name":"楼宇","address":"静安区长寿路(万航渡路口)"},{"poiid":"B2094654DB69A5FF429A","title":"莫泰168连锁旅店(霍山路店)","lon":"121.51356","lat":"31.2559","category":"216","category_name":"经济型连锁酒店","address":"上海虹口区霍山路300号（近大连路）"},{"poiid":"B2094655D36CA0FB4799","title":"霍山路临潼路","lon":"121.51298","lat":"31.25114","category":"38","category_name":"公交车站","address":"霍山路临潼路"},{"poiid":"B2094757D66FA0FD499C","title":"北外滩东信酒店","lon":"121.5116325","lat":"31.252110289","category":"217","category_name":"旅馆招待所","address":"虹口区惠民路36号(近杨树浦路东大名路)"},{"poiid":"B2094757D065A4FB449B","title":"老头菜饭","lon":"121.51482053","lat":"31.25163419","category":"68","category_name":"快餐厅","address":"杨浦区杨树浦路205号(临潼路口)"},{"poiid":"B2094757D16DABFE4293","title":"临潼路早饭摊","lon":"121.511980736","lat":"31.254653917","category":"247","category_name":"餐饮美食","address":"上海虹口区霍山路临潼路"},{"poiid":"B2094757D66BA4F8409D","title":"阿王菜饭","lon":"121.5143770854","lat":"31.251560061639","category":"68","category_name":"快餐厅","address":"杨浦区杨树浦路197-1号(近临潼路)"},{"poiid":"B2094751DA6EA0F5439F","title":"上海市中西结合医院","lon":"121.513936","lat":"31.252164","category":"162","category_name":"医院","address":"保定路230号"},{"poiid":"B2094654D56FA3F5419F","title":"来伊客餐厅","lon":"121.51357","lat":"31.25299","category":"68","category_name":"快餐厅","address":"虹口区临潼路101号(近霍山路)"},{"poiid":"B2094757D06AA5FF4493","title":"临潼苑","lon":"121.51397","lat":"31.252007","category":"500","category_name":"未知分类","address":"上海市虹口区杨树浦路183号"},{"poiid":"B2094757D464A7F44099","title":"石库门牛排面馆","lon":"121.51113","lat":"31.25174","category":"68","category_name":"快餐厅","address":"虹口区惠民路21弄5号(近远洋宾馆)"},{"poiid":"B2094655D268A7FF4893","title":"马登仓库办公大楼","lon":"121.51322","lat":"31.25146","category":"46","category_name":"楼宇","address":"杨树浦路147、155"},{"poiid":"B2094655D36CA1F94799","title":"临潼路杨树浦路","lon":"121.5143","lat":"31.25222","category":"38","category_name":"公交车站","address":""},{"poiid":"B2094654D56FA2FE4199","title":"为民点心店","lon":"121.51166","lat":"31.2521","category":"68","category_name":"快餐厅","address":"虹口区惠民路62号(近杨树浦路)"},{"poiid":"B2094655D26AA0F9409B","title":"地铁杨树浦路站","lon":"121.5172","lat":"31.25241","category":"36","category_name":"地铁站","address":""},{"poiid":"B2094655D26CA6FC449C","title":"临潼路99弄小区","lon":"121.51351","lat":"31.25278","category":"47","category_name":"住宅区","address":"临潼路99弄4-16号"},{"poiid":"B2094655D26DAAF94392","title":"临潼路99弄小区(北门)","lon":"121.51364","lat":"31.25291","category":"47","category_name":"住宅区","address":"临潼路99弄4-16号"},{"poiid":"B2094654D56FA3F44292","title":"海上人家","lon":"121.515036054","lat":"31.251712793","category":"257","category_name":"中餐厅","address":"上海杨浦区平凉路1号(近隆昌路)  "},{"poiid":"B2094757D16EA2F5479D","title":"蓝桥麻辣烫","lon":"121.51224","lat":"31.25241","category":"68","category_name":"快餐厅","address":"虹口区惠民路85号(近临潼路)"},{"poiid":"B2094757D068A4F5479A","title":"隧道工程股份有限公司","lon":"121.517015","lat":"31.253451","category":"263","category_name":"公司","address":"上海大连路118号"},{"poiid":"B2094757D065A0F9419D","title":"小江北特色烧烤","lon":"121.511359054","lat":"31.253935793","category":"68","category_name":"快餐厅","address":"虹口区霍山路120号(近临潼路)"},{"poiid":"B2094757D464A6FD489C","title":"霍山路香吧岛龙虾","lon":"121.51164475398","lat":"31.254086781934","category":"247","category_name":"餐饮美食","address":"虹口区霍山路163号(近临潼路)"},{"poiid":"B2094655D36CA0FB499D","title":"惠民路","lon":"121.51419","lat":"31.2546","category":"38","category_name":"公交车站","address":""},{"poiid":"B2094655D36DA6FE4992","title":"杨树浦路","lon":"121.5172","lat":"31.25241","category":"38","category_name":"公交车站","address":""},{"poiid":"B2094750D76FAAFE4193","title":"光头正宗千里香馄饨","lon":"121.512","lat":"31.2523","category":"68","category_name":"快餐厅","address":"虹口区惠民路71号(近临潼路)"},{"poiid":"B2094757D465A0FB4199","title":"临潼路水饺馆","lon":"121.512927054","lat":"31.254031793","category":"68","category_name":"快餐厅","address":"虹口区临潼路281号(近霍山路)"},{"poiid":"B2094757D164A7FF459C","title":"保定路","lon":"121.5124551","lat":"31.252942057","category":"500","category_name":"未知分类","address":"上海市虹口区保定路"},{"poiid":"B2094757D06AA7FB489D","title":"豪享来(霍山店)","lon":"121.51042","lat":"31.25297","category":"94","category_name":"西餐厅","address":"虹口区霍山路69号(近舟山路)"},{"poiid":"B2094655D26FA0FC489A","title":"海翔小区南区","lon":"121.51294","lat":"31.25293","category":"47","category_name":"住宅区","address":"惠民路150弄5-6号"},{"poiid":"B2094757D06AA5FC4693","title":"提篮桥(惠民路东大名路)站(公交28终,510,875,842)","lon":"121.511633","lat":"31.25213","category":"38","category_name":"公交车站","address":"上海市虹口区临潼路东大名路"},{"poiid":"B2094757D66AA6FF4392","title":"瑛记药膳火锅鸡","lon":"121.51161","lat":"31.25417","category":"86","category_name":"火锅店","address":"虹口区霍山路170号A-103座(近临潼路)"},{"poiid":"B2094655D26BA7F94892","title":"重庆鸡公煲 霍山路店","lon":"121.511950054","lat":"31.255014793","category":"71","category_name":"四川菜","address":"虹口区霍山路203号(近临潼路)"},{"poiid":"B2094654D56FA3F4449C","title":"上海市虹口区临潼路幼儿园","lon":"121.51345","lat":"31.25343","category":"57","category_name":"幼儿园","address":"虹口区临潼路130号(惠民路临潼路)"},{"poiid":"B2094750DA6FA5FD4098","title":"兰芳园港式冻饮","lon":"121.51267","lat":"31.25323","category":"113","category_name":"冷饮店","address":"虹口区惠民路154号(近临潼路)"},{"poiid":"B2094655D36CA3FF469B","title":"上海美博城","lon":"121.51167","lat":"31.2512","category":"46","category_name":"楼宇","address":"杨树浦路61号"},{"poiid":"B2094654D56FA2FD4999","title":"云舫小区","lon":"121.51371","lat":"31.255001","category":"47","category_name":"住宅区","address":"保定路20弄10-40号"},{"poiid":"B2094753D669A3F4439A","title":"蘭记芬芳港式饮品专门店","lon":"121.512764","lat":"31.253368","category":"247","category_name":"餐饮美食","address":"上海市虹口区惠民路154号"},{"poiid":"B2094757D06FA0FF499F","title":"夜市豆浆油条店","lon":"121.5123","lat":"31.25417","category":"111","category_name":"休闲餐饮场所","address":"虹口区霍山路203号(近临潼路)"},{"poiid":"B2094757D06EAAFF479A","title":"杨树浦路地铁站","lon":"121.51719604","lat":"31.252407847","category":"36","category_name":"地铁站","address":"上海轨道交通 四号线 轨交杨树浦路站 轻轨 4"},{"poiid":"B2094757D06BA4F5439B","title":"上海最牛的大饼油条夜排档","lon":"121.512013078","lat":"31.2548289864","category":"500","category_name":"未知分类","address":"上海霍山路203号"},{"poiid":"B209475CD564A7F84392","title":"上海滩浦东香格里拉店","lon":"121.50058","lat":"31.23634","category":"119","category_name":"商场","address":"浦东富成路33号香格里拉酒店内大堂层"},{"poiid":"B2094654D56FA3F44099","title":"上海瑞丰国际大厦","lon":"121.51557","lat":"31.25078","category":"46","category_name":"楼宇","address":"上海市奉贤区环城东路455、465弄"},{"poiid":"B2094757D06FA3FC479F","title":"上海航运交易所","lon":"121.51347327","lat":"31.250775518","category":"260","category_name":"其他","address":"上海杨树浦路88号(近惠民路)"},{"poiid":"B2094757D06FA3FF4692","title":"提篮桥监狱","lon":"121.51515197","lat":"31.253217697","category":"608","category_name":"法院","address":"上海市虹口区长阳路147号"},{"poiid":"B2094654D56FA2FF449E","title":"老店麻辣烫(霍山路)","lon":"121.51065","lat":"31.25342","category":"68","category_name":"快餐厅","address":"虹口区霍山路94号(近舟山路)"},{"poiid":"B2094655D26CA6FC4493","title":"61号老栈(百联创意)","lon":"121.51188","lat":"31.25121","category":"46","category_name":"楼宇","address":"杨树浦路61号"},{"poiid":"B2094757D16DABF9429A","title":"浦江游览","lon":"121.516154","lat":"31.249603","category":"607","category_name":"一般景点","address":"上海秦皇岛"},{"poiid":"B2094654DB69A5FE4693","title":"肯德基 KFC (杨树浦店)","lon":"121.51166","lat":"31.25119","category":"68","category_name":"快餐厅","address":"虹口区杨树浦路45号(近浦江海关)"},{"poiid":"B2094757D068A3FF4898","title":"霍山公园","lon":"121.51133895","lat":"31.253346625","category":"196","category_name":"公园","address":"虹口区霍山路118号(近舟山路)"},{"poiid":"B2094655D264ABF8459A","title":"马登国际航运商务中心","lon":"121.51322","lat":"31.25147","category":"46","category_name":"楼宇","address":"杨树浦路147号"},{"poiid":"B2094654D56FA3FB479A","title":"港运大厦","lon":"121.51116","lat":"31.25012","category":"46","category_name":"楼宇","address":"静安区长寿路(万航渡路口)"},{"poiid":"B2094654DB69A5FF429A","title":"莫泰168连锁旅店(霍山路店)","lon":"121.51356","lat":"31.2559","category":"216","category_name":"经济型连锁酒店","address":"上海虹口区霍山路300号（近大连路）"},{"poiid":"B2094655D36CA0FB4799","title":"霍山路临潼路","lon":"121.51298","lat":"31.25114","category":"38","category_name":"公交车站","address":"霍山路临潼路"},{"poiid":"B2094757D66FA0FD499C","title":"北外滩东信酒店","lon":"121.5116325","lat":"31.252110289","category":"217","category_name":"旅馆招待所","address":"虹口区惠民路36号(近杨树浦路东大名路)"},{"poiid":"B2094757D065A4FB449B","title":"老头菜饭","lon":"121.51482053","lat":"31.25163419","category":"68","category_name":"快餐厅","address":"杨浦区杨树浦路205号(临潼路口)"},{"poiid":"B2094757D16DABFE4293","title":"临潼路早饭摊","lon":"121.511980736","lat":"31.254653917","category":"247","category_name":"餐饮美食","address":"上海虹口区霍山路临潼路"},{"poiid":"B2094757D66BA4F8409D","title":"阿王菜饭","lon":"121.5143770854","lat":"31.251560061639","category":"68","category_name":"快餐厅","address":"杨浦区杨树浦路197-1号(近临潼路)"},{"poiid":"B2094751DA6EA0F5439F","title":"上海市中西结合医院","lon":"121.513936","lat":"31.252164","category":"162","category_name":"医院","address":"保定路230号"},{"poiid":"B2094654D56FA3F5419F","title":"来伊客餐厅","lon":"121.51357","lat":"31.25299","category":"68","category_name":"快餐厅","address":"虹口区临潼路101号(近霍山路)"},{"poiid":"B2094757D06AA5FF4493","title":"临潼苑","lon":"121.51397","lat":"31.252007","category":"500","category_name":"未知分类","address":"上海市虹口区杨树浦路183号"},{"poiid":"B2094757D464A7F44099","title":"石库门牛排面馆","lon":"121.51113","lat":"31.25174","category":"68","category_name":"快餐厅","address":"虹口区惠民路21弄5号(近远洋宾馆)"},{"poiid":"B2094655D268A7FF4893","title":"马登仓库办公大楼","lon":"121.51322","lat":"31.25146","category":"46","category_name":"楼宇","address":"杨树浦路147、155"},{"poiid":"B2094655D36CA1F94799","title":"临潼路杨树浦路","lon":"121.5143","lat":"31.25222","category":"38","category_name":"公交车站","address":""},{"poiid":"B2094654D56FA2FE4199","title":"为民点心店","lon":"121.51166","lat":"31.2521","category":"68","category_name":"快餐厅","address":"虹口区惠民路62号(近杨树浦路)"},{"poiid":"B2094655D26AA0F9409B","title":"地铁杨树浦路站","lon":"121.5172","lat":"31.25241","category":"36","category_name":"地铁站","address":""},{"poiid":"B2094655D26CA6FC449C","title":"临潼路99弄小区","lon":"121.51351","lat":"31.25278","category":"47","category_name":"住宅区","address":"临潼路99弄4-16号"},{"poiid":"B2094655D26DAAF94392","title":"临潼路99弄小区(北门)","lon":"121.51364","lat":"31.25291","category":"47","category_name":"住宅区","address":"临潼路99弄4-16号"},{"poiid":"B2094654D56FA3F44292","title":"海上人家","lon":"121.515036054","lat":"31.251712793","category":"257","category_name":"中餐厅","address":"上海杨浦区平凉路1号(近隆昌路)  "},{"poiid":"B2094757D16EA2F5479D","title":"蓝桥麻辣烫","lon":"121.51224","lat":"31.25241","category":"68","category_name":"快餐厅","address":"虹口区惠民路85号(近临潼路)"},{"poiid":"B2094757D068A4F5479A","title":"隧道工程股份有限公司","lon":"121.517015","lat":"31.253451","category":"263","category_name":"公司","address":"上海大连路118号"},{"poiid":"B2094757D065A0F9419D","title":"小江北特色烧烤","lon":"121.511359054","lat":"31.253935793","category":"68","category_name":"快餐厅","address":"虹口区霍山路120号(近临潼路)"},{"poiid":"B2094757D464A6FD489C","title":"霍山路香吧岛龙虾","lon":"121.51164475398","lat":"31.254086781934","category":"247","category_name":"餐饮美食","address":"虹口区霍山路163号(近临潼路)"},{"poiid":"B2094655D36CA0FB499D","title":"惠民路","lon":"121.51419","lat":"31.2546","category":"38","category_name":"公交车站","address":""},{"poiid":"B2094655D36DA6FE4992","title":"杨树浦路","lon":"121.5172","lat":"31.25241","category":"38","category_name":"公交车站","address":""},{"poiid":"B2094750D76FAAFE4193","title":"光头正宗千里香馄饨","lon":"121.512","lat":"31.2523","category":"68","category_name":"快餐厅","address":"虹口区惠民路71号(近临潼路)"},{"poiid":"B2094757D465A0FB4199","title":"临潼路水饺馆","lon":"121.512927054","lat":"31.254031793","category":"68","category_name":"快餐厅","address":"虹口区临潼路281号(近霍山路)"},{"poiid":"B2094757D164A7FF459C","title":"保定路","lon":"121.5124551","lat":"31.252942057","category":"500","category_name":"未知分类","address":"上海市虹口区保定路"},{"poiid":"B2094757D06AA7FB489D","title":"豪享来(霍山店)","lon":"121.51042","lat":"31.25297","category":"94","category_name":"西餐厅","address":"虹口区霍山路69号(近舟山路)"},{"poiid":"B2094655D26FA0FC489A","title":"海翔小区南区","lon":"121.51294","lat":"31.25293","category":"47","category_name":"住宅区","address":"惠民路150弄5-6号"},{"poiid":"B2094757D06AA5FC4693","title":"提篮桥(惠民路东大名路)站(公交28终,510,875,842)","lon":"121.511633","lat":"31.25213","category":"38","category_name":"公交车站","address":"上海市虹口区临潼路东大名路"},{"poiid":"B2094757D66AA6FF4392","title":"瑛记药膳火锅鸡","lon":"121.51161","lat":"31.25417","category":"86","category_name":"火锅店","address":"虹口区霍山路170号A-103座(近临潼路)"},{"poiid":"B2094655D26BA7F94892","title":"重庆鸡公煲 霍山路店","lon":"121.511950054","lat":"31.255014793","category":"71","category_name":"四川菜","address":"虹口区霍山路203号(近临潼路)"},{"poiid":"B2094654D56FA3F4449C","title":"上海市虹口区临潼路幼儿园","lon":"121.51345","lat":"31.25343","category":"57","category_name":"幼儿园","address":"虹口区临潼路130号(惠民路临潼路)"},{"poiid":"B2094750DA6FA5FD4098","title":"兰芳园港式冻饮","lon":"121.51267","lat":"31.25323","category":"113","category_name":"冷饮店","address":"虹口区惠民路154号(近临潼路)"},{"poiid":"B2094655D36CA3FF469B","title":"上海美博城","lon":"121.51167","lat":"31.2512","category":"46","category_name":"楼宇","address":"杨树浦路61号"},{"poiid":"B2094654D56FA2FD4999","title":"云舫小区","lon":"121.51371","lat":"31.255001","category":"47","category_name":"住宅区","address":"保定路20弄10-40号"},{"poiid":"B2094753D669A3F4439A","title":"蘭记芬芳港式饮品专门店","lon":"121.512764","lat":"31.253368","category":"247","category_name":"餐饮美食","address":"上海市虹口区惠民路154号"},{"poiid":"B2094757D06FA0FF499F","title":"夜市豆浆油条店","lon":"121.5123","lat":"31.25417","category":"111","category_name":"休闲餐饮场所","address":"虹口区霍山路203号(近临潼路)"},{"poiid":"B2094757D06EAAFF479A","title":"杨树浦路地铁站","lon":"121.51719604","lat":"31.252407847","category":"36","category_name":"地铁站","address":"上海轨道交通 四号线 轨交杨树浦路站 轻轨 4"},{"poiid":"B2094757D06BA4F5439B","title":"上海最牛的大饼油条夜排档","lon":"121.512013078","lat":"31.2548289864","category":"500","category_name":"未知分类","address":"上海霍山路203号"},{"poiid":"B209475CD564A7F84392","title":"上海滩浦东香格里拉店","lon":"121.50058","lat":"31.23634","category":"119","category_name":"商场","address":"浦东富成路33号香格里拉酒店内大堂层"},{"poiid":"B2094654D56FA3F44099","title":"上海瑞丰国际大厦","lon":"121.51557","lat":"31.25078","category":"46","category_name":"楼宇","address":"上海市奉贤区环城东路455、465弄"},{"poiid":"B2094757D06FA3FC479F","title":"上海航运交易所","lon":"121.51347327","lat":"31.250775518","category":"260","category_name":"其他","address":"上海杨树浦路88号(近惠民路)"},{"poiid":"B2094757D06FA3FF4692","title":"提篮桥监狱","lon":"121.51515197","lat":"31.253217697","category":"608","category_name":"法院","address":"上海市虹口区长阳路147号"},{"poiid":"B2094654D56FA2FF449E","title":"老店麻辣烫(霍山路)","lon":"121.51065","lat":"31.25342","category":"68","category_name":"快餐厅","address":"虹口区霍山路94号(近舟山路)"},{"poiid":"B2094655D26CA6FC4493","title":"61号老栈(百联创意)","lon":"121.51188","lat":"31.25121","category":"46","category_name":"楼宇","address":"杨树浦路61号"},{"poiid":"B2094757D16DABF9429A","title":"浦江游览","lon":"121.516154","lat":"31.249603","category":"607","category_name":"一般景点","address":"上海秦皇岛"},{"poiid":"B2094654DB69A5FE4693","title":"肯德基 KFC (杨树浦店)","lon":"121.51166","lat":"31.25119","category":"68","category_name":"快餐厅","address":"虹口区杨树浦路45号(近浦江海关)"},{"poiid":"B2094757D068A3FF4898","title":"霍山公园","lon":"121.51133895","lat":"31.253346625","category":"196","category_name":"公园","address":"虹口区霍山路118号(近舟山路)"},{"poiid":"B2094655D264ABF8459A","title":"马登国际航运商务中心","lon":"121.51322","lat":"31.25147","category":"46","category_name":"楼宇","address":"杨树浦路147号"},{"poiid":"B2094654D56FA3FB479A","title":"港运大厦","lon":"121.51116","lat":"31.25012","category":"46","category_name":"楼宇","address":"静安区长寿路(万航渡路口)"},{"poiid":"B2094654DB69A5FF429A","title":"莫泰168连锁旅店(霍山路店)","lon":"121.51356","lat":"31.2559","category":"216","category_name":"经济型连锁酒店","address":"上海虹口区霍山路300号（近大连路）"},{"poiid":"B2094655D36CA0FB4799","title":"霍山路临潼路","lon":"121.51298","lat":"31.25114","category":"38","category_name":"公交车站","address":"霍山路临潼路"},{"poiid":"B2094757D66FA0FD499C","title":"北外滩东信酒店","lon":"121.5116325","lat":"31.252110289","category":"217","category_name":"旅馆招待所","address":"虹口区惠民路36号(近杨树浦路东大名路)"},{"poiid":"B2094757D065A4FB449B","title":"老头菜饭","lon":"121.51482053","lat":"31.25163419","category":"68","category_name":"快餐厅","address":"杨浦区杨树浦路205号(临潼路口)"},{"poiid":"B2094757D16DABFE4293","title":"临潼路早饭摊","lon":"121.511980736","lat":"31.254653917","category":"247","category_name":"餐饮美食","address":"上海虹口区霍山路临潼路"},{"poiid":"B2094757D66BA4F8409D","title":"阿王菜饭","lon":"121.5143770854","lat":"31.251560061639","category":"68","category_name":"快餐厅","address":"杨浦区杨树浦路197-1号(近临潼路)"},{"poiid":"B2094751DA6EA0F5439F","title":"上海市中西结合医院","lon":"121.513936","lat":"31.252164","category":"162","category_name":"医院","address":"保定路230号"},{"poiid":"B2094654D56FA3F5419F","title":"来伊客餐厅","lon":"121.51357","lat":"31.25299","category":"68","category_name":"快餐厅","address":"虹口区临潼路101号(近霍山路)"},{"poiid":"B2094757D06AA5FF4493","title":"临潼苑","lon":"121.51397","lat":"31.252007","category":"500","category_name":"未知分类","address":"上海市虹口区杨树浦路183号"},{"poiid":"B2094757D464A7F44099","title":"石库门牛排面馆","lon":"121.51113","lat":"31.25174","category":"68","category_name":"快餐厅","address":"虹口区惠民路21弄5号(近远洋宾馆)"},{"poiid":"B2094655D268A7FF4893","title":"马登仓库办公大楼","lon":"121.51322","lat":"31.25146","category":"46","category_name":"楼宇","address":"杨树浦路147、155"},{"poiid":"B2094655D36CA1F94799","title":"临潼路杨树浦路","lon":"121.5143","lat":"31.25222","category":"38","category_name":"公交车站","address":""},{"poiid":"B2094654D56FA2FE4199","title":"为民点心店","lon":"121.51166","lat":"31.2521","category":"68","category_name":"快餐厅","address":"虹口区惠民路62号(近杨树浦路)"},{"poiid":"B2094655D26AA0F9409B","title":"地铁杨树浦路站","lon":"121.5172","lat":"31.25241","category":"36","category_name":"地铁站","address":""},{"poiid":"B2094655D26CA6FC449C","title":"临潼路99弄小区","lon":"121.51351","lat":"31.25278","category":"47","category_name":"住宅区","address":"临潼路99弄4-16号"},{"poiid":"B2094655D26DAAF94392","title":"临潼路99弄小区(北门)","lon":"121.51364","lat":"31.25291","category":"47","category_name":"住宅区","address":"临潼路99弄4-16号"},{"poiid":"B2094654D56FA3F44292","title":"海上人家","lon":"121.515036054","lat":"31.251712793","category":"257","category_name":"中餐厅","address":"上海杨浦区平凉路1号(近隆昌路)  "},{"poiid":"B2094757D16EA2F5479D","title":"蓝桥麻辣烫","lon":"121.51224","lat":"31.25241","category":"68","category_name":"快餐厅","address":"虹口区惠民路85号(近临潼路)"},{"poiid":"B2094757D068A4F5479A","title":"隧道工程股份有限公司","lon":"121.517015","lat":"31.253451","category":"263","category_name":"公司","address":"上海大连路118号"},{"poiid":"B2094757D065A0F9419D","title":"小江北特色烧烤","lon":"121.511359054","lat":"31.253935793","category":"68","category_name":"快餐厅","address":"虹口区霍山路120号(近临潼路)"},{"poiid":"B2094757D464A6FD489C","title":"霍山路香吧岛龙虾","lon":"121.51164475398","lat":"31.254086781934","category":"247","category_name":"餐饮美食","address":"虹口区霍山路163号(近临潼路)"},{"poiid":"B2094655D36CA0FB499D","title":"惠民路","lon":"121.51419","lat":"31.2546","category":"38","category_name":"公交车站","address":""},{"poiid":"B2094655D36DA6FE4992","title":"杨树浦路","lon":"121.5172","lat":"31.25241","category":"38","category_name":"公交车站","address":""},{"poiid":"B2094750D76FAAFE4193","title":"光头正宗千里香馄饨","lon":"121.512","lat":"31.2523","category":"68","category_name":"快餐厅","address":"虹口区惠民路71号(近临潼路)"},{"poiid":"B2094757D465A0FB4199","title":"临潼路水饺馆","lon":"121.512927054","lat":"31.254031793","category":"68","category_name":"快餐厅","address":"虹口区临潼路281号(近霍山路)"},{"poiid":"B2094757D164A7FF459C","title":"保定路","lon":"121.5124551","lat":"31.252942057","category":"500","category_name":"未知分类","address":"上海市虹口区保定路"},{"poiid":"B2094757D06AA7FB489D","title":"豪享来(霍山店)","lon":"121.51042","lat":"31.25297","category":"94","category_name":"西餐厅","address":"虹口区霍山路69号(近舟山路)"},{"poiid":"B2094655D26FA0FC489A","title":"海翔小区南区","lon":"121.51294","lat":"31.25293","category":"47","category_name":"住宅区","address":"惠民路150弄5-6号"},{"poiid":"B2094757D06AA5FC4693","title":"提篮桥(惠民路东大名路)站(公交28终,510,875,842)","lon":"121.511633","lat":"31.25213","category":"38","category_name":"公交车站","address":"上海市虹口区临潼路东大名路"},{"poiid":"B2094757D66AA6FF4392","title":"瑛记药膳火锅鸡","lon":"121.51161","lat":"31.25417","category":"86","category_name":"火锅店","address":"虹口区霍山路170号A-103座(近临潼路)"},{"poiid":"B2094655D26BA7F94892","title":"重庆鸡公煲 霍山路店","lon":"121.511950054","lat":"31.255014793","category":"71","category_name":"四川菜","address":"虹口区霍山路203号(近临潼路)"},{"poiid":"B2094654D56FA3F4449C","title":"上海市虹口区临潼路幼儿园","lon":"121.51345","lat":"31.25343","category":"57","category_name":"幼儿园","address":"虹口区临潼路130号(惠民路临潼路)"},{"poiid":"B2094750DA6FA5FD4098","title":"兰芳园港式冻饮","lon":"121.51267","lat":"31.25323","category":"113","category_name":"冷饮店","address":"虹口区惠民路154号(近临潼路)"},{"poiid":"B2094655D36CA3FF469B","title":"上海美博城","lon":"121.51167","lat":"31.2512","category":"46","category_name":"楼宇","address":"杨树浦路61号"},{"poiid":"B2094654D56FA2FD4999","title":"云舫小区","lon":"121.51371","lat":"31.255001","category":"47","category_name":"住宅区","address":"保定路20弄10-40号"},{"poiid":"B2094753D669A3F4439A","title":"蘭记芬芳港式饮品专门店","lon":"121.512764","lat":"31.253368","category":"247","category_name":"餐饮美食","address":"上海市虹口区惠民路154号"}]