[{"poiid":"B2094655D26BA1F9499E","title":"猛将庙","lon":"121.36534","lat":"31.74129","category":"38","category_name":"公交车站","address":""},{"poiid":"B2094655D36CA6FD459D","title":"龚家河头","lon":"121.37054","lat":"31.74877","category":"38","category_name":"公交车站","address":""},{"poiid":"B2094654D468A7FD499A","title":"合作影剧院","lon":"121.36977","lat":"31.740101","category":"178","category_name":"电影院","address":""},{"poiid":"B2094655D264A3FC449A","title":"小星公路猛将庙桥","lon":"121.36667","lat":"31.74089","category":"250","category_name":"公园户外","address":""},{"poiid":"B2094654D468A7FD4999","title":"崇明县三乐学校","lon":"121.36475","lat":"31.73895","category":"55","category_name":"中学","address":""},{"poiid":"B2094655D264A3FC429B","title":"和平中路一号桥","lon":"121.38413","lat":"31.7356","category":"250","category_name":"公园户外","address":""},{"poiid":"B2094655D264A3FC4498","title":"丝网厂桥","lon":"121.36388","lat":"31.737","category":"250","category_name":"公园户外","address":""},{"poiid":"B2094655D264A3FC419B","title":"小星桥","lon":"121.39002","lat":"31.7342","category":"250","category_name":"公园户外","address":""},{"poiid":"B2094655D264A3FC419C","title":"解放河桥","lon":"121.39528","lat":"31.74096","category":"250","category_name":"公园户外","address":""},{"poiid":"B2094655D264A3FD4998","title":"南坝大桥","lon":"121.3966","lat":"31.74931","category":"250","category_name":"公园户外","address":""}]