[{"poiid":"B2094654DB6BA3FA439D","title":"钱柜(四川北路)","lon":"121.48276","lat":"31.25685","category":"170","category_name":"KTV","address":"四川北路1661"},{"poiid":"B2094757D06EAAF84493","title":"烧肉达人(嘉杰广场店)","lon":"121.48183","lat":"31.25884","category":"269","category_name":"烧烤","address":"虹口区四川北路1689号嘉杰国际广场4楼(近东宝兴路)"},{"poiid":"B2094655D26AA2F84798","title":"星巴克(四川北路店)","lon":"121.482426","lat":"31.257921","category":"260","category_name":"其他","address":"虹口区四川北路1661号凯鸿商场1楼(近东宝兴路)"},{"poiid":"B2094757DB6CABF9479D","title":"麦歌时尚KTV","lon":"121.48086","lat":"31.254141","category":"248","category_name":"生活娱乐","address":"武进路289号海泰时代大厦"},{"poiid":"B2094757D068A1FD4793","title":"湘乐汇(虹口龙之梦店)","lon":"121.479673103","lat":"31.2543530865","category":"500","category_name":"未知分类","address":"虹口区西江湾路388号凯德龙之梦广场6楼"},{"poiid":"B2094757D069A1F5409C","title":"商汤天下火锅","lon":"121.481799103","lat":"31.2582171672","category":"86","category_name":"火锅店","address":"虹口区四川北路1661号凯鸿商场301室"},{"poiid":"B2094757D06FA3FF459B","title":"釜山料理 四川北路店 Pankoo","lon":"121.482561054","lat":"31.258004693","category":"96","category_name":"韩国料理","address":"虹口区四川北路1689号嘉杰国际4楼(近东宝兴路)"},{"poiid":"B2094654D56DA1F44199","title":"铭德国际广场","lon":"121.477","lat":"31.2568","category":"46","category_name":"楼宇","address":"铁西兴华南街与十马路交汇处"},{"poiid":"B2094757D069A4FA4198","title":"钱柜四川北路店","lon":"121.482500203","lat":"31.2582308675","category":"500","category_name":"未知分类","address":"上海四川北路"},{"poiid":"B2094757D06FA7FB419F","title":"味千拉面(嘉杰国际店)","lon":"121.4824507","lat":"31.257228346","category":"95","category_name":"日本料理","address":"虹口区四川北路1689号嘉杰国际B1楼03室(近东宝兴路)"},{"poiid":"B2094757D16FA7FA499A","title":"一线烫捞","lon":"121.48199379","lat":"31.257488601","category":"68","category_name":"快餐厅","address":"虹口区四川北路1727弄嘉杰国际广场B1楼(近东宝兴路)"},{"poiid":"B2094757D16FA3FD4899","title":"19弄(spicy lane)","lon":"121.479216103","lat":"31.2554041085","category":"75","category_name":"浙江菜","address":"虹口区西江湾路388号虹口凯德龙之梦购物中心6楼(近虹口足球场)"},{"poiid":"B2094655D36CA5F54893","title":"宝山路","lon":"121.477415364418","lat":"31.25733917149673","category":"38","category_name":"公交车站","address":"上海市闸北区"},{"poiid":"B2094757DB68A5F84493","title":"鮮芋仙(壹丰廣場店)","lon":"121.47922641","lat":"31.25438153","category":"500","category_name":"未知分类","address":"四川北路1363號壹丰廣場B2F"},{"poiid":"B2094757DB6CAAF5409B","title":"COSTA","lon":"121.4806084599999","lat":"31.25438152999999","category":"247","category_name":"餐饮美食","address":"四川北路"},{"poiid":"B2094757D06FA0FB4092","title":"禾绿寿司(嘉杰国际)","lon":"121.482230172","lat":"31.2583229202","category":"95","category_name":"日本料理","address":"虹口区四川北路1727弄嘉杰国际广场4楼(近东宝兴路)"},{"poiid":"B2094757D06FA2F4439A","title":"一兆韦德(凯鸿广场店)","lon":"121.482426","lat":"31.257921","category":"221","category_name":"健身中心","address":"虹口区四川北路1661号凯鸿商场4楼(近东宝兴路)"},{"poiid":"B2094757DB6FABFF4292","title":"麦歌","lon":"121.4802970200001","lat":"31.25405024999979","category":"249","category_name":"购物服务","address":"武进路289号海泰时代大厦"},{"poiid":"B2094757D16DA0FE479C","title":"1933老厂房","lon":"121.4808421","lat":"31.254028079","category":"500","category_name":"未知分类","address":"上海沙泾路"},{"poiid":"B2094655D26FA0F4479B","title":"嘉杰国际广场(西门)","lon":"121.48072","lat":"31.25928","category":"48","category_name":"楼宇大门","address":"四川北路1727弄1-10号"},{"poiid":"B2094757D16DA2FF4398","title":"釜山料理","lon":"121.4824609","lat":"31.257921261","category":"247","category_name":"餐饮美食","address":"上海嘉杰广场"},{"poiid":"B2094757D06FA3FF4292","title":"网鱼网咖(宝兴店)","lon":"121.481514","lat":"31.257693","category":"173","category_name":"游戏厅","address":"虹口区四川北路1661号凯鸿商场B1楼01-A室(近东宝兴路)"},{"poiid":"B2094757D06BA6FB409A","title":"轨道交通三号线东宝兴路站","lon":"121.481584103","lat":"31.2574371509","category":"500","category_name":"未知分类","address":"上海东宝兴路"},{"poiid":"B2094655D36DA6FC469A","title":"虬江路","lon":"121.48028","lat":"31.25341","category":"38","category_name":"公交车站","address":""},{"poiid":"B2094655D36CA6F44493","title":"东宝兴路","lon":"121.47783","lat":"31.25832","category":"38","category_name":"公交车站","address":""},{"poiid":"B2094655D26FA1FB449A","title":"三宝花苑","lon":"121.47641","lat":"31.257627","category":"47","category_name":"住宅区","address":"上海市闸北区宝山路452号"},{"poiid":"B2094654D56EA2FE4699","title":"通源小区","lon":"121.47968","lat":"31.256783","category":"47","category_name":"住宅区","address":"上海闸北区宝源路209弄"},{"poiid":"B2094753D469A4FE459A","title":"月星•环球港","lon":"121.478042","lat":"31.259443","category":"500","category_name":"未知分类","address":"上海市 普陀区中山北路3300号"},{"poiid":"B2094757D069A2FE499F","title":"虹口区业余大学","lon":"121.479806","lat":"31.258855","category":"52","category_name":"高等院校","address":"上海东宝兴路440号"},{"poiid":"B2094654DB69A4FD4999","title":"锦江之星(四川北路店)","lon":"121.47928","lat":"31.25902","category":"216","category_name":"经济型连锁酒店","address":"上海市虹口区东宝兴路440号(近四川北路)"},{"poiid":"B2094757D16DA3FF459E","title":"小诸烧烤","lon":"121.4803221","lat":"31.258461172","category":"247","category_name":"餐饮美食","address":"上海东宝兴路轻轨下面"},{"poiid":"B2094757DB6FAAFF419B","title":"世纪大道地铁站","lon":"121.480201155577","lat":"31.25980006696586","category":"36","category_name":"地铁站","address":"世纪大道"},{"poiid":"B2094757D66DA2FD419F","title":"老李涮锅","lon":"121.4789598","lat":"31.257710956","category":"247","category_name":"餐饮美食","address":"上海同心路"},{"poiid":"B2094751D365A6FD419D","title":"中共四大会址纪念馆","lon":"121.4804768","lat":"31.255421","category":"607","category_name":"一般景点","address":null},{"poiid":"B2094654D56EA2FF4792","title":"和馨苑","lon":"121.47897","lat":"31.256388","category":"47","category_name":"住宅区","address":"上海市闸北区宝山路463号"},{"poiid":"B2094655D265A3FD449A","title":"好又多超市","lon":"121.47978","lat":"31.25604","category":"118","category_name":"超级市场","address":"宝源路186"},{"poiid":"B2094654DB6BA3FA449D","title":"通源小区(南门)","lon":"121.47996","lat":"31.25635","category":"47","category_name":"住宅区","address":"宝源路209弄"},{"poiid":"B2094757D168A5F44798","title":"世纪烧烤","lon":"121.48002","lat":"31.258313","category":"68","category_name":"快餐厅","address":"虹口区东宝兴路(近轻轨三号线东宝兴路站)"},{"poiid":"B2094655D26BA4F5479D","title":"重庆鸡公煲 宝昌路店","lon":"121.477255054","lat":"31.255787793","category":"71","category_name":"四川菜","address":"闸北区宝昌路151号(近宝山路)"},{"poiid":"B2094654D56EA2FE449E","title":"小褚烧烤店","lon":"121.48049","lat":"31.25785","category":"68","category_name":"快餐厅","address":"闸北区东宝兴路轻轨二号门附近(近宝源路)"},{"poiid":"B2094757D16CA2FA4099","title":"二月摄影棚","lon":"121.480389175","lat":"31.2570707878","category":"46","category_name":"楼宇","address":"闸北区宝通路411号"},{"poiid":"B2094757D16DA5FC4398","title":"临平路","lon":"121.48056566","lat":"31.253904877","category":"500","category_name":"未知分类","address":"上海临平路"},{"poiid":"B2094654D56EA2F8419F","title":"永兴幼儿园","lon":"121.47857","lat":"31.25671","category":"57","category_name":"幼儿园","address":"宝通路239弄2"},{"poiid":"B2094757D66BA3F5409B","title":"潮汕野味馆","lon":"121.477738","lat":"31.256928","category":"72","category_name":"广东菜","address":"闸北区宝通路263号(近宝山路)"},{"poiid":"B2094655D264ABFF4199","title":"敦煌商务楼","lon":"121.4807","lat":"31.25602","category":"46","category_name":"楼宇","address":"上海川公路173号"},{"poiid":"B2094757D165ABF4459D","title":"阿英馆","lon":"121.4793805","lat":"31.258081264","category":"76","category_name":"上海菜","address":"虹口区东宝兴路428号(近轻轨3号线)"},{"poiid":"B2094752DA68A0F8449D","title":"台北楚楚园","lon":"121.479217","lat":"31.254457","category":"500","category_name":"未知分类","address":"上海市 四川北路壹丰广场"},{"poiid":"B2094655D26CA0FD4592","title":"宝通大楼(宝通路)","lon":"121.47818","lat":"31.25605","category":"46","category_name":"楼宇","address":"宝通路202"},{"poiid":"B2094654D56EA2FF449F","title":"老城隍庙小吃 宝山路店","lon":"121.477736054","lat":"31.257835793","category":"68","category_name":"快餐厅","address":"闸北区宝山路393号(宝昌路口)"},{"poiid":"B2094750DB6DA7FF4999","title":"钱柜","lon":"121.482345","lat":"31.257751","category":"248","category_name":"生活娱乐","address":"四川北路1661号"},{"poiid":"B2094654DB6BA3FA439D","title":"钱柜(四川北路)","lon":"121.48276","lat":"31.25685","category":"170","category_name":"KTV","address":"四川北路1661"},{"poiid":"B2094757D06EAAF84493","title":"烧肉达人(嘉杰广场店)","lon":"121.48183","lat":"31.25884","category":"269","category_name":"烧烤","address":"虹口区四川北路1689号嘉杰国际广场4楼(近东宝兴路)"},{"poiid":"B2094655D26AA2F84798","title":"星巴克(四川北路店)","lon":"121.482426","lat":"31.257921","category":"260","category_name":"其他","address":"虹口区四川北路1661号凯鸿商场1楼(近东宝兴路)"},{"poiid":"B2094757DB6CABF9479D","title":"麦歌时尚KTV","lon":"121.48086","lat":"31.254141","category":"248","category_name":"生活娱乐","address":"武进路289号海泰时代大厦"},{"poiid":"B2094757D068A1FD4793","title":"湘乐汇(虹口龙之梦店)","lon":"121.479673103","lat":"31.2543530865","category":"500","category_name":"未知分类","address":"虹口区西江湾路388号凯德龙之梦广场6楼"},{"poiid":"B2094757D069A1F5409C","title":"商汤天下火锅","lon":"121.481799103","lat":"31.2582171672","category":"86","category_name":"火锅店","address":"虹口区四川北路1661号凯鸿商场301室"},{"poiid":"B2094757D06FA3FF459B","title":"釜山料理 四川北路店 Pankoo","lon":"121.482561054","lat":"31.258004693","category":"96","category_name":"韩国料理","address":"虹口区四川北路1689号嘉杰国际4楼(近东宝兴路)"},{"poiid":"B2094654D56DA1F44199","title":"铭德国际广场","lon":"121.477","lat":"31.2568","category":"46","category_name":"楼宇","address":"铁西兴华南街与十马路交汇处"},{"poiid":"B2094757D069A4FA4198","title":"钱柜四川北路店","lon":"121.482500203","lat":"31.2582308675","category":"500","category_name":"未知分类","address":"上海四川北路"},{"poiid":"B2094757D06FA7FB419F","title":"味千拉面(嘉杰国际店)","lon":"121.4824507","lat":"31.257228346","category":"95","category_name":"日本料理","address":"虹口区四川北路1689号嘉杰国际B1楼03室(近东宝兴路)"},{"poiid":"B2094757D16FA7FA499A","title":"一线烫捞","lon":"121.48199379","lat":"31.257488601","category":"68","category_name":"快餐厅","address":"虹口区四川北路1727弄嘉杰国际广场B1楼(近东宝兴路)"},{"poiid":"B2094757D16FA3FD4899","title":"19弄(spicy lane)","lon":"121.479216103","lat":"31.2554041085","category":"75","category_name":"浙江菜","address":"虹口区西江湾路388号虹口凯德龙之梦购物中心6楼(近虹口足球场)"},{"poiid":"B2094655D36CA5F54893","title":"宝山路","lon":"121.477415364418","lat":"31.25733917149673","category":"38","category_name":"公交车站","address":"上海市闸北区"},{"poiid":"B2094757DB68A5F84493","title":"鮮芋仙(壹丰廣場店)","lon":"121.47922641","lat":"31.25438153","category":"500","category_name":"未知分类","address":"四川北路1363號壹丰廣場B2F"},{"poiid":"B2094757DB6CAAF5409B","title":"COSTA","lon":"121.4806084599999","lat":"31.25438152999999","category":"247","category_name":"餐饮美食","address":"四川北路"},{"poiid":"B2094757D06FA0FB4092","title":"禾绿寿司(嘉杰国际)","lon":"121.482230172","lat":"31.2583229202","category":"95","category_name":"日本料理","address":"虹口区四川北路1727弄嘉杰国际广场4楼(近东宝兴路)"},{"poiid":"B2094757D06FA2F4439A","title":"一兆韦德(凯鸿广场店)","lon":"121.482426","lat":"31.257921","category":"221","category_name":"健身中心","address":"虹口区四川北路1661号凯鸿商场4楼(近东宝兴路)"},{"poiid":"B2094757DB6FABFF4292","title":"麦歌","lon":"121.4802970200001","lat":"31.25405024999979","category":"249","category_name":"购物服务","address":"武进路289号海泰时代大厦"},{"poiid":"B2094757D16DA0FE479C","title":"1933老厂房","lon":"121.4808421","lat":"31.254028079","category":"500","category_name":"未知分类","address":"上海沙泾路"},{"poiid":"B2094655D26FA0F4479B","title":"嘉杰国际广场(西门)","lon":"121.48072","lat":"31.25928","category":"48","category_name":"楼宇大门","address":"四川北路1727弄1-10号"},{"poiid":"B2094757D16DA2FF4398","title":"釜山料理","lon":"121.4824609","lat":"31.257921261","category":"247","category_name":"餐饮美食","address":"上海嘉杰广场"},{"poiid":"B2094757D06FA3FF4292","title":"网鱼网咖(宝兴店)","lon":"121.481514","lat":"31.257693","category":"173","category_name":"游戏厅","address":"虹口区四川北路1661号凯鸿商场B1楼01-A室(近东宝兴路)"},{"poiid":"B2094757D06BA6FB409A","title":"轨道交通三号线东宝兴路站","lon":"121.481584103","lat":"31.2574371509","category":"500","category_name":"未知分类","address":"上海东宝兴路"},{"poiid":"B2094655D36DA6FC469A","title":"虬江路","lon":"121.48028","lat":"31.25341","category":"38","category_name":"公交车站","address":""},{"poiid":"B2094655D36CA6F44493","title":"东宝兴路","lon":"121.47783","lat":"31.25832","category":"38","category_name":"公交车站","address":""},{"poiid":"B2094655D26FA1FB449A","title":"三宝花苑","lon":"121.47641","lat":"31.257627","category":"47","category_name":"住宅区","address":"上海市闸北区宝山路452号"},{"poiid":"B2094654D56EA2FE4699","title":"通源小区","lon":"121.47968","lat":"31.256783","category":"47","category_name":"住宅区","address":"上海闸北区宝源路209弄"},{"poiid":"B2094753D469A4FE459A","title":"月星•环球港","lon":"121.478042","lat":"31.259443","category":"500","category_name":"未知分类","address":"上海市 普陀区中山北路3300号"},{"poiid":"B2094757D069A2FE499F","title":"虹口区业余大学","lon":"121.479806","lat":"31.258855","category":"52","category_name":"高等院校","address":"上海东宝兴路440号"},{"poiid":"B2094654DB69A4FD4999","title":"锦江之星(四川北路店)","lon":"121.47928","lat":"31.25902","category":"216","category_name":"经济型连锁酒店","address":"上海市虹口区东宝兴路440号(近四川北路)"},{"poiid":"B2094757D16DA3FF459E","title":"小诸烧烤","lon":"121.4803221","lat":"31.258461172","category":"247","category_name":"餐饮美食","address":"上海东宝兴路轻轨下面"},{"poiid":"B2094757DB6FAAFF419B","title":"世纪大道地铁站","lon":"121.480201155577","lat":"31.25980006696586","category":"36","category_name":"地铁站","address":"世纪大道"},{"poiid":"B2094757D66DA2FD419F","title":"老李涮锅","lon":"121.4789598","lat":"31.257710956","category":"247","category_name":"餐饮美食","address":"上海同心路"},{"poiid":"B2094751D365A6FD419D","title":"中共四大会址纪念馆","lon":"121.4804768","lat":"31.255421","category":"607","category_name":"一般景点","address":null},{"poiid":"B2094654D56EA2FF4792","title":"和馨苑","lon":"121.47897","lat":"31.256388","category":"47","category_name":"住宅区","address":"上海市闸北区宝山路463号"},{"poiid":"B2094655D265A3FD449A","title":"好又多超市","lon":"121.47978","lat":"31.25604","category":"118","category_name":"超级市场","address":"宝源路186"},{"poiid":"B2094654DB6BA3FA449D","title":"通源小区(南门)","lon":"121.47996","lat":"31.25635","category":"47","category_name":"住宅区","address":"宝源路209弄"},{"poiid":"B2094757D168A5F44798","title":"世纪烧烤","lon":"121.48002","lat":"31.258313","category":"68","category_name":"快餐厅","address":"虹口区东宝兴路(近轻轨三号线东宝兴路站)"},{"poiid":"B2094655D26BA4F5479D","title":"重庆鸡公煲 宝昌路店","lon":"121.477255054","lat":"31.255787793","category":"71","category_name":"四川菜","address":"闸北区宝昌路151号(近宝山路)"},{"poiid":"B2094654D56EA2FE449E","title":"小褚烧烤店","lon":"121.48049","lat":"31.25785","category":"68","category_name":"快餐厅","address":"闸北区东宝兴路轻轨二号门附近(近宝源路)"},{"poiid":"B2094757D16CA2FA4099","title":"二月摄影棚","lon":"121.480389175","lat":"31.2570707878","category":"46","category_name":"楼宇","address":"闸北区宝通路411号"},{"poiid":"B2094757D16DA5FC4398","title":"临平路","lon":"121.48056566","lat":"31.253904877","category":"500","category_name":"未知分类","address":"上海临平路"},{"poiid":"B2094654D56EA2F8419F","title":"永兴幼儿园","lon":"121.47857","lat":"31.25671","category":"57","category_name":"幼儿园","address":"宝通路239弄2"},{"poiid":"B2094757D66BA3F5409B","title":"潮汕野味馆","lon":"121.477738","lat":"31.256928","category":"72","category_name":"广东菜","address":"闸北区宝通路263号(近宝山路)"},{"poiid":"B2094655D264ABFF4199","title":"敦煌商务楼","lon":"121.4807","lat":"31.25602","category":"46","category_name":"楼宇","address":"上海川公路173号"},{"poiid":"B2094757D165ABF4459D","title":"阿英馆","lon":"121.4793805","lat":"31.258081264","category":"76","category_name":"上海菜","address":"虹口区东宝兴路428号(近轻轨3号线)"},{"poiid":"B2094752DA68A0F8449D","title":"台北楚楚园","lon":"121.479217","lat":"31.254457","category":"500","category_name":"未知分类","address":"上海市 四川北路壹丰广场"},{"poiid":"B2094655D26CA0FD4592","title":"宝通大楼(宝通路)","lon":"121.47818","lat":"31.25605","category":"46","category_name":"楼宇","address":"宝通路202"},{"poiid":"B2094654D56EA2FF449F","title":"老城隍庙小吃 宝山路店","lon":"121.477736054","lat":"31.257835793","category":"68","category_name":"快餐厅","address":"闸北区宝山路393号(宝昌路口)"},{"poiid":"B2094750DB6DA7FF4999","title":"钱柜","lon":"121.482345","lat":"31.257751","category":"248","category_name":"生活娱乐","address":"四川北路1661号"},{"poiid":"B2094654DB6BA3FA439D","title":"钱柜(四川北路)","lon":"121.48276","lat":"31.25685","category":"170","category_name":"KTV","address":"四川北路1661"},{"poiid":"B2094757D06EAAF84493","title":"烧肉达人(嘉杰广场店)","lon":"121.48183","lat":"31.25884","category":"269","category_name":"烧烤","address":"虹口区四川北路1689号嘉杰国际广场4楼(近东宝兴路)"},{"poiid":"B2094655D26AA2F84798","title":"星巴克(四川北路店)","lon":"121.482426","lat":"31.257921","category":"260","category_name":"其他","address":"虹口区四川北路1661号凯鸿商场1楼(近东宝兴路)"},{"poiid":"B2094757DB6CABF9479D","title":"麦歌时尚KTV","lon":"121.48086","lat":"31.254141","category":"248","category_name":"生活娱乐","address":"武进路289号海泰时代大厦"},{"poiid":"B2094757D068A1FD4793","title":"湘乐汇(虹口龙之梦店)","lon":"121.479673103","lat":"31.2543530865","category":"500","category_name":"未知分类","address":"虹口区西江湾路388号凯德龙之梦广场6楼"},{"poiid":"B2094757D069A1F5409C","title":"商汤天下火锅","lon":"121.481799103","lat":"31.2582171672","category":"86","category_name":"火锅店","address":"虹口区四川北路1661号凯鸿商场301室"},{"poiid":"B2094757D06FA3FF459B","title":"釜山料理 四川北路店 Pankoo","lon":"121.482561054","lat":"31.258004693","category":"96","category_name":"韩国料理","address":"虹口区四川北路1689号嘉杰国际4楼(近东宝兴路)"},{"poiid":"B2094654D56DA1F44199","title":"铭德国际广场","lon":"121.477","lat":"31.2568","category":"46","category_name":"楼宇","address":"铁西兴华南街与十马路交汇处"},{"poiid":"B2094757D069A4FA4198","title":"钱柜四川北路店","lon":"121.482500203","lat":"31.2582308675","category":"500","category_name":"未知分类","address":"上海四川北路"},{"poiid":"B2094757D06FA7FB419F","title":"味千拉面(嘉杰国际店)","lon":"121.4824507","lat":"31.257228346","category":"95","category_name":"日本料理","address":"虹口区四川北路1689号嘉杰国际B1楼03室(近东宝兴路)"},{"poiid":"B2094757D16FA7FA499A","title":"一线烫捞","lon":"121.48199379","lat":"31.257488601","category":"68","category_name":"快餐厅","address":"虹口区四川北路1727弄嘉杰国际广场B1楼(近东宝兴路)"},{"poiid":"B2094757D16FA3FD4899","title":"19弄(spicy lane)","lon":"121.479216103","lat":"31.2554041085","category":"75","category_name":"浙江菜","address":"虹口区西江湾路388号虹口凯德龙之梦购物中心6楼(近虹口足球场)"},{"poiid":"B2094655D36CA5F54893","title":"宝山路","lon":"121.477415364418","lat":"31.25733917149673","category":"38","category_name":"公交车站","address":"上海市闸北区"},{"poiid":"B2094757DB68A5F84493","title":"鮮芋仙(壹丰廣場店)","lon":"121.47922641","lat":"31.25438153","category":"500","category_name":"未知分类","address":"四川北路1363號壹丰廣場B2F"},{"poiid":"B2094757DB6CAAF5409B","title":"COSTA","lon":"121.4806084599999","lat":"31.25438152999999","category":"247","category_name":"餐饮美食","address":"四川北路"},{"poiid":"B2094757D06FA0FB4092","title":"禾绿寿司(嘉杰国际)","lon":"121.482230172","lat":"31.2583229202","category":"95","category_name":"日本料理","address":"虹口区四川北路1727弄嘉杰国际广场4楼(近东宝兴路)"},{"poiid":"B2094757D06FA2F4439A","title":"一兆韦德(凯鸿广场店)","lon":"121.482426","lat":"31.257921","category":"221","category_name":"健身中心","address":"虹口区四川北路1661号凯鸿商场4楼(近东宝兴路)"},{"poiid":"B2094757DB6FABFF4292","title":"麦歌","lon":"121.4802970200001","lat":"31.25405024999979","category":"249","category_name":"购物服务","address":"武进路289号海泰时代大厦"},{"poiid":"B2094757D16DA0FE479C","title":"1933老厂房","lon":"121.4808421","lat":"31.254028079","category":"500","category_name":"未知分类","address":"上海沙泾路"},{"poiid":"B2094655D26FA0F4479B","title":"嘉杰国际广场(西门)","lon":"121.48072","lat":"31.25928","category":"48","category_name":"楼宇大门","address":"四川北路1727弄1-10号"},{"poiid":"B2094757D16DA2FF4398","title":"釜山料理","lon":"121.4824609","lat":"31.257921261","category":"247","category_name":"餐饮美食","address":"上海嘉杰广场"},{"poiid":"B2094757D06FA3FF4292","title":"网鱼网咖(宝兴店)","lon":"121.481514","lat":"31.257693","category":"173","category_name":"游戏厅","address":"虹口区四川北路1661号凯鸿商场B1楼01-A室(近东宝兴路)"},{"poiid":"B2094757D06BA6FB409A","title":"轨道交通三号线东宝兴路站","lon":"121.481584103","lat":"31.2574371509","category":"500","category_name":"未知分类","address":"上海东宝兴路"},{"poiid":"B2094655D36DA6FC469A","title":"虬江路","lon":"121.48028","lat":"31.25341","category":"38","category_name":"公交车站","address":""},{"poiid":"B2094655D36CA6F44493","title":"东宝兴路","lon":"121.47783","lat":"31.25832","category":"38","category_name":"公交车站","address":""},{"poiid":"B2094655D26FA1FB449A","title":"三宝花苑","lon":"121.47641","lat":"31.257627","category":"47","category_name":"住宅区","address":"上海市闸北区宝山路452号"},{"poiid":"B2094654D56EA2FE4699","title":"通源小区","lon":"121.47968","lat":"31.256783","category":"47","category_name":"住宅区","address":"上海闸北区宝源路209弄"},{"poiid":"B2094753D469A4FE459A","title":"月星•环球港","lon":"121.478042","lat":"31.259443","category":"500","category_name":"未知分类","address":"上海市 普陀区中山北路3300号"},{"poiid":"B2094757D069A2FE499F","title":"虹口区业余大学","lon":"121.479806","lat":"31.258855","category":"52","category_name":"高等院校","address":"上海东宝兴路440号"},{"poiid":"B2094654DB69A4FD4999","title":"锦江之星(四川北路店)","lon":"121.47928","lat":"31.25902","category":"216","category_name":"经济型连锁酒店","address":"上海市虹口区东宝兴路440号(近四川北路)"},{"poiid":"B2094757D16DA3FF459E","title":"小诸烧烤","lon":"121.4803221","lat":"31.258461172","category":"247","category_name":"餐饮美食","address":"上海东宝兴路轻轨下面"},{"poiid":"B2094757DB6FAAFF419B","title":"世纪大道地铁站","lon":"121.480201155577","lat":"31.25980006696586","category":"36","category_name":"地铁站","address":"世纪大道"},{"poiid":"B2094757D66DA2FD419F","title":"老李涮锅","lon":"121.4789598","lat":"31.257710956","category":"247","category_name":"餐饮美食","address":"上海同心路"},{"poiid":"B2094751D365A6FD419D","title":"中共四大会址纪念馆","lon":"121.4804768","lat":"31.255421","category":"607","category_name":"一般景点","address":null},{"poiid":"B2094654D56EA2FF4792","title":"和馨苑","lon":"121.47897","lat":"31.256388","category":"47","category_name":"住宅区","address":"上海市闸北区宝山路463号"},{"poiid":"B2094655D265A3FD449A","title":"好又多超市","lon":"121.47978","lat":"31.25604","category":"118","category_name":"超级市场","address":"宝源路186"},{"poiid":"B2094654DB6BA3FA449D","title":"通源小区(南门)","lon":"121.47996","lat":"31.25635","category":"47","category_name":"住宅区","address":"宝源路209弄"},{"poiid":"B2094757D168A5F44798","title":"世纪烧烤","lon":"121.48002","lat":"31.258313","category":"68","category_name":"快餐厅","address":"虹口区东宝兴路(近轻轨三号线东宝兴路站)"},{"poiid":"B2094655D26BA4F5479D","title":"重庆鸡公煲 宝昌路店","lon":"121.477255054","lat":"31.255787793","category":"71","category_name":"四川菜","address":"闸北区宝昌路151号(近宝山路)"},{"poiid":"B2094654D56EA2FE449E","title":"小褚烧烤店","lon":"121.48049","lat":"31.25785","category":"68","category_name":"快餐厅","address":"闸北区东宝兴路轻轨二号门附近(近宝源路)"},{"poiid":"B2094757D16CA2FA4099","title":"二月摄影棚","lon":"121.480389175","lat":"31.2570707878","category":"46","category_name":"楼宇","address":"闸北区宝通路411号"},{"poiid":"B2094757D16DA5FC4398","title":"临平路","lon":"121.48056566","lat":"31.253904877","category":"500","category_name":"未知分类","address":"上海临平路"},{"poiid":"B2094654D56EA2F8419F","title":"永兴幼儿园","lon":"121.47857","lat":"31.25671","category":"57","category_name":"幼儿园","address":"宝通路239弄2"},{"poiid":"B2094757D66BA3F5409B","title":"潮汕野味馆","lon":"121.477738","lat":"31.256928","category":"72","category_name":"广东菜","address":"闸北区宝通路263号(近宝山路)"},{"poiid":"B2094655D264ABFF4199","title":"敦煌商务楼","lon":"121.4807","lat":"31.25602","category":"46","category_name":"楼宇","address":"上海川公路173号"},{"poiid":"B2094757D165ABF4459D","title":"阿英馆","lon":"121.4793805","lat":"31.258081264","category":"76","category_name":"上海菜","address":"虹口区东宝兴路428号(近轻轨3号线)"},{"poiid":"B2094752DA68A0F8449D","title":"台北楚楚园","lon":"121.479217","lat":"31.254457","category":"500","category_name":"未知分类","address":"上海市 四川北路壹丰广场"},{"poiid":"B2094655D26CA0FD4592","title":"宝通大楼(宝通路)","lon":"121.47818","lat":"31.25605","category":"46","category_name":"楼宇","address":"宝通路202"},{"poiid":"B2094654D56EA2FF449F","title":"老城隍庙小吃 宝山路店","lon":"121.477736054","lat":"31.257835793","category":"68","category_name":"快餐厅","address":"闸北区宝山路393号(宝昌路口)"},{"poiid":"B2094750DB6DA7FF4999","title":"钱柜","lon":"121.482345","lat":"31.257751","category":"248","category_name":"生活娱乐","address":"四川北路1661号"},{"poiid":"B2094654DB6BA3FA439D","title":"钱柜(四川北路)","lon":"121.48276","lat":"31.25685","category":"170","category_name":"KTV","address":"四川北路1661"},{"poiid":"B2094757D06EAAF84493","title":"烧肉达人(嘉杰广场店)","lon":"121.48183","lat":"31.25884","category":"269","category_name":"烧烤","address":"虹口区四川北路1689号嘉杰国际广场4楼(近东宝兴路)"},{"poiid":"B2094655D26AA2F84798","title":"星巴克(四川北路店)","lon":"121.482426","lat":"31.257921","category":"260","category_name":"其他","address":"虹口区四川北路1661号凯鸿商场1楼(近东宝兴路)"},{"poiid":"B2094757DB6CABF9479D","title":"麦歌时尚KTV","lon":"121.48086","lat":"31.254141","category":"248","category_name":"生活娱乐","address":"武进路289号海泰时代大厦"},{"poiid":"B2094757D068A1FD4793","title":"湘乐汇(虹口龙之梦店)","lon":"121.479673103","lat":"31.2543530865","category":"500","category_name":"未知分类","address":"虹口区西江湾路388号凯德龙之梦广场6楼"},{"poiid":"B2094757D069A1F5409C","title":"商汤天下火锅","lon":"121.481799103","lat":"31.2582171672","category":"86","category_name":"火锅店","address":"虹口区四川北路1661号凯鸿商场301室"},{"poiid":"B2094757D06FA3FF459B","title":"釜山料理 四川北路店 Pankoo","lon":"121.482561054","lat":"31.258004693","category":"96","category_name":"韩国料理","address":"虹口区四川北路1689号嘉杰国际4楼(近东宝兴路)"},{"poiid":"B2094654D56DA1F44199","title":"铭德国际广场","lon":"121.477","lat":"31.2568","category":"46","category_name":"楼宇","address":"铁西兴华南街与十马路交汇处"},{"poiid":"B2094757D069A4FA4198","title":"钱柜四川北路店","lon":"121.482500203","lat":"31.2582308675","category":"500","category_name":"未知分类","address":"上海四川北路"},{"poiid":"B2094757D06FA7FB419F","title":"味千拉面(嘉杰国际店)","lon":"121.4824507","lat":"31.257228346","category":"95","category_name":"日本料理","address":"虹口区四川北路1689号嘉杰国际B1楼03室(近东宝兴路)"},{"poiid":"B2094757D16FA7FA499A","title":"一线烫捞","lon":"121.48199379","lat":"31.257488601","category":"68","category_name":"快餐厅","address":"虹口区四川北路1727弄嘉杰国际广场B1楼(近东宝兴路)"},{"poiid":"B2094757D16FA3FD4899","title":"19弄(spicy lane)","lon":"121.479216103","lat":"31.2554041085","category":"75","category_name":"浙江菜","address":"虹口区西江湾路388号虹口凯德龙之梦购物中心6楼(近虹口足球场)"},{"poiid":"B2094655D36CA5F54893","title":"宝山路","lon":"121.477415364418","lat":"31.25733917149673","category":"38","category_name":"公交车站","address":"上海市闸北区"},{"poiid":"B2094757DB68A5F84493","title":"鮮芋仙(壹丰廣場店)","lon":"121.47922641","lat":"31.25438153","category":"500","category_name":"未知分类","address":"四川北路1363號壹丰廣場B2F"},{"poiid":"B2094757DB6CAAF5409B","title":"COSTA","lon":"121.4806084599999","lat":"31.25438152999999","category":"247","category_name":"餐饮美食","address":"四川北路"},{"poiid":"B2094757D06FA0FB4092","title":"禾绿寿司(嘉杰国际)","lon":"121.482230172","lat":"31.2583229202","category":"95","category_name":"日本料理","address":"虹口区四川北路1727弄嘉杰国际广场4楼(近东宝兴路)"},{"poiid":"B2094757D06FA2F4439A","title":"一兆韦德(凯鸿广场店)","lon":"121.482426","lat":"31.257921","category":"221","category_name":"健身中心","address":"虹口区四川北路1661号凯鸿商场4楼(近东宝兴路)"},{"poiid":"B2094757DB6FABFF4292","title":"麦歌","lon":"121.4802970200001","lat":"31.25405024999979","category":"249","category_name":"购物服务","address":"武进路289号海泰时代大厦"},{"poiid":"B2094757D16DA0FE479C","title":"1933老厂房","lon":"121.4808421","lat":"31.254028079","category":"500","category_name":"未知分类","address":"上海沙泾路"},{"poiid":"B2094655D26FA0F4479B","title":"嘉杰国际广场(西门)","lon":"121.48072","lat":"31.25928","category":"48","category_name":"楼宇大门","address":"四川北路1727弄1-10号"},{"poiid":"B2094757D16DA2FF4398","title":"釜山料理","lon":"121.4824609","lat":"31.257921261","category":"247","category_name":"餐饮美食","address":"上海嘉杰广场"},{"poiid":"B2094757D06FA3FF4292","title":"网鱼网咖(宝兴店)","lon":"121.481514","lat":"31.257693","category":"173","category_name":"游戏厅","address":"虹口区四川北路1661号凯鸿商场B1楼01-A室(近东宝兴路)"},{"poiid":"B2094757D06BA6FB409A","title":"轨道交通三号线东宝兴路站","lon":"121.481584103","lat":"31.2574371509","category":"500","category_name":"未知分类","address":"上海东宝兴路"},{"poiid":"B2094655D36DA6FC469A","title":"虬江路","lon":"121.48028","lat":"31.25341","category":"38","category_name":"公交车站","address":""},{"poiid":"B2094655D36CA6F44493","title":"东宝兴路","lon":"121.47783","lat":"31.25832","category":"38","category_name":"公交车站","address":""},{"poiid":"B2094655D26FA1FB449A","title":"三宝花苑","lon":"121.47641","lat":"31.257627","category":"47","category_name":"住宅区","address":"上海市闸北区宝山路452号"},{"poiid":"B2094654D56EA2FE4699","title":"通源小区","lon":"121.47968","lat":"31.256783","category":"47","category_name":"住宅区","address":"上海闸北区宝源路209弄"},{"poiid":"B2094753D469A4FE459A","title":"月星•环球港","lon":"121.478042","lat":"31.259443","category":"500","category_name":"未知分类","address":"上海市 普陀区中山北路3300号"},{"poiid":"B2094757D069A2FE499F","title":"虹口区业余大学","lon":"121.479806","lat":"31.258855","category":"52","category_name":"高等院校","address":"上海东宝兴路440号"},{"poiid":"B2094654DB69A4FD4999","title":"锦江之星(四川北路店)","lon":"121.47928","lat":"31.25902","category":"216","category_name":"经济型连锁酒店","address":"上海市虹口区东宝兴路440号(近四川北路)"},{"poiid":"B2094757D16DA3FF459E","title":"小诸烧烤","lon":"121.4803221","lat":"31.258461172","category":"247","category_name":"餐饮美食","address":"上海东宝兴路轻轨下面"},{"poiid":"B2094757DB6FAAFF419B","title":"世纪大道地铁站","lon":"121.480201155577","lat":"31.25980006696586","category":"36","category_name":"地铁站","address":"世纪大道"},{"poiid":"B2094757D66DA2FD419F","title":"老李涮锅","lon":"121.4789598","lat":"31.257710956","category":"247","category_name":"餐饮美食","address":"上海同心路"},{"poiid":"B2094751D365A6FD419D","title":"中共四大会址纪念馆","lon":"121.4804768","lat":"31.255421","category":"607","category_name":"一般景点","address":null},{"poiid":"B2094654D56EA2FF4792","title":"和馨苑","lon":"121.47897","lat":"31.256388","category":"47","category_name":"住宅区","address":"上海市闸北区宝山路463号"},{"poiid":"B2094655D265A3FD449A","title":"好又多超市","lon":"121.47978","lat":"31.25604","category":"118","category_name":"超级市场","address":"宝源路186"},{"poiid":"B2094654DB6BA3FA449D","title":"通源小区(南门)","lon":"121.47996","lat":"31.25635","category":"47","category_name":"住宅区","address":"宝源路209弄"},{"poiid":"B2094757D168A5F44798","title":"世纪烧烤","lon":"121.48002","lat":"31.258313","category":"68","category_name":"快餐厅","address":"虹口区东宝兴路(近轻轨三号线东宝兴路站)"},{"poiid":"B2094655D26BA4F5479D","title":"重庆鸡公煲 宝昌路店","lon":"121.477255054","lat":"31.255787793","category":"71","category_name":"四川菜","address":"闸北区宝昌路151号(近宝山路)"},{"poiid":"B2094654D56EA2FE449E","title":"小褚烧烤店","lon":"121.48049","lat":"31.25785","category":"68","category_name":"快餐厅","address":"闸北区东宝兴路轻轨二号门附近(近宝源路)"},{"poiid":"B2094757D16CA2FA4099","title":"二月摄影棚","lon":"121.480389175","lat":"31.2570707878","category":"46","category_name":"楼宇","address":"闸北区宝通路411号"},{"poiid":"B2094757D16DA5FC4398","title":"临平路","lon":"121.48056566","lat":"31.253904877","category":"500","category_name":"未知分类","address":"上海临平路"},{"poiid":"B2094654D56EA2F8419F","title":"永兴幼儿园","lon":"121.47857","lat":"31.25671","category":"57","category_name":"幼儿园","address":"宝通路239弄2"},{"poiid":"B2094757D66BA3F5409B","title":"潮汕野味馆","lon":"121.477738","lat":"31.256928","category":"72","category_name":"广东菜","address":"闸北区宝通路263号(近宝山路)"},{"poiid":"B2094655D264ABFF4199","title":"敦煌商务楼","lon":"121.4807","lat":"31.25602","category":"46","category_name":"楼宇","address":"上海川公路173号"},{"poiid":"B2094757D165ABF4459D","title":"阿英馆","lon":"121.4793805","lat":"31.258081264","category":"76","category_name":"上海菜","address":"虹口区东宝兴路428号(近轻轨3号线)"},{"poiid":"B2094752DA68A0F8449D","title":"台北楚楚园","lon":"121.479217","lat":"31.254457","category":"500","category_name":"未知分类","address":"上海市 四川北路壹丰广场"},{"poiid":"B2094655D26CA0FD4592","title":"宝通大楼(宝通路)","lon":"121.47818","lat":"31.25605","category":"46","category_name":"楼宇","address":"宝通路202"},{"poiid":"B2094654D56EA2FF449F","title":"老城隍庙小吃 宝山路店","lon":"121.477736054","lat":"31.257835793","category":"68","category_name":"快餐厅","address":"闸北区宝山路393号(宝昌路口)"},{"poiid":"B2094750DB6DA7FF4999","title":"钱柜","lon":"121.482345","lat":"31.257751","category":"248","category_name":"生活娱乐","address":"四川北路1661号"}]