[{"poiid":"B2094757D06FA2FF419E","title":"航津路地铁站","lon":"121.595313","lat":"31.332977","category":"36","category_name":"地铁站","address":"上海轨道交通 六号线 轨交航津路站 6"},{"poiid":"B2094757D069A5FD499B","title":"上海人家","lon":"121.57757133","lat":"31.338335829","category":"247","category_name":"餐饮美食","address":"上海市浦东新区外高桥"},{"poiid":"B2094757D069A4F5429B","title":"上海高尔夫球训练中心","lon":"121.5893168","lat":"31.3093008","category":"500","category_name":"未知分类","address":"浦东新区张扬北路2700号(近五洲大道)"},{"poiid":"B2094757D069A0FB439C","title":"高行绿洲四期","lon":"121.59073","lat":"31.326172","category":"47","category_name":"住宅区","address":"上海市浦东新区秋岚路58弄"},{"poiid":"B2094655D264A6FE409C","title":"金地未未来","lon":"121.58695","lat":"31.306332","category":"47","category_name":"住宅区","address":"浦东新区张杨北路2899号"},{"poiid":"B2094757D069AAFA4692","title":"一阳轩","lon":"121.58906133","lat":"31.327013176","category":"72","category_name":"广东菜","address":"浦东新区张杨北路3999号(行南路口)"},{"poiid":"B2094757D16BA4FF4799","title":"高行绿洲六期","lon":"121.59229","lat":"31.323219","category":"47","category_name":"住宅区","address":"上海庭安路兰谷路"},{"poiid":"B2094654DB6AA6FF4499","title":"上海悦兴国际大酒店","lon":"121.5874","lat":"31.33073","category":"76","category_name":"上海菜","address":"浦东新区航津路658号悦兴国际大酒店内"},{"poiid":"B2094757D069A2FC449C","title":"上海烟草包装印刷有限公司","lon":"121.58828735","lat":"31.323133468","category":"46","category_name":"楼宇","address":"上海张杨北路3939号"},{"poiid":"B2094757D16EA7F94499","title":"高行绿洲三期","lon":"121.59151","lat":"31.327978","category":"47","category_name":"住宅区","address":"上海秋岚路91弄"},{"poiid":"B2094654D46AAAFD489B","title":"味千拉面 夏碧路店","lon":"121.587551054","lat":"31.337981793","category":"95","category_name":"日本料理","address":"浦东新区夏碧路261号D-4室"},{"poiid":"B2094757D068A0FE4893","title":"洲海路地铁站","lon":"121.58936855","lat":"31.312905264","category":"36","category_name":"地铁站","address":"上海轨道交通6号线洲海路站"},{"poiid":"B2094757D16CA4FD479E","title":"金帝大酒店","lon":"121.5819","lat":"31.33606","category":"76","category_name":"上海菜","address":"浦东新区高荷路457号(近高桥)"},{"poiid":"B2094655D36DA0FE489A","title":"行南路莱阳路","lon":"121.58371","lat":"31.32451","category":"38","category_name":"公交车站","address":""},{"poiid":"B2094757D068A7F8469C","title":"世纪联华(外高桥店)","lon":"121.58778","lat":"31.33751","category":"118","category_name":"超级市场","address":"浦东新区夏碧路261号(近季景路)"},{"poiid":"B2094757D069ABFB4698","title":"邱波酒家","lon":"121.57414","lat":"31.32976","category":"76","category_name":"上海菜","address":"浦东新区浦东北路3066号(航津路口)"},{"poiid":"B2094757D06AA6FE4693","title":"荷兰城大酒店","lon":"121.57688","lat":"31.33703","category":"76","category_name":"上海菜","address":"浦东新区高荷路397号(近和龙路)"},{"poiid":"B2094757D06BA3FF419E","title":"小南国(正地豪生店)","lon":"121.58599","lat":"31.33588","category":"75","category_name":"浙江菜","address":"浦东新区张杨北路5658号正地豪生大酒店3-4楼"},{"poiid":"B2094655D26BA2FF499A","title":"庭安路莱阳路","lon":"121.58419","lat":"31.32451","category":"38","category_name":"公交车站","address":""},{"poiid":"B2094757DB6EA5F44098","title":"高行绿洲五期","lon":"121.589532","lat":"31.327998","category":"47","category_name":"住宅区","address":"上海浦东庭安路825弄"},{"poiid":"B2094654D568AAFC419C","title":"高行园区大厦","lon":"121.58248","lat":"31.31948","category":"46","category_name":"楼宇","address":"莱阳路2819"},{"poiid":"B2094757D468A5FE409A","title":"肯德基 夏碧路店 KFC","lon":"121.584662054","lat":"31.335783793","category":"68","category_name":"快餐厅","address":"浦东新区夏碧路世纪联华门口(近张扬北路)"},{"poiid":"B2094655D26BA2F5499A","title":"浦东北路行南路","lon":"121.57785","lat":"31.32209","category":"38","category_name":"公交车站","address":"上海市浦东新区浦东北路997号(近东塘路)"},{"poiid":"B2094654D46AAAFD4798","title":"天港大酒店","lon":"121.58488536562","lat":"31.335918727912","category":"76","category_name":"上海菜","address":"浦东新区夏碧路398号(近张杨北路)"},{"poiid":"B2094757D16EA0FD429F","title":"高行绿州一期","lon":"121.59118454","lat":"31.330163071","category":"47","category_name":"住宅区","address":"上海浦东新区白萱路99弄"},{"poiid":"B2094757D568A1FD4298","title":"KOMAI SU","lon":"121.582","lat":"31.322231","category":"248","category_name":"生活娱乐","address":"中国上海市浦东新区"},{"poiid":"B2094757D06AA0FE439A","title":"中冶尚城","lon":"121.59292","lat":"31.320593","category":"47","category_name":"住宅区","address":"浦东新区启帆路309号(近张杨北路)"},{"poiid":"B2094757D16CA7F4499A","title":"上海永增汽车销售服务有限公司","lon":"121.588622","lat":"31.322196","category":"158","category_name":"汽车销售","address":"浦东新区张杨北路3839号(近衡安路)"},{"poiid":"B2094757D164A1FB499E","title":"南新东苑","lon":"121.58885233","lat":"31.327624582","category":"252","category_name":"楼宇机构","address":"上海行南路900弄"},{"poiid":"B2094757D06BA1F5489E","title":"美千居","lon":"121.58909999","lat":"31.327278234","category":"500","category_name":"未知分类","address":"上海张扬北路4001号"},{"poiid":"B2094757D168A6F94793","title":"中石化加油站(高南加油点)","lon":"121.583679199","lat":"31.3191947937","category":"154","category_name":"加油加气站","address":"浦东新区浦东北路2138号"},{"poiid":"B2094654D568AAFB4798","title":"浦东机动车检测维修中心","lon":"121.58108","lat":"31.32554","category":"159","category_name":"汽车维修","address":"行南路601"},{"poiid":"B2094654D568AAF84692","title":"上海良信电器股份有限公司","lon":"121.58169","lat":"31.31983","category":"263","category_name":"公司","address":"衡安路668号"},{"poiid":"B2094655D36DA7FD4892","title":"张杨北路行南路","lon":"121.58932","lat":"31.32492","category":"38","category_name":"公交车站","address":""},{"poiid":"B2094655D36DA7FD419E","title":"战斗村","lon":"121.57796","lat":"31.31806","category":"38","category_name":"公交车站","address":""},{"poiid":"B2094654D568AAFC4098","title":"高西自然宅","lon":"121.5765","lat":"31.32202","category":"47","category_name":"住宅区","address":""},{"poiid":"B2094654DB6BA1F9429F","title":"上海康达汽车综合检测站","lon":"121.58007","lat":"31.32523","category":"250","category_name":"公园户外","address":""},{"poiid":"B2094757D16DA3F84498","title":"浦兴别克","lon":"121.578505289","lat":"31.3279259397","category":"163","category_name":"4S店","address":"浦东新区莱阳路3166号"},{"poiid":"B2094757D164ABFC4098","title":"一阳轩精品粤菜","lon":"121.58949886","lat":"31.322332961","category":"500","category_name":"未知分类","address":"上海浦东新区张杨北路3999号"},{"poiid":"B2094655D26DA4FD4599","title":"上海海事大学附属职业技术学校","lon":"121.58778","lat":"31.33699","category":"54","category_name":"职业技术学校","address":"浦东新区季景路206号(季景路夏碧路)"},{"poiid":"B2094655D26BA2F5499B","title":"浦东北路洲海路","lon":"121.5781","lat":"31.31584","category":"38","category_name":"公交车站","address":""},{"poiid":"B2094750D76DAAF94398","title":"蜀膳传火锅传奇(秋岚路店)","lon":"121.593","lat":"31.3267","category":"86","category_name":"火锅店","address":"浦东新区秋岚路160号(近美千居家居广场)"},{"poiid":"B2094654D568AAFF4498","title":"宝莲庵","lon":"121.59643","lat":"31.32363","category":"244","category_name":"寺庙道观","address":"浦东新区井亭东沟镇解放村36号(夏家宅东侧)"},{"poiid":"B2094757D064A5F84292","title":"仁恒家园","lon":"121.59298","lat":"31.332857","category":"500","category_name":"未知分类","address":"上海市浦东新区季景路555弄"},{"poiid":"B2094654D568AAF8429C","title":"上海烟草工业印刷厂","lon":"121.58828","lat":"31.32312","category":"263","category_name":"公司","address":"张杨北路3939"},{"poiid":"B2094757D16DA3F8479B","title":"永久城市花园","lon":"121.58984","lat":"31.337259","category":"47","category_name":"住宅区","address":"上海市浦东新区夏碧路108号"},{"poiid":"B2094654D568AAF8479A","title":"上海华东建筑机械厂有限公司(衡安路)","lon":"121.58829","lat":"31.31939","category":"263","category_name":"公司","address":"上海市浦东新区衡安路1058号"},{"poiid":"B2094757DA6EA7F5429B","title":"高桥石化","lon":"121.578540999999","lat":"31.3247619999998","category":"263","category_name":"公司","address":"浦东新区浦东北路炼油厂14号门"},{"poiid":"B2094655D36DA6FF429C","title":"洲海路","lon":"121.58931","lat":"31.31291","category":"38","category_name":"公交车站","address":""},{"poiid":"B2094654D568AAF84693","title":"上海东方液压件厂","lon":"121.58576","lat":"31.31761","category":"263","category_name":"公司","address":""},{"poiid":"B2094757D06FA2FF419E","title":"航津路地铁站","lon":"121.595313","lat":"31.332977","category":"36","category_name":"地铁站","address":"上海轨道交通 六号线 轨交航津路站 6"},{"poiid":"B2094757D069A5FD499B","title":"上海人家","lon":"121.57757133","lat":"31.338335829","category":"247","category_name":"餐饮美食","address":"上海市浦东新区外高桥"},{"poiid":"B2094757D069A4F5429B","title":"上海高尔夫球训练中心","lon":"121.5893168","lat":"31.3093008","category":"500","category_name":"未知分类","address":"浦东新区张扬北路2700号(近五洲大道)"},{"poiid":"B2094757D069A0FB439C","title":"高行绿洲四期","lon":"121.59073","lat":"31.326172","category":"47","category_name":"住宅区","address":"上海市浦东新区秋岚路58弄"},{"poiid":"B2094655D264A6FE409C","title":"金地未未来","lon":"121.58695","lat":"31.306332","category":"47","category_name":"住宅区","address":"浦东新区张杨北路2899号"},{"poiid":"B2094757D069AAFA4692","title":"一阳轩","lon":"121.58906133","lat":"31.327013176","category":"72","category_name":"广东菜","address":"浦东新区张杨北路3999号(行南路口)"},{"poiid":"B2094757D16BA4FF4799","title":"高行绿洲六期","lon":"121.59229","lat":"31.323219","category":"47","category_name":"住宅区","address":"上海庭安路兰谷路"},{"poiid":"B2094654DB6AA6FF4499","title":"上海悦兴国际大酒店","lon":"121.5874","lat":"31.33073","category":"76","category_name":"上海菜","address":"浦东新区航津路658号悦兴国际大酒店内"},{"poiid":"B2094757D069A2FC449C","title":"上海烟草包装印刷有限公司","lon":"121.58828735","lat":"31.323133468","category":"46","category_name":"楼宇","address":"上海张杨北路3939号"},{"poiid":"B2094757D16EA7F94499","title":"高行绿洲三期","lon":"121.59151","lat":"31.327978","category":"47","category_name":"住宅区","address":"上海秋岚路91弄"},{"poiid":"B2094654D46AAAFD489B","title":"味千拉面 夏碧路店","lon":"121.587551054","lat":"31.337981793","category":"95","category_name":"日本料理","address":"浦东新区夏碧路261号D-4室"},{"poiid":"B2094757D068A0FE4893","title":"洲海路地铁站","lon":"121.58936855","lat":"31.312905264","category":"36","category_name":"地铁站","address":"上海轨道交通6号线洲海路站"},{"poiid":"B2094757D16CA4FD479E","title":"金帝大酒店","lon":"121.5819","lat":"31.33606","category":"76","category_name":"上海菜","address":"浦东新区高荷路457号(近高桥)"},{"poiid":"B2094655D36DA0FE489A","title":"行南路莱阳路","lon":"121.58371","lat":"31.32451","category":"38","category_name":"公交车站","address":""},{"poiid":"B2094757D068A7F8469C","title":"世纪联华(外高桥店)","lon":"121.58778","lat":"31.33751","category":"118","category_name":"超级市场","address":"浦东新区夏碧路261号(近季景路)"},{"poiid":"B2094757D069ABFB4698","title":"邱波酒家","lon":"121.57414","lat":"31.32976","category":"76","category_name":"上海菜","address":"浦东新区浦东北路3066号(航津路口)"},{"poiid":"B2094757D06AA6FE4693","title":"荷兰城大酒店","lon":"121.57688","lat":"31.33703","category":"76","category_name":"上海菜","address":"浦东新区高荷路397号(近和龙路)"},{"poiid":"B2094757D06BA3FF419E","title":"小南国(正地豪生店)","lon":"121.58599","lat":"31.33588","category":"75","category_name":"浙江菜","address":"浦东新区张杨北路5658号正地豪生大酒店3-4楼"},{"poiid":"B2094655D26BA2FF499A","title":"庭安路莱阳路","lon":"121.58419","lat":"31.32451","category":"38","category_name":"公交车站","address":""},{"poiid":"B2094757DB6EA5F44098","title":"高行绿洲五期","lon":"121.589532","lat":"31.327998","category":"47","category_name":"住宅区","address":"上海浦东庭安路825弄"},{"poiid":"B2094654D568AAFC419C","title":"高行园区大厦","lon":"121.58248","lat":"31.31948","category":"46","category_name":"楼宇","address":"莱阳路2819"},{"poiid":"B2094757D468A5FE409A","title":"肯德基 夏碧路店 KFC","lon":"121.584662054","lat":"31.335783793","category":"68","category_name":"快餐厅","address":"浦东新区夏碧路世纪联华门口(近张扬北路)"},{"poiid":"B2094655D26BA2F5499A","title":"浦东北路行南路","lon":"121.57785","lat":"31.32209","category":"38","category_name":"公交车站","address":"上海市浦东新区浦东北路997号(近东塘路)"},{"poiid":"B2094654D46AAAFD4798","title":"天港大酒店","lon":"121.58488536562","lat":"31.335918727912","category":"76","category_name":"上海菜","address":"浦东新区夏碧路398号(近张杨北路)"},{"poiid":"B2094757D16EA0FD429F","title":"高行绿州一期","lon":"121.59118454","lat":"31.330163071","category":"47","category_name":"住宅区","address":"上海浦东新区白萱路99弄"},{"poiid":"B2094757D568A1FD4298","title":"KOMAI SU","lon":"121.582","lat":"31.322231","category":"248","category_name":"生活娱乐","address":"中国上海市浦东新区"},{"poiid":"B2094757D06AA0FE439A","title":"中冶尚城","lon":"121.59292","lat":"31.320593","category":"47","category_name":"住宅区","address":"浦东新区启帆路309号(近张杨北路)"},{"poiid":"B2094757D16CA7F4499A","title":"上海永增汽车销售服务有限公司","lon":"121.588622","lat":"31.322196","category":"158","category_name":"汽车销售","address":"浦东新区张杨北路3839号(近衡安路)"},{"poiid":"B2094757D164A1FB499E","title":"南新东苑","lon":"121.58885233","lat":"31.327624582","category":"252","category_name":"楼宇机构","address":"上海行南路900弄"},{"poiid":"B2094757D06BA1F5489E","title":"美千居","lon":"121.58909999","lat":"31.327278234","category":"500","category_name":"未知分类","address":"上海张扬北路4001号"},{"poiid":"B2094757D168A6F94793","title":"中石化加油站(高南加油点)","lon":"121.583679199","lat":"31.3191947937","category":"154","category_name":"加油加气站","address":"浦东新区浦东北路2138号"},{"poiid":"B2094654D568AAFB4798","title":"浦东机动车检测维修中心","lon":"121.58108","lat":"31.32554","category":"159","category_name":"汽车维修","address":"行南路601"},{"poiid":"B2094654D568AAF84692","title":"上海良信电器股份有限公司","lon":"121.58169","lat":"31.31983","category":"263","category_name":"公司","address":"衡安路668号"},{"poiid":"B2094655D36DA7FD4892","title":"张杨北路行南路","lon":"121.58932","lat":"31.32492","category":"38","category_name":"公交车站","address":""},{"poiid":"B2094655D36DA7FD419E","title":"战斗村","lon":"121.57796","lat":"31.31806","category":"38","category_name":"公交车站","address":""},{"poiid":"B2094654D568AAFC4098","title":"高西自然宅","lon":"121.5765","lat":"31.32202","category":"47","category_name":"住宅区","address":""},{"poiid":"B2094654DB6BA1F9429F","title":"上海康达汽车综合检测站","lon":"121.58007","lat":"31.32523","category":"250","category_name":"公园户外","address":""},{"poiid":"B2094757D16DA3F84498","title":"浦兴别克","lon":"121.578505289","lat":"31.3279259397","category":"163","category_name":"4S店","address":"浦东新区莱阳路3166号"},{"poiid":"B2094757D164ABFC4098","title":"一阳轩精品粤菜","lon":"121.58949886","lat":"31.322332961","category":"500","category_name":"未知分类","address":"上海浦东新区张杨北路3999号"},{"poiid":"B2094655D26DA4FD4599","title":"上海海事大学附属职业技术学校","lon":"121.58778","lat":"31.33699","category":"54","category_name":"职业技术学校","address":"浦东新区季景路206号(季景路夏碧路)"},{"poiid":"B2094655D26BA2F5499B","title":"浦东北路洲海路","lon":"121.5781","lat":"31.31584","category":"38","category_name":"公交车站","address":""},{"poiid":"B2094750D76DAAF94398","title":"蜀膳传火锅传奇(秋岚路店)","lon":"121.593","lat":"31.3267","category":"86","category_name":"火锅店","address":"浦东新区秋岚路160号(近美千居家居广场)"},{"poiid":"B2094654D568AAFF4498","title":"宝莲庵","lon":"121.59643","lat":"31.32363","category":"244","category_name":"寺庙道观","address":"浦东新区井亭东沟镇解放村36号(夏家宅东侧)"},{"poiid":"B2094757D064A5F84292","title":"仁恒家园","lon":"121.59298","lat":"31.332857","category":"500","category_name":"未知分类","address":"上海市浦东新区季景路555弄"},{"poiid":"B2094654D568AAF8429C","title":"上海烟草工业印刷厂","lon":"121.58828","lat":"31.32312","category":"263","category_name":"公司","address":"张杨北路3939"},{"poiid":"B2094757D16DA3F8479B","title":"永久城市花园","lon":"121.58984","lat":"31.337259","category":"47","category_name":"住宅区","address":"上海市浦东新区夏碧路108号"},{"poiid":"B2094654D568AAF8479A","title":"上海华东建筑机械厂有限公司(衡安路)","lon":"121.58829","lat":"31.31939","category":"263","category_name":"公司","address":"上海市浦东新区衡安路1058号"},{"poiid":"B2094757DA6EA7F5429B","title":"高桥石化","lon":"121.578540999999","lat":"31.3247619999998","category":"263","category_name":"公司","address":"浦东新区浦东北路炼油厂14号门"},{"poiid":"B2094655D36DA6FF429C","title":"洲海路","lon":"121.58931","lat":"31.31291","category":"38","category_name":"公交车站","address":""},{"poiid":"B2094654D568AAF84693","title":"上海东方液压件厂","lon":"121.58576","lat":"31.31761","category":"263","category_name":"公司","address":""},{"poiid":"B2094757D06FA2FF419E","title":"航津路地铁站","lon":"121.595313","lat":"31.332977","category":"36","category_name":"地铁站","address":"上海轨道交通 六号线 轨交航津路站 6"},{"poiid":"B2094757D069A5FD499B","title":"上海人家","lon":"121.57757133","lat":"31.338335829","category":"247","category_name":"餐饮美食","address":"上海市浦东新区外高桥"},{"poiid":"B2094757D069A4F5429B","title":"上海高尔夫球训练中心","lon":"121.5893168","lat":"31.3093008","category":"500","category_name":"未知分类","address":"浦东新区张扬北路2700号(近五洲大道)"},{"poiid":"B2094757D069A0FB439C","title":"高行绿洲四期","lon":"121.59073","lat":"31.326172","category":"47","category_name":"住宅区","address":"上海市浦东新区秋岚路58弄"},{"poiid":"B2094655D264A6FE409C","title":"金地未未来","lon":"121.58695","lat":"31.306332","category":"47","category_name":"住宅区","address":"浦东新区张杨北路2899号"},{"poiid":"B2094757D069AAFA4692","title":"一阳轩","lon":"121.58906133","lat":"31.327013176","category":"72","category_name":"广东菜","address":"浦东新区张杨北路3999号(行南路口)"},{"poiid":"B2094757D16BA4FF4799","title":"高行绿洲六期","lon":"121.59229","lat":"31.323219","category":"47","category_name":"住宅区","address":"上海庭安路兰谷路"},{"poiid":"B2094654DB6AA6FF4499","title":"上海悦兴国际大酒店","lon":"121.5874","lat":"31.33073","category":"76","category_name":"上海菜","address":"浦东新区航津路658号悦兴国际大酒店内"},{"poiid":"B2094757D069A2FC449C","title":"上海烟草包装印刷有限公司","lon":"121.58828735","lat":"31.323133468","category":"46","category_name":"楼宇","address":"上海张杨北路3939号"},{"poiid":"B2094757D16EA7F94499","title":"高行绿洲三期","lon":"121.59151","lat":"31.327978","category":"47","category_name":"住宅区","address":"上海秋岚路91弄"},{"poiid":"B2094654D46AAAFD489B","title":"味千拉面 夏碧路店","lon":"121.587551054","lat":"31.337981793","category":"95","category_name":"日本料理","address":"浦东新区夏碧路261号D-4室"},{"poiid":"B2094757D068A0FE4893","title":"洲海路地铁站","lon":"121.58936855","lat":"31.312905264","category":"36","category_name":"地铁站","address":"上海轨道交通6号线洲海路站"},{"poiid":"B2094757D16CA4FD479E","title":"金帝大酒店","lon":"121.5819","lat":"31.33606","category":"76","category_name":"上海菜","address":"浦东新区高荷路457号(近高桥)"},{"poiid":"B2094655D36DA0FE489A","title":"行南路莱阳路","lon":"121.58371","lat":"31.32451","category":"38","category_name":"公交车站","address":""},{"poiid":"B2094757D068A7F8469C","title":"世纪联华(外高桥店)","lon":"121.58778","lat":"31.33751","category":"118","category_name":"超级市场","address":"浦东新区夏碧路261号(近季景路)"},{"poiid":"B2094757D069ABFB4698","title":"邱波酒家","lon":"121.57414","lat":"31.32976","category":"76","category_name":"上海菜","address":"浦东新区浦东北路3066号(航津路口)"},{"poiid":"B2094757D06AA6FE4693","title":"荷兰城大酒店","lon":"121.57688","lat":"31.33703","category":"76","category_name":"上海菜","address":"浦东新区高荷路397号(近和龙路)"},{"poiid":"B2094757D06BA3FF419E","title":"小南国(正地豪生店)","lon":"121.58599","lat":"31.33588","category":"75","category_name":"浙江菜","address":"浦东新区张杨北路5658号正地豪生大酒店3-4楼"},{"poiid":"B2094655D26BA2FF499A","title":"庭安路莱阳路","lon":"121.58419","lat":"31.32451","category":"38","category_name":"公交车站","address":""},{"poiid":"B2094757DB6EA5F44098","title":"高行绿洲五期","lon":"121.589532","lat":"31.327998","category":"47","category_name":"住宅区","address":"上海浦东庭安路825弄"},{"poiid":"B2094654D568AAFC419C","title":"高行园区大厦","lon":"121.58248","lat":"31.31948","category":"46","category_name":"楼宇","address":"莱阳路2819"},{"poiid":"B2094757D468A5FE409A","title":"肯德基 夏碧路店 KFC","lon":"121.584662054","lat":"31.335783793","category":"68","category_name":"快餐厅","address":"浦东新区夏碧路世纪联华门口(近张扬北路)"},{"poiid":"B2094655D26BA2F5499A","title":"浦东北路行南路","lon":"121.57785","lat":"31.32209","category":"38","category_name":"公交车站","address":"上海市浦东新区浦东北路997号(近东塘路)"},{"poiid":"B2094654D46AAAFD4798","title":"天港大酒店","lon":"121.58488536562","lat":"31.335918727912","category":"76","category_name":"上海菜","address":"浦东新区夏碧路398号(近张杨北路)"},{"poiid":"B2094757D16EA0FD429F","title":"高行绿州一期","lon":"121.59118454","lat":"31.330163071","category":"47","category_name":"住宅区","address":"上海浦东新区白萱路99弄"},{"poiid":"B2094757D568A1FD4298","title":"KOMAI SU","lon":"121.582","lat":"31.322231","category":"248","category_name":"生活娱乐","address":"中国上海市浦东新区"},{"poiid":"B2094757D06AA0FE439A","title":"中冶尚城","lon":"121.59292","lat":"31.320593","category":"47","category_name":"住宅区","address":"浦东新区启帆路309号(近张杨北路)"},{"poiid":"B2094757D16CA7F4499A","title":"上海永增汽车销售服务有限公司","lon":"121.588622","lat":"31.322196","category":"158","category_name":"汽车销售","address":"浦东新区张杨北路3839号(近衡安路)"},{"poiid":"B2094757D164A1FB499E","title":"南新东苑","lon":"121.58885233","lat":"31.327624582","category":"252","category_name":"楼宇机构","address":"上海行南路900弄"},{"poiid":"B2094757D06BA1F5489E","title":"美千居","lon":"121.58909999","lat":"31.327278234","category":"500","category_name":"未知分类","address":"上海张扬北路4001号"},{"poiid":"B2094757D168A6F94793","title":"中石化加油站(高南加油点)","lon":"121.583679199","lat":"31.3191947937","category":"154","category_name":"加油加气站","address":"浦东新区浦东北路2138号"},{"poiid":"B2094654D568AAFB4798","title":"浦东机动车检测维修中心","lon":"121.58108","lat":"31.32554","category":"159","category_name":"汽车维修","address":"行南路601"},{"poiid":"B2094654D568AAF84692","title":"上海良信电器股份有限公司","lon":"121.58169","lat":"31.31983","category":"263","category_name":"公司","address":"衡安路668号"},{"poiid":"B2094655D36DA7FD4892","title":"张杨北路行南路","lon":"121.58932","lat":"31.32492","category":"38","category_name":"公交车站","address":""},{"poiid":"B2094655D36DA7FD419E","title":"战斗村","lon":"121.57796","lat":"31.31806","category":"38","category_name":"公交车站","address":""},{"poiid":"B2094654D568AAFC4098","title":"高西自然宅","lon":"121.5765","lat":"31.32202","category":"47","category_name":"住宅区","address":""},{"poiid":"B2094654DB6BA1F9429F","title":"上海康达汽车综合检测站","lon":"121.58007","lat":"31.32523","category":"250","category_name":"公园户外","address":""},{"poiid":"B2094757D16DA3F84498","title":"浦兴别克","lon":"121.578505289","lat":"31.3279259397","category":"163","category_name":"4S店","address":"浦东新区莱阳路3166号"},{"poiid":"B2094757D164ABFC4098","title":"一阳轩精品粤菜","lon":"121.58949886","lat":"31.322332961","category":"500","category_name":"未知分类","address":"上海浦东新区张杨北路3999号"},{"poiid":"B2094655D26DA4FD4599","title":"上海海事大学附属职业技术学校","lon":"121.58778","lat":"31.33699","category":"54","category_name":"职业技术学校","address":"浦东新区季景路206号(季景路夏碧路)"},{"poiid":"B2094655D26BA2F5499B","title":"浦东北路洲海路","lon":"121.5781","lat":"31.31584","category":"38","category_name":"公交车站","address":""},{"poiid":"B2094750D76DAAF94398","title":"蜀膳传火锅传奇(秋岚路店)","lon":"121.593","lat":"31.3267","category":"86","category_name":"火锅店","address":"浦东新区秋岚路160号(近美千居家居广场)"},{"poiid":"B2094654D568AAFF4498","title":"宝莲庵","lon":"121.59643","lat":"31.32363","category":"244","category_name":"寺庙道观","address":"浦东新区井亭东沟镇解放村36号(夏家宅东侧)"},{"poiid":"B2094757D064A5F84292","title":"仁恒家园","lon":"121.59298","lat":"31.332857","category":"500","category_name":"未知分类","address":"上海市浦东新区季景路555弄"},{"poiid":"B2094654D568AAF8429C","title":"上海烟草工业印刷厂","lon":"121.58828","lat":"31.32312","category":"263","category_name":"公司","address":"张杨北路3939"},{"poiid":"B2094757D16DA3F8479B","title":"永久城市花园","lon":"121.58984","lat":"31.337259","category":"47","category_name":"住宅区","address":"上海市浦东新区夏碧路108号"},{"poiid":"B2094654D568AAF8479A","title":"上海华东建筑机械厂有限公司(衡安路)","lon":"121.58829","lat":"31.31939","category":"263","category_name":"公司","address":"上海市浦东新区衡安路1058号"},{"poiid":"B2094757DA6EA7F5429B","title":"高桥石化","lon":"121.578540999999","lat":"31.3247619999998","category":"263","category_name":"公司","address":"浦东新区浦东北路炼油厂14号门"},{"poiid":"B2094655D36DA6FF429C","title":"洲海路","lon":"121.58931","lat":"31.31291","category":"38","category_name":"公交车站","address":""},{"poiid":"B2094654D568AAF84693","title":"上海东方液压件厂","lon":"121.58576","lat":"31.31761","category":"263","category_name":"公司","address":""},{"poiid":"B2094757D06FA2FF419E","title":"航津路地铁站","lon":"121.595313","lat":"31.332977","category":"36","category_name":"地铁站","address":"上海轨道交通 六号线 轨交航津路站 6"},{"poiid":"B2094757D069A5FD499B","title":"上海人家","lon":"121.57757133","lat":"31.338335829","category":"247","category_name":"餐饮美食","address":"上海市浦东新区外高桥"},{"poiid":"B2094757D069A4F5429B","title":"上海高尔夫球训练中心","lon":"121.5893168","lat":"31.3093008","category":"500","category_name":"未知分类","address":"浦东新区张扬北路2700号(近五洲大道)"},{"poiid":"B2094757D069A0FB439C","title":"高行绿洲四期","lon":"121.59073","lat":"31.326172","category":"47","category_name":"住宅区","address":"上海市浦东新区秋岚路58弄"},{"poiid":"B2094655D264A6FE409C","title":"金地未未来","lon":"121.58695","lat":"31.306332","category":"47","category_name":"住宅区","address":"浦东新区张杨北路2899号"},{"poiid":"B2094757D069AAFA4692","title":"一阳轩","lon":"121.58906133","lat":"31.327013176","category":"72","category_name":"广东菜","address":"浦东新区张杨北路3999号(行南路口)"},{"poiid":"B2094757D16BA4FF4799","title":"高行绿洲六期","lon":"121.59229","lat":"31.323219","category":"47","category_name":"住宅区","address":"上海庭安路兰谷路"},{"poiid":"B2094654DB6AA6FF4499","title":"上海悦兴国际大酒店","lon":"121.5874","lat":"31.33073","category":"76","category_name":"上海菜","address":"浦东新区航津路658号悦兴国际大酒店内"},{"poiid":"B2094757D069A2FC449C","title":"上海烟草包装印刷有限公司","lon":"121.58828735","lat":"31.323133468","category":"46","category_name":"楼宇","address":"上海张杨北路3939号"},{"poiid":"B2094757D16EA7F94499","title":"高行绿洲三期","lon":"121.59151","lat":"31.327978","category":"47","category_name":"住宅区","address":"上海秋岚路91弄"},{"poiid":"B2094654D46AAAFD489B","title":"味千拉面 夏碧路店","lon":"121.587551054","lat":"31.337981793","category":"95","category_name":"日本料理","address":"浦东新区夏碧路261号D-4室"},{"poiid":"B2094757D068A0FE4893","title":"洲海路地铁站","lon":"121.58936855","lat":"31.312905264","category":"36","category_name":"地铁站","address":"上海轨道交通6号线洲海路站"},{"poiid":"B2094757D16CA4FD479E","title":"金帝大酒店","lon":"121.5819","lat":"31.33606","category":"76","category_name":"上海菜","address":"浦东新区高荷路457号(近高桥)"},{"poiid":"B2094655D36DA0FE489A","title":"行南路莱阳路","lon":"121.58371","lat":"31.32451","category":"38","category_name":"公交车站","address":""},{"poiid":"B2094757D068A7F8469C","title":"世纪联华(外高桥店)","lon":"121.58778","lat":"31.33751","category":"118","category_name":"超级市场","address":"浦东新区夏碧路261号(近季景路)"},{"poiid":"B2094757D069ABFB4698","title":"邱波酒家","lon":"121.57414","lat":"31.32976","category":"76","category_name":"上海菜","address":"浦东新区浦东北路3066号(航津路口)"},{"poiid":"B2094757D06AA6FE4693","title":"荷兰城大酒店","lon":"121.57688","lat":"31.33703","category":"76","category_name":"上海菜","address":"浦东新区高荷路397号(近和龙路)"},{"poiid":"B2094757D06BA3FF419E","title":"小南国(正地豪生店)","lon":"121.58599","lat":"31.33588","category":"75","category_name":"浙江菜","address":"浦东新区张杨北路5658号正地豪生大酒店3-4楼"},{"poiid":"B2094655D26BA2FF499A","title":"庭安路莱阳路","lon":"121.58419","lat":"31.32451","category":"38","category_name":"公交车站","address":""},{"poiid":"B2094757DB6EA5F44098","title":"高行绿洲五期","lon":"121.589532","lat":"31.327998","category":"47","category_name":"住宅区","address":"上海浦东庭安路825弄"},{"poiid":"B2094654D568AAFC419C","title":"高行园区大厦","lon":"121.58248","lat":"31.31948","category":"46","category_name":"楼宇","address":"莱阳路2819"},{"poiid":"B2094757D468A5FE409A","title":"肯德基 夏碧路店 KFC","lon":"121.584662054","lat":"31.335783793","category":"68","category_name":"快餐厅","address":"浦东新区夏碧路世纪联华门口(近张扬北路)"},{"poiid":"B2094655D26BA2F5499A","title":"浦东北路行南路","lon":"121.57785","lat":"31.32209","category":"38","category_name":"公交车站","address":"上海市浦东新区浦东北路997号(近东塘路)"},{"poiid":"B2094654D46AAAFD4798","title":"天港大酒店","lon":"121.58488536562","lat":"31.335918727912","category":"76","category_name":"上海菜","address":"浦东新区夏碧路398号(近张杨北路)"},{"poiid":"B2094757D16EA0FD429F","title":"高行绿州一期","lon":"121.59118454","lat":"31.330163071","category":"47","category_name":"住宅区","address":"上海浦东新区白萱路99弄"},{"poiid":"B2094757D568A1FD4298","title":"KOMAI SU","lon":"121.582","lat":"31.322231","category":"248","category_name":"生活娱乐","address":"中国上海市浦东新区"},{"poiid":"B2094757D06AA0FE439A","title":"中冶尚城","lon":"121.59292","lat":"31.320593","category":"47","category_name":"住宅区","address":"浦东新区启帆路309号(近张杨北路)"},{"poiid":"B2094757D16CA7F4499A","title":"上海永增汽车销售服务有限公司","lon":"121.588622","lat":"31.322196","category":"158","category_name":"汽车销售","address":"浦东新区张杨北路3839号(近衡安路)"},{"poiid":"B2094757D164A1FB499E","title":"南新东苑","lon":"121.58885233","lat":"31.327624582","category":"252","category_name":"楼宇机构","address":"上海行南路900弄"},{"poiid":"B2094757D06BA1F5489E","title":"美千居","lon":"121.58909999","lat":"31.327278234","category":"500","category_name":"未知分类","address":"上海张扬北路4001号"},{"poiid":"B2094757D168A6F94793","title":"中石化加油站(高南加油点)","lon":"121.583679199","lat":"31.3191947937","category":"154","category_name":"加油加气站","address":"浦东新区浦东北路2138号"},{"poiid":"B2094654D568AAFB4798","title":"浦东机动车检测维修中心","lon":"121.58108","lat":"31.32554","category":"159","category_name":"汽车维修","address":"行南路601"},{"poiid":"B2094654D568AAF84692","title":"上海良信电器股份有限公司","lon":"121.58169","lat":"31.31983","category":"263","category_name":"公司","address":"衡安路668号"},{"poiid":"B2094655D36DA7FD4892","title":"张杨北路行南路","lon":"121.58932","lat":"31.32492","category":"38","category_name":"公交车站","address":""},{"poiid":"B2094655D36DA7FD419E","title":"战斗村","lon":"121.57796","lat":"31.31806","category":"38","category_name":"公交车站","address":""},{"poiid":"B2094654D568AAFC4098","title":"高西自然宅","lon":"121.5765","lat":"31.32202","category":"47","category_name":"住宅区","address":""},{"poiid":"B2094654DB6BA1F9429F","title":"上海康达汽车综合检测站","lon":"121.58007","lat":"31.32523","category":"250","category_name":"公园户外","address":""},{"poiid":"B2094757D16DA3F84498","title":"浦兴别克","lon":"121.578505289","lat":"31.3279259397","category":"163","category_name":"4S店","address":"浦东新区莱阳路3166号"},{"poiid":"B2094757D164ABFC4098","title":"一阳轩精品粤菜","lon":"121.58949886","lat":"31.322332961","category":"500","category_name":"未知分类","address":"上海浦东新区张杨北路3999号"},{"poiid":"B2094655D26DA4FD4599","title":"上海海事大学附属职业技术学校","lon":"121.58778","lat":"31.33699","category":"54","category_name":"职业技术学校","address":"浦东新区季景路206号(季景路夏碧路)"},{"poiid":"B2094655D26BA2F5499B","title":"浦东北路洲海路","lon":"121.5781","lat":"31.31584","category":"38","category_name":"公交车站","address":""},{"poiid":"B2094750D76DAAF94398","title":"蜀膳传火锅传奇(秋岚路店)","lon":"121.593","lat":"31.3267","category":"86","category_name":"火锅店","address":"浦东新区秋岚路160号(近美千居家居广场)"},{"poiid":"B2094654D568AAFF4498","title":"宝莲庵","lon":"121.59643","lat":"31.32363","category":"244","category_name":"寺庙道观","address":"浦东新区井亭东沟镇解放村36号(夏家宅东侧)"},{"poiid":"B2094757D064A5F84292","title":"仁恒家园","lon":"121.59298","lat":"31.332857","category":"500","category_name":"未知分类","address":"上海市浦东新区季景路555弄"},{"poiid":"B2094654D568AAF8429C","title":"上海烟草工业印刷厂","lon":"121.58828","lat":"31.32312","category":"263","category_name":"公司","address":"张杨北路3939"},{"poiid":"B2094757D16DA3F8479B","title":"永久城市花园","lon":"121.58984","lat":"31.337259","category":"47","category_name":"住宅区","address":"上海市浦东新区夏碧路108号"},{"poiid":"B2094654D568AAF8479A","title":"上海华东建筑机械厂有限公司(衡安路)","lon":"121.58829","lat":"31.31939","category":"263","category_name":"公司","address":"上海市浦东新区衡安路1058号"},{"poiid":"B2094757DA6EA7F5429B","title":"高桥石化","lon":"121.578540999999","lat":"31.3247619999998","category":"263","category_name":"公司","address":"浦东新区浦东北路炼油厂14号门"},{"poiid":"B2094655D36DA6FF429C","title":"洲海路","lon":"121.58931","lat":"31.31291","category":"38","category_name":"公交车站","address":""},{"poiid":"B2094654D568AAF84693","title":"上海东方液压件厂","lon":"121.58576","lat":"31.31761","category":"263","category_name":"公司","address":""}]