[{"poiid":"B2094757D06FA1FE449C","title":"外高桥皇冠假日酒店","lon":"121.59126","lat":"31.33923","category":"213","category_name":"五星级宾馆","address":"浦东新区杨高北路1000号(近夏碧路)"},{"poiid":"B2094757D06FA7F4469B","title":"浦东新区外高桥保税区四号门","lon":"121.59340667","lat":"31.337265014","category":"500","category_name":"未知分类","address":"上海浦东新区外高桥保税区四号门"},{"poiid":"B2094757D06FA2FF419E","title":"航津路地铁站","lon":"121.595313","lat":"31.332977","category":"36","category_name":"地铁站","address":"上海轨道交通 六号线 轨交航津路站 6"},{"poiid":"B2094757D068A0FD4198","title":"一品全大酒店(外高桥店)","lon":"121.59096","lat":"31.33935","category":"76","category_name":"上海菜","address":"杨高北路960号(夏碧路12号)近春晖路"},{"poiid":"B2094654D46AAAFD489B","title":"味千拉面 夏碧路店","lon":"121.587551054","lat":"31.337981793","category":"95","category_name":"日本料理","address":"浦东新区夏碧路261号D-4室"},{"poiid":"B2094757D068A7F8469C","title":"世纪联华(外高桥店)","lon":"121.58778","lat":"31.33751","category":"118","category_name":"超级市场","address":"浦东新区夏碧路261号(近季景路)"},{"poiid":"B2094757D069A2F44892","title":"茶思饭想港式茶餐厅","lon":"121.59012174","lat":"31.339589207","category":"72","category_name":"广东菜","address":"浦东新区夏碧路42号(近杨高北路)"},{"poiid":"B2094654DB6AA5FB4898","title":"豪享来上海夏碧店","lon":"121.588","lat":"31.341","category":"247","category_name":"餐饮美食","address":"上海市浦东新区夏碧路118号一层"},{"poiid":"B2094750DB6AABFA439C","title":"巴国布衣","lon":"121.591506","lat":"31.338499","category":"71","category_name":"四川菜","address":"浦东新区夏碧路18号(近杨高北路)"},{"poiid":"B2094757D06AA1FF439E","title":"品尚豆捞(夏碧路店)","lon":"121.59056","lat":"31.33918","category":"86","category_name":"火锅店","address":"浦东新区夏碧路56号(皇冠假日酒店对面)"},{"poiid":"B2094757D16DA3F8479B","title":"永久城市花园","lon":"121.58984","lat":"31.337259","category":"47","category_name":"住宅区","address":"上海市浦东新区夏碧路108号"},{"poiid":"B2094655D26DA4FD4599","title":"上海海事大学附属职业技术学校","lon":"121.58778","lat":"31.33699","category":"54","category_name":"职业技术学校","address":"浦东新区季景路206号(季景路夏碧路)"},{"poiid":"B2094757D064A5F84292","title":"仁恒家园","lon":"121.59298","lat":"31.332857","category":"500","category_name":"未知分类","address":"上海市浦东新区季景路555弄"},{"poiid":"B2094654D46AAAF9429C","title":"鲁能大厦","lon":"121.59668","lat":"31.33256","category":"46","category_name":"楼宇","address":"闸北区江场西路38号(近共和新路)"},{"poiid":"B2094757D16AA4FF409B","title":"外高桥保税区红酒展示中心","lon":"121.594524139","lat":"31.3361780798","category":"500","category_name":"未知分类","address":"上海富特北路460号"},{"poiid":"B2094757D168A0FD4192","title":"小湘南","lon":"121.59430683","lat":"31.335634267","category":"500","category_name":"未知分类","address":"浦东新区高桥镇夏碧路92号(近杨高中路)"},{"poiid":"B2094757D064AAFD419A","title":"博士蛙大厦","lon":"121.59855958","lat":"31.333674722","category":"252","category_name":"楼宇机构","address":"上海浦东新区外高桥保税区泰谷路78号"},{"poiid":"B2094757D16EA0FD429F","title":"高行绿州一期","lon":"121.59118454","lat":"31.330163071","category":"47","category_name":"住宅区","address":"上海浦东新区白萱路99弄"},{"poiid":"B2094654DB64A5FF459D","title":"中国国际商品中心","lon":"121.60033","lat":"31.33562","category":"46","category_name":"楼宇","address":"富特北路456"},{"poiid":"B2094654DB64A4F9449F","title":"西域大厦","lon":"121.59553","lat":"31.33471","category":"46","category_name":"楼宇","address":"浦东新区外高桥保税区美盛路1号"},{"poiid":"B2094757D464AAF9439F","title":"四海游龙 夏碧路店 OVERSEAS DRAGON","lon":"121.588658054","lat":"31.338423793","category":"68","category_name":"快餐厅","address":"浦东新区夏碧路108号(季景路口)"},{"poiid":"B2094654D46AAAFA4598","title":"汤臣工业园区","lon":"121.59449","lat":"31.33674","category":"45","category_name":"产业园区","address":"富特西一路381"},{"poiid":"B2094654D46AAAF9489F","title":"上海外高桥汽车交易市场","lon":"121.59517","lat":"31.33546","category":"158","category_name":"汽车销售","address":"浦东新区富特西一路459号"},{"poiid":"B2094655D26AA0FA449E","title":"地铁航津路站","lon":"121.59538","lat":"31.33302","category":"36","category_name":"地铁站","address":""},{"poiid":"B2094757D06AA7FF4192","title":"多利川菜馆 夏碧路店","lon":"121.591094054","lat":"31.340224793","category":"71","category_name":"四川菜","address":"浦东新区夏碧路22号(近杨高北路)"},{"poiid":"B2094654DB6AA5FB489B","title":"汉庭快捷(外高桥店)","lon":"121.5881","lat":"31.33865","category":"216","category_name":"经济型连锁酒店","address":"浦东新区外高桥保税区夏碧路118号(季景路夏碧路)"},{"poiid":"B2094654D46AAAFD499E","title":"瑞禾明苑","lon":"121.5898","lat":"31.33837","category":"47","category_name":"住宅区","address":"浦东华夏三路85弄"},{"poiid":"B2094654DB69A4F8449B","title":"星巴克咖啡(外高桥店)","lon":"121.59409","lat":"31.34077","category":"65","category_name":"咖啡厅","address":"浦东新区外高桥保税区加枫路24号"},{"poiid":"B2094757D469A4FD4993","title":"泰奇 夏碧路店 touch bread","lon":"121.591166054","lat":"31.339706793","category":"112","category_name":"糕饼店","address":"浦东新区夏碧路83号(皇冠假日酒店)"},{"poiid":"B2094757D064A4FB4399","title":"阳明花园广场","lon":"121.59210733","lat":"31.336579789","category":"500","category_name":"未知分类","address":"上海市浦东新区秋霞路"},{"poiid":"B2094757D064A2FE4392","title":"有间饭店","lon":"121.58894","lat":"31.33847","category":"76","category_name":"上海菜","address":"浦东新区夏碧路100号(季景路夏碧路)"},{"poiid":"B2094655D26FA6FB469D","title":"中航材大厦","lon":"121.59719","lat":"31.33545","category":"46","category_name":"楼宇","address":"美盛路55"},{"poiid":"B2094757D16BABFC419B","title":"可的便利(日京路店)","lon":"121.59458643","lat":"31.336129978","category":"249","category_name":"购物服务","address":"上海市外高桥保税区日京路(近福特西一路)"},{"poiid":"B2094757D065A6FC469A","title":"一品粥坊","lon":"121.589242339","lat":"31.3388023402","category":"68","category_name":"快餐厅","address":"浦东新区夏碧路82号"},{"poiid":"B2094655D36CA7FB449C","title":"海关","lon":"121.59248","lat":"31.33825","category":"38","category_name":"公交车站","address":""},{"poiid":"B2094757D16CA5F9419D","title":"欣源大酒店","lon":"121.58924102","lat":"31.332281112","category":"76","category_name":"上海菜","address":"浦东新区夏碧路360号(近季景路)"},{"poiid":"B2094655D268ABFA419C","title":"艺海龙廷","lon":"121.59148401138","lat":"31.340136836684","category":"76","category_name":"上海菜","address":"浦东新区夏碧路8号(夏碧路张杨北路)"},{"poiid":"B2094757D16DA7FA469D","title":"富特三村","lon":"121.594","lat":"31.3406","category":"252","category_name":"楼宇机构","address":"上海秋霞路300弄"},{"poiid":"B2094654D46AAAFC4592","title":"富特四村","lon":"121.58759","lat":"31.339588","category":"47","category_name":"住宅区","address":"季景路19弄3-78号"},{"poiid":"B2094757D164ABFA479E","title":"汤臣工业园区管理楼","lon":"121.598039","lat":"31.338662","category":"46","category_name":"楼宇","address":"上海市浦东新区富特北路358号"},{"poiid":"B2094655D36DA1F4449E","title":"夏碧路季景路","lon":"121.58805","lat":"31.33851","category":"38","category_name":"公交车站","address":""},{"poiid":"B2094655D265A5FC499D","title":"珍鼎餐饮","lon":"121.601876054","lat":"31.335308793","category":"68","category_name":"快餐厅","address":"浦东新区富特北路458号2楼(近美盛路)"},{"poiid":"B2094757D16DA1F4429E","title":"尝尝香约食府","lon":"121.5909","lat":"31.33932","category":"74","category_name":"江苏菜","address":"浦东新区夏碧路18号(近杨高北路)"},{"poiid":"B2094654D46AAAF9419A","title":"国联工业大厦","lon":"121.60023","lat":"31.33754","category":"46","category_name":"楼宇","address":"上海市浦东新区外高桥保税区美盛路168号"},{"poiid":"B2094757D168A3FF4998","title":"上海畅联国际物流有限公司","lon":"121.593800339","lat":"31.341354899","category":"263","category_name":"公司","address":"上海市外高桥保税区日京路68号"},{"poiid":"B2094757D16BA4FD459F","title":"外高桥车管所","lon":"121.593406","lat":"31.337265","category":"500","category_name":"未知分类","address":"上海市浦东新区外高桥4号门"},{"poiid":"B2094757D065A0FF4898","title":"中国建设银行外高桥保税区支行","lon":"121.595938","lat":"31.341652","category":"500","category_name":"未知分类","address":"上海外高桥保税区富特北路258号日京路口"},{"poiid":"B2094757D56EA5F5459B","title":"航津路站2号口(地铁6号线)","lon":"121.593946","lat":"31.334986","category":"251","category_name":"出行住宿","address":"中国上海市浦东新区杨高北路"},{"poiid":"B2094757D06FA2FB4493","title":"日立建机(上海)有限公司","lon":"121.59908733","lat":"31.333731723","category":"263","category_name":"公司","address":"上海市外高桥保税区泰谷路65号"},{"poiid":"B2094654D46AAAFB489C","title":"国际商品广场","lon":"121.59171","lat":"31.34084","category":"119","category_name":"商场","address":"上海浦东新区外高桥保税区4号门内(近杨高北路)  "},{"poiid":"B2094757D06FA1FE449C","title":"外高桥皇冠假日酒店","lon":"121.59126","lat":"31.33923","category":"213","category_name":"五星级宾馆","address":"浦东新区杨高北路1000号(近夏碧路)"},{"poiid":"B2094757D06FA7F4469B","title":"浦东新区外高桥保税区四号门","lon":"121.59340667","lat":"31.337265014","category":"500","category_name":"未知分类","address":"上海浦东新区外高桥保税区四号门"},{"poiid":"B2094757D06FA2FF419E","title":"航津路地铁站","lon":"121.595313","lat":"31.332977","category":"36","category_name":"地铁站","address":"上海轨道交通 六号线 轨交航津路站 6"},{"poiid":"B2094757D068A0FD4198","title":"一品全大酒店(外高桥店)","lon":"121.59096","lat":"31.33935","category":"76","category_name":"上海菜","address":"杨高北路960号(夏碧路12号)近春晖路"},{"poiid":"B2094654D46AAAFD489B","title":"味千拉面 夏碧路店","lon":"121.587551054","lat":"31.337981793","category":"95","category_name":"日本料理","address":"浦东新区夏碧路261号D-4室"},{"poiid":"B2094757D068A7F8469C","title":"世纪联华(外高桥店)","lon":"121.58778","lat":"31.33751","category":"118","category_name":"超级市场","address":"浦东新区夏碧路261号(近季景路)"},{"poiid":"B2094757D069A2F44892","title":"茶思饭想港式茶餐厅","lon":"121.59012174","lat":"31.339589207","category":"72","category_name":"广东菜","address":"浦东新区夏碧路42号(近杨高北路)"},{"poiid":"B2094654DB6AA5FB4898","title":"豪享来上海夏碧店","lon":"121.588","lat":"31.341","category":"247","category_name":"餐饮美食","address":"上海市浦东新区夏碧路118号一层"},{"poiid":"B2094750DB6AABFA439C","title":"巴国布衣","lon":"121.591506","lat":"31.338499","category":"71","category_name":"四川菜","address":"浦东新区夏碧路18号(近杨高北路)"},{"poiid":"B2094757D06AA1FF439E","title":"品尚豆捞(夏碧路店)","lon":"121.59056","lat":"31.33918","category":"86","category_name":"火锅店","address":"浦东新区夏碧路56号(皇冠假日酒店对面)"},{"poiid":"B2094757D16DA3F8479B","title":"永久城市花园","lon":"121.58984","lat":"31.337259","category":"47","category_name":"住宅区","address":"上海市浦东新区夏碧路108号"},{"poiid":"B2094655D26DA4FD4599","title":"上海海事大学附属职业技术学校","lon":"121.58778","lat":"31.33699","category":"54","category_name":"职业技术学校","address":"浦东新区季景路206号(季景路夏碧路)"},{"poiid":"B2094757D064A5F84292","title":"仁恒家园","lon":"121.59298","lat":"31.332857","category":"500","category_name":"未知分类","address":"上海市浦东新区季景路555弄"},{"poiid":"B2094654D46AAAF9429C","title":"鲁能大厦","lon":"121.59668","lat":"31.33256","category":"46","category_name":"楼宇","address":"闸北区江场西路38号(近共和新路)"},{"poiid":"B2094757D16AA4FF409B","title":"外高桥保税区红酒展示中心","lon":"121.594524139","lat":"31.3361780798","category":"500","category_name":"未知分类","address":"上海富特北路460号"},{"poiid":"B2094757D168A0FD4192","title":"小湘南","lon":"121.59430683","lat":"31.335634267","category":"500","category_name":"未知分类","address":"浦东新区高桥镇夏碧路92号(近杨高中路)"},{"poiid":"B2094757D064AAFD419A","title":"博士蛙大厦","lon":"121.59855958","lat":"31.333674722","category":"252","category_name":"楼宇机构","address":"上海浦东新区外高桥保税区泰谷路78号"},{"poiid":"B2094757D16EA0FD429F","title":"高行绿州一期","lon":"121.59118454","lat":"31.330163071","category":"47","category_name":"住宅区","address":"上海浦东新区白萱路99弄"},{"poiid":"B2094654DB64A5FF459D","title":"中国国际商品中心","lon":"121.60033","lat":"31.33562","category":"46","category_name":"楼宇","address":"富特北路456"},{"poiid":"B2094654DB64A4F9449F","title":"西域大厦","lon":"121.59553","lat":"31.33471","category":"46","category_name":"楼宇","address":"浦东新区外高桥保税区美盛路1号"},{"poiid":"B2094757D464AAF9439F","title":"四海游龙 夏碧路店 OVERSEAS DRAGON","lon":"121.588658054","lat":"31.338423793","category":"68","category_name":"快餐厅","address":"浦东新区夏碧路108号(季景路口)"},{"poiid":"B2094654D46AAAFA4598","title":"汤臣工业园区","lon":"121.59449","lat":"31.33674","category":"45","category_name":"产业园区","address":"富特西一路381"},{"poiid":"B2094654D46AAAF9489F","title":"上海外高桥汽车交易市场","lon":"121.59517","lat":"31.33546","category":"158","category_name":"汽车销售","address":"浦东新区富特西一路459号"},{"poiid":"B2094655D26AA0FA449E","title":"地铁航津路站","lon":"121.59538","lat":"31.33302","category":"36","category_name":"地铁站","address":""},{"poiid":"B2094757D06AA7FF4192","title":"多利川菜馆 夏碧路店","lon":"121.591094054","lat":"31.340224793","category":"71","category_name":"四川菜","address":"浦东新区夏碧路22号(近杨高北路)"},{"poiid":"B2094654DB6AA5FB489B","title":"汉庭快捷(外高桥店)","lon":"121.5881","lat":"31.33865","category":"216","category_name":"经济型连锁酒店","address":"浦东新区外高桥保税区夏碧路118号(季景路夏碧路)"},{"poiid":"B2094654D46AAAFD499E","title":"瑞禾明苑","lon":"121.5898","lat":"31.33837","category":"47","category_name":"住宅区","address":"浦东华夏三路85弄"},{"poiid":"B2094654DB69A4F8449B","title":"星巴克咖啡(外高桥店)","lon":"121.59409","lat":"31.34077","category":"65","category_name":"咖啡厅","address":"浦东新区外高桥保税区加枫路24号"},{"poiid":"B2094757D469A4FD4993","title":"泰奇 夏碧路店 touch bread","lon":"121.591166054","lat":"31.339706793","category":"112","category_name":"糕饼店","address":"浦东新区夏碧路83号(皇冠假日酒店)"},{"poiid":"B2094757D064A4FB4399","title":"阳明花园广场","lon":"121.59210733","lat":"31.336579789","category":"500","category_name":"未知分类","address":"上海市浦东新区秋霞路"},{"poiid":"B2094757D064A2FE4392","title":"有间饭店","lon":"121.58894","lat":"31.33847","category":"76","category_name":"上海菜","address":"浦东新区夏碧路100号(季景路夏碧路)"},{"poiid":"B2094655D26FA6FB469D","title":"中航材大厦","lon":"121.59719","lat":"31.33545","category":"46","category_name":"楼宇","address":"美盛路55"},{"poiid":"B2094757D16BABFC419B","title":"可的便利(日京路店)","lon":"121.59458643","lat":"31.336129978","category":"249","category_name":"购物服务","address":"上海市外高桥保税区日京路(近福特西一路)"},{"poiid":"B2094757D065A6FC469A","title":"一品粥坊","lon":"121.589242339","lat":"31.3388023402","category":"68","category_name":"快餐厅","address":"浦东新区夏碧路82号"},{"poiid":"B2094655D36CA7FB449C","title":"海关","lon":"121.59248","lat":"31.33825","category":"38","category_name":"公交车站","address":""},{"poiid":"B2094757D16CA5F9419D","title":"欣源大酒店","lon":"121.58924102","lat":"31.332281112","category":"76","category_name":"上海菜","address":"浦东新区夏碧路360号(近季景路)"},{"poiid":"B2094655D268ABFA419C","title":"艺海龙廷","lon":"121.59148401138","lat":"31.340136836684","category":"76","category_name":"上海菜","address":"浦东新区夏碧路8号(夏碧路张杨北路)"},{"poiid":"B2094757D16DA7FA469D","title":"富特三村","lon":"121.594","lat":"31.3406","category":"252","category_name":"楼宇机构","address":"上海秋霞路300弄"},{"poiid":"B2094654D46AAAFC4592","title":"富特四村","lon":"121.58759","lat":"31.339588","category":"47","category_name":"住宅区","address":"季景路19弄3-78号"},{"poiid":"B2094757D164ABFA479E","title":"汤臣工业园区管理楼","lon":"121.598039","lat":"31.338662","category":"46","category_name":"楼宇","address":"上海市浦东新区富特北路358号"},{"poiid":"B2094655D36DA1F4449E","title":"夏碧路季景路","lon":"121.58805","lat":"31.33851","category":"38","category_name":"公交车站","address":""},{"poiid":"B2094655D265A5FC499D","title":"珍鼎餐饮","lon":"121.601876054","lat":"31.335308793","category":"68","category_name":"快餐厅","address":"浦东新区富特北路458号2楼(近美盛路)"},{"poiid":"B2094757D16DA1F4429E","title":"尝尝香约食府","lon":"121.5909","lat":"31.33932","category":"74","category_name":"江苏菜","address":"浦东新区夏碧路18号(近杨高北路)"},{"poiid":"B2094654D46AAAF9419A","title":"国联工业大厦","lon":"121.60023","lat":"31.33754","category":"46","category_name":"楼宇","address":"上海市浦东新区外高桥保税区美盛路168号"},{"poiid":"B2094757D168A3FF4998","title":"上海畅联国际物流有限公司","lon":"121.593800339","lat":"31.341354899","category":"263","category_name":"公司","address":"上海市外高桥保税区日京路68号"},{"poiid":"B2094757D16BA4FD459F","title":"外高桥车管所","lon":"121.593406","lat":"31.337265","category":"500","category_name":"未知分类","address":"上海市浦东新区外高桥4号门"},{"poiid":"B2094757D065A0FF4898","title":"中国建设银行外高桥保税区支行","lon":"121.595938","lat":"31.341652","category":"500","category_name":"未知分类","address":"上海外高桥保税区富特北路258号日京路口"},{"poiid":"B2094757D56EA5F5459B","title":"航津路站2号口(地铁6号线)","lon":"121.593946","lat":"31.334986","category":"251","category_name":"出行住宿","address":"中国上海市浦东新区杨高北路"},{"poiid":"B2094757D06FA2FB4493","title":"日立建机(上海)有限公司","lon":"121.59908733","lat":"31.333731723","category":"263","category_name":"公司","address":"上海市外高桥保税区泰谷路65号"},{"poiid":"B2094654D46AAAFB489C","title":"国际商品广场","lon":"121.59171","lat":"31.34084","category":"119","category_name":"商场","address":"上海浦东新区外高桥保税区4号门内(近杨高北路)  "},{"poiid":"B2094757D06FA1FE449C","title":"外高桥皇冠假日酒店","lon":"121.59126","lat":"31.33923","category":"213","category_name":"五星级宾馆","address":"浦东新区杨高北路1000号(近夏碧路)"},{"poiid":"B2094757D06FA7F4469B","title":"浦东新区外高桥保税区四号门","lon":"121.59340667","lat":"31.337265014","category":"500","category_name":"未知分类","address":"上海浦东新区外高桥保税区四号门"},{"poiid":"B2094757D06FA2FF419E","title":"航津路地铁站","lon":"121.595313","lat":"31.332977","category":"36","category_name":"地铁站","address":"上海轨道交通 六号线 轨交航津路站 6"},{"poiid":"B2094757D068A0FD4198","title":"一品全大酒店(外高桥店)","lon":"121.59096","lat":"31.33935","category":"76","category_name":"上海菜","address":"杨高北路960号(夏碧路12号)近春晖路"},{"poiid":"B2094654D46AAAFD489B","title":"味千拉面 夏碧路店","lon":"121.587551054","lat":"31.337981793","category":"95","category_name":"日本料理","address":"浦东新区夏碧路261号D-4室"},{"poiid":"B2094757D068A7F8469C","title":"世纪联华(外高桥店)","lon":"121.58778","lat":"31.33751","category":"118","category_name":"超级市场","address":"浦东新区夏碧路261号(近季景路)"},{"poiid":"B2094757D069A2F44892","title":"茶思饭想港式茶餐厅","lon":"121.59012174","lat":"31.339589207","category":"72","category_name":"广东菜","address":"浦东新区夏碧路42号(近杨高北路)"},{"poiid":"B2094654DB6AA5FB4898","title":"豪享来上海夏碧店","lon":"121.588","lat":"31.341","category":"247","category_name":"餐饮美食","address":"上海市浦东新区夏碧路118号一层"},{"poiid":"B2094750DB6AABFA439C","title":"巴国布衣","lon":"121.591506","lat":"31.338499","category":"71","category_name":"四川菜","address":"浦东新区夏碧路18号(近杨高北路)"},{"poiid":"B2094757D06AA1FF439E","title":"品尚豆捞(夏碧路店)","lon":"121.59056","lat":"31.33918","category":"86","category_name":"火锅店","address":"浦东新区夏碧路56号(皇冠假日酒店对面)"},{"poiid":"B2094757D16DA3F8479B","title":"永久城市花园","lon":"121.58984","lat":"31.337259","category":"47","category_name":"住宅区","address":"上海市浦东新区夏碧路108号"},{"poiid":"B2094655D26DA4FD4599","title":"上海海事大学附属职业技术学校","lon":"121.58778","lat":"31.33699","category":"54","category_name":"职业技术学校","address":"浦东新区季景路206号(季景路夏碧路)"},{"poiid":"B2094757D064A5F84292","title":"仁恒家园","lon":"121.59298","lat":"31.332857","category":"500","category_name":"未知分类","address":"上海市浦东新区季景路555弄"},{"poiid":"B2094654D46AAAF9429C","title":"鲁能大厦","lon":"121.59668","lat":"31.33256","category":"46","category_name":"楼宇","address":"闸北区江场西路38号(近共和新路)"},{"poiid":"B2094757D16AA4FF409B","title":"外高桥保税区红酒展示中心","lon":"121.594524139","lat":"31.3361780798","category":"500","category_name":"未知分类","address":"上海富特北路460号"},{"poiid":"B2094757D168A0FD4192","title":"小湘南","lon":"121.59430683","lat":"31.335634267","category":"500","category_name":"未知分类","address":"浦东新区高桥镇夏碧路92号(近杨高中路)"},{"poiid":"B2094757D064AAFD419A","title":"博士蛙大厦","lon":"121.59855958","lat":"31.333674722","category":"252","category_name":"楼宇机构","address":"上海浦东新区外高桥保税区泰谷路78号"},{"poiid":"B2094757D16EA0FD429F","title":"高行绿州一期","lon":"121.59118454","lat":"31.330163071","category":"47","category_name":"住宅区","address":"上海浦东新区白萱路99弄"},{"poiid":"B2094654DB64A5FF459D","title":"中国国际商品中心","lon":"121.60033","lat":"31.33562","category":"46","category_name":"楼宇","address":"富特北路456"},{"poiid":"B2094654DB64A4F9449F","title":"西域大厦","lon":"121.59553","lat":"31.33471","category":"46","category_name":"楼宇","address":"浦东新区外高桥保税区美盛路1号"},{"poiid":"B2094757D464AAF9439F","title":"四海游龙 夏碧路店 OVERSEAS DRAGON","lon":"121.588658054","lat":"31.338423793","category":"68","category_name":"快餐厅","address":"浦东新区夏碧路108号(季景路口)"},{"poiid":"B2094654D46AAAFA4598","title":"汤臣工业园区","lon":"121.59449","lat":"31.33674","category":"45","category_name":"产业园区","address":"富特西一路381"},{"poiid":"B2094654D46AAAF9489F","title":"上海外高桥汽车交易市场","lon":"121.59517","lat":"31.33546","category":"158","category_name":"汽车销售","address":"浦东新区富特西一路459号"},{"poiid":"B2094655D26AA0FA449E","title":"地铁航津路站","lon":"121.59538","lat":"31.33302","category":"36","category_name":"地铁站","address":""},{"poiid":"B2094757D06AA7FF4192","title":"多利川菜馆 夏碧路店","lon":"121.591094054","lat":"31.340224793","category":"71","category_name":"四川菜","address":"浦东新区夏碧路22号(近杨高北路)"},{"poiid":"B2094654DB6AA5FB489B","title":"汉庭快捷(外高桥店)","lon":"121.5881","lat":"31.33865","category":"216","category_name":"经济型连锁酒店","address":"浦东新区外高桥保税区夏碧路118号(季景路夏碧路)"},{"poiid":"B2094654D46AAAFD499E","title":"瑞禾明苑","lon":"121.5898","lat":"31.33837","category":"47","category_name":"住宅区","address":"浦东华夏三路85弄"},{"poiid":"B2094654DB69A4F8449B","title":"星巴克咖啡(外高桥店)","lon":"121.59409","lat":"31.34077","category":"65","category_name":"咖啡厅","address":"浦东新区外高桥保税区加枫路24号"},{"poiid":"B2094757D469A4FD4993","title":"泰奇 夏碧路店 touch bread","lon":"121.591166054","lat":"31.339706793","category":"112","category_name":"糕饼店","address":"浦东新区夏碧路83号(皇冠假日酒店)"},{"poiid":"B2094757D064A4FB4399","title":"阳明花园广场","lon":"121.59210733","lat":"31.336579789","category":"500","category_name":"未知分类","address":"上海市浦东新区秋霞路"},{"poiid":"B2094757D064A2FE4392","title":"有间饭店","lon":"121.58894","lat":"31.33847","category":"76","category_name":"上海菜","address":"浦东新区夏碧路100号(季景路夏碧路)"},{"poiid":"B2094655D26FA6FB469D","title":"中航材大厦","lon":"121.59719","lat":"31.33545","category":"46","category_name":"楼宇","address":"美盛路55"},{"poiid":"B2094757D16BABFC419B","title":"可的便利(日京路店)","lon":"121.59458643","lat":"31.336129978","category":"249","category_name":"购物服务","address":"上海市外高桥保税区日京路(近福特西一路)"},{"poiid":"B2094757D065A6FC469A","title":"一品粥坊","lon":"121.589242339","lat":"31.3388023402","category":"68","category_name":"快餐厅","address":"浦东新区夏碧路82号"},{"poiid":"B2094655D36CA7FB449C","title":"海关","lon":"121.59248","lat":"31.33825","category":"38","category_name":"公交车站","address":""},{"poiid":"B2094757D16CA5F9419D","title":"欣源大酒店","lon":"121.58924102","lat":"31.332281112","category":"76","category_name":"上海菜","address":"浦东新区夏碧路360号(近季景路)"},{"poiid":"B2094655D268ABFA419C","title":"艺海龙廷","lon":"121.59148401138","lat":"31.340136836684","category":"76","category_name":"上海菜","address":"浦东新区夏碧路8号(夏碧路张杨北路)"},{"poiid":"B2094757D16DA7FA469D","title":"富特三村","lon":"121.594","lat":"31.3406","category":"252","category_name":"楼宇机构","address":"上海秋霞路300弄"},{"poiid":"B2094654D46AAAFC4592","title":"富特四村","lon":"121.58759","lat":"31.339588","category":"47","category_name":"住宅区","address":"季景路19弄3-78号"},{"poiid":"B2094757D164ABFA479E","title":"汤臣工业园区管理楼","lon":"121.598039","lat":"31.338662","category":"46","category_name":"楼宇","address":"上海市浦东新区富特北路358号"},{"poiid":"B2094655D36DA1F4449E","title":"夏碧路季景路","lon":"121.58805","lat":"31.33851","category":"38","category_name":"公交车站","address":""},{"poiid":"B2094655D265A5FC499D","title":"珍鼎餐饮","lon":"121.601876054","lat":"31.335308793","category":"68","category_name":"快餐厅","address":"浦东新区富特北路458号2楼(近美盛路)"},{"poiid":"B2094757D16DA1F4429E","title":"尝尝香约食府","lon":"121.5909","lat":"31.33932","category":"74","category_name":"江苏菜","address":"浦东新区夏碧路18号(近杨高北路)"},{"poiid":"B2094654D46AAAF9419A","title":"国联工业大厦","lon":"121.60023","lat":"31.33754","category":"46","category_name":"楼宇","address":"上海市浦东新区外高桥保税区美盛路168号"},{"poiid":"B2094757D168A3FF4998","title":"上海畅联国际物流有限公司","lon":"121.593800339","lat":"31.341354899","category":"263","category_name":"公司","address":"上海市外高桥保税区日京路68号"},{"poiid":"B2094757D16BA4FD459F","title":"外高桥车管所","lon":"121.593406","lat":"31.337265","category":"500","category_name":"未知分类","address":"上海市浦东新区外高桥4号门"},{"poiid":"B2094757D065A0FF4898","title":"中国建设银行外高桥保税区支行","lon":"121.595938","lat":"31.341652","category":"500","category_name":"未知分类","address":"上海外高桥保税区富特北路258号日京路口"},{"poiid":"B2094757D56EA5F5459B","title":"航津路站2号口(地铁6号线)","lon":"121.593946","lat":"31.334986","category":"251","category_name":"出行住宿","address":"中国上海市浦东新区杨高北路"},{"poiid":"B2094757D06FA2FB4493","title":"日立建机(上海)有限公司","lon":"121.59908733","lat":"31.333731723","category":"263","category_name":"公司","address":"上海市外高桥保税区泰谷路65号"},{"poiid":"B2094654D46AAAFB489C","title":"国际商品广场","lon":"121.59171","lat":"31.34084","category":"119","category_name":"商场","address":"上海浦东新区外高桥保税区4号门内(近杨高北路)  "},{"poiid":"B2094757D06FA1FE449C","title":"外高桥皇冠假日酒店","lon":"121.59126","lat":"31.33923","category":"213","category_name":"五星级宾馆","address":"浦东新区杨高北路1000号(近夏碧路)"},{"poiid":"B2094757D06FA7F4469B","title":"浦东新区外高桥保税区四号门","lon":"121.59340667","lat":"31.337265014","category":"500","category_name":"未知分类","address":"上海浦东新区外高桥保税区四号门"},{"poiid":"B2094757D06FA2FF419E","title":"航津路地铁站","lon":"121.595313","lat":"31.332977","category":"36","category_name":"地铁站","address":"上海轨道交通 六号线 轨交航津路站 6"},{"poiid":"B2094757D068A0FD4198","title":"一品全大酒店(外高桥店)","lon":"121.59096","lat":"31.33935","category":"76","category_name":"上海菜","address":"杨高北路960号(夏碧路12号)近春晖路"},{"poiid":"B2094654D46AAAFD489B","title":"味千拉面 夏碧路店","lon":"121.587551054","lat":"31.337981793","category":"95","category_name":"日本料理","address":"浦东新区夏碧路261号D-4室"},{"poiid":"B2094757D068A7F8469C","title":"世纪联华(外高桥店)","lon":"121.58778","lat":"31.33751","category":"118","category_name":"超级市场","address":"浦东新区夏碧路261号(近季景路)"},{"poiid":"B2094757D069A2F44892","title":"茶思饭想港式茶餐厅","lon":"121.59012174","lat":"31.339589207","category":"72","category_name":"广东菜","address":"浦东新区夏碧路42号(近杨高北路)"},{"poiid":"B2094654DB6AA5FB4898","title":"豪享来上海夏碧店","lon":"121.588","lat":"31.341","category":"247","category_name":"餐饮美食","address":"上海市浦东新区夏碧路118号一层"},{"poiid":"B2094750DB6AABFA439C","title":"巴国布衣","lon":"121.591506","lat":"31.338499","category":"71","category_name":"四川菜","address":"浦东新区夏碧路18号(近杨高北路)"},{"poiid":"B2094757D06AA1FF439E","title":"品尚豆捞(夏碧路店)","lon":"121.59056","lat":"31.33918","category":"86","category_name":"火锅店","address":"浦东新区夏碧路56号(皇冠假日酒店对面)"},{"poiid":"B2094757D16DA3F8479B","title":"永久城市花园","lon":"121.58984","lat":"31.337259","category":"47","category_name":"住宅区","address":"上海市浦东新区夏碧路108号"},{"poiid":"B2094655D26DA4FD4599","title":"上海海事大学附属职业技术学校","lon":"121.58778","lat":"31.33699","category":"54","category_name":"职业技术学校","address":"浦东新区季景路206号(季景路夏碧路)"},{"poiid":"B2094757D064A5F84292","title":"仁恒家园","lon":"121.59298","lat":"31.332857","category":"500","category_name":"未知分类","address":"上海市浦东新区季景路555弄"},{"poiid":"B2094654D46AAAF9429C","title":"鲁能大厦","lon":"121.59668","lat":"31.33256","category":"46","category_name":"楼宇","address":"闸北区江场西路38号(近共和新路)"},{"poiid":"B2094757D16AA4FF409B","title":"外高桥保税区红酒展示中心","lon":"121.594524139","lat":"31.3361780798","category":"500","category_name":"未知分类","address":"上海富特北路460号"},{"poiid":"B2094757D168A0FD4192","title":"小湘南","lon":"121.59430683","lat":"31.335634267","category":"500","category_name":"未知分类","address":"浦东新区高桥镇夏碧路92号(近杨高中路)"},{"poiid":"B2094757D064AAFD419A","title":"博士蛙大厦","lon":"121.59855958","lat":"31.333674722","category":"252","category_name":"楼宇机构","address":"上海浦东新区外高桥保税区泰谷路78号"},{"poiid":"B2094757D16EA0FD429F","title":"高行绿州一期","lon":"121.59118454","lat":"31.330163071","category":"47","category_name":"住宅区","address":"上海浦东新区白萱路99弄"},{"poiid":"B2094654DB64A5FF459D","title":"中国国际商品中心","lon":"121.60033","lat":"31.33562","category":"46","category_name":"楼宇","address":"富特北路456"},{"poiid":"B2094654DB64A4F9449F","title":"西域大厦","lon":"121.59553","lat":"31.33471","category":"46","category_name":"楼宇","address":"浦东新区外高桥保税区美盛路1号"},{"poiid":"B2094757D464AAF9439F","title":"四海游龙 夏碧路店 OVERSEAS DRAGON","lon":"121.588658054","lat":"31.338423793","category":"68","category_name":"快餐厅","address":"浦东新区夏碧路108号(季景路口)"},{"poiid":"B2094654D46AAAFA4598","title":"汤臣工业园区","lon":"121.59449","lat":"31.33674","category":"45","category_name":"产业园区","address":"富特西一路381"},{"poiid":"B2094654D46AAAF9489F","title":"上海外高桥汽车交易市场","lon":"121.59517","lat":"31.33546","category":"158","category_name":"汽车销售","address":"浦东新区富特西一路459号"},{"poiid":"B2094655D26AA0FA449E","title":"地铁航津路站","lon":"121.59538","lat":"31.33302","category":"36","category_name":"地铁站","address":""},{"poiid":"B2094757D06AA7FF4192","title":"多利川菜馆 夏碧路店","lon":"121.591094054","lat":"31.340224793","category":"71","category_name":"四川菜","address":"浦东新区夏碧路22号(近杨高北路)"},{"poiid":"B2094654DB6AA5FB489B","title":"汉庭快捷(外高桥店)","lon":"121.5881","lat":"31.33865","category":"216","category_name":"经济型连锁酒店","address":"浦东新区外高桥保税区夏碧路118号(季景路夏碧路)"},{"poiid":"B2094654D46AAAFD499E","title":"瑞禾明苑","lon":"121.5898","lat":"31.33837","category":"47","category_name":"住宅区","address":"浦东华夏三路85弄"},{"poiid":"B2094654DB69A4F8449B","title":"星巴克咖啡(外高桥店)","lon":"121.59409","lat":"31.34077","category":"65","category_name":"咖啡厅","address":"浦东新区外高桥保税区加枫路24号"},{"poiid":"B2094757D469A4FD4993","title":"泰奇 夏碧路店 touch bread","lon":"121.591166054","lat":"31.339706793","category":"112","category_name":"糕饼店","address":"浦东新区夏碧路83号(皇冠假日酒店)"},{"poiid":"B2094757D064A4FB4399","title":"阳明花园广场","lon":"121.59210733","lat":"31.336579789","category":"500","category_name":"未知分类","address":"上海市浦东新区秋霞路"},{"poiid":"B2094757D064A2FE4392","title":"有间饭店","lon":"121.58894","lat":"31.33847","category":"76","category_name":"上海菜","address":"浦东新区夏碧路100号(季景路夏碧路)"},{"poiid":"B2094655D26FA6FB469D","title":"中航材大厦","lon":"121.59719","lat":"31.33545","category":"46","category_name":"楼宇","address":"美盛路55"},{"poiid":"B2094757D16BABFC419B","title":"可的便利(日京路店)","lon":"121.59458643","lat":"31.336129978","category":"249","category_name":"购物服务","address":"上海市外高桥保税区日京路(近福特西一路)"},{"poiid":"B2094757D065A6FC469A","title":"一品粥坊","lon":"121.589242339","lat":"31.3388023402","category":"68","category_name":"快餐厅","address":"浦东新区夏碧路82号"},{"poiid":"B2094655D36CA7FB449C","title":"海关","lon":"121.59248","lat":"31.33825","category":"38","category_name":"公交车站","address":""},{"poiid":"B2094757D16CA5F9419D","title":"欣源大酒店","lon":"121.58924102","lat":"31.332281112","category":"76","category_name":"上海菜","address":"浦东新区夏碧路360号(近季景路)"},{"poiid":"B2094655D268ABFA419C","title":"艺海龙廷","lon":"121.59148401138","lat":"31.340136836684","category":"76","category_name":"上海菜","address":"浦东新区夏碧路8号(夏碧路张杨北路)"},{"poiid":"B2094757D16DA7FA469D","title":"富特三村","lon":"121.594","lat":"31.3406","category":"252","category_name":"楼宇机构","address":"上海秋霞路300弄"},{"poiid":"B2094654D46AAAFC4592","title":"富特四村","lon":"121.58759","lat":"31.339588","category":"47","category_name":"住宅区","address":"季景路19弄3-78号"},{"poiid":"B2094757D164ABFA479E","title":"汤臣工业园区管理楼","lon":"121.598039","lat":"31.338662","category":"46","category_name":"楼宇","address":"上海市浦东新区富特北路358号"},{"poiid":"B2094655D36DA1F4449E","title":"夏碧路季景路","lon":"121.58805","lat":"31.33851","category":"38","category_name":"公交车站","address":""},{"poiid":"B2094655D265A5FC499D","title":"珍鼎餐饮","lon":"121.601876054","lat":"31.335308793","category":"68","category_name":"快餐厅","address":"浦东新区富特北路458号2楼(近美盛路)"},{"poiid":"B2094757D16DA1F4429E","title":"尝尝香约食府","lon":"121.5909","lat":"31.33932","category":"74","category_name":"江苏菜","address":"浦东新区夏碧路18号(近杨高北路)"},{"poiid":"B2094654D46AAAF9419A","title":"国联工业大厦","lon":"121.60023","lat":"31.33754","category":"46","category_name":"楼宇","address":"上海市浦东新区外高桥保税区美盛路168号"},{"poiid":"B2094757D168A3FF4998","title":"上海畅联国际物流有限公司","lon":"121.593800339","lat":"31.341354899","category":"263","category_name":"公司","address":"上海市外高桥保税区日京路68号"},{"poiid":"B2094757D16BA4FD459F","title":"外高桥车管所","lon":"121.593406","lat":"31.337265","category":"500","category_name":"未知分类","address":"上海市浦东新区外高桥4号门"},{"poiid":"B2094757D065A0FF4898","title":"中国建设银行外高桥保税区支行","lon":"121.595938","lat":"31.341652","category":"500","category_name":"未知分类","address":"上海外高桥保税区富特北路258号日京路口"},{"poiid":"B2094757D56EA5F5459B","title":"航津路站2号口(地铁6号线)","lon":"121.593946","lat":"31.334986","category":"251","category_name":"出行住宿","address":"中国上海市浦东新区杨高北路"},{"poiid":"B2094757D06FA2FB4493","title":"日立建机(上海)有限公司","lon":"121.59908733","lat":"31.333731723","category":"263","category_name":"公司","address":"上海市外高桥保税区泰谷路65号"},{"poiid":"B2094654D46AAAFB489C","title":"国际商品广场","lon":"121.59171","lat":"31.34084","category":"119","category_name":"商场","address":"上海浦东新区外高桥保税区4号门内(近杨高北路)  "}]