[{"poiid":"B2094654DB6AA7FC489E","title":"夏朵花园","lon":"121.43787029084206","lat":"31.21163133636796","category":"47","category_name":"住宅区","address":"徐汇区复兴西路268号(近华山路)"},{"poiid":"B2094654DB65A1FF489E","title":"丁香夏朵花园","lon":"121.43792","lat":"31.21134","category":"94","category_name":"西餐厅","address":"徐汇区华山路855号近复兴西路近丁香花园"},{"poiid":"B2094655D26DA5F44298","title":"上海兴国宾馆","lon":"121.43521","lat":"31.21058","category":"213","category_name":"五星级宾馆","address":"徐汇区兴国路78号(华山路口)"},{"poiid":"B2094753D76FAAFA449C","title":"上海滩国泰旗舰店","lon":"121.466011","lat":"31.216125","category":"249","category_name":"购物服务","address":"淮海中路868号"},{"poiid":"B209475CD564A7F8439E","title":"上海滩中信泰富店","lon":"121.45602","lat":"31.22851","category":"119","category_name":"商场","address":"\"南京西路1168号中信泰富广场，店铺号221.\r\n\""},{"poiid":"B2094757D068AAFE489F","title":"复兴西路","lon":"121.443012","lat":"31.208405","category":"46","category_name":"楼宇","address":"上海永福路"},{"poiid":"B2094757D06FA7FC459F","title":"丁香花园","lon":"121.43927877","lat":"31.211933653","category":"47","category_name":"住宅区","address":"徐汇区华山路849号(近武康路)"},{"poiid":"B2094757D06FA3FB4893","title":"花马天堂云南餐厅(高邮路店)","lon":"121.43851","lat":"31.20998","category":"260","category_name":"其他","address":"徐汇区高邮路38号(近复兴西路)"},{"poiid":"B2094757D06FA2F4469A","title":"衡山小馆(延安西路店)","lon":"121.43464","lat":"31.21412","category":"72","category_name":"广东菜","address":"长宁区延安西路719号佳都大厦底楼(近江苏路)"},{"poiid":"B2094757D06FA7F9459E","title":"申粤轩","lon":"121.43964","lat":"31.21242","category":"72","category_name":"广东菜","address":"徐汇区华山路849号丁香花园内(近武康路)"},{"poiid":"B2094757D06FA2F44198","title":"Tima Harbour(镇宁店)","lon":"121.43944","lat":"31.21423","category":"98","category_name":"意式菜品餐厅","address":"上海静安区镇宁路11号(近昭化东路)"},{"poiid":"B2094750DB6AA5F4419E","title":"MOJITO HEAVEN","lon":"121.435333","lat":"31.213684","category":"260","category_name":"其他","address":"长宁区昭化东路130号(曹家堰路口)"},{"poiid":"B2094757D06FA3FA489D","title":"马里昂巴咖啡馆","lon":"121.439884136","lat":"31.2126682258","category":"260","category_name":"其他","address":"徐汇区武康路55号(近安福路)"},{"poiid":"B2094757D068A5FC469F","title":"Y 瑜伽生活馆(安福店)","lon":"121.44017481","lat":"31.2131334512","category":"148","category_name":"美容美发店","address":"徐汇区安福路308号3楼(近武康路)"},{"poiid":"B2094757D46FA6FB4799","title":"昨天今天明天 Time Passage","lon":"121.435986054","lat":"31.211984793","category":"172","category_name":"酒吧","address":"徐汇区华山路1038弄183号(曹家堰路口)"},{"poiid":"B2094654D564A5F5469E","title":"上海美华妇科门诊部","lon":"121.43883","lat":"31.21443","category":"162","category_name":"医院","address":"华山路800弄6号丁香公寓裙楼3层"},{"poiid":"B2094757D065A7F8489C","title":"兴国宾馆香樟园西餐厅","lon":"121.43489833","lat":"31.210478544","category":"268","category_name":"自助","address":"长宁区兴国路78号兴国宾馆1楼(华山路口)"},{"poiid":"B2094751D56CA1FE459C","title":"夏朵西餐厅(丁香店)","lon":"121.43855","lat":"31.21245","category":"94","category_name":"西餐厅","address":"徐汇区华山路855号(近复兴西路)"},{"poiid":"B2094655D264A4FC4598","title":"COSTA(九尊店)","lon":"121.43842","lat":"31.21434","category":"65","category_name":"咖啡厅","address":"长宁区镇宁路9号(近华山路)"},{"poiid":"B2094757D06FA2F4419A","title":"Y 瑜伽生活馆(复兴店)","lon":"121.43848","lat":"31.2107","category":"148","category_name":"美容美发店","address":"徐汇区复兴西路299号(近华山路)"},{"poiid":"B2094757D068A7FD4798","title":"夏味馆(镇宁路店)","lon":"121.4395","lat":"31.21411","category":"76","category_name":"上海菜","address":"静安区镇宁路9号九尊大厦(近华山路)"},{"poiid":"B2094654D564A5F5419F","title":"夏朵小铺","lon":"121.43821","lat":"31.21105","category":"131","category_name":"珠宝首饰工艺品","address":"华山路855号"},{"poiid":"B2094654D564A4FC419A","title":"嘉里华庭","lon":"121.43649","lat":"31.213028","category":"47","category_name":"住宅区","address":"上海市长宁区延安西路1235弄"},{"poiid":"B2094757D068A6FA4698","title":"上海市信息中心","lon":"121.43637245","lat":"31.212247079","category":"46","category_name":"楼宇","address":"上海华山路1076号"},{"poiid":"B2094751D465A1F84599","title":"cozy wine Bar&Bistro","lon":"121.436364","lat":"31.213477","category":"247","category_name":"餐饮美食","address":"徐匯區武康路97號（五原路口）"},{"poiid":"B2094750D364A5FD479F","title":"上海美华妇儿服务","lon":"121.4388464368","lat":"31.214662099037","category":"162","category_name":"医院","address":"华山路800弄丁香公寓6号裙楼3楼"},{"poiid":"B2094757D464A0F4469B","title":"金格咖啡 复兴西路店 Ginger Cafe","lon":"121.43730620329","lat":"31.211288813686","category":"65","category_name":"咖啡厅","address":"复兴西路299弄1号近华山路"},{"poiid":"B2094757D068A4FF409B","title":"丁香公寓","lon":"121.43855","lat":"31.214016","category":"47","category_name":"住宅区","address":"丁香公寓位于长宁华山路800弄6号"},{"poiid":"B2094757D169ABF5479A","title":"高邮路花园洋房","lon":"121.43685618","lat":"31.213239048","category":"47","category_name":"住宅区","address":"上海高邮路50弄"},{"poiid":"B2094757D66AA6F44498","title":"兴国宾馆8号楼会议中心","lon":"121.434930054","lat":"31.210905793","category":"67","category_name":"甜品店","address":"兴国路78号兴国宾馆8号楼近华山路口"},{"poiid":"B2094757D16EA0F5459A","title":"康骏会馆","lon":"121.438498586","lat":"31.2148031293","category":"500","category_name":"未知分类","address":"长宁区镇宁路9号九尊大厦3楼AF(长乐路镇宁路)"},{"poiid":"B2094654D564A4FD4293","title":"华山花园","lon":"121.4343","lat":"31.2119","category":"47","category_name":"住宅区","address":"徐汇区华山路555号(近华山医院)"},{"poiid":"B2094655D26EA7FA4099","title":"玉嘉大厦","lon":"121.439","lat":"31.215","category":"46","category_name":"楼宇","address":"昌平区回龙观镇国际信息产业基地高新二街"},{"poiid":"B2094753DA6EA5FA4898","title":"嘉里华庭第五座","lon":"121.436","lat":"31.2131","category":"47","category_name":"住宅区","address":"上海市长宁区华山路1038弄"},{"poiid":"B2094750D36BAAF8419D","title":"上海夏朵餐饮官方微博","lon":"121.43759","lat":"31.21134","category":"94","category_name":"西餐厅","address":"华山路855号夏朵西餐厅丁香店"},{"poiid":"B2094655D36CA7FC4399","title":"华山路武康路","lon":"121.43857","lat":"31.21248","category":"38","category_name":"公交车站","address":""},{"poiid":"B2094655D36CA7FC459A","title":"华山路复兴西路","lon":"121.43621","lat":"31.21119","category":"38","category_name":"公交车站","address":""},{"poiid":"B2094655D268A7FC419C","title":"海格园","lon":"121.43696","lat":"31.212086","category":"47","category_name":"住宅区","address":"华山路1006弄1-30号"},{"poiid":"B2094654D564A4FC489F","title":"AIA友邦保险大厦","lon":"121.43446","lat":"31.21363","category":"46","category_name":"楼宇","address":"曹家堰路88"},{"poiid":"B2094654D564A6FF4599","title":"时代大厦","lon":"121.436","lat":"31.2107","category":"46","category_name":"楼宇","address":"番禺路390号"},{"poiid":"B2094654D564A6FE4498","title":"富宁大厦","lon":"121.438","lat":"31.212","category":"46","category_name":"楼宇","address":"幸福路137弄"},{"poiid":"B2094757D16EA4FD439B","title":"中石油加油站","lon":"121.43634796","lat":"31.212516784","category":"154","category_name":"加油加气站","address":"长宁区曹家堰路38号(近延安西路)"},{"poiid":"B2094655D26BABFB4599","title":"丁香别墅(南门)","lon":"121.43809","lat":"31.21227","category":"47","category_name":"住宅区","address":"华山路922"},{"poiid":"B2094655D264A7F5499B","title":"小音符麻辣烫","lon":"121.43682","lat":"31.21458","category":"68","category_name":"快餐厅","address":"长宁区昭化东路88号(近延安西路)"},{"poiid":"B2094757D064A2FE4699","title":"长宁区民政局","lon":"121.43847656","lat":"31.212892532","category":"253","category_name":"校园生活","address":"上海延安西路"},{"poiid":"B2094654D564A4FC4093","title":"环保大楼","lon":"121.43555","lat":"31.21346","category":"46","category_name":"楼宇","address":"华山路1038弄161"},{"poiid":"B2094654D564A5F54693","title":"九尊大厦","lon":"121.43853","lat":"31.2149","category":"46","category_name":"楼宇","address":"上海市长宁区镇宁路9号"},{"poiid":"B2094757D164A4FC429C","title":"YPlus yoga","lon":"121.436150586","lat":"31.2122520794","category":"500","category_name":"未知分类","address":"上海复兴西路"},{"poiid":"B2094757D16EA4FB4293","title":"Time Passage","lon":"121.43652","lat":"31.21209","category":"500","category_name":"未知分类","address":"上海长宁区华山路1038弄183号(近曹家堰路)  "},{"poiid":"B2094654D564A5F54992","title":"上海市东延安中学","lon":"121.43614","lat":"31.21424","category":"55","category_name":"中学","address":"昭化东路96临"},{"poiid":"B2094654DB6AA7FC489E","title":"夏朵花园","lon":"121.43787029084206","lat":"31.21163133636796","category":"47","category_name":"住宅区","address":"徐汇区复兴西路268号(近华山路)"},{"poiid":"B2094654DB65A1FF489E","title":"丁香夏朵花园","lon":"121.43792","lat":"31.21134","category":"94","category_name":"西餐厅","address":"徐汇区华山路855号近复兴西路近丁香花园"},{"poiid":"B2094655D26DA5F44298","title":"上海兴国宾馆","lon":"121.43521","lat":"31.21058","category":"213","category_name":"五星级宾馆","address":"徐汇区兴国路78号(华山路口)"},{"poiid":"B2094753D76FAAFA449C","title":"上海滩国泰旗舰店","lon":"121.466011","lat":"31.216125","category":"249","category_name":"购物服务","address":"淮海中路868号"},{"poiid":"B209475CD564A7F8439E","title":"上海滩中信泰富店","lon":"121.45602","lat":"31.22851","category":"119","category_name":"商场","address":"\"南京西路1168号中信泰富广场，店铺号221.\r\n\""},{"poiid":"B2094757D068AAFE489F","title":"复兴西路","lon":"121.443012","lat":"31.208405","category":"46","category_name":"楼宇","address":"上海永福路"},{"poiid":"B2094757D06FA7FC459F","title":"丁香花园","lon":"121.43927877","lat":"31.211933653","category":"47","category_name":"住宅区","address":"徐汇区华山路849号(近武康路)"},{"poiid":"B2094757D06FA3FB4893","title":"花马天堂云南餐厅(高邮路店)","lon":"121.43851","lat":"31.20998","category":"260","category_name":"其他","address":"徐汇区高邮路38号(近复兴西路)"},{"poiid":"B2094757D06FA2F4469A","title":"衡山小馆(延安西路店)","lon":"121.43464","lat":"31.21412","category":"72","category_name":"广东菜","address":"长宁区延安西路719号佳都大厦底楼(近江苏路)"},{"poiid":"B2094757D06FA7F9459E","title":"申粤轩","lon":"121.43964","lat":"31.21242","category":"72","category_name":"广东菜","address":"徐汇区华山路849号丁香花园内(近武康路)"},{"poiid":"B2094757D06FA2F44198","title":"Tima Harbour(镇宁店)","lon":"121.43944","lat":"31.21423","category":"98","category_name":"意式菜品餐厅","address":"上海静安区镇宁路11号(近昭化东路)"},{"poiid":"B2094750DB6AA5F4419E","title":"MOJITO HEAVEN","lon":"121.435333","lat":"31.213684","category":"260","category_name":"其他","address":"长宁区昭化东路130号(曹家堰路口)"},{"poiid":"B2094757D06FA3FA489D","title":"马里昂巴咖啡馆","lon":"121.439884136","lat":"31.2126682258","category":"260","category_name":"其他","address":"徐汇区武康路55号(近安福路)"},{"poiid":"B2094757D068A5FC469F","title":"Y 瑜伽生活馆(安福店)","lon":"121.44017481","lat":"31.2131334512","category":"148","category_name":"美容美发店","address":"徐汇区安福路308号3楼(近武康路)"},{"poiid":"B2094757D46FA6FB4799","title":"昨天今天明天 Time Passage","lon":"121.435986054","lat":"31.211984793","category":"172","category_name":"酒吧","address":"徐汇区华山路1038弄183号(曹家堰路口)"},{"poiid":"B2094654D564A5F5469E","title":"上海美华妇科门诊部","lon":"121.43883","lat":"31.21443","category":"162","category_name":"医院","address":"华山路800弄6号丁香公寓裙楼3层"},{"poiid":"B2094757D065A7F8489C","title":"兴国宾馆香樟园西餐厅","lon":"121.43489833","lat":"31.210478544","category":"268","category_name":"自助","address":"长宁区兴国路78号兴国宾馆1楼(华山路口)"},{"poiid":"B2094751D56CA1FE459C","title":"夏朵西餐厅(丁香店)","lon":"121.43855","lat":"31.21245","category":"94","category_name":"西餐厅","address":"徐汇区华山路855号(近复兴西路)"},{"poiid":"B2094655D264A4FC4598","title":"COSTA(九尊店)","lon":"121.43842","lat":"31.21434","category":"65","category_name":"咖啡厅","address":"长宁区镇宁路9号(近华山路)"},{"poiid":"B2094757D06FA2F4419A","title":"Y 瑜伽生活馆(复兴店)","lon":"121.43848","lat":"31.2107","category":"148","category_name":"美容美发店","address":"徐汇区复兴西路299号(近华山路)"},{"poiid":"B2094757D068A7FD4798","title":"夏味馆(镇宁路店)","lon":"121.4395","lat":"31.21411","category":"76","category_name":"上海菜","address":"静安区镇宁路9号九尊大厦(近华山路)"},{"poiid":"B2094654D564A5F5419F","title":"夏朵小铺","lon":"121.43821","lat":"31.21105","category":"131","category_name":"珠宝首饰工艺品","address":"华山路855号"},{"poiid":"B2094654D564A4FC419A","title":"嘉里华庭","lon":"121.43649","lat":"31.213028","category":"47","category_name":"住宅区","address":"上海市长宁区延安西路1235弄"},{"poiid":"B2094757D068A6FA4698","title":"上海市信息中心","lon":"121.43637245","lat":"31.212247079","category":"46","category_name":"楼宇","address":"上海华山路1076号"},{"poiid":"B2094751D465A1F84599","title":"cozy wine Bar&Bistro","lon":"121.436364","lat":"31.213477","category":"247","category_name":"餐饮美食","address":"徐匯區武康路97號（五原路口）"},{"poiid":"B2094750D364A5FD479F","title":"上海美华妇儿服务","lon":"121.4388464368","lat":"31.214662099037","category":"162","category_name":"医院","address":"华山路800弄丁香公寓6号裙楼3楼"},{"poiid":"B2094757D464A0F4469B","title":"金格咖啡 复兴西路店 Ginger Cafe","lon":"121.43730620329","lat":"31.211288813686","category":"65","category_name":"咖啡厅","address":"复兴西路299弄1号近华山路"},{"poiid":"B2094757D068A4FF409B","title":"丁香公寓","lon":"121.43855","lat":"31.214016","category":"47","category_name":"住宅区","address":"丁香公寓位于长宁华山路800弄6号"},{"poiid":"B2094757D169ABF5479A","title":"高邮路花园洋房","lon":"121.43685618","lat":"31.213239048","category":"47","category_name":"住宅区","address":"上海高邮路50弄"},{"poiid":"B2094757D66AA6F44498","title":"兴国宾馆8号楼会议中心","lon":"121.434930054","lat":"31.210905793","category":"67","category_name":"甜品店","address":"兴国路78号兴国宾馆8号楼近华山路口"},{"poiid":"B2094757D16EA0F5459A","title":"康骏会馆","lon":"121.438498586","lat":"31.2148031293","category":"500","category_name":"未知分类","address":"长宁区镇宁路9号九尊大厦3楼AF(长乐路镇宁路)"},{"poiid":"B2094654D564A4FD4293","title":"华山花园","lon":"121.4343","lat":"31.2119","category":"47","category_name":"住宅区","address":"徐汇区华山路555号(近华山医院)"},{"poiid":"B2094655D26EA7FA4099","title":"玉嘉大厦","lon":"121.439","lat":"31.215","category":"46","category_name":"楼宇","address":"昌平区回龙观镇国际信息产业基地高新二街"},{"poiid":"B2094753DA6EA5FA4898","title":"嘉里华庭第五座","lon":"121.436","lat":"31.2131","category":"47","category_name":"住宅区","address":"上海市长宁区华山路1038弄"},{"poiid":"B2094750D36BAAF8419D","title":"上海夏朵餐饮官方微博","lon":"121.43759","lat":"31.21134","category":"94","category_name":"西餐厅","address":"华山路855号夏朵西餐厅丁香店"},{"poiid":"B2094655D36CA7FC4399","title":"华山路武康路","lon":"121.43857","lat":"31.21248","category":"38","category_name":"公交车站","address":""},{"poiid":"B2094655D36CA7FC459A","title":"华山路复兴西路","lon":"121.43621","lat":"31.21119","category":"38","category_name":"公交车站","address":""},{"poiid":"B2094655D268A7FC419C","title":"海格园","lon":"121.43696","lat":"31.212086","category":"47","category_name":"住宅区","address":"华山路1006弄1-30号"},{"poiid":"B2094654D564A4FC489F","title":"AIA友邦保险大厦","lon":"121.43446","lat":"31.21363","category":"46","category_name":"楼宇","address":"曹家堰路88"},{"poiid":"B2094654D564A6FF4599","title":"时代大厦","lon":"121.436","lat":"31.2107","category":"46","category_name":"楼宇","address":"番禺路390号"},{"poiid":"B2094654D564A6FE4498","title":"富宁大厦","lon":"121.438","lat":"31.212","category":"46","category_name":"楼宇","address":"幸福路137弄"},{"poiid":"B2094757D16EA4FD439B","title":"中石油加油站","lon":"121.43634796","lat":"31.212516784","category":"154","category_name":"加油加气站","address":"长宁区曹家堰路38号(近延安西路)"},{"poiid":"B2094655D26BABFB4599","title":"丁香别墅(南门)","lon":"121.43809","lat":"31.21227","category":"47","category_name":"住宅区","address":"华山路922"},{"poiid":"B2094655D264A7F5499B","title":"小音符麻辣烫","lon":"121.43682","lat":"31.21458","category":"68","category_name":"快餐厅","address":"长宁区昭化东路88号(近延安西路)"},{"poiid":"B2094757D064A2FE4699","title":"长宁区民政局","lon":"121.43847656","lat":"31.212892532","category":"253","category_name":"校园生活","address":"上海延安西路"},{"poiid":"B2094654D564A4FC4093","title":"环保大楼","lon":"121.43555","lat":"31.21346","category":"46","category_name":"楼宇","address":"华山路1038弄161"},{"poiid":"B2094654D564A5F54693","title":"九尊大厦","lon":"121.43853","lat":"31.2149","category":"46","category_name":"楼宇","address":"上海市长宁区镇宁路9号"},{"poiid":"B2094757D164A4FC429C","title":"YPlus yoga","lon":"121.436150586","lat":"31.2122520794","category":"500","category_name":"未知分类","address":"上海复兴西路"},{"poiid":"B2094757D16EA4FB4293","title":"Time Passage","lon":"121.43652","lat":"31.21209","category":"500","category_name":"未知分类","address":"上海长宁区华山路1038弄183号(近曹家堰路)  "},{"poiid":"B2094654D564A5F54992","title":"上海市东延安中学","lon":"121.43614","lat":"31.21424","category":"55","category_name":"中学","address":"昭化东路96临"},{"poiid":"B2094654DB6AA7FC489E","title":"夏朵花园","lon":"121.43787029084206","lat":"31.21163133636796","category":"47","category_name":"住宅区","address":"徐汇区复兴西路268号(近华山路)"},{"poiid":"B2094654DB65A1FF489E","title":"丁香夏朵花园","lon":"121.43792","lat":"31.21134","category":"94","category_name":"西餐厅","address":"徐汇区华山路855号近复兴西路近丁香花园"},{"poiid":"B2094655D26DA5F44298","title":"上海兴国宾馆","lon":"121.43521","lat":"31.21058","category":"213","category_name":"五星级宾馆","address":"徐汇区兴国路78号(华山路口)"},{"poiid":"B2094753D76FAAFA449C","title":"上海滩国泰旗舰店","lon":"121.466011","lat":"31.216125","category":"249","category_name":"购物服务","address":"淮海中路868号"},{"poiid":"B209475CD564A7F8439E","title":"上海滩中信泰富店","lon":"121.45602","lat":"31.22851","category":"119","category_name":"商场","address":"\"南京西路1168号中信泰富广场，店铺号221.\r\n\""},{"poiid":"B2094757D068AAFE489F","title":"复兴西路","lon":"121.443012","lat":"31.208405","category":"46","category_name":"楼宇","address":"上海永福路"},{"poiid":"B2094757D06FA7FC459F","title":"丁香花园","lon":"121.43927877","lat":"31.211933653","category":"47","category_name":"住宅区","address":"徐汇区华山路849号(近武康路)"},{"poiid":"B2094757D06FA3FB4893","title":"花马天堂云南餐厅(高邮路店)","lon":"121.43851","lat":"31.20998","category":"260","category_name":"其他","address":"徐汇区高邮路38号(近复兴西路)"},{"poiid":"B2094757D06FA2F4469A","title":"衡山小馆(延安西路店)","lon":"121.43464","lat":"31.21412","category":"72","category_name":"广东菜","address":"长宁区延安西路719号佳都大厦底楼(近江苏路)"},{"poiid":"B2094757D06FA7F9459E","title":"申粤轩","lon":"121.43964","lat":"31.21242","category":"72","category_name":"广东菜","address":"徐汇区华山路849号丁香花园内(近武康路)"},{"poiid":"B2094757D06FA2F44198","title":"Tima Harbour(镇宁店)","lon":"121.43944","lat":"31.21423","category":"98","category_name":"意式菜品餐厅","address":"上海静安区镇宁路11号(近昭化东路)"},{"poiid":"B2094750DB6AA5F4419E","title":"MOJITO HEAVEN","lon":"121.435333","lat":"31.213684","category":"260","category_name":"其他","address":"长宁区昭化东路130号(曹家堰路口)"},{"poiid":"B2094757D06FA3FA489D","title":"马里昂巴咖啡馆","lon":"121.439884136","lat":"31.2126682258","category":"260","category_name":"其他","address":"徐汇区武康路55号(近安福路)"},{"poiid":"B2094757D068A5FC469F","title":"Y 瑜伽生活馆(安福店)","lon":"121.44017481","lat":"31.2131334512","category":"148","category_name":"美容美发店","address":"徐汇区安福路308号3楼(近武康路)"},{"poiid":"B2094757D46FA6FB4799","title":"昨天今天明天 Time Passage","lon":"121.435986054","lat":"31.211984793","category":"172","category_name":"酒吧","address":"徐汇区华山路1038弄183号(曹家堰路口)"},{"poiid":"B2094654D564A5F5469E","title":"上海美华妇科门诊部","lon":"121.43883","lat":"31.21443","category":"162","category_name":"医院","address":"华山路800弄6号丁香公寓裙楼3层"},{"poiid":"B2094757D065A7F8489C","title":"兴国宾馆香樟园西餐厅","lon":"121.43489833","lat":"31.210478544","category":"268","category_name":"自助","address":"长宁区兴国路78号兴国宾馆1楼(华山路口)"},{"poiid":"B2094751D56CA1FE459C","title":"夏朵西餐厅(丁香店)","lon":"121.43855","lat":"31.21245","category":"94","category_name":"西餐厅","address":"徐汇区华山路855号(近复兴西路)"},{"poiid":"B2094655D264A4FC4598","title":"COSTA(九尊店)","lon":"121.43842","lat":"31.21434","category":"65","category_name":"咖啡厅","address":"长宁区镇宁路9号(近华山路)"},{"poiid":"B2094757D06FA2F4419A","title":"Y 瑜伽生活馆(复兴店)","lon":"121.43848","lat":"31.2107","category":"148","category_name":"美容美发店","address":"徐汇区复兴西路299号(近华山路)"},{"poiid":"B2094757D068A7FD4798","title":"夏味馆(镇宁路店)","lon":"121.4395","lat":"31.21411","category":"76","category_name":"上海菜","address":"静安区镇宁路9号九尊大厦(近华山路)"},{"poiid":"B2094654D564A5F5419F","title":"夏朵小铺","lon":"121.43821","lat":"31.21105","category":"131","category_name":"珠宝首饰工艺品","address":"华山路855号"},{"poiid":"B2094654D564A4FC419A","title":"嘉里华庭","lon":"121.43649","lat":"31.213028","category":"47","category_name":"住宅区","address":"上海市长宁区延安西路1235弄"},{"poiid":"B2094757D068A6FA4698","title":"上海市信息中心","lon":"121.43637245","lat":"31.212247079","category":"46","category_name":"楼宇","address":"上海华山路1076号"},{"poiid":"B2094751D465A1F84599","title":"cozy wine Bar&Bistro","lon":"121.436364","lat":"31.213477","category":"247","category_name":"餐饮美食","address":"徐匯區武康路97號（五原路口）"},{"poiid":"B2094750D364A5FD479F","title":"上海美华妇儿服务","lon":"121.4388464368","lat":"31.214662099037","category":"162","category_name":"医院","address":"华山路800弄丁香公寓6号裙楼3楼"},{"poiid":"B2094757D464A0F4469B","title":"金格咖啡 复兴西路店 Ginger Cafe","lon":"121.43730620329","lat":"31.211288813686","category":"65","category_name":"咖啡厅","address":"复兴西路299弄1号近华山路"},{"poiid":"B2094757D068A4FF409B","title":"丁香公寓","lon":"121.43855","lat":"31.214016","category":"47","category_name":"住宅区","address":"丁香公寓位于长宁华山路800弄6号"},{"poiid":"B2094757D169ABF5479A","title":"高邮路花园洋房","lon":"121.43685618","lat":"31.213239048","category":"47","category_name":"住宅区","address":"上海高邮路50弄"},{"poiid":"B2094757D66AA6F44498","title":"兴国宾馆8号楼会议中心","lon":"121.434930054","lat":"31.210905793","category":"67","category_name":"甜品店","address":"兴国路78号兴国宾馆8号楼近华山路口"},{"poiid":"B2094757D16EA0F5459A","title":"康骏会馆","lon":"121.438498586","lat":"31.2148031293","category":"500","category_name":"未知分类","address":"长宁区镇宁路9号九尊大厦3楼AF(长乐路镇宁路)"},{"poiid":"B2094654D564A4FD4293","title":"华山花园","lon":"121.4343","lat":"31.2119","category":"47","category_name":"住宅区","address":"徐汇区华山路555号(近华山医院)"},{"poiid":"B2094655D26EA7FA4099","title":"玉嘉大厦","lon":"121.439","lat":"31.215","category":"46","category_name":"楼宇","address":"昌平区回龙观镇国际信息产业基地高新二街"},{"poiid":"B2094753DA6EA5FA4898","title":"嘉里华庭第五座","lon":"121.436","lat":"31.2131","category":"47","category_name":"住宅区","address":"上海市长宁区华山路1038弄"},{"poiid":"B2094750D36BAAF8419D","title":"上海夏朵餐饮官方微博","lon":"121.43759","lat":"31.21134","category":"94","category_name":"西餐厅","address":"华山路855号夏朵西餐厅丁香店"},{"poiid":"B2094655D36CA7FC4399","title":"华山路武康路","lon":"121.43857","lat":"31.21248","category":"38","category_name":"公交车站","address":""},{"poiid":"B2094655D36CA7FC459A","title":"华山路复兴西路","lon":"121.43621","lat":"31.21119","category":"38","category_name":"公交车站","address":""},{"poiid":"B2094655D268A7FC419C","title":"海格园","lon":"121.43696","lat":"31.212086","category":"47","category_name":"住宅区","address":"华山路1006弄1-30号"},{"poiid":"B2094654D564A4FC489F","title":"AIA友邦保险大厦","lon":"121.43446","lat":"31.21363","category":"46","category_name":"楼宇","address":"曹家堰路88"},{"poiid":"B2094654D564A6FF4599","title":"时代大厦","lon":"121.436","lat":"31.2107","category":"46","category_name":"楼宇","address":"番禺路390号"},{"poiid":"B2094654D564A6FE4498","title":"富宁大厦","lon":"121.438","lat":"31.212","category":"46","category_name":"楼宇","address":"幸福路137弄"},{"poiid":"B2094757D16EA4FD439B","title":"中石油加油站","lon":"121.43634796","lat":"31.212516784","category":"154","category_name":"加油加气站","address":"长宁区曹家堰路38号(近延安西路)"},{"poiid":"B2094655D26BABFB4599","title":"丁香别墅(南门)","lon":"121.43809","lat":"31.21227","category":"47","category_name":"住宅区","address":"华山路922"},{"poiid":"B2094655D264A7F5499B","title":"小音符麻辣烫","lon":"121.43682","lat":"31.21458","category":"68","category_name":"快餐厅","address":"长宁区昭化东路88号(近延安西路)"},{"poiid":"B2094757D064A2FE4699","title":"长宁区民政局","lon":"121.43847656","lat":"31.212892532","category":"253","category_name":"校园生活","address":"上海延安西路"},{"poiid":"B2094654D564A4FC4093","title":"环保大楼","lon":"121.43555","lat":"31.21346","category":"46","category_name":"楼宇","address":"华山路1038弄161"},{"poiid":"B2094654D564A5F54693","title":"九尊大厦","lon":"121.43853","lat":"31.2149","category":"46","category_name":"楼宇","address":"上海市长宁区镇宁路9号"},{"poiid":"B2094757D164A4FC429C","title":"YPlus yoga","lon":"121.436150586","lat":"31.2122520794","category":"500","category_name":"未知分类","address":"上海复兴西路"},{"poiid":"B2094757D16EA4FB4293","title":"Time Passage","lon":"121.43652","lat":"31.21209","category":"500","category_name":"未知分类","address":"上海长宁区华山路1038弄183号(近曹家堰路)  "},{"poiid":"B2094654D564A5F54992","title":"上海市东延安中学","lon":"121.43614","lat":"31.21424","category":"55","category_name":"中学","address":"昭化东路96临"},{"poiid":"B2094654DB6AA7FC489E","title":"夏朵花园","lon":"121.43787029084206","lat":"31.21163133636796","category":"47","category_name":"住宅区","address":"徐汇区复兴西路268号(近华山路)"},{"poiid":"B2094654DB65A1FF489E","title":"丁香夏朵花园","lon":"121.43792","lat":"31.21134","category":"94","category_name":"西餐厅","address":"徐汇区华山路855号近复兴西路近丁香花园"},{"poiid":"B2094655D26DA5F44298","title":"上海兴国宾馆","lon":"121.43521","lat":"31.21058","category":"213","category_name":"五星级宾馆","address":"徐汇区兴国路78号(华山路口)"},{"poiid":"B2094753D76FAAFA449C","title":"上海滩国泰旗舰店","lon":"121.466011","lat":"31.216125","category":"249","category_name":"购物服务","address":"淮海中路868号"},{"poiid":"B209475CD564A7F8439E","title":"上海滩中信泰富店","lon":"121.45602","lat":"31.22851","category":"119","category_name":"商场","address":"\"南京西路1168号中信泰富广场，店铺号221.\r\n\""},{"poiid":"B2094757D068AAFE489F","title":"复兴西路","lon":"121.443012","lat":"31.208405","category":"46","category_name":"楼宇","address":"上海永福路"},{"poiid":"B2094757D06FA7FC459F","title":"丁香花园","lon":"121.43927877","lat":"31.211933653","category":"47","category_name":"住宅区","address":"徐汇区华山路849号(近武康路)"},{"poiid":"B2094757D06FA3FB4893","title":"花马天堂云南餐厅(高邮路店)","lon":"121.43851","lat":"31.20998","category":"260","category_name":"其他","address":"徐汇区高邮路38号(近复兴西路)"},{"poiid":"B2094757D06FA2F4469A","title":"衡山小馆(延安西路店)","lon":"121.43464","lat":"31.21412","category":"72","category_name":"广东菜","address":"长宁区延安西路719号佳都大厦底楼(近江苏路)"},{"poiid":"B2094757D06FA7F9459E","title":"申粤轩","lon":"121.43964","lat":"31.21242","category":"72","category_name":"广东菜","address":"徐汇区华山路849号丁香花园内(近武康路)"},{"poiid":"B2094757D06FA2F44198","title":"Tima Harbour(镇宁店)","lon":"121.43944","lat":"31.21423","category":"98","category_name":"意式菜品餐厅","address":"上海静安区镇宁路11号(近昭化东路)"},{"poiid":"B2094750DB6AA5F4419E","title":"MOJITO HEAVEN","lon":"121.435333","lat":"31.213684","category":"260","category_name":"其他","address":"长宁区昭化东路130号(曹家堰路口)"},{"poiid":"B2094757D06FA3FA489D","title":"马里昂巴咖啡馆","lon":"121.439884136","lat":"31.2126682258","category":"260","category_name":"其他","address":"徐汇区武康路55号(近安福路)"},{"poiid":"B2094757D068A5FC469F","title":"Y 瑜伽生活馆(安福店)","lon":"121.44017481","lat":"31.2131334512","category":"148","category_name":"美容美发店","address":"徐汇区安福路308号3楼(近武康路)"},{"poiid":"B2094757D46FA6FB4799","title":"昨天今天明天 Time Passage","lon":"121.435986054","lat":"31.211984793","category":"172","category_name":"酒吧","address":"徐汇区华山路1038弄183号(曹家堰路口)"},{"poiid":"B2094654D564A5F5469E","title":"上海美华妇科门诊部","lon":"121.43883","lat":"31.21443","category":"162","category_name":"医院","address":"华山路800弄6号丁香公寓裙楼3层"},{"poiid":"B2094757D065A7F8489C","title":"兴国宾馆香樟园西餐厅","lon":"121.43489833","lat":"31.210478544","category":"268","category_name":"自助","address":"长宁区兴国路78号兴国宾馆1楼(华山路口)"},{"poiid":"B2094751D56CA1FE459C","title":"夏朵西餐厅(丁香店)","lon":"121.43855","lat":"31.21245","category":"94","category_name":"西餐厅","address":"徐汇区华山路855号(近复兴西路)"},{"poiid":"B2094655D264A4FC4598","title":"COSTA(九尊店)","lon":"121.43842","lat":"31.21434","category":"65","category_name":"咖啡厅","address":"长宁区镇宁路9号(近华山路)"},{"poiid":"B2094757D06FA2F4419A","title":"Y 瑜伽生活馆(复兴店)","lon":"121.43848","lat":"31.2107","category":"148","category_name":"美容美发店","address":"徐汇区复兴西路299号(近华山路)"},{"poiid":"B2094757D068A7FD4798","title":"夏味馆(镇宁路店)","lon":"121.4395","lat":"31.21411","category":"76","category_name":"上海菜","address":"静安区镇宁路9号九尊大厦(近华山路)"},{"poiid":"B2094654D564A5F5419F","title":"夏朵小铺","lon":"121.43821","lat":"31.21105","category":"131","category_name":"珠宝首饰工艺品","address":"华山路855号"},{"poiid":"B2094654D564A4FC419A","title":"嘉里华庭","lon":"121.43649","lat":"31.213028","category":"47","category_name":"住宅区","address":"上海市长宁区延安西路1235弄"},{"poiid":"B2094757D068A6FA4698","title":"上海市信息中心","lon":"121.43637245","lat":"31.212247079","category":"46","category_name":"楼宇","address":"上海华山路1076号"},{"poiid":"B2094751D465A1F84599","title":"cozy wine Bar&Bistro","lon":"121.436364","lat":"31.213477","category":"247","category_name":"餐饮美食","address":"徐匯區武康路97號（五原路口）"},{"poiid":"B2094750D364A5FD479F","title":"上海美华妇儿服务","lon":"121.4388464368","lat":"31.214662099037","category":"162","category_name":"医院","address":"华山路800弄丁香公寓6号裙楼3楼"},{"poiid":"B2094757D464A0F4469B","title":"金格咖啡 复兴西路店 Ginger Cafe","lon":"121.43730620329","lat":"31.211288813686","category":"65","category_name":"咖啡厅","address":"复兴西路299弄1号近华山路"},{"poiid":"B2094757D068A4FF409B","title":"丁香公寓","lon":"121.43855","lat":"31.214016","category":"47","category_name":"住宅区","address":"丁香公寓位于长宁华山路800弄6号"},{"poiid":"B2094757D169ABF5479A","title":"高邮路花园洋房","lon":"121.43685618","lat":"31.213239048","category":"47","category_name":"住宅区","address":"上海高邮路50弄"},{"poiid":"B2094757D66AA6F44498","title":"兴国宾馆8号楼会议中心","lon":"121.434930054","lat":"31.210905793","category":"67","category_name":"甜品店","address":"兴国路78号兴国宾馆8号楼近华山路口"},{"poiid":"B2094757D16EA0F5459A","title":"康骏会馆","lon":"121.438498586","lat":"31.2148031293","category":"500","category_name":"未知分类","address":"长宁区镇宁路9号九尊大厦3楼AF(长乐路镇宁路)"},{"poiid":"B2094654D564A4FD4293","title":"华山花园","lon":"121.4343","lat":"31.2119","category":"47","category_name":"住宅区","address":"徐汇区华山路555号(近华山医院)"},{"poiid":"B2094655D26EA7FA4099","title":"玉嘉大厦","lon":"121.439","lat":"31.215","category":"46","category_name":"楼宇","address":"昌平区回龙观镇国际信息产业基地高新二街"},{"poiid":"B2094753DA6EA5FA4898","title":"嘉里华庭第五座","lon":"121.436","lat":"31.2131","category":"47","category_name":"住宅区","address":"上海市长宁区华山路1038弄"},{"poiid":"B2094750D36BAAF8419D","title":"上海夏朵餐饮官方微博","lon":"121.43759","lat":"31.21134","category":"94","category_name":"西餐厅","address":"华山路855号夏朵西餐厅丁香店"},{"poiid":"B2094655D36CA7FC4399","title":"华山路武康路","lon":"121.43857","lat":"31.21248","category":"38","category_name":"公交车站","address":""},{"poiid":"B2094655D36CA7FC459A","title":"华山路复兴西路","lon":"121.43621","lat":"31.21119","category":"38","category_name":"公交车站","address":""},{"poiid":"B2094655D268A7FC419C","title":"海格园","lon":"121.43696","lat":"31.212086","category":"47","category_name":"住宅区","address":"华山路1006弄1-30号"},{"poiid":"B2094654D564A4FC489F","title":"AIA友邦保险大厦","lon":"121.43446","lat":"31.21363","category":"46","category_name":"楼宇","address":"曹家堰路88"},{"poiid":"B2094654D564A6FF4599","title":"时代大厦","lon":"121.436","lat":"31.2107","category":"46","category_name":"楼宇","address":"番禺路390号"},{"poiid":"B2094654D564A6FE4498","title":"富宁大厦","lon":"121.438","lat":"31.212","category":"46","category_name":"楼宇","address":"幸福路137弄"},{"poiid":"B2094757D16EA4FD439B","title":"中石油加油站","lon":"121.43634796","lat":"31.212516784","category":"154","category_name":"加油加气站","address":"长宁区曹家堰路38号(近延安西路)"},{"poiid":"B2094655D26BABFB4599","title":"丁香别墅(南门)","lon":"121.43809","lat":"31.21227","category":"47","category_name":"住宅区","address":"华山路922"},{"poiid":"B2094655D264A7F5499B","title":"小音符麻辣烫","lon":"121.43682","lat":"31.21458","category":"68","category_name":"快餐厅","address":"长宁区昭化东路88号(近延安西路)"},{"poiid":"B2094757D064A2FE4699","title":"长宁区民政局","lon":"121.43847656","lat":"31.212892532","category":"253","category_name":"校园生活","address":"上海延安西路"},{"poiid":"B2094654D564A4FC4093","title":"环保大楼","lon":"121.43555","lat":"31.21346","category":"46","category_name":"楼宇","address":"华山路1038弄161"},{"poiid":"B2094654D564A5F54693","title":"九尊大厦","lon":"121.43853","lat":"31.2149","category":"46","category_name":"楼宇","address":"上海市长宁区镇宁路9号"},{"poiid":"B2094757D164A4FC429C","title":"YPlus yoga","lon":"121.436150586","lat":"31.2122520794","category":"500","category_name":"未知分类","address":"上海复兴西路"},{"poiid":"B2094757D16EA4FB4293","title":"Time Passage","lon":"121.43652","lat":"31.21209","category":"500","category_name":"未知分类","address":"上海长宁区华山路1038弄183号(近曹家堰路)  "},{"poiid":"B2094654D564A5F54992","title":"上海市东延安中学","lon":"121.43614","lat":"31.21424","category":"55","category_name":"中学","address":"昭化东路96临"}]