[{"poiid":"B2094757D06FA1FD4592","title":"上海外滩浦华大酒店","lon":"121.50274","lat":"31.25086","category":"213","category_name":"五星级宾馆","address":"上海市虹口区高阳路168号(北外滩地区 近东大名路)"},{"poiid":"B2094750D56CA4F9459E","title":"上海外滩悅榕庄","lon":"121.50667204830165","lat":"31.249798205624163","category":"251","category_name":"出行住宿","address":"虹口区海平路19号"},{"poiid":"B2094757D06FA7FA4993","title":"北外滩","lon":"121.50491413","lat":"31.250150968","category":"260","category_name":"其他","address":"虹口区高阳路(近东大名路)"},{"poiid":"B209475CD564A7F84392","title":"上海滩浦东香格里拉店","lon":"121.50058","lat":"31.23634","category":"119","category_name":"商场","address":"浦东富成路33号香格里拉酒店内大堂层"},{"poiid":"B2094757D06FA6F54893","title":"上海港国际客运中心","lon":"121.50271","lat":"31.24954","category":"35","category_name":"长途汽车站","address":"虹口区东大名路800号(近高阳路)"},{"poiid":"B2094757D06FA5F94593","title":"前城酒家","lon":"121.50457","lat":"31.25358","category":"68","category_name":"快餐厅","address":"虹口区唐山路408号(近丹徒路)"},{"poiid":"B2094751D36BA4F5469D","title":"上海浦东文华东方酒店","lon":"121.50686659720611","lat":"31.243665106676545","category":"251","category_name":"出行住宿","address":"浦东新区浦东南路111号"},{"poiid":"B2094757D068ABFF429C","title":"老船长酒吧","lon":"121.502755758","lat":"31.2507747333","category":"172","category_name":"酒吧","address":"虹口区高阳路168号外滩浦华大酒店(东长治路高阳路)"},{"poiid":"B2094757D068A3F54592","title":"金岸大厦","lon":"121.50537716","lat":"31.250616563","category":"46","category_name":"楼宇","address":"丰台学城海鹰路1号,3号"},{"poiid":"B2094757D068A6F4459F","title":"芳庭海鲜酒店","lon":"121.50299835","lat":"31.25","category":"88","category_name":"海鲜酒楼","address":"虹口区东大名路809号(近高阳路)"},{"poiid":"B2094757D064A3F8429D","title":"上海建工集团总公司","lon":"121.501623103","lat":"31.2491349775","category":"263","category_name":"公司","address":"上海市虹口区东大名路666号"},{"poiid":"B2094654DA6FA7F8429D","title":"远洋大厦","lon":"121.503","lat":"31.2527","category":"46","category_name":"楼宇","address":"静安区长寿路(万航渡路口)"},{"poiid":"B2094757D068A7FE4598","title":"东大名路","lon":"121.504487","lat":"31.250967","category":"247","category_name":"餐饮美食","address":"上海东大名路"},{"poiid":"B2094655D26CA6FA429E","title":"公平路轮渡站","lon":"121.50744","lat":"31.24948","category":"34","category_name":"港口码头","address":"公平路60号"},{"poiid":"B2094757D16EA1FB429E","title":"白金湾广场","lon":"121.506182","lat":"31.2502193","category":"500","category_name":"未知分类","address":"相城区阳澄湖西路南、人民路西"},{"poiid":"B2094750DA6FA7FB4198","title":"桔子水晶酒店","lon":"121.502227","lat":"31.252765","category":"251","category_name":"出行住宿","address":"上海市虹口区公平路369号"},{"poiid":"B2094655D264A6F4409D","title":"上海轮渡游船码头","lon":"121.50722","lat":"31.24959","category":"34","category_name":"港口码头","address":"公平路1"},{"poiid":"B2094757D16CABFD429F","title":"浦江二号","lon":"121.5048131","lat":"31.248448963","category":"252","category_name":"楼宇机构","address":"上海市浦东新区滨江大道2050号"},{"poiid":"B2094757D568A1FD429C","title":"上海港国际客运中心1号游艇码头","lon":"121.503768","lat":"31.248825","category":"35","category_name":"长途汽车站","address":"中国上海市虹口区"},{"poiid":"B2094757D06AA3FF499C","title":"中国海运","lon":"121.50300508","lat":"31.249953241","category":"46","category_name":"楼宇","address":"上海东大名路700号"},{"poiid":"B2094654D56DA4FA409E","title":"高阳商务中心","lon":"121.50376","lat":"31.25102","category":"46","category_name":"楼宇","address":"虹口区东大名路879号"},{"poiid":"B2094757D06AA2F4479B","title":"航交所","lon":"121.50562865","lat":"31.250870177","category":"500","category_name":"未知分类","address":"上海航交所"},{"poiid":"B2094757D06AA6FA4192","title":"泰东路渡口","lon":"121.50572636","lat":"31.2436887252","category":"34","category_name":"港口码头","address":"上海浦东新区滨江大道"},{"poiid":"B2094753DB68A4F84292","title":"上海浦东文华东方大酒店","lon":"121.507225","lat":"31.243402","category":"500","category_name":"未知分类","address":"上海市 浦东南路111号"},{"poiid":"B2094757D06BABF5469F","title":"白金灣府邸","lon":"121.50593167","lat":"31.25022437","category":"47","category_name":"住宅区","address":"上海海平路18號"},{"poiid":"B2094757D06AA7FA409D","title":"东长治路","lon":"121.5008371","lat":"31.250816012","category":"500","category_name":"未知分类","address":"上海东长治路"},{"poiid":"B2094757D16FA0FB4792","title":"韶山湘菜","lon":"121.501586","lat":"31.249933","category":"77","category_name":"湖南菜","address":"虹口区东大名路713号"},{"poiid":"B2094751D464A7FC4999","title":"上海外滩悦榕庄","lon":"121.508204","lat":"31.249116","category":"251","category_name":"出行住宿","address":"中国上海市虹口区海平路19号"},{"poiid":"B2094655D26BAAFF499E","title":"东方海港国际大厦","lon":"121.5085","lat":"31.25176","category":"46","category_name":"楼宇","address":"东大名路1080号"},{"poiid":"B2094751D26AA3FA479F","title":"东方明珠电视塔","lon":"121.505035","lat":"31.245845","category":"250","category_name":"公园户外","address":"上海"},{"poiid":"B2094655D26FAAF8489D","title":"港务大厦","lon":"121.504","lat":"31.2459","category":"46","category_name":"楼宇","address":"丰和路1号"},{"poiid":"B2094654D56DA4FB459E","title":"晟隆大厦","lon":"121.50245","lat":"31.25159","category":"46","category_name":"楼宇","address":"鲁尔大厦位于铁西兴华南街5号"},{"poiid":"B209475DD169A2FD4598","title":"12号线大连路地铁站","lon":"121.504058","lat":"31.248817","category":"500","category_name":"未知分类","address":"上海市 上海市大连路"},{"poiid":"B2094757D66BA2FB419F","title":"松涛","lon":"121.502962","lat":"31.250636","category":"95","category_name":"日本料理","address":"虹口区高阳路168号上海外滩浦华大酒店2楼(近东长治路)"},{"poiid":"B2094751D26BAAFB469B","title":"4号线杨树浦路站","lon":"121.506646","lat":"31.2512858","category":"500","category_name":"未知分类","address":null},{"poiid":"B2094757D065A7FE459A","title":"歌诗达号游轮","lon":"121.50376","lat":"31.24992","category":"247","category_name":"餐饮美食","address":"上海虹口区东大名路800号(近高阳路)  "},{"poiid":"B209475CD465ABF5409C","title":"Mandarin Oriental Pudong","lon":"121.504547","lat":"31.247419","category":"500","category_name":"未知分类","address":"上海市 上海市浦东南路111号"},{"poiid":"B2094655D36CA6F4409E","title":"东大名路高阳路","lon":"121.50246","lat":"31.25008","category":"38","category_name":"公交车站","address":""},{"poiid":"B2094655D26EA2FA479B","title":"大湘园","lon":"121.50313243813","lat":"31.250423762667","category":"77","category_name":"湖南菜","address":"虹口区东大名路799号(近高阳路)"},{"poiid":"B2094757DB6EABFB4393","title":"IFC","lon":"121.5036982938787","lat":"31.24893246365057","category":"500","category_name":"未知分类","address":"IFC"},{"poiid":"B2094752D069A2FF419A","title":"新白鹿","lon":"121.4996283","lat":"31.2488492","category":"247","category_name":"餐饮美食","address":"南京东路800号东方商厦9楼"},{"poiid":"B2094751DA64A0FE489E","title":"Banyan Tree Shanghai On The Bund","lon":"121.505994","lat":"31.252041","category":"500","category_name":"未知分类","address":"上海市虹口区海平路19号上海悦榕庄"},{"poiid":"B2094655D36CA6F5459C","title":"丹徒路","lon":"121.50511","lat":"31.25103","category":"38","category_name":"公交车站","address":""},{"poiid":"B2094753D56CA0F54798","title":"皇玺酒家","lon":"121.50669","lat":"31.243375","category":"247","category_name":"餐饮美食","address":"上海市 浦东南路27号"},{"poiid":"B2094757D464A0F9459A","title":"台南担仔面","lon":"121.50247","lat":"31.25113","category":"91","category_name":"台湾菜","address":"虹口区高阳路168号外滩浦华大酒店2楼(近东长治路)"},{"poiid":"B209475CD069A3FA419D","title":"皇璽","lon":"121.50641","lat":"31.24304","category":"47","category_name":"住宅区","address":"浦东南路27号(近银城路)"},{"poiid":"B2094655D36CA6F4449B","title":"东长治路公平路","lon":"121.5039","lat":"31.2506","category":"38","category_name":"公交车站","address":""},{"poiid":"B2094757D068A4F84799","title":"上海海运(集团)公司","lon":"121.502285524","lat":"31.2499618484","category":"46","category_name":"楼宇","address":"上海东大名路700号"},{"poiid":"B2094757D06AA0F8489E","title":"37路公交车(东大名路高阳路)","lon":"121.50246091","lat":"31.2500848936","category":"38","category_name":"公交车站","address":"上海虹口区东大名路高阳路"},{"poiid":"B2094757D165A2FD449C","title":"新客来","lon":"121.503581903","lat":"31.2508930142","category":"65","category_name":"咖啡厅","address":"虹口区东大名路815号(近高阳路)"},{"poiid":"B2094757D06FA1FD4592","title":"上海外滩浦华大酒店","lon":"121.50274","lat":"31.25086","category":"213","category_name":"五星级宾馆","address":"上海市虹口区高阳路168号(北外滩地区 近东大名路)"},{"poiid":"B2094750D56CA4F9459E","title":"上海外滩悅榕庄","lon":"121.50667204830165","lat":"31.249798205624163","category":"251","category_name":"出行住宿","address":"虹口区海平路19号"},{"poiid":"B2094757D06FA7FA4993","title":"北外滩","lon":"121.50491413","lat":"31.250150968","category":"260","category_name":"其他","address":"虹口区高阳路(近东大名路)"},{"poiid":"B209475CD564A7F84392","title":"上海滩浦东香格里拉店","lon":"121.50058","lat":"31.23634","category":"119","category_name":"商场","address":"浦东富成路33号香格里拉酒店内大堂层"},{"poiid":"B2094757D06FA6F54893","title":"上海港国际客运中心","lon":"121.50271","lat":"31.24954","category":"35","category_name":"长途汽车站","address":"虹口区东大名路800号(近高阳路)"},{"poiid":"B2094757D06FA5F94593","title":"前城酒家","lon":"121.50457","lat":"31.25358","category":"68","category_name":"快餐厅","address":"虹口区唐山路408号(近丹徒路)"},{"poiid":"B2094751D36BA4F5469D","title":"上海浦东文华东方酒店","lon":"121.50686659720611","lat":"31.243665106676545","category":"251","category_name":"出行住宿","address":"浦东新区浦东南路111号"},{"poiid":"B2094757D068ABFF429C","title":"老船长酒吧","lon":"121.502755758","lat":"31.2507747333","category":"172","category_name":"酒吧","address":"虹口区高阳路168号外滩浦华大酒店(东长治路高阳路)"},{"poiid":"B2094757D068A3F54592","title":"金岸大厦","lon":"121.50537716","lat":"31.250616563","category":"46","category_name":"楼宇","address":"丰台学城海鹰路1号,3号"},{"poiid":"B2094757D068A6F4459F","title":"芳庭海鲜酒店","lon":"121.50299835","lat":"31.25","category":"88","category_name":"海鲜酒楼","address":"虹口区东大名路809号(近高阳路)"},{"poiid":"B2094757D064A3F8429D","title":"上海建工集团总公司","lon":"121.501623103","lat":"31.2491349775","category":"263","category_name":"公司","address":"上海市虹口区东大名路666号"},{"poiid":"B2094654DA6FA7F8429D","title":"远洋大厦","lon":"121.503","lat":"31.2527","category":"46","category_name":"楼宇","address":"静安区长寿路(万航渡路口)"},{"poiid":"B2094757D068A7FE4598","title":"东大名路","lon":"121.504487","lat":"31.250967","category":"247","category_name":"餐饮美食","address":"上海东大名路"},{"poiid":"B2094655D26CA6FA429E","title":"公平路轮渡站","lon":"121.50744","lat":"31.24948","category":"34","category_name":"港口码头","address":"公平路60号"},{"poiid":"B2094757D16EA1FB429E","title":"白金湾广场","lon":"121.506182","lat":"31.2502193","category":"500","category_name":"未知分类","address":"相城区阳澄湖西路南、人民路西"},{"poiid":"B2094750DA6FA7FB4198","title":"桔子水晶酒店","lon":"121.502227","lat":"31.252765","category":"251","category_name":"出行住宿","address":"上海市虹口区公平路369号"},{"poiid":"B2094655D264A6F4409D","title":"上海轮渡游船码头","lon":"121.50722","lat":"31.24959","category":"34","category_name":"港口码头","address":"公平路1"},{"poiid":"B2094757D16CABFD429F","title":"浦江二号","lon":"121.5048131","lat":"31.248448963","category":"252","category_name":"楼宇机构","address":"上海市浦东新区滨江大道2050号"},{"poiid":"B2094757D568A1FD429C","title":"上海港国际客运中心1号游艇码头","lon":"121.503768","lat":"31.248825","category":"35","category_name":"长途汽车站","address":"中国上海市虹口区"},{"poiid":"B2094757D06AA3FF499C","title":"中国海运","lon":"121.50300508","lat":"31.249953241","category":"46","category_name":"楼宇","address":"上海东大名路700号"},{"poiid":"B2094654D56DA4FA409E","title":"高阳商务中心","lon":"121.50376","lat":"31.25102","category":"46","category_name":"楼宇","address":"虹口区东大名路879号"},{"poiid":"B2094757D06AA2F4479B","title":"航交所","lon":"121.50562865","lat":"31.250870177","category":"500","category_name":"未知分类","address":"上海航交所"},{"poiid":"B2094757D06AA6FA4192","title":"泰东路渡口","lon":"121.50572636","lat":"31.2436887252","category":"34","category_name":"港口码头","address":"上海浦东新区滨江大道"},{"poiid":"B2094753DB68A4F84292","title":"上海浦东文华东方大酒店","lon":"121.507225","lat":"31.243402","category":"500","category_name":"未知分类","address":"上海市 浦东南路111号"},{"poiid":"B2094757D06BABF5469F","title":"白金灣府邸","lon":"121.50593167","lat":"31.25022437","category":"47","category_name":"住宅区","address":"上海海平路18號"},{"poiid":"B2094757D06AA7FA409D","title":"东长治路","lon":"121.5008371","lat":"31.250816012","category":"500","category_name":"未知分类","address":"上海东长治路"},{"poiid":"B2094757D16FA0FB4792","title":"韶山湘菜","lon":"121.501586","lat":"31.249933","category":"77","category_name":"湖南菜","address":"虹口区东大名路713号"},{"poiid":"B2094751D464A7FC4999","title":"上海外滩悦榕庄","lon":"121.508204","lat":"31.249116","category":"251","category_name":"出行住宿","address":"中国上海市虹口区海平路19号"},{"poiid":"B2094655D26BAAFF499E","title":"东方海港国际大厦","lon":"121.5085","lat":"31.25176","category":"46","category_name":"楼宇","address":"东大名路1080号"},{"poiid":"B2094751D26AA3FA479F","title":"东方明珠电视塔","lon":"121.505035","lat":"31.245845","category":"250","category_name":"公园户外","address":"上海"},{"poiid":"B2094655D26FAAF8489D","title":"港务大厦","lon":"121.504","lat":"31.2459","category":"46","category_name":"楼宇","address":"丰和路1号"},{"poiid":"B2094654D56DA4FB459E","title":"晟隆大厦","lon":"121.50245","lat":"31.25159","category":"46","category_name":"楼宇","address":"鲁尔大厦位于铁西兴华南街5号"},{"poiid":"B209475DD169A2FD4598","title":"12号线大连路地铁站","lon":"121.504058","lat":"31.248817","category":"500","category_name":"未知分类","address":"上海市 上海市大连路"},{"poiid":"B2094757D66BA2FB419F","title":"松涛","lon":"121.502962","lat":"31.250636","category":"95","category_name":"日本料理","address":"虹口区高阳路168号上海外滩浦华大酒店2楼(近东长治路)"},{"poiid":"B2094751D26BAAFB469B","title":"4号线杨树浦路站","lon":"121.506646","lat":"31.2512858","category":"500","category_name":"未知分类","address":null},{"poiid":"B2094757D065A7FE459A","title":"歌诗达号游轮","lon":"121.50376","lat":"31.24992","category":"247","category_name":"餐饮美食","address":"上海虹口区东大名路800号(近高阳路)  "},{"poiid":"B209475CD465ABF5409C","title":"Mandarin Oriental Pudong","lon":"121.504547","lat":"31.247419","category":"500","category_name":"未知分类","address":"上海市 上海市浦东南路111号"},{"poiid":"B2094655D36CA6F4409E","title":"东大名路高阳路","lon":"121.50246","lat":"31.25008","category":"38","category_name":"公交车站","address":""},{"poiid":"B2094655D26EA2FA479B","title":"大湘园","lon":"121.50313243813","lat":"31.250423762667","category":"77","category_name":"湖南菜","address":"虹口区东大名路799号(近高阳路)"},{"poiid":"B2094757DB6EABFB4393","title":"IFC","lon":"121.5036982938787","lat":"31.24893246365057","category":"500","category_name":"未知分类","address":"IFC"},{"poiid":"B2094752D069A2FF419A","title":"新白鹿","lon":"121.4996283","lat":"31.2488492","category":"247","category_name":"餐饮美食","address":"南京东路800号东方商厦9楼"},{"poiid":"B2094751DA64A0FE489E","title":"Banyan Tree Shanghai On The Bund","lon":"121.505994","lat":"31.252041","category":"500","category_name":"未知分类","address":"上海市虹口区海平路19号上海悦榕庄"},{"poiid":"B2094655D36CA6F5459C","title":"丹徒路","lon":"121.50511","lat":"31.25103","category":"38","category_name":"公交车站","address":""},{"poiid":"B2094753D56CA0F54798","title":"皇玺酒家","lon":"121.50669","lat":"31.243375","category":"247","category_name":"餐饮美食","address":"上海市 浦东南路27号"},{"poiid":"B2094757D464A0F9459A","title":"台南担仔面","lon":"121.50247","lat":"31.25113","category":"91","category_name":"台湾菜","address":"虹口区高阳路168号外滩浦华大酒店2楼(近东长治路)"},{"poiid":"B209475CD069A3FA419D","title":"皇璽","lon":"121.50641","lat":"31.24304","category":"47","category_name":"住宅区","address":"浦东南路27号(近银城路)"},{"poiid":"B2094655D36CA6F4449B","title":"东长治路公平路","lon":"121.5039","lat":"31.2506","category":"38","category_name":"公交车站","address":""},{"poiid":"B2094757D068A4F84799","title":"上海海运(集团)公司","lon":"121.502285524","lat":"31.2499618484","category":"46","category_name":"楼宇","address":"上海东大名路700号"},{"poiid":"B2094757D06AA0F8489E","title":"37路公交车(东大名路高阳路)","lon":"121.50246091","lat":"31.2500848936","category":"38","category_name":"公交车站","address":"上海虹口区东大名路高阳路"},{"poiid":"B2094757D165A2FD449C","title":"新客来","lon":"121.503581903","lat":"31.2508930142","category":"65","category_name":"咖啡厅","address":"虹口区东大名路815号(近高阳路)"},{"poiid":"B2094757D06FA1FD4592","title":"上海外滩浦华大酒店","lon":"121.50274","lat":"31.25086","category":"213","category_name":"五星级宾馆","address":"上海市虹口区高阳路168号(北外滩地区 近东大名路)"},{"poiid":"B2094750D56CA4F9459E","title":"上海外滩悅榕庄","lon":"121.50667204830165","lat":"31.249798205624163","category":"251","category_name":"出行住宿","address":"虹口区海平路19号"},{"poiid":"B2094757D06FA7FA4993","title":"北外滩","lon":"121.50491413","lat":"31.250150968","category":"260","category_name":"其他","address":"虹口区高阳路(近东大名路)"},{"poiid":"B209475CD564A7F84392","title":"上海滩浦东香格里拉店","lon":"121.50058","lat":"31.23634","category":"119","category_name":"商场","address":"浦东富成路33号香格里拉酒店内大堂层"},{"poiid":"B2094757D06FA6F54893","title":"上海港国际客运中心","lon":"121.50271","lat":"31.24954","category":"35","category_name":"长途汽车站","address":"虹口区东大名路800号(近高阳路)"},{"poiid":"B2094757D06FA5F94593","title":"前城酒家","lon":"121.50457","lat":"31.25358","category":"68","category_name":"快餐厅","address":"虹口区唐山路408号(近丹徒路)"},{"poiid":"B2094751D36BA4F5469D","title":"上海浦东文华东方酒店","lon":"121.50686659720611","lat":"31.243665106676545","category":"251","category_name":"出行住宿","address":"浦东新区浦东南路111号"},{"poiid":"B2094757D068ABFF429C","title":"老船长酒吧","lon":"121.502755758","lat":"31.2507747333","category":"172","category_name":"酒吧","address":"虹口区高阳路168号外滩浦华大酒店(东长治路高阳路)"},{"poiid":"B2094757D068A3F54592","title":"金岸大厦","lon":"121.50537716","lat":"31.250616563","category":"46","category_name":"楼宇","address":"丰台学城海鹰路1号,3号"},{"poiid":"B2094757D068A6F4459F","title":"芳庭海鲜酒店","lon":"121.50299835","lat":"31.25","category":"88","category_name":"海鲜酒楼","address":"虹口区东大名路809号(近高阳路)"},{"poiid":"B2094757D064A3F8429D","title":"上海建工集团总公司","lon":"121.501623103","lat":"31.2491349775","category":"263","category_name":"公司","address":"上海市虹口区东大名路666号"},{"poiid":"B2094654DA6FA7F8429D","title":"远洋大厦","lon":"121.503","lat":"31.2527","category":"46","category_name":"楼宇","address":"静安区长寿路(万航渡路口)"},{"poiid":"B2094757D068A7FE4598","title":"东大名路","lon":"121.504487","lat":"31.250967","category":"247","category_name":"餐饮美食","address":"上海东大名路"},{"poiid":"B2094655D26CA6FA429E","title":"公平路轮渡站","lon":"121.50744","lat":"31.24948","category":"34","category_name":"港口码头","address":"公平路60号"},{"poiid":"B2094757D16EA1FB429E","title":"白金湾广场","lon":"121.506182","lat":"31.2502193","category":"500","category_name":"未知分类","address":"相城区阳澄湖西路南、人民路西"},{"poiid":"B2094750DA6FA7FB4198","title":"桔子水晶酒店","lon":"121.502227","lat":"31.252765","category":"251","category_name":"出行住宿","address":"上海市虹口区公平路369号"},{"poiid":"B2094655D264A6F4409D","title":"上海轮渡游船码头","lon":"121.50722","lat":"31.24959","category":"34","category_name":"港口码头","address":"公平路1"},{"poiid":"B2094757D16CABFD429F","title":"浦江二号","lon":"121.5048131","lat":"31.248448963","category":"252","category_name":"楼宇机构","address":"上海市浦东新区滨江大道2050号"},{"poiid":"B2094757D568A1FD429C","title":"上海港国际客运中心1号游艇码头","lon":"121.503768","lat":"31.248825","category":"35","category_name":"长途汽车站","address":"中国上海市虹口区"},{"poiid":"B2094757D06AA3FF499C","title":"中国海运","lon":"121.50300508","lat":"31.249953241","category":"46","category_name":"楼宇","address":"上海东大名路700号"},{"poiid":"B2094654D56DA4FA409E","title":"高阳商务中心","lon":"121.50376","lat":"31.25102","category":"46","category_name":"楼宇","address":"虹口区东大名路879号"},{"poiid":"B2094757D06AA2F4479B","title":"航交所","lon":"121.50562865","lat":"31.250870177","category":"500","category_name":"未知分类","address":"上海航交所"},{"poiid":"B2094757D06AA6FA4192","title":"泰东路渡口","lon":"121.50572636","lat":"31.2436887252","category":"34","category_name":"港口码头","address":"上海浦东新区滨江大道"},{"poiid":"B2094753DB68A4F84292","title":"上海浦东文华东方大酒店","lon":"121.507225","lat":"31.243402","category":"500","category_name":"未知分类","address":"上海市 浦东南路111号"},{"poiid":"B2094757D06BABF5469F","title":"白金灣府邸","lon":"121.50593167","lat":"31.25022437","category":"47","category_name":"住宅区","address":"上海海平路18號"},{"poiid":"B2094757D06AA7FA409D","title":"东长治路","lon":"121.5008371","lat":"31.250816012","category":"500","category_name":"未知分类","address":"上海东长治路"},{"poiid":"B2094757D16FA0FB4792","title":"韶山湘菜","lon":"121.501586","lat":"31.249933","category":"77","category_name":"湖南菜","address":"虹口区东大名路713号"},{"poiid":"B2094751D464A7FC4999","title":"上海外滩悦榕庄","lon":"121.508204","lat":"31.249116","category":"251","category_name":"出行住宿","address":"中国上海市虹口区海平路19号"},{"poiid":"B2094655D26BAAFF499E","title":"东方海港国际大厦","lon":"121.5085","lat":"31.25176","category":"46","category_name":"楼宇","address":"东大名路1080号"},{"poiid":"B2094751D26AA3FA479F","title":"东方明珠电视塔","lon":"121.505035","lat":"31.245845","category":"250","category_name":"公园户外","address":"上海"},{"poiid":"B2094655D26FAAF8489D","title":"港务大厦","lon":"121.504","lat":"31.2459","category":"46","category_name":"楼宇","address":"丰和路1号"},{"poiid":"B2094654D56DA4FB459E","title":"晟隆大厦","lon":"121.50245","lat":"31.25159","category":"46","category_name":"楼宇","address":"鲁尔大厦位于铁西兴华南街5号"},{"poiid":"B209475DD169A2FD4598","title":"12号线大连路地铁站","lon":"121.504058","lat":"31.248817","category":"500","category_name":"未知分类","address":"上海市 上海市大连路"},{"poiid":"B2094757D66BA2FB419F","title":"松涛","lon":"121.502962","lat":"31.250636","category":"95","category_name":"日本料理","address":"虹口区高阳路168号上海外滩浦华大酒店2楼(近东长治路)"},{"poiid":"B2094751D26BAAFB469B","title":"4号线杨树浦路站","lon":"121.506646","lat":"31.2512858","category":"500","category_name":"未知分类","address":null},{"poiid":"B2094757D065A7FE459A","title":"歌诗达号游轮","lon":"121.50376","lat":"31.24992","category":"247","category_name":"餐饮美食","address":"上海虹口区东大名路800号(近高阳路)  "},{"poiid":"B209475CD465ABF5409C","title":"Mandarin Oriental Pudong","lon":"121.504547","lat":"31.247419","category":"500","category_name":"未知分类","address":"上海市 上海市浦东南路111号"},{"poiid":"B2094655D36CA6F4409E","title":"东大名路高阳路","lon":"121.50246","lat":"31.25008","category":"38","category_name":"公交车站","address":""},{"poiid":"B2094655D26EA2FA479B","title":"大湘园","lon":"121.50313243813","lat":"31.250423762667","category":"77","category_name":"湖南菜","address":"虹口区东大名路799号(近高阳路)"},{"poiid":"B2094757DB6EABFB4393","title":"IFC","lon":"121.5036982938787","lat":"31.24893246365057","category":"500","category_name":"未知分类","address":"IFC"},{"poiid":"B2094752D069A2FF419A","title":"新白鹿","lon":"121.4996283","lat":"31.2488492","category":"247","category_name":"餐饮美食","address":"南京东路800号东方商厦9楼"},{"poiid":"B2094751DA64A0FE489E","title":"Banyan Tree Shanghai On The Bund","lon":"121.505994","lat":"31.252041","category":"500","category_name":"未知分类","address":"上海市虹口区海平路19号上海悦榕庄"},{"poiid":"B2094655D36CA6F5459C","title":"丹徒路","lon":"121.50511","lat":"31.25103","category":"38","category_name":"公交车站","address":""},{"poiid":"B2094753D56CA0F54798","title":"皇玺酒家","lon":"121.50669","lat":"31.243375","category":"247","category_name":"餐饮美食","address":"上海市 浦东南路27号"},{"poiid":"B2094757D464A0F9459A","title":"台南担仔面","lon":"121.50247","lat":"31.25113","category":"91","category_name":"台湾菜","address":"虹口区高阳路168号外滩浦华大酒店2楼(近东长治路)"},{"poiid":"B209475CD069A3FA419D","title":"皇璽","lon":"121.50641","lat":"31.24304","category":"47","category_name":"住宅区","address":"浦东南路27号(近银城路)"},{"poiid":"B2094655D36CA6F4449B","title":"东长治路公平路","lon":"121.5039","lat":"31.2506","category":"38","category_name":"公交车站","address":""},{"poiid":"B2094757D068A4F84799","title":"上海海运(集团)公司","lon":"121.502285524","lat":"31.2499618484","category":"46","category_name":"楼宇","address":"上海东大名路700号"},{"poiid":"B2094757D06AA0F8489E","title":"37路公交车(东大名路高阳路)","lon":"121.50246091","lat":"31.2500848936","category":"38","category_name":"公交车站","address":"上海虹口区东大名路高阳路"},{"poiid":"B2094757D165A2FD449C","title":"新客来","lon":"121.503581903","lat":"31.2508930142","category":"65","category_name":"咖啡厅","address":"虹口区东大名路815号(近高阳路)"},{"poiid":"B2094757D06FA1FD4592","title":"上海外滩浦华大酒店","lon":"121.50274","lat":"31.25086","category":"213","category_name":"五星级宾馆","address":"上海市虹口区高阳路168号(北外滩地区 近东大名路)"},{"poiid":"B2094750D56CA4F9459E","title":"上海外滩悅榕庄","lon":"121.50667204830165","lat":"31.249798205624163","category":"251","category_name":"出行住宿","address":"虹口区海平路19号"},{"poiid":"B2094757D06FA7FA4993","title":"北外滩","lon":"121.50491413","lat":"31.250150968","category":"260","category_name":"其他","address":"虹口区高阳路(近东大名路)"},{"poiid":"B209475CD564A7F84392","title":"上海滩浦东香格里拉店","lon":"121.50058","lat":"31.23634","category":"119","category_name":"商场","address":"浦东富成路33号香格里拉酒店内大堂层"},{"poiid":"B2094757D06FA6F54893","title":"上海港国际客运中心","lon":"121.50271","lat":"31.24954","category":"35","category_name":"长途汽车站","address":"虹口区东大名路800号(近高阳路)"},{"poiid":"B2094757D06FA5F94593","title":"前城酒家","lon":"121.50457","lat":"31.25358","category":"68","category_name":"快餐厅","address":"虹口区唐山路408号(近丹徒路)"},{"poiid":"B2094751D36BA4F5469D","title":"上海浦东文华东方酒店","lon":"121.50686659720611","lat":"31.243665106676545","category":"251","category_name":"出行住宿","address":"浦东新区浦东南路111号"},{"poiid":"B2094757D068ABFF429C","title":"老船长酒吧","lon":"121.502755758","lat":"31.2507747333","category":"172","category_name":"酒吧","address":"虹口区高阳路168号外滩浦华大酒店(东长治路高阳路)"},{"poiid":"B2094757D068A3F54592","title":"金岸大厦","lon":"121.50537716","lat":"31.250616563","category":"46","category_name":"楼宇","address":"丰台学城海鹰路1号,3号"},{"poiid":"B2094757D068A6F4459F","title":"芳庭海鲜酒店","lon":"121.50299835","lat":"31.25","category":"88","category_name":"海鲜酒楼","address":"虹口区东大名路809号(近高阳路)"},{"poiid":"B2094757D064A3F8429D","title":"上海建工集团总公司","lon":"121.501623103","lat":"31.2491349775","category":"263","category_name":"公司","address":"上海市虹口区东大名路666号"},{"poiid":"B2094654DA6FA7F8429D","title":"远洋大厦","lon":"121.503","lat":"31.2527","category":"46","category_name":"楼宇","address":"静安区长寿路(万航渡路口)"},{"poiid":"B2094757D068A7FE4598","title":"东大名路","lon":"121.504487","lat":"31.250967","category":"247","category_name":"餐饮美食","address":"上海东大名路"},{"poiid":"B2094655D26CA6FA429E","title":"公平路轮渡站","lon":"121.50744","lat":"31.24948","category":"34","category_name":"港口码头","address":"公平路60号"},{"poiid":"B2094757D16EA1FB429E","title":"白金湾广场","lon":"121.506182","lat":"31.2502193","category":"500","category_name":"未知分类","address":"相城区阳澄湖西路南、人民路西"},{"poiid":"B2094750DA6FA7FB4198","title":"桔子水晶酒店","lon":"121.502227","lat":"31.252765","category":"251","category_name":"出行住宿","address":"上海市虹口区公平路369号"},{"poiid":"B2094655D264A6F4409D","title":"上海轮渡游船码头","lon":"121.50722","lat":"31.24959","category":"34","category_name":"港口码头","address":"公平路1"},{"poiid":"B2094757D16CABFD429F","title":"浦江二号","lon":"121.5048131","lat":"31.248448963","category":"252","category_name":"楼宇机构","address":"上海市浦东新区滨江大道2050号"},{"poiid":"B2094757D568A1FD429C","title":"上海港国际客运中心1号游艇码头","lon":"121.503768","lat":"31.248825","category":"35","category_name":"长途汽车站","address":"中国上海市虹口区"},{"poiid":"B2094757D06AA3FF499C","title":"中国海运","lon":"121.50300508","lat":"31.249953241","category":"46","category_name":"楼宇","address":"上海东大名路700号"},{"poiid":"B2094654D56DA4FA409E","title":"高阳商务中心","lon":"121.50376","lat":"31.25102","category":"46","category_name":"楼宇","address":"虹口区东大名路879号"},{"poiid":"B2094757D06AA2F4479B","title":"航交所","lon":"121.50562865","lat":"31.250870177","category":"500","category_name":"未知分类","address":"上海航交所"},{"poiid":"B2094757D06AA6FA4192","title":"泰东路渡口","lon":"121.50572636","lat":"31.2436887252","category":"34","category_name":"港口码头","address":"上海浦东新区滨江大道"},{"poiid":"B2094753DB68A4F84292","title":"上海浦东文华东方大酒店","lon":"121.507225","lat":"31.243402","category":"500","category_name":"未知分类","address":"上海市 浦东南路111号"},{"poiid":"B2094757D06BABF5469F","title":"白金灣府邸","lon":"121.50593167","lat":"31.25022437","category":"47","category_name":"住宅区","address":"上海海平路18號"},{"poiid":"B2094757D06AA7FA409D","title":"东长治路","lon":"121.5008371","lat":"31.250816012","category":"500","category_name":"未知分类","address":"上海东长治路"},{"poiid":"B2094757D16FA0FB4792","title":"韶山湘菜","lon":"121.501586","lat":"31.249933","category":"77","category_name":"湖南菜","address":"虹口区东大名路713号"},{"poiid":"B2094751D464A7FC4999","title":"上海外滩悦榕庄","lon":"121.508204","lat":"31.249116","category":"251","category_name":"出行住宿","address":"中国上海市虹口区海平路19号"},{"poiid":"B2094655D26BAAFF499E","title":"东方海港国际大厦","lon":"121.5085","lat":"31.25176","category":"46","category_name":"楼宇","address":"东大名路1080号"},{"poiid":"B2094751D26AA3FA479F","title":"东方明珠电视塔","lon":"121.505035","lat":"31.245845","category":"250","category_name":"公园户外","address":"上海"},{"poiid":"B2094655D26FAAF8489D","title":"港务大厦","lon":"121.504","lat":"31.2459","category":"46","category_name":"楼宇","address":"丰和路1号"},{"poiid":"B2094654D56DA4FB459E","title":"晟隆大厦","lon":"121.50245","lat":"31.25159","category":"46","category_name":"楼宇","address":"鲁尔大厦位于铁西兴华南街5号"},{"poiid":"B209475DD169A2FD4598","title":"12号线大连路地铁站","lon":"121.504058","lat":"31.248817","category":"500","category_name":"未知分类","address":"上海市 上海市大连路"},{"poiid":"B2094757D66BA2FB419F","title":"松涛","lon":"121.502962","lat":"31.250636","category":"95","category_name":"日本料理","address":"虹口区高阳路168号上海外滩浦华大酒店2楼(近东长治路)"},{"poiid":"B2094751D26BAAFB469B","title":"4号线杨树浦路站","lon":"121.506646","lat":"31.2512858","category":"500","category_name":"未知分类","address":null},{"poiid":"B2094757D065A7FE459A","title":"歌诗达号游轮","lon":"121.50376","lat":"31.24992","category":"247","category_name":"餐饮美食","address":"上海虹口区东大名路800号(近高阳路)  "},{"poiid":"B209475CD465ABF5409C","title":"Mandarin Oriental Pudong","lon":"121.504547","lat":"31.247419","category":"500","category_name":"未知分类","address":"上海市 上海市浦东南路111号"},{"poiid":"B2094655D36CA6F4409E","title":"东大名路高阳路","lon":"121.50246","lat":"31.25008","category":"38","category_name":"公交车站","address":""},{"poiid":"B2094655D26EA2FA479B","title":"大湘园","lon":"121.50313243813","lat":"31.250423762667","category":"77","category_name":"湖南菜","address":"虹口区东大名路799号(近高阳路)"},{"poiid":"B2094757DB6EABFB4393","title":"IFC","lon":"121.5036982938787","lat":"31.24893246365057","category":"500","category_name":"未知分类","address":"IFC"},{"poiid":"B2094752D069A2FF419A","title":"新白鹿","lon":"121.4996283","lat":"31.2488492","category":"247","category_name":"餐饮美食","address":"南京东路800号东方商厦9楼"},{"poiid":"B2094751DA64A0FE489E","title":"Banyan Tree Shanghai On The Bund","lon":"121.505994","lat":"31.252041","category":"500","category_name":"未知分类","address":"上海市虹口区海平路19号上海悦榕庄"},{"poiid":"B2094655D36CA6F5459C","title":"丹徒路","lon":"121.50511","lat":"31.25103","category":"38","category_name":"公交车站","address":""},{"poiid":"B2094753D56CA0F54798","title":"皇玺酒家","lon":"121.50669","lat":"31.243375","category":"247","category_name":"餐饮美食","address":"上海市 浦东南路27号"},{"poiid":"B2094757D464A0F9459A","title":"台南担仔面","lon":"121.50247","lat":"31.25113","category":"91","category_name":"台湾菜","address":"虹口区高阳路168号外滩浦华大酒店2楼(近东长治路)"},{"poiid":"B209475CD069A3FA419D","title":"皇璽","lon":"121.50641","lat":"31.24304","category":"47","category_name":"住宅区","address":"浦东南路27号(近银城路)"},{"poiid":"B2094655D36CA6F4449B","title":"东长治路公平路","lon":"121.5039","lat":"31.2506","category":"38","category_name":"公交车站","address":""},{"poiid":"B2094757D068A4F84799","title":"上海海运(集团)公司","lon":"121.502285524","lat":"31.2499618484","category":"46","category_name":"楼宇","address":"上海东大名路700号"},{"poiid":"B2094757D06AA0F8489E","title":"37路公交车(东大名路高阳路)","lon":"121.50246091","lat":"31.2500848936","category":"38","category_name":"公交车站","address":"上海虹口区东大名路高阳路"},{"poiid":"B2094757D165A2FD449C","title":"新客来","lon":"121.503581903","lat":"31.2508930142","category":"65","category_name":"咖啡厅","address":"虹口区东大名路815号(近高阳路)"}]