[{"poiid":"B2094654D464A7F54798","title":"大宁灵石公园(西门)","lon":"121.43717","lat":"31.27445","category":"680","category_name":"楼宇机构","address":"广中西路"},{"poiid":"B2094757D06FAAFA489C","title":"回民中学","lon":"121.43503981","lat":"31.269070517","category":"55","category_name":"中学","address":"闸北区沪太路1000号(近宜川路)"},{"poiid":"B2094655D36DA0FA439C","title":"宜川路沪太路","lon":"121.43823","lat":"31.27029","category":"38","category_name":"公交车站","address":""},{"poiid":"B2094757D06FA2FB499C","title":"肯德基 KFC (广中西路店)","lon":"121.436305","lat":"31.275053","category":"68","category_name":"快餐厅","address":"闸北区广中西路758号(近运城路)"},{"poiid":"B2094757D064A3FC4099","title":"舟山渔村","lon":"121.43860888","lat":"31.26911301","category":"247","category_name":"餐饮美食","address":"闸北区宜川路717号(近沪太路)"},{"poiid":"B2094757D06FA5FB4298","title":"小绍兴(运城路店)","lon":"121.43503","lat":"31.27485","category":"68","category_name":"快餐厅","address":"闸北区运城路577号(近广中西路)"},{"poiid":"B2094757D06FAAFA4498","title":"佳宁花园","lon":"121.43584","lat":"31.27162","category":"47","category_name":"住宅区","address":"上海市长宁区延安西路1235弄"},{"poiid":"B2094757D068A6F94792","title":"嘉茵苑","lon":"121.43604","lat":"31.275597","category":"47","category_name":"住宅区","address":"上海市闸北区广中西路999弄"},{"poiid":"B2094654D464A7F5409B","title":"望景苑","lon":"121.43926","lat":"31.269672","category":"47","category_name":"住宅区","address":"上海市闸北区宜川路733弄"},{"poiid":"B2094654DB6AA4F5499F","title":"锦江之星(沪太路店)","lon":"121.43601","lat":"31.27035","category":"216","category_name":"经济型连锁酒店","address":"上海市闸北区沪太路893号(近宜川路)"},{"poiid":"B2094655D36CA5FC4298","title":"大宁路","lon":"121.44197","lat":"31.26979","category":"38","category_name":"公交车站","address":""},{"poiid":"B2094654D464ABFF459A","title":"东泉苑","lon":"121.438","lat":"31.2772","category":"47","category_name":"住宅区","address":"志丹路380弄,400弄,500弄"},{"poiid":"B2094757D068A5F84092","title":"新村路子长路","lon":"121.43429395","lat":"31.2674530113","category":"260","category_name":"其他","address":"上海市普陀区新村路子长路"},{"poiid":"B2094757D464A0FB449D","title":"伊诺咖啡 闸北店","lon":"121.438828054","lat":"31.268842793","category":"65","category_name":"咖啡厅","address":"闸北区沪太路877号(近宜川路)"},{"poiid":"B2094654D464A7F8479B","title":"广中苑","lon":"121.43714","lat":"31.276594","category":"47","category_name":"住宅区","address":"广中西路911弄"},{"poiid":"B2094757D169A1FD499B","title":"邱记潮汕砂锅粥","lon":"121.43439795","lat":"31.2756481678","category":"72","category_name":"广东菜","address":"闸北区运城路613号(近广中西路)"},{"poiid":"B2094750D76EAAFB4699","title":"春天里","lon":"121.44","lat":"31.2713","category":"95","category_name":"日本料理","address":"闸北区宜川路851号(近运城路)"},{"poiid":"B2094757D06FA7FB4392","title":"世纪花苑","lon":"121.43383","lat":"31.2724","category":"252","category_name":"楼宇机构","address":"上海市闸北区俞泾港路18号"},{"poiid":"B2094757D06AA0FB469E","title":"鼎鑫量贩式KTV","lon":"121.437874145","lat":"31.2691608439","category":"170","category_name":"KTV","address":"上海宜川路725号"},{"poiid":"B2094654D464A7F54193","title":"宜川小区","lon":"121.43669","lat":"31.272242","category":"47","category_name":"住宅区","address":"宜川路810弄"},{"poiid":"B2094757D069A2FB409E","title":"闸北区房地产交易中心","lon":"121.4359672","lat":"31.27057144","category":"500","category_name":"未知分类","address":"上海老沪太路1233号"},{"poiid":"B2094654D464A7F54493","title":"绿园小区","lon":"121.43663","lat":"31.270813","category":"47","category_name":"住宅区","address":"上海市沪太路883弄"},{"poiid":"B2094654D464ABFE4799","title":"新村路350弄","lon":"121.438","lat":"31.2721","category":"47","category_name":"住宅区","address":"新村路350弄"},{"poiid":"B2094750D76EA7F84892","title":"雅樱酒店","lon":"121.432","lat":"31.2728","category":"76","category_name":"上海菜","address":"闸北区广中西路1207号创业大厦2楼(近沪太路)"},{"poiid":"B2094757D465A1F9409B","title":"真火炭烤鱼 运城路店","lon":"121.43566504189","lat":"31.274065514042","category":"247","category_name":"餐饮美食","address":"闸北区运城路599号(灵石路广中西路间)"},{"poiid":"B2094757D068AAFD4098","title":"天香阁","lon":"121.434736","lat":"31.274644","category":"76","category_name":"上海菜","address":"闸北区广中西路1097号(近运城路)"},{"poiid":"B2094655D26AA5F4439F","title":"广州本田华田4S店","lon":"121.43545","lat":"31.27097","category":"247","category_name":"餐饮美食","address":"普陀区沪太路901号(近广中路)"},{"poiid":"B2094655D26FA1F5439C","title":"宜川小区(东门)","lon":"121.43731","lat":"31.27258","category":"47","category_name":"住宅区","address":"宜川路810弄"},{"poiid":"B2094654D464A7F5429A","title":"宁泰鳌苑","lon":"121.43788","lat":"31.27092","category":"47","category_name":"住宅区","address":"运城路341"},{"poiid":"B2094757D06BA1FF4598","title":"回民中学羽毛球馆","lon":"121.43585635","lat":"31.268529631","category":"500","category_name":"未知分类","address":"普陀区沪太路1000号(近宜川路)"},{"poiid":"B2094654DB6AA4F5499B","title":"永琪美容美发(宜川店)","lon":"121.43887","lat":"31.27075","category":"148","category_name":"美容美发店","address":"闸北区宜川路796号(近沪太路)"},{"poiid":"B2094751DB6BA1F54199","title":"粤府大酒楼","lon":"121.43482","lat":"31.27464","category":"72","category_name":"广东菜","address":"闸北区广中西路1097号(近运城路)"},{"poiid":"B2094654D464A4F8449D","title":"新沪小区","lon":"121.43684","lat":"31.268066","category":"47","category_name":"住宅区","address":"新村路39弄13-65(单)"},{"poiid":"B2094757D068A0F44599","title":"华联吉买盛(新村店)","lon":"121.435840339","lat":"31.2671275041","category":"118","category_name":"超级市场","address":"普陀区新村路139号(宜川路口)"},{"poiid":"B2094757D16BA3FE4693","title":"沪太路宜川路公交站","lon":"121.436284017","lat":"31.2701196289","category":"38","category_name":"公交车站","address":"上海845 58 959 974 185 963"},{"poiid":"B2094655D26EA2FB499D","title":"布丁酒店上海沪太路店","lon":"121.4317","lat":"31.27181","category":"216","category_name":"经济型连锁酒店","address":"上海普陀区志丹路524号(近沪太路)。"},{"poiid":"B2094655D26EA3F8459C","title":"新俪公寓","lon":"121.43730975442","lat":"31.27120943696","category":"250","category_name":"公园户外","address":"普陀区志丹路262号(近新村路)"},{"poiid":"B2094757D068A5FF4398","title":"名悦酒家","lon":"121.43874","lat":"31.27613","category":"72","category_name":"广东菜","address":"闸北区广中西路757号多媒体大楼3楼(近万荣路)"},{"poiid":"B2094654D464A7F44993","title":"美中美海鲜宫","lon":"121.437712054","lat":"31.269396793","category":"247","category_name":"餐饮美食","address":"宜川路725号近沪太路"},{"poiid":"B2094757D064A2FB4792","title":"广州本田华田4S","lon":"121.435171","lat":"31.270589","category":"163","category_name":"4S店","address":"上海沪太路901号"},{"poiid":"B2094654DB6AA4F54893","title":"克丽缇娜","lon":"121.43871","lat":"31.27081","category":"148","category_name":"美容美发店","address":"宜川路798"},{"poiid":"B2094654D464A4F84298","title":"上海市延河中学","lon":"121.43735","lat":"31.26767","category":"55","category_name":"中学","address":"普陀区新村路99号(宜川路口)"},{"poiid":"B2094655D26DA5FF469E","title":"良友No.261","lon":"121.43619","lat":"31.27025","category":"117","category_name":"便民商店/便利店","address":"沪太路885"},{"poiid":"B2094655D36CA7FE419D","title":"沪太路宜川路","lon":"121.4351","lat":"31.27049","category":"38","category_name":"公交车站","address":""},{"poiid":"B2094654DB65A0F9459B","title":"罗克酒吧","lon":"121.43867","lat":"31.27093","category":"172","category_name":"酒吧","address":"宜川路802号"},{"poiid":"B2094751D364ABFD449D","title":"陆家嘴金融中心","lon":"121.434967","lat":"31.273193","category":"252","category_name":"楼宇机构","address":"浦东大道"},{"poiid":"B2094655D26FA1F5439F","title":"绿园小区(西门)","lon":"121.43631","lat":"31.27024","category":"47","category_name":"住宅区","address":"沪太路883弄"},{"poiid":"B2094752D46BA5F8429F","title":"大润发大宁店","lon":"121.435731","lat":"31.27211","category":"500","category_name":"未知分类","address":null},{"poiid":"B2094655D26EA3FD4493","title":"汇味馆","lon":"121.43338","lat":"31.27564","category":"257","category_name":"中餐厅","address":"闸北区运城路633-645号(近广中西路)"},{"poiid":"B2094750D56EAAFB479F","title":"环球健身","lon":"121.435768","lat":"31.27086","category":"220","category_name":"运动场所","address":null},{"poiid":"B2094654D464A7F54798","title":"大宁灵石公园(西门)","lon":"121.43717","lat":"31.27445","category":"680","category_name":"楼宇机构","address":"广中西路"},{"poiid":"B2094757D06FAAFA489C","title":"回民中学","lon":"121.43503981","lat":"31.269070517","category":"55","category_name":"中学","address":"闸北区沪太路1000号(近宜川路)"},{"poiid":"B2094655D36DA0FA439C","title":"宜川路沪太路","lon":"121.43823","lat":"31.27029","category":"38","category_name":"公交车站","address":""},{"poiid":"B2094757D06FA2FB499C","title":"肯德基 KFC (广中西路店)","lon":"121.436305","lat":"31.275053","category":"68","category_name":"快餐厅","address":"闸北区广中西路758号(近运城路)"},{"poiid":"B2094757D064A3FC4099","title":"舟山渔村","lon":"121.43860888","lat":"31.26911301","category":"247","category_name":"餐饮美食","address":"闸北区宜川路717号(近沪太路)"},{"poiid":"B2094757D06FA5FB4298","title":"小绍兴(运城路店)","lon":"121.43503","lat":"31.27485","category":"68","category_name":"快餐厅","address":"闸北区运城路577号(近广中西路)"},{"poiid":"B2094757D06FAAFA4498","title":"佳宁花园","lon":"121.43584","lat":"31.27162","category":"47","category_name":"住宅区","address":"上海市长宁区延安西路1235弄"},{"poiid":"B2094757D068A6F94792","title":"嘉茵苑","lon":"121.43604","lat":"31.275597","category":"47","category_name":"住宅区","address":"上海市闸北区广中西路999弄"},{"poiid":"B2094654D464A7F5409B","title":"望景苑","lon":"121.43926","lat":"31.269672","category":"47","category_name":"住宅区","address":"上海市闸北区宜川路733弄"},{"poiid":"B2094654DB6AA4F5499F","title":"锦江之星(沪太路店)","lon":"121.43601","lat":"31.27035","category":"216","category_name":"经济型连锁酒店","address":"上海市闸北区沪太路893号(近宜川路)"},{"poiid":"B2094655D36CA5FC4298","title":"大宁路","lon":"121.44197","lat":"31.26979","category":"38","category_name":"公交车站","address":""},{"poiid":"B2094654D464ABFF459A","title":"东泉苑","lon":"121.438","lat":"31.2772","category":"47","category_name":"住宅区","address":"志丹路380弄,400弄,500弄"},{"poiid":"B2094757D068A5F84092","title":"新村路子长路","lon":"121.43429395","lat":"31.2674530113","category":"260","category_name":"其他","address":"上海市普陀区新村路子长路"},{"poiid":"B2094757D464A0FB449D","title":"伊诺咖啡 闸北店","lon":"121.438828054","lat":"31.268842793","category":"65","category_name":"咖啡厅","address":"闸北区沪太路877号(近宜川路)"},{"poiid":"B2094654D464A7F8479B","title":"广中苑","lon":"121.43714","lat":"31.276594","category":"47","category_name":"住宅区","address":"广中西路911弄"},{"poiid":"B2094757D169A1FD499B","title":"邱记潮汕砂锅粥","lon":"121.43439795","lat":"31.2756481678","category":"72","category_name":"广东菜","address":"闸北区运城路613号(近广中西路)"},{"poiid":"B2094750D76EAAFB4699","title":"春天里","lon":"121.44","lat":"31.2713","category":"95","category_name":"日本料理","address":"闸北区宜川路851号(近运城路)"},{"poiid":"B2094757D06FA7FB4392","title":"世纪花苑","lon":"121.43383","lat":"31.2724","category":"252","category_name":"楼宇机构","address":"上海市闸北区俞泾港路18号"},{"poiid":"B2094757D06AA0FB469E","title":"鼎鑫量贩式KTV","lon":"121.437874145","lat":"31.2691608439","category":"170","category_name":"KTV","address":"上海宜川路725号"},{"poiid":"B2094654D464A7F54193","title":"宜川小区","lon":"121.43669","lat":"31.272242","category":"47","category_name":"住宅区","address":"宜川路810弄"},{"poiid":"B2094757D069A2FB409E","title":"闸北区房地产交易中心","lon":"121.4359672","lat":"31.27057144","category":"500","category_name":"未知分类","address":"上海老沪太路1233号"},{"poiid":"B2094654D464A7F54493","title":"绿园小区","lon":"121.43663","lat":"31.270813","category":"47","category_name":"住宅区","address":"上海市沪太路883弄"},{"poiid":"B2094654D464ABFE4799","title":"新村路350弄","lon":"121.438","lat":"31.2721","category":"47","category_name":"住宅区","address":"新村路350弄"},{"poiid":"B2094750D76EA7F84892","title":"雅樱酒店","lon":"121.432","lat":"31.2728","category":"76","category_name":"上海菜","address":"闸北区广中西路1207号创业大厦2楼(近沪太路)"},{"poiid":"B2094757D465A1F9409B","title":"真火炭烤鱼 运城路店","lon":"121.43566504189","lat":"31.274065514042","category":"247","category_name":"餐饮美食","address":"闸北区运城路599号(灵石路广中西路间)"},{"poiid":"B2094757D068AAFD4098","title":"天香阁","lon":"121.434736","lat":"31.274644","category":"76","category_name":"上海菜","address":"闸北区广中西路1097号(近运城路)"},{"poiid":"B2094655D26AA5F4439F","title":"广州本田华田4S店","lon":"121.43545","lat":"31.27097","category":"247","category_name":"餐饮美食","address":"普陀区沪太路901号(近广中路)"},{"poiid":"B2094655D26FA1F5439C","title":"宜川小区(东门)","lon":"121.43731","lat":"31.27258","category":"47","category_name":"住宅区","address":"宜川路810弄"},{"poiid":"B2094654D464A7F5429A","title":"宁泰鳌苑","lon":"121.43788","lat":"31.27092","category":"47","category_name":"住宅区","address":"运城路341"},{"poiid":"B2094757D06BA1FF4598","title":"回民中学羽毛球馆","lon":"121.43585635","lat":"31.268529631","category":"500","category_name":"未知分类","address":"普陀区沪太路1000号(近宜川路)"},{"poiid":"B2094654DB6AA4F5499B","title":"永琪美容美发(宜川店)","lon":"121.43887","lat":"31.27075","category":"148","category_name":"美容美发店","address":"闸北区宜川路796号(近沪太路)"},{"poiid":"B2094751DB6BA1F54199","title":"粤府大酒楼","lon":"121.43482","lat":"31.27464","category":"72","category_name":"广东菜","address":"闸北区广中西路1097号(近运城路)"},{"poiid":"B2094654D464A4F8449D","title":"新沪小区","lon":"121.43684","lat":"31.268066","category":"47","category_name":"住宅区","address":"新村路39弄13-65(单)"},{"poiid":"B2094757D068A0F44599","title":"华联吉买盛(新村店)","lon":"121.435840339","lat":"31.2671275041","category":"118","category_name":"超级市场","address":"普陀区新村路139号(宜川路口)"},{"poiid":"B2094757D16BA3FE4693","title":"沪太路宜川路公交站","lon":"121.436284017","lat":"31.2701196289","category":"38","category_name":"公交车站","address":"上海845 58 959 974 185 963"},{"poiid":"B2094655D26EA2FB499D","title":"布丁酒店上海沪太路店","lon":"121.4317","lat":"31.27181","category":"216","category_name":"经济型连锁酒店","address":"上海普陀区志丹路524号(近沪太路)。"},{"poiid":"B2094655D26EA3F8459C","title":"新俪公寓","lon":"121.43730975442","lat":"31.27120943696","category":"250","category_name":"公园户外","address":"普陀区志丹路262号(近新村路)"},{"poiid":"B2094757D068A5FF4398","title":"名悦酒家","lon":"121.43874","lat":"31.27613","category":"72","category_name":"广东菜","address":"闸北区广中西路757号多媒体大楼3楼(近万荣路)"},{"poiid":"B2094654D464A7F44993","title":"美中美海鲜宫","lon":"121.437712054","lat":"31.269396793","category":"247","category_name":"餐饮美食","address":"宜川路725号近沪太路"},{"poiid":"B2094757D064A2FB4792","title":"广州本田华田4S","lon":"121.435171","lat":"31.270589","category":"163","category_name":"4S店","address":"上海沪太路901号"},{"poiid":"B2094654DB6AA4F54893","title":"克丽缇娜","lon":"121.43871","lat":"31.27081","category":"148","category_name":"美容美发店","address":"宜川路798"},{"poiid":"B2094654D464A4F84298","title":"上海市延河中学","lon":"121.43735","lat":"31.26767","category":"55","category_name":"中学","address":"普陀区新村路99号(宜川路口)"},{"poiid":"B2094655D26DA5FF469E","title":"良友No.261","lon":"121.43619","lat":"31.27025","category":"117","category_name":"便民商店/便利店","address":"沪太路885"},{"poiid":"B2094655D36CA7FE419D","title":"沪太路宜川路","lon":"121.4351","lat":"31.27049","category":"38","category_name":"公交车站","address":""},{"poiid":"B2094654DB65A0F9459B","title":"罗克酒吧","lon":"121.43867","lat":"31.27093","category":"172","category_name":"酒吧","address":"宜川路802号"},{"poiid":"B2094751D364ABFD449D","title":"陆家嘴金融中心","lon":"121.434967","lat":"31.273193","category":"252","category_name":"楼宇机构","address":"浦东大道"},{"poiid":"B2094655D26FA1F5439F","title":"绿园小区(西门)","lon":"121.43631","lat":"31.27024","category":"47","category_name":"住宅区","address":"沪太路883弄"},{"poiid":"B2094752D46BA5F8429F","title":"大润发大宁店","lon":"121.435731","lat":"31.27211","category":"500","category_name":"未知分类","address":null},{"poiid":"B2094655D26EA3FD4493","title":"汇味馆","lon":"121.43338","lat":"31.27564","category":"257","category_name":"中餐厅","address":"闸北区运城路633-645号(近广中西路)"},{"poiid":"B2094750D56EAAFB479F","title":"环球健身","lon":"121.435768","lat":"31.27086","category":"220","category_name":"运动场所","address":null},{"poiid":"B2094654D464A7F54798","title":"大宁灵石公园(西门)","lon":"121.43717","lat":"31.27445","category":"680","category_name":"楼宇机构","address":"广中西路"},{"poiid":"B2094757D06FAAFA489C","title":"回民中学","lon":"121.43503981","lat":"31.269070517","category":"55","category_name":"中学","address":"闸北区沪太路1000号(近宜川路)"},{"poiid":"B2094655D36DA0FA439C","title":"宜川路沪太路","lon":"121.43823","lat":"31.27029","category":"38","category_name":"公交车站","address":""},{"poiid":"B2094757D06FA2FB499C","title":"肯德基 KFC (广中西路店)","lon":"121.436305","lat":"31.275053","category":"68","category_name":"快餐厅","address":"闸北区广中西路758号(近运城路)"},{"poiid":"B2094757D064A3FC4099","title":"舟山渔村","lon":"121.43860888","lat":"31.26911301","category":"247","category_name":"餐饮美食","address":"闸北区宜川路717号(近沪太路)"},{"poiid":"B2094757D06FA5FB4298","title":"小绍兴(运城路店)","lon":"121.43503","lat":"31.27485","category":"68","category_name":"快餐厅","address":"闸北区运城路577号(近广中西路)"},{"poiid":"B2094757D06FAAFA4498","title":"佳宁花园","lon":"121.43584","lat":"31.27162","category":"47","category_name":"住宅区","address":"上海市长宁区延安西路1235弄"},{"poiid":"B2094757D068A6F94792","title":"嘉茵苑","lon":"121.43604","lat":"31.275597","category":"47","category_name":"住宅区","address":"上海市闸北区广中西路999弄"},{"poiid":"B2094654D464A7F5409B","title":"望景苑","lon":"121.43926","lat":"31.269672","category":"47","category_name":"住宅区","address":"上海市闸北区宜川路733弄"},{"poiid":"B2094654DB6AA4F5499F","title":"锦江之星(沪太路店)","lon":"121.43601","lat":"31.27035","category":"216","category_name":"经济型连锁酒店","address":"上海市闸北区沪太路893号(近宜川路)"},{"poiid":"B2094655D36CA5FC4298","title":"大宁路","lon":"121.44197","lat":"31.26979","category":"38","category_name":"公交车站","address":""},{"poiid":"B2094654D464ABFF459A","title":"东泉苑","lon":"121.438","lat":"31.2772","category":"47","category_name":"住宅区","address":"志丹路380弄,400弄,500弄"},{"poiid":"B2094757D068A5F84092","title":"新村路子长路","lon":"121.43429395","lat":"31.2674530113","category":"260","category_name":"其他","address":"上海市普陀区新村路子长路"},{"poiid":"B2094757D464A0FB449D","title":"伊诺咖啡 闸北店","lon":"121.438828054","lat":"31.268842793","category":"65","category_name":"咖啡厅","address":"闸北区沪太路877号(近宜川路)"},{"poiid":"B2094654D464A7F8479B","title":"广中苑","lon":"121.43714","lat":"31.276594","category":"47","category_name":"住宅区","address":"广中西路911弄"},{"poiid":"B2094757D169A1FD499B","title":"邱记潮汕砂锅粥","lon":"121.43439795","lat":"31.2756481678","category":"72","category_name":"广东菜","address":"闸北区运城路613号(近广中西路)"},{"poiid":"B2094750D76EAAFB4699","title":"春天里","lon":"121.44","lat":"31.2713","category":"95","category_name":"日本料理","address":"闸北区宜川路851号(近运城路)"},{"poiid":"B2094757D06FA7FB4392","title":"世纪花苑","lon":"121.43383","lat":"31.2724","category":"252","category_name":"楼宇机构","address":"上海市闸北区俞泾港路18号"},{"poiid":"B2094757D06AA0FB469E","title":"鼎鑫量贩式KTV","lon":"121.437874145","lat":"31.2691608439","category":"170","category_name":"KTV","address":"上海宜川路725号"},{"poiid":"B2094654D464A7F54193","title":"宜川小区","lon":"121.43669","lat":"31.272242","category":"47","category_name":"住宅区","address":"宜川路810弄"},{"poiid":"B2094757D069A2FB409E","title":"闸北区房地产交易中心","lon":"121.4359672","lat":"31.27057144","category":"500","category_name":"未知分类","address":"上海老沪太路1233号"},{"poiid":"B2094654D464A7F54493","title":"绿园小区","lon":"121.43663","lat":"31.270813","category":"47","category_name":"住宅区","address":"上海市沪太路883弄"},{"poiid":"B2094654D464ABFE4799","title":"新村路350弄","lon":"121.438","lat":"31.2721","category":"47","category_name":"住宅区","address":"新村路350弄"},{"poiid":"B2094750D76EA7F84892","title":"雅樱酒店","lon":"121.432","lat":"31.2728","category":"76","category_name":"上海菜","address":"闸北区广中西路1207号创业大厦2楼(近沪太路)"},{"poiid":"B2094757D465A1F9409B","title":"真火炭烤鱼 运城路店","lon":"121.43566504189","lat":"31.274065514042","category":"247","category_name":"餐饮美食","address":"闸北区运城路599号(灵石路广中西路间)"},{"poiid":"B2094757D068AAFD4098","title":"天香阁","lon":"121.434736","lat":"31.274644","category":"76","category_name":"上海菜","address":"闸北区广中西路1097号(近运城路)"},{"poiid":"B2094655D26AA5F4439F","title":"广州本田华田4S店","lon":"121.43545","lat":"31.27097","category":"247","category_name":"餐饮美食","address":"普陀区沪太路901号(近广中路)"},{"poiid":"B2094655D26FA1F5439C","title":"宜川小区(东门)","lon":"121.43731","lat":"31.27258","category":"47","category_name":"住宅区","address":"宜川路810弄"},{"poiid":"B2094654D464A7F5429A","title":"宁泰鳌苑","lon":"121.43788","lat":"31.27092","category":"47","category_name":"住宅区","address":"运城路341"},{"poiid":"B2094757D06BA1FF4598","title":"回民中学羽毛球馆","lon":"121.43585635","lat":"31.268529631","category":"500","category_name":"未知分类","address":"普陀区沪太路1000号(近宜川路)"},{"poiid":"B2094654DB6AA4F5499B","title":"永琪美容美发(宜川店)","lon":"121.43887","lat":"31.27075","category":"148","category_name":"美容美发店","address":"闸北区宜川路796号(近沪太路)"},{"poiid":"B2094751DB6BA1F54199","title":"粤府大酒楼","lon":"121.43482","lat":"31.27464","category":"72","category_name":"广东菜","address":"闸北区广中西路1097号(近运城路)"},{"poiid":"B2094654D464A4F8449D","title":"新沪小区","lon":"121.43684","lat":"31.268066","category":"47","category_name":"住宅区","address":"新村路39弄13-65(单)"},{"poiid":"B2094757D068A0F44599","title":"华联吉买盛(新村店)","lon":"121.435840339","lat":"31.2671275041","category":"118","category_name":"超级市场","address":"普陀区新村路139号(宜川路口)"},{"poiid":"B2094757D16BA3FE4693","title":"沪太路宜川路公交站","lon":"121.436284017","lat":"31.2701196289","category":"38","category_name":"公交车站","address":"上海845 58 959 974 185 963"},{"poiid":"B2094655D26EA2FB499D","title":"布丁酒店上海沪太路店","lon":"121.4317","lat":"31.27181","category":"216","category_name":"经济型连锁酒店","address":"上海普陀区志丹路524号(近沪太路)。"},{"poiid":"B2094655D26EA3F8459C","title":"新俪公寓","lon":"121.43730975442","lat":"31.27120943696","category":"250","category_name":"公园户外","address":"普陀区志丹路262号(近新村路)"},{"poiid":"B2094757D068A5FF4398","title":"名悦酒家","lon":"121.43874","lat":"31.27613","category":"72","category_name":"广东菜","address":"闸北区广中西路757号多媒体大楼3楼(近万荣路)"},{"poiid":"B2094654D464A7F44993","title":"美中美海鲜宫","lon":"121.437712054","lat":"31.269396793","category":"247","category_name":"餐饮美食","address":"宜川路725号近沪太路"},{"poiid":"B2094757D064A2FB4792","title":"广州本田华田4S","lon":"121.435171","lat":"31.270589","category":"163","category_name":"4S店","address":"上海沪太路901号"},{"poiid":"B2094654DB6AA4F54893","title":"克丽缇娜","lon":"121.43871","lat":"31.27081","category":"148","category_name":"美容美发店","address":"宜川路798"},{"poiid":"B2094654D464A4F84298","title":"上海市延河中学","lon":"121.43735","lat":"31.26767","category":"55","category_name":"中学","address":"普陀区新村路99号(宜川路口)"},{"poiid":"B2094655D26DA5FF469E","title":"良友No.261","lon":"121.43619","lat":"31.27025","category":"117","category_name":"便民商店/便利店","address":"沪太路885"},{"poiid":"B2094655D36CA7FE419D","title":"沪太路宜川路","lon":"121.4351","lat":"31.27049","category":"38","category_name":"公交车站","address":""},{"poiid":"B2094654DB65A0F9459B","title":"罗克酒吧","lon":"121.43867","lat":"31.27093","category":"172","category_name":"酒吧","address":"宜川路802号"},{"poiid":"B2094751D364ABFD449D","title":"陆家嘴金融中心","lon":"121.434967","lat":"31.273193","category":"252","category_name":"楼宇机构","address":"浦东大道"},{"poiid":"B2094655D26FA1F5439F","title":"绿园小区(西门)","lon":"121.43631","lat":"31.27024","category":"47","category_name":"住宅区","address":"沪太路883弄"},{"poiid":"B2094752D46BA5F8429F","title":"大润发大宁店","lon":"121.435731","lat":"31.27211","category":"500","category_name":"未知分类","address":null},{"poiid":"B2094655D26EA3FD4493","title":"汇味馆","lon":"121.43338","lat":"31.27564","category":"257","category_name":"中餐厅","address":"闸北区运城路633-645号(近广中西路)"},{"poiid":"B2094750D56EAAFB479F","title":"环球健身","lon":"121.435768","lat":"31.27086","category":"220","category_name":"运动场所","address":null},{"poiid":"B2094654D464A7F54798","title":"大宁灵石公园(西门)","lon":"121.43717","lat":"31.27445","category":"680","category_name":"楼宇机构","address":"广中西路"},{"poiid":"B2094757D06FAAFA489C","title":"回民中学","lon":"121.43503981","lat":"31.269070517","category":"55","category_name":"中学","address":"闸北区沪太路1000号(近宜川路)"},{"poiid":"B2094655D36DA0FA439C","title":"宜川路沪太路","lon":"121.43823","lat":"31.27029","category":"38","category_name":"公交车站","address":""},{"poiid":"B2094757D06FA2FB499C","title":"肯德基 KFC (广中西路店)","lon":"121.436305","lat":"31.275053","category":"68","category_name":"快餐厅","address":"闸北区广中西路758号(近运城路)"},{"poiid":"B2094757D064A3FC4099","title":"舟山渔村","lon":"121.43860888","lat":"31.26911301","category":"247","category_name":"餐饮美食","address":"闸北区宜川路717号(近沪太路)"},{"poiid":"B2094757D06FA5FB4298","title":"小绍兴(运城路店)","lon":"121.43503","lat":"31.27485","category":"68","category_name":"快餐厅","address":"闸北区运城路577号(近广中西路)"},{"poiid":"B2094757D06FAAFA4498","title":"佳宁花园","lon":"121.43584","lat":"31.27162","category":"47","category_name":"住宅区","address":"上海市长宁区延安西路1235弄"},{"poiid":"B2094757D068A6F94792","title":"嘉茵苑","lon":"121.43604","lat":"31.275597","category":"47","category_name":"住宅区","address":"上海市闸北区广中西路999弄"},{"poiid":"B2094654D464A7F5409B","title":"望景苑","lon":"121.43926","lat":"31.269672","category":"47","category_name":"住宅区","address":"上海市闸北区宜川路733弄"},{"poiid":"B2094654DB6AA4F5499F","title":"锦江之星(沪太路店)","lon":"121.43601","lat":"31.27035","category":"216","category_name":"经济型连锁酒店","address":"上海市闸北区沪太路893号(近宜川路)"},{"poiid":"B2094655D36CA5FC4298","title":"大宁路","lon":"121.44197","lat":"31.26979","category":"38","category_name":"公交车站","address":""},{"poiid":"B2094654D464ABFF459A","title":"东泉苑","lon":"121.438","lat":"31.2772","category":"47","category_name":"住宅区","address":"志丹路380弄,400弄,500弄"},{"poiid":"B2094757D068A5F84092","title":"新村路子长路","lon":"121.43429395","lat":"31.2674530113","category":"260","category_name":"其他","address":"上海市普陀区新村路子长路"},{"poiid":"B2094757D464A0FB449D","title":"伊诺咖啡 闸北店","lon":"121.438828054","lat":"31.268842793","category":"65","category_name":"咖啡厅","address":"闸北区沪太路877号(近宜川路)"},{"poiid":"B2094654D464A7F8479B","title":"广中苑","lon":"121.43714","lat":"31.276594","category":"47","category_name":"住宅区","address":"广中西路911弄"},{"poiid":"B2094757D169A1FD499B","title":"邱记潮汕砂锅粥","lon":"121.43439795","lat":"31.2756481678","category":"72","category_name":"广东菜","address":"闸北区运城路613号(近广中西路)"},{"poiid":"B2094750D76EAAFB4699","title":"春天里","lon":"121.44","lat":"31.2713","category":"95","category_name":"日本料理","address":"闸北区宜川路851号(近运城路)"},{"poiid":"B2094757D06FA7FB4392","title":"世纪花苑","lon":"121.43383","lat":"31.2724","category":"252","category_name":"楼宇机构","address":"上海市闸北区俞泾港路18号"},{"poiid":"B2094757D06AA0FB469E","title":"鼎鑫量贩式KTV","lon":"121.437874145","lat":"31.2691608439","category":"170","category_name":"KTV","address":"上海宜川路725号"},{"poiid":"B2094654D464A7F54193","title":"宜川小区","lon":"121.43669","lat":"31.272242","category":"47","category_name":"住宅区","address":"宜川路810弄"},{"poiid":"B2094757D069A2FB409E","title":"闸北区房地产交易中心","lon":"121.4359672","lat":"31.27057144","category":"500","category_name":"未知分类","address":"上海老沪太路1233号"},{"poiid":"B2094654D464A7F54493","title":"绿园小区","lon":"121.43663","lat":"31.270813","category":"47","category_name":"住宅区","address":"上海市沪太路883弄"},{"poiid":"B2094654D464ABFE4799","title":"新村路350弄","lon":"121.438","lat":"31.2721","category":"47","category_name":"住宅区","address":"新村路350弄"},{"poiid":"B2094750D76EA7F84892","title":"雅樱酒店","lon":"121.432","lat":"31.2728","category":"76","category_name":"上海菜","address":"闸北区广中西路1207号创业大厦2楼(近沪太路)"},{"poiid":"B2094757D465A1F9409B","title":"真火炭烤鱼 运城路店","lon":"121.43566504189","lat":"31.274065514042","category":"247","category_name":"餐饮美食","address":"闸北区运城路599号(灵石路广中西路间)"},{"poiid":"B2094757D068AAFD4098","title":"天香阁","lon":"121.434736","lat":"31.274644","category":"76","category_name":"上海菜","address":"闸北区广中西路1097号(近运城路)"},{"poiid":"B2094655D26AA5F4439F","title":"广州本田华田4S店","lon":"121.43545","lat":"31.27097","category":"247","category_name":"餐饮美食","address":"普陀区沪太路901号(近广中路)"},{"poiid":"B2094655D26FA1F5439C","title":"宜川小区(东门)","lon":"121.43731","lat":"31.27258","category":"47","category_name":"住宅区","address":"宜川路810弄"},{"poiid":"B2094654D464A7F5429A","title":"宁泰鳌苑","lon":"121.43788","lat":"31.27092","category":"47","category_name":"住宅区","address":"运城路341"},{"poiid":"B2094757D06BA1FF4598","title":"回民中学羽毛球馆","lon":"121.43585635","lat":"31.268529631","category":"500","category_name":"未知分类","address":"普陀区沪太路1000号(近宜川路)"},{"poiid":"B2094654DB6AA4F5499B","title":"永琪美容美发(宜川店)","lon":"121.43887","lat":"31.27075","category":"148","category_name":"美容美发店","address":"闸北区宜川路796号(近沪太路)"},{"poiid":"B2094751DB6BA1F54199","title":"粤府大酒楼","lon":"121.43482","lat":"31.27464","category":"72","category_name":"广东菜","address":"闸北区广中西路1097号(近运城路)"},{"poiid":"B2094654D464A4F8449D","title":"新沪小区","lon":"121.43684","lat":"31.268066","category":"47","category_name":"住宅区","address":"新村路39弄13-65(单)"},{"poiid":"B2094757D068A0F44599","title":"华联吉买盛(新村店)","lon":"121.435840339","lat":"31.2671275041","category":"118","category_name":"超级市场","address":"普陀区新村路139号(宜川路口)"},{"poiid":"B2094757D16BA3FE4693","title":"沪太路宜川路公交站","lon":"121.436284017","lat":"31.2701196289","category":"38","category_name":"公交车站","address":"上海845 58 959 974 185 963"},{"poiid":"B2094655D26EA2FB499D","title":"布丁酒店上海沪太路店","lon":"121.4317","lat":"31.27181","category":"216","category_name":"经济型连锁酒店","address":"上海普陀区志丹路524号(近沪太路)。"},{"poiid":"B2094655D26EA3F8459C","title":"新俪公寓","lon":"121.43730975442","lat":"31.27120943696","category":"250","category_name":"公园户外","address":"普陀区志丹路262号(近新村路)"},{"poiid":"B2094757D068A5FF4398","title":"名悦酒家","lon":"121.43874","lat":"31.27613","category":"72","category_name":"广东菜","address":"闸北区广中西路757号多媒体大楼3楼(近万荣路)"},{"poiid":"B2094654D464A7F44993","title":"美中美海鲜宫","lon":"121.437712054","lat":"31.269396793","category":"247","category_name":"餐饮美食","address":"宜川路725号近沪太路"},{"poiid":"B2094757D064A2FB4792","title":"广州本田华田4S","lon":"121.435171","lat":"31.270589","category":"163","category_name":"4S店","address":"上海沪太路901号"},{"poiid":"B2094654DB6AA4F54893","title":"克丽缇娜","lon":"121.43871","lat":"31.27081","category":"148","category_name":"美容美发店","address":"宜川路798"},{"poiid":"B2094654D464A4F84298","title":"上海市延河中学","lon":"121.43735","lat":"31.26767","category":"55","category_name":"中学","address":"普陀区新村路99号(宜川路口)"},{"poiid":"B2094655D26DA5FF469E","title":"良友No.261","lon":"121.43619","lat":"31.27025","category":"117","category_name":"便民商店/便利店","address":"沪太路885"},{"poiid":"B2094655D36CA7FE419D","title":"沪太路宜川路","lon":"121.4351","lat":"31.27049","category":"38","category_name":"公交车站","address":""},{"poiid":"B2094654DB65A0F9459B","title":"罗克酒吧","lon":"121.43867","lat":"31.27093","category":"172","category_name":"酒吧","address":"宜川路802号"},{"poiid":"B2094751D364ABFD449D","title":"陆家嘴金融中心","lon":"121.434967","lat":"31.273193","category":"252","category_name":"楼宇机构","address":"浦东大道"},{"poiid":"B2094655D26FA1F5439F","title":"绿园小区(西门)","lon":"121.43631","lat":"31.27024","category":"47","category_name":"住宅区","address":"沪太路883弄"},{"poiid":"B2094752D46BA5F8429F","title":"大润发大宁店","lon":"121.435731","lat":"31.27211","category":"500","category_name":"未知分类","address":null},{"poiid":"B2094655D26EA3FD4493","title":"汇味馆","lon":"121.43338","lat":"31.27564","category":"257","category_name":"中餐厅","address":"闸北区运城路633-645号(近广中西路)"},{"poiid":"B2094750D56EAAFB479F","title":"环球健身","lon":"121.435768","lat":"31.27086","category":"220","category_name":"运动场所","address":null}]