[{"poiid":"B2094654DB6AABFC409B","title":"大宁灵石公园","lon":"121.44367","lat":"31.27583","category":"196","category_name":"公园","address":"闸北区广中西路288号(近共和新路)"},{"poiid":"B2094654D464A6FC4193","title":"上海多媒体谷","lon":"121.43946","lat":"31.27727","category":"45","category_name":"产业园区","address":"广中西路777弄"},{"poiid":"B2094654D464A7F54798","title":"大宁灵石公园(西门)","lon":"121.43717","lat":"31.27445","category":"680","category_name":"楼宇机构","address":"广中西路"},{"poiid":"B2094757D06FA2F9449F","title":"歌林春天馨园","lon":"121.44311492","lat":"31.271276681","category":"47","category_name":"住宅区","address":"上海大宁路883弄"},{"poiid":"B2094752D768A1FF459D","title":"塔顶泰国时尚餐厅（大宁中心店）","lon":"121.439819","lat":"31.278103","category":"247","category_name":"餐饮美食","address":"万荣路700号大宁中心广场C7栋1楼"},{"poiid":"B2094757D06FA2FB499C","title":"肯德基 KFC (广中西路店)","lon":"121.436305","lat":"31.275053","category":"68","category_name":"快餐厅","address":"闸北区广中西路758号(近运城路)"},{"poiid":"B2094757D06BA5FD4598","title":"闸北房产交易中心","lon":"121.442378","lat":"31.269392","category":"500","category_name":"未知分类","address":"上海老沪太路1233号"},{"poiid":"B2094757D06FA6FE439D","title":"上海多媒体产业化基地","lon":"121.439664602","lat":"31.2776739604","category":"46","category_name":"楼宇","address":"上海闸北区广中西路777弄2号"},{"poiid":"B2094655D36DA0FA439C","title":"宜川路沪太路","lon":"121.43823","lat":"31.27029","category":"38","category_name":"公交车站","address":""},{"poiid":"B2094757D06FA0F8439D","title":"大宁灵石公园南门","lon":"121.44268834","lat":"31.274133486","category":"680","category_name":"楼宇机构","address":"上海运城路宜川路"},{"poiid":"B2094654D464A6FC469F","title":"上海幻维数码创意科技有限公司","lon":"121.43862","lat":"31.27926","category":"263","category_name":"公司","address":"广中西路777弄11"},{"poiid":"B2094757D06FA5FB4298","title":"小绍兴(运城路店)","lon":"121.43503","lat":"31.27485","category":"68","category_name":"快餐厅","address":"闸北区运城路577号(近广中西路)"},{"poiid":"B2094654D464ABFF459A","title":"东泉苑","lon":"121.438","lat":"31.2772","category":"47","category_name":"住宅区","address":"志丹路380弄,400弄,500弄"},{"poiid":"B2094757D068A6F94792","title":"嘉茵苑","lon":"121.43604","lat":"31.275597","category":"47","category_name":"住宅区","address":"上海市闸北区广中西路999弄"},{"poiid":"B2094757D064A3FC4099","title":"舟山渔村","lon":"121.43860888","lat":"31.26911301","category":"247","category_name":"餐饮美食","address":"闸北区宜川路717号(近沪太路)"},{"poiid":"B2094654D464A7F8479B","title":"广中苑","lon":"121.43714","lat":"31.276594","category":"47","category_name":"住宅区","address":"广中西路911弄"},{"poiid":"B2094655D36CA5FC4298","title":"大宁路","lon":"121.44197","lat":"31.26979","category":"38","category_name":"公交车站","address":""},{"poiid":"B2094757D068A6F4409B","title":"华清大厦","lon":"121.43971729","lat":"31.277877902","category":"46","category_name":"楼宇","address":"崇文区夕照寺大街"},{"poiid":"B2094757D068A5FF4398","title":"名悦酒家","lon":"121.43874","lat":"31.27613","category":"72","category_name":"广东菜","address":"闸北区广中西路757号多媒体大楼3楼(近万荣路)"},{"poiid":"B2094757D06FA6F8439A","title":"泰山二村","lon":"121.443912","lat":"31.275656","category":"252","category_name":"楼宇机构","address":"上海市普陀区华阴路"},{"poiid":"B2094654D464A7F5409B","title":"望景苑","lon":"121.43926","lat":"31.269672","category":"47","category_name":"住宅区","address":"上海市闸北区宜川路733弄"},{"poiid":"B2094654D464A6FC4393","title":"上海幻维数码演播厅","lon":"121.43946","lat":"31.27727","category":"138","category_name":"家电电子卖场","address":"广中西路777弄上海多媒体谷13号"},{"poiid":"B2094757D568A6FF499D","title":"启迪大厦","lon":"121.4394681","lat":"31.27727306","category":"46","category_name":"楼宇","address":"上海广中西路777弄55号"},{"poiid":"B2094757D06FAAFA4498","title":"佳宁花园","lon":"121.43584","lat":"31.27162","category":"47","category_name":"住宅区","address":"上海市长宁区延安西路1235弄"},{"poiid":"B2094757D169A1FD499B","title":"邱记潮汕砂锅粥","lon":"121.43439795","lat":"31.2756481678","category":"72","category_name":"广东菜","address":"闸北区运城路613号(近广中西路)"},{"poiid":"B2094750D76EAAFB4699","title":"春天里","lon":"121.44","lat":"31.2713","category":"95","category_name":"日本料理","address":"闸北区宜川路851号(近运城路)"},{"poiid":"B2094757D464A0FB449D","title":"伊诺咖啡 闸北店","lon":"121.438828054","lat":"31.268842793","category":"65","category_name":"咖啡厅","address":"闸北区沪太路877号(近宜川路)"},{"poiid":"B2094654DB6AA4F5499F","title":"锦江之星(沪太路店)","lon":"121.43601","lat":"31.27035","category":"216","category_name":"经济型连锁酒店","address":"上海市闸北区沪太路893号(近宜川路)"},{"poiid":"B2094757D068AAFD4098","title":"天香阁","lon":"121.434736","lat":"31.274644","category":"76","category_name":"上海菜","address":"闸北区广中西路1097号(近运城路)"},{"poiid":"B2094757D465A1F9409B","title":"真火炭烤鱼 运城路店","lon":"121.43566504189","lat":"31.274065514042","category":"247","category_name":"餐饮美食","address":"闸北区运城路599号(灵石路广中西路间)"},{"poiid":"B2094757D068A4F8479F","title":"宁泰馨苑","lon":"121.444826","lat":"31.276801","category":"47","category_name":"住宅区","address":"上海市闸北区宜川路778弄"},{"poiid":"B2094654D464ABFF479F","title":"中星宜川花苑","lon":"121.442","lat":"31.2748","category":"47","category_name":"住宅区","address":"宜川路610,640,670号"},{"poiid":"B2094655D36CA7F4469C","title":"广中西路运城路","lon":"121.43726","lat":"31.27556","category":"38","category_name":"公交车站","address":""},{"poiid":"B2094757DB68A3FB439E","title":"老盛昌苏州汤包馆","lon":"121.4420276060143","lat":"31.27395402999317","category":"247","category_name":"餐饮美食","address":"延长中路430号(近第十人民医院))"},{"poiid":"B2094751DB6BA1F54199","title":"粤府大酒楼","lon":"121.43482","lat":"31.27464","category":"72","category_name":"广东菜","address":"闸北区广中西路1097号(近运城路)"},{"poiid":"B2094654D464ABFE4799","title":"新村路350弄","lon":"121.438","lat":"31.2721","category":"47","category_name":"住宅区","address":"新村路350弄"},{"poiid":"B2094655D36CA3FA409D","title":"甘泉北苑","lon":"121.43727418681","lat":"31.275033221611","category":"47","category_name":"住宅区","address":"上海市普陀区志丹路400弄"},{"poiid":"B2094753D268A5FB469E","title":"欢歌天天量贩式KTV","lon":"121.443698","lat":"31.273544","category":"170","category_name":"KTV","address":"上海市 共和新路3388号"},{"poiid":"B2094757D06AA0FB469E","title":"鼎鑫量贩式KTV","lon":"121.437874145","lat":"31.2691608439","category":"170","category_name":"KTV","address":"上海宜川路725号"},{"poiid":"B2094654D464A6FC4192","title":"上海多媒体产业大厦2号楼","lon":"121.43946","lat":"31.27727","category":"46","category_name":"楼宇","address":"广中西路777弄"},{"poiid":"B2094654D464A7F84692","title":"景星苑","lon":"121.43793","lat":"31.276695","category":"47","category_name":"住宅区","address":"上海市闸北区广中西路883弄"},{"poiid":"B2094654DB6AA4F5499B","title":"永琪美容美发(宜川店)","lon":"121.43887","lat":"31.27075","category":"148","category_name":"美容美发店","address":"闸北区宜川路796号(近沪太路)"},{"poiid":"B2094654DB6AA4F5469A","title":"光明便利(彭越浦路)","lon":"121.43719","lat":"31.27587","category":"117","category_name":"便民商店/便利店","address":"闸北区广中西路915号"},{"poiid":"B2094757D06BA3FE4493","title":"紫怡茶道","lon":"121.43692","lat":"31.27474","category":"260","category_name":"其他","address":"闸北区广中西路768号大宁灵石公园门口(近运城路)"},{"poiid":"B2094655D26FA0FB4293","title":"广中苑(南门)","lon":"121.43747","lat":"31.27601","category":"47","category_name":"住宅区","address":"广中西路911弄"},{"poiid":"B2094757D06BA0F44493","title":"西湘苗家","lon":"121.434304","lat":"31.275344","category":"77","category_name":"湖南菜","address":"闸北区运城路605号(近广中西路)"},{"poiid":"B2094655D26FA1F5439C","title":"宜川小区(东门)","lon":"121.43731","lat":"31.27258","category":"47","category_name":"住宅区","address":"宜川路810弄"},{"poiid":"B2094757D164ABFF4299","title":"爱果I Juice","lon":"121.43872195","lat":"31.2768991917","category":"500","category_name":"未知分类","address":"闸北区广中西路777弄多媒体谷70号华清大厦大堂101室(近运程路)"},{"poiid":"B2094654D464A6FC4498","title":"上海多媒体谷华清大厦","lon":"121.43866","lat":"31.27828","category":"46","category_name":"楼宇","address":"广中西路777弄88号"},{"poiid":"B2094750DB6BA7FE439C","title":"上海辰山植物园","lon":"121.442062","lat":"31.271497","category":"250","category_name":"公园户外","address":"松江区辰花路3888号"},{"poiid":"B2094654DB6AABFC409B","title":"大宁灵石公园","lon":"121.44367","lat":"31.27583","category":"196","category_name":"公园","address":"闸北区广中西路288号(近共和新路)"},{"poiid":"B2094654D464A6FC4193","title":"上海多媒体谷","lon":"121.43946","lat":"31.27727","category":"45","category_name":"产业园区","address":"广中西路777弄"},{"poiid":"B2094654D464A7F54798","title":"大宁灵石公园(西门)","lon":"121.43717","lat":"31.27445","category":"680","category_name":"楼宇机构","address":"广中西路"},{"poiid":"B2094757D06FA2F9449F","title":"歌林春天馨园","lon":"121.44311492","lat":"31.271276681","category":"47","category_name":"住宅区","address":"上海大宁路883弄"},{"poiid":"B2094752D768A1FF459D","title":"塔顶泰国时尚餐厅（大宁中心店）","lon":"121.439819","lat":"31.278103","category":"247","category_name":"餐饮美食","address":"万荣路700号大宁中心广场C7栋1楼"},{"poiid":"B2094757D06FA2FB499C","title":"肯德基 KFC (广中西路店)","lon":"121.436305","lat":"31.275053","category":"68","category_name":"快餐厅","address":"闸北区广中西路758号(近运城路)"},{"poiid":"B2094757D06BA5FD4598","title":"闸北房产交易中心","lon":"121.442378","lat":"31.269392","category":"500","category_name":"未知分类","address":"上海老沪太路1233号"},{"poiid":"B2094757D06FA6FE439D","title":"上海多媒体产业化基地","lon":"121.439664602","lat":"31.2776739604","category":"46","category_name":"楼宇","address":"上海闸北区广中西路777弄2号"},{"poiid":"B2094655D36DA0FA439C","title":"宜川路沪太路","lon":"121.43823","lat":"31.27029","category":"38","category_name":"公交车站","address":""},{"poiid":"B2094757D06FA0F8439D","title":"大宁灵石公园南门","lon":"121.44268834","lat":"31.274133486","category":"680","category_name":"楼宇机构","address":"上海运城路宜川路"},{"poiid":"B2094654D464A6FC469F","title":"上海幻维数码创意科技有限公司","lon":"121.43862","lat":"31.27926","category":"263","category_name":"公司","address":"广中西路777弄11"},{"poiid":"B2094757D06FA5FB4298","title":"小绍兴(运城路店)","lon":"121.43503","lat":"31.27485","category":"68","category_name":"快餐厅","address":"闸北区运城路577号(近广中西路)"},{"poiid":"B2094654D464ABFF459A","title":"东泉苑","lon":"121.438","lat":"31.2772","category":"47","category_name":"住宅区","address":"志丹路380弄,400弄,500弄"},{"poiid":"B2094757D068A6F94792","title":"嘉茵苑","lon":"121.43604","lat":"31.275597","category":"47","category_name":"住宅区","address":"上海市闸北区广中西路999弄"},{"poiid":"B2094757D064A3FC4099","title":"舟山渔村","lon":"121.43860888","lat":"31.26911301","category":"247","category_name":"餐饮美食","address":"闸北区宜川路717号(近沪太路)"},{"poiid":"B2094654D464A7F8479B","title":"广中苑","lon":"121.43714","lat":"31.276594","category":"47","category_name":"住宅区","address":"广中西路911弄"},{"poiid":"B2094655D36CA5FC4298","title":"大宁路","lon":"121.44197","lat":"31.26979","category":"38","category_name":"公交车站","address":""},{"poiid":"B2094757D068A6F4409B","title":"华清大厦","lon":"121.43971729","lat":"31.277877902","category":"46","category_name":"楼宇","address":"崇文区夕照寺大街"},{"poiid":"B2094757D068A5FF4398","title":"名悦酒家","lon":"121.43874","lat":"31.27613","category":"72","category_name":"广东菜","address":"闸北区广中西路757号多媒体大楼3楼(近万荣路)"},{"poiid":"B2094757D06FA6F8439A","title":"泰山二村","lon":"121.443912","lat":"31.275656","category":"252","category_name":"楼宇机构","address":"上海市普陀区华阴路"},{"poiid":"B2094654D464A7F5409B","title":"望景苑","lon":"121.43926","lat":"31.269672","category":"47","category_name":"住宅区","address":"上海市闸北区宜川路733弄"},{"poiid":"B2094654D464A6FC4393","title":"上海幻维数码演播厅","lon":"121.43946","lat":"31.27727","category":"138","category_name":"家电电子卖场","address":"广中西路777弄上海多媒体谷13号"},{"poiid":"B2094757D568A6FF499D","title":"启迪大厦","lon":"121.4394681","lat":"31.27727306","category":"46","category_name":"楼宇","address":"上海广中西路777弄55号"},{"poiid":"B2094757D06FAAFA4498","title":"佳宁花园","lon":"121.43584","lat":"31.27162","category":"47","category_name":"住宅区","address":"上海市长宁区延安西路1235弄"},{"poiid":"B2094757D169A1FD499B","title":"邱记潮汕砂锅粥","lon":"121.43439795","lat":"31.2756481678","category":"72","category_name":"广东菜","address":"闸北区运城路613号(近广中西路)"},{"poiid":"B2094750D76EAAFB4699","title":"春天里","lon":"121.44","lat":"31.2713","category":"95","category_name":"日本料理","address":"闸北区宜川路851号(近运城路)"},{"poiid":"B2094757D464A0FB449D","title":"伊诺咖啡 闸北店","lon":"121.438828054","lat":"31.268842793","category":"65","category_name":"咖啡厅","address":"闸北区沪太路877号(近宜川路)"},{"poiid":"B2094654DB6AA4F5499F","title":"锦江之星(沪太路店)","lon":"121.43601","lat":"31.27035","category":"216","category_name":"经济型连锁酒店","address":"上海市闸北区沪太路893号(近宜川路)"},{"poiid":"B2094757D068AAFD4098","title":"天香阁","lon":"121.434736","lat":"31.274644","category":"76","category_name":"上海菜","address":"闸北区广中西路1097号(近运城路)"},{"poiid":"B2094757D465A1F9409B","title":"真火炭烤鱼 运城路店","lon":"121.43566504189","lat":"31.274065514042","category":"247","category_name":"餐饮美食","address":"闸北区运城路599号(灵石路广中西路间)"},{"poiid":"B2094757D068A4F8479F","title":"宁泰馨苑","lon":"121.444826","lat":"31.276801","category":"47","category_name":"住宅区","address":"上海市闸北区宜川路778弄"},{"poiid":"B2094654D464ABFF479F","title":"中星宜川花苑","lon":"121.442","lat":"31.2748","category":"47","category_name":"住宅区","address":"宜川路610,640,670号"},{"poiid":"B2094655D36CA7F4469C","title":"广中西路运城路","lon":"121.43726","lat":"31.27556","category":"38","category_name":"公交车站","address":""},{"poiid":"B2094757DB68A3FB439E","title":"老盛昌苏州汤包馆","lon":"121.4420276060143","lat":"31.27395402999317","category":"247","category_name":"餐饮美食","address":"延长中路430号(近第十人民医院))"},{"poiid":"B2094751DB6BA1F54199","title":"粤府大酒楼","lon":"121.43482","lat":"31.27464","category":"72","category_name":"广东菜","address":"闸北区广中西路1097号(近运城路)"},{"poiid":"B2094654D464ABFE4799","title":"新村路350弄","lon":"121.438","lat":"31.2721","category":"47","category_name":"住宅区","address":"新村路350弄"},{"poiid":"B2094655D36CA3FA409D","title":"甘泉北苑","lon":"121.43727418681","lat":"31.275033221611","category":"47","category_name":"住宅区","address":"上海市普陀区志丹路400弄"},{"poiid":"B2094753D268A5FB469E","title":"欢歌天天量贩式KTV","lon":"121.443698","lat":"31.273544","category":"170","category_name":"KTV","address":"上海市 共和新路3388号"},{"poiid":"B2094757D06AA0FB469E","title":"鼎鑫量贩式KTV","lon":"121.437874145","lat":"31.2691608439","category":"170","category_name":"KTV","address":"上海宜川路725号"},{"poiid":"B2094654D464A6FC4192","title":"上海多媒体产业大厦2号楼","lon":"121.43946","lat":"31.27727","category":"46","category_name":"楼宇","address":"广中西路777弄"},{"poiid":"B2094654D464A7F84692","title":"景星苑","lon":"121.43793","lat":"31.276695","category":"47","category_name":"住宅区","address":"上海市闸北区广中西路883弄"},{"poiid":"B2094654DB6AA4F5499B","title":"永琪美容美发(宜川店)","lon":"121.43887","lat":"31.27075","category":"148","category_name":"美容美发店","address":"闸北区宜川路796号(近沪太路)"},{"poiid":"B2094654DB6AA4F5469A","title":"光明便利(彭越浦路)","lon":"121.43719","lat":"31.27587","category":"117","category_name":"便民商店/便利店","address":"闸北区广中西路915号"},{"poiid":"B2094757D06BA3FE4493","title":"紫怡茶道","lon":"121.43692","lat":"31.27474","category":"260","category_name":"其他","address":"闸北区广中西路768号大宁灵石公园门口(近运城路)"},{"poiid":"B2094655D26FA0FB4293","title":"广中苑(南门)","lon":"121.43747","lat":"31.27601","category":"47","category_name":"住宅区","address":"广中西路911弄"},{"poiid":"B2094757D06BA0F44493","title":"西湘苗家","lon":"121.434304","lat":"31.275344","category":"77","category_name":"湖南菜","address":"闸北区运城路605号(近广中西路)"},{"poiid":"B2094655D26FA1F5439C","title":"宜川小区(东门)","lon":"121.43731","lat":"31.27258","category":"47","category_name":"住宅区","address":"宜川路810弄"},{"poiid":"B2094757D164ABFF4299","title":"爱果I Juice","lon":"121.43872195","lat":"31.2768991917","category":"500","category_name":"未知分类","address":"闸北区广中西路777弄多媒体谷70号华清大厦大堂101室(近运程路)"},{"poiid":"B2094654D464A6FC4498","title":"上海多媒体谷华清大厦","lon":"121.43866","lat":"31.27828","category":"46","category_name":"楼宇","address":"广中西路777弄88号"},{"poiid":"B2094750DB6BA7FE439C","title":"上海辰山植物园","lon":"121.442062","lat":"31.271497","category":"250","category_name":"公园户外","address":"松江区辰花路3888号"},{"poiid":"B2094654DB6AABFC409B","title":"大宁灵石公园","lon":"121.44367","lat":"31.27583","category":"196","category_name":"公园","address":"闸北区广中西路288号(近共和新路)"},{"poiid":"B2094654D464A6FC4193","title":"上海多媒体谷","lon":"121.43946","lat":"31.27727","category":"45","category_name":"产业园区","address":"广中西路777弄"},{"poiid":"B2094654D464A7F54798","title":"大宁灵石公园(西门)","lon":"121.43717","lat":"31.27445","category":"680","category_name":"楼宇机构","address":"广中西路"},{"poiid":"B2094757D06FA2F9449F","title":"歌林春天馨园","lon":"121.44311492","lat":"31.271276681","category":"47","category_name":"住宅区","address":"上海大宁路883弄"},{"poiid":"B2094752D768A1FF459D","title":"塔顶泰国时尚餐厅（大宁中心店）","lon":"121.439819","lat":"31.278103","category":"247","category_name":"餐饮美食","address":"万荣路700号大宁中心广场C7栋1楼"},{"poiid":"B2094757D06FA2FB499C","title":"肯德基 KFC (广中西路店)","lon":"121.436305","lat":"31.275053","category":"68","category_name":"快餐厅","address":"闸北区广中西路758号(近运城路)"},{"poiid":"B2094757D06BA5FD4598","title":"闸北房产交易中心","lon":"121.442378","lat":"31.269392","category":"500","category_name":"未知分类","address":"上海老沪太路1233号"},{"poiid":"B2094757D06FA6FE439D","title":"上海多媒体产业化基地","lon":"121.439664602","lat":"31.2776739604","category":"46","category_name":"楼宇","address":"上海闸北区广中西路777弄2号"},{"poiid":"B2094655D36DA0FA439C","title":"宜川路沪太路","lon":"121.43823","lat":"31.27029","category":"38","category_name":"公交车站","address":""},{"poiid":"B2094757D06FA0F8439D","title":"大宁灵石公园南门","lon":"121.44268834","lat":"31.274133486","category":"680","category_name":"楼宇机构","address":"上海运城路宜川路"},{"poiid":"B2094654D464A6FC469F","title":"上海幻维数码创意科技有限公司","lon":"121.43862","lat":"31.27926","category":"263","category_name":"公司","address":"广中西路777弄11"},{"poiid":"B2094757D06FA5FB4298","title":"小绍兴(运城路店)","lon":"121.43503","lat":"31.27485","category":"68","category_name":"快餐厅","address":"闸北区运城路577号(近广中西路)"},{"poiid":"B2094654D464ABFF459A","title":"东泉苑","lon":"121.438","lat":"31.2772","category":"47","category_name":"住宅区","address":"志丹路380弄,400弄,500弄"},{"poiid":"B2094757D068A6F94792","title":"嘉茵苑","lon":"121.43604","lat":"31.275597","category":"47","category_name":"住宅区","address":"上海市闸北区广中西路999弄"},{"poiid":"B2094757D064A3FC4099","title":"舟山渔村","lon":"121.43860888","lat":"31.26911301","category":"247","category_name":"餐饮美食","address":"闸北区宜川路717号(近沪太路)"},{"poiid":"B2094654D464A7F8479B","title":"广中苑","lon":"121.43714","lat":"31.276594","category":"47","category_name":"住宅区","address":"广中西路911弄"},{"poiid":"B2094655D36CA5FC4298","title":"大宁路","lon":"121.44197","lat":"31.26979","category":"38","category_name":"公交车站","address":""},{"poiid":"B2094757D068A6F4409B","title":"华清大厦","lon":"121.43971729","lat":"31.277877902","category":"46","category_name":"楼宇","address":"崇文区夕照寺大街"},{"poiid":"B2094757D068A5FF4398","title":"名悦酒家","lon":"121.43874","lat":"31.27613","category":"72","category_name":"广东菜","address":"闸北区广中西路757号多媒体大楼3楼(近万荣路)"},{"poiid":"B2094757D06FA6F8439A","title":"泰山二村","lon":"121.443912","lat":"31.275656","category":"252","category_name":"楼宇机构","address":"上海市普陀区华阴路"},{"poiid":"B2094654D464A7F5409B","title":"望景苑","lon":"121.43926","lat":"31.269672","category":"47","category_name":"住宅区","address":"上海市闸北区宜川路733弄"},{"poiid":"B2094654D464A6FC4393","title":"上海幻维数码演播厅","lon":"121.43946","lat":"31.27727","category":"138","category_name":"家电电子卖场","address":"广中西路777弄上海多媒体谷13号"},{"poiid":"B2094757D568A6FF499D","title":"启迪大厦","lon":"121.4394681","lat":"31.27727306","category":"46","category_name":"楼宇","address":"上海广中西路777弄55号"},{"poiid":"B2094757D06FAAFA4498","title":"佳宁花园","lon":"121.43584","lat":"31.27162","category":"47","category_name":"住宅区","address":"上海市长宁区延安西路1235弄"},{"poiid":"B2094757D169A1FD499B","title":"邱记潮汕砂锅粥","lon":"121.43439795","lat":"31.2756481678","category":"72","category_name":"广东菜","address":"闸北区运城路613号(近广中西路)"},{"poiid":"B2094750D76EAAFB4699","title":"春天里","lon":"121.44","lat":"31.2713","category":"95","category_name":"日本料理","address":"闸北区宜川路851号(近运城路)"},{"poiid":"B2094757D464A0FB449D","title":"伊诺咖啡 闸北店","lon":"121.438828054","lat":"31.268842793","category":"65","category_name":"咖啡厅","address":"闸北区沪太路877号(近宜川路)"},{"poiid":"B2094654DB6AA4F5499F","title":"锦江之星(沪太路店)","lon":"121.43601","lat":"31.27035","category":"216","category_name":"经济型连锁酒店","address":"上海市闸北区沪太路893号(近宜川路)"},{"poiid":"B2094757D068AAFD4098","title":"天香阁","lon":"121.434736","lat":"31.274644","category":"76","category_name":"上海菜","address":"闸北区广中西路1097号(近运城路)"},{"poiid":"B2094757D465A1F9409B","title":"真火炭烤鱼 运城路店","lon":"121.43566504189","lat":"31.274065514042","category":"247","category_name":"餐饮美食","address":"闸北区运城路599号(灵石路广中西路间)"},{"poiid":"B2094757D068A4F8479F","title":"宁泰馨苑","lon":"121.444826","lat":"31.276801","category":"47","category_name":"住宅区","address":"上海市闸北区宜川路778弄"},{"poiid":"B2094654D464ABFF479F","title":"中星宜川花苑","lon":"121.442","lat":"31.2748","category":"47","category_name":"住宅区","address":"宜川路610,640,670号"},{"poiid":"B2094655D36CA7F4469C","title":"广中西路运城路","lon":"121.43726","lat":"31.27556","category":"38","category_name":"公交车站","address":""},{"poiid":"B2094757DB68A3FB439E","title":"老盛昌苏州汤包馆","lon":"121.4420276060143","lat":"31.27395402999317","category":"247","category_name":"餐饮美食","address":"延长中路430号(近第十人民医院))"},{"poiid":"B2094751DB6BA1F54199","title":"粤府大酒楼","lon":"121.43482","lat":"31.27464","category":"72","category_name":"广东菜","address":"闸北区广中西路1097号(近运城路)"},{"poiid":"B2094654D464ABFE4799","title":"新村路350弄","lon":"121.438","lat":"31.2721","category":"47","category_name":"住宅区","address":"新村路350弄"},{"poiid":"B2094655D36CA3FA409D","title":"甘泉北苑","lon":"121.43727418681","lat":"31.275033221611","category":"47","category_name":"住宅区","address":"上海市普陀区志丹路400弄"},{"poiid":"B2094753D268A5FB469E","title":"欢歌天天量贩式KTV","lon":"121.443698","lat":"31.273544","category":"170","category_name":"KTV","address":"上海市 共和新路3388号"},{"poiid":"B2094757D06AA0FB469E","title":"鼎鑫量贩式KTV","lon":"121.437874145","lat":"31.2691608439","category":"170","category_name":"KTV","address":"上海宜川路725号"},{"poiid":"B2094654D464A6FC4192","title":"上海多媒体产业大厦2号楼","lon":"121.43946","lat":"31.27727","category":"46","category_name":"楼宇","address":"广中西路777弄"},{"poiid":"B2094654D464A7F84692","title":"景星苑","lon":"121.43793","lat":"31.276695","category":"47","category_name":"住宅区","address":"上海市闸北区广中西路883弄"},{"poiid":"B2094654DB6AA4F5499B","title":"永琪美容美发(宜川店)","lon":"121.43887","lat":"31.27075","category":"148","category_name":"美容美发店","address":"闸北区宜川路796号(近沪太路)"},{"poiid":"B2094654DB6AA4F5469A","title":"光明便利(彭越浦路)","lon":"121.43719","lat":"31.27587","category":"117","category_name":"便民商店/便利店","address":"闸北区广中西路915号"},{"poiid":"B2094757D06BA3FE4493","title":"紫怡茶道","lon":"121.43692","lat":"31.27474","category":"260","category_name":"其他","address":"闸北区广中西路768号大宁灵石公园门口(近运城路)"},{"poiid":"B2094655D26FA0FB4293","title":"广中苑(南门)","lon":"121.43747","lat":"31.27601","category":"47","category_name":"住宅区","address":"广中西路911弄"},{"poiid":"B2094757D06BA0F44493","title":"西湘苗家","lon":"121.434304","lat":"31.275344","category":"77","category_name":"湖南菜","address":"闸北区运城路605号(近广中西路)"},{"poiid":"B2094655D26FA1F5439C","title":"宜川小区(东门)","lon":"121.43731","lat":"31.27258","category":"47","category_name":"住宅区","address":"宜川路810弄"},{"poiid":"B2094757D164ABFF4299","title":"爱果I Juice","lon":"121.43872195","lat":"31.2768991917","category":"500","category_name":"未知分类","address":"闸北区广中西路777弄多媒体谷70号华清大厦大堂101室(近运程路)"},{"poiid":"B2094654D464A6FC4498","title":"上海多媒体谷华清大厦","lon":"121.43866","lat":"31.27828","category":"46","category_name":"楼宇","address":"广中西路777弄88号"},{"poiid":"B2094750DB6BA7FE439C","title":"上海辰山植物园","lon":"121.442062","lat":"31.271497","category":"250","category_name":"公园户外","address":"松江区辰花路3888号"},{"poiid":"B2094654DB6AABFC409B","title":"大宁灵石公园","lon":"121.44367","lat":"31.27583","category":"196","category_name":"公园","address":"闸北区广中西路288号(近共和新路)"},{"poiid":"B2094654D464A6FC4193","title":"上海多媒体谷","lon":"121.43946","lat":"31.27727","category":"45","category_name":"产业园区","address":"广中西路777弄"},{"poiid":"B2094654D464A7F54798","title":"大宁灵石公园(西门)","lon":"121.43717","lat":"31.27445","category":"680","category_name":"楼宇机构","address":"广中西路"},{"poiid":"B2094757D06FA2F9449F","title":"歌林春天馨园","lon":"121.44311492","lat":"31.271276681","category":"47","category_name":"住宅区","address":"上海大宁路883弄"},{"poiid":"B2094752D768A1FF459D","title":"塔顶泰国时尚餐厅（大宁中心店）","lon":"121.439819","lat":"31.278103","category":"247","category_name":"餐饮美食","address":"万荣路700号大宁中心广场C7栋1楼"},{"poiid":"B2094757D06FA2FB499C","title":"肯德基 KFC (广中西路店)","lon":"121.436305","lat":"31.275053","category":"68","category_name":"快餐厅","address":"闸北区广中西路758号(近运城路)"},{"poiid":"B2094757D06BA5FD4598","title":"闸北房产交易中心","lon":"121.442378","lat":"31.269392","category":"500","category_name":"未知分类","address":"上海老沪太路1233号"},{"poiid":"B2094757D06FA6FE439D","title":"上海多媒体产业化基地","lon":"121.439664602","lat":"31.2776739604","category":"46","category_name":"楼宇","address":"上海闸北区广中西路777弄2号"},{"poiid":"B2094655D36DA0FA439C","title":"宜川路沪太路","lon":"121.43823","lat":"31.27029","category":"38","category_name":"公交车站","address":""},{"poiid":"B2094757D06FA0F8439D","title":"大宁灵石公园南门","lon":"121.44268834","lat":"31.274133486","category":"680","category_name":"楼宇机构","address":"上海运城路宜川路"},{"poiid":"B2094654D464A6FC469F","title":"上海幻维数码创意科技有限公司","lon":"121.43862","lat":"31.27926","category":"263","category_name":"公司","address":"广中西路777弄11"},{"poiid":"B2094757D06FA5FB4298","title":"小绍兴(运城路店)","lon":"121.43503","lat":"31.27485","category":"68","category_name":"快餐厅","address":"闸北区运城路577号(近广中西路)"},{"poiid":"B2094654D464ABFF459A","title":"东泉苑","lon":"121.438","lat":"31.2772","category":"47","category_name":"住宅区","address":"志丹路380弄,400弄,500弄"},{"poiid":"B2094757D068A6F94792","title":"嘉茵苑","lon":"121.43604","lat":"31.275597","category":"47","category_name":"住宅区","address":"上海市闸北区广中西路999弄"},{"poiid":"B2094757D064A3FC4099","title":"舟山渔村","lon":"121.43860888","lat":"31.26911301","category":"247","category_name":"餐饮美食","address":"闸北区宜川路717号(近沪太路)"},{"poiid":"B2094654D464A7F8479B","title":"广中苑","lon":"121.43714","lat":"31.276594","category":"47","category_name":"住宅区","address":"广中西路911弄"},{"poiid":"B2094655D36CA5FC4298","title":"大宁路","lon":"121.44197","lat":"31.26979","category":"38","category_name":"公交车站","address":""},{"poiid":"B2094757D068A6F4409B","title":"华清大厦","lon":"121.43971729","lat":"31.277877902","category":"46","category_name":"楼宇","address":"崇文区夕照寺大街"},{"poiid":"B2094757D068A5FF4398","title":"名悦酒家","lon":"121.43874","lat":"31.27613","category":"72","category_name":"广东菜","address":"闸北区广中西路757号多媒体大楼3楼(近万荣路)"},{"poiid":"B2094757D06FA6F8439A","title":"泰山二村","lon":"121.443912","lat":"31.275656","category":"252","category_name":"楼宇机构","address":"上海市普陀区华阴路"},{"poiid":"B2094654D464A7F5409B","title":"望景苑","lon":"121.43926","lat":"31.269672","category":"47","category_name":"住宅区","address":"上海市闸北区宜川路733弄"},{"poiid":"B2094654D464A6FC4393","title":"上海幻维数码演播厅","lon":"121.43946","lat":"31.27727","category":"138","category_name":"家电电子卖场","address":"广中西路777弄上海多媒体谷13号"},{"poiid":"B2094757D568A6FF499D","title":"启迪大厦","lon":"121.4394681","lat":"31.27727306","category":"46","category_name":"楼宇","address":"上海广中西路777弄55号"},{"poiid":"B2094757D06FAAFA4498","title":"佳宁花园","lon":"121.43584","lat":"31.27162","category":"47","category_name":"住宅区","address":"上海市长宁区延安西路1235弄"},{"poiid":"B2094757D169A1FD499B","title":"邱记潮汕砂锅粥","lon":"121.43439795","lat":"31.2756481678","category":"72","category_name":"广东菜","address":"闸北区运城路613号(近广中西路)"},{"poiid":"B2094750D76EAAFB4699","title":"春天里","lon":"121.44","lat":"31.2713","category":"95","category_name":"日本料理","address":"闸北区宜川路851号(近运城路)"},{"poiid":"B2094757D464A0FB449D","title":"伊诺咖啡 闸北店","lon":"121.438828054","lat":"31.268842793","category":"65","category_name":"咖啡厅","address":"闸北区沪太路877号(近宜川路)"},{"poiid":"B2094654DB6AA4F5499F","title":"锦江之星(沪太路店)","lon":"121.43601","lat":"31.27035","category":"216","category_name":"经济型连锁酒店","address":"上海市闸北区沪太路893号(近宜川路)"},{"poiid":"B2094757D068AAFD4098","title":"天香阁","lon":"121.434736","lat":"31.274644","category":"76","category_name":"上海菜","address":"闸北区广中西路1097号(近运城路)"},{"poiid":"B2094757D465A1F9409B","title":"真火炭烤鱼 运城路店","lon":"121.43566504189","lat":"31.274065514042","category":"247","category_name":"餐饮美食","address":"闸北区运城路599号(灵石路广中西路间)"},{"poiid":"B2094757D068A4F8479F","title":"宁泰馨苑","lon":"121.444826","lat":"31.276801","category":"47","category_name":"住宅区","address":"上海市闸北区宜川路778弄"},{"poiid":"B2094654D464ABFF479F","title":"中星宜川花苑","lon":"121.442","lat":"31.2748","category":"47","category_name":"住宅区","address":"宜川路610,640,670号"},{"poiid":"B2094655D36CA7F4469C","title":"广中西路运城路","lon":"121.43726","lat":"31.27556","category":"38","category_name":"公交车站","address":""},{"poiid":"B2094757DB68A3FB439E","title":"老盛昌苏州汤包馆","lon":"121.4420276060143","lat":"31.27395402999317","category":"247","category_name":"餐饮美食","address":"延长中路430号(近第十人民医院))"},{"poiid":"B2094751DB6BA1F54199","title":"粤府大酒楼","lon":"121.43482","lat":"31.27464","category":"72","category_name":"广东菜","address":"闸北区广中西路1097号(近运城路)"},{"poiid":"B2094654D464ABFE4799","title":"新村路350弄","lon":"121.438","lat":"31.2721","category":"47","category_name":"住宅区","address":"新村路350弄"},{"poiid":"B2094655D36CA3FA409D","title":"甘泉北苑","lon":"121.43727418681","lat":"31.275033221611","category":"47","category_name":"住宅区","address":"上海市普陀区志丹路400弄"},{"poiid":"B2094753D268A5FB469E","title":"欢歌天天量贩式KTV","lon":"121.443698","lat":"31.273544","category":"170","category_name":"KTV","address":"上海市 共和新路3388号"},{"poiid":"B2094757D06AA0FB469E","title":"鼎鑫量贩式KTV","lon":"121.437874145","lat":"31.2691608439","category":"170","category_name":"KTV","address":"上海宜川路725号"},{"poiid":"B2094654D464A6FC4192","title":"上海多媒体产业大厦2号楼","lon":"121.43946","lat":"31.27727","category":"46","category_name":"楼宇","address":"广中西路777弄"},{"poiid":"B2094654D464A7F84692","title":"景星苑","lon":"121.43793","lat":"31.276695","category":"47","category_name":"住宅区","address":"上海市闸北区广中西路883弄"},{"poiid":"B2094654DB6AA4F5499B","title":"永琪美容美发(宜川店)","lon":"121.43887","lat":"31.27075","category":"148","category_name":"美容美发店","address":"闸北区宜川路796号(近沪太路)"},{"poiid":"B2094654DB6AA4F5469A","title":"光明便利(彭越浦路)","lon":"121.43719","lat":"31.27587","category":"117","category_name":"便民商店/便利店","address":"闸北区广中西路915号"},{"poiid":"B2094757D06BA3FE4493","title":"紫怡茶道","lon":"121.43692","lat":"31.27474","category":"260","category_name":"其他","address":"闸北区广中西路768号大宁灵石公园门口(近运城路)"},{"poiid":"B2094655D26FA0FB4293","title":"广中苑(南门)","lon":"121.43747","lat":"31.27601","category":"47","category_name":"住宅区","address":"广中西路911弄"},{"poiid":"B2094757D06BA0F44493","title":"西湘苗家","lon":"121.434304","lat":"31.275344","category":"77","category_name":"湖南菜","address":"闸北区运城路605号(近广中西路)"},{"poiid":"B2094655D26FA1F5439C","title":"宜川小区(东门)","lon":"121.43731","lat":"31.27258","category":"47","category_name":"住宅区","address":"宜川路810弄"},{"poiid":"B2094757D164ABFF4299","title":"爱果I Juice","lon":"121.43872195","lat":"31.2768991917","category":"500","category_name":"未知分类","address":"闸北区广中西路777弄多媒体谷70号华清大厦大堂101室(近运程路)"},{"poiid":"B2094654D464A6FC4498","title":"上海多媒体谷华清大厦","lon":"121.43866","lat":"31.27828","category":"46","category_name":"楼宇","address":"广中西路777弄88号"},{"poiid":"B2094750DB6BA7FE439C","title":"上海辰山植物园","lon":"121.442062","lat":"31.271497","category":"250","category_name":"公园户外","address":"松江区辰花路3888号"}]