[{"poiid":"B2094757D069ABF9499D","title":"小肥羊(陆家浜店)","lon":"121.48257546","lat":"31.211537301","category":"86","category_name":"火锅店","address":"黄浦区陆家浜路1390号(近制造局路)"},{"poiid":"B2094654DB65A3F84599","title":"上海市红房子妇产科医院门诊部","lon":"121.48278","lat":"31.21204","category":"162","category_name":"医院","address":"方斜路566号"},{"poiid":"B2094757D16CA7F84792","title":"肇周路","lon":"121.480401738","lat":"31.2139469532","category":"500","category_name":"未知分类","address":"上海市卢湾区"},{"poiid":"B2094753D76FAAFA449C","title":"上海滩国泰旗舰店","lon":"121.466011","lat":"31.216125","category":"249","category_name":"购物服务","address":"淮海中路868号"},{"poiid":"B209475CD564A7F84292","title":"上海滩新天地店","lon":"121.47463","lat":"31.22164","category":"119","category_name":"商场","address":"\"太仓路181弄新天地北里15号\r\n\""},{"poiid":"B209475CD564A7F8439E","title":"上海滩中信泰富店","lon":"121.45602","lat":"31.22851","category":"119","category_name":"商场","address":"\"南京西路1168号中信泰富广场，店铺号221.\r\n\""},{"poiid":"B2094757D06FA1FF4392","title":"麟笼坊特色小笼包(建国东路店)","lon":"121.48073","lat":"31.21366","category":"68","category_name":"快餐厅","address":"卢湾区建国东路10号(近肇周路口)"},{"poiid":"B2094757D16CABFB409C","title":"红房子医院","lon":"121.482140338","lat":"31.2112135949","category":"162","category_name":"医院","address":"上海大林路358号"},{"poiid":"B2094757D06AA6FE469C","title":"新天地style","lon":"121.47919464","lat":"31.214149475","category":"500","category_name":"未知分类","address":"上海复兴中路马当路"},{"poiid":"B2094757D068A1FD409A","title":"盛兴点心店","lon":"121.479443054","lat":"31.212018793","category":"87","category_name":"特色／地方风味餐厅","address":"卢湾区顺昌路528号(近永年路)"},{"poiid":"B2094654DA6EAAF54793","title":"上海社会科学院研究生部","lon":"121.47963","lat":"31.21081","category":"52","category_name":"高等院校","address":"顺昌路622"},{"poiid":"B2094757D069A7FC409A","title":"一品居热气羊肉馆(顺昌店)","lon":"121.47938","lat":"31.21213","category":"86","category_name":"火锅店","address":"卢湾区顺昌路512号(近永年路)"},{"poiid":"B2094757D06FAAF4419B","title":"沪南体育活动中心","lon":"121.48268","lat":"31.21256","category":"220","category_name":"运动场所","address":"黄浦区方斜路515号(近大吉路)"},{"poiid":"B2094655D26FA3FF4399","title":"莫泰168连锁旅店(徐家汇路店)","lon":"121.48146","lat":"31.21081","category":"216","category_name":"经济型连锁酒店","address":"上海市黄浦区徐家汇路3-7号（近制造局路）"},{"poiid":"B2094654DA68A0FB4492","title":"万事利大厦","lon":"121.483038","lat":"31.211425","category":"46","category_name":"楼宇","address":"上海陆家浜路1378号"},{"poiid":"B2094757D06AA6FE479B","title":"黄陂南路徐家汇路","lon":"121.47800445","lat":"31.210878372","category":"500","category_name":"未知分类","address":"上海黄陂南路徐家汇路"},{"poiid":"B2094654DA6EA7FB439D","title":"上海市李惠利中学","lon":"121.48121","lat":"31.21181","category":"55","category_name":"中学","address":"卢湾区肇周路420号(陆家浜路徐家汇路)"},{"poiid":"B2094654DB69A5F4409A","title":"重庆鸡公煲 顺昌路店","lon":"121.479501054","lat":"31.212284793","category":"71","category_name":"四川菜","address":"卢湾区顺昌路530号(近永年路)"},{"poiid":"B2094655D265A7FF4499","title":"梦奇屋","lon":"121.47967","lat":"31.21183","category":"68","category_name":"快餐厅","address":"卢湾区顺昌路563号(近徐家汇路)"},{"poiid":"B2094654DB6BA4FF489D","title":"上海市基督教惠中堂(肇周路)","lon":"121.48094","lat":"31.21129","category":"245","category_name":"教堂","address":"卢湾区徐家汇路40-2号(肇周路口)"},{"poiid":"B2094757D464ABF54098","title":"巴弟鸡排 顺昌路店","lon":"121.479773054","lat":"31.211614793","category":"68","category_name":"快餐厅","address":"卢湾区顺昌路563号(近徐家汇路)"},{"poiid":"B2094654DB6BA4FF4898","title":"老北京涮锅(顺昌路)","lon":"121.47952","lat":"31.2125","category":"86","category_name":"火锅店","address":"卢湾区顺昌路531号(近永年路)"},{"poiid":"B2094757D064A6F9489F","title":"卢浦大桥(徐家汇路口)","lon":"121.480679","lat":"31.210989","category":"500","category_name":"未知分类","address":"上海徐家汇路重庆南路"},{"poiid":"B2094757D66AA4F44198","title":"鼎乐酒家","lon":"121.48018955369","lat":"31.212505124381","category":"76","category_name":"上海菜","address":"卢湾区永年路54号(永年路肇周路)"},{"poiid":"B2094654DB6BA4FF489B","title":"森绿温馨小吃(顺昌路)","lon":"121.47945","lat":"31.21288","category":"76","category_name":"上海菜","address":"卢湾区顺昌路503号(近建国东路)"},{"poiid":"B2094655D36CA1FF4198","title":"顺昌路徐家汇路","lon":"121.47971","lat":"31.21123","category":"38","category_name":"公交车站","address":""},{"poiid":"B2094757D069A1F8479C","title":"斜桥游泳馆","lon":"121.48246373","lat":"31.211333897","category":"220","category_name":"运动场所","address":"黄浦区大吉路218号(近西藏南路)"},{"poiid":"B2094752D66FAAFC4993","title":"必胜客","lon":"121.479057","lat":"31.211943","category":"500","category_name":"未知分类","address":"徐家汇路618号日月光中心广场B2楼(近瑞金二路)"},{"poiid":"B2094757D568AAFC4999","title":"京世造型","lon":"121.48242459","lat":"31.21159939","category":"148","category_name":"美容美发店","address":"陆家浜路1527"},{"poiid":"B2094757D06AAAFC4892","title":"永年别墅","lon":"121.47986173","lat":"31.21191891","category":"47","category_name":"住宅区","address":"上海永年路162号"},{"poiid":"B2094654DA6EAAF54493","title":"南京金陵汤包店","lon":"121.47932","lat":"31.21225","category":"87","category_name":"特色／地方风味餐厅","address":"卢湾区永年路114号(顺昌路口)"},{"poiid":"B2094655D36DA7F94599","title":"重庆南路","lon":"121.48058","lat":"31.21079","category":"38","category_name":"公交车站","address":""},{"poiid":"B2094655D36DA0FF4193","title":"徐家汇路重庆南路","lon":"121.48067","lat":"31.21098","category":"38","category_name":"公交车站","address":""},{"poiid":"B2094757D068ABFB419A","title":"泰煌鸡 黄陂南路店","lon":"121.477455054","lat":"31.213034793","category":"72","category_name":"广东菜","address":"卢湾区黄陂南路807号(近永年路)"},{"poiid":"B2094654DA6EA7FA499D","title":"长顺来","lon":"121.4795","lat":"31.2126","category":"76","category_name":"上海菜","address":"卢湾区顺昌路517号(近建国东路)"},{"poiid":"B2094757D164A5FC429F","title":"小车扦脚","lon":"121.480633","lat":"31.212189","category":"148","category_name":"美容美发店","address":"卢湾区永年路55号(近顺昌路)"},{"poiid":"B2094655D265A6F94193","title":"光明牛奶","lon":"121.47958","lat":"31.21215","category":"117","category_name":"便民商店/便利店","address":"顺昌路543"},{"poiid":"B2094757D66DA4F84192","title":"豪菜馆","lon":"121.47951697","lat":"31.211657584","category":"247","category_name":"餐饮美食","address":"上海顺昌路563弄1号"},{"poiid":"B2094757D16EAAFE4498","title":"迈阿密汉堡(肇周路店)","lon":"121.4816","lat":"31.21211","category":"68","category_name":"快餐厅","address":"黄浦区肇周路400号(近永年路)"},{"poiid":"B2094655D268A2FD4993","title":"打浦社区(西门)","lon":"121.47966","lat":"31.21198","category":"47","category_name":"住宅区","address":"顺昌路557弄1-13号"},{"poiid":"B2094654DA6EA7FB4099","title":"程晨理发店","lon":"121.47966","lat":"31.21194","category":"148","category_name":"美容美发店","address":"顺昌路553"},{"poiid":"B2094757D164A2FD469C","title":"马当菜场","lon":"121.480084485","lat":"31.21193107","category":"249","category_name":"购物服务","address":"上海合肥路223弄54号"},{"poiid":"B2094750D768A0F5439D","title":"老刘烧烤","lon":"121.482","lat":"31.2135","category":"68","category_name":"快餐厅","address":"黄浦区大吉路华联超市门口(方斜路口)"},{"poiid":"B2094757D16AA4FD489E","title":"上海社科院","lon":"121.479635","lat":"31.210817","category":"500","category_name":"未知分类","address":"卢湾区顺昌路622号"},{"poiid":"B2094654DB6BA4FF489C","title":"杰杰宠物","lon":"121.48011","lat":"31.21095","category":"129","category_name":"宠物用品店","address":"卢湾区徐家汇路90号(近顺昌路)"},{"poiid":"B2094655D268A7F8429B","title":"顺昌路550弄小区(东门)","lon":"121.47942","lat":"31.21198","category":"47","category_name":"住宅区","address":"顺昌路550弄1-23号"},{"poiid":"B2094655D268A7F8429A","title":"顺昌路550弄小区","lon":"121.47929","lat":"31.21195","category":"47","category_name":"住宅区","address":"顺昌路550弄1-23号"},{"poiid":"B2094757D068A7F84092","title":"广东小厨粤菜馆","lon":"121.48101692673","lat":"31.212828028012","category":"72","category_name":"广东菜","address":"黄浦区肇周路368号(近徐家汇路)"},{"poiid":"B2094655D36DA1F54693","title":"斜桥(制造局路陆家浜路)","lon":"121.4815","lat":"31.21258","category":"38","category_name":"公交车站","address":""},{"poiid":"B2094757D66BA4FC439B","title":"集宾酒楼","lon":"121.48026588107","lat":"31.213340264741","category":"76","category_name":"上海菜","address":"卢湾区建国东路23号(近顺昌路)"},{"poiid":"B2094757D069ABF9499D","title":"小肥羊(陆家浜店)","lon":"121.48257546","lat":"31.211537301","category":"86","category_name":"火锅店","address":"黄浦区陆家浜路1390号(近制造局路)"},{"poiid":"B2094654DB65A3F84599","title":"上海市红房子妇产科医院门诊部","lon":"121.48278","lat":"31.21204","category":"162","category_name":"医院","address":"方斜路566号"},{"poiid":"B2094757D16CA7F84792","title":"肇周路","lon":"121.480401738","lat":"31.2139469532","category":"500","category_name":"未知分类","address":"上海市卢湾区"},{"poiid":"B2094753D76FAAFA449C","title":"上海滩国泰旗舰店","lon":"121.466011","lat":"31.216125","category":"249","category_name":"购物服务","address":"淮海中路868号"},{"poiid":"B209475CD564A7F84292","title":"上海滩新天地店","lon":"121.47463","lat":"31.22164","category":"119","category_name":"商场","address":"\"太仓路181弄新天地北里15号\r\n\""},{"poiid":"B209475CD564A7F8439E","title":"上海滩中信泰富店","lon":"121.45602","lat":"31.22851","category":"119","category_name":"商场","address":"\"南京西路1168号中信泰富广场，店铺号221.\r\n\""},{"poiid":"B2094757D06FA1FF4392","title":"麟笼坊特色小笼包(建国东路店)","lon":"121.48073","lat":"31.21366","category":"68","category_name":"快餐厅","address":"卢湾区建国东路10号(近肇周路口)"},{"poiid":"B2094757D16CABFB409C","title":"红房子医院","lon":"121.482140338","lat":"31.2112135949","category":"162","category_name":"医院","address":"上海大林路358号"},{"poiid":"B2094757D06AA6FE469C","title":"新天地style","lon":"121.47919464","lat":"31.214149475","category":"500","category_name":"未知分类","address":"上海复兴中路马当路"},{"poiid":"B2094757D068A1FD409A","title":"盛兴点心店","lon":"121.479443054","lat":"31.212018793","category":"87","category_name":"特色／地方风味餐厅","address":"卢湾区顺昌路528号(近永年路)"},{"poiid":"B2094654DA6EAAF54793","title":"上海社会科学院研究生部","lon":"121.47963","lat":"31.21081","category":"52","category_name":"高等院校","address":"顺昌路622"},{"poiid":"B2094757D069A7FC409A","title":"一品居热气羊肉馆(顺昌店)","lon":"121.47938","lat":"31.21213","category":"86","category_name":"火锅店","address":"卢湾区顺昌路512号(近永年路)"},{"poiid":"B2094757D06FAAF4419B","title":"沪南体育活动中心","lon":"121.48268","lat":"31.21256","category":"220","category_name":"运动场所","address":"黄浦区方斜路515号(近大吉路)"},{"poiid":"B2094655D26FA3FF4399","title":"莫泰168连锁旅店(徐家汇路店)","lon":"121.48146","lat":"31.21081","category":"216","category_name":"经济型连锁酒店","address":"上海市黄浦区徐家汇路3-7号（近制造局路）"},{"poiid":"B2094654DA68A0FB4492","title":"万事利大厦","lon":"121.483038","lat":"31.211425","category":"46","category_name":"楼宇","address":"上海陆家浜路1378号"},{"poiid":"B2094757D06AA6FE479B","title":"黄陂南路徐家汇路","lon":"121.47800445","lat":"31.210878372","category":"500","category_name":"未知分类","address":"上海黄陂南路徐家汇路"},{"poiid":"B2094654DA6EA7FB439D","title":"上海市李惠利中学","lon":"121.48121","lat":"31.21181","category":"55","category_name":"中学","address":"卢湾区肇周路420号(陆家浜路徐家汇路)"},{"poiid":"B2094654DB69A5F4409A","title":"重庆鸡公煲 顺昌路店","lon":"121.479501054","lat":"31.212284793","category":"71","category_name":"四川菜","address":"卢湾区顺昌路530号(近永年路)"},{"poiid":"B2094655D265A7FF4499","title":"梦奇屋","lon":"121.47967","lat":"31.21183","category":"68","category_name":"快餐厅","address":"卢湾区顺昌路563号(近徐家汇路)"},{"poiid":"B2094654DB6BA4FF489D","title":"上海市基督教惠中堂(肇周路)","lon":"121.48094","lat":"31.21129","category":"245","category_name":"教堂","address":"卢湾区徐家汇路40-2号(肇周路口)"},{"poiid":"B2094757D464ABF54098","title":"巴弟鸡排 顺昌路店","lon":"121.479773054","lat":"31.211614793","category":"68","category_name":"快餐厅","address":"卢湾区顺昌路563号(近徐家汇路)"},{"poiid":"B2094654DB6BA4FF4898","title":"老北京涮锅(顺昌路)","lon":"121.47952","lat":"31.2125","category":"86","category_name":"火锅店","address":"卢湾区顺昌路531号(近永年路)"},{"poiid":"B2094757D064A6F9489F","title":"卢浦大桥(徐家汇路口)","lon":"121.480679","lat":"31.210989","category":"500","category_name":"未知分类","address":"上海徐家汇路重庆南路"},{"poiid":"B2094757D66AA4F44198","title":"鼎乐酒家","lon":"121.48018955369","lat":"31.212505124381","category":"76","category_name":"上海菜","address":"卢湾区永年路54号(永年路肇周路)"},{"poiid":"B2094654DB6BA4FF489B","title":"森绿温馨小吃(顺昌路)","lon":"121.47945","lat":"31.21288","category":"76","category_name":"上海菜","address":"卢湾区顺昌路503号(近建国东路)"},{"poiid":"B2094655D36CA1FF4198","title":"顺昌路徐家汇路","lon":"121.47971","lat":"31.21123","category":"38","category_name":"公交车站","address":""},{"poiid":"B2094757D069A1F8479C","title":"斜桥游泳馆","lon":"121.48246373","lat":"31.211333897","category":"220","category_name":"运动场所","address":"黄浦区大吉路218号(近西藏南路)"},{"poiid":"B2094752D66FAAFC4993","title":"必胜客","lon":"121.479057","lat":"31.211943","category":"500","category_name":"未知分类","address":"徐家汇路618号日月光中心广场B2楼(近瑞金二路)"},{"poiid":"B2094757D568AAFC4999","title":"京世造型","lon":"121.48242459","lat":"31.21159939","category":"148","category_name":"美容美发店","address":"陆家浜路1527"},{"poiid":"B2094757D06AAAFC4892","title":"永年别墅","lon":"121.47986173","lat":"31.21191891","category":"47","category_name":"住宅区","address":"上海永年路162号"},{"poiid":"B2094654DA6EAAF54493","title":"南京金陵汤包店","lon":"121.47932","lat":"31.21225","category":"87","category_name":"特色／地方风味餐厅","address":"卢湾区永年路114号(顺昌路口)"},{"poiid":"B2094655D36DA7F94599","title":"重庆南路","lon":"121.48058","lat":"31.21079","category":"38","category_name":"公交车站","address":""},{"poiid":"B2094655D36DA0FF4193","title":"徐家汇路重庆南路","lon":"121.48067","lat":"31.21098","category":"38","category_name":"公交车站","address":""},{"poiid":"B2094757D068ABFB419A","title":"泰煌鸡 黄陂南路店","lon":"121.477455054","lat":"31.213034793","category":"72","category_name":"广东菜","address":"卢湾区黄陂南路807号(近永年路)"},{"poiid":"B2094654DA6EA7FA499D","title":"长顺来","lon":"121.4795","lat":"31.2126","category":"76","category_name":"上海菜","address":"卢湾区顺昌路517号(近建国东路)"},{"poiid":"B2094757D164A5FC429F","title":"小车扦脚","lon":"121.480633","lat":"31.212189","category":"148","category_name":"美容美发店","address":"卢湾区永年路55号(近顺昌路)"},{"poiid":"B2094655D265A6F94193","title":"光明牛奶","lon":"121.47958","lat":"31.21215","category":"117","category_name":"便民商店/便利店","address":"顺昌路543"},{"poiid":"B2094757D66DA4F84192","title":"豪菜馆","lon":"121.47951697","lat":"31.211657584","category":"247","category_name":"餐饮美食","address":"上海顺昌路563弄1号"},{"poiid":"B2094757D16EAAFE4498","title":"迈阿密汉堡(肇周路店)","lon":"121.4816","lat":"31.21211","category":"68","category_name":"快餐厅","address":"黄浦区肇周路400号(近永年路)"},{"poiid":"B2094655D268A2FD4993","title":"打浦社区(西门)","lon":"121.47966","lat":"31.21198","category":"47","category_name":"住宅区","address":"顺昌路557弄1-13号"},{"poiid":"B2094654DA6EA7FB4099","title":"程晨理发店","lon":"121.47966","lat":"31.21194","category":"148","category_name":"美容美发店","address":"顺昌路553"},{"poiid":"B2094757D164A2FD469C","title":"马当菜场","lon":"121.480084485","lat":"31.21193107","category":"249","category_name":"购物服务","address":"上海合肥路223弄54号"},{"poiid":"B2094750D768A0F5439D","title":"老刘烧烤","lon":"121.482","lat":"31.2135","category":"68","category_name":"快餐厅","address":"黄浦区大吉路华联超市门口(方斜路口)"},{"poiid":"B2094757D16AA4FD489E","title":"上海社科院","lon":"121.479635","lat":"31.210817","category":"500","category_name":"未知分类","address":"卢湾区顺昌路622号"},{"poiid":"B2094654DB6BA4FF489C","title":"杰杰宠物","lon":"121.48011","lat":"31.21095","category":"129","category_name":"宠物用品店","address":"卢湾区徐家汇路90号(近顺昌路)"},{"poiid":"B2094655D268A7F8429B","title":"顺昌路550弄小区(东门)","lon":"121.47942","lat":"31.21198","category":"47","category_name":"住宅区","address":"顺昌路550弄1-23号"},{"poiid":"B2094655D268A7F8429A","title":"顺昌路550弄小区","lon":"121.47929","lat":"31.21195","category":"47","category_name":"住宅区","address":"顺昌路550弄1-23号"},{"poiid":"B2094757D068A7F84092","title":"广东小厨粤菜馆","lon":"121.48101692673","lat":"31.212828028012","category":"72","category_name":"广东菜","address":"黄浦区肇周路368号(近徐家汇路)"},{"poiid":"B2094655D36DA1F54693","title":"斜桥(制造局路陆家浜路)","lon":"121.4815","lat":"31.21258","category":"38","category_name":"公交车站","address":""},{"poiid":"B2094757D66BA4FC439B","title":"集宾酒楼","lon":"121.48026588107","lat":"31.213340264741","category":"76","category_name":"上海菜","address":"卢湾区建国东路23号(近顺昌路)"},{"poiid":"B2094757D069ABF9499D","title":"小肥羊(陆家浜店)","lon":"121.48257546","lat":"31.211537301","category":"86","category_name":"火锅店","address":"黄浦区陆家浜路1390号(近制造局路)"},{"poiid":"B2094654DB65A3F84599","title":"上海市红房子妇产科医院门诊部","lon":"121.48278","lat":"31.21204","category":"162","category_name":"医院","address":"方斜路566号"},{"poiid":"B2094757D16CA7F84792","title":"肇周路","lon":"121.480401738","lat":"31.2139469532","category":"500","category_name":"未知分类","address":"上海市卢湾区"},{"poiid":"B2094753D76FAAFA449C","title":"上海滩国泰旗舰店","lon":"121.466011","lat":"31.216125","category":"249","category_name":"购物服务","address":"淮海中路868号"},{"poiid":"B209475CD564A7F84292","title":"上海滩新天地店","lon":"121.47463","lat":"31.22164","category":"119","category_name":"商场","address":"\"太仓路181弄新天地北里15号\r\n\""},{"poiid":"B209475CD564A7F8439E","title":"上海滩中信泰富店","lon":"121.45602","lat":"31.22851","category":"119","category_name":"商场","address":"\"南京西路1168号中信泰富广场，店铺号221.\r\n\""},{"poiid":"B2094757D06FA1FF4392","title":"麟笼坊特色小笼包(建国东路店)","lon":"121.48073","lat":"31.21366","category":"68","category_name":"快餐厅","address":"卢湾区建国东路10号(近肇周路口)"},{"poiid":"B2094757D16CABFB409C","title":"红房子医院","lon":"121.482140338","lat":"31.2112135949","category":"162","category_name":"医院","address":"上海大林路358号"},{"poiid":"B2094757D06AA6FE469C","title":"新天地style","lon":"121.47919464","lat":"31.214149475","category":"500","category_name":"未知分类","address":"上海复兴中路马当路"},{"poiid":"B2094757D068A1FD409A","title":"盛兴点心店","lon":"121.479443054","lat":"31.212018793","category":"87","category_name":"特色／地方风味餐厅","address":"卢湾区顺昌路528号(近永年路)"},{"poiid":"B2094654DA6EAAF54793","title":"上海社会科学院研究生部","lon":"121.47963","lat":"31.21081","category":"52","category_name":"高等院校","address":"顺昌路622"},{"poiid":"B2094757D069A7FC409A","title":"一品居热气羊肉馆(顺昌店)","lon":"121.47938","lat":"31.21213","category":"86","category_name":"火锅店","address":"卢湾区顺昌路512号(近永年路)"},{"poiid":"B2094757D06FAAF4419B","title":"沪南体育活动中心","lon":"121.48268","lat":"31.21256","category":"220","category_name":"运动场所","address":"黄浦区方斜路515号(近大吉路)"},{"poiid":"B2094655D26FA3FF4399","title":"莫泰168连锁旅店(徐家汇路店)","lon":"121.48146","lat":"31.21081","category":"216","category_name":"经济型连锁酒店","address":"上海市黄浦区徐家汇路3-7号（近制造局路）"},{"poiid":"B2094654DA68A0FB4492","title":"万事利大厦","lon":"121.483038","lat":"31.211425","category":"46","category_name":"楼宇","address":"上海陆家浜路1378号"},{"poiid":"B2094757D06AA6FE479B","title":"黄陂南路徐家汇路","lon":"121.47800445","lat":"31.210878372","category":"500","category_name":"未知分类","address":"上海黄陂南路徐家汇路"},{"poiid":"B2094654DA6EA7FB439D","title":"上海市李惠利中学","lon":"121.48121","lat":"31.21181","category":"55","category_name":"中学","address":"卢湾区肇周路420号(陆家浜路徐家汇路)"},{"poiid":"B2094654DB69A5F4409A","title":"重庆鸡公煲 顺昌路店","lon":"121.479501054","lat":"31.212284793","category":"71","category_name":"四川菜","address":"卢湾区顺昌路530号(近永年路)"},{"poiid":"B2094655D265A7FF4499","title":"梦奇屋","lon":"121.47967","lat":"31.21183","category":"68","category_name":"快餐厅","address":"卢湾区顺昌路563号(近徐家汇路)"},{"poiid":"B2094654DB6BA4FF489D","title":"上海市基督教惠中堂(肇周路)","lon":"121.48094","lat":"31.21129","category":"245","category_name":"教堂","address":"卢湾区徐家汇路40-2号(肇周路口)"},{"poiid":"B2094757D464ABF54098","title":"巴弟鸡排 顺昌路店","lon":"121.479773054","lat":"31.211614793","category":"68","category_name":"快餐厅","address":"卢湾区顺昌路563号(近徐家汇路)"},{"poiid":"B2094654DB6BA4FF4898","title":"老北京涮锅(顺昌路)","lon":"121.47952","lat":"31.2125","category":"86","category_name":"火锅店","address":"卢湾区顺昌路531号(近永年路)"},{"poiid":"B2094757D064A6F9489F","title":"卢浦大桥(徐家汇路口)","lon":"121.480679","lat":"31.210989","category":"500","category_name":"未知分类","address":"上海徐家汇路重庆南路"},{"poiid":"B2094757D66AA4F44198","title":"鼎乐酒家","lon":"121.48018955369","lat":"31.212505124381","category":"76","category_name":"上海菜","address":"卢湾区永年路54号(永年路肇周路)"},{"poiid":"B2094654DB6BA4FF489B","title":"森绿温馨小吃(顺昌路)","lon":"121.47945","lat":"31.21288","category":"76","category_name":"上海菜","address":"卢湾区顺昌路503号(近建国东路)"},{"poiid":"B2094655D36CA1FF4198","title":"顺昌路徐家汇路","lon":"121.47971","lat":"31.21123","category":"38","category_name":"公交车站","address":""},{"poiid":"B2094757D069A1F8479C","title":"斜桥游泳馆","lon":"121.48246373","lat":"31.211333897","category":"220","category_name":"运动场所","address":"黄浦区大吉路218号(近西藏南路)"},{"poiid":"B2094752D66FAAFC4993","title":"必胜客","lon":"121.479057","lat":"31.211943","category":"500","category_name":"未知分类","address":"徐家汇路618号日月光中心广场B2楼(近瑞金二路)"},{"poiid":"B2094757D568AAFC4999","title":"京世造型","lon":"121.48242459","lat":"31.21159939","category":"148","category_name":"美容美发店","address":"陆家浜路1527"},{"poiid":"B2094757D06AAAFC4892","title":"永年别墅","lon":"121.47986173","lat":"31.21191891","category":"47","category_name":"住宅区","address":"上海永年路162号"},{"poiid":"B2094654DA6EAAF54493","title":"南京金陵汤包店","lon":"121.47932","lat":"31.21225","category":"87","category_name":"特色／地方风味餐厅","address":"卢湾区永年路114号(顺昌路口)"},{"poiid":"B2094655D36DA7F94599","title":"重庆南路","lon":"121.48058","lat":"31.21079","category":"38","category_name":"公交车站","address":""},{"poiid":"B2094655D36DA0FF4193","title":"徐家汇路重庆南路","lon":"121.48067","lat":"31.21098","category":"38","category_name":"公交车站","address":""},{"poiid":"B2094757D068ABFB419A","title":"泰煌鸡 黄陂南路店","lon":"121.477455054","lat":"31.213034793","category":"72","category_name":"广东菜","address":"卢湾区黄陂南路807号(近永年路)"},{"poiid":"B2094654DA6EA7FA499D","title":"长顺来","lon":"121.4795","lat":"31.2126","category":"76","category_name":"上海菜","address":"卢湾区顺昌路517号(近建国东路)"},{"poiid":"B2094757D164A5FC429F","title":"小车扦脚","lon":"121.480633","lat":"31.212189","category":"148","category_name":"美容美发店","address":"卢湾区永年路55号(近顺昌路)"},{"poiid":"B2094655D265A6F94193","title":"光明牛奶","lon":"121.47958","lat":"31.21215","category":"117","category_name":"便民商店/便利店","address":"顺昌路543"},{"poiid":"B2094757D66DA4F84192","title":"豪菜馆","lon":"121.47951697","lat":"31.211657584","category":"247","category_name":"餐饮美食","address":"上海顺昌路563弄1号"},{"poiid":"B2094757D16EAAFE4498","title":"迈阿密汉堡(肇周路店)","lon":"121.4816","lat":"31.21211","category":"68","category_name":"快餐厅","address":"黄浦区肇周路400号(近永年路)"},{"poiid":"B2094655D268A2FD4993","title":"打浦社区(西门)","lon":"121.47966","lat":"31.21198","category":"47","category_name":"住宅区","address":"顺昌路557弄1-13号"},{"poiid":"B2094654DA6EA7FB4099","title":"程晨理发店","lon":"121.47966","lat":"31.21194","category":"148","category_name":"美容美发店","address":"顺昌路553"},{"poiid":"B2094757D164A2FD469C","title":"马当菜场","lon":"121.480084485","lat":"31.21193107","category":"249","category_name":"购物服务","address":"上海合肥路223弄54号"},{"poiid":"B2094750D768A0F5439D","title":"老刘烧烤","lon":"121.482","lat":"31.2135","category":"68","category_name":"快餐厅","address":"黄浦区大吉路华联超市门口(方斜路口)"},{"poiid":"B2094757D16AA4FD489E","title":"上海社科院","lon":"121.479635","lat":"31.210817","category":"500","category_name":"未知分类","address":"卢湾区顺昌路622号"},{"poiid":"B2094654DB6BA4FF489C","title":"杰杰宠物","lon":"121.48011","lat":"31.21095","category":"129","category_name":"宠物用品店","address":"卢湾区徐家汇路90号(近顺昌路)"},{"poiid":"B2094655D268A7F8429B","title":"顺昌路550弄小区(东门)","lon":"121.47942","lat":"31.21198","category":"47","category_name":"住宅区","address":"顺昌路550弄1-23号"},{"poiid":"B2094655D268A7F8429A","title":"顺昌路550弄小区","lon":"121.47929","lat":"31.21195","category":"47","category_name":"住宅区","address":"顺昌路550弄1-23号"},{"poiid":"B2094757D068A7F84092","title":"广东小厨粤菜馆","lon":"121.48101692673","lat":"31.212828028012","category":"72","category_name":"广东菜","address":"黄浦区肇周路368号(近徐家汇路)"},{"poiid":"B2094655D36DA1F54693","title":"斜桥(制造局路陆家浜路)","lon":"121.4815","lat":"31.21258","category":"38","category_name":"公交车站","address":""},{"poiid":"B2094757D66BA4FC439B","title":"集宾酒楼","lon":"121.48026588107","lat":"31.213340264741","category":"76","category_name":"上海菜","address":"卢湾区建国东路23号(近顺昌路)"},{"poiid":"B2094757D069ABF9499D","title":"小肥羊(陆家浜店)","lon":"121.48257546","lat":"31.211537301","category":"86","category_name":"火锅店","address":"黄浦区陆家浜路1390号(近制造局路)"},{"poiid":"B2094654DB65A3F84599","title":"上海市红房子妇产科医院门诊部","lon":"121.48278","lat":"31.21204","category":"162","category_name":"医院","address":"方斜路566号"},{"poiid":"B2094757D16CA7F84792","title":"肇周路","lon":"121.480401738","lat":"31.2139469532","category":"500","category_name":"未知分类","address":"上海市卢湾区"},{"poiid":"B2094753D76FAAFA449C","title":"上海滩国泰旗舰店","lon":"121.466011","lat":"31.216125","category":"249","category_name":"购物服务","address":"淮海中路868号"},{"poiid":"B209475CD564A7F84292","title":"上海滩新天地店","lon":"121.47463","lat":"31.22164","category":"119","category_name":"商场","address":"\"太仓路181弄新天地北里15号\r\n\""},{"poiid":"B209475CD564A7F8439E","title":"上海滩中信泰富店","lon":"121.45602","lat":"31.22851","category":"119","category_name":"商场","address":"\"南京西路1168号中信泰富广场，店铺号221.\r\n\""},{"poiid":"B2094757D06FA1FF4392","title":"麟笼坊特色小笼包(建国东路店)","lon":"121.48073","lat":"31.21366","category":"68","category_name":"快餐厅","address":"卢湾区建国东路10号(近肇周路口)"},{"poiid":"B2094757D16CABFB409C","title":"红房子医院","lon":"121.482140338","lat":"31.2112135949","category":"162","category_name":"医院","address":"上海大林路358号"},{"poiid":"B2094757D06AA6FE469C","title":"新天地style","lon":"121.47919464","lat":"31.214149475","category":"500","category_name":"未知分类","address":"上海复兴中路马当路"},{"poiid":"B2094757D068A1FD409A","title":"盛兴点心店","lon":"121.479443054","lat":"31.212018793","category":"87","category_name":"特色／地方风味餐厅","address":"卢湾区顺昌路528号(近永年路)"},{"poiid":"B2094654DA6EAAF54793","title":"上海社会科学院研究生部","lon":"121.47963","lat":"31.21081","category":"52","category_name":"高等院校","address":"顺昌路622"},{"poiid":"B2094757D069A7FC409A","title":"一品居热气羊肉馆(顺昌店)","lon":"121.47938","lat":"31.21213","category":"86","category_name":"火锅店","address":"卢湾区顺昌路512号(近永年路)"},{"poiid":"B2094757D06FAAF4419B","title":"沪南体育活动中心","lon":"121.48268","lat":"31.21256","category":"220","category_name":"运动场所","address":"黄浦区方斜路515号(近大吉路)"},{"poiid":"B2094655D26FA3FF4399","title":"莫泰168连锁旅店(徐家汇路店)","lon":"121.48146","lat":"31.21081","category":"216","category_name":"经济型连锁酒店","address":"上海市黄浦区徐家汇路3-7号（近制造局路）"},{"poiid":"B2094654DA68A0FB4492","title":"万事利大厦","lon":"121.483038","lat":"31.211425","category":"46","category_name":"楼宇","address":"上海陆家浜路1378号"},{"poiid":"B2094757D06AA6FE479B","title":"黄陂南路徐家汇路","lon":"121.47800445","lat":"31.210878372","category":"500","category_name":"未知分类","address":"上海黄陂南路徐家汇路"},{"poiid":"B2094654DA6EA7FB439D","title":"上海市李惠利中学","lon":"121.48121","lat":"31.21181","category":"55","category_name":"中学","address":"卢湾区肇周路420号(陆家浜路徐家汇路)"},{"poiid":"B2094654DB69A5F4409A","title":"重庆鸡公煲 顺昌路店","lon":"121.479501054","lat":"31.212284793","category":"71","category_name":"四川菜","address":"卢湾区顺昌路530号(近永年路)"},{"poiid":"B2094655D265A7FF4499","title":"梦奇屋","lon":"121.47967","lat":"31.21183","category":"68","category_name":"快餐厅","address":"卢湾区顺昌路563号(近徐家汇路)"},{"poiid":"B2094654DB6BA4FF489D","title":"上海市基督教惠中堂(肇周路)","lon":"121.48094","lat":"31.21129","category":"245","category_name":"教堂","address":"卢湾区徐家汇路40-2号(肇周路口)"},{"poiid":"B2094757D464ABF54098","title":"巴弟鸡排 顺昌路店","lon":"121.479773054","lat":"31.211614793","category":"68","category_name":"快餐厅","address":"卢湾区顺昌路563号(近徐家汇路)"},{"poiid":"B2094654DB6BA4FF4898","title":"老北京涮锅(顺昌路)","lon":"121.47952","lat":"31.2125","category":"86","category_name":"火锅店","address":"卢湾区顺昌路531号(近永年路)"},{"poiid":"B2094757D064A6F9489F","title":"卢浦大桥(徐家汇路口)","lon":"121.480679","lat":"31.210989","category":"500","category_name":"未知分类","address":"上海徐家汇路重庆南路"},{"poiid":"B2094757D66AA4F44198","title":"鼎乐酒家","lon":"121.48018955369","lat":"31.212505124381","category":"76","category_name":"上海菜","address":"卢湾区永年路54号(永年路肇周路)"},{"poiid":"B2094654DB6BA4FF489B","title":"森绿温馨小吃(顺昌路)","lon":"121.47945","lat":"31.21288","category":"76","category_name":"上海菜","address":"卢湾区顺昌路503号(近建国东路)"},{"poiid":"B2094655D36CA1FF4198","title":"顺昌路徐家汇路","lon":"121.47971","lat":"31.21123","category":"38","category_name":"公交车站","address":""},{"poiid":"B2094757D069A1F8479C","title":"斜桥游泳馆","lon":"121.48246373","lat":"31.211333897","category":"220","category_name":"运动场所","address":"黄浦区大吉路218号(近西藏南路)"},{"poiid":"B2094752D66FAAFC4993","title":"必胜客","lon":"121.479057","lat":"31.211943","category":"500","category_name":"未知分类","address":"徐家汇路618号日月光中心广场B2楼(近瑞金二路)"},{"poiid":"B2094757D568AAFC4999","title":"京世造型","lon":"121.48242459","lat":"31.21159939","category":"148","category_name":"美容美发店","address":"陆家浜路1527"},{"poiid":"B2094757D06AAAFC4892","title":"永年别墅","lon":"121.47986173","lat":"31.21191891","category":"47","category_name":"住宅区","address":"上海永年路162号"},{"poiid":"B2094654DA6EAAF54493","title":"南京金陵汤包店","lon":"121.47932","lat":"31.21225","category":"87","category_name":"特色／地方风味餐厅","address":"卢湾区永年路114号(顺昌路口)"},{"poiid":"B2094655D36DA7F94599","title":"重庆南路","lon":"121.48058","lat":"31.21079","category":"38","category_name":"公交车站","address":""},{"poiid":"B2094655D36DA0FF4193","title":"徐家汇路重庆南路","lon":"121.48067","lat":"31.21098","category":"38","category_name":"公交车站","address":""},{"poiid":"B2094757D068ABFB419A","title":"泰煌鸡 黄陂南路店","lon":"121.477455054","lat":"31.213034793","category":"72","category_name":"广东菜","address":"卢湾区黄陂南路807号(近永年路)"},{"poiid":"B2094654DA6EA7FA499D","title":"长顺来","lon":"121.4795","lat":"31.2126","category":"76","category_name":"上海菜","address":"卢湾区顺昌路517号(近建国东路)"},{"poiid":"B2094757D164A5FC429F","title":"小车扦脚","lon":"121.480633","lat":"31.212189","category":"148","category_name":"美容美发店","address":"卢湾区永年路55号(近顺昌路)"},{"poiid":"B2094655D265A6F94193","title":"光明牛奶","lon":"121.47958","lat":"31.21215","category":"117","category_name":"便民商店/便利店","address":"顺昌路543"},{"poiid":"B2094757D66DA4F84192","title":"豪菜馆","lon":"121.47951697","lat":"31.211657584","category":"247","category_name":"餐饮美食","address":"上海顺昌路563弄1号"},{"poiid":"B2094757D16EAAFE4498","title":"迈阿密汉堡(肇周路店)","lon":"121.4816","lat":"31.21211","category":"68","category_name":"快餐厅","address":"黄浦区肇周路400号(近永年路)"},{"poiid":"B2094655D268A2FD4993","title":"打浦社区(西门)","lon":"121.47966","lat":"31.21198","category":"47","category_name":"住宅区","address":"顺昌路557弄1-13号"},{"poiid":"B2094654DA6EA7FB4099","title":"程晨理发店","lon":"121.47966","lat":"31.21194","category":"148","category_name":"美容美发店","address":"顺昌路553"},{"poiid":"B2094757D164A2FD469C","title":"马当菜场","lon":"121.480084485","lat":"31.21193107","category":"249","category_name":"购物服务","address":"上海合肥路223弄54号"},{"poiid":"B2094750D768A0F5439D","title":"老刘烧烤","lon":"121.482","lat":"31.2135","category":"68","category_name":"快餐厅","address":"黄浦区大吉路华联超市门口(方斜路口)"},{"poiid":"B2094757D16AA4FD489E","title":"上海社科院","lon":"121.479635","lat":"31.210817","category":"500","category_name":"未知分类","address":"卢湾区顺昌路622号"},{"poiid":"B2094654DB6BA4FF489C","title":"杰杰宠物","lon":"121.48011","lat":"31.21095","category":"129","category_name":"宠物用品店","address":"卢湾区徐家汇路90号(近顺昌路)"},{"poiid":"B2094655D268A7F8429B","title":"顺昌路550弄小区(东门)","lon":"121.47942","lat":"31.21198","category":"47","category_name":"住宅区","address":"顺昌路550弄1-23号"},{"poiid":"B2094655D268A7F8429A","title":"顺昌路550弄小区","lon":"121.47929","lat":"31.21195","category":"47","category_name":"住宅区","address":"顺昌路550弄1-23号"},{"poiid":"B2094757D068A7F84092","title":"广东小厨粤菜馆","lon":"121.48101692673","lat":"31.212828028012","category":"72","category_name":"广东菜","address":"黄浦区肇周路368号(近徐家汇路)"},{"poiid":"B2094655D36DA1F54693","title":"斜桥(制造局路陆家浜路)","lon":"121.4815","lat":"31.21258","category":"38","category_name":"公交车站","address":""},{"poiid":"B2094757D66BA4FC439B","title":"集宾酒楼","lon":"121.48026588107","lat":"31.213340264741","category":"76","category_name":"上海菜","address":"卢湾区建国东路23号(近顺昌路)"}]