[{"poiid":"B2094757D068A5F8459E","title":"星河湾","lon":"121.408479","lat":"31.088122","category":"47","category_name":"住宅区","address":"上海闵行区都会路3799号(近金都路)"},{"poiid":"B2094757D06FABFA439C","title":"宝燕海鲜(莘庄店)","lon":"121.39846","lat":"31.08808","category":"75","category_name":"浙江菜","address":"闵行区都市路3825弄好爱广场1楼(近金都路)"},{"poiid":"B2094757D06FA7FA419B","title":"银都新村","lon":"121.39397","lat":"31.093572","category":"47","category_name":"住宅区","address":"上海闵行区银都路3118弄"},{"poiid":"B2094757D06FA1F44793","title":"银都路地铁站","lon":"121.3920841","lat":"31.086243183","category":"36","category_name":"地铁站","address":"上海轨道交通 五号线 轨交银都路站 5"},{"poiid":"B2094757D069A3F9479B","title":"南美水疗(莘庄店)","lon":"121.3986","lat":"31.08809","category":"149","category_name":"洗浴推拿场所","address":"闵行区都市路"},{"poiid":"B2094655D36CA6FA4198","title":"都市路银都路","lon":"121.39567","lat":"31.09373","category":"38","category_name":"公交车站","address":"上海ShanghaiMinhangDushi,Rd"},{"poiid":"B2094757D068A0FD4499","title":"君临天下花园","lon":"121.39516","lat":"31.090305","category":"47","category_name":"住宅区","address":"君临天下花园位于闵行银都路3399号"},{"poiid":"B2094757D06AA6FB4192","title":"虾满堂(都市路店)","lon":"121.39806366","lat":"31.0883331299","category":"500","category_name":"未知分类","address":"上海都市路3825弄7号"},{"poiid":"B2094654DB6CABFE4499","title":"好世凤凰城","lon":"121.39156","lat":"31.092218","category":"47","category_name":"住宅区","address":"银都路3536弄"},{"poiid":"B2094757D06AAAF8409E","title":"金都花好悦园","lon":"121.39911","lat":"31.091726","category":"500","category_name":"未知分类","address":"上海银都路3151弄"},{"poiid":"B2094757D068A5FF439B","title":"贵峰苑小区","lon":"121.39724333","lat":"31.081609039","category":"47","category_name":"住宅区","address":"上海闵行区金都路3019弄"},{"poiid":"B2094757D06AA2FD4993","title":"S4金都路上匝道 (沪闵高架路方向)","lon":"121.40286185","lat":"31.085065063","category":"500","category_name":"未知分类","address":"上海闵行区金都路"},{"poiid":"B2094654DB6CAAFA439C","title":"海燕精菜馆","lon":"121.398469054","lat":"31.087303793","category":"72","category_name":"广东菜","address":"闵行区都市路3825弄好爱广场1楼(近金都路)"},{"poiid":"B2094654DB6CAAFA429E","title":"黑三娘","lon":"121.39765","lat":"31.0886","category":"71","category_name":"四川菜","address":"闵行区都市路3825弄好爱广场149-151号(近金都路)"},{"poiid":"B2094757D06AA6F94498","title":"鸣宏象山渔港","lon":"121.39741","lat":"31.09162","category":"75","category_name":"浙江菜","address":"闵行区都市路4252号"},{"poiid":"B2094655D268A5FC479A","title":"8号景观餐厅","lon":"121.39816","lat":"31.08872","category":"72","category_name":"广东菜","address":"闵行区都市路3825弄好爱广场内(近金都路)"},{"poiid":"B2094654DB6CA4F84692","title":"樱园","lon":"121.40267","lat":"31.083956","category":"47","category_name":"住宅区","address":"上海市闵行区都市路2566弄"},{"poiid":"B2094655D26EA5FC479B","title":"黑三娘 好爱店","lon":"121.398469054","lat":"31.087303793","category":"71","category_name":"四川菜","address":"闵行区都市路3825弄好爱广场149-151号(近金都路)"},{"poiid":"B2094757D66AA4F5419E","title":"虾满堂手抓龙虾 都市路店","lon":"121.398613","lat":"31.087572","category":"68","category_name":"快餐厅","address":"闵行区都市路3825弄好爱广场内(近金都路)"},{"poiid":"B2094654DB6CAAFA499B","title":"上海市田园高级中学","lon":"121.40107","lat":"31.09106","category":"55","category_name":"中学","address":"闵行区颛桥镇田园路455号(近都市路)"},{"poiid":"B2094757D168A6FE4899","title":"一番日本料理","lon":"121.393818054","lat":"31.091940793","category":"95","category_name":"日本料理","address":"闵行区银都路3460号(近都市路)"},{"poiid":"B2094757D16CA6FE4598","title":"好宴世家(银都店)","lon":"121.39779","lat":"31.09265","category":"76","category_name":"上海菜","address":"闵行区银都路3177号(近都市路)"},{"poiid":"B2094750D76CA6FA4699","title":"东北风情人家","lon":"121.398","lat":"31.0885","category":"82","category_name":"东北菜","address":"闵行区都市路3825弄好爱广场1号101座(近金都路)"},{"poiid":"B2094757D164A2F54999","title":"小沪人家(顓桥店)","lon":"121.39848","lat":"31.08829","category":"76","category_name":"上海菜","address":"闵行区都市路3825弄好爱广场10号148-150(近金都路)"},{"poiid":"B2094654DB6CAAF4439F","title":"柠檬树饮品屋","lon":"121.39827","lat":"31.0896","category":"94","category_name":"西餐厅","address":"闵行区都市路4160号(近银都路)"},{"poiid":"B2094757D069ABFE429F","title":"上海市射击射箭运动中心","lon":"121.396578","lat":"31.086979","category":"500","category_name":"未知分类","address":"上海市闵行区金都路3028号"},{"poiid":"B2094655D26BAAFF459B","title":"都市路烧烤摊","lon":"121.39778","lat":"31.09057","category":"68","category_name":"快餐厅","address":"闵行区都市路4202号罗森超市门口(近银都路站A4出口)"},{"poiid":"B2094654DB6CAAFB499D","title":"剑桥景苑","lon":"121.40108","lat":"31.087791","category":"47","category_name":"住宅区","address":"上海市闵行区都市路3800号"},{"poiid":"B2094757D66BA2F5419B","title":"铜官山","lon":"121.39815","lat":"31.08853","category":"87","category_name":"特色／地方风味餐厅","address":"闵行区都市路3825弄好爱广场7号(近金都路)"},{"poiid":"B2094757D169A0FB479F","title":"小嘴巴海鲜坊","lon":"121.39794685","lat":"31.087076103","category":"76","category_name":"上海菜","address":"闵行区都市路3825弄好爱广场1号105(近金都路)"},{"poiid":"B2094654DB6CAAF4419C","title":"快客NO.6524","lon":"121.39984","lat":"31.08976","category":"117","category_name":"便民商店/便利店","address":"梅州路116"},{"poiid":"B2094757D66BA1F5429C","title":"大阿姐海派药膳鸡","lon":"121.398469054","lat":"31.087303793","category":"86","category_name":"火锅店","address":"闵行区都市路3825弄好爱广场7号115室(近金都路)"},{"poiid":"B2094757D465A1F84399","title":"香乡村大龙虾 都市路店","lon":"121.398469054","lat":"31.087303793","category":"68","category_name":"快餐厅","address":"闵行区都市路3825弄好爱广场7号3室(近金都路)"},{"poiid":"B2094654DB6CAAF44492","title":"世纪华联NO.1618(都市路)","lon":"121.39806","lat":"31.08999","category":"117","category_name":"便民商店/便利店","address":""},{"poiid":"B2094757D464A0FB429A","title":"上岛咖啡 都市路店 UBC Coffee","lon":"121.398469054","lat":"31.087303793","category":"65","category_name":"咖啡厅","address":"都市路3825弄好爱广场近银都路"},{"poiid":"B2094757D66BA5FD4399","title":"象山小海小鲜","lon":"121.40024","lat":"31.08971","category":"260","category_name":"其他","address":"闵行区梅州路3825弄(近都市路)"},{"poiid":"B2094655D36CA6FA419C","title":"都市路梅州路","lon":"121.39747","lat":"31.09042","category":"38","category_name":"公交车站","address":""},{"poiid":"B2094757D66BA0FD489C","title":"越岭阁 银都路店","lon":"121.394039","lat":"31.092091","category":"96","category_name":"韩国料理","address":"闵行区银都路3458号(近都市路)"},{"poiid":"B2094654DB64A1FF4793","title":"上海宝燕商务酒店(好爱店)","lon":"121.39663","lat":"31.0881","category":"250","category_name":"公园户外","address":"闵行区都市路好爱广场对面(都市路梅州路)"},{"poiid":"B2094757D66EA7F94592","title":"象山海鲜城","lon":"121.39824","lat":"31.08699","category":"75","category_name":"浙江菜","address":"闵行区都市路3825弄好爱广场内(近金都路)"},{"poiid":"B2094655D265A0F44199","title":"喜士多便利(都市店)","lon":"121.39759","lat":"31.09026","category":"117","category_name":"便民商店/便利店","address":"都市路4198号"},{"poiid":"B2094654DB6CAAF4459E","title":"得一大药房都市店","lon":"121.39781","lat":"31.0905","category":"162","category_name":"医院","address":"闵行区都市路4194号"},{"poiid":"B2094655D268A1FA4993","title":"银都苑(南门)","lon":"121.39833","lat":"31.09392","category":"47","category_name":"住宅区","address":"银都路3118弄7区1-11号"},{"poiid":"B2094757D46AA7FE419B","title":"两岸咖啡 都市路店","lon":"121.3979208","lat":"31.0895308","category":"260","category_name":"其他","address":"闵行区都市路3989号东方证券2楼(近梅州路)"},{"poiid":"B2094654DB6CAAF44093","title":"克丽缇娜(都市路)","lon":"121.39888","lat":"31.08845","category":"148","category_name":"美容美发店","address":"都市路3886"},{"poiid":"B2094655D26EA2F54499","title":"攀宇健身","lon":"121.39348","lat":"31.08691","category":"221","category_name":"健身中心","address":"闵行区梅州路505号(近都市路)"},{"poiid":"B2094757D169A7FB459E","title":"桂菊酒楼 好爱广场店","lon":"121.398469054","lat":"31.087303793","category":"71","category_name":"四川菜","address":"闵行区都市路3825弄好爱广场2号108(近金都路)"},{"poiid":"B2094757D16FA7FF419C","title":"锦媛足浴","lon":"121.39767","lat":"31.09076","category":"149","category_name":"洗浴推拿场所","address":"闵行区都市路4218号(近银都路)"},{"poiid":"B209475DD168A4F9429E","title":"上海环球金融中心","lon":"121.402969","lat":"31.089944","category":"500","category_name":"未知分类","address":"上海市 上海市浦东新区世纪大道100号"},{"poiid":"B2094757D76BA1F8419F","title":"香吧岛 都市路店","lon":"121.3988984","lat":"31.0876812","category":"269","category_name":"烧烤","address":"都市路3825弄好爱广场147号近金都路"},{"poiid":"B2094757D068A5F8459E","title":"星河湾","lon":"121.408479","lat":"31.088122","category":"47","category_name":"住宅区","address":"上海闵行区都会路3799号(近金都路)"},{"poiid":"B2094757D06FABFA439C","title":"宝燕海鲜(莘庄店)","lon":"121.39846","lat":"31.08808","category":"75","category_name":"浙江菜","address":"闵行区都市路3825弄好爱广场1楼(近金都路)"},{"poiid":"B2094757D06FA7FA419B","title":"银都新村","lon":"121.39397","lat":"31.093572","category":"47","category_name":"住宅区","address":"上海闵行区银都路3118弄"},{"poiid":"B2094757D06FA1F44793","title":"银都路地铁站","lon":"121.3920841","lat":"31.086243183","category":"36","category_name":"地铁站","address":"上海轨道交通 五号线 轨交银都路站 5"},{"poiid":"B2094757D069A3F9479B","title":"南美水疗(莘庄店)","lon":"121.3986","lat":"31.08809","category":"149","category_name":"洗浴推拿场所","address":"闵行区都市路"},{"poiid":"B2094655D36CA6FA4198","title":"都市路银都路","lon":"121.39567","lat":"31.09373","category":"38","category_name":"公交车站","address":"上海ShanghaiMinhangDushi,Rd"},{"poiid":"B2094757D068A0FD4499","title":"君临天下花园","lon":"121.39516","lat":"31.090305","category":"47","category_name":"住宅区","address":"君临天下花园位于闵行银都路3399号"},{"poiid":"B2094757D06AA6FB4192","title":"虾满堂(都市路店)","lon":"121.39806366","lat":"31.0883331299","category":"500","category_name":"未知分类","address":"上海都市路3825弄7号"},{"poiid":"B2094654DB6CABFE4499","title":"好世凤凰城","lon":"121.39156","lat":"31.092218","category":"47","category_name":"住宅区","address":"银都路3536弄"},{"poiid":"B2094757D06AAAF8409E","title":"金都花好悦园","lon":"121.39911","lat":"31.091726","category":"500","category_name":"未知分类","address":"上海银都路3151弄"},{"poiid":"B2094757D068A5FF439B","title":"贵峰苑小区","lon":"121.39724333","lat":"31.081609039","category":"47","category_name":"住宅区","address":"上海闵行区金都路3019弄"},{"poiid":"B2094757D06AA2FD4993","title":"S4金都路上匝道 (沪闵高架路方向)","lon":"121.40286185","lat":"31.085065063","category":"500","category_name":"未知分类","address":"上海闵行区金都路"},{"poiid":"B2094654DB6CAAFA439C","title":"海燕精菜馆","lon":"121.398469054","lat":"31.087303793","category":"72","category_name":"广东菜","address":"闵行区都市路3825弄好爱广场1楼(近金都路)"},{"poiid":"B2094654DB6CAAFA429E","title":"黑三娘","lon":"121.39765","lat":"31.0886","category":"71","category_name":"四川菜","address":"闵行区都市路3825弄好爱广场149-151号(近金都路)"},{"poiid":"B2094757D06AA6F94498","title":"鸣宏象山渔港","lon":"121.39741","lat":"31.09162","category":"75","category_name":"浙江菜","address":"闵行区都市路4252号"},{"poiid":"B2094655D268A5FC479A","title":"8号景观餐厅","lon":"121.39816","lat":"31.08872","category":"72","category_name":"广东菜","address":"闵行区都市路3825弄好爱广场内(近金都路)"},{"poiid":"B2094654DB6CA4F84692","title":"樱园","lon":"121.40267","lat":"31.083956","category":"47","category_name":"住宅区","address":"上海市闵行区都市路2566弄"},{"poiid":"B2094655D26EA5FC479B","title":"黑三娘 好爱店","lon":"121.398469054","lat":"31.087303793","category":"71","category_name":"四川菜","address":"闵行区都市路3825弄好爱广场149-151号(近金都路)"},{"poiid":"B2094757D66AA4F5419E","title":"虾满堂手抓龙虾 都市路店","lon":"121.398613","lat":"31.087572","category":"68","category_name":"快餐厅","address":"闵行区都市路3825弄好爱广场内(近金都路)"},{"poiid":"B2094654DB6CAAFA499B","title":"上海市田园高级中学","lon":"121.40107","lat":"31.09106","category":"55","category_name":"中学","address":"闵行区颛桥镇田园路455号(近都市路)"},{"poiid":"B2094757D168A6FE4899","title":"一番日本料理","lon":"121.393818054","lat":"31.091940793","category":"95","category_name":"日本料理","address":"闵行区银都路3460号(近都市路)"},{"poiid":"B2094757D16CA6FE4598","title":"好宴世家(银都店)","lon":"121.39779","lat":"31.09265","category":"76","category_name":"上海菜","address":"闵行区银都路3177号(近都市路)"},{"poiid":"B2094750D76CA6FA4699","title":"东北风情人家","lon":"121.398","lat":"31.0885","category":"82","category_name":"东北菜","address":"闵行区都市路3825弄好爱广场1号101座(近金都路)"},{"poiid":"B2094757D164A2F54999","title":"小沪人家(顓桥店)","lon":"121.39848","lat":"31.08829","category":"76","category_name":"上海菜","address":"闵行区都市路3825弄好爱广场10号148-150(近金都路)"},{"poiid":"B2094654DB6CAAF4439F","title":"柠檬树饮品屋","lon":"121.39827","lat":"31.0896","category":"94","category_name":"西餐厅","address":"闵行区都市路4160号(近银都路)"},{"poiid":"B2094757D069ABFE429F","title":"上海市射击射箭运动中心","lon":"121.396578","lat":"31.086979","category":"500","category_name":"未知分类","address":"上海市闵行区金都路3028号"},{"poiid":"B2094655D26BAAFF459B","title":"都市路烧烤摊","lon":"121.39778","lat":"31.09057","category":"68","category_name":"快餐厅","address":"闵行区都市路4202号罗森超市门口(近银都路站A4出口)"},{"poiid":"B2094654DB6CAAFB499D","title":"剑桥景苑","lon":"121.40108","lat":"31.087791","category":"47","category_name":"住宅区","address":"上海市闵行区都市路3800号"},{"poiid":"B2094757D66BA2F5419B","title":"铜官山","lon":"121.39815","lat":"31.08853","category":"87","category_name":"特色／地方风味餐厅","address":"闵行区都市路3825弄好爱广场7号(近金都路)"},{"poiid":"B2094757D169A0FB479F","title":"小嘴巴海鲜坊","lon":"121.39794685","lat":"31.087076103","category":"76","category_name":"上海菜","address":"闵行区都市路3825弄好爱广场1号105(近金都路)"},{"poiid":"B2094654DB6CAAF4419C","title":"快客NO.6524","lon":"121.39984","lat":"31.08976","category":"117","category_name":"便民商店/便利店","address":"梅州路116"},{"poiid":"B2094757D66BA1F5429C","title":"大阿姐海派药膳鸡","lon":"121.398469054","lat":"31.087303793","category":"86","category_name":"火锅店","address":"闵行区都市路3825弄好爱广场7号115室(近金都路)"},{"poiid":"B2094757D465A1F84399","title":"香乡村大龙虾 都市路店","lon":"121.398469054","lat":"31.087303793","category":"68","category_name":"快餐厅","address":"闵行区都市路3825弄好爱广场7号3室(近金都路)"},{"poiid":"B2094654DB6CAAF44492","title":"世纪华联NO.1618(都市路)","lon":"121.39806","lat":"31.08999","category":"117","category_name":"便民商店/便利店","address":""},{"poiid":"B2094757D464A0FB429A","title":"上岛咖啡 都市路店 UBC Coffee","lon":"121.398469054","lat":"31.087303793","category":"65","category_name":"咖啡厅","address":"都市路3825弄好爱广场近银都路"},{"poiid":"B2094757D66BA5FD4399","title":"象山小海小鲜","lon":"121.40024","lat":"31.08971","category":"260","category_name":"其他","address":"闵行区梅州路3825弄(近都市路)"},{"poiid":"B2094655D36CA6FA419C","title":"都市路梅州路","lon":"121.39747","lat":"31.09042","category":"38","category_name":"公交车站","address":""},{"poiid":"B2094757D66BA0FD489C","title":"越岭阁 银都路店","lon":"121.394039","lat":"31.092091","category":"96","category_name":"韩国料理","address":"闵行区银都路3458号(近都市路)"},{"poiid":"B2094654DB64A1FF4793","title":"上海宝燕商务酒店(好爱店)","lon":"121.39663","lat":"31.0881","category":"250","category_name":"公园户外","address":"闵行区都市路好爱广场对面(都市路梅州路)"},{"poiid":"B2094757D66EA7F94592","title":"象山海鲜城","lon":"121.39824","lat":"31.08699","category":"75","category_name":"浙江菜","address":"闵行区都市路3825弄好爱广场内(近金都路)"},{"poiid":"B2094655D265A0F44199","title":"喜士多便利(都市店)","lon":"121.39759","lat":"31.09026","category":"117","category_name":"便民商店/便利店","address":"都市路4198号"},{"poiid":"B2094654DB6CAAF4459E","title":"得一大药房都市店","lon":"121.39781","lat":"31.0905","category":"162","category_name":"医院","address":"闵行区都市路4194号"},{"poiid":"B2094655D268A1FA4993","title":"银都苑(南门)","lon":"121.39833","lat":"31.09392","category":"47","category_name":"住宅区","address":"银都路3118弄7区1-11号"},{"poiid":"B2094757D46AA7FE419B","title":"两岸咖啡 都市路店","lon":"121.3979208","lat":"31.0895308","category":"260","category_name":"其他","address":"闵行区都市路3989号东方证券2楼(近梅州路)"},{"poiid":"B2094654DB6CAAF44093","title":"克丽缇娜(都市路)","lon":"121.39888","lat":"31.08845","category":"148","category_name":"美容美发店","address":"都市路3886"},{"poiid":"B2094655D26EA2F54499","title":"攀宇健身","lon":"121.39348","lat":"31.08691","category":"221","category_name":"健身中心","address":"闵行区梅州路505号(近都市路)"},{"poiid":"B2094757D169A7FB459E","title":"桂菊酒楼 好爱广场店","lon":"121.398469054","lat":"31.087303793","category":"71","category_name":"四川菜","address":"闵行区都市路3825弄好爱广场2号108(近金都路)"},{"poiid":"B2094757D16FA7FF419C","title":"锦媛足浴","lon":"121.39767","lat":"31.09076","category":"149","category_name":"洗浴推拿场所","address":"闵行区都市路4218号(近银都路)"},{"poiid":"B209475DD168A4F9429E","title":"上海环球金融中心","lon":"121.402969","lat":"31.089944","category":"500","category_name":"未知分类","address":"上海市 上海市浦东新区世纪大道100号"},{"poiid":"B2094757D76BA1F8419F","title":"香吧岛 都市路店","lon":"121.3988984","lat":"31.0876812","category":"269","category_name":"烧烤","address":"都市路3825弄好爱广场147号近金都路"},{"poiid":"B2094757D068A5F8459E","title":"星河湾","lon":"121.408479","lat":"31.088122","category":"47","category_name":"住宅区","address":"上海闵行区都会路3799号(近金都路)"},{"poiid":"B2094757D06FABFA439C","title":"宝燕海鲜(莘庄店)","lon":"121.39846","lat":"31.08808","category":"75","category_name":"浙江菜","address":"闵行区都市路3825弄好爱广场1楼(近金都路)"},{"poiid":"B2094757D06FA7FA419B","title":"银都新村","lon":"121.39397","lat":"31.093572","category":"47","category_name":"住宅区","address":"上海闵行区银都路3118弄"},{"poiid":"B2094757D06FA1F44793","title":"银都路地铁站","lon":"121.3920841","lat":"31.086243183","category":"36","category_name":"地铁站","address":"上海轨道交通 五号线 轨交银都路站 5"},{"poiid":"B2094757D069A3F9479B","title":"南美水疗(莘庄店)","lon":"121.3986","lat":"31.08809","category":"149","category_name":"洗浴推拿场所","address":"闵行区都市路"},{"poiid":"B2094655D36CA6FA4198","title":"都市路银都路","lon":"121.39567","lat":"31.09373","category":"38","category_name":"公交车站","address":"上海ShanghaiMinhangDushi,Rd"},{"poiid":"B2094757D068A0FD4499","title":"君临天下花园","lon":"121.39516","lat":"31.090305","category":"47","category_name":"住宅区","address":"君临天下花园位于闵行银都路3399号"},{"poiid":"B2094757D06AA6FB4192","title":"虾满堂(都市路店)","lon":"121.39806366","lat":"31.0883331299","category":"500","category_name":"未知分类","address":"上海都市路3825弄7号"},{"poiid":"B2094654DB6CABFE4499","title":"好世凤凰城","lon":"121.39156","lat":"31.092218","category":"47","category_name":"住宅区","address":"银都路3536弄"},{"poiid":"B2094757D06AAAF8409E","title":"金都花好悦园","lon":"121.39911","lat":"31.091726","category":"500","category_name":"未知分类","address":"上海银都路3151弄"},{"poiid":"B2094757D068A5FF439B","title":"贵峰苑小区","lon":"121.39724333","lat":"31.081609039","category":"47","category_name":"住宅区","address":"上海闵行区金都路3019弄"},{"poiid":"B2094757D06AA2FD4993","title":"S4金都路上匝道 (沪闵高架路方向)","lon":"121.40286185","lat":"31.085065063","category":"500","category_name":"未知分类","address":"上海闵行区金都路"},{"poiid":"B2094654DB6CAAFA439C","title":"海燕精菜馆","lon":"121.398469054","lat":"31.087303793","category":"72","category_name":"广东菜","address":"闵行区都市路3825弄好爱广场1楼(近金都路)"},{"poiid":"B2094654DB6CAAFA429E","title":"黑三娘","lon":"121.39765","lat":"31.0886","category":"71","category_name":"四川菜","address":"闵行区都市路3825弄好爱广场149-151号(近金都路)"},{"poiid":"B2094757D06AA6F94498","title":"鸣宏象山渔港","lon":"121.39741","lat":"31.09162","category":"75","category_name":"浙江菜","address":"闵行区都市路4252号"},{"poiid":"B2094655D268A5FC479A","title":"8号景观餐厅","lon":"121.39816","lat":"31.08872","category":"72","category_name":"广东菜","address":"闵行区都市路3825弄好爱广场内(近金都路)"},{"poiid":"B2094654DB6CA4F84692","title":"樱园","lon":"121.40267","lat":"31.083956","category":"47","category_name":"住宅区","address":"上海市闵行区都市路2566弄"},{"poiid":"B2094655D26EA5FC479B","title":"黑三娘 好爱店","lon":"121.398469054","lat":"31.087303793","category":"71","category_name":"四川菜","address":"闵行区都市路3825弄好爱广场149-151号(近金都路)"},{"poiid":"B2094757D66AA4F5419E","title":"虾满堂手抓龙虾 都市路店","lon":"121.398613","lat":"31.087572","category":"68","category_name":"快餐厅","address":"闵行区都市路3825弄好爱广场内(近金都路)"},{"poiid":"B2094654DB6CAAFA499B","title":"上海市田园高级中学","lon":"121.40107","lat":"31.09106","category":"55","category_name":"中学","address":"闵行区颛桥镇田园路455号(近都市路)"},{"poiid":"B2094757D168A6FE4899","title":"一番日本料理","lon":"121.393818054","lat":"31.091940793","category":"95","category_name":"日本料理","address":"闵行区银都路3460号(近都市路)"},{"poiid":"B2094757D16CA6FE4598","title":"好宴世家(银都店)","lon":"121.39779","lat":"31.09265","category":"76","category_name":"上海菜","address":"闵行区银都路3177号(近都市路)"},{"poiid":"B2094750D76CA6FA4699","title":"东北风情人家","lon":"121.398","lat":"31.0885","category":"82","category_name":"东北菜","address":"闵行区都市路3825弄好爱广场1号101座(近金都路)"},{"poiid":"B2094757D164A2F54999","title":"小沪人家(顓桥店)","lon":"121.39848","lat":"31.08829","category":"76","category_name":"上海菜","address":"闵行区都市路3825弄好爱广场10号148-150(近金都路)"},{"poiid":"B2094654DB6CAAF4439F","title":"柠檬树饮品屋","lon":"121.39827","lat":"31.0896","category":"94","category_name":"西餐厅","address":"闵行区都市路4160号(近银都路)"},{"poiid":"B2094757D069ABFE429F","title":"上海市射击射箭运动中心","lon":"121.396578","lat":"31.086979","category":"500","category_name":"未知分类","address":"上海市闵行区金都路3028号"},{"poiid":"B2094655D26BAAFF459B","title":"都市路烧烤摊","lon":"121.39778","lat":"31.09057","category":"68","category_name":"快餐厅","address":"闵行区都市路4202号罗森超市门口(近银都路站A4出口)"},{"poiid":"B2094654DB6CAAFB499D","title":"剑桥景苑","lon":"121.40108","lat":"31.087791","category":"47","category_name":"住宅区","address":"上海市闵行区都市路3800号"},{"poiid":"B2094757D66BA2F5419B","title":"铜官山","lon":"121.39815","lat":"31.08853","category":"87","category_name":"特色／地方风味餐厅","address":"闵行区都市路3825弄好爱广场7号(近金都路)"},{"poiid":"B2094757D169A0FB479F","title":"小嘴巴海鲜坊","lon":"121.39794685","lat":"31.087076103","category":"76","category_name":"上海菜","address":"闵行区都市路3825弄好爱广场1号105(近金都路)"},{"poiid":"B2094654DB6CAAF4419C","title":"快客NO.6524","lon":"121.39984","lat":"31.08976","category":"117","category_name":"便民商店/便利店","address":"梅州路116"},{"poiid":"B2094757D66BA1F5429C","title":"大阿姐海派药膳鸡","lon":"121.398469054","lat":"31.087303793","category":"86","category_name":"火锅店","address":"闵行区都市路3825弄好爱广场7号115室(近金都路)"},{"poiid":"B2094757D465A1F84399","title":"香乡村大龙虾 都市路店","lon":"121.398469054","lat":"31.087303793","category":"68","category_name":"快餐厅","address":"闵行区都市路3825弄好爱广场7号3室(近金都路)"},{"poiid":"B2094654DB6CAAF44492","title":"世纪华联NO.1618(都市路)","lon":"121.39806","lat":"31.08999","category":"117","category_name":"便民商店/便利店","address":""},{"poiid":"B2094757D464A0FB429A","title":"上岛咖啡 都市路店 UBC Coffee","lon":"121.398469054","lat":"31.087303793","category":"65","category_name":"咖啡厅","address":"都市路3825弄好爱广场近银都路"},{"poiid":"B2094757D66BA5FD4399","title":"象山小海小鲜","lon":"121.40024","lat":"31.08971","category":"260","category_name":"其他","address":"闵行区梅州路3825弄(近都市路)"},{"poiid":"B2094655D36CA6FA419C","title":"都市路梅州路","lon":"121.39747","lat":"31.09042","category":"38","category_name":"公交车站","address":""},{"poiid":"B2094757D66BA0FD489C","title":"越岭阁 银都路店","lon":"121.394039","lat":"31.092091","category":"96","category_name":"韩国料理","address":"闵行区银都路3458号(近都市路)"},{"poiid":"B2094654DB64A1FF4793","title":"上海宝燕商务酒店(好爱店)","lon":"121.39663","lat":"31.0881","category":"250","category_name":"公园户外","address":"闵行区都市路好爱广场对面(都市路梅州路)"},{"poiid":"B2094757D66EA7F94592","title":"象山海鲜城","lon":"121.39824","lat":"31.08699","category":"75","category_name":"浙江菜","address":"闵行区都市路3825弄好爱广场内(近金都路)"},{"poiid":"B2094655D265A0F44199","title":"喜士多便利(都市店)","lon":"121.39759","lat":"31.09026","category":"117","category_name":"便民商店/便利店","address":"都市路4198号"},{"poiid":"B2094654DB6CAAF4459E","title":"得一大药房都市店","lon":"121.39781","lat":"31.0905","category":"162","category_name":"医院","address":"闵行区都市路4194号"},{"poiid":"B2094655D268A1FA4993","title":"银都苑(南门)","lon":"121.39833","lat":"31.09392","category":"47","category_name":"住宅区","address":"银都路3118弄7区1-11号"},{"poiid":"B2094757D46AA7FE419B","title":"两岸咖啡 都市路店","lon":"121.3979208","lat":"31.0895308","category":"260","category_name":"其他","address":"闵行区都市路3989号东方证券2楼(近梅州路)"},{"poiid":"B2094654DB6CAAF44093","title":"克丽缇娜(都市路)","lon":"121.39888","lat":"31.08845","category":"148","category_name":"美容美发店","address":"都市路3886"},{"poiid":"B2094655D26EA2F54499","title":"攀宇健身","lon":"121.39348","lat":"31.08691","category":"221","category_name":"健身中心","address":"闵行区梅州路505号(近都市路)"},{"poiid":"B2094757D169A7FB459E","title":"桂菊酒楼 好爱广场店","lon":"121.398469054","lat":"31.087303793","category":"71","category_name":"四川菜","address":"闵行区都市路3825弄好爱广场2号108(近金都路)"},{"poiid":"B2094757D16FA7FF419C","title":"锦媛足浴","lon":"121.39767","lat":"31.09076","category":"149","category_name":"洗浴推拿场所","address":"闵行区都市路4218号(近银都路)"},{"poiid":"B209475DD168A4F9429E","title":"上海环球金融中心","lon":"121.402969","lat":"31.089944","category":"500","category_name":"未知分类","address":"上海市 上海市浦东新区世纪大道100号"},{"poiid":"B2094757D76BA1F8419F","title":"香吧岛 都市路店","lon":"121.3988984","lat":"31.0876812","category":"269","category_name":"烧烤","address":"都市路3825弄好爱广场147号近金都路"},{"poiid":"B2094757D068A5F8459E","title":"星河湾","lon":"121.408479","lat":"31.088122","category":"47","category_name":"住宅区","address":"上海闵行区都会路3799号(近金都路)"},{"poiid":"B2094757D06FABFA439C","title":"宝燕海鲜(莘庄店)","lon":"121.39846","lat":"31.08808","category":"75","category_name":"浙江菜","address":"闵行区都市路3825弄好爱广场1楼(近金都路)"},{"poiid":"B2094757D06FA7FA419B","title":"银都新村","lon":"121.39397","lat":"31.093572","category":"47","category_name":"住宅区","address":"上海闵行区银都路3118弄"},{"poiid":"B2094757D06FA1F44793","title":"银都路地铁站","lon":"121.3920841","lat":"31.086243183","category":"36","category_name":"地铁站","address":"上海轨道交通 五号线 轨交银都路站 5"},{"poiid":"B2094757D069A3F9479B","title":"南美水疗(莘庄店)","lon":"121.3986","lat":"31.08809","category":"149","category_name":"洗浴推拿场所","address":"闵行区都市路"},{"poiid":"B2094655D36CA6FA4198","title":"都市路银都路","lon":"121.39567","lat":"31.09373","category":"38","category_name":"公交车站","address":"上海ShanghaiMinhangDushi,Rd"},{"poiid":"B2094757D068A0FD4499","title":"君临天下花园","lon":"121.39516","lat":"31.090305","category":"47","category_name":"住宅区","address":"君临天下花园位于闵行银都路3399号"},{"poiid":"B2094757D06AA6FB4192","title":"虾满堂(都市路店)","lon":"121.39806366","lat":"31.0883331299","category":"500","category_name":"未知分类","address":"上海都市路3825弄7号"},{"poiid":"B2094654DB6CABFE4499","title":"好世凤凰城","lon":"121.39156","lat":"31.092218","category":"47","category_name":"住宅区","address":"银都路3536弄"},{"poiid":"B2094757D06AAAF8409E","title":"金都花好悦园","lon":"121.39911","lat":"31.091726","category":"500","category_name":"未知分类","address":"上海银都路3151弄"},{"poiid":"B2094757D068A5FF439B","title":"贵峰苑小区","lon":"121.39724333","lat":"31.081609039","category":"47","category_name":"住宅区","address":"上海闵行区金都路3019弄"},{"poiid":"B2094757D06AA2FD4993","title":"S4金都路上匝道 (沪闵高架路方向)","lon":"121.40286185","lat":"31.085065063","category":"500","category_name":"未知分类","address":"上海闵行区金都路"},{"poiid":"B2094654DB6CAAFA439C","title":"海燕精菜馆","lon":"121.398469054","lat":"31.087303793","category":"72","category_name":"广东菜","address":"闵行区都市路3825弄好爱广场1楼(近金都路)"},{"poiid":"B2094654DB6CAAFA429E","title":"黑三娘","lon":"121.39765","lat":"31.0886","category":"71","category_name":"四川菜","address":"闵行区都市路3825弄好爱广场149-151号(近金都路)"},{"poiid":"B2094757D06AA6F94498","title":"鸣宏象山渔港","lon":"121.39741","lat":"31.09162","category":"75","category_name":"浙江菜","address":"闵行区都市路4252号"},{"poiid":"B2094655D268A5FC479A","title":"8号景观餐厅","lon":"121.39816","lat":"31.08872","category":"72","category_name":"广东菜","address":"闵行区都市路3825弄好爱广场内(近金都路)"},{"poiid":"B2094654DB6CA4F84692","title":"樱园","lon":"121.40267","lat":"31.083956","category":"47","category_name":"住宅区","address":"上海市闵行区都市路2566弄"},{"poiid":"B2094655D26EA5FC479B","title":"黑三娘 好爱店","lon":"121.398469054","lat":"31.087303793","category":"71","category_name":"四川菜","address":"闵行区都市路3825弄好爱广场149-151号(近金都路)"},{"poiid":"B2094757D66AA4F5419E","title":"虾满堂手抓龙虾 都市路店","lon":"121.398613","lat":"31.087572","category":"68","category_name":"快餐厅","address":"闵行区都市路3825弄好爱广场内(近金都路)"},{"poiid":"B2094654DB6CAAFA499B","title":"上海市田园高级中学","lon":"121.40107","lat":"31.09106","category":"55","category_name":"中学","address":"闵行区颛桥镇田园路455号(近都市路)"},{"poiid":"B2094757D168A6FE4899","title":"一番日本料理","lon":"121.393818054","lat":"31.091940793","category":"95","category_name":"日本料理","address":"闵行区银都路3460号(近都市路)"},{"poiid":"B2094757D16CA6FE4598","title":"好宴世家(银都店)","lon":"121.39779","lat":"31.09265","category":"76","category_name":"上海菜","address":"闵行区银都路3177号(近都市路)"},{"poiid":"B2094750D76CA6FA4699","title":"东北风情人家","lon":"121.398","lat":"31.0885","category":"82","category_name":"东北菜","address":"闵行区都市路3825弄好爱广场1号101座(近金都路)"},{"poiid":"B2094757D164A2F54999","title":"小沪人家(顓桥店)","lon":"121.39848","lat":"31.08829","category":"76","category_name":"上海菜","address":"闵行区都市路3825弄好爱广场10号148-150(近金都路)"},{"poiid":"B2094654DB6CAAF4439F","title":"柠檬树饮品屋","lon":"121.39827","lat":"31.0896","category":"94","category_name":"西餐厅","address":"闵行区都市路4160号(近银都路)"},{"poiid":"B2094757D069ABFE429F","title":"上海市射击射箭运动中心","lon":"121.396578","lat":"31.086979","category":"500","category_name":"未知分类","address":"上海市闵行区金都路3028号"},{"poiid":"B2094655D26BAAFF459B","title":"都市路烧烤摊","lon":"121.39778","lat":"31.09057","category":"68","category_name":"快餐厅","address":"闵行区都市路4202号罗森超市门口(近银都路站A4出口)"},{"poiid":"B2094654DB6CAAFB499D","title":"剑桥景苑","lon":"121.40108","lat":"31.087791","category":"47","category_name":"住宅区","address":"上海市闵行区都市路3800号"},{"poiid":"B2094757D66BA2F5419B","title":"铜官山","lon":"121.39815","lat":"31.08853","category":"87","category_name":"特色／地方风味餐厅","address":"闵行区都市路3825弄好爱广场7号(近金都路)"},{"poiid":"B2094757D169A0FB479F","title":"小嘴巴海鲜坊","lon":"121.39794685","lat":"31.087076103","category":"76","category_name":"上海菜","address":"闵行区都市路3825弄好爱广场1号105(近金都路)"},{"poiid":"B2094654DB6CAAF4419C","title":"快客NO.6524","lon":"121.39984","lat":"31.08976","category":"117","category_name":"便民商店/便利店","address":"梅州路116"},{"poiid":"B2094757D66BA1F5429C","title":"大阿姐海派药膳鸡","lon":"121.398469054","lat":"31.087303793","category":"86","category_name":"火锅店","address":"闵行区都市路3825弄好爱广场7号115室(近金都路)"},{"poiid":"B2094757D465A1F84399","title":"香乡村大龙虾 都市路店","lon":"121.398469054","lat":"31.087303793","category":"68","category_name":"快餐厅","address":"闵行区都市路3825弄好爱广场7号3室(近金都路)"},{"poiid":"B2094654DB6CAAF44492","title":"世纪华联NO.1618(都市路)","lon":"121.39806","lat":"31.08999","category":"117","category_name":"便民商店/便利店","address":""},{"poiid":"B2094757D464A0FB429A","title":"上岛咖啡 都市路店 UBC Coffee","lon":"121.398469054","lat":"31.087303793","category":"65","category_name":"咖啡厅","address":"都市路3825弄好爱广场近银都路"},{"poiid":"B2094757D66BA5FD4399","title":"象山小海小鲜","lon":"121.40024","lat":"31.08971","category":"260","category_name":"其他","address":"闵行区梅州路3825弄(近都市路)"},{"poiid":"B2094655D36CA6FA419C","title":"都市路梅州路","lon":"121.39747","lat":"31.09042","category":"38","category_name":"公交车站","address":""},{"poiid":"B2094757D66BA0FD489C","title":"越岭阁 银都路店","lon":"121.394039","lat":"31.092091","category":"96","category_name":"韩国料理","address":"闵行区银都路3458号(近都市路)"},{"poiid":"B2094654DB64A1FF4793","title":"上海宝燕商务酒店(好爱店)","lon":"121.39663","lat":"31.0881","category":"250","category_name":"公园户外","address":"闵行区都市路好爱广场对面(都市路梅州路)"},{"poiid":"B2094757D66EA7F94592","title":"象山海鲜城","lon":"121.39824","lat":"31.08699","category":"75","category_name":"浙江菜","address":"闵行区都市路3825弄好爱广场内(近金都路)"},{"poiid":"B2094655D265A0F44199","title":"喜士多便利(都市店)","lon":"121.39759","lat":"31.09026","category":"117","category_name":"便民商店/便利店","address":"都市路4198号"},{"poiid":"B2094654DB6CAAF4459E","title":"得一大药房都市店","lon":"121.39781","lat":"31.0905","category":"162","category_name":"医院","address":"闵行区都市路4194号"},{"poiid":"B2094655D268A1FA4993","title":"银都苑(南门)","lon":"121.39833","lat":"31.09392","category":"47","category_name":"住宅区","address":"银都路3118弄7区1-11号"},{"poiid":"B2094757D46AA7FE419B","title":"两岸咖啡 都市路店","lon":"121.3979208","lat":"31.0895308","category":"260","category_name":"其他","address":"闵行区都市路3989号东方证券2楼(近梅州路)"},{"poiid":"B2094654DB6CAAF44093","title":"克丽缇娜(都市路)","lon":"121.39888","lat":"31.08845","category":"148","category_name":"美容美发店","address":"都市路3886"},{"poiid":"B2094655D26EA2F54499","title":"攀宇健身","lon":"121.39348","lat":"31.08691","category":"221","category_name":"健身中心","address":"闵行区梅州路505号(近都市路)"},{"poiid":"B2094757D169A7FB459E","title":"桂菊酒楼 好爱广场店","lon":"121.398469054","lat":"31.087303793","category":"71","category_name":"四川菜","address":"闵行区都市路3825弄好爱广场2号108(近金都路)"},{"poiid":"B2094757D16FA7FF419C","title":"锦媛足浴","lon":"121.39767","lat":"31.09076","category":"149","category_name":"洗浴推拿场所","address":"闵行区都市路4218号(近银都路)"},{"poiid":"B209475DD168A4F9429E","title":"上海环球金融中心","lon":"121.402969","lat":"31.089944","category":"500","category_name":"未知分类","address":"上海市 上海市浦东新区世纪大道100号"},{"poiid":"B2094757D76BA1F8419F","title":"香吧岛 都市路店","lon":"121.3988984","lat":"31.0876812","category":"269","category_name":"烧烤","address":"都市路3825弄好爱广场147号近金都路"}]