[{"poiid":"B2094655D26AABFD499F","title":"好乐迪量贩式KTV（淮海中路店）","lon":"121.47092","lat":"31.22199","category":"170","category_name":"KTV","address":"卢湾区淮海中路438号4楼近重庆南路;;"},{"poiid":"B2094757D465A4FB409B","title":"顶特勒粥面馆","lon":"121.469218054","lat":"31.221221793","category":"68","category_name":"快餐厅","address":"卢湾区淮海中路494弄22号(近雁荡路)"},{"poiid":"B2094654DA6DABFA499E","title":"味香斋","lon":"121.46993580196","lat":"31.221233069029","category":"68","category_name":"快餐厅","address":"卢湾区雁荡路14号(近淮海中路)"},{"poiid":"B2094753D76FAAFA449C","title":"上海滩国泰旗舰店","lon":"121.466011","lat":"31.216125","category":"249","category_name":"购物服务","address":"淮海中路868号"},{"poiid":"B209475CD564A7F84292","title":"上海滩新天地店","lon":"121.47463","lat":"31.22164","category":"119","category_name":"商场","address":"\"太仓路181弄新天地北里15号\r\n\""},{"poiid":"B209475CD564A7F8439E","title":"上海滩中信泰富店","lon":"121.45602","lat":"31.22851","category":"119","category_name":"商场","address":"\"南京西路1168号中信泰富广场，店铺号221.\r\n\""},{"poiid":"B2094757D06FA2F54392","title":"淮海中路雁荡路","lon":"121.469795542","lat":"31.2212911035","category":"260","category_name":"其他","address":"上海淮海中路雁荡路"},{"poiid":"B2094757D06FA3FC489D","title":"屋企汤馆 淮海店","lon":"121.4708246443","lat":"31.221864028321","category":"72","category_name":"广东菜","address":"卢湾区淮海中路438号2楼(近重庆南路)"},{"poiid":"B2094757D064A5FD489B","title":"典谟新知咖啡馆","lon":"121.470884738","lat":"31.2210811051","category":"260","category_name":"其他","address":"卢湾区兴安路139号(近淮海路雁荡路)"},{"poiid":"B2094753D76CA2F4449C","title":"查厘士","lon":"121.471084","lat":"31.221948","category":"247","category_name":"餐饮美食","address":"上海市 淮海路438号"},{"poiid":"B2094757D064A5FA479F","title":"悦满糖","lon":"121.469785238","lat":"31.2202659878","category":"500","category_name":"未知分类","address":"上海卢湾区雁荡路25号"},{"poiid":"B2094757D06FA5FC429C","title":"韩蒸天下养生馆","lon":"121.46975773","lat":"31.220693096","category":"149","category_name":"洗浴推拿场所","address":"卢湾区雁荡路29号5楼(近淮海中路)"},{"poiid":"B2094757D06FA0FC4198","title":"一品粤珍(淮海中路店)","lon":"121.46927","lat":"31.22027","category":"72","category_name":"广东菜","address":"卢湾区淮海中路527号锦江国际购物中心7楼(近雁荡路)"},{"poiid":"B2094757D06FA2FE4792","title":"鲜得来排骨年糕(雁荡店)","lon":"121.47033","lat":"31.22059","category":"68","category_name":"快餐厅","address":"卢湾区雁荡路9号(近兴安路)"},{"poiid":"B2094757D06FA3F84099","title":"新贝乐比萨屋 雁荡路店","lon":"121.470030054","lat":"31.220020793","category":"94","category_name":"西餐厅","address":"卢湾区雁荡路33号(近南昌路)"},{"poiid":"B2094757D06BA7FB489F","title":"新贝乐意式餐厅(雁荡路店)","lon":"121.46901273","lat":"31.2208641","category":"500","category_name":"未知分类","address":"上海市卢湾区雁荡路33号"},{"poiid":"B2094757D168A5FB469D","title":"Initial新天地","lon":"121.47131183","lat":"31.221172036","category":"500","category_name":"未知分类","address":"上海新天地UME 1楼"},{"poiid":"B2094654DB69A5FD409B","title":"好乐迪(淮海中路店)","lon":"121.47101","lat":"31.222","category":"170","category_name":"KTV","address":"卢湾区淮海中路438号4-5楼(近重庆南路)"},{"poiid":"B2094757D06FA2FC489D","title":"禾绿回转寿司(淮海店)","lon":"121.471866738","lat":"31.2220071249","category":"95","category_name":"日本料理","address":"卢湾区淮海中路352号(近马当路)"},{"poiid":"B2094757D06FA4FD4299","title":"天香火锅楼(淮海店)","lon":"121.46836","lat":"31.22093","category":"86","category_name":"火锅店","address":"卢湾区淮海中路542弄103室(近成都南路)"},{"poiid":"B2094757D068A2F5449F","title":"世纪巴士大厦","lon":"121.47163462","lat":"31.222440357","category":"46","category_name":"楼宇","address":"上海淮海中路398号"},{"poiid":"B2094751DA6DA0FA479B","title":"猫屎咖啡(新天地店)","lon":"121.4691613","lat":"31.2232952","category":"247","category_name":"餐饮美食","address":"太仓路200号"},{"poiid":"B2094757D06FAAFD479C","title":"兴和港式茶餐厅","lon":"121.47004699","lat":"31.220336914","category":"72","category_name":"广东菜","address":"卢湾区雁荡路37号(近复兴公园)"},{"poiid":"B2094750D768A7FE4099","title":"Season三层堂和牛料理","lon":"121.469","lat":"31.221","category":"95","category_name":"日本料理","address":"卢湾区淮海中路542弄2号(近成都南路)"},{"poiid":"B2094750D26DA7F84799","title":"清风人家","lon":"121.47091","lat":"31.22203","category":"260","category_name":"其他","address":"卢湾区淮海中路438号B1楼(近重庆南路)"},{"poiid":"B2094654DB65A3F54692","title":"上海锦江国际购物中心商务写字楼","lon":"121.469","lat":"31.22054","category":"46","category_name":"楼宇","address":"淮海中路527号"},{"poiid":"B2094757DB6CA5F84593","title":"Element Fresh","lon":"121.470734","lat":"31.223412","category":"247","category_name":"餐饮美食","address":"Xin tian Di"},{"poiid":"B2094757D06FA6FC449B","title":"京世造型(雁荡店)","lon":"121.469967","lat":"31.221091","category":"148","category_name":"美容美发店","address":"上海卢湾区雁荡路5号2楼(淮海中路口)"},{"poiid":"B2094757D66FA1F5449C","title":"好乐的(淮海店)","lon":"121.47069161","lat":"31.221906582","category":"249","category_name":"购物服务","address":"上海淮海中路1543号"},{"poiid":"B2094757D06BA5F44892","title":"鲜得来","lon":"121.46988673","lat":"31.220740097","category":"247","category_name":"餐饮美食","address":"上海市卢湾区雁荡路13号"},{"poiid":"B2094750DB6AA5F84798","title":"一町奶茶(淮海路店)","lon":"121.470686","lat":"31.221858","category":"113","category_name":"冷饮店","address":"卢湾区老重庆中路54号(近长乐路)"},{"poiid":"B2094757D068A3FD459F","title":"沧浪亭(重庆路店)","lon":"121.47132","lat":"31.2213","category":"87","category_name":"特色／地方风味餐厅","address":"卢湾区老重庆中路好乐迪对面(淮海中路口)"},{"poiid":"B2094757D069A4FF4699","title":"lv旗舰店","lon":"121.47127873","lat":"31.220801099","category":"500","category_name":"未知分类","address":"上海淮海路嵩山路"},{"poiid":"B2094757D464ABF4459A","title":"金城酒家","lon":"121.47037211893","lat":"31.220679186676","category":"76","category_name":"上海菜","address":"卢湾区兴安路149号(近雁荡路)"},{"poiid":"B2094654DA6DABFB489D","title":"上海锦江国际购物中心","lon":"121.469","lat":"31.22054","category":"119","category_name":"商场","address":"朝阳区北三环东路与京顺路交接处路口北侧"},{"poiid":"B209475CD76EA0F54692","title":"环贸iapm","lon":"121.469993","lat":"31.223688","category":"500","category_name":"未知分类","address":"上海市 卢湾区淮海中路999号"},{"poiid":"B2094757D664A4FF4492","title":"丝袜奶茶 南京西路店 Denny House","lon":"121.46797","lat":"31.22142","category":"67","category_name":"甜品店","address":"静安区南京西路1025弄静安别墅128号(近南汇路)"},{"poiid":"B2094757D068A5FA4192","title":"北万新(淮海店)","lon":"121.47041414","lat":"31.221747502","category":"68","category_name":"快餐厅","address":"卢湾区淮海中路462号(近重庆南路)"},{"poiid":"B2094654DA6DABFB479A","title":"兴安餐厅","lon":"121.470078054","lat":"31.220802793","category":"68","category_name":"快餐厅","address":"卢湾区兴安路145号(近雁荡路)"},{"poiid":"B2094757D068A6F5479A","title":"Nolita","lon":"121.46507","lat":"31.22554","category":"94","category_name":"西餐厅","address":"静安区大沽路422号"},{"poiid":"B2094655D36CA6F54598","title":"淡水路","lon":"121.47198","lat":"31.22328","category":"38","category_name":"公交车站","address":""},{"poiid":"B2094757D06FA7F54399","title":"香黛广场","lon":"121.47153","lat":"31.2218","category":"249","category_name":"购物服务","address":"卢湾区淮海中路417号(近重庆南路)"},{"poiid":"B2094757D06FA7F4469A","title":"85度C(成都店)","lon":"121.46835","lat":"31.22084","category":"112","category_name":"糕饼店","address":"卢湾区成都南路127号(近淮海中路)"},{"poiid":"B209475CD26BA5F5499D","title":"查理士","lon":"121.471008","lat":"31.221706","category":"247","category_name":"餐饮美食","address":"上海市 淮海中路447号"},{"poiid":"B2094757D068A4F9429C","title":"徐其修凉茶","lon":"121.47148973","lat":"31.222897143","category":"113","category_name":"冷饮店","address":"卢湾区兴安路98弄10号(近雁荡路)"},{"poiid":"B2094757D06AAAFE4499","title":"佳鸣海鲜火锅楼","lon":"121.470263","lat":"31.220876","category":"86","category_name":"火锅店","address":"卢湾区兴安路167号(近雁荡路)"},{"poiid":"B2094757D06FA4FA469A","title":"大花桌游(淮海中路店)","lon":"121.46994","lat":"31.22109","category":"175","category_name":"棋牌室","address":"上海卢湾区淮海中路461号9楼68室"},{"poiid":"B2094655D36CA0F5409C","title":"淮海中路重庆南路","lon":"121.46961","lat":"31.22117","category":"38","category_name":"公交车站","address":""},{"poiid":"B2094654DA6EA1FF419F","title":"永新大厦","lon":"121.468","lat":"31.2233","category":"46","category_name":"楼宇","address":"卢湾区淮海中路527号"},{"poiid":"B2094757D064A7FB449B","title":"新藤亭日本料理","lon":"121.46989649709","lat":"31.219543331825","category":"95","category_name":"日本料理","address":"卢湾区雁荡路29号502室(近南昌路)"},{"poiid":"B2094655D26AABFD499F","title":"好乐迪量贩式KTV（淮海中路店）","lon":"121.47092","lat":"31.22199","category":"170","category_name":"KTV","address":"卢湾区淮海中路438号4楼近重庆南路;;"},{"poiid":"B2094757D465A4FB409B","title":"顶特勒粥面馆","lon":"121.469218054","lat":"31.221221793","category":"68","category_name":"快餐厅","address":"卢湾区淮海中路494弄22号(近雁荡路)"},{"poiid":"B2094654DA6DABFA499E","title":"味香斋","lon":"121.46993580196","lat":"31.221233069029","category":"68","category_name":"快餐厅","address":"卢湾区雁荡路14号(近淮海中路)"},{"poiid":"B2094753D76FAAFA449C","title":"上海滩国泰旗舰店","lon":"121.466011","lat":"31.216125","category":"249","category_name":"购物服务","address":"淮海中路868号"},{"poiid":"B209475CD564A7F84292","title":"上海滩新天地店","lon":"121.47463","lat":"31.22164","category":"119","category_name":"商场","address":"\"太仓路181弄新天地北里15号\r\n\""},{"poiid":"B209475CD564A7F8439E","title":"上海滩中信泰富店","lon":"121.45602","lat":"31.22851","category":"119","category_name":"商场","address":"\"南京西路1168号中信泰富广场，店铺号221.\r\n\""},{"poiid":"B2094757D06FA2F54392","title":"淮海中路雁荡路","lon":"121.469795542","lat":"31.2212911035","category":"260","category_name":"其他","address":"上海淮海中路雁荡路"},{"poiid":"B2094757D06FA3FC489D","title":"屋企汤馆 淮海店","lon":"121.4708246443","lat":"31.221864028321","category":"72","category_name":"广东菜","address":"卢湾区淮海中路438号2楼(近重庆南路)"},{"poiid":"B2094757D064A5FD489B","title":"典谟新知咖啡馆","lon":"121.470884738","lat":"31.2210811051","category":"260","category_name":"其他","address":"卢湾区兴安路139号(近淮海路雁荡路)"},{"poiid":"B2094753D76CA2F4449C","title":"查厘士","lon":"121.471084","lat":"31.221948","category":"247","category_name":"餐饮美食","address":"上海市 淮海路438号"},{"poiid":"B2094757D064A5FA479F","title":"悦满糖","lon":"121.469785238","lat":"31.2202659878","category":"500","category_name":"未知分类","address":"上海卢湾区雁荡路25号"},{"poiid":"B2094757D06FA5FC429C","title":"韩蒸天下养生馆","lon":"121.46975773","lat":"31.220693096","category":"149","category_name":"洗浴推拿场所","address":"卢湾区雁荡路29号5楼(近淮海中路)"},{"poiid":"B2094757D06FA0FC4198","title":"一品粤珍(淮海中路店)","lon":"121.46927","lat":"31.22027","category":"72","category_name":"广东菜","address":"卢湾区淮海中路527号锦江国际购物中心7楼(近雁荡路)"},{"poiid":"B2094757D06FA2FE4792","title":"鲜得来排骨年糕(雁荡店)","lon":"121.47033","lat":"31.22059","category":"68","category_name":"快餐厅","address":"卢湾区雁荡路9号(近兴安路)"},{"poiid":"B2094757D06FA3F84099","title":"新贝乐比萨屋 雁荡路店","lon":"121.470030054","lat":"31.220020793","category":"94","category_name":"西餐厅","address":"卢湾区雁荡路33号(近南昌路)"},{"poiid":"B2094757D06BA7FB489F","title":"新贝乐意式餐厅(雁荡路店)","lon":"121.46901273","lat":"31.2208641","category":"500","category_name":"未知分类","address":"上海市卢湾区雁荡路33号"},{"poiid":"B2094757D168A5FB469D","title":"Initial新天地","lon":"121.47131183","lat":"31.221172036","category":"500","category_name":"未知分类","address":"上海新天地UME 1楼"},{"poiid":"B2094654DB69A5FD409B","title":"好乐迪(淮海中路店)","lon":"121.47101","lat":"31.222","category":"170","category_name":"KTV","address":"卢湾区淮海中路438号4-5楼(近重庆南路)"},{"poiid":"B2094757D06FA2FC489D","title":"禾绿回转寿司(淮海店)","lon":"121.471866738","lat":"31.2220071249","category":"95","category_name":"日本料理","address":"卢湾区淮海中路352号(近马当路)"},{"poiid":"B2094757D06FA4FD4299","title":"天香火锅楼(淮海店)","lon":"121.46836","lat":"31.22093","category":"86","category_name":"火锅店","address":"卢湾区淮海中路542弄103室(近成都南路)"},{"poiid":"B2094757D068A2F5449F","title":"世纪巴士大厦","lon":"121.47163462","lat":"31.222440357","category":"46","category_name":"楼宇","address":"上海淮海中路398号"},{"poiid":"B2094751DA6DA0FA479B","title":"猫屎咖啡(新天地店)","lon":"121.4691613","lat":"31.2232952","category":"247","category_name":"餐饮美食","address":"太仓路200号"},{"poiid":"B2094757D06FAAFD479C","title":"兴和港式茶餐厅","lon":"121.47004699","lat":"31.220336914","category":"72","category_name":"广东菜","address":"卢湾区雁荡路37号(近复兴公园)"},{"poiid":"B2094750D768A7FE4099","title":"Season三层堂和牛料理","lon":"121.469","lat":"31.221","category":"95","category_name":"日本料理","address":"卢湾区淮海中路542弄2号(近成都南路)"},{"poiid":"B2094750D26DA7F84799","title":"清风人家","lon":"121.47091","lat":"31.22203","category":"260","category_name":"其他","address":"卢湾区淮海中路438号B1楼(近重庆南路)"},{"poiid":"B2094654DB65A3F54692","title":"上海锦江国际购物中心商务写字楼","lon":"121.469","lat":"31.22054","category":"46","category_name":"楼宇","address":"淮海中路527号"},{"poiid":"B2094757DB6CA5F84593","title":"Element Fresh","lon":"121.470734","lat":"31.223412","category":"247","category_name":"餐饮美食","address":"Xin tian Di"},{"poiid":"B2094757D06FA6FC449B","title":"京世造型(雁荡店)","lon":"121.469967","lat":"31.221091","category":"148","category_name":"美容美发店","address":"上海卢湾区雁荡路5号2楼(淮海中路口)"},{"poiid":"B2094757D66FA1F5449C","title":"好乐的(淮海店)","lon":"121.47069161","lat":"31.221906582","category":"249","category_name":"购物服务","address":"上海淮海中路1543号"},{"poiid":"B2094757D06BA5F44892","title":"鲜得来","lon":"121.46988673","lat":"31.220740097","category":"247","category_name":"餐饮美食","address":"上海市卢湾区雁荡路13号"},{"poiid":"B2094750DB6AA5F84798","title":"一町奶茶(淮海路店)","lon":"121.470686","lat":"31.221858","category":"113","category_name":"冷饮店","address":"卢湾区老重庆中路54号(近长乐路)"},{"poiid":"B2094757D068A3FD459F","title":"沧浪亭(重庆路店)","lon":"121.47132","lat":"31.2213","category":"87","category_name":"特色／地方风味餐厅","address":"卢湾区老重庆中路好乐迪对面(淮海中路口)"},{"poiid":"B2094757D069A4FF4699","title":"lv旗舰店","lon":"121.47127873","lat":"31.220801099","category":"500","category_name":"未知分类","address":"上海淮海路嵩山路"},{"poiid":"B2094757D464ABF4459A","title":"金城酒家","lon":"121.47037211893","lat":"31.220679186676","category":"76","category_name":"上海菜","address":"卢湾区兴安路149号(近雁荡路)"},{"poiid":"B2094654DA6DABFB489D","title":"上海锦江国际购物中心","lon":"121.469","lat":"31.22054","category":"119","category_name":"商场","address":"朝阳区北三环东路与京顺路交接处路口北侧"},{"poiid":"B209475CD76EA0F54692","title":"环贸iapm","lon":"121.469993","lat":"31.223688","category":"500","category_name":"未知分类","address":"上海市 卢湾区淮海中路999号"},{"poiid":"B2094757D664A4FF4492","title":"丝袜奶茶 南京西路店 Denny House","lon":"121.46797","lat":"31.22142","category":"67","category_name":"甜品店","address":"静安区南京西路1025弄静安别墅128号(近南汇路)"},{"poiid":"B2094757D068A5FA4192","title":"北万新(淮海店)","lon":"121.47041414","lat":"31.221747502","category":"68","category_name":"快餐厅","address":"卢湾区淮海中路462号(近重庆南路)"},{"poiid":"B2094654DA6DABFB479A","title":"兴安餐厅","lon":"121.470078054","lat":"31.220802793","category":"68","category_name":"快餐厅","address":"卢湾区兴安路145号(近雁荡路)"},{"poiid":"B2094757D068A6F5479A","title":"Nolita","lon":"121.46507","lat":"31.22554","category":"94","category_name":"西餐厅","address":"静安区大沽路422号"},{"poiid":"B2094655D36CA6F54598","title":"淡水路","lon":"121.47198","lat":"31.22328","category":"38","category_name":"公交车站","address":""},{"poiid":"B2094757D06FA7F54399","title":"香黛广场","lon":"121.47153","lat":"31.2218","category":"249","category_name":"购物服务","address":"卢湾区淮海中路417号(近重庆南路)"},{"poiid":"B2094757D06FA7F4469A","title":"85度C(成都店)","lon":"121.46835","lat":"31.22084","category":"112","category_name":"糕饼店","address":"卢湾区成都南路127号(近淮海中路)"},{"poiid":"B209475CD26BA5F5499D","title":"查理士","lon":"121.471008","lat":"31.221706","category":"247","category_name":"餐饮美食","address":"上海市 淮海中路447号"},{"poiid":"B2094757D068A4F9429C","title":"徐其修凉茶","lon":"121.47148973","lat":"31.222897143","category":"113","category_name":"冷饮店","address":"卢湾区兴安路98弄10号(近雁荡路)"},{"poiid":"B2094757D06AAAFE4499","title":"佳鸣海鲜火锅楼","lon":"121.470263","lat":"31.220876","category":"86","category_name":"火锅店","address":"卢湾区兴安路167号(近雁荡路)"},{"poiid":"B2094757D06FA4FA469A","title":"大花桌游(淮海中路店)","lon":"121.46994","lat":"31.22109","category":"175","category_name":"棋牌室","address":"上海卢湾区淮海中路461号9楼68室"},{"poiid":"B2094655D36CA0F5409C","title":"淮海中路重庆南路","lon":"121.46961","lat":"31.22117","category":"38","category_name":"公交车站","address":""},{"poiid":"B2094654DA6EA1FF419F","title":"永新大厦","lon":"121.468","lat":"31.2233","category":"46","category_name":"楼宇","address":"卢湾区淮海中路527号"},{"poiid":"B2094757D064A7FB449B","title":"新藤亭日本料理","lon":"121.46989649709","lat":"31.219543331825","category":"95","category_name":"日本料理","address":"卢湾区雁荡路29号502室(近南昌路)"},{"poiid":"B2094655D26AABFD499F","title":"好乐迪量贩式KTV（淮海中路店）","lon":"121.47092","lat":"31.22199","category":"170","category_name":"KTV","address":"卢湾区淮海中路438号4楼近重庆南路;;"},{"poiid":"B2094757D465A4FB409B","title":"顶特勒粥面馆","lon":"121.469218054","lat":"31.221221793","category":"68","category_name":"快餐厅","address":"卢湾区淮海中路494弄22号(近雁荡路)"},{"poiid":"B2094654DA6DABFA499E","title":"味香斋","lon":"121.46993580196","lat":"31.221233069029","category":"68","category_name":"快餐厅","address":"卢湾区雁荡路14号(近淮海中路)"},{"poiid":"B2094753D76FAAFA449C","title":"上海滩国泰旗舰店","lon":"121.466011","lat":"31.216125","category":"249","category_name":"购物服务","address":"淮海中路868号"},{"poiid":"B209475CD564A7F84292","title":"上海滩新天地店","lon":"121.47463","lat":"31.22164","category":"119","category_name":"商场","address":"\"太仓路181弄新天地北里15号\r\n\""},{"poiid":"B209475CD564A7F8439E","title":"上海滩中信泰富店","lon":"121.45602","lat":"31.22851","category":"119","category_name":"商场","address":"\"南京西路1168号中信泰富广场，店铺号221.\r\n\""},{"poiid":"B2094757D06FA2F54392","title":"淮海中路雁荡路","lon":"121.469795542","lat":"31.2212911035","category":"260","category_name":"其他","address":"上海淮海中路雁荡路"},{"poiid":"B2094757D06FA3FC489D","title":"屋企汤馆 淮海店","lon":"121.4708246443","lat":"31.221864028321","category":"72","category_name":"广东菜","address":"卢湾区淮海中路438号2楼(近重庆南路)"},{"poiid":"B2094757D064A5FD489B","title":"典谟新知咖啡馆","lon":"121.470884738","lat":"31.2210811051","category":"260","category_name":"其他","address":"卢湾区兴安路139号(近淮海路雁荡路)"},{"poiid":"B2094753D76CA2F4449C","title":"查厘士","lon":"121.471084","lat":"31.221948","category":"247","category_name":"餐饮美食","address":"上海市 淮海路438号"},{"poiid":"B2094757D064A5FA479F","title":"悦满糖","lon":"121.469785238","lat":"31.2202659878","category":"500","category_name":"未知分类","address":"上海卢湾区雁荡路25号"},{"poiid":"B2094757D06FA5FC429C","title":"韩蒸天下养生馆","lon":"121.46975773","lat":"31.220693096","category":"149","category_name":"洗浴推拿场所","address":"卢湾区雁荡路29号5楼(近淮海中路)"},{"poiid":"B2094757D06FA0FC4198","title":"一品粤珍(淮海中路店)","lon":"121.46927","lat":"31.22027","category":"72","category_name":"广东菜","address":"卢湾区淮海中路527号锦江国际购物中心7楼(近雁荡路)"},{"poiid":"B2094757D06FA2FE4792","title":"鲜得来排骨年糕(雁荡店)","lon":"121.47033","lat":"31.22059","category":"68","category_name":"快餐厅","address":"卢湾区雁荡路9号(近兴安路)"},{"poiid":"B2094757D06FA3F84099","title":"新贝乐比萨屋 雁荡路店","lon":"121.470030054","lat":"31.220020793","category":"94","category_name":"西餐厅","address":"卢湾区雁荡路33号(近南昌路)"},{"poiid":"B2094757D06BA7FB489F","title":"新贝乐意式餐厅(雁荡路店)","lon":"121.46901273","lat":"31.2208641","category":"500","category_name":"未知分类","address":"上海市卢湾区雁荡路33号"},{"poiid":"B2094757D168A5FB469D","title":"Initial新天地","lon":"121.47131183","lat":"31.221172036","category":"500","category_name":"未知分类","address":"上海新天地UME 1楼"},{"poiid":"B2094654DB69A5FD409B","title":"好乐迪(淮海中路店)","lon":"121.47101","lat":"31.222","category":"170","category_name":"KTV","address":"卢湾区淮海中路438号4-5楼(近重庆南路)"},{"poiid":"B2094757D06FA2FC489D","title":"禾绿回转寿司(淮海店)","lon":"121.471866738","lat":"31.2220071249","category":"95","category_name":"日本料理","address":"卢湾区淮海中路352号(近马当路)"},{"poiid":"B2094757D06FA4FD4299","title":"天香火锅楼(淮海店)","lon":"121.46836","lat":"31.22093","category":"86","category_name":"火锅店","address":"卢湾区淮海中路542弄103室(近成都南路)"},{"poiid":"B2094757D068A2F5449F","title":"世纪巴士大厦","lon":"121.47163462","lat":"31.222440357","category":"46","category_name":"楼宇","address":"上海淮海中路398号"},{"poiid":"B2094751DA6DA0FA479B","title":"猫屎咖啡(新天地店)","lon":"121.4691613","lat":"31.2232952","category":"247","category_name":"餐饮美食","address":"太仓路200号"},{"poiid":"B2094757D06FAAFD479C","title":"兴和港式茶餐厅","lon":"121.47004699","lat":"31.220336914","category":"72","category_name":"广东菜","address":"卢湾区雁荡路37号(近复兴公园)"},{"poiid":"B2094750D768A7FE4099","title":"Season三层堂和牛料理","lon":"121.469","lat":"31.221","category":"95","category_name":"日本料理","address":"卢湾区淮海中路542弄2号(近成都南路)"},{"poiid":"B2094750D26DA7F84799","title":"清风人家","lon":"121.47091","lat":"31.22203","category":"260","category_name":"其他","address":"卢湾区淮海中路438号B1楼(近重庆南路)"},{"poiid":"B2094654DB65A3F54692","title":"上海锦江国际购物中心商务写字楼","lon":"121.469","lat":"31.22054","category":"46","category_name":"楼宇","address":"淮海中路527号"},{"poiid":"B2094757DB6CA5F84593","title":"Element Fresh","lon":"121.470734","lat":"31.223412","category":"247","category_name":"餐饮美食","address":"Xin tian Di"},{"poiid":"B2094757D06FA6FC449B","title":"京世造型(雁荡店)","lon":"121.469967","lat":"31.221091","category":"148","category_name":"美容美发店","address":"上海卢湾区雁荡路5号2楼(淮海中路口)"},{"poiid":"B2094757D66FA1F5449C","title":"好乐的(淮海店)","lon":"121.47069161","lat":"31.221906582","category":"249","category_name":"购物服务","address":"上海淮海中路1543号"},{"poiid":"B2094757D06BA5F44892","title":"鲜得来","lon":"121.46988673","lat":"31.220740097","category":"247","category_name":"餐饮美食","address":"上海市卢湾区雁荡路13号"},{"poiid":"B2094750DB6AA5F84798","title":"一町奶茶(淮海路店)","lon":"121.470686","lat":"31.221858","category":"113","category_name":"冷饮店","address":"卢湾区老重庆中路54号(近长乐路)"},{"poiid":"B2094757D068A3FD459F","title":"沧浪亭(重庆路店)","lon":"121.47132","lat":"31.2213","category":"87","category_name":"特色／地方风味餐厅","address":"卢湾区老重庆中路好乐迪对面(淮海中路口)"},{"poiid":"B2094757D069A4FF4699","title":"lv旗舰店","lon":"121.47127873","lat":"31.220801099","category":"500","category_name":"未知分类","address":"上海淮海路嵩山路"},{"poiid":"B2094757D464ABF4459A","title":"金城酒家","lon":"121.47037211893","lat":"31.220679186676","category":"76","category_name":"上海菜","address":"卢湾区兴安路149号(近雁荡路)"},{"poiid":"B2094654DA6DABFB489D","title":"上海锦江国际购物中心","lon":"121.469","lat":"31.22054","category":"119","category_name":"商场","address":"朝阳区北三环东路与京顺路交接处路口北侧"},{"poiid":"B209475CD76EA0F54692","title":"环贸iapm","lon":"121.469993","lat":"31.223688","category":"500","category_name":"未知分类","address":"上海市 卢湾区淮海中路999号"},{"poiid":"B2094757D664A4FF4492","title":"丝袜奶茶 南京西路店 Denny House","lon":"121.46797","lat":"31.22142","category":"67","category_name":"甜品店","address":"静安区南京西路1025弄静安别墅128号(近南汇路)"},{"poiid":"B2094757D068A5FA4192","title":"北万新(淮海店)","lon":"121.47041414","lat":"31.221747502","category":"68","category_name":"快餐厅","address":"卢湾区淮海中路462号(近重庆南路)"},{"poiid":"B2094654DA6DABFB479A","title":"兴安餐厅","lon":"121.470078054","lat":"31.220802793","category":"68","category_name":"快餐厅","address":"卢湾区兴安路145号(近雁荡路)"},{"poiid":"B2094757D068A6F5479A","title":"Nolita","lon":"121.46507","lat":"31.22554","category":"94","category_name":"西餐厅","address":"静安区大沽路422号"},{"poiid":"B2094655D36CA6F54598","title":"淡水路","lon":"121.47198","lat":"31.22328","category":"38","category_name":"公交车站","address":""},{"poiid":"B2094757D06FA7F54399","title":"香黛广场","lon":"121.47153","lat":"31.2218","category":"249","category_name":"购物服务","address":"卢湾区淮海中路417号(近重庆南路)"},{"poiid":"B2094757D06FA7F4469A","title":"85度C(成都店)","lon":"121.46835","lat":"31.22084","category":"112","category_name":"糕饼店","address":"卢湾区成都南路127号(近淮海中路)"},{"poiid":"B209475CD26BA5F5499D","title":"查理士","lon":"121.471008","lat":"31.221706","category":"247","category_name":"餐饮美食","address":"上海市 淮海中路447号"},{"poiid":"B2094757D068A4F9429C","title":"徐其修凉茶","lon":"121.47148973","lat":"31.222897143","category":"113","category_name":"冷饮店","address":"卢湾区兴安路98弄10号(近雁荡路)"},{"poiid":"B2094757D06AAAFE4499","title":"佳鸣海鲜火锅楼","lon":"121.470263","lat":"31.220876","category":"86","category_name":"火锅店","address":"卢湾区兴安路167号(近雁荡路)"},{"poiid":"B2094757D06FA4FA469A","title":"大花桌游(淮海中路店)","lon":"121.46994","lat":"31.22109","category":"175","category_name":"棋牌室","address":"上海卢湾区淮海中路461号9楼68室"},{"poiid":"B2094655D36CA0F5409C","title":"淮海中路重庆南路","lon":"121.46961","lat":"31.22117","category":"38","category_name":"公交车站","address":""},{"poiid":"B2094654DA6EA1FF419F","title":"永新大厦","lon":"121.468","lat":"31.2233","category":"46","category_name":"楼宇","address":"卢湾区淮海中路527号"},{"poiid":"B2094757D064A7FB449B","title":"新藤亭日本料理","lon":"121.46989649709","lat":"31.219543331825","category":"95","category_name":"日本料理","address":"卢湾区雁荡路29号502室(近南昌路)"},{"poiid":"B2094655D26AABFD499F","title":"好乐迪量贩式KTV（淮海中路店）","lon":"121.47092","lat":"31.22199","category":"170","category_name":"KTV","address":"卢湾区淮海中路438号4楼近重庆南路;;"},{"poiid":"B2094757D465A4FB409B","title":"顶特勒粥面馆","lon":"121.469218054","lat":"31.221221793","category":"68","category_name":"快餐厅","address":"卢湾区淮海中路494弄22号(近雁荡路)"},{"poiid":"B2094654DA6DABFA499E","title":"味香斋","lon":"121.46993580196","lat":"31.221233069029","category":"68","category_name":"快餐厅","address":"卢湾区雁荡路14号(近淮海中路)"},{"poiid":"B2094753D76FAAFA449C","title":"上海滩国泰旗舰店","lon":"121.466011","lat":"31.216125","category":"249","category_name":"购物服务","address":"淮海中路868号"},{"poiid":"B209475CD564A7F84292","title":"上海滩新天地店","lon":"121.47463","lat":"31.22164","category":"119","category_name":"商场","address":"\"太仓路181弄新天地北里15号\r\n\""},{"poiid":"B209475CD564A7F8439E","title":"上海滩中信泰富店","lon":"121.45602","lat":"31.22851","category":"119","category_name":"商场","address":"\"南京西路1168号中信泰富广场，店铺号221.\r\n\""},{"poiid":"B2094757D06FA2F54392","title":"淮海中路雁荡路","lon":"121.469795542","lat":"31.2212911035","category":"260","category_name":"其他","address":"上海淮海中路雁荡路"},{"poiid":"B2094757D06FA3FC489D","title":"屋企汤馆 淮海店","lon":"121.4708246443","lat":"31.221864028321","category":"72","category_name":"广东菜","address":"卢湾区淮海中路438号2楼(近重庆南路)"},{"poiid":"B2094757D064A5FD489B","title":"典谟新知咖啡馆","lon":"121.470884738","lat":"31.2210811051","category":"260","category_name":"其他","address":"卢湾区兴安路139号(近淮海路雁荡路)"},{"poiid":"B2094753D76CA2F4449C","title":"查厘士","lon":"121.471084","lat":"31.221948","category":"247","category_name":"餐饮美食","address":"上海市 淮海路438号"},{"poiid":"B2094757D064A5FA479F","title":"悦满糖","lon":"121.469785238","lat":"31.2202659878","category":"500","category_name":"未知分类","address":"上海卢湾区雁荡路25号"},{"poiid":"B2094757D06FA5FC429C","title":"韩蒸天下养生馆","lon":"121.46975773","lat":"31.220693096","category":"149","category_name":"洗浴推拿场所","address":"卢湾区雁荡路29号5楼(近淮海中路)"},{"poiid":"B2094757D06FA0FC4198","title":"一品粤珍(淮海中路店)","lon":"121.46927","lat":"31.22027","category":"72","category_name":"广东菜","address":"卢湾区淮海中路527号锦江国际购物中心7楼(近雁荡路)"},{"poiid":"B2094757D06FA2FE4792","title":"鲜得来排骨年糕(雁荡店)","lon":"121.47033","lat":"31.22059","category":"68","category_name":"快餐厅","address":"卢湾区雁荡路9号(近兴安路)"},{"poiid":"B2094757D06FA3F84099","title":"新贝乐比萨屋 雁荡路店","lon":"121.470030054","lat":"31.220020793","category":"94","category_name":"西餐厅","address":"卢湾区雁荡路33号(近南昌路)"},{"poiid":"B2094757D06BA7FB489F","title":"新贝乐意式餐厅(雁荡路店)","lon":"121.46901273","lat":"31.2208641","category":"500","category_name":"未知分类","address":"上海市卢湾区雁荡路33号"},{"poiid":"B2094757D168A5FB469D","title":"Initial新天地","lon":"121.47131183","lat":"31.221172036","category":"500","category_name":"未知分类","address":"上海新天地UME 1楼"},{"poiid":"B2094654DB69A5FD409B","title":"好乐迪(淮海中路店)","lon":"121.47101","lat":"31.222","category":"170","category_name":"KTV","address":"卢湾区淮海中路438号4-5楼(近重庆南路)"},{"poiid":"B2094757D06FA2FC489D","title":"禾绿回转寿司(淮海店)","lon":"121.471866738","lat":"31.2220071249","category":"95","category_name":"日本料理","address":"卢湾区淮海中路352号(近马当路)"},{"poiid":"B2094757D06FA4FD4299","title":"天香火锅楼(淮海店)","lon":"121.46836","lat":"31.22093","category":"86","category_name":"火锅店","address":"卢湾区淮海中路542弄103室(近成都南路)"},{"poiid":"B2094757D068A2F5449F","title":"世纪巴士大厦","lon":"121.47163462","lat":"31.222440357","category":"46","category_name":"楼宇","address":"上海淮海中路398号"},{"poiid":"B2094751DA6DA0FA479B","title":"猫屎咖啡(新天地店)","lon":"121.4691613","lat":"31.2232952","category":"247","category_name":"餐饮美食","address":"太仓路200号"},{"poiid":"B2094757D06FAAFD479C","title":"兴和港式茶餐厅","lon":"121.47004699","lat":"31.220336914","category":"72","category_name":"广东菜","address":"卢湾区雁荡路37号(近复兴公园)"},{"poiid":"B2094750D768A7FE4099","title":"Season三层堂和牛料理","lon":"121.469","lat":"31.221","category":"95","category_name":"日本料理","address":"卢湾区淮海中路542弄2号(近成都南路)"},{"poiid":"B2094750D26DA7F84799","title":"清风人家","lon":"121.47091","lat":"31.22203","category":"260","category_name":"其他","address":"卢湾区淮海中路438号B1楼(近重庆南路)"},{"poiid":"B2094654DB65A3F54692","title":"上海锦江国际购物中心商务写字楼","lon":"121.469","lat":"31.22054","category":"46","category_name":"楼宇","address":"淮海中路527号"},{"poiid":"B2094757DB6CA5F84593","title":"Element Fresh","lon":"121.470734","lat":"31.223412","category":"247","category_name":"餐饮美食","address":"Xin tian Di"},{"poiid":"B2094757D06FA6FC449B","title":"京世造型(雁荡店)","lon":"121.469967","lat":"31.221091","category":"148","category_name":"美容美发店","address":"上海卢湾区雁荡路5号2楼(淮海中路口)"},{"poiid":"B2094757D66FA1F5449C","title":"好乐的(淮海店)","lon":"121.47069161","lat":"31.221906582","category":"249","category_name":"购物服务","address":"上海淮海中路1543号"},{"poiid":"B2094757D06BA5F44892","title":"鲜得来","lon":"121.46988673","lat":"31.220740097","category":"247","category_name":"餐饮美食","address":"上海市卢湾区雁荡路13号"},{"poiid":"B2094750DB6AA5F84798","title":"一町奶茶(淮海路店)","lon":"121.470686","lat":"31.221858","category":"113","category_name":"冷饮店","address":"卢湾区老重庆中路54号(近长乐路)"},{"poiid":"B2094757D068A3FD459F","title":"沧浪亭(重庆路店)","lon":"121.47132","lat":"31.2213","category":"87","category_name":"特色／地方风味餐厅","address":"卢湾区老重庆中路好乐迪对面(淮海中路口)"},{"poiid":"B2094757D069A4FF4699","title":"lv旗舰店","lon":"121.47127873","lat":"31.220801099","category":"500","category_name":"未知分类","address":"上海淮海路嵩山路"},{"poiid":"B2094757D464ABF4459A","title":"金城酒家","lon":"121.47037211893","lat":"31.220679186676","category":"76","category_name":"上海菜","address":"卢湾区兴安路149号(近雁荡路)"},{"poiid":"B2094654DA6DABFB489D","title":"上海锦江国际购物中心","lon":"121.469","lat":"31.22054","category":"119","category_name":"商场","address":"朝阳区北三环东路与京顺路交接处路口北侧"},{"poiid":"B209475CD76EA0F54692","title":"环贸iapm","lon":"121.469993","lat":"31.223688","category":"500","category_name":"未知分类","address":"上海市 卢湾区淮海中路999号"},{"poiid":"B2094757D664A4FF4492","title":"丝袜奶茶 南京西路店 Denny House","lon":"121.46797","lat":"31.22142","category":"67","category_name":"甜品店","address":"静安区南京西路1025弄静安别墅128号(近南汇路)"},{"poiid":"B2094757D068A5FA4192","title":"北万新(淮海店)","lon":"121.47041414","lat":"31.221747502","category":"68","category_name":"快餐厅","address":"卢湾区淮海中路462号(近重庆南路)"},{"poiid":"B2094654DA6DABFB479A","title":"兴安餐厅","lon":"121.470078054","lat":"31.220802793","category":"68","category_name":"快餐厅","address":"卢湾区兴安路145号(近雁荡路)"},{"poiid":"B2094757D068A6F5479A","title":"Nolita","lon":"121.46507","lat":"31.22554","category":"94","category_name":"西餐厅","address":"静安区大沽路422号"},{"poiid":"B2094655D36CA6F54598","title":"淡水路","lon":"121.47198","lat":"31.22328","category":"38","category_name":"公交车站","address":""},{"poiid":"B2094757D06FA7F54399","title":"香黛广场","lon":"121.47153","lat":"31.2218","category":"249","category_name":"购物服务","address":"卢湾区淮海中路417号(近重庆南路)"},{"poiid":"B2094757D06FA7F4469A","title":"85度C(成都店)","lon":"121.46835","lat":"31.22084","category":"112","category_name":"糕饼店","address":"卢湾区成都南路127号(近淮海中路)"},{"poiid":"B209475CD26BA5F5499D","title":"查理士","lon":"121.471008","lat":"31.221706","category":"247","category_name":"餐饮美食","address":"上海市 淮海中路447号"},{"poiid":"B2094757D068A4F9429C","title":"徐其修凉茶","lon":"121.47148973","lat":"31.222897143","category":"113","category_name":"冷饮店","address":"卢湾区兴安路98弄10号(近雁荡路)"},{"poiid":"B2094757D06AAAFE4499","title":"佳鸣海鲜火锅楼","lon":"121.470263","lat":"31.220876","category":"86","category_name":"火锅店","address":"卢湾区兴安路167号(近雁荡路)"},{"poiid":"B2094757D06FA4FA469A","title":"大花桌游(淮海中路店)","lon":"121.46994","lat":"31.22109","category":"175","category_name":"棋牌室","address":"上海卢湾区淮海中路461号9楼68室"},{"poiid":"B2094655D36CA0F5409C","title":"淮海中路重庆南路","lon":"121.46961","lat":"31.22117","category":"38","category_name":"公交车站","address":""},{"poiid":"B2094654DA6EA1FF419F","title":"永新大厦","lon":"121.468","lat":"31.2233","category":"46","category_name":"楼宇","address":"卢湾区淮海中路527号"},{"poiid":"B2094757D064A7FB449B","title":"新藤亭日本料理","lon":"121.46989649709","lat":"31.219543331825","category":"95","category_name":"日本料理","address":"卢湾区雁荡路29号502室(近南昌路)"},{"poiid":"B2094655D26AABFD499F","title":"好乐迪量贩式KTV（淮海中路店）","lon":"121.47092","lat":"31.22199","category":"170","category_name":"KTV","address":"卢湾区淮海中路438号4楼近重庆南路;;"},{"poiid":"B2094757D465A4FB409B","title":"顶特勒粥面馆","lon":"121.469218054","lat":"31.221221793","category":"68","category_name":"快餐厅","address":"卢湾区淮海中路494弄22号(近雁荡路)"},{"poiid":"B2094654DA6DABFA499E","title":"味香斋","lon":"121.46993580196","lat":"31.221233069029","category":"68","category_name":"快餐厅","address":"卢湾区雁荡路14号(近淮海中路)"},{"poiid":"B2094753D76FAAFA449C","title":"上海滩国泰旗舰店","lon":"121.466011","lat":"31.216125","category":"249","category_name":"购物服务","address":"淮海中路868号"},{"poiid":"B209475CD564A7F84292","title":"上海滩新天地店","lon":"121.47463","lat":"31.22164","category":"119","category_name":"商场","address":"\"太仓路181弄新天地北里15号\r\n\""},{"poiid":"B209475CD564A7F8439E","title":"上海滩中信泰富店","lon":"121.45602","lat":"31.22851","category":"119","category_name":"商场","address":"\"南京西路1168号中信泰富广场，店铺号221.\r\n\""},{"poiid":"B2094757D06FA2F54392","title":"淮海中路雁荡路","lon":"121.469795542","lat":"31.2212911035","category":"260","category_name":"其他","address":"上海淮海中路雁荡路"},{"poiid":"B2094757D06FA3FC489D","title":"屋企汤馆 淮海店","lon":"121.4708246443","lat":"31.221864028321","category":"72","category_name":"广东菜","address":"卢湾区淮海中路438号2楼(近重庆南路)"},{"poiid":"B2094757D064A5FD489B","title":"典谟新知咖啡馆","lon":"121.470884738","lat":"31.2210811051","category":"260","category_name":"其他","address":"卢湾区兴安路139号(近淮海路雁荡路)"},{"poiid":"B2094753D76CA2F4449C","title":"查厘士","lon":"121.471084","lat":"31.221948","category":"247","category_name":"餐饮美食","address":"上海市 淮海路438号"},{"poiid":"B2094757D064A5FA479F","title":"悦满糖","lon":"121.469785238","lat":"31.2202659878","category":"500","category_name":"未知分类","address":"上海卢湾区雁荡路25号"},{"poiid":"B2094757D06FA5FC429C","title":"韩蒸天下养生馆","lon":"121.46975773","lat":"31.220693096","category":"149","category_name":"洗浴推拿场所","address":"卢湾区雁荡路29号5楼(近淮海中路)"},{"poiid":"B2094757D06FA0FC4198","title":"一品粤珍(淮海中路店)","lon":"121.46927","lat":"31.22027","category":"72","category_name":"广东菜","address":"卢湾区淮海中路527号锦江国际购物中心7楼(近雁荡路)"},{"poiid":"B2094757D06FA2FE4792","title":"鲜得来排骨年糕(雁荡店)","lon":"121.47033","lat":"31.22059","category":"68","category_name":"快餐厅","address":"卢湾区雁荡路9号(近兴安路)"},{"poiid":"B2094757D06FA3F84099","title":"新贝乐比萨屋 雁荡路店","lon":"121.470030054","lat":"31.220020793","category":"94","category_name":"西餐厅","address":"卢湾区雁荡路33号(近南昌路)"},{"poiid":"B2094757D06BA7FB489F","title":"新贝乐意式餐厅(雁荡路店)","lon":"121.46901273","lat":"31.2208641","category":"500","category_name":"未知分类","address":"上海市卢湾区雁荡路33号"},{"poiid":"B2094757D168A5FB469D","title":"Initial新天地","lon":"121.47131183","lat":"31.221172036","category":"500","category_name":"未知分类","address":"上海新天地UME 1楼"},{"poiid":"B2094654DB69A5FD409B","title":"好乐迪(淮海中路店)","lon":"121.47101","lat":"31.222","category":"170","category_name":"KTV","address":"卢湾区淮海中路438号4-5楼(近重庆南路)"},{"poiid":"B2094757D06FA2FC489D","title":"禾绿回转寿司(淮海店)","lon":"121.471866738","lat":"31.2220071249","category":"95","category_name":"日本料理","address":"卢湾区淮海中路352号(近马当路)"},{"poiid":"B2094757D06FA4FD4299","title":"天香火锅楼(淮海店)","lon":"121.46836","lat":"31.22093","category":"86","category_name":"火锅店","address":"卢湾区淮海中路542弄103室(近成都南路)"},{"poiid":"B2094757D068A2F5449F","title":"世纪巴士大厦","lon":"121.47163462","lat":"31.222440357","category":"46","category_name":"楼宇","address":"上海淮海中路398号"},{"poiid":"B2094751DA6DA0FA479B","title":"猫屎咖啡(新天地店)","lon":"121.4691613","lat":"31.2232952","category":"247","category_name":"餐饮美食","address":"太仓路200号"},{"poiid":"B2094757D06FAAFD479C","title":"兴和港式茶餐厅","lon":"121.47004699","lat":"31.220336914","category":"72","category_name":"广东菜","address":"卢湾区雁荡路37号(近复兴公园)"},{"poiid":"B2094750D768A7FE4099","title":"Season三层堂和牛料理","lon":"121.469","lat":"31.221","category":"95","category_name":"日本料理","address":"卢湾区淮海中路542弄2号(近成都南路)"},{"poiid":"B2094750D26DA7F84799","title":"清风人家","lon":"121.47091","lat":"31.22203","category":"260","category_name":"其他","address":"卢湾区淮海中路438号B1楼(近重庆南路)"},{"poiid":"B2094654DB65A3F54692","title":"上海锦江国际购物中心商务写字楼","lon":"121.469","lat":"31.22054","category":"46","category_name":"楼宇","address":"淮海中路527号"},{"poiid":"B2094757DB6CA5F84593","title":"Element Fresh","lon":"121.470734","lat":"31.223412","category":"247","category_name":"餐饮美食","address":"Xin tian Di"},{"poiid":"B2094757D06FA6FC449B","title":"京世造型(雁荡店)","lon":"121.469967","lat":"31.221091","category":"148","category_name":"美容美发店","address":"上海卢湾区雁荡路5号2楼(淮海中路口)"},{"poiid":"B2094757D66FA1F5449C","title":"好乐的(淮海店)","lon":"121.47069161","lat":"31.221906582","category":"249","category_name":"购物服务","address":"上海淮海中路1543号"},{"poiid":"B2094757D06BA5F44892","title":"鲜得来","lon":"121.46988673","lat":"31.220740097","category":"247","category_name":"餐饮美食","address":"上海市卢湾区雁荡路13号"},{"poiid":"B2094750DB6AA5F84798","title":"一町奶茶(淮海路店)","lon":"121.470686","lat":"31.221858","category":"113","category_name":"冷饮店","address":"卢湾区老重庆中路54号(近长乐路)"},{"poiid":"B2094757D068A3FD459F","title":"沧浪亭(重庆路店)","lon":"121.47132","lat":"31.2213","category":"87","category_name":"特色／地方风味餐厅","address":"卢湾区老重庆中路好乐迪对面(淮海中路口)"},{"poiid":"B2094757D069A4FF4699","title":"lv旗舰店","lon":"121.47127873","lat":"31.220801099","category":"500","category_name":"未知分类","address":"上海淮海路嵩山路"},{"poiid":"B2094757D464ABF4459A","title":"金城酒家","lon":"121.47037211893","lat":"31.220679186676","category":"76","category_name":"上海菜","address":"卢湾区兴安路149号(近雁荡路)"},{"poiid":"B2094654DA6DABFB489D","title":"上海锦江国际购物中心","lon":"121.469","lat":"31.22054","category":"119","category_name":"商场","address":"朝阳区北三环东路与京顺路交接处路口北侧"},{"poiid":"B209475CD76EA0F54692","title":"环贸iapm","lon":"121.469993","lat":"31.223688","category":"500","category_name":"未知分类","address":"上海市 卢湾区淮海中路999号"},{"poiid":"B2094757D664A4FF4492","title":"丝袜奶茶 南京西路店 Denny House","lon":"121.46797","lat":"31.22142","category":"67","category_name":"甜品店","address":"静安区南京西路1025弄静安别墅128号(近南汇路)"},{"poiid":"B2094757D068A5FA4192","title":"北万新(淮海店)","lon":"121.47041414","lat":"31.221747502","category":"68","category_name":"快餐厅","address":"卢湾区淮海中路462号(近重庆南路)"},{"poiid":"B2094654DA6DABFB479A","title":"兴安餐厅","lon":"121.470078054","lat":"31.220802793","category":"68","category_name":"快餐厅","address":"卢湾区兴安路145号(近雁荡路)"},{"poiid":"B2094757D068A6F5479A","title":"Nolita","lon":"121.46507","lat":"31.22554","category":"94","category_name":"西餐厅","address":"静安区大沽路422号"},{"poiid":"B2094655D36CA6F54598","title":"淡水路","lon":"121.47198","lat":"31.22328","category":"38","category_name":"公交车站","address":""},{"poiid":"B2094757D06FA7F54399","title":"香黛广场","lon":"121.47153","lat":"31.2218","category":"249","category_name":"购物服务","address":"卢湾区淮海中路417号(近重庆南路)"},{"poiid":"B2094757D06FA7F4469A","title":"85度C(成都店)","lon":"121.46835","lat":"31.22084","category":"112","category_name":"糕饼店","address":"卢湾区成都南路127号(近淮海中路)"},{"poiid":"B209475CD26BA5F5499D","title":"查理士","lon":"121.471008","lat":"31.221706","category":"247","category_name":"餐饮美食","address":"上海市 淮海中路447号"},{"poiid":"B2094757D068A4F9429C","title":"徐其修凉茶","lon":"121.47148973","lat":"31.222897143","category":"113","category_name":"冷饮店","address":"卢湾区兴安路98弄10号(近雁荡路)"},{"poiid":"B2094757D06AAAFE4499","title":"佳鸣海鲜火锅楼","lon":"121.470263","lat":"31.220876","category":"86","category_name":"火锅店","address":"卢湾区兴安路167号(近雁荡路)"},{"poiid":"B2094757D06FA4FA469A","title":"大花桌游(淮海中路店)","lon":"121.46994","lat":"31.22109","category":"175","category_name":"棋牌室","address":"上海卢湾区淮海中路461号9楼68室"},{"poiid":"B2094655D36CA0F5409C","title":"淮海中路重庆南路","lon":"121.46961","lat":"31.22117","category":"38","category_name":"公交车站","address":""},{"poiid":"B2094654DA6EA1FF419F","title":"永新大厦","lon":"121.468","lat":"31.2233","category":"46","category_name":"楼宇","address":"卢湾区淮海中路527号"},{"poiid":"B2094757D064A7FB449B","title":"新藤亭日本料理","lon":"121.46989649709","lat":"31.219543331825","category":"95","category_name":"日本料理","address":"卢湾区雁荡路29号502室(近南昌路)"}]