[{"poiid":"B2094654DA68A4F9409A","title":"上海浦东新区图书馆(新馆)","lon":"121.54156","lat":"31.19221","category":"181","category_name":"图书馆","address":"上海浦东新区前程路88号(近锦绣路)"},{"poiid":"B2094654DA68A4F9409B","title":"中国浦东干部学院","lon":"121.54231","lat":"31.19545","category":"52","category_name":"高等院校","address":"浦东新区前程路99号"},{"poiid":"B2094655D265A5FB4292","title":"浦东星河湾","lon":"121.539","lat":"31.19259","category":"47","category_name":"住宅区","address":"浦东区花木路1983弄"},{"poiid":"B2094757D069AAF8439A","title":"上海浦东星河湾酒店国际会议中心","lon":"121.538313738","lat":"31.1920054859","category":"217","category_name":"旅馆招待所","address":"上海市浦东新区锦绣路"},{"poiid":"B2094757D06BA4FE479D","title":"山姆会员商店(Sam\\'s Club)","lon":"121.536345","lat":"31.187507","category":"500","category_name":"未知分类","address":"浦东新区高科西路2110号(近下南路)"},{"poiid":"B2094757D06EABF54198","title":"芳华路地铁站","lon":"121.5500343","lat":"31.193053866","category":"36","category_name":"地铁站","address":"上海轨道交通 七号线 轨交芳华路站 7"},{"poiid":"B2094757D06EABF5439E","title":"锦绣路地铁站","lon":"121.54022254","lat":"31.1875856261","category":"36","category_name":"地铁站","address":"上海轨道交通 七号线 轨交锦绣路站 7"},{"poiid":"B2094757D068ABF84593","title":"浦东新区图书馆专业阅览室","lon":"121.54169737","lat":"31.192647169","category":"181","category_name":"图书馆","address":"上海前程路88号浦东新区图书馆5楼"},{"poiid":"B2094757D068A0FA469A","title":"潮汕源大酒店(浦东店)","lon":"121.54805","lat":"31.19463","category":"72","category_name":"广东菜","address":"浦东新区前程路388号(浦东干部学院对面)"},{"poiid":"B2094757DB6EABF84099","title":"上海浦东星河湾酒店","lon":"121.538666","lat":"31.191977","category":"213","category_name":"五星级宾馆","address":"上海市浦东新区锦绣路2588弄(近前程路)"},{"poiid":"B2094757D068A5FC4792","title":"安达医院","lon":"121.55028781","lat":"31.190278037","category":"162","category_name":"医院","address":"上海浦东新区沪南公路468号"},{"poiid":"B2094655D268A4F44892","title":"锦博苑","lon":"121.54259714532","lat":"31.195402510609","category":"47","category_name":"住宅区","address":"高科西路2111弄1-166号"},{"poiid":"B2094757D06BA7F84298","title":"新国际展览中心E6","lon":"121.5382513","lat":"31.1974698","category":"500","category_name":"未知分类","address":"上海浦东新区龙阳路2345号"},{"poiid":"B2094757D069A3FB489E","title":"COSTA COFFEE(山姆会员店)","lon":"121.5363157","lat":"31.1875072","category":"65","category_name":"咖啡厅","address":"浦东新区高科西路2110号沃尔玛超市110003号铺位(近下南路)"},{"poiid":"B2094654DB6BABFA4492","title":"大华锦绣华城第九街区","lon":"121.54","lat":"31.189","category":"47","category_name":"住宅区","address":"北艾路1200弄1-72号"},{"poiid":"B2094757D068A5F5469D","title":"浦东图书馆读者餐厅","lon":"121.54275528","lat":"31.191817349","category":"76","category_name":"上海菜","address":"浦东新区前程路88号浦东图书馆M楼(近锦绣路)"},{"poiid":"B2094757D465A3FD4799","title":"意咖啡 浦东店","lon":"121.5388569","lat":"31.192814","category":"268","category_name":"自助","address":"浦东新区锦绣路2588弄星河湾酒店B1楼(近前程路)"},{"poiid":"B2094655D36DA6FD429B","title":"芳华路","lon":"121.55003","lat":"31.19305","category":"38","category_name":"公交车站","address":""},{"poiid":"B2094757D164A6FF4593","title":"锦绣路","lon":"121.540641238","lat":"31.1857980538","category":"500","category_name":"未知分类","address":"上海锦绣路"},{"poiid":"B2094655D36CA3F44193","title":"上海市第一妇婴保健院","lon":"121.55","lat":"31.18947","category":"162","category_name":"医院","address":"沪南路550临"},{"poiid":"B2094757D66EA2F5459A","title":"浦东新区图书馆二楼少儿馆","lon":"121.541559738","lat":"31.1919464847","category":"181","category_name":"图书馆","address":"上海市浦东新区锦绣路"},{"poiid":"B209475CD768A3F4459F","title":"九井日本料理","lon":"121.538406","lat":"31.193489","category":"500","category_name":"未知分类","address":"上海市 锦绣路2486弄2号星河湾"},{"poiid":"B2094654DA6AA1F94299","title":"杨建华大酒店(沪南路)","lon":"121.55003","lat":"31.19423","category":"250","category_name":"公园户外","address":"浦东新区沪南路355号(近地铁七号线芳华路站)"},{"poiid":"B2094757D06BA5FA409F","title":"浦东图书馆五楼专题馆","lon":"121.541837738","lat":"31.1920584871","category":"500","category_name":"未知分类","address":"上海浦东新区前程路88号5楼"},{"poiid":"B2094654DB65A6FB419D","title":"中国浦东干部学院(正门)","lon":"121.54373","lat":"31.1934","category":"52","category_name":"高等院校","address":"浦东新区前程路99"},{"poiid":"B2094654DB6BABFB439F","title":"中国浦东干部学院(南门)","lon":"121.54113","lat":"31.19288","category":"52","category_name":"高等院校","address":"浦东新区前程路55"},{"poiid":"B2094757D66CA7F8499D","title":"浦东新区图书馆地下一层","lon":"121.54174673","lat":"31.193023507","category":"181","category_name":"图书馆","address":"上海市浦东新区锦绣路"},{"poiid":"B2094654DB69A4FD499C","title":"锦江之星(新国际博览中心店)","lon":"121.55106","lat":"31.19426","category":"216","category_name":"经济型连锁酒店","address":"上海市浦东新区芳华路37号(近沪南路)"},{"poiid":"B2094757D66DA4F94092","title":"凌桥中学","lon":"121.541788538","lat":"31.1940690299","category":"55","category_name":"中学","address":"上海江东路"},{"poiid":"B2094757D16FA3F84599","title":"illy(浦东图书馆店)","lon":"121.54156373","lat":"31.192610498","category":"67","category_name":"甜品店","address":"上海市浦东新区前程路锦绣路"},{"poiid":"B2094757D064A7F54899","title":"浦东新区图书馆契咖啡","lon":"121.54594421","lat":"31.19042778","category":"65","category_name":"咖啡厅","address":"浦东新区前程路88号浦东图书馆1楼东北角(近锦绣路)"},{"poiid":"B2094757D66CA4F9449F","title":"七号线芳华路站","lon":"121.546385738","lat":"31.1936455208","category":"500","category_name":"未知分类","address":"上海沪南路芳华路"},{"poiid":"B2094757D064A5F4439C","title":"东城新村","lon":"121.545023959","lat":"31.2015203635","category":"47","category_name":"住宅区","address":"上海市浦东新区锦绣路"},{"poiid":"B2094757D06BA2FA499F","title":"Lavazza coffee 浦东新区图书馆店","lon":"121.54150592","lat":"31.192286851","category":"260","category_name":"其他","address":"浦东新区前程路88号浦东图书馆楼B1楼东北角(近锦绣路)"},{"poiid":"B2094757D06AA6F5459D","title":"老街渔味馆 芳华店","lon":"121.550022054","lat":"31.194473793","category":"72","category_name":"广东菜","address":"浦东新区沪南路355号杨建华大酒店内(芳华路口)"},{"poiid":"B2094757D66DA1FA4099","title":"真粤中餐厅","lon":"121.539823054","lat":"31.190565793","category":"72","category_name":"广东菜","address":"浦东新区锦绣路2588弄星河湾酒店B1楼(近前程路)"},{"poiid":"B2094757D06BA4FB459A","title":"二号线虹桥火车站站","lon":"121.535403738","lat":"31.1958105669","category":"36","category_name":"地铁站","address":"上海市虹桥火车站"},{"poiid":"B2094757D468AAF44798","title":"星河湾酒店德国酒吧","lon":"121.5388569","lat":"31.192814","category":"172","category_name":"酒吧","address":"锦绣路2588号(近前程路)"},{"poiid":"B2094757D06AAAFA4993","title":"东风标致龙阳炜业4S","lon":"121.53532772","lat":"31.198541991","category":"500","category_name":"未知分类","address":"上海浦东新区龙阳路1277号"},{"poiid":"B2094757D16CA1F44492","title":"浦东图书馆员工餐厅","lon":"121.541572738","lat":"31.1919984858","category":"500","category_name":"未知分类","address":"上海市浦东新区前程路88号B1"},{"poiid":"B2094757D06AA7FE429B","title":"金色港湾","lon":"121.542232682","lat":"31.2024024111","category":"76","category_name":"上海菜","address":"浦东新区东建路800号(近锦安东路)"},{"poiid":"B2094752D064ABF4499A","title":"上海 虹桥航站楼T2","lon":"121.544242","lat":"31.191734","category":"500","category_name":"未知分类","address":null},{"poiid":"B2094654DA68A4F8479B","title":"由由世纪苑","lon":"121.537156","lat":"31.194777","category":"47","category_name":"住宅区","address":"严民路248弄"},{"poiid":"B2094757D16FA6FC4793","title":"锦绣博文幼儿园","lon":"121.539387703","lat":"31.1890829217","category":"57","category_name":"幼儿园","address":"浦东新区锦绣路2760号(近地铁七号线锦绣路站)"},{"poiid":"B2094757D568AAFB499F","title":"星河湾大堂吧","lon":"121.5390003","lat":"31.19258639","category":"260","category_name":"其他","address":"浦东新区锦绣路2580弄星河湾内(近前程路)"},{"poiid":"B2094757D16AA6F9499D","title":"东辉职校","lon":"121.539095538","lat":"31.1978844111","category":"54","category_name":"职业技术学校","address":"上海锦绣路2081号"},{"poiid":"B2094654DA68A4F9409E","title":"中国浦东干部学院(东门)","lon":"121.54847","lat":"31.19624","category":"52","category_name":"高等院校","address":"沪南路200"},{"poiid":"B2094750D76DA0FE409A","title":"斗香园(高科西路店)","lon":"121.536","lat":"31.1875","category":"68","category_name":"快餐厅","address":"浦东新区高科西路2110号山姆会员商店1楼"},{"poiid":"B2094750D76EA4FA4099","title":"味千拉面(山姆会员店)","lon":"121.536","lat":"31.1875","category":"95","category_name":"日本料理","address":"浦东新区高科西路2110号山姆会员店(近下南路)"},{"poiid":"B2094655D26AA0F94798","title":"地铁锦绣路站","lon":"121.54018","lat":"31.18759","category":"36","category_name":"地铁站","address":""},{"poiid":"B2094654DA68A4F9409A","title":"上海浦东新区图书馆(新馆)","lon":"121.54156","lat":"31.19221","category":"181","category_name":"图书馆","address":"上海浦东新区前程路88号(近锦绣路)"},{"poiid":"B2094654DA68A4F9409B","title":"中国浦东干部学院","lon":"121.54231","lat":"31.19545","category":"52","category_name":"高等院校","address":"浦东新区前程路99号"},{"poiid":"B2094655D265A5FB4292","title":"浦东星河湾","lon":"121.539","lat":"31.19259","category":"47","category_name":"住宅区","address":"浦东区花木路1983弄"},{"poiid":"B2094757D069AAF8439A","title":"上海浦东星河湾酒店国际会议中心","lon":"121.538313738","lat":"31.1920054859","category":"217","category_name":"旅馆招待所","address":"上海市浦东新区锦绣路"},{"poiid":"B2094757D06BA4FE479D","title":"山姆会员商店(Sam\\'s Club)","lon":"121.536345","lat":"31.187507","category":"500","category_name":"未知分类","address":"浦东新区高科西路2110号(近下南路)"},{"poiid":"B2094757D06EABF54198","title":"芳华路地铁站","lon":"121.5500343","lat":"31.193053866","category":"36","category_name":"地铁站","address":"上海轨道交通 七号线 轨交芳华路站 7"},{"poiid":"B2094757D06EABF5439E","title":"锦绣路地铁站","lon":"121.54022254","lat":"31.1875856261","category":"36","category_name":"地铁站","address":"上海轨道交通 七号线 轨交锦绣路站 7"},{"poiid":"B2094757D068ABF84593","title":"浦东新区图书馆专业阅览室","lon":"121.54169737","lat":"31.192647169","category":"181","category_name":"图书馆","address":"上海前程路88号浦东新区图书馆5楼"},{"poiid":"B2094757D068A0FA469A","title":"潮汕源大酒店(浦东店)","lon":"121.54805","lat":"31.19463","category":"72","category_name":"广东菜","address":"浦东新区前程路388号(浦东干部学院对面)"},{"poiid":"B2094757DB6EABF84099","title":"上海浦东星河湾酒店","lon":"121.538666","lat":"31.191977","category":"213","category_name":"五星级宾馆","address":"上海市浦东新区锦绣路2588弄(近前程路)"},{"poiid":"B2094757D068A5FC4792","title":"安达医院","lon":"121.55028781","lat":"31.190278037","category":"162","category_name":"医院","address":"上海浦东新区沪南公路468号"},{"poiid":"B2094655D268A4F44892","title":"锦博苑","lon":"121.54259714532","lat":"31.195402510609","category":"47","category_name":"住宅区","address":"高科西路2111弄1-166号"},{"poiid":"B2094757D06BA7F84298","title":"新国际展览中心E6","lon":"121.5382513","lat":"31.1974698","category":"500","category_name":"未知分类","address":"上海浦东新区龙阳路2345号"},{"poiid":"B2094757D069A3FB489E","title":"COSTA COFFEE(山姆会员店)","lon":"121.5363157","lat":"31.1875072","category":"65","category_name":"咖啡厅","address":"浦东新区高科西路2110号沃尔玛超市110003号铺位(近下南路)"},{"poiid":"B2094654DB6BABFA4492","title":"大华锦绣华城第九街区","lon":"121.54","lat":"31.189","category":"47","category_name":"住宅区","address":"北艾路1200弄1-72号"},{"poiid":"B2094757D068A5F5469D","title":"浦东图书馆读者餐厅","lon":"121.54275528","lat":"31.191817349","category":"76","category_name":"上海菜","address":"浦东新区前程路88号浦东图书馆M楼(近锦绣路)"},{"poiid":"B2094757D465A3FD4799","title":"意咖啡 浦东店","lon":"121.5388569","lat":"31.192814","category":"268","category_name":"自助","address":"浦东新区锦绣路2588弄星河湾酒店B1楼(近前程路)"},{"poiid":"B2094655D36DA6FD429B","title":"芳华路","lon":"121.55003","lat":"31.19305","category":"38","category_name":"公交车站","address":""},{"poiid":"B2094757D164A6FF4593","title":"锦绣路","lon":"121.540641238","lat":"31.1857980538","category":"500","category_name":"未知分类","address":"上海锦绣路"},{"poiid":"B2094655D36CA3F44193","title":"上海市第一妇婴保健院","lon":"121.55","lat":"31.18947","category":"162","category_name":"医院","address":"沪南路550临"},{"poiid":"B2094757D66EA2F5459A","title":"浦东新区图书馆二楼少儿馆","lon":"121.541559738","lat":"31.1919464847","category":"181","category_name":"图书馆","address":"上海市浦东新区锦绣路"},{"poiid":"B209475CD768A3F4459F","title":"九井日本料理","lon":"121.538406","lat":"31.193489","category":"500","category_name":"未知分类","address":"上海市 锦绣路2486弄2号星河湾"},{"poiid":"B2094654DA6AA1F94299","title":"杨建华大酒店(沪南路)","lon":"121.55003","lat":"31.19423","category":"250","category_name":"公园户外","address":"浦东新区沪南路355号(近地铁七号线芳华路站)"},{"poiid":"B2094757D06BA5FA409F","title":"浦东图书馆五楼专题馆","lon":"121.541837738","lat":"31.1920584871","category":"500","category_name":"未知分类","address":"上海浦东新区前程路88号5楼"},{"poiid":"B2094654DB65A6FB419D","title":"中国浦东干部学院(正门)","lon":"121.54373","lat":"31.1934","category":"52","category_name":"高等院校","address":"浦东新区前程路99"},{"poiid":"B2094654DB6BABFB439F","title":"中国浦东干部学院(南门)","lon":"121.54113","lat":"31.19288","category":"52","category_name":"高等院校","address":"浦东新区前程路55"},{"poiid":"B2094757D66CA7F8499D","title":"浦东新区图书馆地下一层","lon":"121.54174673","lat":"31.193023507","category":"181","category_name":"图书馆","address":"上海市浦东新区锦绣路"},{"poiid":"B2094654DB69A4FD499C","title":"锦江之星(新国际博览中心店)","lon":"121.55106","lat":"31.19426","category":"216","category_name":"经济型连锁酒店","address":"上海市浦东新区芳华路37号(近沪南路)"},{"poiid":"B2094757D66DA4F94092","title":"凌桥中学","lon":"121.541788538","lat":"31.1940690299","category":"55","category_name":"中学","address":"上海江东路"},{"poiid":"B2094757D16FA3F84599","title":"illy(浦东图书馆店)","lon":"121.54156373","lat":"31.192610498","category":"67","category_name":"甜品店","address":"上海市浦东新区前程路锦绣路"},{"poiid":"B2094757D064A7F54899","title":"浦东新区图书馆契咖啡","lon":"121.54594421","lat":"31.19042778","category":"65","category_name":"咖啡厅","address":"浦东新区前程路88号浦东图书馆1楼东北角(近锦绣路)"},{"poiid":"B2094757D66CA4F9449F","title":"七号线芳华路站","lon":"121.546385738","lat":"31.1936455208","category":"500","category_name":"未知分类","address":"上海沪南路芳华路"},{"poiid":"B2094757D064A5F4439C","title":"东城新村","lon":"121.545023959","lat":"31.2015203635","category":"47","category_name":"住宅区","address":"上海市浦东新区锦绣路"},{"poiid":"B2094757D06BA2FA499F","title":"Lavazza coffee 浦东新区图书馆店","lon":"121.54150592","lat":"31.192286851","category":"260","category_name":"其他","address":"浦东新区前程路88号浦东图书馆楼B1楼东北角(近锦绣路)"},{"poiid":"B2094757D06AA6F5459D","title":"老街渔味馆 芳华店","lon":"121.550022054","lat":"31.194473793","category":"72","category_name":"广东菜","address":"浦东新区沪南路355号杨建华大酒店内(芳华路口)"},{"poiid":"B2094757D66DA1FA4099","title":"真粤中餐厅","lon":"121.539823054","lat":"31.190565793","category":"72","category_name":"广东菜","address":"浦东新区锦绣路2588弄星河湾酒店B1楼(近前程路)"},{"poiid":"B2094757D06BA4FB459A","title":"二号线虹桥火车站站","lon":"121.535403738","lat":"31.1958105669","category":"36","category_name":"地铁站","address":"上海市虹桥火车站"},{"poiid":"B2094757D468AAF44798","title":"星河湾酒店德国酒吧","lon":"121.5388569","lat":"31.192814","category":"172","category_name":"酒吧","address":"锦绣路2588号(近前程路)"},{"poiid":"B2094757D06AAAFA4993","title":"东风标致龙阳炜业4S","lon":"121.53532772","lat":"31.198541991","category":"500","category_name":"未知分类","address":"上海浦东新区龙阳路1277号"},{"poiid":"B2094757D16CA1F44492","title":"浦东图书馆员工餐厅","lon":"121.541572738","lat":"31.1919984858","category":"500","category_name":"未知分类","address":"上海市浦东新区前程路88号B1"},{"poiid":"B2094757D06AA7FE429B","title":"金色港湾","lon":"121.542232682","lat":"31.2024024111","category":"76","category_name":"上海菜","address":"浦东新区东建路800号(近锦安东路)"},{"poiid":"B2094752D064ABF4499A","title":"上海 虹桥航站楼T2","lon":"121.544242","lat":"31.191734","category":"500","category_name":"未知分类","address":null},{"poiid":"B2094654DA68A4F8479B","title":"由由世纪苑","lon":"121.537156","lat":"31.194777","category":"47","category_name":"住宅区","address":"严民路248弄"},{"poiid":"B2094757D16FA6FC4793","title":"锦绣博文幼儿园","lon":"121.539387703","lat":"31.1890829217","category":"57","category_name":"幼儿园","address":"浦东新区锦绣路2760号(近地铁七号线锦绣路站)"},{"poiid":"B2094757D568AAFB499F","title":"星河湾大堂吧","lon":"121.5390003","lat":"31.19258639","category":"260","category_name":"其他","address":"浦东新区锦绣路2580弄星河湾内(近前程路)"},{"poiid":"B2094757D16AA6F9499D","title":"东辉职校","lon":"121.539095538","lat":"31.1978844111","category":"54","category_name":"职业技术学校","address":"上海锦绣路2081号"},{"poiid":"B2094654DA68A4F9409E","title":"中国浦东干部学院(东门)","lon":"121.54847","lat":"31.19624","category":"52","category_name":"高等院校","address":"沪南路200"},{"poiid":"B2094750D76DA0FE409A","title":"斗香园(高科西路店)","lon":"121.536","lat":"31.1875","category":"68","category_name":"快餐厅","address":"浦东新区高科西路2110号山姆会员商店1楼"},{"poiid":"B2094750D76EA4FA4099","title":"味千拉面(山姆会员店)","lon":"121.536","lat":"31.1875","category":"95","category_name":"日本料理","address":"浦东新区高科西路2110号山姆会员店(近下南路)"},{"poiid":"B2094655D26AA0F94798","title":"地铁锦绣路站","lon":"121.54018","lat":"31.18759","category":"36","category_name":"地铁站","address":""},{"poiid":"B2094654DA68A4F9409A","title":"上海浦东新区图书馆(新馆)","lon":"121.54156","lat":"31.19221","category":"181","category_name":"图书馆","address":"上海浦东新区前程路88号(近锦绣路)"},{"poiid":"B2094654DA68A4F9409B","title":"中国浦东干部学院","lon":"121.54231","lat":"31.19545","category":"52","category_name":"高等院校","address":"浦东新区前程路99号"},{"poiid":"B2094655D265A5FB4292","title":"浦东星河湾","lon":"121.539","lat":"31.19259","category":"47","category_name":"住宅区","address":"浦东区花木路1983弄"},{"poiid":"B2094757D069AAF8439A","title":"上海浦东星河湾酒店国际会议中心","lon":"121.538313738","lat":"31.1920054859","category":"217","category_name":"旅馆招待所","address":"上海市浦东新区锦绣路"},{"poiid":"B2094757D06BA4FE479D","title":"山姆会员商店(Sam\\'s Club)","lon":"121.536345","lat":"31.187507","category":"500","category_name":"未知分类","address":"浦东新区高科西路2110号(近下南路)"},{"poiid":"B2094757D06EABF54198","title":"芳华路地铁站","lon":"121.5500343","lat":"31.193053866","category":"36","category_name":"地铁站","address":"上海轨道交通 七号线 轨交芳华路站 7"},{"poiid":"B2094757D06EABF5439E","title":"锦绣路地铁站","lon":"121.54022254","lat":"31.1875856261","category":"36","category_name":"地铁站","address":"上海轨道交通 七号线 轨交锦绣路站 7"},{"poiid":"B2094757D068ABF84593","title":"浦东新区图书馆专业阅览室","lon":"121.54169737","lat":"31.192647169","category":"181","category_name":"图书馆","address":"上海前程路88号浦东新区图书馆5楼"},{"poiid":"B2094757D068A0FA469A","title":"潮汕源大酒店(浦东店)","lon":"121.54805","lat":"31.19463","category":"72","category_name":"广东菜","address":"浦东新区前程路388号(浦东干部学院对面)"},{"poiid":"B2094757DB6EABF84099","title":"上海浦东星河湾酒店","lon":"121.538666","lat":"31.191977","category":"213","category_name":"五星级宾馆","address":"上海市浦东新区锦绣路2588弄(近前程路)"},{"poiid":"B2094757D068A5FC4792","title":"安达医院","lon":"121.55028781","lat":"31.190278037","category":"162","category_name":"医院","address":"上海浦东新区沪南公路468号"},{"poiid":"B2094655D268A4F44892","title":"锦博苑","lon":"121.54259714532","lat":"31.195402510609","category":"47","category_name":"住宅区","address":"高科西路2111弄1-166号"},{"poiid":"B2094757D06BA7F84298","title":"新国际展览中心E6","lon":"121.5382513","lat":"31.1974698","category":"500","category_name":"未知分类","address":"上海浦东新区龙阳路2345号"},{"poiid":"B2094757D069A3FB489E","title":"COSTA COFFEE(山姆会员店)","lon":"121.5363157","lat":"31.1875072","category":"65","category_name":"咖啡厅","address":"浦东新区高科西路2110号沃尔玛超市110003号铺位(近下南路)"},{"poiid":"B2094654DB6BABFA4492","title":"大华锦绣华城第九街区","lon":"121.54","lat":"31.189","category":"47","category_name":"住宅区","address":"北艾路1200弄1-72号"},{"poiid":"B2094757D068A5F5469D","title":"浦东图书馆读者餐厅","lon":"121.54275528","lat":"31.191817349","category":"76","category_name":"上海菜","address":"浦东新区前程路88号浦东图书馆M楼(近锦绣路)"},{"poiid":"B2094757D465A3FD4799","title":"意咖啡 浦东店","lon":"121.5388569","lat":"31.192814","category":"268","category_name":"自助","address":"浦东新区锦绣路2588弄星河湾酒店B1楼(近前程路)"},{"poiid":"B2094655D36DA6FD429B","title":"芳华路","lon":"121.55003","lat":"31.19305","category":"38","category_name":"公交车站","address":""},{"poiid":"B2094757D164A6FF4593","title":"锦绣路","lon":"121.540641238","lat":"31.1857980538","category":"500","category_name":"未知分类","address":"上海锦绣路"},{"poiid":"B2094655D36CA3F44193","title":"上海市第一妇婴保健院","lon":"121.55","lat":"31.18947","category":"162","category_name":"医院","address":"沪南路550临"},{"poiid":"B2094757D66EA2F5459A","title":"浦东新区图书馆二楼少儿馆","lon":"121.541559738","lat":"31.1919464847","category":"181","category_name":"图书馆","address":"上海市浦东新区锦绣路"},{"poiid":"B209475CD768A3F4459F","title":"九井日本料理","lon":"121.538406","lat":"31.193489","category":"500","category_name":"未知分类","address":"上海市 锦绣路2486弄2号星河湾"},{"poiid":"B2094654DA6AA1F94299","title":"杨建华大酒店(沪南路)","lon":"121.55003","lat":"31.19423","category":"250","category_name":"公园户外","address":"浦东新区沪南路355号(近地铁七号线芳华路站)"},{"poiid":"B2094757D06BA5FA409F","title":"浦东图书馆五楼专题馆","lon":"121.541837738","lat":"31.1920584871","category":"500","category_name":"未知分类","address":"上海浦东新区前程路88号5楼"},{"poiid":"B2094654DB65A6FB419D","title":"中国浦东干部学院(正门)","lon":"121.54373","lat":"31.1934","category":"52","category_name":"高等院校","address":"浦东新区前程路99"},{"poiid":"B2094654DB6BABFB439F","title":"中国浦东干部学院(南门)","lon":"121.54113","lat":"31.19288","category":"52","category_name":"高等院校","address":"浦东新区前程路55"},{"poiid":"B2094757D66CA7F8499D","title":"浦东新区图书馆地下一层","lon":"121.54174673","lat":"31.193023507","category":"181","category_name":"图书馆","address":"上海市浦东新区锦绣路"},{"poiid":"B2094654DB69A4FD499C","title":"锦江之星(新国际博览中心店)","lon":"121.55106","lat":"31.19426","category":"216","category_name":"经济型连锁酒店","address":"上海市浦东新区芳华路37号(近沪南路)"},{"poiid":"B2094757D66DA4F94092","title":"凌桥中学","lon":"121.541788538","lat":"31.1940690299","category":"55","category_name":"中学","address":"上海江东路"},{"poiid":"B2094757D16FA3F84599","title":"illy(浦东图书馆店)","lon":"121.54156373","lat":"31.192610498","category":"67","category_name":"甜品店","address":"上海市浦东新区前程路锦绣路"},{"poiid":"B2094757D064A7F54899","title":"浦东新区图书馆契咖啡","lon":"121.54594421","lat":"31.19042778","category":"65","category_name":"咖啡厅","address":"浦东新区前程路88号浦东图书馆1楼东北角(近锦绣路)"},{"poiid":"B2094757D66CA4F9449F","title":"七号线芳华路站","lon":"121.546385738","lat":"31.1936455208","category":"500","category_name":"未知分类","address":"上海沪南路芳华路"},{"poiid":"B2094757D064A5F4439C","title":"东城新村","lon":"121.545023959","lat":"31.2015203635","category":"47","category_name":"住宅区","address":"上海市浦东新区锦绣路"},{"poiid":"B2094757D06BA2FA499F","title":"Lavazza coffee 浦东新区图书馆店","lon":"121.54150592","lat":"31.192286851","category":"260","category_name":"其他","address":"浦东新区前程路88号浦东图书馆楼B1楼东北角(近锦绣路)"},{"poiid":"B2094757D06AA6F5459D","title":"老街渔味馆 芳华店","lon":"121.550022054","lat":"31.194473793","category":"72","category_name":"广东菜","address":"浦东新区沪南路355号杨建华大酒店内(芳华路口)"},{"poiid":"B2094757D66DA1FA4099","title":"真粤中餐厅","lon":"121.539823054","lat":"31.190565793","category":"72","category_name":"广东菜","address":"浦东新区锦绣路2588弄星河湾酒店B1楼(近前程路)"},{"poiid":"B2094757D06BA4FB459A","title":"二号线虹桥火车站站","lon":"121.535403738","lat":"31.1958105669","category":"36","category_name":"地铁站","address":"上海市虹桥火车站"},{"poiid":"B2094757D468AAF44798","title":"星河湾酒店德国酒吧","lon":"121.5388569","lat":"31.192814","category":"172","category_name":"酒吧","address":"锦绣路2588号(近前程路)"},{"poiid":"B2094757D06AAAFA4993","title":"东风标致龙阳炜业4S","lon":"121.53532772","lat":"31.198541991","category":"500","category_name":"未知分类","address":"上海浦东新区龙阳路1277号"},{"poiid":"B2094757D16CA1F44492","title":"浦东图书馆员工餐厅","lon":"121.541572738","lat":"31.1919984858","category":"500","category_name":"未知分类","address":"上海市浦东新区前程路88号B1"},{"poiid":"B2094757D06AA7FE429B","title":"金色港湾","lon":"121.542232682","lat":"31.2024024111","category":"76","category_name":"上海菜","address":"浦东新区东建路800号(近锦安东路)"},{"poiid":"B2094752D064ABF4499A","title":"上海 虹桥航站楼T2","lon":"121.544242","lat":"31.191734","category":"500","category_name":"未知分类","address":null},{"poiid":"B2094654DA68A4F8479B","title":"由由世纪苑","lon":"121.537156","lat":"31.194777","category":"47","category_name":"住宅区","address":"严民路248弄"},{"poiid":"B2094757D16FA6FC4793","title":"锦绣博文幼儿园","lon":"121.539387703","lat":"31.1890829217","category":"57","category_name":"幼儿园","address":"浦东新区锦绣路2760号(近地铁七号线锦绣路站)"},{"poiid":"B2094757D568AAFB499F","title":"星河湾大堂吧","lon":"121.5390003","lat":"31.19258639","category":"260","category_name":"其他","address":"浦东新区锦绣路2580弄星河湾内(近前程路)"},{"poiid":"B2094757D16AA6F9499D","title":"东辉职校","lon":"121.539095538","lat":"31.1978844111","category":"54","category_name":"职业技术学校","address":"上海锦绣路2081号"},{"poiid":"B2094654DA68A4F9409E","title":"中国浦东干部学院(东门)","lon":"121.54847","lat":"31.19624","category":"52","category_name":"高等院校","address":"沪南路200"},{"poiid":"B2094750D76DA0FE409A","title":"斗香园(高科西路店)","lon":"121.536","lat":"31.1875","category":"68","category_name":"快餐厅","address":"浦东新区高科西路2110号山姆会员商店1楼"},{"poiid":"B2094750D76EA4FA4099","title":"味千拉面(山姆会员店)","lon":"121.536","lat":"31.1875","category":"95","category_name":"日本料理","address":"浦东新区高科西路2110号山姆会员店(近下南路)"},{"poiid":"B2094655D26AA0F94798","title":"地铁锦绣路站","lon":"121.54018","lat":"31.18759","category":"36","category_name":"地铁站","address":""},{"poiid":"B2094654DA68A4F9409A","title":"上海浦东新区图书馆(新馆)","lon":"121.54156","lat":"31.19221","category":"181","category_name":"图书馆","address":"上海浦东新区前程路88号(近锦绣路)"},{"poiid":"B2094654DA68A4F9409B","title":"中国浦东干部学院","lon":"121.54231","lat":"31.19545","category":"52","category_name":"高等院校","address":"浦东新区前程路99号"},{"poiid":"B2094655D265A5FB4292","title":"浦东星河湾","lon":"121.539","lat":"31.19259","category":"47","category_name":"住宅区","address":"浦东区花木路1983弄"},{"poiid":"B2094757D069AAF8439A","title":"上海浦东星河湾酒店国际会议中心","lon":"121.538313738","lat":"31.1920054859","category":"217","category_name":"旅馆招待所","address":"上海市浦东新区锦绣路"},{"poiid":"B2094757D06BA4FE479D","title":"山姆会员商店(Sam\\'s Club)","lon":"121.536345","lat":"31.187507","category":"500","category_name":"未知分类","address":"浦东新区高科西路2110号(近下南路)"},{"poiid":"B2094757D06EABF54198","title":"芳华路地铁站","lon":"121.5500343","lat":"31.193053866","category":"36","category_name":"地铁站","address":"上海轨道交通 七号线 轨交芳华路站 7"},{"poiid":"B2094757D06EABF5439E","title":"锦绣路地铁站","lon":"121.54022254","lat":"31.1875856261","category":"36","category_name":"地铁站","address":"上海轨道交通 七号线 轨交锦绣路站 7"},{"poiid":"B2094757D068ABF84593","title":"浦东新区图书馆专业阅览室","lon":"121.54169737","lat":"31.192647169","category":"181","category_name":"图书馆","address":"上海前程路88号浦东新区图书馆5楼"},{"poiid":"B2094757D068A0FA469A","title":"潮汕源大酒店(浦东店)","lon":"121.54805","lat":"31.19463","category":"72","category_name":"广东菜","address":"浦东新区前程路388号(浦东干部学院对面)"},{"poiid":"B2094757DB6EABF84099","title":"上海浦东星河湾酒店","lon":"121.538666","lat":"31.191977","category":"213","category_name":"五星级宾馆","address":"上海市浦东新区锦绣路2588弄(近前程路)"},{"poiid":"B2094757D068A5FC4792","title":"安达医院","lon":"121.55028781","lat":"31.190278037","category":"162","category_name":"医院","address":"上海浦东新区沪南公路468号"},{"poiid":"B2094655D268A4F44892","title":"锦博苑","lon":"121.54259714532","lat":"31.195402510609","category":"47","category_name":"住宅区","address":"高科西路2111弄1-166号"},{"poiid":"B2094757D06BA7F84298","title":"新国际展览中心E6","lon":"121.5382513","lat":"31.1974698","category":"500","category_name":"未知分类","address":"上海浦东新区龙阳路2345号"},{"poiid":"B2094757D069A3FB489E","title":"COSTA COFFEE(山姆会员店)","lon":"121.5363157","lat":"31.1875072","category":"65","category_name":"咖啡厅","address":"浦东新区高科西路2110号沃尔玛超市110003号铺位(近下南路)"},{"poiid":"B2094654DB6BABFA4492","title":"大华锦绣华城第九街区","lon":"121.54","lat":"31.189","category":"47","category_name":"住宅区","address":"北艾路1200弄1-72号"},{"poiid":"B2094757D068A5F5469D","title":"浦东图书馆读者餐厅","lon":"121.54275528","lat":"31.191817349","category":"76","category_name":"上海菜","address":"浦东新区前程路88号浦东图书馆M楼(近锦绣路)"},{"poiid":"B2094757D465A3FD4799","title":"意咖啡 浦东店","lon":"121.5388569","lat":"31.192814","category":"268","category_name":"自助","address":"浦东新区锦绣路2588弄星河湾酒店B1楼(近前程路)"},{"poiid":"B2094655D36DA6FD429B","title":"芳华路","lon":"121.55003","lat":"31.19305","category":"38","category_name":"公交车站","address":""},{"poiid":"B2094757D164A6FF4593","title":"锦绣路","lon":"121.540641238","lat":"31.1857980538","category":"500","category_name":"未知分类","address":"上海锦绣路"},{"poiid":"B2094655D36CA3F44193","title":"上海市第一妇婴保健院","lon":"121.55","lat":"31.18947","category":"162","category_name":"医院","address":"沪南路550临"},{"poiid":"B2094757D66EA2F5459A","title":"浦东新区图书馆二楼少儿馆","lon":"121.541559738","lat":"31.1919464847","category":"181","category_name":"图书馆","address":"上海市浦东新区锦绣路"},{"poiid":"B209475CD768A3F4459F","title":"九井日本料理","lon":"121.538406","lat":"31.193489","category":"500","category_name":"未知分类","address":"上海市 锦绣路2486弄2号星河湾"},{"poiid":"B2094654DA6AA1F94299","title":"杨建华大酒店(沪南路)","lon":"121.55003","lat":"31.19423","category":"250","category_name":"公园户外","address":"浦东新区沪南路355号(近地铁七号线芳华路站)"},{"poiid":"B2094757D06BA5FA409F","title":"浦东图书馆五楼专题馆","lon":"121.541837738","lat":"31.1920584871","category":"500","category_name":"未知分类","address":"上海浦东新区前程路88号5楼"},{"poiid":"B2094654DB65A6FB419D","title":"中国浦东干部学院(正门)","lon":"121.54373","lat":"31.1934","category":"52","category_name":"高等院校","address":"浦东新区前程路99"},{"poiid":"B2094654DB6BABFB439F","title":"中国浦东干部学院(南门)","lon":"121.54113","lat":"31.19288","category":"52","category_name":"高等院校","address":"浦东新区前程路55"},{"poiid":"B2094757D66CA7F8499D","title":"浦东新区图书馆地下一层","lon":"121.54174673","lat":"31.193023507","category":"181","category_name":"图书馆","address":"上海市浦东新区锦绣路"},{"poiid":"B2094654DB69A4FD499C","title":"锦江之星(新国际博览中心店)","lon":"121.55106","lat":"31.19426","category":"216","category_name":"经济型连锁酒店","address":"上海市浦东新区芳华路37号(近沪南路)"},{"poiid":"B2094757D66DA4F94092","title":"凌桥中学","lon":"121.541788538","lat":"31.1940690299","category":"55","category_name":"中学","address":"上海江东路"},{"poiid":"B2094757D16FA3F84599","title":"illy(浦东图书馆店)","lon":"121.54156373","lat":"31.192610498","category":"67","category_name":"甜品店","address":"上海市浦东新区前程路锦绣路"},{"poiid":"B2094757D064A7F54899","title":"浦东新区图书馆契咖啡","lon":"121.54594421","lat":"31.19042778","category":"65","category_name":"咖啡厅","address":"浦东新区前程路88号浦东图书馆1楼东北角(近锦绣路)"},{"poiid":"B2094757D66CA4F9449F","title":"七号线芳华路站","lon":"121.546385738","lat":"31.1936455208","category":"500","category_name":"未知分类","address":"上海沪南路芳华路"},{"poiid":"B2094757D064A5F4439C","title":"东城新村","lon":"121.545023959","lat":"31.2015203635","category":"47","category_name":"住宅区","address":"上海市浦东新区锦绣路"},{"poiid":"B2094757D06BA2FA499F","title":"Lavazza coffee 浦东新区图书馆店","lon":"121.54150592","lat":"31.192286851","category":"260","category_name":"其他","address":"浦东新区前程路88号浦东图书馆楼B1楼东北角(近锦绣路)"},{"poiid":"B2094757D06AA6F5459D","title":"老街渔味馆 芳华店","lon":"121.550022054","lat":"31.194473793","category":"72","category_name":"广东菜","address":"浦东新区沪南路355号杨建华大酒店内(芳华路口)"},{"poiid":"B2094757D66DA1FA4099","title":"真粤中餐厅","lon":"121.539823054","lat":"31.190565793","category":"72","category_name":"广东菜","address":"浦东新区锦绣路2588弄星河湾酒店B1楼(近前程路)"},{"poiid":"B2094757D06BA4FB459A","title":"二号线虹桥火车站站","lon":"121.535403738","lat":"31.1958105669","category":"36","category_name":"地铁站","address":"上海市虹桥火车站"},{"poiid":"B2094757D468AAF44798","title":"星河湾酒店德国酒吧","lon":"121.5388569","lat":"31.192814","category":"172","category_name":"酒吧","address":"锦绣路2588号(近前程路)"},{"poiid":"B2094757D06AAAFA4993","title":"东风标致龙阳炜业4S","lon":"121.53532772","lat":"31.198541991","category":"500","category_name":"未知分类","address":"上海浦东新区龙阳路1277号"},{"poiid":"B2094757D16CA1F44492","title":"浦东图书馆员工餐厅","lon":"121.541572738","lat":"31.1919984858","category":"500","category_name":"未知分类","address":"上海市浦东新区前程路88号B1"},{"poiid":"B2094757D06AA7FE429B","title":"金色港湾","lon":"121.542232682","lat":"31.2024024111","category":"76","category_name":"上海菜","address":"浦东新区东建路800号(近锦安东路)"},{"poiid":"B2094752D064ABF4499A","title":"上海 虹桥航站楼T2","lon":"121.544242","lat":"31.191734","category":"500","category_name":"未知分类","address":null},{"poiid":"B2094654DA68A4F8479B","title":"由由世纪苑","lon":"121.537156","lat":"31.194777","category":"47","category_name":"住宅区","address":"严民路248弄"},{"poiid":"B2094757D16FA6FC4793","title":"锦绣博文幼儿园","lon":"121.539387703","lat":"31.1890829217","category":"57","category_name":"幼儿园","address":"浦东新区锦绣路2760号(近地铁七号线锦绣路站)"},{"poiid":"B2094757D568AAFB499F","title":"星河湾大堂吧","lon":"121.5390003","lat":"31.19258639","category":"260","category_name":"其他","address":"浦东新区锦绣路2580弄星河湾内(近前程路)"},{"poiid":"B2094757D16AA6F9499D","title":"东辉职校","lon":"121.539095538","lat":"31.1978844111","category":"54","category_name":"职业技术学校","address":"上海锦绣路2081号"},{"poiid":"B2094654DA68A4F9409E","title":"中国浦东干部学院(东门)","lon":"121.54847","lat":"31.19624","category":"52","category_name":"高等院校","address":"沪南路200"},{"poiid":"B2094750D76DA0FE409A","title":"斗香园(高科西路店)","lon":"121.536","lat":"31.1875","category":"68","category_name":"快餐厅","address":"浦东新区高科西路2110号山姆会员商店1楼"},{"poiid":"B2094750D76EA4FA4099","title":"味千拉面(山姆会员店)","lon":"121.536","lat":"31.1875","category":"95","category_name":"日本料理","address":"浦东新区高科西路2110号山姆会员店(近下南路)"},{"poiid":"B2094655D26AA0F94798","title":"地铁锦绣路站","lon":"121.54018","lat":"31.18759","category":"36","category_name":"地铁站","address":""}]