[{"poiid":"B2094655D26BA2FA4492","title":"泰日","lon":"121.56466","lat":"30.98779","category":"38","category_name":"公交车站","address":"上海奉贤区泰日镇光耀村陈李宅"},{"poiid":"B2094654DB64A0F44992","title":"绿色家园","lon":"121.55652","lat":"30.979368","category":"47","category_name":"住宅区","address":"上海市奉贤区大叶公路6698号"},{"poiid":"B2094757DA6AA4FB469A","title":"申亚会所","lon":"121.5319228","lat":"30.9977609","category":"500","category_name":"未知分类","address":"奉贤区金汇镇沿浦公路"},{"poiid":"B2094655D36CA6F54898","title":"大叶公路沿钱公路","lon":"121.54612","lat":"30.97748","category":"38","category_name":"公交车站","address":""},{"poiid":"B2094757D66EA1F94799","title":"上海城市园艺场","lon":"121.55429465","lat":"30.998489686","category":"500","category_name":"未知分类","address":"上海闵行区浦江镇"},{"poiid":"B2094757D168A4FE409A","title":"上海建设路桥机械设备有限公司","lon":"121.532883978","lat":"30.9880069531","category":"500","category_name":"未知分类","address":"上海金汇工业路188号"},{"poiid":"B2094655D26BA2FA449D","title":"泰日加油站","lon":"121.55973","lat":"30.98598","category":"38","category_name":"公交车站","address":"上海市奉贤区大叶公路6843号"},{"poiid":"B2094655D36DA0F4419C","title":"永南路光继村5组","lon":"121.54355","lat":"31.00409","category":"38","category_name":"公交车站","address":""},{"poiid":"B2094757D16AA0FB4798","title":"光耀村419号","lon":"121.56045997","lat":"30.991223318","category":"47","category_name":"住宅区","address":null},{"poiid":"B2094750D665A0F94998","title":"龙妹餐饮","lon":"121.54","lat":"31.004","category":"87","category_name":"特色／地方风味餐厅","address":"闵行区浦江镇永南路800号光继村(近浦星公路)"},{"poiid":"B2094655D26BA2FA449C","title":"泰日老街","lon":"121.56321","lat":"30.9869","category":"38","category_name":"公交车站","address":""},{"poiid":"B2094654DB69ABF94598","title":"塞纳河畔(奉浦店)","lon":"121.56318","lat":"30.98675","category":"216","category_name":"经济型连锁酒店","address":"闵行区南桥镇环城东路696号"},{"poiid":"B2094757D06BA2F84098","title":"奉贤区头桥镇","lon":"121.5275","lat":"30.991001","category":"500","category_name":"未知分类","address":"上海奉贤区"},{"poiid":"B2094757D16AA3FB459F","title":"汇南村奉宁草莓基地","lon":"121.55773688","lat":"31.001889981","category":"500","category_name":"未知分类","address":"上海市闵行区永南路召泰路口"},{"poiid":"B2094655D36DA0F4419D","title":"永南路光继村6组","lon":"121.5354","lat":"31.00352","category":"38","category_name":"公交车站","address":""},{"poiid":"B2094654DB64AAFC4498","title":"泰日学校中学部","lon":"121.56423","lat":"30.98502","category":"55","category_name":"中学","address":""},{"poiid":"B2094654DB68A2FA419B","title":"荣记面包房","lon":"121.56307","lat":"30.98247","category":"112","category_name":"糕饼店","address":"泰青公路"},{"poiid":"B2094655D26FA4F9409E","title":"绿色家园(南门)","lon":"121.5568","lat":"30.97861","category":"48","category_name":"楼宇大门","address":"大叶公路"},{"poiid":"B2094654DB6FA0F8429B","title":"上海曼丽弗制衣有限公司","lon":"121.55738","lat":"31.00053","category":"263","category_name":"公司","address":""}]