[{"poiid":"B2094757D06FA3FD4593","title":"三人行骨头王火锅(南丹东路店)","lon":"121.44566357","lat":"31.190540663","category":"86","category_name":"火锅店","address":"徐汇区南丹东路8号(斜土路口)"},{"poiid":"B2094757D068A2FE4098","title":"复茂小龙虾 宛平南路店","lon":"121.44731483072","lat":"31.190466090829","category":"68","category_name":"快餐厅","address":"徐汇区宛平南路400号(近斜土路)"},{"poiid":"B2094757D06FA5FD4092","title":"天天周末(斜土路店)","lon":"121.44957","lat":"31.19228","category":"173","category_name":"游戏厅","address":"徐汇区斜土路2200弄8号(近东安路)"},{"poiid":"B2094757D068ABF94398","title":"Blue Frog","lon":"121.44707489","lat":"31.1903934479","category":"500","category_name":"未知分类","address":"上海致真汇  徐汇区辛耕路109号永新坊1-2楼(近天钥桥路)  "},{"poiid":"B2094655D26EA2F4449B","title":"衡山小馆斜土路店","lon":"121.44648","lat":"31.1911","category":"72","category_name":"广东菜","address":"徐汇区斜土路2428号海螺花园(近宛平南路)"},{"poiid":"B2094757D06FA4FD489E","title":"苏武牧羊(徐汇店)","lon":"121.44805","lat":"31.19126","category":"86","category_name":"火锅店","address":"徐汇区斜土路2422号(近宛平南路)"},{"poiid":"B2094655D26BA3FC4392","title":"福地大酒店","lon":"121.4476610206","lat":"31.189998994849","category":"76","category_name":"上海菜","address":"徐汇区宛平南路465号(零陵路斜土路间)"},{"poiid":"B2094757D069A3F54599","title":"斜土路宛平南路","lon":"121.44817258","lat":"31.193041703","category":"500","category_name":"未知分类","address":"上海市徐汇区肇嘉浜路"},{"poiid":"B2094757D068A1F4449D","title":"花乐·神田川","lon":"121.446604928","lat":"31.1918430256","category":"95","category_name":"日本料理","address":"徐汇区斜土路2421号4号楼(近宛平南路)"},{"poiid":"B2094654DB69A5FD4299","title":"锦江之星(宛平南路店)","lon":"121.44693","lat":"31.19016","category":"216","category_name":"经济型连锁酒店","address":"徐汇区宛平南路404号(近零陵路)"},{"poiid":"B2094757DA6FA1FE4399","title":"梅赛德斯-奔驰文化中心","lon":"121.448848","lat":"31.191104","category":"248","category_name":"生活娱乐","address":"浦东世博大道1200号"},{"poiid":"B2094757D069A3FB4092","title":"英雄大厦","lon":"121.449","lat":"31.192","category":"46","category_name":"楼宇","address":"丰台学城海鹰路1号"},{"poiid":"B2094655D268A7F8459E","title":"电影华苑","lon":"121.446","lat":"31.1901","category":"47","category_name":"住宅区","address":"上海市徐汇区零陵路751号"},{"poiid":"B2094750DB64A0FE469E","title":"牛New壽喜燒","lon":"121.447868","lat":"31.190422","category":"247","category_name":"餐饮美食","address":"天鈅橋路131號 永新坊"},{"poiid":"B2094654DB6BA5F8429E","title":"莫泰168连锁旅店(宛平南路店)","lon":"121.44722","lat":"31.19062","category":"216","category_name":"经济型连锁酒店","address":"上海市宛平南路400号（近斜土路）"},{"poiid":"B2094751D269A6F44599","title":"上海南站","lon":"121.4478","lat":"31.1901","category":"500","category_name":"未知分类","address":null},{"poiid":"B2094757D068A2FD489A","title":"京世造型(宛平店)","lon":"121.446784","lat":"31.192901","category":"148","category_name":"美容美发店","address":"上海徐汇区宛平南路271号"},{"poiid":"B2094655D26BA2FE489A","title":"宛平南路","lon":"121.44806","lat":"31.19217","category":"38","category_name":"公交车站","address":""},{"poiid":"B2094655D26AA6FE429D","title":"圆苑酒家宛平南路店","lon":"121.44832","lat":"31.18921","category":"76","category_name":"上海菜","address":"徐汇区宛平南路550号(近零陵路)"},{"poiid":"B2094757D06FA6F4439B","title":"85度C(南丹店)","lon":"121.445687517","lat":"31.1907925339","category":"112","category_name":"糕饼店","address":"徐汇区南丹东路8号(近斜土路)"},{"poiid":"B2094757D769A7F54193","title":"东北四季饺子王 宛平南路店","lon":"121.44769328637","lat":"31.189409271872","category":"82","category_name":"东北菜","address":"徐汇区宛平南路520号(近零陵路)"},{"poiid":"B2094654DA6DA2FB499A","title":"海洋石油大厦","lon":"121.44766","lat":"31.18876","category":"46","category_name":"楼宇","address":"北一环与亳州路交叉口(庐阳区政府对面)"},{"poiid":"B2094655D26FA5FD4492","title":"谨斜小区","lon":"121.44878","lat":"31.193199","category":"47","category_name":"住宅区","address":"斜土路2167,2183,2365弄"},{"poiid":"B209475DDA6FA5FA4992","title":"上海八万人体育馆","lon":"121.447906","lat":"31.189407","category":"250","category_name":"公园户外","address":"上海市 天钥桥路666号"},{"poiid":"B2094757D068A0FD489E","title":"老娘舅 天钥桥路店","lon":"121.441437","lat":"31.192859","category":"68","category_name":"快餐厅","address":"徐汇区天钥桥路123号2楼(近辛耕路)"},{"poiid":"B2094654DA6DA1FC469F","title":"海螺花园(宛平南路)","lon":"121.44661","lat":"31.19069","category":"47","category_name":"住宅区","address":"宛平南路388弄1-6号"},{"poiid":"B2094654DB69AAF9419F","title":"湘轩土菜馆(徐家汇店)","lon":"121.44734","lat":"31.19093","category":"247","category_name":"餐饮美食","address":"徐汇区宛平南路368号(近斜土路)"},{"poiid":"B2094757D66DA1F94492","title":"泰勒瓦","lon":"121.448184586","lat":"31.1923228899","category":"172","category_name":"酒吧","address":"上海斜土路2129号"},{"poiid":"B2094654DB69A7F5449A","title":"爱达大厦","lon":"121.44848","lat":"31.1888","category":"46","category_name":"楼宇","address":"浦东区崂山东路410号"},{"poiid":"B2094654DA6DA1FC469A","title":"佳安公寓","lon":"121.44669","lat":"31.189707","category":"47","category_name":"住宅区","address":"宛平南路420弄1-14号"},{"poiid":"B2094757D069A7FD409F","title":"复旦大学红旗教师公寓","lon":"121.44932165","lat":"31.190274594","category":"500","category_name":"未知分类","address":"上海市斜土路2200弄"},{"poiid":"B2094654DA6EA2F54893","title":"宛轻商务楼","lon":"121.44778","lat":"31.19141","category":"46","category_name":"楼宇","address":"宛平南路381"},{"poiid":"B2094757DA6EA4FD409C","title":"韩元庄","lon":"121.447621","lat":"31.190539","category":"247","category_name":"餐饮美食","address":"徐汇区宛平南路404号(近零陵路)"},{"poiid":"B2094654DA6DA1FC469B","title":"偶巴尔坛宛平南路店","lon":"121.44765","lat":"31.19048","category":"96","category_name":"韩国料理","address":"徐汇区宛平南路404"},{"poiid":"B2094654DA6DA2F44092","title":"雅舍宾馆","lon":"121.44844","lat":"31.18868","category":"250","category_name":"公园户外","address":"徐汇区宛平南路590号(近零陵路)"},{"poiid":"B2094757D16FA2FE459E","title":"秦淮坊一品灌汤包(宛平南路店)","lon":"121.44599","lat":"31.19395","category":"68","category_name":"快餐厅","address":"徐汇区宛平南路160号(近辛耕路)"},{"poiid":"B2094654DA6EA1FC4293","title":"东方有线网络有限公司徐汇分公司(斜土路)","lon":"121.44921","lat":"31.19255","category":"263","category_name":"公司","address":"斜土路2300、2302"},{"poiid":"B2094654DA6EA2F5419F","title":"恒昌花园B座","lon":"121.44941","lat":"31.18903","category":"46","category_name":"楼宇","address":""},{"poiid":"B2094757D468A0FB4198","title":"重庆酸菜鱼","lon":"121.447260054","lat":"31.190825793","category":"71","category_name":"四川菜","address":"徐汇区宛平南路400号(近斜土路)"},{"poiid":"B2094757D16FA7FF459F","title":"上海中医药大学附属龙华医院血液科","lon":"121.449080886","lat":"31.1891522279","category":"500","category_name":"未知分类","address":"上海市宛平南路725号住院部东十一楼"},{"poiid":"B2094757D06BA0FA4798","title":"趣奇网KUUKIE.com","lon":"121.44636324","lat":"31.191153547","category":"46","category_name":"楼宇","address":"上海斜土路2430号海螺花园"},{"poiid":"B2094757D569A3FB4493","title":"徐家汇花园二期","lon":"121.4478072","lat":"31.19344306","category":"47","category_name":"住宅区","address":"徐家汇花园二期位于徐汇宛平南路233弄"},{"poiid":"B2094655D265A0FB4599","title":"徐汇尚座","lon":"121.44759","lat":"31.18979","category":"47","category_name":"住宅区","address":"徐汇尚座位于徐汇宛平南路470号"},{"poiid":"B2094750D364A7FB4198","title":"茜尔维亚修身连锁会所","lon":"121.44935","lat":"31.19256","category":"148","category_name":"美容美发店","address":"徐汇区华山路2088号汇银广场南楼1606(近肇嘉浜路)"},{"poiid":"B2094655D26CA4FA4099","title":"海螺花园(东门)","lon":"121.44741","lat":"31.19081","category":"47","category_name":"住宅区","address":"宛平南路388弄1-6号"},{"poiid":"B2094757D165A5FA479C","title":"徐家汇街道办事处","lon":"121.445613586","lat":"31.1912206683","category":"500","category_name":"未知分类","address":"上海斜土路2431号"},{"poiid":"B2094654DA6DA0FB469C","title":"明达公寓","lon":"121.448","lat":"31.1932","category":"46","category_name":"楼宇","address":"徐汇区天钥桥路408号(近慈云街)"},{"poiid":"B2094654DB69A5F4499F","title":"避风塘(宛平店)","lon":"121.4471","lat":"31.19285","category":"66","category_name":"茶艺馆","address":"徐汇区宛平南路275号"},{"poiid":"B2094654DA6EA2F5469B","title":"恒昌花园A座","lon":"121.44911","lat":"31.18914","category":"47","category_name":"住宅区","address":"宛平南路521"},{"poiid":"B2094655D26FA0F5429D","title":"东安三村(零陵路)","lon":"121.45021","lat":"31.18993","category":"47","category_name":"住宅区","address":"徐汇区零陵路天钥新村27号"},{"poiid":"B2094757D06FA3FD4593","title":"三人行骨头王火锅(南丹东路店)","lon":"121.44566357","lat":"31.190540663","category":"86","category_name":"火锅店","address":"徐汇区南丹东路8号(斜土路口)"},{"poiid":"B2094757D068A2FE4098","title":"复茂小龙虾 宛平南路店","lon":"121.44731483072","lat":"31.190466090829","category":"68","category_name":"快餐厅","address":"徐汇区宛平南路400号(近斜土路)"},{"poiid":"B2094757D06FA5FD4092","title":"天天周末(斜土路店)","lon":"121.44957","lat":"31.19228","category":"173","category_name":"游戏厅","address":"徐汇区斜土路2200弄8号(近东安路)"},{"poiid":"B2094757D068ABF94398","title":"Blue Frog","lon":"121.44707489","lat":"31.1903934479","category":"500","category_name":"未知分类","address":"上海致真汇  徐汇区辛耕路109号永新坊1-2楼(近天钥桥路)  "},{"poiid":"B2094655D26EA2F4449B","title":"衡山小馆斜土路店","lon":"121.44648","lat":"31.1911","category":"72","category_name":"广东菜","address":"徐汇区斜土路2428号海螺花园(近宛平南路)"},{"poiid":"B2094757D06FA4FD489E","title":"苏武牧羊(徐汇店)","lon":"121.44805","lat":"31.19126","category":"86","category_name":"火锅店","address":"徐汇区斜土路2422号(近宛平南路)"},{"poiid":"B2094655D26BA3FC4392","title":"福地大酒店","lon":"121.4476610206","lat":"31.189998994849","category":"76","category_name":"上海菜","address":"徐汇区宛平南路465号(零陵路斜土路间)"},{"poiid":"B2094757D069A3F54599","title":"斜土路宛平南路","lon":"121.44817258","lat":"31.193041703","category":"500","category_name":"未知分类","address":"上海市徐汇区肇嘉浜路"},{"poiid":"B2094757D068A1F4449D","title":"花乐·神田川","lon":"121.446604928","lat":"31.1918430256","category":"95","category_name":"日本料理","address":"徐汇区斜土路2421号4号楼(近宛平南路)"},{"poiid":"B2094654DB69A5FD4299","title":"锦江之星(宛平南路店)","lon":"121.44693","lat":"31.19016","category":"216","category_name":"经济型连锁酒店","address":"徐汇区宛平南路404号(近零陵路)"},{"poiid":"B2094757DA6FA1FE4399","title":"梅赛德斯-奔驰文化中心","lon":"121.448848","lat":"31.191104","category":"248","category_name":"生活娱乐","address":"浦东世博大道1200号"},{"poiid":"B2094757D069A3FB4092","title":"英雄大厦","lon":"121.449","lat":"31.192","category":"46","category_name":"楼宇","address":"丰台学城海鹰路1号"},{"poiid":"B2094655D268A7F8459E","title":"电影华苑","lon":"121.446","lat":"31.1901","category":"47","category_name":"住宅区","address":"上海市徐汇区零陵路751号"},{"poiid":"B2094750DB64A0FE469E","title":"牛New壽喜燒","lon":"121.447868","lat":"31.190422","category":"247","category_name":"餐饮美食","address":"天鈅橋路131號 永新坊"},{"poiid":"B2094654DB6BA5F8429E","title":"莫泰168连锁旅店(宛平南路店)","lon":"121.44722","lat":"31.19062","category":"216","category_name":"经济型连锁酒店","address":"上海市宛平南路400号（近斜土路）"},{"poiid":"B2094751D269A6F44599","title":"上海南站","lon":"121.4478","lat":"31.1901","category":"500","category_name":"未知分类","address":null},{"poiid":"B2094757D068A2FD489A","title":"京世造型(宛平店)","lon":"121.446784","lat":"31.192901","category":"148","category_name":"美容美发店","address":"上海徐汇区宛平南路271号"},{"poiid":"B2094655D26BA2FE489A","title":"宛平南路","lon":"121.44806","lat":"31.19217","category":"38","category_name":"公交车站","address":""},{"poiid":"B2094655D26AA6FE429D","title":"圆苑酒家宛平南路店","lon":"121.44832","lat":"31.18921","category":"76","category_name":"上海菜","address":"徐汇区宛平南路550号(近零陵路)"},{"poiid":"B2094757D06FA6F4439B","title":"85度C(南丹店)","lon":"121.445687517","lat":"31.1907925339","category":"112","category_name":"糕饼店","address":"徐汇区南丹东路8号(近斜土路)"},{"poiid":"B2094757D769A7F54193","title":"东北四季饺子王 宛平南路店","lon":"121.44769328637","lat":"31.189409271872","category":"82","category_name":"东北菜","address":"徐汇区宛平南路520号(近零陵路)"},{"poiid":"B2094654DA6DA2FB499A","title":"海洋石油大厦","lon":"121.44766","lat":"31.18876","category":"46","category_name":"楼宇","address":"北一环与亳州路交叉口(庐阳区政府对面)"},{"poiid":"B2094655D26FA5FD4492","title":"谨斜小区","lon":"121.44878","lat":"31.193199","category":"47","category_name":"住宅区","address":"斜土路2167,2183,2365弄"},{"poiid":"B209475DDA6FA5FA4992","title":"上海八万人体育馆","lon":"121.447906","lat":"31.189407","category":"250","category_name":"公园户外","address":"上海市 天钥桥路666号"},{"poiid":"B2094757D068A0FD489E","title":"老娘舅 天钥桥路店","lon":"121.441437","lat":"31.192859","category":"68","category_name":"快餐厅","address":"徐汇区天钥桥路123号2楼(近辛耕路)"},{"poiid":"B2094654DA6DA1FC469F","title":"海螺花园(宛平南路)","lon":"121.44661","lat":"31.19069","category":"47","category_name":"住宅区","address":"宛平南路388弄1-6号"},{"poiid":"B2094654DB69AAF9419F","title":"湘轩土菜馆(徐家汇店)","lon":"121.44734","lat":"31.19093","category":"247","category_name":"餐饮美食","address":"徐汇区宛平南路368号(近斜土路)"},{"poiid":"B2094757D66DA1F94492","title":"泰勒瓦","lon":"121.448184586","lat":"31.1923228899","category":"172","category_name":"酒吧","address":"上海斜土路2129号"},{"poiid":"B2094654DB69A7F5449A","title":"爱达大厦","lon":"121.44848","lat":"31.1888","category":"46","category_name":"楼宇","address":"浦东区崂山东路410号"},{"poiid":"B2094654DA6DA1FC469A","title":"佳安公寓","lon":"121.44669","lat":"31.189707","category":"47","category_name":"住宅区","address":"宛平南路420弄1-14号"},{"poiid":"B2094757D069A7FD409F","title":"复旦大学红旗教师公寓","lon":"121.44932165","lat":"31.190274594","category":"500","category_name":"未知分类","address":"上海市斜土路2200弄"},{"poiid":"B2094654DA6EA2F54893","title":"宛轻商务楼","lon":"121.44778","lat":"31.19141","category":"46","category_name":"楼宇","address":"宛平南路381"},{"poiid":"B2094757DA6EA4FD409C","title":"韩元庄","lon":"121.447621","lat":"31.190539","category":"247","category_name":"餐饮美食","address":"徐汇区宛平南路404号(近零陵路)"},{"poiid":"B2094654DA6DA1FC469B","title":"偶巴尔坛宛平南路店","lon":"121.44765","lat":"31.19048","category":"96","category_name":"韩国料理","address":"徐汇区宛平南路404"},{"poiid":"B2094654DA6DA2F44092","title":"雅舍宾馆","lon":"121.44844","lat":"31.18868","category":"250","category_name":"公园户外","address":"徐汇区宛平南路590号(近零陵路)"},{"poiid":"B2094757D16FA2FE459E","title":"秦淮坊一品灌汤包(宛平南路店)","lon":"121.44599","lat":"31.19395","category":"68","category_name":"快餐厅","address":"徐汇区宛平南路160号(近辛耕路)"},{"poiid":"B2094654DA6EA1FC4293","title":"东方有线网络有限公司徐汇分公司(斜土路)","lon":"121.44921","lat":"31.19255","category":"263","category_name":"公司","address":"斜土路2300、2302"},{"poiid":"B2094654DA6EA2F5419F","title":"恒昌花园B座","lon":"121.44941","lat":"31.18903","category":"46","category_name":"楼宇","address":""},{"poiid":"B2094757D468A0FB4198","title":"重庆酸菜鱼","lon":"121.447260054","lat":"31.190825793","category":"71","category_name":"四川菜","address":"徐汇区宛平南路400号(近斜土路)"},{"poiid":"B2094757D16FA7FF459F","title":"上海中医药大学附属龙华医院血液科","lon":"121.449080886","lat":"31.1891522279","category":"500","category_name":"未知分类","address":"上海市宛平南路725号住院部东十一楼"},{"poiid":"B2094757D06BA0FA4798","title":"趣奇网KUUKIE.com","lon":"121.44636324","lat":"31.191153547","category":"46","category_name":"楼宇","address":"上海斜土路2430号海螺花园"},{"poiid":"B2094757D569A3FB4493","title":"徐家汇花园二期","lon":"121.4478072","lat":"31.19344306","category":"47","category_name":"住宅区","address":"徐家汇花园二期位于徐汇宛平南路233弄"},{"poiid":"B2094655D265A0FB4599","title":"徐汇尚座","lon":"121.44759","lat":"31.18979","category":"47","category_name":"住宅区","address":"徐汇尚座位于徐汇宛平南路470号"},{"poiid":"B2094750D364A7FB4198","title":"茜尔维亚修身连锁会所","lon":"121.44935","lat":"31.19256","category":"148","category_name":"美容美发店","address":"徐汇区华山路2088号汇银广场南楼1606(近肇嘉浜路)"},{"poiid":"B2094655D26CA4FA4099","title":"海螺花园(东门)","lon":"121.44741","lat":"31.19081","category":"47","category_name":"住宅区","address":"宛平南路388弄1-6号"},{"poiid":"B2094757D165A5FA479C","title":"徐家汇街道办事处","lon":"121.445613586","lat":"31.1912206683","category":"500","category_name":"未知分类","address":"上海斜土路2431号"},{"poiid":"B2094654DA6DA0FB469C","title":"明达公寓","lon":"121.448","lat":"31.1932","category":"46","category_name":"楼宇","address":"徐汇区天钥桥路408号(近慈云街)"},{"poiid":"B2094654DB69A5F4499F","title":"避风塘(宛平店)","lon":"121.4471","lat":"31.19285","category":"66","category_name":"茶艺馆","address":"徐汇区宛平南路275号"},{"poiid":"B2094654DA6EA2F5469B","title":"恒昌花园A座","lon":"121.44911","lat":"31.18914","category":"47","category_name":"住宅区","address":"宛平南路521"},{"poiid":"B2094655D26FA0F5429D","title":"东安三村(零陵路)","lon":"121.45021","lat":"31.18993","category":"47","category_name":"住宅区","address":"徐汇区零陵路天钥新村27号"},{"poiid":"B2094757D06FA3FD4593","title":"三人行骨头王火锅(南丹东路店)","lon":"121.44566357","lat":"31.190540663","category":"86","category_name":"火锅店","address":"徐汇区南丹东路8号(斜土路口)"},{"poiid":"B2094757D068A2FE4098","title":"复茂小龙虾 宛平南路店","lon":"121.44731483072","lat":"31.190466090829","category":"68","category_name":"快餐厅","address":"徐汇区宛平南路400号(近斜土路)"},{"poiid":"B2094757D06FA5FD4092","title":"天天周末(斜土路店)","lon":"121.44957","lat":"31.19228","category":"173","category_name":"游戏厅","address":"徐汇区斜土路2200弄8号(近东安路)"},{"poiid":"B2094757D068ABF94398","title":"Blue Frog","lon":"121.44707489","lat":"31.1903934479","category":"500","category_name":"未知分类","address":"上海致真汇  徐汇区辛耕路109号永新坊1-2楼(近天钥桥路)  "},{"poiid":"B2094655D26EA2F4449B","title":"衡山小馆斜土路店","lon":"121.44648","lat":"31.1911","category":"72","category_name":"广东菜","address":"徐汇区斜土路2428号海螺花园(近宛平南路)"},{"poiid":"B2094757D06FA4FD489E","title":"苏武牧羊(徐汇店)","lon":"121.44805","lat":"31.19126","category":"86","category_name":"火锅店","address":"徐汇区斜土路2422号(近宛平南路)"},{"poiid":"B2094655D26BA3FC4392","title":"福地大酒店","lon":"121.4476610206","lat":"31.189998994849","category":"76","category_name":"上海菜","address":"徐汇区宛平南路465号(零陵路斜土路间)"},{"poiid":"B2094757D069A3F54599","title":"斜土路宛平南路","lon":"121.44817258","lat":"31.193041703","category":"500","category_name":"未知分类","address":"上海市徐汇区肇嘉浜路"},{"poiid":"B2094757D068A1F4449D","title":"花乐·神田川","lon":"121.446604928","lat":"31.1918430256","category":"95","category_name":"日本料理","address":"徐汇区斜土路2421号4号楼(近宛平南路)"},{"poiid":"B2094654DB69A5FD4299","title":"锦江之星(宛平南路店)","lon":"121.44693","lat":"31.19016","category":"216","category_name":"经济型连锁酒店","address":"徐汇区宛平南路404号(近零陵路)"},{"poiid":"B2094757DA6FA1FE4399","title":"梅赛德斯-奔驰文化中心","lon":"121.448848","lat":"31.191104","category":"248","category_name":"生活娱乐","address":"浦东世博大道1200号"},{"poiid":"B2094757D069A3FB4092","title":"英雄大厦","lon":"121.449","lat":"31.192","category":"46","category_name":"楼宇","address":"丰台学城海鹰路1号"},{"poiid":"B2094655D268A7F8459E","title":"电影华苑","lon":"121.446","lat":"31.1901","category":"47","category_name":"住宅区","address":"上海市徐汇区零陵路751号"},{"poiid":"B2094750DB64A0FE469E","title":"牛New壽喜燒","lon":"121.447868","lat":"31.190422","category":"247","category_name":"餐饮美食","address":"天鈅橋路131號 永新坊"},{"poiid":"B2094654DB6BA5F8429E","title":"莫泰168连锁旅店(宛平南路店)","lon":"121.44722","lat":"31.19062","category":"216","category_name":"经济型连锁酒店","address":"上海市宛平南路400号（近斜土路）"},{"poiid":"B2094751D269A6F44599","title":"上海南站","lon":"121.4478","lat":"31.1901","category":"500","category_name":"未知分类","address":null},{"poiid":"B2094757D068A2FD489A","title":"京世造型(宛平店)","lon":"121.446784","lat":"31.192901","category":"148","category_name":"美容美发店","address":"上海徐汇区宛平南路271号"},{"poiid":"B2094655D26BA2FE489A","title":"宛平南路","lon":"121.44806","lat":"31.19217","category":"38","category_name":"公交车站","address":""},{"poiid":"B2094655D26AA6FE429D","title":"圆苑酒家宛平南路店","lon":"121.44832","lat":"31.18921","category":"76","category_name":"上海菜","address":"徐汇区宛平南路550号(近零陵路)"},{"poiid":"B2094757D06FA6F4439B","title":"85度C(南丹店)","lon":"121.445687517","lat":"31.1907925339","category":"112","category_name":"糕饼店","address":"徐汇区南丹东路8号(近斜土路)"},{"poiid":"B2094757D769A7F54193","title":"东北四季饺子王 宛平南路店","lon":"121.44769328637","lat":"31.189409271872","category":"82","category_name":"东北菜","address":"徐汇区宛平南路520号(近零陵路)"},{"poiid":"B2094654DA6DA2FB499A","title":"海洋石油大厦","lon":"121.44766","lat":"31.18876","category":"46","category_name":"楼宇","address":"北一环与亳州路交叉口(庐阳区政府对面)"},{"poiid":"B2094655D26FA5FD4492","title":"谨斜小区","lon":"121.44878","lat":"31.193199","category":"47","category_name":"住宅区","address":"斜土路2167,2183,2365弄"},{"poiid":"B209475DDA6FA5FA4992","title":"上海八万人体育馆","lon":"121.447906","lat":"31.189407","category":"250","category_name":"公园户外","address":"上海市 天钥桥路666号"},{"poiid":"B2094757D068A0FD489E","title":"老娘舅 天钥桥路店","lon":"121.441437","lat":"31.192859","category":"68","category_name":"快餐厅","address":"徐汇区天钥桥路123号2楼(近辛耕路)"},{"poiid":"B2094654DA6DA1FC469F","title":"海螺花园(宛平南路)","lon":"121.44661","lat":"31.19069","category":"47","category_name":"住宅区","address":"宛平南路388弄1-6号"},{"poiid":"B2094654DB69AAF9419F","title":"湘轩土菜馆(徐家汇店)","lon":"121.44734","lat":"31.19093","category":"247","category_name":"餐饮美食","address":"徐汇区宛平南路368号(近斜土路)"},{"poiid":"B2094757D66DA1F94492","title":"泰勒瓦","lon":"121.448184586","lat":"31.1923228899","category":"172","category_name":"酒吧","address":"上海斜土路2129号"},{"poiid":"B2094654DB69A7F5449A","title":"爱达大厦","lon":"121.44848","lat":"31.1888","category":"46","category_name":"楼宇","address":"浦东区崂山东路410号"},{"poiid":"B2094654DA6DA1FC469A","title":"佳安公寓","lon":"121.44669","lat":"31.189707","category":"47","category_name":"住宅区","address":"宛平南路420弄1-14号"},{"poiid":"B2094757D069A7FD409F","title":"复旦大学红旗教师公寓","lon":"121.44932165","lat":"31.190274594","category":"500","category_name":"未知分类","address":"上海市斜土路2200弄"},{"poiid":"B2094654DA6EA2F54893","title":"宛轻商务楼","lon":"121.44778","lat":"31.19141","category":"46","category_name":"楼宇","address":"宛平南路381"},{"poiid":"B2094757DA6EA4FD409C","title":"韩元庄","lon":"121.447621","lat":"31.190539","category":"247","category_name":"餐饮美食","address":"徐汇区宛平南路404号(近零陵路)"},{"poiid":"B2094654DA6DA1FC469B","title":"偶巴尔坛宛平南路店","lon":"121.44765","lat":"31.19048","category":"96","category_name":"韩国料理","address":"徐汇区宛平南路404"},{"poiid":"B2094654DA6DA2F44092","title":"雅舍宾馆","lon":"121.44844","lat":"31.18868","category":"250","category_name":"公园户外","address":"徐汇区宛平南路590号(近零陵路)"},{"poiid":"B2094757D16FA2FE459E","title":"秦淮坊一品灌汤包(宛平南路店)","lon":"121.44599","lat":"31.19395","category":"68","category_name":"快餐厅","address":"徐汇区宛平南路160号(近辛耕路)"},{"poiid":"B2094654DA6EA1FC4293","title":"东方有线网络有限公司徐汇分公司(斜土路)","lon":"121.44921","lat":"31.19255","category":"263","category_name":"公司","address":"斜土路2300、2302"},{"poiid":"B2094654DA6EA2F5419F","title":"恒昌花园B座","lon":"121.44941","lat":"31.18903","category":"46","category_name":"楼宇","address":""},{"poiid":"B2094757D468A0FB4198","title":"重庆酸菜鱼","lon":"121.447260054","lat":"31.190825793","category":"71","category_name":"四川菜","address":"徐汇区宛平南路400号(近斜土路)"},{"poiid":"B2094757D16FA7FF459F","title":"上海中医药大学附属龙华医院血液科","lon":"121.449080886","lat":"31.1891522279","category":"500","category_name":"未知分类","address":"上海市宛平南路725号住院部东十一楼"},{"poiid":"B2094757D06BA0FA4798","title":"趣奇网KUUKIE.com","lon":"121.44636324","lat":"31.191153547","category":"46","category_name":"楼宇","address":"上海斜土路2430号海螺花园"},{"poiid":"B2094757D569A3FB4493","title":"徐家汇花园二期","lon":"121.4478072","lat":"31.19344306","category":"47","category_name":"住宅区","address":"徐家汇花园二期位于徐汇宛平南路233弄"},{"poiid":"B2094655D265A0FB4599","title":"徐汇尚座","lon":"121.44759","lat":"31.18979","category":"47","category_name":"住宅区","address":"徐汇尚座位于徐汇宛平南路470号"},{"poiid":"B2094750D364A7FB4198","title":"茜尔维亚修身连锁会所","lon":"121.44935","lat":"31.19256","category":"148","category_name":"美容美发店","address":"徐汇区华山路2088号汇银广场南楼1606(近肇嘉浜路)"},{"poiid":"B2094655D26CA4FA4099","title":"海螺花园(东门)","lon":"121.44741","lat":"31.19081","category":"47","category_name":"住宅区","address":"宛平南路388弄1-6号"},{"poiid":"B2094757D165A5FA479C","title":"徐家汇街道办事处","lon":"121.445613586","lat":"31.1912206683","category":"500","category_name":"未知分类","address":"上海斜土路2431号"},{"poiid":"B2094654DA6DA0FB469C","title":"明达公寓","lon":"121.448","lat":"31.1932","category":"46","category_name":"楼宇","address":"徐汇区天钥桥路408号(近慈云街)"},{"poiid":"B2094654DB69A5F4499F","title":"避风塘(宛平店)","lon":"121.4471","lat":"31.19285","category":"66","category_name":"茶艺馆","address":"徐汇区宛平南路275号"},{"poiid":"B2094654DA6EA2F5469B","title":"恒昌花园A座","lon":"121.44911","lat":"31.18914","category":"47","category_name":"住宅区","address":"宛平南路521"},{"poiid":"B2094655D26FA0F5429D","title":"东安三村(零陵路)","lon":"121.45021","lat":"31.18993","category":"47","category_name":"住宅区","address":"徐汇区零陵路天钥新村27号"},{"poiid":"B2094757D06FA3FD4593","title":"三人行骨头王火锅(南丹东路店)","lon":"121.44566357","lat":"31.190540663","category":"86","category_name":"火锅店","address":"徐汇区南丹东路8号(斜土路口)"},{"poiid":"B2094757D068A2FE4098","title":"复茂小龙虾 宛平南路店","lon":"121.44731483072","lat":"31.190466090829","category":"68","category_name":"快餐厅","address":"徐汇区宛平南路400号(近斜土路)"},{"poiid":"B2094757D06FA5FD4092","title":"天天周末(斜土路店)","lon":"121.44957","lat":"31.19228","category":"173","category_name":"游戏厅","address":"徐汇区斜土路2200弄8号(近东安路)"},{"poiid":"B2094757D068ABF94398","title":"Blue Frog","lon":"121.44707489","lat":"31.1903934479","category":"500","category_name":"未知分类","address":"上海致真汇  徐汇区辛耕路109号永新坊1-2楼(近天钥桥路)  "},{"poiid":"B2094655D26EA2F4449B","title":"衡山小馆斜土路店","lon":"121.44648","lat":"31.1911","category":"72","category_name":"广东菜","address":"徐汇区斜土路2428号海螺花园(近宛平南路)"},{"poiid":"B2094757D06FA4FD489E","title":"苏武牧羊(徐汇店)","lon":"121.44805","lat":"31.19126","category":"86","category_name":"火锅店","address":"徐汇区斜土路2422号(近宛平南路)"},{"poiid":"B2094655D26BA3FC4392","title":"福地大酒店","lon":"121.4476610206","lat":"31.189998994849","category":"76","category_name":"上海菜","address":"徐汇区宛平南路465号(零陵路斜土路间)"},{"poiid":"B2094757D069A3F54599","title":"斜土路宛平南路","lon":"121.44817258","lat":"31.193041703","category":"500","category_name":"未知分类","address":"上海市徐汇区肇嘉浜路"},{"poiid":"B2094757D068A1F4449D","title":"花乐·神田川","lon":"121.446604928","lat":"31.1918430256","category":"95","category_name":"日本料理","address":"徐汇区斜土路2421号4号楼(近宛平南路)"},{"poiid":"B2094654DB69A5FD4299","title":"锦江之星(宛平南路店)","lon":"121.44693","lat":"31.19016","category":"216","category_name":"经济型连锁酒店","address":"徐汇区宛平南路404号(近零陵路)"},{"poiid":"B2094757DA6FA1FE4399","title":"梅赛德斯-奔驰文化中心","lon":"121.448848","lat":"31.191104","category":"248","category_name":"生活娱乐","address":"浦东世博大道1200号"},{"poiid":"B2094757D069A3FB4092","title":"英雄大厦","lon":"121.449","lat":"31.192","category":"46","category_name":"楼宇","address":"丰台学城海鹰路1号"},{"poiid":"B2094655D268A7F8459E","title":"电影华苑","lon":"121.446","lat":"31.1901","category":"47","category_name":"住宅区","address":"上海市徐汇区零陵路751号"},{"poiid":"B2094750DB64A0FE469E","title":"牛New壽喜燒","lon":"121.447868","lat":"31.190422","category":"247","category_name":"餐饮美食","address":"天鈅橋路131號 永新坊"},{"poiid":"B2094654DB6BA5F8429E","title":"莫泰168连锁旅店(宛平南路店)","lon":"121.44722","lat":"31.19062","category":"216","category_name":"经济型连锁酒店","address":"上海市宛平南路400号（近斜土路）"},{"poiid":"B2094751D269A6F44599","title":"上海南站","lon":"121.4478","lat":"31.1901","category":"500","category_name":"未知分类","address":null},{"poiid":"B2094757D068A2FD489A","title":"京世造型(宛平店)","lon":"121.446784","lat":"31.192901","category":"148","category_name":"美容美发店","address":"上海徐汇区宛平南路271号"},{"poiid":"B2094655D26BA2FE489A","title":"宛平南路","lon":"121.44806","lat":"31.19217","category":"38","category_name":"公交车站","address":""},{"poiid":"B2094655D26AA6FE429D","title":"圆苑酒家宛平南路店","lon":"121.44832","lat":"31.18921","category":"76","category_name":"上海菜","address":"徐汇区宛平南路550号(近零陵路)"},{"poiid":"B2094757D06FA6F4439B","title":"85度C(南丹店)","lon":"121.445687517","lat":"31.1907925339","category":"112","category_name":"糕饼店","address":"徐汇区南丹东路8号(近斜土路)"},{"poiid":"B2094757D769A7F54193","title":"东北四季饺子王 宛平南路店","lon":"121.44769328637","lat":"31.189409271872","category":"82","category_name":"东北菜","address":"徐汇区宛平南路520号(近零陵路)"},{"poiid":"B2094654DA6DA2FB499A","title":"海洋石油大厦","lon":"121.44766","lat":"31.18876","category":"46","category_name":"楼宇","address":"北一环与亳州路交叉口(庐阳区政府对面)"},{"poiid":"B2094655D26FA5FD4492","title":"谨斜小区","lon":"121.44878","lat":"31.193199","category":"47","category_name":"住宅区","address":"斜土路2167,2183,2365弄"},{"poiid":"B209475DDA6FA5FA4992","title":"上海八万人体育馆","lon":"121.447906","lat":"31.189407","category":"250","category_name":"公园户外","address":"上海市 天钥桥路666号"},{"poiid":"B2094757D068A0FD489E","title":"老娘舅 天钥桥路店","lon":"121.441437","lat":"31.192859","category":"68","category_name":"快餐厅","address":"徐汇区天钥桥路123号2楼(近辛耕路)"},{"poiid":"B2094654DA6DA1FC469F","title":"海螺花园(宛平南路)","lon":"121.44661","lat":"31.19069","category":"47","category_name":"住宅区","address":"宛平南路388弄1-6号"},{"poiid":"B2094654DB69AAF9419F","title":"湘轩土菜馆(徐家汇店)","lon":"121.44734","lat":"31.19093","category":"247","category_name":"餐饮美食","address":"徐汇区宛平南路368号(近斜土路)"},{"poiid":"B2094757D66DA1F94492","title":"泰勒瓦","lon":"121.448184586","lat":"31.1923228899","category":"172","category_name":"酒吧","address":"上海斜土路2129号"},{"poiid":"B2094654DB69A7F5449A","title":"爱达大厦","lon":"121.44848","lat":"31.1888","category":"46","category_name":"楼宇","address":"浦东区崂山东路410号"},{"poiid":"B2094654DA6DA1FC469A","title":"佳安公寓","lon":"121.44669","lat":"31.189707","category":"47","category_name":"住宅区","address":"宛平南路420弄1-14号"},{"poiid":"B2094757D069A7FD409F","title":"复旦大学红旗教师公寓","lon":"121.44932165","lat":"31.190274594","category":"500","category_name":"未知分类","address":"上海市斜土路2200弄"},{"poiid":"B2094654DA6EA2F54893","title":"宛轻商务楼","lon":"121.44778","lat":"31.19141","category":"46","category_name":"楼宇","address":"宛平南路381"},{"poiid":"B2094757DA6EA4FD409C","title":"韩元庄","lon":"121.447621","lat":"31.190539","category":"247","category_name":"餐饮美食","address":"徐汇区宛平南路404号(近零陵路)"},{"poiid":"B2094654DA6DA1FC469B","title":"偶巴尔坛宛平南路店","lon":"121.44765","lat":"31.19048","category":"96","category_name":"韩国料理","address":"徐汇区宛平南路404"},{"poiid":"B2094654DA6DA2F44092","title":"雅舍宾馆","lon":"121.44844","lat":"31.18868","category":"250","category_name":"公园户外","address":"徐汇区宛平南路590号(近零陵路)"},{"poiid":"B2094757D16FA2FE459E","title":"秦淮坊一品灌汤包(宛平南路店)","lon":"121.44599","lat":"31.19395","category":"68","category_name":"快餐厅","address":"徐汇区宛平南路160号(近辛耕路)"},{"poiid":"B2094654DA6EA1FC4293","title":"东方有线网络有限公司徐汇分公司(斜土路)","lon":"121.44921","lat":"31.19255","category":"263","category_name":"公司","address":"斜土路2300、2302"},{"poiid":"B2094654DA6EA2F5419F","title":"恒昌花园B座","lon":"121.44941","lat":"31.18903","category":"46","category_name":"楼宇","address":""},{"poiid":"B2094757D468A0FB4198","title":"重庆酸菜鱼","lon":"121.447260054","lat":"31.190825793","category":"71","category_name":"四川菜","address":"徐汇区宛平南路400号(近斜土路)"},{"poiid":"B2094757D16FA7FF459F","title":"上海中医药大学附属龙华医院血液科","lon":"121.449080886","lat":"31.1891522279","category":"500","category_name":"未知分类","address":"上海市宛平南路725号住院部东十一楼"},{"poiid":"B2094757D06BA0FA4798","title":"趣奇网KUUKIE.com","lon":"121.44636324","lat":"31.191153547","category":"46","category_name":"楼宇","address":"上海斜土路2430号海螺花园"},{"poiid":"B2094757D569A3FB4493","title":"徐家汇花园二期","lon":"121.4478072","lat":"31.19344306","category":"47","category_name":"住宅区","address":"徐家汇花园二期位于徐汇宛平南路233弄"},{"poiid":"B2094655D265A0FB4599","title":"徐汇尚座","lon":"121.44759","lat":"31.18979","category":"47","category_name":"住宅区","address":"徐汇尚座位于徐汇宛平南路470号"},{"poiid":"B2094750D364A7FB4198","title":"茜尔维亚修身连锁会所","lon":"121.44935","lat":"31.19256","category":"148","category_name":"美容美发店","address":"徐汇区华山路2088号汇银广场南楼1606(近肇嘉浜路)"},{"poiid":"B2094655D26CA4FA4099","title":"海螺花园(东门)","lon":"121.44741","lat":"31.19081","category":"47","category_name":"住宅区","address":"宛平南路388弄1-6号"},{"poiid":"B2094757D165A5FA479C","title":"徐家汇街道办事处","lon":"121.445613586","lat":"31.1912206683","category":"500","category_name":"未知分类","address":"上海斜土路2431号"},{"poiid":"B2094654DA6DA0FB469C","title":"明达公寓","lon":"121.448","lat":"31.1932","category":"46","category_name":"楼宇","address":"徐汇区天钥桥路408号(近慈云街)"},{"poiid":"B2094654DB69A5F4499F","title":"避风塘(宛平店)","lon":"121.4471","lat":"31.19285","category":"66","category_name":"茶艺馆","address":"徐汇区宛平南路275号"},{"poiid":"B2094654DA6EA2F5469B","title":"恒昌花园A座","lon":"121.44911","lat":"31.18914","category":"47","category_name":"住宅区","address":"宛平南路521"},{"poiid":"B2094655D26FA0F5429D","title":"东安三村(零陵路)","lon":"121.45021","lat":"31.18993","category":"47","category_name":"住宅区","address":"徐汇区零陵路天钥新村27号"}]