[{"poiid":"B2094757D06EAAF9439B","title":"查餐厅 辛耕路店 Cha's","lon":"121.442147","lat":"31.192063","category":"72","category_name":"广东菜","address":"徐汇区天钥桥路131号永新坊B1楼18号(近辛耕路)"},{"poiid":"B2094757D06EAAFB4599","title":"夏朵西餐厅","lon":"121.44222758","lat":"31.191409672","category":"94","category_name":"西餐厅","address":"徐汇区天钥桥路214号哈尼美食广场3楼(近南丹东路)"},{"poiid":"B2094757D06EAAFC489C","title":"糖品","lon":"121.44309857","lat":"31.192405671","category":"67","category_name":"甜品店","address":"徐汇区天钥桥路133号永新坊1楼7号铺(近辛耕路)"},{"poiid":"B2094655D26EA1FB419D","title":"耶里夏丽 南丹店","lon":"121.442819054","lat":"31.189709793","category":"90","category_name":"清真餐馆","address":"徐汇区南丹东路106号(近天钥桥路)"},{"poiid":"B2094654DA6DA0FC459F","title":"永新坊","lon":"121.44261","lat":"31.19207","category":"116","category_name":"特色商业街","address":"徐汇区天钥桥路131号(近辛耕路)"},{"poiid":"B2094655D26EA6F94899","title":"德林酸菜鱼(南丹店)","lon":"121.44148","lat":"31.19023","category":"257","category_name":"中餐厅","address":"徐汇区南丹东路157号(近天钥桥路)"},{"poiid":"B2094655D26CA7F44092","title":"蓝蛙","lon":"121.44234","lat":"31.19201","category":"260","category_name":"其他","address":"徐汇区天钥桥路131号永新广场B1楼(近辛耕路)"},{"poiid":"B2094757D06FA3F4419D","title":"西堤牛排(天钥桥店)","lon":"121.44269","lat":"31.19013","category":"94","category_name":"西餐厅","address":"徐汇区天钥桥路315号4楼(近南丹东路)"},{"poiid":"B2094757D06AA0FA489C","title":"金桂皇朝 永新坊店","lon":"121.4425068","lat":"31.1920975","category":"72","category_name":"广东菜","address":"徐汇区天钥桥路131号永新坊B1楼16室(近辛耕路)"},{"poiid":"B2094654DB6AA2FF439B","title":"吴记老锅底麻辣火锅(天钥桥路店)","lon":"121.44203","lat":"31.19098","category":"86","category_name":"火锅店","address":"徐汇区天钥桥路212号(近辛耕路)"},{"poiid":"B2094757D06FA1FE479D","title":"嘉汇华美达大酒店(Ramada Plaza Gateway Shanghai)","lon":"121.443315569","lat":"31.1892276703","category":"213","category_name":"五星级宾馆","address":"徐汇区天钥桥路325号-327号(近南丹东路)"},{"poiid":"B2094654DA6DA0F84598","title":"飞洲国际广场","lon":"121.444","lat":"31.1895","category":"249","category_name":"购物服务","address":"长宁路1158号贝多芬广场618室"},{"poiid":"B2094757D06EAAFD4998","title":"PANKOO釜山料理(天钥桥店)","lon":"121.44188","lat":"31.19158","category":"96","category_name":"韩国料理","address":"上海徐汇区天钥桥路131号永新坊B1楼(近辛耕路)"},{"poiid":"B2094757D06FA3FE489D","title":"蜀府 天钥桥路店","lon":"121.44233465195","lat":"31.19178649405","category":"71","category_name":"四川菜","address":"徐汇区天钥桥路133号永新坊步行街2楼(近辛耕路)"},{"poiid":"B2094757D06EAAF44999","title":"鲜芋仙(天钥桥路店)","lon":"121.442054686","lat":"31.1897338393","category":"67","category_name":"甜品店","address":"徐汇区天钥桥路307号(南丹东路口)"},{"poiid":"B2094757D06FA3F8459C","title":"上海大饭堂","lon":"121.44217","lat":"31.18985","category":"76","category_name":"上海菜","address":"徐汇区天钥桥路220号(近南丹东路)"},{"poiid":"B2094757D06FA0FA4193","title":"lemon grass 柠檬草泰菜","lon":"121.44238281","lat":"31.191249847","category":"110","category_name":"其他亚洲菜","address":"上海天钥桥路131号永新坊地下一楼06室"},{"poiid":"B2094757D06FA1F94599","title":"天天渔港(徐汇店)","lon":"121.44257","lat":"31.19222","category":"72","category_name":"广东菜","address":"徐汇区天钥桥路123号5-6楼(近辛耕路)"},{"poiid":"B2094757D06FA2F8449E","title":"许留山(美罗店)","lon":"121.43964","lat":"31.19392","category":"67","category_name":"甜品店","address":"徐汇区肇嘉浜路1111号美罗城B1楼(近漕溪北路)"},{"poiid":"B2094757D06EAAFE419D","title":"鼎中鼎澳门豆捞 天钥桥店 Macao Dolar","lon":"121.44219","lat":"31.18893","category":"86","category_name":"火锅店","address":"上海徐汇区天钥桥路323号美城天地3楼(近慈云街)"},{"poiid":"B2094757DA68ABFA429D","title":"豆捞坊 徐汇店 Dolar Shop","lon":"121.441896054","lat":"31.191227793","category":"86","category_name":"火锅店","address":"徐汇区天钥桥路214号哈尼美食广场4-5楼(近南丹东路)"},{"poiid":"B2094757D06FA4F4429E","title":"海上阿叔(徐汇店)","lon":"121.44292","lat":"31.1905","category":"76","category_name":"上海菜","address":"徐汇区天钥桥路211号2楼(近南丹东路)"},{"poiid":"B2094757D06FA1F54693","title":"腾飞广场","lon":"121.44219","lat":"31.19006","category":"119","category_name":"商场","address":"徐汇区天钥桥路333号腾飞大厦内(近南丹东路)"},{"poiid":"B2094757D06EABF5469A","title":"卡乐星 美罗城店","lon":"121.439313","lat":"31.193569","category":"94","category_name":"西餐厅","address":"徐汇区肇嘉浜路1111号美罗城B1-33号(近漕溪北路)"},{"poiid":"B2094757D06FA3FC469E","title":"香辣虾爆爆椒干锅三绝(天钥桥路店)","lon":"121.442201586","lat":"31.1906066563","category":"71","category_name":"四川菜","address":"徐汇区天钥桥路315号3楼(近南丹路口)"},{"poiid":"B2094654DA6DA0FF499C","title":"避风塘 天钥桥路店","lon":"121.442166054","lat":"31.188890793","category":"72","category_name":"广东菜","address":"徐汇区天钥桥路333号腾飞大厦1-2楼(近南丹东路)"},{"poiid":"B2094757D06FA2F5439B","title":"徐汇区图书馆","lon":"121.444171458","lat":"31.1899963694","category":"181","category_name":"图书馆","address":"徐汇区南丹东路80号(近宛平南路/天钥桥路)"},{"poiid":"B2094757D06FA7FD4292","title":"小神田烧肉","lon":"121.44272","lat":"31.18986","category":"269","category_name":"烧烤","address":"徐汇区南丹东路111号(近天钥桥路)"},{"poiid":"B2094757D06BA2FB409E","title":"西提牛排","lon":"121.44414658","lat":"31.191991683","category":"247","category_name":"餐饮美食","address":"上海市徐汇区肇嘉浜路"},{"poiid":"B2094757D06FA7F4499F","title":"豪厨","lon":"121.44250558","lat":"31.190080646","category":"72","category_name":"广东菜","address":"徐汇区南丹东路118号1楼(近天钥桥路)"},{"poiid":"B2094757D06FA6F84693","title":"艺林盲人按摩院(徐汇店)","lon":"121.44342","lat":"31.18949","category":"149","category_name":"洗浴推拿场所","address":"徐汇区南丹东路100弄1号(近天钥桥路)"},{"poiid":"B209475CD064ABF4469E","title":"翠华餐厅 永新坊店","lon":"121.442058054","lat":"31.191960793","category":"72","category_name":"广东菜","address":"徐汇区天钥桥路永新坊133号地铺靠近辛耕路"},{"poiid":"B2094757D06FABFF4992","title":"天圣酸菜鱼火锅(南丹东路店)","lon":"121.44196","lat":"31.18986","category":"86","category_name":"火锅店","address":"徐汇区南丹东路157号(近天钥桥路)"},{"poiid":"B209475DD36DA3F44792","title":"辣府火锅 徐汇店","lon":"121.442474","lat":"31.190034","category":"247","category_name":"餐饮美食","address":"上海市徐汇区南丹东路108号2楼"},{"poiid":"B2094750D268A3F44993","title":"塔顶泰国菜","lon":"121.443313","lat":"31.192365","category":"247","category_name":"餐饮美食","address":null},{"poiid":"B2094751DA6DA2F8499D","title":"老工厂重庆火锅","lon":"121.44257","lat":"31.18958","category":"86","category_name":"火锅店","address":"徐汇区南丹东路108号(天钥桥路口)"},{"poiid":"B2094750D268A3FC4492","title":"烧肉达人(腾飞广场店)","lon":"121.4423963624572","lat":"31.18944563055144","category":"269","category_name":"烧烤","address":"徐汇区天钥桥路333号腾飞广场2楼201室(近南丹东路)"},{"poiid":"B2094757D068AAF8419C","title":"徐家汇社区文化中心","lon":"121.44399","lat":"31.19025","category":"179","category_name":"音乐厅","address":"上海徐汇区南丹东路109号(近天钥桥路)"},{"poiid":"B2094757D068A3FE4299","title":"食特美烧肉(徐家汇店)","lon":"121.44232","lat":"31.19044","category":"269","category_name":"烧烤","address":"上海徐汇区天钥桥路214号3楼(近南丹东路)  "},{"poiid":"B2094654DB6BA5F8419F","title":"萨莉亚 徐汇店 Saizeriya","lon":"121.44215200924","lat":"31.189608329","category":"94","category_name":"西餐厅","address":"徐汇区南丹东路108号2楼202室(近天钥桥路)"},{"poiid":"B2094757D068A6F84999","title":"阿玛尼护肤造型中心(天钥桥路店)","lon":"121.441825","lat":"31.191802","category":"148","category_name":"美容美发店","address":"上海徐汇区天钥桥路130号(近辛耕路)"},{"poiid":"B2094757DB69A1FB4699","title":"多喜寿司","lon":"121.4425068","lat":"31.1920975","category":"95","category_name":"日本料理","address":"徐汇区天钥桥路131号永新坊B1楼11室A(近辛耕路)"},{"poiid":"B2094654DA6DA2F54292","title":"沧浪亭 天钥桥路店","lon":"121.442189054","lat":"31.189149793","category":"68","category_name":"快餐厅","address":"徐汇区天钥桥路363号(近南丹东路)"},{"poiid":"B2094750D76DA1F5439C","title":"斗香园(永新坊店)","lon":"121.442","lat":"31.192","category":"68","category_name":"快餐厅","address":"徐汇区天钥桥路131号永新坊B1楼08B室(近城市超市)"},{"poiid":"B2094751D26BA7FC449F","title":"牛NEW寿喜烧","lon":"121.442314","lat":"31.191993","category":"268","category_name":"自助","address":"徐汇区天钥桥路131号永新坊B1楼13号(近辛耕路)"},{"poiid":"B2094751D569A0FB459B","title":"永新坊查餐厅","lon":"121.442551","lat":"31.192062","category":"247","category_name":"餐饮美食","address":null},{"poiid":"B2094655D26BA1F84292","title":"南丹东路天钥桥路","lon":"121.44291","lat":"31.19018","category":"38","category_name":"公交车站","address":""},{"poiid":"B2094757D06FA6F4439D","title":"徐汇区科技馆","lon":"121.44429","lat":"31.19017","category":"179","category_name":"音乐厅","address":"徐汇区南丹东路60号(近宛平南路)"},{"poiid":"B2094757D06AABFE429A","title":"厚街煲仔皇","lon":"121.44271458","lat":"31.18875762","category":"72","category_name":"广东菜","address":"天钥桥路325号嘉汇国际广场A楼108室"},{"poiid":"B2094753D765A6F54098","title":"家在塔拉","lon":"121.441993","lat":"31.190996","category":"247","category_name":"餐饮美食","address":"上海市 徐汇区天钥桥路214号4楼"},{"poiid":"B2094757D06EAAF9439B","title":"查餐厅 辛耕路店 Cha's","lon":"121.442147","lat":"31.192063","category":"72","category_name":"广东菜","address":"徐汇区天钥桥路131号永新坊B1楼18号(近辛耕路)"},{"poiid":"B2094757D06EAAFB4599","title":"夏朵西餐厅","lon":"121.44222758","lat":"31.191409672","category":"94","category_name":"西餐厅","address":"徐汇区天钥桥路214号哈尼美食广场3楼(近南丹东路)"},{"poiid":"B2094757D06EAAFC489C","title":"糖品","lon":"121.44309857","lat":"31.192405671","category":"67","category_name":"甜品店","address":"徐汇区天钥桥路133号永新坊1楼7号铺(近辛耕路)"},{"poiid":"B2094655D26EA1FB419D","title":"耶里夏丽 南丹店","lon":"121.442819054","lat":"31.189709793","category":"90","category_name":"清真餐馆","address":"徐汇区南丹东路106号(近天钥桥路)"},{"poiid":"B2094654DA6DA0FC459F","title":"永新坊","lon":"121.44261","lat":"31.19207","category":"116","category_name":"特色商业街","address":"徐汇区天钥桥路131号(近辛耕路)"},{"poiid":"B2094655D26EA6F94899","title":"德林酸菜鱼(南丹店)","lon":"121.44148","lat":"31.19023","category":"257","category_name":"中餐厅","address":"徐汇区南丹东路157号(近天钥桥路)"},{"poiid":"B2094655D26CA7F44092","title":"蓝蛙","lon":"121.44234","lat":"31.19201","category":"260","category_name":"其他","address":"徐汇区天钥桥路131号永新广场B1楼(近辛耕路)"},{"poiid":"B2094757D06FA3F4419D","title":"西堤牛排(天钥桥店)","lon":"121.44269","lat":"31.19013","category":"94","category_name":"西餐厅","address":"徐汇区天钥桥路315号4楼(近南丹东路)"},{"poiid":"B2094757D06AA0FA489C","title":"金桂皇朝 永新坊店","lon":"121.4425068","lat":"31.1920975","category":"72","category_name":"广东菜","address":"徐汇区天钥桥路131号永新坊B1楼16室(近辛耕路)"},{"poiid":"B2094654DB6AA2FF439B","title":"吴记老锅底麻辣火锅(天钥桥路店)","lon":"121.44203","lat":"31.19098","category":"86","category_name":"火锅店","address":"徐汇区天钥桥路212号(近辛耕路)"},{"poiid":"B2094757D06FA1FE479D","title":"嘉汇华美达大酒店(Ramada Plaza Gateway Shanghai)","lon":"121.443315569","lat":"31.1892276703","category":"213","category_name":"五星级宾馆","address":"徐汇区天钥桥路325号-327号(近南丹东路)"},{"poiid":"B2094654DA6DA0F84598","title":"飞洲国际广场","lon":"121.444","lat":"31.1895","category":"249","category_name":"购物服务","address":"长宁路1158号贝多芬广场618室"},{"poiid":"B2094757D06EAAFD4998","title":"PANKOO釜山料理(天钥桥店)","lon":"121.44188","lat":"31.19158","category":"96","category_name":"韩国料理","address":"上海徐汇区天钥桥路131号永新坊B1楼(近辛耕路)"},{"poiid":"B2094757D06FA3FE489D","title":"蜀府 天钥桥路店","lon":"121.44233465195","lat":"31.19178649405","category":"71","category_name":"四川菜","address":"徐汇区天钥桥路133号永新坊步行街2楼(近辛耕路)"},{"poiid":"B2094757D06EAAF44999","title":"鲜芋仙(天钥桥路店)","lon":"121.442054686","lat":"31.1897338393","category":"67","category_name":"甜品店","address":"徐汇区天钥桥路307号(南丹东路口)"},{"poiid":"B2094757D06FA3F8459C","title":"上海大饭堂","lon":"121.44217","lat":"31.18985","category":"76","category_name":"上海菜","address":"徐汇区天钥桥路220号(近南丹东路)"},{"poiid":"B2094757D06FA0FA4193","title":"lemon grass 柠檬草泰菜","lon":"121.44238281","lat":"31.191249847","category":"110","category_name":"其他亚洲菜","address":"上海天钥桥路131号永新坊地下一楼06室"},{"poiid":"B2094757D06FA1F94599","title":"天天渔港(徐汇店)","lon":"121.44257","lat":"31.19222","category":"72","category_name":"广东菜","address":"徐汇区天钥桥路123号5-6楼(近辛耕路)"},{"poiid":"B2094757D06FA2F8449E","title":"许留山(美罗店)","lon":"121.43964","lat":"31.19392","category":"67","category_name":"甜品店","address":"徐汇区肇嘉浜路1111号美罗城B1楼(近漕溪北路)"},{"poiid":"B2094757D06EAAFE419D","title":"鼎中鼎澳门豆捞 天钥桥店 Macao Dolar","lon":"121.44219","lat":"31.18893","category":"86","category_name":"火锅店","address":"上海徐汇区天钥桥路323号美城天地3楼(近慈云街)"},{"poiid":"B2094757DA68ABFA429D","title":"豆捞坊 徐汇店 Dolar Shop","lon":"121.441896054","lat":"31.191227793","category":"86","category_name":"火锅店","address":"徐汇区天钥桥路214号哈尼美食广场4-5楼(近南丹东路)"},{"poiid":"B2094757D06FA4F4429E","title":"海上阿叔(徐汇店)","lon":"121.44292","lat":"31.1905","category":"76","category_name":"上海菜","address":"徐汇区天钥桥路211号2楼(近南丹东路)"},{"poiid":"B2094757D06FA1F54693","title":"腾飞广场","lon":"121.44219","lat":"31.19006","category":"119","category_name":"商场","address":"徐汇区天钥桥路333号腾飞大厦内(近南丹东路)"},{"poiid":"B2094757D06EABF5469A","title":"卡乐星 美罗城店","lon":"121.439313","lat":"31.193569","category":"94","category_name":"西餐厅","address":"徐汇区肇嘉浜路1111号美罗城B1-33号(近漕溪北路)"},{"poiid":"B2094757D06FA3FC469E","title":"香辣虾爆爆椒干锅三绝(天钥桥路店)","lon":"121.442201586","lat":"31.1906066563","category":"71","category_name":"四川菜","address":"徐汇区天钥桥路315号3楼(近南丹路口)"},{"poiid":"B2094654DA6DA0FF499C","title":"避风塘 天钥桥路店","lon":"121.442166054","lat":"31.188890793","category":"72","category_name":"广东菜","address":"徐汇区天钥桥路333号腾飞大厦1-2楼(近南丹东路)"},{"poiid":"B2094757D06FA2F5439B","title":"徐汇区图书馆","lon":"121.444171458","lat":"31.1899963694","category":"181","category_name":"图书馆","address":"徐汇区南丹东路80号(近宛平南路/天钥桥路)"},{"poiid":"B2094757D06FA7FD4292","title":"小神田烧肉","lon":"121.44272","lat":"31.18986","category":"269","category_name":"烧烤","address":"徐汇区南丹东路111号(近天钥桥路)"},{"poiid":"B2094757D06BA2FB409E","title":"西提牛排","lon":"121.44414658","lat":"31.191991683","category":"247","category_name":"餐饮美食","address":"上海市徐汇区肇嘉浜路"},{"poiid":"B2094757D06FA7F4499F","title":"豪厨","lon":"121.44250558","lat":"31.190080646","category":"72","category_name":"广东菜","address":"徐汇区南丹东路118号1楼(近天钥桥路)"},{"poiid":"B2094757D06FA6F84693","title":"艺林盲人按摩院(徐汇店)","lon":"121.44342","lat":"31.18949","category":"149","category_name":"洗浴推拿场所","address":"徐汇区南丹东路100弄1号(近天钥桥路)"},{"poiid":"B209475CD064ABF4469E","title":"翠华餐厅 永新坊店","lon":"121.442058054","lat":"31.191960793","category":"72","category_name":"广东菜","address":"徐汇区天钥桥路永新坊133号地铺靠近辛耕路"},{"poiid":"B2094757D06FABFF4992","title":"天圣酸菜鱼火锅(南丹东路店)","lon":"121.44196","lat":"31.18986","category":"86","category_name":"火锅店","address":"徐汇区南丹东路157号(近天钥桥路)"},{"poiid":"B209475DD36DA3F44792","title":"辣府火锅 徐汇店","lon":"121.442474","lat":"31.190034","category":"247","category_name":"餐饮美食","address":"上海市徐汇区南丹东路108号2楼"},{"poiid":"B2094750D268A3F44993","title":"塔顶泰国菜","lon":"121.443313","lat":"31.192365","category":"247","category_name":"餐饮美食","address":null},{"poiid":"B2094751DA6DA2F8499D","title":"老工厂重庆火锅","lon":"121.44257","lat":"31.18958","category":"86","category_name":"火锅店","address":"徐汇区南丹东路108号(天钥桥路口)"},{"poiid":"B2094750D268A3FC4492","title":"烧肉达人(腾飞广场店)","lon":"121.4423963624572","lat":"31.18944563055144","category":"269","category_name":"烧烤","address":"徐汇区天钥桥路333号腾飞广场2楼201室(近南丹东路)"},{"poiid":"B2094757D068AAF8419C","title":"徐家汇社区文化中心","lon":"121.44399","lat":"31.19025","category":"179","category_name":"音乐厅","address":"上海徐汇区南丹东路109号(近天钥桥路)"},{"poiid":"B2094757D068A3FE4299","title":"食特美烧肉(徐家汇店)","lon":"121.44232","lat":"31.19044","category":"269","category_name":"烧烤","address":"上海徐汇区天钥桥路214号3楼(近南丹东路)  "},{"poiid":"B2094654DB6BA5F8419F","title":"萨莉亚 徐汇店 Saizeriya","lon":"121.44215200924","lat":"31.189608329","category":"94","category_name":"西餐厅","address":"徐汇区南丹东路108号2楼202室(近天钥桥路)"},{"poiid":"B2094757D068A6F84999","title":"阿玛尼护肤造型中心(天钥桥路店)","lon":"121.441825","lat":"31.191802","category":"148","category_name":"美容美发店","address":"上海徐汇区天钥桥路130号(近辛耕路)"},{"poiid":"B2094757DB69A1FB4699","title":"多喜寿司","lon":"121.4425068","lat":"31.1920975","category":"95","category_name":"日本料理","address":"徐汇区天钥桥路131号永新坊B1楼11室A(近辛耕路)"},{"poiid":"B2094654DA6DA2F54292","title":"沧浪亭 天钥桥路店","lon":"121.442189054","lat":"31.189149793","category":"68","category_name":"快餐厅","address":"徐汇区天钥桥路363号(近南丹东路)"},{"poiid":"B2094750D76DA1F5439C","title":"斗香园(永新坊店)","lon":"121.442","lat":"31.192","category":"68","category_name":"快餐厅","address":"徐汇区天钥桥路131号永新坊B1楼08B室(近城市超市)"},{"poiid":"B2094751D26BA7FC449F","title":"牛NEW寿喜烧","lon":"121.442314","lat":"31.191993","category":"268","category_name":"自助","address":"徐汇区天钥桥路131号永新坊B1楼13号(近辛耕路)"},{"poiid":"B2094751D569A0FB459B","title":"永新坊查餐厅","lon":"121.442551","lat":"31.192062","category":"247","category_name":"餐饮美食","address":null},{"poiid":"B2094655D26BA1F84292","title":"南丹东路天钥桥路","lon":"121.44291","lat":"31.19018","category":"38","category_name":"公交车站","address":""},{"poiid":"B2094757D06FA6F4439D","title":"徐汇区科技馆","lon":"121.44429","lat":"31.19017","category":"179","category_name":"音乐厅","address":"徐汇区南丹东路60号(近宛平南路)"},{"poiid":"B2094757D06AABFE429A","title":"厚街煲仔皇","lon":"121.44271458","lat":"31.18875762","category":"72","category_name":"广东菜","address":"天钥桥路325号嘉汇国际广场A楼108室"},{"poiid":"B2094753D765A6F54098","title":"家在塔拉","lon":"121.441993","lat":"31.190996","category":"247","category_name":"餐饮美食","address":"上海市 徐汇区天钥桥路214号4楼"},{"poiid":"B2094757D06EAAF9439B","title":"查餐厅 辛耕路店 Cha's","lon":"121.442147","lat":"31.192063","category":"72","category_name":"广东菜","address":"徐汇区天钥桥路131号永新坊B1楼18号(近辛耕路)"},{"poiid":"B2094757D06EAAFB4599","title":"夏朵西餐厅","lon":"121.44222758","lat":"31.191409672","category":"94","category_name":"西餐厅","address":"徐汇区天钥桥路214号哈尼美食广场3楼(近南丹东路)"},{"poiid":"B2094757D06EAAFC489C","title":"糖品","lon":"121.44309857","lat":"31.192405671","category":"67","category_name":"甜品店","address":"徐汇区天钥桥路133号永新坊1楼7号铺(近辛耕路)"},{"poiid":"B2094655D26EA1FB419D","title":"耶里夏丽 南丹店","lon":"121.442819054","lat":"31.189709793","category":"90","category_name":"清真餐馆","address":"徐汇区南丹东路106号(近天钥桥路)"},{"poiid":"B2094654DA6DA0FC459F","title":"永新坊","lon":"121.44261","lat":"31.19207","category":"116","category_name":"特色商业街","address":"徐汇区天钥桥路131号(近辛耕路)"},{"poiid":"B2094655D26EA6F94899","title":"德林酸菜鱼(南丹店)","lon":"121.44148","lat":"31.19023","category":"257","category_name":"中餐厅","address":"徐汇区南丹东路157号(近天钥桥路)"},{"poiid":"B2094655D26CA7F44092","title":"蓝蛙","lon":"121.44234","lat":"31.19201","category":"260","category_name":"其他","address":"徐汇区天钥桥路131号永新广场B1楼(近辛耕路)"},{"poiid":"B2094757D06FA3F4419D","title":"西堤牛排(天钥桥店)","lon":"121.44269","lat":"31.19013","category":"94","category_name":"西餐厅","address":"徐汇区天钥桥路315号4楼(近南丹东路)"},{"poiid":"B2094757D06AA0FA489C","title":"金桂皇朝 永新坊店","lon":"121.4425068","lat":"31.1920975","category":"72","category_name":"广东菜","address":"徐汇区天钥桥路131号永新坊B1楼16室(近辛耕路)"},{"poiid":"B2094654DB6AA2FF439B","title":"吴记老锅底麻辣火锅(天钥桥路店)","lon":"121.44203","lat":"31.19098","category":"86","category_name":"火锅店","address":"徐汇区天钥桥路212号(近辛耕路)"},{"poiid":"B2094757D06FA1FE479D","title":"嘉汇华美达大酒店(Ramada Plaza Gateway Shanghai)","lon":"121.443315569","lat":"31.1892276703","category":"213","category_name":"五星级宾馆","address":"徐汇区天钥桥路325号-327号(近南丹东路)"},{"poiid":"B2094654DA6DA0F84598","title":"飞洲国际广场","lon":"121.444","lat":"31.1895","category":"249","category_name":"购物服务","address":"长宁路1158号贝多芬广场618室"},{"poiid":"B2094757D06EAAFD4998","title":"PANKOO釜山料理(天钥桥店)","lon":"121.44188","lat":"31.19158","category":"96","category_name":"韩国料理","address":"上海徐汇区天钥桥路131号永新坊B1楼(近辛耕路)"},{"poiid":"B2094757D06FA3FE489D","title":"蜀府 天钥桥路店","lon":"121.44233465195","lat":"31.19178649405","category":"71","category_name":"四川菜","address":"徐汇区天钥桥路133号永新坊步行街2楼(近辛耕路)"},{"poiid":"B2094757D06EAAF44999","title":"鲜芋仙(天钥桥路店)","lon":"121.442054686","lat":"31.1897338393","category":"67","category_name":"甜品店","address":"徐汇区天钥桥路307号(南丹东路口)"},{"poiid":"B2094757D06FA3F8459C","title":"上海大饭堂","lon":"121.44217","lat":"31.18985","category":"76","category_name":"上海菜","address":"徐汇区天钥桥路220号(近南丹东路)"},{"poiid":"B2094757D06FA0FA4193","title":"lemon grass 柠檬草泰菜","lon":"121.44238281","lat":"31.191249847","category":"110","category_name":"其他亚洲菜","address":"上海天钥桥路131号永新坊地下一楼06室"},{"poiid":"B2094757D06FA1F94599","title":"天天渔港(徐汇店)","lon":"121.44257","lat":"31.19222","category":"72","category_name":"广东菜","address":"徐汇区天钥桥路123号5-6楼(近辛耕路)"},{"poiid":"B2094757D06FA2F8449E","title":"许留山(美罗店)","lon":"121.43964","lat":"31.19392","category":"67","category_name":"甜品店","address":"徐汇区肇嘉浜路1111号美罗城B1楼(近漕溪北路)"},{"poiid":"B2094757D06EAAFE419D","title":"鼎中鼎澳门豆捞 天钥桥店 Macao Dolar","lon":"121.44219","lat":"31.18893","category":"86","category_name":"火锅店","address":"上海徐汇区天钥桥路323号美城天地3楼(近慈云街)"},{"poiid":"B2094757DA68ABFA429D","title":"豆捞坊 徐汇店 Dolar Shop","lon":"121.441896054","lat":"31.191227793","category":"86","category_name":"火锅店","address":"徐汇区天钥桥路214号哈尼美食广场4-5楼(近南丹东路)"},{"poiid":"B2094757D06FA4F4429E","title":"海上阿叔(徐汇店)","lon":"121.44292","lat":"31.1905","category":"76","category_name":"上海菜","address":"徐汇区天钥桥路211号2楼(近南丹东路)"},{"poiid":"B2094757D06FA1F54693","title":"腾飞广场","lon":"121.44219","lat":"31.19006","category":"119","category_name":"商场","address":"徐汇区天钥桥路333号腾飞大厦内(近南丹东路)"},{"poiid":"B2094757D06EABF5469A","title":"卡乐星 美罗城店","lon":"121.439313","lat":"31.193569","category":"94","category_name":"西餐厅","address":"徐汇区肇嘉浜路1111号美罗城B1-33号(近漕溪北路)"},{"poiid":"B2094757D06FA3FC469E","title":"香辣虾爆爆椒干锅三绝(天钥桥路店)","lon":"121.442201586","lat":"31.1906066563","category":"71","category_name":"四川菜","address":"徐汇区天钥桥路315号3楼(近南丹路口)"},{"poiid":"B2094654DA6DA0FF499C","title":"避风塘 天钥桥路店","lon":"121.442166054","lat":"31.188890793","category":"72","category_name":"广东菜","address":"徐汇区天钥桥路333号腾飞大厦1-2楼(近南丹东路)"},{"poiid":"B2094757D06FA2F5439B","title":"徐汇区图书馆","lon":"121.444171458","lat":"31.1899963694","category":"181","category_name":"图书馆","address":"徐汇区南丹东路80号(近宛平南路/天钥桥路)"},{"poiid":"B2094757D06FA7FD4292","title":"小神田烧肉","lon":"121.44272","lat":"31.18986","category":"269","category_name":"烧烤","address":"徐汇区南丹东路111号(近天钥桥路)"},{"poiid":"B2094757D06BA2FB409E","title":"西提牛排","lon":"121.44414658","lat":"31.191991683","category":"247","category_name":"餐饮美食","address":"上海市徐汇区肇嘉浜路"},{"poiid":"B2094757D06FA7F4499F","title":"豪厨","lon":"121.44250558","lat":"31.190080646","category":"72","category_name":"广东菜","address":"徐汇区南丹东路118号1楼(近天钥桥路)"},{"poiid":"B2094757D06FA6F84693","title":"艺林盲人按摩院(徐汇店)","lon":"121.44342","lat":"31.18949","category":"149","category_name":"洗浴推拿场所","address":"徐汇区南丹东路100弄1号(近天钥桥路)"},{"poiid":"B209475CD064ABF4469E","title":"翠华餐厅 永新坊店","lon":"121.442058054","lat":"31.191960793","category":"72","category_name":"广东菜","address":"徐汇区天钥桥路永新坊133号地铺靠近辛耕路"},{"poiid":"B2094757D06FABFF4992","title":"天圣酸菜鱼火锅(南丹东路店)","lon":"121.44196","lat":"31.18986","category":"86","category_name":"火锅店","address":"徐汇区南丹东路157号(近天钥桥路)"},{"poiid":"B209475DD36DA3F44792","title":"辣府火锅 徐汇店","lon":"121.442474","lat":"31.190034","category":"247","category_name":"餐饮美食","address":"上海市徐汇区南丹东路108号2楼"},{"poiid":"B2094750D268A3F44993","title":"塔顶泰国菜","lon":"121.443313","lat":"31.192365","category":"247","category_name":"餐饮美食","address":null},{"poiid":"B2094751DA6DA2F8499D","title":"老工厂重庆火锅","lon":"121.44257","lat":"31.18958","category":"86","category_name":"火锅店","address":"徐汇区南丹东路108号(天钥桥路口)"},{"poiid":"B2094750D268A3FC4492","title":"烧肉达人(腾飞广场店)","lon":"121.4423963624572","lat":"31.18944563055144","category":"269","category_name":"烧烤","address":"徐汇区天钥桥路333号腾飞广场2楼201室(近南丹东路)"},{"poiid":"B2094757D068AAF8419C","title":"徐家汇社区文化中心","lon":"121.44399","lat":"31.19025","category":"179","category_name":"音乐厅","address":"上海徐汇区南丹东路109号(近天钥桥路)"},{"poiid":"B2094757D068A3FE4299","title":"食特美烧肉(徐家汇店)","lon":"121.44232","lat":"31.19044","category":"269","category_name":"烧烤","address":"上海徐汇区天钥桥路214号3楼(近南丹东路)  "},{"poiid":"B2094654DB6BA5F8419F","title":"萨莉亚 徐汇店 Saizeriya","lon":"121.44215200924","lat":"31.189608329","category":"94","category_name":"西餐厅","address":"徐汇区南丹东路108号2楼202室(近天钥桥路)"},{"poiid":"B2094757D068A6F84999","title":"阿玛尼护肤造型中心(天钥桥路店)","lon":"121.441825","lat":"31.191802","category":"148","category_name":"美容美发店","address":"上海徐汇区天钥桥路130号(近辛耕路)"},{"poiid":"B2094757DB69A1FB4699","title":"多喜寿司","lon":"121.4425068","lat":"31.1920975","category":"95","category_name":"日本料理","address":"徐汇区天钥桥路131号永新坊B1楼11室A(近辛耕路)"},{"poiid":"B2094654DA6DA2F54292","title":"沧浪亭 天钥桥路店","lon":"121.442189054","lat":"31.189149793","category":"68","category_name":"快餐厅","address":"徐汇区天钥桥路363号(近南丹东路)"},{"poiid":"B2094750D76DA1F5439C","title":"斗香园(永新坊店)","lon":"121.442","lat":"31.192","category":"68","category_name":"快餐厅","address":"徐汇区天钥桥路131号永新坊B1楼08B室(近城市超市)"},{"poiid":"B2094751D26BA7FC449F","title":"牛NEW寿喜烧","lon":"121.442314","lat":"31.191993","category":"268","category_name":"自助","address":"徐汇区天钥桥路131号永新坊B1楼13号(近辛耕路)"},{"poiid":"B2094751D569A0FB459B","title":"永新坊查餐厅","lon":"121.442551","lat":"31.192062","category":"247","category_name":"餐饮美食","address":null},{"poiid":"B2094655D26BA1F84292","title":"南丹东路天钥桥路","lon":"121.44291","lat":"31.19018","category":"38","category_name":"公交车站","address":""},{"poiid":"B2094757D06FA6F4439D","title":"徐汇区科技馆","lon":"121.44429","lat":"31.19017","category":"179","category_name":"音乐厅","address":"徐汇区南丹东路60号(近宛平南路)"},{"poiid":"B2094757D06AABFE429A","title":"厚街煲仔皇","lon":"121.44271458","lat":"31.18875762","category":"72","category_name":"广东菜","address":"天钥桥路325号嘉汇国际广场A楼108室"},{"poiid":"B2094753D765A6F54098","title":"家在塔拉","lon":"121.441993","lat":"31.190996","category":"247","category_name":"餐饮美食","address":"上海市 徐汇区天钥桥路214号4楼"},{"poiid":"B2094757D06EAAF9439B","title":"查餐厅 辛耕路店 Cha's","lon":"121.442147","lat":"31.192063","category":"72","category_name":"广东菜","address":"徐汇区天钥桥路131号永新坊B1楼18号(近辛耕路)"},{"poiid":"B2094757D06EAAFB4599","title":"夏朵西餐厅","lon":"121.44222758","lat":"31.191409672","category":"94","category_name":"西餐厅","address":"徐汇区天钥桥路214号哈尼美食广场3楼(近南丹东路)"},{"poiid":"B2094757D06EAAFC489C","title":"糖品","lon":"121.44309857","lat":"31.192405671","category":"67","category_name":"甜品店","address":"徐汇区天钥桥路133号永新坊1楼7号铺(近辛耕路)"},{"poiid":"B2094655D26EA1FB419D","title":"耶里夏丽 南丹店","lon":"121.442819054","lat":"31.189709793","category":"90","category_name":"清真餐馆","address":"徐汇区南丹东路106号(近天钥桥路)"},{"poiid":"B2094654DA6DA0FC459F","title":"永新坊","lon":"121.44261","lat":"31.19207","category":"116","category_name":"特色商业街","address":"徐汇区天钥桥路131号(近辛耕路)"},{"poiid":"B2094655D26EA6F94899","title":"德林酸菜鱼(南丹店)","lon":"121.44148","lat":"31.19023","category":"257","category_name":"中餐厅","address":"徐汇区南丹东路157号(近天钥桥路)"},{"poiid":"B2094655D26CA7F44092","title":"蓝蛙","lon":"121.44234","lat":"31.19201","category":"260","category_name":"其他","address":"徐汇区天钥桥路131号永新广场B1楼(近辛耕路)"},{"poiid":"B2094757D06FA3F4419D","title":"西堤牛排(天钥桥店)","lon":"121.44269","lat":"31.19013","category":"94","category_name":"西餐厅","address":"徐汇区天钥桥路315号4楼(近南丹东路)"},{"poiid":"B2094757D06AA0FA489C","title":"金桂皇朝 永新坊店","lon":"121.4425068","lat":"31.1920975","category":"72","category_name":"广东菜","address":"徐汇区天钥桥路131号永新坊B1楼16室(近辛耕路)"},{"poiid":"B2094654DB6AA2FF439B","title":"吴记老锅底麻辣火锅(天钥桥路店)","lon":"121.44203","lat":"31.19098","category":"86","category_name":"火锅店","address":"徐汇区天钥桥路212号(近辛耕路)"},{"poiid":"B2094757D06FA1FE479D","title":"嘉汇华美达大酒店(Ramada Plaza Gateway Shanghai)","lon":"121.443315569","lat":"31.1892276703","category":"213","category_name":"五星级宾馆","address":"徐汇区天钥桥路325号-327号(近南丹东路)"},{"poiid":"B2094654DA6DA0F84598","title":"飞洲国际广场","lon":"121.444","lat":"31.1895","category":"249","category_name":"购物服务","address":"长宁路1158号贝多芬广场618室"},{"poiid":"B2094757D06EAAFD4998","title":"PANKOO釜山料理(天钥桥店)","lon":"121.44188","lat":"31.19158","category":"96","category_name":"韩国料理","address":"上海徐汇区天钥桥路131号永新坊B1楼(近辛耕路)"},{"poiid":"B2094757D06FA3FE489D","title":"蜀府 天钥桥路店","lon":"121.44233465195","lat":"31.19178649405","category":"71","category_name":"四川菜","address":"徐汇区天钥桥路133号永新坊步行街2楼(近辛耕路)"},{"poiid":"B2094757D06EAAF44999","title":"鲜芋仙(天钥桥路店)","lon":"121.442054686","lat":"31.1897338393","category":"67","category_name":"甜品店","address":"徐汇区天钥桥路307号(南丹东路口)"},{"poiid":"B2094757D06FA3F8459C","title":"上海大饭堂","lon":"121.44217","lat":"31.18985","category":"76","category_name":"上海菜","address":"徐汇区天钥桥路220号(近南丹东路)"},{"poiid":"B2094757D06FA0FA4193","title":"lemon grass 柠檬草泰菜","lon":"121.44238281","lat":"31.191249847","category":"110","category_name":"其他亚洲菜","address":"上海天钥桥路131号永新坊地下一楼06室"},{"poiid":"B2094757D06FA1F94599","title":"天天渔港(徐汇店)","lon":"121.44257","lat":"31.19222","category":"72","category_name":"广东菜","address":"徐汇区天钥桥路123号5-6楼(近辛耕路)"},{"poiid":"B2094757D06FA2F8449E","title":"许留山(美罗店)","lon":"121.43964","lat":"31.19392","category":"67","category_name":"甜品店","address":"徐汇区肇嘉浜路1111号美罗城B1楼(近漕溪北路)"},{"poiid":"B2094757D06EAAFE419D","title":"鼎中鼎澳门豆捞 天钥桥店 Macao Dolar","lon":"121.44219","lat":"31.18893","category":"86","category_name":"火锅店","address":"上海徐汇区天钥桥路323号美城天地3楼(近慈云街)"},{"poiid":"B2094757DA68ABFA429D","title":"豆捞坊 徐汇店 Dolar Shop","lon":"121.441896054","lat":"31.191227793","category":"86","category_name":"火锅店","address":"徐汇区天钥桥路214号哈尼美食广场4-5楼(近南丹东路)"},{"poiid":"B2094757D06FA4F4429E","title":"海上阿叔(徐汇店)","lon":"121.44292","lat":"31.1905","category":"76","category_name":"上海菜","address":"徐汇区天钥桥路211号2楼(近南丹东路)"},{"poiid":"B2094757D06FA1F54693","title":"腾飞广场","lon":"121.44219","lat":"31.19006","category":"119","category_name":"商场","address":"徐汇区天钥桥路333号腾飞大厦内(近南丹东路)"},{"poiid":"B2094757D06EABF5469A","title":"卡乐星 美罗城店","lon":"121.439313","lat":"31.193569","category":"94","category_name":"西餐厅","address":"徐汇区肇嘉浜路1111号美罗城B1-33号(近漕溪北路)"},{"poiid":"B2094757D06FA3FC469E","title":"香辣虾爆爆椒干锅三绝(天钥桥路店)","lon":"121.442201586","lat":"31.1906066563","category":"71","category_name":"四川菜","address":"徐汇区天钥桥路315号3楼(近南丹路口)"},{"poiid":"B2094654DA6DA0FF499C","title":"避风塘 天钥桥路店","lon":"121.442166054","lat":"31.188890793","category":"72","category_name":"广东菜","address":"徐汇区天钥桥路333号腾飞大厦1-2楼(近南丹东路)"},{"poiid":"B2094757D06FA2F5439B","title":"徐汇区图书馆","lon":"121.444171458","lat":"31.1899963694","category":"181","category_name":"图书馆","address":"徐汇区南丹东路80号(近宛平南路/天钥桥路)"},{"poiid":"B2094757D06FA7FD4292","title":"小神田烧肉","lon":"121.44272","lat":"31.18986","category":"269","category_name":"烧烤","address":"徐汇区南丹东路111号(近天钥桥路)"},{"poiid":"B2094757D06BA2FB409E","title":"西提牛排","lon":"121.44414658","lat":"31.191991683","category":"247","category_name":"餐饮美食","address":"上海市徐汇区肇嘉浜路"},{"poiid":"B2094757D06FA7F4499F","title":"豪厨","lon":"121.44250558","lat":"31.190080646","category":"72","category_name":"广东菜","address":"徐汇区南丹东路118号1楼(近天钥桥路)"},{"poiid":"B2094757D06FA6F84693","title":"艺林盲人按摩院(徐汇店)","lon":"121.44342","lat":"31.18949","category":"149","category_name":"洗浴推拿场所","address":"徐汇区南丹东路100弄1号(近天钥桥路)"},{"poiid":"B209475CD064ABF4469E","title":"翠华餐厅 永新坊店","lon":"121.442058054","lat":"31.191960793","category":"72","category_name":"广东菜","address":"徐汇区天钥桥路永新坊133号地铺靠近辛耕路"},{"poiid":"B2094757D06FABFF4992","title":"天圣酸菜鱼火锅(南丹东路店)","lon":"121.44196","lat":"31.18986","category":"86","category_name":"火锅店","address":"徐汇区南丹东路157号(近天钥桥路)"},{"poiid":"B209475DD36DA3F44792","title":"辣府火锅 徐汇店","lon":"121.442474","lat":"31.190034","category":"247","category_name":"餐饮美食","address":"上海市徐汇区南丹东路108号2楼"},{"poiid":"B2094750D268A3F44993","title":"塔顶泰国菜","lon":"121.443313","lat":"31.192365","category":"247","category_name":"餐饮美食","address":null},{"poiid":"B2094751DA6DA2F8499D","title":"老工厂重庆火锅","lon":"121.44257","lat":"31.18958","category":"86","category_name":"火锅店","address":"徐汇区南丹东路108号(天钥桥路口)"},{"poiid":"B2094750D268A3FC4492","title":"烧肉达人(腾飞广场店)","lon":"121.4423963624572","lat":"31.18944563055144","category":"269","category_name":"烧烤","address":"徐汇区天钥桥路333号腾飞广场2楼201室(近南丹东路)"},{"poiid":"B2094757D068AAF8419C","title":"徐家汇社区文化中心","lon":"121.44399","lat":"31.19025","category":"179","category_name":"音乐厅","address":"上海徐汇区南丹东路109号(近天钥桥路)"},{"poiid":"B2094757D068A3FE4299","title":"食特美烧肉(徐家汇店)","lon":"121.44232","lat":"31.19044","category":"269","category_name":"烧烤","address":"上海徐汇区天钥桥路214号3楼(近南丹东路)  "},{"poiid":"B2094654DB6BA5F8419F","title":"萨莉亚 徐汇店 Saizeriya","lon":"121.44215200924","lat":"31.189608329","category":"94","category_name":"西餐厅","address":"徐汇区南丹东路108号2楼202室(近天钥桥路)"},{"poiid":"B2094757D068A6F84999","title":"阿玛尼护肤造型中心(天钥桥路店)","lon":"121.441825","lat":"31.191802","category":"148","category_name":"美容美发店","address":"上海徐汇区天钥桥路130号(近辛耕路)"},{"poiid":"B2094757DB69A1FB4699","title":"多喜寿司","lon":"121.4425068","lat":"31.1920975","category":"95","category_name":"日本料理","address":"徐汇区天钥桥路131号永新坊B1楼11室A(近辛耕路)"},{"poiid":"B2094654DA6DA2F54292","title":"沧浪亭 天钥桥路店","lon":"121.442189054","lat":"31.189149793","category":"68","category_name":"快餐厅","address":"徐汇区天钥桥路363号(近南丹东路)"},{"poiid":"B2094750D76DA1F5439C","title":"斗香园(永新坊店)","lon":"121.442","lat":"31.192","category":"68","category_name":"快餐厅","address":"徐汇区天钥桥路131号永新坊B1楼08B室(近城市超市)"},{"poiid":"B2094751D26BA7FC449F","title":"牛NEW寿喜烧","lon":"121.442314","lat":"31.191993","category":"268","category_name":"自助","address":"徐汇区天钥桥路131号永新坊B1楼13号(近辛耕路)"},{"poiid":"B2094751D569A0FB459B","title":"永新坊查餐厅","lon":"121.442551","lat":"31.192062","category":"247","category_name":"餐饮美食","address":null},{"poiid":"B2094655D26BA1F84292","title":"南丹东路天钥桥路","lon":"121.44291","lat":"31.19018","category":"38","category_name":"公交车站","address":""},{"poiid":"B2094757D06FA6F4439D","title":"徐汇区科技馆","lon":"121.44429","lat":"31.19017","category":"179","category_name":"音乐厅","address":"徐汇区南丹东路60号(近宛平南路)"},{"poiid":"B2094757D06AABFE429A","title":"厚街煲仔皇","lon":"121.44271458","lat":"31.18875762","category":"72","category_name":"广东菜","address":"天钥桥路325号嘉汇国际广场A楼108室"},{"poiid":"B2094753D765A6F54098","title":"家在塔拉","lon":"121.441993","lat":"31.190996","category":"247","category_name":"餐饮美食","address":"上海市 徐汇区天钥桥路214号4楼"}]