[{"poiid":"B2094654D46BABFF4398","title":"古猗园","lon":"121.31596","lat":"31.29164","category":"240","category_name":"国家级景点","address":"嘉定区南翔镇沪宜路218号"},{"poiid":"B2094757D06EAAF5419F","title":"南翔漪园小笼馆","lon":"121.314494054","lat":"31.292691793","category":"68","category_name":"快餐厅","address":"嘉定区南翔镇古漪园路288号(近古漪园北门)"},{"poiid":"B2094757D06FA3FD479A","title":"南翔老街","lon":"121.30948","lat":"31.291","category":"260","category_name":"其他","address":"上海近郊嘉定区南翔镇德华路(近共和街)  "},{"poiid":"B2094757D06FAAFF459B","title":"古猗园餐厅","lon":"121.31639","lat":"31.29069","category":"68","category_name":"快餐厅","address":"嘉定区南翔镇沪宜公路218号古猗园南大门(古猗园路沪宜公路)"},{"poiid":"B2094654D46BA4FE4393","title":"南翔小笼(古猗园路)","lon":"121.31492","lat":"31.2904","category":"257","category_name":"中餐厅","address":""},{"poiid":"B2094757D068A2F9459F","title":"云翔寺","lon":"121.307806677","lat":"31.2899433667","category":"245","category_name":"教堂","address":"嘉定区南翔镇解放街263号(南华路民主街)"},{"poiid":"B2094654DB69A6FE489F","title":"古漪园","lon":"121.31603","lat":"31.29213","category":"196","category_name":"公园","address":"上海市嘉定区沪宜公路218号"},{"poiid":"B2094757D06FA2F8499E","title":"南翔镇","lon":"121.32083892","lat":"31.293945312","category":"260","category_name":"其他","address":"上海嘉定区南翔镇"},{"poiid":"B2094655D26BA1FE499A","title":"南翔","lon":"121.30975","lat":"31.28663","category":"38","category_name":"公交车站","address":""},{"poiid":"B2094757D06AA5FF449C","title":"南翔北站","lon":"121.31378555","lat":"31.282248503","category":"22","category_name":"火车站","address":"上海银翔路,沪宁高铁,南翔北站"},{"poiid":"B2094757D56DA2F4499D","title":"阿福龙虾","lon":"121.3066235","lat":"31.2907771","category":"68","category_name":"快餐厅","address":"嘉定区南翔镇南华路277号(近德华路)"},{"poiid":"B2094655D264A2F5459E","title":"南翔古镇","lon":"121.31557","lat":"31.2895","category":"250","category_name":"公园户外","address":"嘉定区南翔镇人民街(生产街南华路间)"},{"poiid":"B2094750D26BA7F9429A","title":"南翔医院","lon":"121.317955","lat":"31.290615","category":"162","category_name":"医院","address":"众仁路495号"},{"poiid":"B2094757D06AA4FA499D","title":"吾介小笼馆","lon":"121.30705","lat":"31.28919","category":"68","category_name":"快餐厅","address":"嘉定区南翔镇人民街122号(近南华路)"},{"poiid":"B2094654D46BA4FE4892","title":"泰煌火锅(翔黄公路)","lon":"121.30815","lat":"31.28604","category":"86","category_name":"火锅店","address":"嘉定区南翔镇沪宜公路653号"},{"poiid":"B2094757D069A2FE4792","title":"肯德基 KFC (南翔店)","lon":"121.308648","lat":"31.29012","category":"68","category_name":"快餐厅","address":"嘉定区南翔镇解放街160号(南翔解放街民主街)"},{"poiid":"B2094654DB65A4FD419A","title":"南翔医院","lon":"121.31098","lat":"31.29164","category":"162","category_name":"医院","address":"嘉定区南翔镇众仁路495号(近真南路)"},{"poiid":"B2094654DB65A0F8469C","title":"锦江之星(南翔店)","lon":"121.31021","lat":"31.28772","category":"216","category_name":"经济型连锁酒店","address":"嘉定区南翔镇解放街25号(近南翔古猗园)"},{"poiid":"B2094654D46BA4FF429C","title":"南华小区","lon":"121.30824","lat":"31.288046","category":"47","category_name":"住宅区","address":"南华路101弄1-56号"},{"poiid":"B2094654D46BABFE489C","title":"同盛公寓","lon":"121.31451","lat":"31.29105","category":"47","category_name":"住宅区","address":"上海市普陀区宁夏路335号"},{"poiid":"B2094757D06AAAFF439F","title":"嘉定二中","lon":"121.31111145","lat":"31.2952690125","category":"55","category_name":"中学","address":"嘉定区德华路388号"},{"poiid":"B2094757D06BA0F84898","title":"上岛咖啡 德华路店 UBC Coffee","lon":"121.304514054","lat":"31.291208793","category":"260","category_name":"其他","address":"嘉定区南翔镇德华路789号(沪宜公路口)"},{"poiid":"B2094757DA69A1F94592","title":"南翔公馆","lon":"121.30864035489","lat":"31.292813635332","category":"72","category_name":"广东菜","address":"嘉定区南翔镇共和街1号(近德华路)"},{"poiid":"B2094757D06BA2FC4892","title":"乐翻天南翔店","lon":"121.310537625","lat":"31.2866696988","category":"500","category_name":"未知分类","address":"上海市嘉定区南翔镇沪宜公路653号"},{"poiid":"B2094757D664A3FF4193","title":"兰森酒楼","lon":"121.3148692","lat":"31.2908675","category":"76","category_name":"上海菜","address":"南翔镇古猗园路291-295近沪宜公路"},{"poiid":"B2094757D16BA4F9439C","title":"日华轩","lon":"121.310525925","lat":"31.2894941573","category":"68","category_name":"快餐厅","address":"嘉定区南翔镇人民街58号(德华路共和街)"},{"poiid":"B2094655D26BA5FD429F","title":"翔飞酒家","lon":"121.312632054","lat":"31.288125793","category":"76","category_name":"上海菜","address":"嘉定区南翔镇沪宜公路549号"},{"poiid":"B2094757D16CA0F54793","title":"祥源府邸","lon":"121.31923252","lat":"31.287508716","category":"47","category_name":"住宅区","address":"上海嘉定区南翔镇金通路1788弄"},{"poiid":"B2094757D06BA2FF469E","title":"龙景轩(南翔店)","lon":"121.30506","lat":"31.28818","category":"76","category_name":"上海菜","address":"嘉定区沪宜公路855号(近民主街)"},{"poiid":"B2094757D66EA3F94093","title":"南翔小笼馆","lon":"121.310229275","lat":"31.2923393662","category":"68","category_name":"快餐厅","address":"嘉定区南翔镇生产街135号(吉利桥南侧)"},{"poiid":"B2094654D46BA6F5459C","title":"南翔饭店","lon":"121.3091","lat":"31.29103","category":"76","category_name":"上海菜","address":"嘉定区南翔古镇人民街32号甲"},{"poiid":"B2094750D76CA5FC4498","title":"锦泰酒店","lon":"121.316","lat":"31.2886","category":"76","category_name":"上海菜","address":"嘉定区南翔镇古漪园路283-287号(近古漪园)"},{"poiid":"B2094757D16AA6FF479F","title":"泰缘祥烧烤","lon":"121.31061554","lat":"31.287509918","category":"247","category_name":"餐饮美食","address":"上海南华路"},{"poiid":"B2094757D464A0FA419F","title":"古龙饭庄","lon":"121.315867054","lat":"31.289932793","category":"76","category_name":"上海菜","address":"嘉定区南翔镇沪宜公路281号古猗园内(近路沪宜公路)"},{"poiid":"B2094654D46BA4FE4499","title":"百年老店南翔小笼","lon":"121.3154","lat":"31.29042","category":"257","category_name":"中餐厅","address":""},{"poiid":"B2094654D46BA4FF4499","title":"利群饮食总汇","lon":"121.3093","lat":"31.28955","category":"68","category_name":"快餐厅","address":"嘉定区南翔解放街116号(南翔解放街尹家弄)"},{"poiid":"B2094654D46BA5FC4192","title":"南翔电影院","lon":"121.309617","lat":"31.28842","category":"178","category_name":"电影院","address":"南翔镇"},{"poiid":"B2094757D064A2F94998","title":"韩美轩","lon":"121.314423875","lat":"31.291407057","category":"500","category_name":"未知分类","address":"嘉定区南翔镇古漪园路303号(沪宜公路众仁路)"},{"poiid":"B2094757D16AA5FF4899","title":"阿婆家常菜","lon":"121.30729492","lat":"31.290081169","category":"76","category_name":"上海菜","address":"嘉定区南翔镇南华路262号(德华路南华路)"},{"poiid":"B2094654D46BA4FE449F","title":"百年老店南翔小笼专卖店","lon":"121.31503","lat":"31.29101","category":"257","category_name":"中餐厅","address":"嘉定区民主东路344号"},{"poiid":"B2094757D66CA0F4409B","title":"蓝波浪形象设计","lon":"121.31079892","lat":"31.288849143","category":"148","category_name":"美容美发店","address":"上海近郊南翔民主东街附近(近云翔寺)  "},{"poiid":"B2094757D568AAFF499D","title":"米兰咖啡","lon":"121.3159631","lat":"31.29164611","category":"65","category_name":"咖啡厅","address":"嘉定区南翔镇沪宜公路281号古猗园旁(沪宜公路口)"},{"poiid":"B2094750D664A1F4489C","title":"鹤翔知青美食","lon":"121.315","lat":"31.2896","category":"82","category_name":"东北菜","address":"嘉定区沪宜公路242号(古猗园路口)"},{"poiid":"B2094757D16BA5F44398","title":"南翔集美楼饭店","lon":"121.30921","lat":"31.29085","category":"76","category_name":"上海菜","address":"嘉定区南翔老街人民街22号(近南翔镇中心老街)"},{"poiid":"B2094757D064A1FC4899","title":"南翔南华路","lon":"121.30814","lat":"31.288216","category":"500","category_name":"未知分类","address":"上海嘉定区南翔镇南华路"},{"poiid":"B2094654DB69A6F8439E","title":"华联超市(南翔店)","lon":"121.30989","lat":"31.28869","category":"118","category_name":"超级市场","address":"嘉定区南翔镇解放街95号"},{"poiid":"B2094654D46BA5FC429E","title":"南翔汽车站","lon":"121.31595","lat":"31.2896","category":"35","category_name":"长途汽车站","address":"嘉定区古猗园路(古猗园路民主街)"},{"poiid":"B2094757D064A7F94792","title":"翔华新村","lon":"121.30737","lat":"31.285318","category":"500","category_name":"未知分类","address":"上海南翔镇火车站路118弄"},{"poiid":"B2094654D46BA4FF429E","title":"银凯南华公寓","lon":"121.3091","lat":"31.287252","category":"47","category_name":"住宅区","address":"南华路50弄"},{"poiid":"B2094757D568A5FD499D","title":"漪园新村","lon":"121.30885","lat":"31.28528","category":"47","category_name":"住宅区","address":"上海市嘉定区南翔镇火车站路167-1号等"},{"poiid":"B2094654D46BABFF4398","title":"古猗园","lon":"121.31596","lat":"31.29164","category":"240","category_name":"国家级景点","address":"嘉定区南翔镇沪宜路218号"},{"poiid":"B2094757D06EAAF5419F","title":"南翔漪园小笼馆","lon":"121.314494054","lat":"31.292691793","category":"68","category_name":"快餐厅","address":"嘉定区南翔镇古漪园路288号(近古漪园北门)"},{"poiid":"B2094757D06FA3FD479A","title":"南翔老街","lon":"121.30948","lat":"31.291","category":"260","category_name":"其他","address":"上海近郊嘉定区南翔镇德华路(近共和街)  "},{"poiid":"B2094757D06FAAFF459B","title":"古猗园餐厅","lon":"121.31639","lat":"31.29069","category":"68","category_name":"快餐厅","address":"嘉定区南翔镇沪宜公路218号古猗园南大门(古猗园路沪宜公路)"},{"poiid":"B2094654D46BA4FE4393","title":"南翔小笼(古猗园路)","lon":"121.31492","lat":"31.2904","category":"257","category_name":"中餐厅","address":""},{"poiid":"B2094757D068A2F9459F","title":"云翔寺","lon":"121.307806677","lat":"31.2899433667","category":"245","category_name":"教堂","address":"嘉定区南翔镇解放街263号(南华路民主街)"},{"poiid":"B2094654DB69A6FE489F","title":"古漪园","lon":"121.31603","lat":"31.29213","category":"196","category_name":"公园","address":"上海市嘉定区沪宜公路218号"},{"poiid":"B2094757D06FA2F8499E","title":"南翔镇","lon":"121.32083892","lat":"31.293945312","category":"260","category_name":"其他","address":"上海嘉定区南翔镇"},{"poiid":"B2094655D26BA1FE499A","title":"南翔","lon":"121.30975","lat":"31.28663","category":"38","category_name":"公交车站","address":""},{"poiid":"B2094757D06AA5FF449C","title":"南翔北站","lon":"121.31378555","lat":"31.282248503","category":"22","category_name":"火车站","address":"上海银翔路,沪宁高铁,南翔北站"},{"poiid":"B2094757D56DA2F4499D","title":"阿福龙虾","lon":"121.3066235","lat":"31.2907771","category":"68","category_name":"快餐厅","address":"嘉定区南翔镇南华路277号(近德华路)"},{"poiid":"B2094655D264A2F5459E","title":"南翔古镇","lon":"121.31557","lat":"31.2895","category":"250","category_name":"公园户外","address":"嘉定区南翔镇人民街(生产街南华路间)"},{"poiid":"B2094750D26BA7F9429A","title":"南翔医院","lon":"121.317955","lat":"31.290615","category":"162","category_name":"医院","address":"众仁路495号"},{"poiid":"B2094757D06AA4FA499D","title":"吾介小笼馆","lon":"121.30705","lat":"31.28919","category":"68","category_name":"快餐厅","address":"嘉定区南翔镇人民街122号(近南华路)"},{"poiid":"B2094654D46BA4FE4892","title":"泰煌火锅(翔黄公路)","lon":"121.30815","lat":"31.28604","category":"86","category_name":"火锅店","address":"嘉定区南翔镇沪宜公路653号"},{"poiid":"B2094757D069A2FE4792","title":"肯德基 KFC (南翔店)","lon":"121.308648","lat":"31.29012","category":"68","category_name":"快餐厅","address":"嘉定区南翔镇解放街160号(南翔解放街民主街)"},{"poiid":"B2094654DB65A4FD419A","title":"南翔医院","lon":"121.31098","lat":"31.29164","category":"162","category_name":"医院","address":"嘉定区南翔镇众仁路495号(近真南路)"},{"poiid":"B2094654DB65A0F8469C","title":"锦江之星(南翔店)","lon":"121.31021","lat":"31.28772","category":"216","category_name":"经济型连锁酒店","address":"嘉定区南翔镇解放街25号(近南翔古猗园)"},{"poiid":"B2094654D46BA4FF429C","title":"南华小区","lon":"121.30824","lat":"31.288046","category":"47","category_name":"住宅区","address":"南华路101弄1-56号"},{"poiid":"B2094654D46BABFE489C","title":"同盛公寓","lon":"121.31451","lat":"31.29105","category":"47","category_name":"住宅区","address":"上海市普陀区宁夏路335号"},{"poiid":"B2094757D06AAAFF439F","title":"嘉定二中","lon":"121.31111145","lat":"31.2952690125","category":"55","category_name":"中学","address":"嘉定区德华路388号"},{"poiid":"B2094757D06BA0F84898","title":"上岛咖啡 德华路店 UBC Coffee","lon":"121.304514054","lat":"31.291208793","category":"260","category_name":"其他","address":"嘉定区南翔镇德华路789号(沪宜公路口)"},{"poiid":"B2094757DA69A1F94592","title":"南翔公馆","lon":"121.30864035489","lat":"31.292813635332","category":"72","category_name":"广东菜","address":"嘉定区南翔镇共和街1号(近德华路)"},{"poiid":"B2094757D06BA2FC4892","title":"乐翻天南翔店","lon":"121.310537625","lat":"31.2866696988","category":"500","category_name":"未知分类","address":"上海市嘉定区南翔镇沪宜公路653号"},{"poiid":"B2094757D664A3FF4193","title":"兰森酒楼","lon":"121.3148692","lat":"31.2908675","category":"76","category_name":"上海菜","address":"南翔镇古猗园路291-295近沪宜公路"},{"poiid":"B2094757D16BA4F9439C","title":"日华轩","lon":"121.310525925","lat":"31.2894941573","category":"68","category_name":"快餐厅","address":"嘉定区南翔镇人民街58号(德华路共和街)"},{"poiid":"B2094655D26BA5FD429F","title":"翔飞酒家","lon":"121.312632054","lat":"31.288125793","category":"76","category_name":"上海菜","address":"嘉定区南翔镇沪宜公路549号"},{"poiid":"B2094757D16CA0F54793","title":"祥源府邸","lon":"121.31923252","lat":"31.287508716","category":"47","category_name":"住宅区","address":"上海嘉定区南翔镇金通路1788弄"},{"poiid":"B2094757D06BA2FF469E","title":"龙景轩(南翔店)","lon":"121.30506","lat":"31.28818","category":"76","category_name":"上海菜","address":"嘉定区沪宜公路855号(近民主街)"},{"poiid":"B2094757D66EA3F94093","title":"南翔小笼馆","lon":"121.310229275","lat":"31.2923393662","category":"68","category_name":"快餐厅","address":"嘉定区南翔镇生产街135号(吉利桥南侧)"},{"poiid":"B2094654D46BA6F5459C","title":"南翔饭店","lon":"121.3091","lat":"31.29103","category":"76","category_name":"上海菜","address":"嘉定区南翔古镇人民街32号甲"},{"poiid":"B2094750D76CA5FC4498","title":"锦泰酒店","lon":"121.316","lat":"31.2886","category":"76","category_name":"上海菜","address":"嘉定区南翔镇古漪园路283-287号(近古漪园)"},{"poiid":"B2094757D16AA6FF479F","title":"泰缘祥烧烤","lon":"121.31061554","lat":"31.287509918","category":"247","category_name":"餐饮美食","address":"上海南华路"},{"poiid":"B2094757D464A0FA419F","title":"古龙饭庄","lon":"121.315867054","lat":"31.289932793","category":"76","category_name":"上海菜","address":"嘉定区南翔镇沪宜公路281号古猗园内(近路沪宜公路)"},{"poiid":"B2094654D46BA4FE4499","title":"百年老店南翔小笼","lon":"121.3154","lat":"31.29042","category":"257","category_name":"中餐厅","address":""},{"poiid":"B2094654D46BA4FF4499","title":"利群饮食总汇","lon":"121.3093","lat":"31.28955","category":"68","category_name":"快餐厅","address":"嘉定区南翔解放街116号(南翔解放街尹家弄)"},{"poiid":"B2094654D46BA5FC4192","title":"南翔电影院","lon":"121.309617","lat":"31.28842","category":"178","category_name":"电影院","address":"南翔镇"},{"poiid":"B2094757D064A2F94998","title":"韩美轩","lon":"121.314423875","lat":"31.291407057","category":"500","category_name":"未知分类","address":"嘉定区南翔镇古漪园路303号(沪宜公路众仁路)"},{"poiid":"B2094757D16AA5FF4899","title":"阿婆家常菜","lon":"121.30729492","lat":"31.290081169","category":"76","category_name":"上海菜","address":"嘉定区南翔镇南华路262号(德华路南华路)"},{"poiid":"B2094654D46BA4FE449F","title":"百年老店南翔小笼专卖店","lon":"121.31503","lat":"31.29101","category":"257","category_name":"中餐厅","address":"嘉定区民主东路344号"},{"poiid":"B2094757D66CA0F4409B","title":"蓝波浪形象设计","lon":"121.31079892","lat":"31.288849143","category":"148","category_name":"美容美发店","address":"上海近郊南翔民主东街附近(近云翔寺)  "},{"poiid":"B2094757D568AAFF499D","title":"米兰咖啡","lon":"121.3159631","lat":"31.29164611","category":"65","category_name":"咖啡厅","address":"嘉定区南翔镇沪宜公路281号古猗园旁(沪宜公路口)"},{"poiid":"B2094750D664A1F4489C","title":"鹤翔知青美食","lon":"121.315","lat":"31.2896","category":"82","category_name":"东北菜","address":"嘉定区沪宜公路242号(古猗园路口)"},{"poiid":"B2094757D16BA5F44398","title":"南翔集美楼饭店","lon":"121.30921","lat":"31.29085","category":"76","category_name":"上海菜","address":"嘉定区南翔老街人民街22号(近南翔镇中心老街)"},{"poiid":"B2094757D064A1FC4899","title":"南翔南华路","lon":"121.30814","lat":"31.288216","category":"500","category_name":"未知分类","address":"上海嘉定区南翔镇南华路"},{"poiid":"B2094654DB69A6F8439E","title":"华联超市(南翔店)","lon":"121.30989","lat":"31.28869","category":"118","category_name":"超级市场","address":"嘉定区南翔镇解放街95号"},{"poiid":"B2094654D46BA5FC429E","title":"南翔汽车站","lon":"121.31595","lat":"31.2896","category":"35","category_name":"长途汽车站","address":"嘉定区古猗园路(古猗园路民主街)"},{"poiid":"B2094757D064A7F94792","title":"翔华新村","lon":"121.30737","lat":"31.285318","category":"500","category_name":"未知分类","address":"上海南翔镇火车站路118弄"},{"poiid":"B2094654D46BA4FF429E","title":"银凯南华公寓","lon":"121.3091","lat":"31.287252","category":"47","category_name":"住宅区","address":"南华路50弄"},{"poiid":"B2094757D568A5FD499D","title":"漪园新村","lon":"121.30885","lat":"31.28528","category":"47","category_name":"住宅区","address":"上海市嘉定区南翔镇火车站路167-1号等"},{"poiid":"B2094654D46BABFF4398","title":"古猗园","lon":"121.31596","lat":"31.29164","category":"240","category_name":"国家级景点","address":"嘉定区南翔镇沪宜路218号"},{"poiid":"B2094757D06EAAF5419F","title":"南翔漪园小笼馆","lon":"121.314494054","lat":"31.292691793","category":"68","category_name":"快餐厅","address":"嘉定区南翔镇古漪园路288号(近古漪园北门)"},{"poiid":"B2094757D06FA3FD479A","title":"南翔老街","lon":"121.30948","lat":"31.291","category":"260","category_name":"其他","address":"上海近郊嘉定区南翔镇德华路(近共和街)  "},{"poiid":"B2094757D06FAAFF459B","title":"古猗园餐厅","lon":"121.31639","lat":"31.29069","category":"68","category_name":"快餐厅","address":"嘉定区南翔镇沪宜公路218号古猗园南大门(古猗园路沪宜公路)"},{"poiid":"B2094654D46BA4FE4393","title":"南翔小笼(古猗园路)","lon":"121.31492","lat":"31.2904","category":"257","category_name":"中餐厅","address":""},{"poiid":"B2094757D068A2F9459F","title":"云翔寺","lon":"121.307806677","lat":"31.2899433667","category":"245","category_name":"教堂","address":"嘉定区南翔镇解放街263号(南华路民主街)"},{"poiid":"B2094654DB69A6FE489F","title":"古漪园","lon":"121.31603","lat":"31.29213","category":"196","category_name":"公园","address":"上海市嘉定区沪宜公路218号"},{"poiid":"B2094757D06FA2F8499E","title":"南翔镇","lon":"121.32083892","lat":"31.293945312","category":"260","category_name":"其他","address":"上海嘉定区南翔镇"},{"poiid":"B2094655D26BA1FE499A","title":"南翔","lon":"121.30975","lat":"31.28663","category":"38","category_name":"公交车站","address":""},{"poiid":"B2094757D06AA5FF449C","title":"南翔北站","lon":"121.31378555","lat":"31.282248503","category":"22","category_name":"火车站","address":"上海银翔路,沪宁高铁,南翔北站"},{"poiid":"B2094757D56DA2F4499D","title":"阿福龙虾","lon":"121.3066235","lat":"31.2907771","category":"68","category_name":"快餐厅","address":"嘉定区南翔镇南华路277号(近德华路)"},{"poiid":"B2094655D264A2F5459E","title":"南翔古镇","lon":"121.31557","lat":"31.2895","category":"250","category_name":"公园户外","address":"嘉定区南翔镇人民街(生产街南华路间)"},{"poiid":"B2094750D26BA7F9429A","title":"南翔医院","lon":"121.317955","lat":"31.290615","category":"162","category_name":"医院","address":"众仁路495号"},{"poiid":"B2094757D06AA4FA499D","title":"吾介小笼馆","lon":"121.30705","lat":"31.28919","category":"68","category_name":"快餐厅","address":"嘉定区南翔镇人民街122号(近南华路)"},{"poiid":"B2094654D46BA4FE4892","title":"泰煌火锅(翔黄公路)","lon":"121.30815","lat":"31.28604","category":"86","category_name":"火锅店","address":"嘉定区南翔镇沪宜公路653号"},{"poiid":"B2094757D069A2FE4792","title":"肯德基 KFC (南翔店)","lon":"121.308648","lat":"31.29012","category":"68","category_name":"快餐厅","address":"嘉定区南翔镇解放街160号(南翔解放街民主街)"},{"poiid":"B2094654DB65A4FD419A","title":"南翔医院","lon":"121.31098","lat":"31.29164","category":"162","category_name":"医院","address":"嘉定区南翔镇众仁路495号(近真南路)"},{"poiid":"B2094654DB65A0F8469C","title":"锦江之星(南翔店)","lon":"121.31021","lat":"31.28772","category":"216","category_name":"经济型连锁酒店","address":"嘉定区南翔镇解放街25号(近南翔古猗园)"},{"poiid":"B2094654D46BA4FF429C","title":"南华小区","lon":"121.30824","lat":"31.288046","category":"47","category_name":"住宅区","address":"南华路101弄1-56号"},{"poiid":"B2094654D46BABFE489C","title":"同盛公寓","lon":"121.31451","lat":"31.29105","category":"47","category_name":"住宅区","address":"上海市普陀区宁夏路335号"},{"poiid":"B2094757D06AAAFF439F","title":"嘉定二中","lon":"121.31111145","lat":"31.2952690125","category":"55","category_name":"中学","address":"嘉定区德华路388号"},{"poiid":"B2094757D06BA0F84898","title":"上岛咖啡 德华路店 UBC Coffee","lon":"121.304514054","lat":"31.291208793","category":"260","category_name":"其他","address":"嘉定区南翔镇德华路789号(沪宜公路口)"},{"poiid":"B2094757DA69A1F94592","title":"南翔公馆","lon":"121.30864035489","lat":"31.292813635332","category":"72","category_name":"广东菜","address":"嘉定区南翔镇共和街1号(近德华路)"},{"poiid":"B2094757D06BA2FC4892","title":"乐翻天南翔店","lon":"121.310537625","lat":"31.2866696988","category":"500","category_name":"未知分类","address":"上海市嘉定区南翔镇沪宜公路653号"},{"poiid":"B2094757D664A3FF4193","title":"兰森酒楼","lon":"121.3148692","lat":"31.2908675","category":"76","category_name":"上海菜","address":"南翔镇古猗园路291-295近沪宜公路"},{"poiid":"B2094757D16BA4F9439C","title":"日华轩","lon":"121.310525925","lat":"31.2894941573","category":"68","category_name":"快餐厅","address":"嘉定区南翔镇人民街58号(德华路共和街)"},{"poiid":"B2094655D26BA5FD429F","title":"翔飞酒家","lon":"121.312632054","lat":"31.288125793","category":"76","category_name":"上海菜","address":"嘉定区南翔镇沪宜公路549号"},{"poiid":"B2094757D16CA0F54793","title":"祥源府邸","lon":"121.31923252","lat":"31.287508716","category":"47","category_name":"住宅区","address":"上海嘉定区南翔镇金通路1788弄"},{"poiid":"B2094757D06BA2FF469E","title":"龙景轩(南翔店)","lon":"121.30506","lat":"31.28818","category":"76","category_name":"上海菜","address":"嘉定区沪宜公路855号(近民主街)"},{"poiid":"B2094757D66EA3F94093","title":"南翔小笼馆","lon":"121.310229275","lat":"31.2923393662","category":"68","category_name":"快餐厅","address":"嘉定区南翔镇生产街135号(吉利桥南侧)"},{"poiid":"B2094654D46BA6F5459C","title":"南翔饭店","lon":"121.3091","lat":"31.29103","category":"76","category_name":"上海菜","address":"嘉定区南翔古镇人民街32号甲"},{"poiid":"B2094750D76CA5FC4498","title":"锦泰酒店","lon":"121.316","lat":"31.2886","category":"76","category_name":"上海菜","address":"嘉定区南翔镇古漪园路283-287号(近古漪园)"},{"poiid":"B2094757D16AA6FF479F","title":"泰缘祥烧烤","lon":"121.31061554","lat":"31.287509918","category":"247","category_name":"餐饮美食","address":"上海南华路"},{"poiid":"B2094757D464A0FA419F","title":"古龙饭庄","lon":"121.315867054","lat":"31.289932793","category":"76","category_name":"上海菜","address":"嘉定区南翔镇沪宜公路281号古猗园内(近路沪宜公路)"},{"poiid":"B2094654D46BA4FE4499","title":"百年老店南翔小笼","lon":"121.3154","lat":"31.29042","category":"257","category_name":"中餐厅","address":""},{"poiid":"B2094654D46BA4FF4499","title":"利群饮食总汇","lon":"121.3093","lat":"31.28955","category":"68","category_name":"快餐厅","address":"嘉定区南翔解放街116号(南翔解放街尹家弄)"},{"poiid":"B2094654D46BA5FC4192","title":"南翔电影院","lon":"121.309617","lat":"31.28842","category":"178","category_name":"电影院","address":"南翔镇"},{"poiid":"B2094757D064A2F94998","title":"韩美轩","lon":"121.314423875","lat":"31.291407057","category":"500","category_name":"未知分类","address":"嘉定区南翔镇古漪园路303号(沪宜公路众仁路)"},{"poiid":"B2094757D16AA5FF4899","title":"阿婆家常菜","lon":"121.30729492","lat":"31.290081169","category":"76","category_name":"上海菜","address":"嘉定区南翔镇南华路262号(德华路南华路)"},{"poiid":"B2094654D46BA4FE449F","title":"百年老店南翔小笼专卖店","lon":"121.31503","lat":"31.29101","category":"257","category_name":"中餐厅","address":"嘉定区民主东路344号"},{"poiid":"B2094757D66CA0F4409B","title":"蓝波浪形象设计","lon":"121.31079892","lat":"31.288849143","category":"148","category_name":"美容美发店","address":"上海近郊南翔民主东街附近(近云翔寺)  "},{"poiid":"B2094757D568AAFF499D","title":"米兰咖啡","lon":"121.3159631","lat":"31.29164611","category":"65","category_name":"咖啡厅","address":"嘉定区南翔镇沪宜公路281号古猗园旁(沪宜公路口)"},{"poiid":"B2094750D664A1F4489C","title":"鹤翔知青美食","lon":"121.315","lat":"31.2896","category":"82","category_name":"东北菜","address":"嘉定区沪宜公路242号(古猗园路口)"},{"poiid":"B2094757D16BA5F44398","title":"南翔集美楼饭店","lon":"121.30921","lat":"31.29085","category":"76","category_name":"上海菜","address":"嘉定区南翔老街人民街22号(近南翔镇中心老街)"},{"poiid":"B2094757D064A1FC4899","title":"南翔南华路","lon":"121.30814","lat":"31.288216","category":"500","category_name":"未知分类","address":"上海嘉定区南翔镇南华路"},{"poiid":"B2094654DB69A6F8439E","title":"华联超市(南翔店)","lon":"121.30989","lat":"31.28869","category":"118","category_name":"超级市场","address":"嘉定区南翔镇解放街95号"},{"poiid":"B2094654D46BA5FC429E","title":"南翔汽车站","lon":"121.31595","lat":"31.2896","category":"35","category_name":"长途汽车站","address":"嘉定区古猗园路(古猗园路民主街)"},{"poiid":"B2094757D064A7F94792","title":"翔华新村","lon":"121.30737","lat":"31.285318","category":"500","category_name":"未知分类","address":"上海南翔镇火车站路118弄"},{"poiid":"B2094654D46BA4FF429E","title":"银凯南华公寓","lon":"121.3091","lat":"31.287252","category":"47","category_name":"住宅区","address":"南华路50弄"},{"poiid":"B2094757D568A5FD499D","title":"漪园新村","lon":"121.30885","lat":"31.28528","category":"47","category_name":"住宅区","address":"上海市嘉定区南翔镇火车站路167-1号等"},{"poiid":"B2094654D46BABFF4398","title":"古猗园","lon":"121.31596","lat":"31.29164","category":"240","category_name":"国家级景点","address":"嘉定区南翔镇沪宜路218号"},{"poiid":"B2094757D06EAAF5419F","title":"南翔漪园小笼馆","lon":"121.314494054","lat":"31.292691793","category":"68","category_name":"快餐厅","address":"嘉定区南翔镇古漪园路288号(近古漪园北门)"},{"poiid":"B2094757D06FA3FD479A","title":"南翔老街","lon":"121.30948","lat":"31.291","category":"260","category_name":"其他","address":"上海近郊嘉定区南翔镇德华路(近共和街)  "},{"poiid":"B2094757D06FAAFF459B","title":"古猗园餐厅","lon":"121.31639","lat":"31.29069","category":"68","category_name":"快餐厅","address":"嘉定区南翔镇沪宜公路218号古猗园南大门(古猗园路沪宜公路)"},{"poiid":"B2094654D46BA4FE4393","title":"南翔小笼(古猗园路)","lon":"121.31492","lat":"31.2904","category":"257","category_name":"中餐厅","address":""},{"poiid":"B2094757D068A2F9459F","title":"云翔寺","lon":"121.307806677","lat":"31.2899433667","category":"245","category_name":"教堂","address":"嘉定区南翔镇解放街263号(南华路民主街)"},{"poiid":"B2094654DB69A6FE489F","title":"古漪园","lon":"121.31603","lat":"31.29213","category":"196","category_name":"公园","address":"上海市嘉定区沪宜公路218号"},{"poiid":"B2094757D06FA2F8499E","title":"南翔镇","lon":"121.32083892","lat":"31.293945312","category":"260","category_name":"其他","address":"上海嘉定区南翔镇"},{"poiid":"B2094655D26BA1FE499A","title":"南翔","lon":"121.30975","lat":"31.28663","category":"38","category_name":"公交车站","address":""},{"poiid":"B2094757D06AA5FF449C","title":"南翔北站","lon":"121.31378555","lat":"31.282248503","category":"22","category_name":"火车站","address":"上海银翔路,沪宁高铁,南翔北站"},{"poiid":"B2094757D56DA2F4499D","title":"阿福龙虾","lon":"121.3066235","lat":"31.2907771","category":"68","category_name":"快餐厅","address":"嘉定区南翔镇南华路277号(近德华路)"},{"poiid":"B2094655D264A2F5459E","title":"南翔古镇","lon":"121.31557","lat":"31.2895","category":"250","category_name":"公园户外","address":"嘉定区南翔镇人民街(生产街南华路间)"},{"poiid":"B2094750D26BA7F9429A","title":"南翔医院","lon":"121.317955","lat":"31.290615","category":"162","category_name":"医院","address":"众仁路495号"},{"poiid":"B2094757D06AA4FA499D","title":"吾介小笼馆","lon":"121.30705","lat":"31.28919","category":"68","category_name":"快餐厅","address":"嘉定区南翔镇人民街122号(近南华路)"},{"poiid":"B2094654D46BA4FE4892","title":"泰煌火锅(翔黄公路)","lon":"121.30815","lat":"31.28604","category":"86","category_name":"火锅店","address":"嘉定区南翔镇沪宜公路653号"},{"poiid":"B2094757D069A2FE4792","title":"肯德基 KFC (南翔店)","lon":"121.308648","lat":"31.29012","category":"68","category_name":"快餐厅","address":"嘉定区南翔镇解放街160号(南翔解放街民主街)"},{"poiid":"B2094654DB65A4FD419A","title":"南翔医院","lon":"121.31098","lat":"31.29164","category":"162","category_name":"医院","address":"嘉定区南翔镇众仁路495号(近真南路)"},{"poiid":"B2094654DB65A0F8469C","title":"锦江之星(南翔店)","lon":"121.31021","lat":"31.28772","category":"216","category_name":"经济型连锁酒店","address":"嘉定区南翔镇解放街25号(近南翔古猗园)"},{"poiid":"B2094654D46BA4FF429C","title":"南华小区","lon":"121.30824","lat":"31.288046","category":"47","category_name":"住宅区","address":"南华路101弄1-56号"},{"poiid":"B2094654D46BABFE489C","title":"同盛公寓","lon":"121.31451","lat":"31.29105","category":"47","category_name":"住宅区","address":"上海市普陀区宁夏路335号"},{"poiid":"B2094757D06AAAFF439F","title":"嘉定二中","lon":"121.31111145","lat":"31.2952690125","category":"55","category_name":"中学","address":"嘉定区德华路388号"},{"poiid":"B2094757D06BA0F84898","title":"上岛咖啡 德华路店 UBC Coffee","lon":"121.304514054","lat":"31.291208793","category":"260","category_name":"其他","address":"嘉定区南翔镇德华路789号(沪宜公路口)"},{"poiid":"B2094757DA69A1F94592","title":"南翔公馆","lon":"121.30864035489","lat":"31.292813635332","category":"72","category_name":"广东菜","address":"嘉定区南翔镇共和街1号(近德华路)"},{"poiid":"B2094757D06BA2FC4892","title":"乐翻天南翔店","lon":"121.310537625","lat":"31.2866696988","category":"500","category_name":"未知分类","address":"上海市嘉定区南翔镇沪宜公路653号"},{"poiid":"B2094757D664A3FF4193","title":"兰森酒楼","lon":"121.3148692","lat":"31.2908675","category":"76","category_name":"上海菜","address":"南翔镇古猗园路291-295近沪宜公路"},{"poiid":"B2094757D16BA4F9439C","title":"日华轩","lon":"121.310525925","lat":"31.2894941573","category":"68","category_name":"快餐厅","address":"嘉定区南翔镇人民街58号(德华路共和街)"},{"poiid":"B2094655D26BA5FD429F","title":"翔飞酒家","lon":"121.312632054","lat":"31.288125793","category":"76","category_name":"上海菜","address":"嘉定区南翔镇沪宜公路549号"},{"poiid":"B2094757D16CA0F54793","title":"祥源府邸","lon":"121.31923252","lat":"31.287508716","category":"47","category_name":"住宅区","address":"上海嘉定区南翔镇金通路1788弄"},{"poiid":"B2094757D06BA2FF469E","title":"龙景轩(南翔店)","lon":"121.30506","lat":"31.28818","category":"76","category_name":"上海菜","address":"嘉定区沪宜公路855号(近民主街)"},{"poiid":"B2094757D66EA3F94093","title":"南翔小笼馆","lon":"121.310229275","lat":"31.2923393662","category":"68","category_name":"快餐厅","address":"嘉定区南翔镇生产街135号(吉利桥南侧)"},{"poiid":"B2094654D46BA6F5459C","title":"南翔饭店","lon":"121.3091","lat":"31.29103","category":"76","category_name":"上海菜","address":"嘉定区南翔古镇人民街32号甲"},{"poiid":"B2094750D76CA5FC4498","title":"锦泰酒店","lon":"121.316","lat":"31.2886","category":"76","category_name":"上海菜","address":"嘉定区南翔镇古漪园路283-287号(近古漪园)"},{"poiid":"B2094757D16AA6FF479F","title":"泰缘祥烧烤","lon":"121.31061554","lat":"31.287509918","category":"247","category_name":"餐饮美食","address":"上海南华路"},{"poiid":"B2094757D464A0FA419F","title":"古龙饭庄","lon":"121.315867054","lat":"31.289932793","category":"76","category_name":"上海菜","address":"嘉定区南翔镇沪宜公路281号古猗园内(近路沪宜公路)"},{"poiid":"B2094654D46BA4FE4499","title":"百年老店南翔小笼","lon":"121.3154","lat":"31.29042","category":"257","category_name":"中餐厅","address":""},{"poiid":"B2094654D46BA4FF4499","title":"利群饮食总汇","lon":"121.3093","lat":"31.28955","category":"68","category_name":"快餐厅","address":"嘉定区南翔解放街116号(南翔解放街尹家弄)"},{"poiid":"B2094654D46BA5FC4192","title":"南翔电影院","lon":"121.309617","lat":"31.28842","category":"178","category_name":"电影院","address":"南翔镇"},{"poiid":"B2094757D064A2F94998","title":"韩美轩","lon":"121.314423875","lat":"31.291407057","category":"500","category_name":"未知分类","address":"嘉定区南翔镇古漪园路303号(沪宜公路众仁路)"},{"poiid":"B2094757D16AA5FF4899","title":"阿婆家常菜","lon":"121.30729492","lat":"31.290081169","category":"76","category_name":"上海菜","address":"嘉定区南翔镇南华路262号(德华路南华路)"},{"poiid":"B2094654D46BA4FE449F","title":"百年老店南翔小笼专卖店","lon":"121.31503","lat":"31.29101","category":"257","category_name":"中餐厅","address":"嘉定区民主东路344号"},{"poiid":"B2094757D66CA0F4409B","title":"蓝波浪形象设计","lon":"121.31079892","lat":"31.288849143","category":"148","category_name":"美容美发店","address":"上海近郊南翔民主东街附近(近云翔寺)  "},{"poiid":"B2094757D568AAFF499D","title":"米兰咖啡","lon":"121.3159631","lat":"31.29164611","category":"65","category_name":"咖啡厅","address":"嘉定区南翔镇沪宜公路281号古猗园旁(沪宜公路口)"},{"poiid":"B2094750D664A1F4489C","title":"鹤翔知青美食","lon":"121.315","lat":"31.2896","category":"82","category_name":"东北菜","address":"嘉定区沪宜公路242号(古猗园路口)"},{"poiid":"B2094757D16BA5F44398","title":"南翔集美楼饭店","lon":"121.30921","lat":"31.29085","category":"76","category_name":"上海菜","address":"嘉定区南翔老街人民街22号(近南翔镇中心老街)"},{"poiid":"B2094757D064A1FC4899","title":"南翔南华路","lon":"121.30814","lat":"31.288216","category":"500","category_name":"未知分类","address":"上海嘉定区南翔镇南华路"},{"poiid":"B2094654DB69A6F8439E","title":"华联超市(南翔店)","lon":"121.30989","lat":"31.28869","category":"118","category_name":"超级市场","address":"嘉定区南翔镇解放街95号"},{"poiid":"B2094654D46BA5FC429E","title":"南翔汽车站","lon":"121.31595","lat":"31.2896","category":"35","category_name":"长途汽车站","address":"嘉定区古猗园路(古猗园路民主街)"},{"poiid":"B2094757D064A7F94792","title":"翔华新村","lon":"121.30737","lat":"31.285318","category":"500","category_name":"未知分类","address":"上海南翔镇火车站路118弄"},{"poiid":"B2094654D46BA4FF429E","title":"银凯南华公寓","lon":"121.3091","lat":"31.287252","category":"47","category_name":"住宅区","address":"南华路50弄"},{"poiid":"B2094757D568A5FD499D","title":"漪园新村","lon":"121.30885","lat":"31.28528","category":"47","category_name":"住宅区","address":"上海市嘉定区南翔镇火车站路167-1号等"}]