[{"poiid":"B2094655D26AABF8489C","title":"小小花园 LE PETIT JARDIN","lon":"121.43694071246","lat":"31.200279747478","category":"260","category_name":"其他","address":"徐汇区康平路220号(天平路华山路之间)"},{"poiid":"B2094757D06FA1F8449C","title":"Miao乌咖啡屋","lon":"121.43849358","lat":"31.201338866","category":"65","category_name":"咖啡厅","address":"徐汇区天平路91弄34号(近康平路)"},{"poiid":"B2094757D06EAAFD449F","title":"新利查西餐馆(广元路店)","lon":"121.43839813","lat":"31.198795189","category":"94","category_name":"西餐厅","address":"徐汇区广元路196号甲(近天平路)"},{"poiid":"B2094757D068AAF84199","title":"上海交通大学钱学森图书馆","lon":"121.435496989","lat":"31.2013391905","category":"181","category_name":"图书馆","address":"徐汇区华山路1800号"},{"poiid":"B2094757DA6FA3F8429B","title":"老吉士酒家","lon":"121.437904","lat":"31.2031100000001","category":"76","category_name":"上海菜","address":"徐汇区天平路41号(近淮海中路)"},{"poiid":"B2094654DA6DA3FF429B","title":"城开国际大厦","lon":"121.438","lat":"31.1994","category":"46","category_name":"楼宇","address":"宝山区友谊路1588弄"},{"poiid":"B2094654DA6EA0FC4099","title":"上海交通大学徐汇校区(东门)","lon":"121.43654","lat":"31.19868","category":"52","category_name":"高等院校","address":"华山路1954"},{"poiid":"B2094757D06FAAF4429B","title":"中村发型设计中心(华山路店)","lon":"121.43522","lat":"31.20261","category":"260","category_name":"其他","address":"上海徐汇区华山路1591号(淮海西路口)  "},{"poiid":"B2094654DB6BA5F54193","title":"南洋模范中学","lon":"121.43667","lat":"31.20099","category":"55","category_name":"中学","address":"天平路200"},{"poiid":"B2094750D665AAFC439A","title":"上海早晨","lon":"121.439","lat":"31.2021","category":"68","category_name":"快餐厅","address":"徐汇区余庆路80号"},{"poiid":"B2094654DB64A4FF449A","title":"味千拉面博家楼店","lon":"121.43709","lat":"31.19857","category":"95","category_name":"日本料理","address":"徐汇区华山路1859号1楼(近广元西路)"},{"poiid":"B2094757D068A3FB499B","title":"上海交通大学新上院","lon":"121.43655","lat":"31.198691","category":"52","category_name":"高等院校","address":"上海市华山路1954号"},{"poiid":"B2094750D76EA2FF4799","title":"尊萃508公馆","lon":"121.436","lat":"31.2018","category":"76","category_name":"上海菜","address":"徐汇区华山路1731号(近淮海西路)"},{"poiid":"B2094757D06AA1FE449A","title":"正宜丰","lon":"121.43801933","lat":"31.199464491","category":"257","category_name":"中餐厅","address":"徐汇区天平路137号(康平路与广元路中间)"},{"poiid":"B2094757D068AAF54292","title":"辣肉面大王","lon":"121.43841","lat":"31.19983","category":"68","category_name":"快餐厅","address":"徐汇区天平路220号(近康平路)"},{"poiid":"B2094654DA6CAAFD4093","title":"元福大厦","lon":"121.43874095254","lat":"31.19830331843","category":"46","category_name":"楼宇","address":"上海市徐汇区虹桥路188号"},{"poiid":"B2094757D069A2FB409C","title":"莎拂利(天平店)","lon":"121.43762","lat":"31.20045","category":"94","category_name":"西餐厅","address":"徐汇区天平路220号(近康平路)"},{"poiid":"B2094757D069ABFC419B","title":"长颈鹿美语","lon":"121.436288","lat":"31.201712","category":"260","category_name":"其他","address":"徐汇区华山路1751号海斯大厦3楼(近淮海西路)"},{"poiid":"B2094757D464A7FD419E","title":"牧羊餐厅","lon":"121.43730728468","lat":"31.199917951653","category":"76","category_name":"上海菜","address":"徐汇区天平路208弄车间1号(近康平路)"},{"poiid":"B2094654DA6DA3FF4292","title":"上海西华酒店公寓","lon":"121.43513","lat":"31.2018","category":"214","category_name":"四星级宾馆","address":"上海市徐汇区淮海西路1号(华山路口)"},{"poiid":"B2094757D16DA7FF4393","title":"喵呜咖啡","lon":"121.43856358","lat":"31.201384867","category":"65","category_name":"咖啡厅","address":"上海市天平路91弄34号"},{"poiid":"B2094751D565A1FC4499","title":"百嘉乐vshow","lon":"121.438392","lat":"31.198287","category":"248","category_name":"生活娱乐","address":"天钥桥路123号"},{"poiid":"B2094757D064A4F84692","title":"上海交通大学徐汇校区图书馆","lon":"121.43806457","lat":"31.198844909","category":"253","category_name":"校园生活","address":"徐汇区华山路1954号上海交通大学内"},{"poiid":"B2094753DA64A6FA4393","title":"港汇恒隆广场","lon":"121.438941","lat":"31.198213","category":"500","category_name":"未知分类","address":"上海市 徐家汇"},{"poiid":"B2094750D06CA3F84493","title":"康平路天平路","lon":"121.437881","lat":"31.201086","category":"500","category_name":"未知分类","address":null},{"poiid":"B2094751D56DA7F54998","title":"鲁马滋(余庆路店)","lon":"121.43929","lat":"31.2017","category":"247","category_name":"餐饮美食","address":"徐汇区余庆路110弄52号(近康平路)"},{"poiid":"B2094757D06FA0FD4693","title":"Shanghai Studio","lon":"121.4377","lat":"31.20369","category":"260","category_name":"其他","address":"徐汇区淮海中路1950弄4号(近天平路)"},{"poiid":"B2094757D169A2FE4492","title":"FC Styling House","lon":"121.437851586","lat":"31.2033589056","category":"500","category_name":"未知分类","address":"上海天平路30号(近淮海中路)"},{"poiid":"B2094757D06FA6FF489B","title":"7-ELEVEN(西华店)","lon":"121.4382019","lat":"31.200580596","category":"117","category_name":"便民商店/便利店","address":"长宁区淮海西路1号西华酒店公寓1楼(近华山路)"},{"poiid":"B2094655D26EA1FF469D","title":"金凤凰酒家","lon":"121.43513","lat":"31.2018","category":"247","category_name":"餐饮美食","address":"长宁区淮海西路1号西华酒店公寓4-5楼(华山路口)"},{"poiid":"B2094654DA6DABF84093","title":"上海沪剧院(东门)","lon":"121.4375","lat":"31.20307","category":"180","category_name":"剧场","address":"天平路38号甲"},{"poiid":"B2094757D06AA6F5459C","title":"新庆余","lon":"121.43956","lat":"31.20141","category":"68","category_name":"快餐厅","address":"徐汇区余庆路120号(近康平路)"},{"poiid":"B2094757D569A7FD469F","title":"天平书店","lon":"121.4378281","lat":"31.20149889","category":"125","category_name":"书店","address":"徐汇区天平路73号(近淮海中路)"},{"poiid":"B2094655D264ABF54692","title":"上海市徐汇区老干部大学","lon":"121.43819","lat":"31.20055","category":"53","category_name":"成人教育","address":"康平路205"},{"poiid":"B2094757D465A6F4479A","title":"鲜逸坊","lon":"121.43819133266","lat":"31.202362903399","category":"76","category_name":"上海菜","address":"徐汇区余庆路80号(淮海中路)"},{"poiid":"B2094757D66BA3F94298","title":"村夫烤鱼 广元路店","lon":"121.43862","lat":"31.19887","category":"68","category_name":"快餐厅","address":"徐汇区广元路196号(近天平路)"},{"poiid":"B2094751D26BA5FF4399","title":"二号线娄山关路地铁站","lon":"121.4378429","lat":"31.2024692","category":"36","category_name":"地铁站","address":null},{"poiid":"B2094750DA6EA6FA479D","title":"天府面庄","lon":"121.437126","lat":"31.200155","category":"68","category_name":"快餐厅","address":"徐汇区天平路(近康平路)"},{"poiid":"B2094757D16BA1F8409D","title":"汇星幼儿园","lon":"121.43653848","lat":"31.200972358","category":"57","category_name":"幼儿园","address":"徐汇区宛平南路19弄3号"},{"poiid":"B2094655D26AA6FB409C","title":"小小家园古董家具杂货铺","lon":"121.43701","lat":"31.20012","category":"247","category_name":"餐饮美食","address":"徐汇区康平路220号(华山路口)"},{"poiid":"B2094655D26FAAF54692","title":"天平1号小区","lon":"121.43867","lat":"31.2003","category":"47","category_name":"住宅区","address":"康平203弄1-40号"},{"poiid":"B2094655D26BA2F8499A","title":"天平路广元路","lon":"121.43803","lat":"31.19918","category":"38","category_name":"公交车站","address":""},{"poiid":"B2094655D26CA4FF489C","title":"南洋模范中学(2号门)","lon":"121.43643","lat":"31.20078","category":"678","category_name":"学校大门","address":""},{"poiid":"B2094655D26BA2F8499B","title":"天平路淮海中路","lon":"121.43785","lat":"31.20321","category":"38","category_name":"公交车站","address":""},{"poiid":"B2094750D76EA4F4439C","title":"交通大学教师活动中心","lon":"121.437","lat":"31.1988","category":"76","category_name":"上海菜","address":"徐汇区华山路1954号上海交通大学内(近广元西路)"},{"poiid":"B2094654DA6DABF84099","title":"上海市文艺门诊部","lon":"121.43766","lat":"31.20248","category":"162","category_name":"医院","address":"徐汇区天平路40号"},{"poiid":"B2094654DA6DA3FF429C","title":"交大游泳池","lon":"121.43591","lat":"31.20094","category":"231","category_name":"游泳馆","address":"华山路1794"},{"poiid":"B2094655D36CA0F84499","title":"交通大学(华山路康平路)","lon":"121.43632","lat":"31.20029","category":"38","category_name":"公交车站","address":""},{"poiid":"B2094654DA6DABF84393","title":"南洋模范中学(3号门)","lon":"121.43635","lat":"31.2011","category":"678","category_name":"学校大门","address":""},{"poiid":"B2094654DA6DABFE499F","title":"上海交通大学医学院附属国际和平妇幼保健院生殖医学中心","lon":"121.43977","lat":"31.1989","category":"162","category_name":"医院","address":"广元路145"},{"poiid":"B2094655D26AABF8489C","title":"小小花园 LE PETIT JARDIN","lon":"121.43694071246","lat":"31.200279747478","category":"260","category_name":"其他","address":"徐汇区康平路220号(天平路华山路之间)"},{"poiid":"B2094757D06FA1F8449C","title":"Miao乌咖啡屋","lon":"121.43849358","lat":"31.201338866","category":"65","category_name":"咖啡厅","address":"徐汇区天平路91弄34号(近康平路)"},{"poiid":"B2094757D06EAAFD449F","title":"新利查西餐馆(广元路店)","lon":"121.43839813","lat":"31.198795189","category":"94","category_name":"西餐厅","address":"徐汇区广元路196号甲(近天平路)"},{"poiid":"B2094757D068AAF84199","title":"上海交通大学钱学森图书馆","lon":"121.435496989","lat":"31.2013391905","category":"181","category_name":"图书馆","address":"徐汇区华山路1800号"},{"poiid":"B2094757DA6FA3F8429B","title":"老吉士酒家","lon":"121.437904","lat":"31.2031100000001","category":"76","category_name":"上海菜","address":"徐汇区天平路41号(近淮海中路)"},{"poiid":"B2094654DA6DA3FF429B","title":"城开国际大厦","lon":"121.438","lat":"31.1994","category":"46","category_name":"楼宇","address":"宝山区友谊路1588弄"},{"poiid":"B2094654DA6EA0FC4099","title":"上海交通大学徐汇校区(东门)","lon":"121.43654","lat":"31.19868","category":"52","category_name":"高等院校","address":"华山路1954"},{"poiid":"B2094757D06FAAF4429B","title":"中村发型设计中心(华山路店)","lon":"121.43522","lat":"31.20261","category":"260","category_name":"其他","address":"上海徐汇区华山路1591号(淮海西路口)  "},{"poiid":"B2094654DB6BA5F54193","title":"南洋模范中学","lon":"121.43667","lat":"31.20099","category":"55","category_name":"中学","address":"天平路200"},{"poiid":"B2094750D665AAFC439A","title":"上海早晨","lon":"121.439","lat":"31.2021","category":"68","category_name":"快餐厅","address":"徐汇区余庆路80号"},{"poiid":"B2094654DB64A4FF449A","title":"味千拉面博家楼店","lon":"121.43709","lat":"31.19857","category":"95","category_name":"日本料理","address":"徐汇区华山路1859号1楼(近广元西路)"},{"poiid":"B2094757D068A3FB499B","title":"上海交通大学新上院","lon":"121.43655","lat":"31.198691","category":"52","category_name":"高等院校","address":"上海市华山路1954号"},{"poiid":"B2094750D76EA2FF4799","title":"尊萃508公馆","lon":"121.436","lat":"31.2018","category":"76","category_name":"上海菜","address":"徐汇区华山路1731号(近淮海西路)"},{"poiid":"B2094757D06AA1FE449A","title":"正宜丰","lon":"121.43801933","lat":"31.199464491","category":"257","category_name":"中餐厅","address":"徐汇区天平路137号(康平路与广元路中间)"},{"poiid":"B2094757D068AAF54292","title":"辣肉面大王","lon":"121.43841","lat":"31.19983","category":"68","category_name":"快餐厅","address":"徐汇区天平路220号(近康平路)"},{"poiid":"B2094654DA6CAAFD4093","title":"元福大厦","lon":"121.43874095254","lat":"31.19830331843","category":"46","category_name":"楼宇","address":"上海市徐汇区虹桥路188号"},{"poiid":"B2094757D069A2FB409C","title":"莎拂利(天平店)","lon":"121.43762","lat":"31.20045","category":"94","category_name":"西餐厅","address":"徐汇区天平路220号(近康平路)"},{"poiid":"B2094757D069ABFC419B","title":"长颈鹿美语","lon":"121.436288","lat":"31.201712","category":"260","category_name":"其他","address":"徐汇区华山路1751号海斯大厦3楼(近淮海西路)"},{"poiid":"B2094757D464A7FD419E","title":"牧羊餐厅","lon":"121.43730728468","lat":"31.199917951653","category":"76","category_name":"上海菜","address":"徐汇区天平路208弄车间1号(近康平路)"},{"poiid":"B2094654DA6DA3FF4292","title":"上海西华酒店公寓","lon":"121.43513","lat":"31.2018","category":"214","category_name":"四星级宾馆","address":"上海市徐汇区淮海西路1号(华山路口)"},{"poiid":"B2094757D16DA7FF4393","title":"喵呜咖啡","lon":"121.43856358","lat":"31.201384867","category":"65","category_name":"咖啡厅","address":"上海市天平路91弄34号"},{"poiid":"B2094751D565A1FC4499","title":"百嘉乐vshow","lon":"121.438392","lat":"31.198287","category":"248","category_name":"生活娱乐","address":"天钥桥路123号"},{"poiid":"B2094757D064A4F84692","title":"上海交通大学徐汇校区图书馆","lon":"121.43806457","lat":"31.198844909","category":"253","category_name":"校园生活","address":"徐汇区华山路1954号上海交通大学内"},{"poiid":"B2094753DA64A6FA4393","title":"港汇恒隆广场","lon":"121.438941","lat":"31.198213","category":"500","category_name":"未知分类","address":"上海市 徐家汇"},{"poiid":"B2094750D06CA3F84493","title":"康平路天平路","lon":"121.437881","lat":"31.201086","category":"500","category_name":"未知分类","address":null},{"poiid":"B2094751D56DA7F54998","title":"鲁马滋(余庆路店)","lon":"121.43929","lat":"31.2017","category":"247","category_name":"餐饮美食","address":"徐汇区余庆路110弄52号(近康平路)"},{"poiid":"B2094757D06FA0FD4693","title":"Shanghai Studio","lon":"121.4377","lat":"31.20369","category":"260","category_name":"其他","address":"徐汇区淮海中路1950弄4号(近天平路)"},{"poiid":"B2094757D169A2FE4492","title":"FC Styling House","lon":"121.437851586","lat":"31.2033589056","category":"500","category_name":"未知分类","address":"上海天平路30号(近淮海中路)"},{"poiid":"B2094757D06FA6FF489B","title":"7-ELEVEN(西华店)","lon":"121.4382019","lat":"31.200580596","category":"117","category_name":"便民商店/便利店","address":"长宁区淮海西路1号西华酒店公寓1楼(近华山路)"},{"poiid":"B2094655D26EA1FF469D","title":"金凤凰酒家","lon":"121.43513","lat":"31.2018","category":"247","category_name":"餐饮美食","address":"长宁区淮海西路1号西华酒店公寓4-5楼(华山路口)"},{"poiid":"B2094654DA6DABF84093","title":"上海沪剧院(东门)","lon":"121.4375","lat":"31.20307","category":"180","category_name":"剧场","address":"天平路38号甲"},{"poiid":"B2094757D06AA6F5459C","title":"新庆余","lon":"121.43956","lat":"31.20141","category":"68","category_name":"快餐厅","address":"徐汇区余庆路120号(近康平路)"},{"poiid":"B2094757D569A7FD469F","title":"天平书店","lon":"121.4378281","lat":"31.20149889","category":"125","category_name":"书店","address":"徐汇区天平路73号(近淮海中路)"},{"poiid":"B2094655D264ABF54692","title":"上海市徐汇区老干部大学","lon":"121.43819","lat":"31.20055","category":"53","category_name":"成人教育","address":"康平路205"},{"poiid":"B2094757D465A6F4479A","title":"鲜逸坊","lon":"121.43819133266","lat":"31.202362903399","category":"76","category_name":"上海菜","address":"徐汇区余庆路80号(淮海中路)"},{"poiid":"B2094757D66BA3F94298","title":"村夫烤鱼 广元路店","lon":"121.43862","lat":"31.19887","category":"68","category_name":"快餐厅","address":"徐汇区广元路196号(近天平路)"},{"poiid":"B2094751D26BA5FF4399","title":"二号线娄山关路地铁站","lon":"121.4378429","lat":"31.2024692","category":"36","category_name":"地铁站","address":null},{"poiid":"B2094750DA6EA6FA479D","title":"天府面庄","lon":"121.437126","lat":"31.200155","category":"68","category_name":"快餐厅","address":"徐汇区天平路(近康平路)"},{"poiid":"B2094757D16BA1F8409D","title":"汇星幼儿园","lon":"121.43653848","lat":"31.200972358","category":"57","category_name":"幼儿园","address":"徐汇区宛平南路19弄3号"},{"poiid":"B2094655D26AA6FB409C","title":"小小家园古董家具杂货铺","lon":"121.43701","lat":"31.20012","category":"247","category_name":"餐饮美食","address":"徐汇区康平路220号(华山路口)"},{"poiid":"B2094655D26FAAF54692","title":"天平1号小区","lon":"121.43867","lat":"31.2003","category":"47","category_name":"住宅区","address":"康平203弄1-40号"},{"poiid":"B2094655D26BA2F8499A","title":"天平路广元路","lon":"121.43803","lat":"31.19918","category":"38","category_name":"公交车站","address":""},{"poiid":"B2094655D26CA4FF489C","title":"南洋模范中学(2号门)","lon":"121.43643","lat":"31.20078","category":"678","category_name":"学校大门","address":""},{"poiid":"B2094655D26BA2F8499B","title":"天平路淮海中路","lon":"121.43785","lat":"31.20321","category":"38","category_name":"公交车站","address":""},{"poiid":"B2094750D76EA4F4439C","title":"交通大学教师活动中心","lon":"121.437","lat":"31.1988","category":"76","category_name":"上海菜","address":"徐汇区华山路1954号上海交通大学内(近广元西路)"},{"poiid":"B2094654DA6DABF84099","title":"上海市文艺门诊部","lon":"121.43766","lat":"31.20248","category":"162","category_name":"医院","address":"徐汇区天平路40号"},{"poiid":"B2094654DA6DA3FF429C","title":"交大游泳池","lon":"121.43591","lat":"31.20094","category":"231","category_name":"游泳馆","address":"华山路1794"},{"poiid":"B2094655D36CA0F84499","title":"交通大学(华山路康平路)","lon":"121.43632","lat":"31.20029","category":"38","category_name":"公交车站","address":""},{"poiid":"B2094654DA6DABF84393","title":"南洋模范中学(3号门)","lon":"121.43635","lat":"31.2011","category":"678","category_name":"学校大门","address":""},{"poiid":"B2094654DA6DABFE499F","title":"上海交通大学医学院附属国际和平妇幼保健院生殖医学中心","lon":"121.43977","lat":"31.1989","category":"162","category_name":"医院","address":"广元路145"},{"poiid":"B2094655D26AABF8489C","title":"小小花园 LE PETIT JARDIN","lon":"121.43694071246","lat":"31.200279747478","category":"260","category_name":"其他","address":"徐汇区康平路220号(天平路华山路之间)"},{"poiid":"B2094757D06FA1F8449C","title":"Miao乌咖啡屋","lon":"121.43849358","lat":"31.201338866","category":"65","category_name":"咖啡厅","address":"徐汇区天平路91弄34号(近康平路)"},{"poiid":"B2094757D06EAAFD449F","title":"新利查西餐馆(广元路店)","lon":"121.43839813","lat":"31.198795189","category":"94","category_name":"西餐厅","address":"徐汇区广元路196号甲(近天平路)"},{"poiid":"B2094757D068AAF84199","title":"上海交通大学钱学森图书馆","lon":"121.435496989","lat":"31.2013391905","category":"181","category_name":"图书馆","address":"徐汇区华山路1800号"},{"poiid":"B2094757DA6FA3F8429B","title":"老吉士酒家","lon":"121.437904","lat":"31.2031100000001","category":"76","category_name":"上海菜","address":"徐汇区天平路41号(近淮海中路)"},{"poiid":"B2094654DA6DA3FF429B","title":"城开国际大厦","lon":"121.438","lat":"31.1994","category":"46","category_name":"楼宇","address":"宝山区友谊路1588弄"},{"poiid":"B2094654DA6EA0FC4099","title":"上海交通大学徐汇校区(东门)","lon":"121.43654","lat":"31.19868","category":"52","category_name":"高等院校","address":"华山路1954"},{"poiid":"B2094757D06FAAF4429B","title":"中村发型设计中心(华山路店)","lon":"121.43522","lat":"31.20261","category":"260","category_name":"其他","address":"上海徐汇区华山路1591号(淮海西路口)  "},{"poiid":"B2094654DB6BA5F54193","title":"南洋模范中学","lon":"121.43667","lat":"31.20099","category":"55","category_name":"中学","address":"天平路200"},{"poiid":"B2094750D665AAFC439A","title":"上海早晨","lon":"121.439","lat":"31.2021","category":"68","category_name":"快餐厅","address":"徐汇区余庆路80号"},{"poiid":"B2094654DB64A4FF449A","title":"味千拉面博家楼店","lon":"121.43709","lat":"31.19857","category":"95","category_name":"日本料理","address":"徐汇区华山路1859号1楼(近广元西路)"},{"poiid":"B2094757D068A3FB499B","title":"上海交通大学新上院","lon":"121.43655","lat":"31.198691","category":"52","category_name":"高等院校","address":"上海市华山路1954号"},{"poiid":"B2094750D76EA2FF4799","title":"尊萃508公馆","lon":"121.436","lat":"31.2018","category":"76","category_name":"上海菜","address":"徐汇区华山路1731号(近淮海西路)"},{"poiid":"B2094757D06AA1FE449A","title":"正宜丰","lon":"121.43801933","lat":"31.199464491","category":"257","category_name":"中餐厅","address":"徐汇区天平路137号(康平路与广元路中间)"},{"poiid":"B2094757D068AAF54292","title":"辣肉面大王","lon":"121.43841","lat":"31.19983","category":"68","category_name":"快餐厅","address":"徐汇区天平路220号(近康平路)"},{"poiid":"B2094654DA6CAAFD4093","title":"元福大厦","lon":"121.43874095254","lat":"31.19830331843","category":"46","category_name":"楼宇","address":"上海市徐汇区虹桥路188号"},{"poiid":"B2094757D069A2FB409C","title":"莎拂利(天平店)","lon":"121.43762","lat":"31.20045","category":"94","category_name":"西餐厅","address":"徐汇区天平路220号(近康平路)"},{"poiid":"B2094757D069ABFC419B","title":"长颈鹿美语","lon":"121.436288","lat":"31.201712","category":"260","category_name":"其他","address":"徐汇区华山路1751号海斯大厦3楼(近淮海西路)"},{"poiid":"B2094757D464A7FD419E","title":"牧羊餐厅","lon":"121.43730728468","lat":"31.199917951653","category":"76","category_name":"上海菜","address":"徐汇区天平路208弄车间1号(近康平路)"},{"poiid":"B2094654DA6DA3FF4292","title":"上海西华酒店公寓","lon":"121.43513","lat":"31.2018","category":"214","category_name":"四星级宾馆","address":"上海市徐汇区淮海西路1号(华山路口)"},{"poiid":"B2094757D16DA7FF4393","title":"喵呜咖啡","lon":"121.43856358","lat":"31.201384867","category":"65","category_name":"咖啡厅","address":"上海市天平路91弄34号"},{"poiid":"B2094751D565A1FC4499","title":"百嘉乐vshow","lon":"121.438392","lat":"31.198287","category":"248","category_name":"生活娱乐","address":"天钥桥路123号"},{"poiid":"B2094757D064A4F84692","title":"上海交通大学徐汇校区图书馆","lon":"121.43806457","lat":"31.198844909","category":"253","category_name":"校园生活","address":"徐汇区华山路1954号上海交通大学内"},{"poiid":"B2094753DA64A6FA4393","title":"港汇恒隆广场","lon":"121.438941","lat":"31.198213","category":"500","category_name":"未知分类","address":"上海市 徐家汇"},{"poiid":"B2094750D06CA3F84493","title":"康平路天平路","lon":"121.437881","lat":"31.201086","category":"500","category_name":"未知分类","address":null},{"poiid":"B2094751D56DA7F54998","title":"鲁马滋(余庆路店)","lon":"121.43929","lat":"31.2017","category":"247","category_name":"餐饮美食","address":"徐汇区余庆路110弄52号(近康平路)"},{"poiid":"B2094757D06FA0FD4693","title":"Shanghai Studio","lon":"121.4377","lat":"31.20369","category":"260","category_name":"其他","address":"徐汇区淮海中路1950弄4号(近天平路)"},{"poiid":"B2094757D169A2FE4492","title":"FC Styling House","lon":"121.437851586","lat":"31.2033589056","category":"500","category_name":"未知分类","address":"上海天平路30号(近淮海中路)"},{"poiid":"B2094757D06FA6FF489B","title":"7-ELEVEN(西华店)","lon":"121.4382019","lat":"31.200580596","category":"117","category_name":"便民商店/便利店","address":"长宁区淮海西路1号西华酒店公寓1楼(近华山路)"},{"poiid":"B2094655D26EA1FF469D","title":"金凤凰酒家","lon":"121.43513","lat":"31.2018","category":"247","category_name":"餐饮美食","address":"长宁区淮海西路1号西华酒店公寓4-5楼(华山路口)"},{"poiid":"B2094654DA6DABF84093","title":"上海沪剧院(东门)","lon":"121.4375","lat":"31.20307","category":"180","category_name":"剧场","address":"天平路38号甲"},{"poiid":"B2094757D06AA6F5459C","title":"新庆余","lon":"121.43956","lat":"31.20141","category":"68","category_name":"快餐厅","address":"徐汇区余庆路120号(近康平路)"},{"poiid":"B2094757D569A7FD469F","title":"天平书店","lon":"121.4378281","lat":"31.20149889","category":"125","category_name":"书店","address":"徐汇区天平路73号(近淮海中路)"},{"poiid":"B2094655D264ABF54692","title":"上海市徐汇区老干部大学","lon":"121.43819","lat":"31.20055","category":"53","category_name":"成人教育","address":"康平路205"},{"poiid":"B2094757D465A6F4479A","title":"鲜逸坊","lon":"121.43819133266","lat":"31.202362903399","category":"76","category_name":"上海菜","address":"徐汇区余庆路80号(淮海中路)"},{"poiid":"B2094757D66BA3F94298","title":"村夫烤鱼 广元路店","lon":"121.43862","lat":"31.19887","category":"68","category_name":"快餐厅","address":"徐汇区广元路196号(近天平路)"},{"poiid":"B2094751D26BA5FF4399","title":"二号线娄山关路地铁站","lon":"121.4378429","lat":"31.2024692","category":"36","category_name":"地铁站","address":null},{"poiid":"B2094750DA6EA6FA479D","title":"天府面庄","lon":"121.437126","lat":"31.200155","category":"68","category_name":"快餐厅","address":"徐汇区天平路(近康平路)"},{"poiid":"B2094757D16BA1F8409D","title":"汇星幼儿园","lon":"121.43653848","lat":"31.200972358","category":"57","category_name":"幼儿园","address":"徐汇区宛平南路19弄3号"},{"poiid":"B2094655D26AA6FB409C","title":"小小家园古董家具杂货铺","lon":"121.43701","lat":"31.20012","category":"247","category_name":"餐饮美食","address":"徐汇区康平路220号(华山路口)"},{"poiid":"B2094655D26FAAF54692","title":"天平1号小区","lon":"121.43867","lat":"31.2003","category":"47","category_name":"住宅区","address":"康平203弄1-40号"},{"poiid":"B2094655D26BA2F8499A","title":"天平路广元路","lon":"121.43803","lat":"31.19918","category":"38","category_name":"公交车站","address":""},{"poiid":"B2094655D26CA4FF489C","title":"南洋模范中学(2号门)","lon":"121.43643","lat":"31.20078","category":"678","category_name":"学校大门","address":""},{"poiid":"B2094655D26BA2F8499B","title":"天平路淮海中路","lon":"121.43785","lat":"31.20321","category":"38","category_name":"公交车站","address":""},{"poiid":"B2094750D76EA4F4439C","title":"交通大学教师活动中心","lon":"121.437","lat":"31.1988","category":"76","category_name":"上海菜","address":"徐汇区华山路1954号上海交通大学内(近广元西路)"},{"poiid":"B2094654DA6DABF84099","title":"上海市文艺门诊部","lon":"121.43766","lat":"31.20248","category":"162","category_name":"医院","address":"徐汇区天平路40号"},{"poiid":"B2094654DA6DA3FF429C","title":"交大游泳池","lon":"121.43591","lat":"31.20094","category":"231","category_name":"游泳馆","address":"华山路1794"},{"poiid":"B2094655D36CA0F84499","title":"交通大学(华山路康平路)","lon":"121.43632","lat":"31.20029","category":"38","category_name":"公交车站","address":""},{"poiid":"B2094654DA6DABF84393","title":"南洋模范中学(3号门)","lon":"121.43635","lat":"31.2011","category":"678","category_name":"学校大门","address":""},{"poiid":"B2094654DA6DABFE499F","title":"上海交通大学医学院附属国际和平妇幼保健院生殖医学中心","lon":"121.43977","lat":"31.1989","category":"162","category_name":"医院","address":"广元路145"},{"poiid":"B2094655D26AABF8489C","title":"小小花园 LE PETIT JARDIN","lon":"121.43694071246","lat":"31.200279747478","category":"260","category_name":"其他","address":"徐汇区康平路220号(天平路华山路之间)"},{"poiid":"B2094757D06FA1F8449C","title":"Miao乌咖啡屋","lon":"121.43849358","lat":"31.201338866","category":"65","category_name":"咖啡厅","address":"徐汇区天平路91弄34号(近康平路)"},{"poiid":"B2094757D06EAAFD449F","title":"新利查西餐馆(广元路店)","lon":"121.43839813","lat":"31.198795189","category":"94","category_name":"西餐厅","address":"徐汇区广元路196号甲(近天平路)"},{"poiid":"B2094757D068AAF84199","title":"上海交通大学钱学森图书馆","lon":"121.435496989","lat":"31.2013391905","category":"181","category_name":"图书馆","address":"徐汇区华山路1800号"},{"poiid":"B2094757DA6FA3F8429B","title":"老吉士酒家","lon":"121.437904","lat":"31.2031100000001","category":"76","category_name":"上海菜","address":"徐汇区天平路41号(近淮海中路)"},{"poiid":"B2094654DA6DA3FF429B","title":"城开国际大厦","lon":"121.438","lat":"31.1994","category":"46","category_name":"楼宇","address":"宝山区友谊路1588弄"},{"poiid":"B2094654DA6EA0FC4099","title":"上海交通大学徐汇校区(东门)","lon":"121.43654","lat":"31.19868","category":"52","category_name":"高等院校","address":"华山路1954"},{"poiid":"B2094757D06FAAF4429B","title":"中村发型设计中心(华山路店)","lon":"121.43522","lat":"31.20261","category":"260","category_name":"其他","address":"上海徐汇区华山路1591号(淮海西路口)  "},{"poiid":"B2094654DB6BA5F54193","title":"南洋模范中学","lon":"121.43667","lat":"31.20099","category":"55","category_name":"中学","address":"天平路200"},{"poiid":"B2094750D665AAFC439A","title":"上海早晨","lon":"121.439","lat":"31.2021","category":"68","category_name":"快餐厅","address":"徐汇区余庆路80号"},{"poiid":"B2094654DB64A4FF449A","title":"味千拉面博家楼店","lon":"121.43709","lat":"31.19857","category":"95","category_name":"日本料理","address":"徐汇区华山路1859号1楼(近广元西路)"},{"poiid":"B2094757D068A3FB499B","title":"上海交通大学新上院","lon":"121.43655","lat":"31.198691","category":"52","category_name":"高等院校","address":"上海市华山路1954号"},{"poiid":"B2094750D76EA2FF4799","title":"尊萃508公馆","lon":"121.436","lat":"31.2018","category":"76","category_name":"上海菜","address":"徐汇区华山路1731号(近淮海西路)"},{"poiid":"B2094757D06AA1FE449A","title":"正宜丰","lon":"121.43801933","lat":"31.199464491","category":"257","category_name":"中餐厅","address":"徐汇区天平路137号(康平路与广元路中间)"},{"poiid":"B2094757D068AAF54292","title":"辣肉面大王","lon":"121.43841","lat":"31.19983","category":"68","category_name":"快餐厅","address":"徐汇区天平路220号(近康平路)"},{"poiid":"B2094654DA6CAAFD4093","title":"元福大厦","lon":"121.43874095254","lat":"31.19830331843","category":"46","category_name":"楼宇","address":"上海市徐汇区虹桥路188号"},{"poiid":"B2094757D069A2FB409C","title":"莎拂利(天平店)","lon":"121.43762","lat":"31.20045","category":"94","category_name":"西餐厅","address":"徐汇区天平路220号(近康平路)"},{"poiid":"B2094757D069ABFC419B","title":"长颈鹿美语","lon":"121.436288","lat":"31.201712","category":"260","category_name":"其他","address":"徐汇区华山路1751号海斯大厦3楼(近淮海西路)"},{"poiid":"B2094757D464A7FD419E","title":"牧羊餐厅","lon":"121.43730728468","lat":"31.199917951653","category":"76","category_name":"上海菜","address":"徐汇区天平路208弄车间1号(近康平路)"},{"poiid":"B2094654DA6DA3FF4292","title":"上海西华酒店公寓","lon":"121.43513","lat":"31.2018","category":"214","category_name":"四星级宾馆","address":"上海市徐汇区淮海西路1号(华山路口)"},{"poiid":"B2094757D16DA7FF4393","title":"喵呜咖啡","lon":"121.43856358","lat":"31.201384867","category":"65","category_name":"咖啡厅","address":"上海市天平路91弄34号"},{"poiid":"B2094751D565A1FC4499","title":"百嘉乐vshow","lon":"121.438392","lat":"31.198287","category":"248","category_name":"生活娱乐","address":"天钥桥路123号"},{"poiid":"B2094757D064A4F84692","title":"上海交通大学徐汇校区图书馆","lon":"121.43806457","lat":"31.198844909","category":"253","category_name":"校园生活","address":"徐汇区华山路1954号上海交通大学内"},{"poiid":"B2094753DA64A6FA4393","title":"港汇恒隆广场","lon":"121.438941","lat":"31.198213","category":"500","category_name":"未知分类","address":"上海市 徐家汇"},{"poiid":"B2094750D06CA3F84493","title":"康平路天平路","lon":"121.437881","lat":"31.201086","category":"500","category_name":"未知分类","address":null},{"poiid":"B2094751D56DA7F54998","title":"鲁马滋(余庆路店)","lon":"121.43929","lat":"31.2017","category":"247","category_name":"餐饮美食","address":"徐汇区余庆路110弄52号(近康平路)"},{"poiid":"B2094757D06FA0FD4693","title":"Shanghai Studio","lon":"121.4377","lat":"31.20369","category":"260","category_name":"其他","address":"徐汇区淮海中路1950弄4号(近天平路)"},{"poiid":"B2094757D169A2FE4492","title":"FC Styling House","lon":"121.437851586","lat":"31.2033589056","category":"500","category_name":"未知分类","address":"上海天平路30号(近淮海中路)"},{"poiid":"B2094757D06FA6FF489B","title":"7-ELEVEN(西华店)","lon":"121.4382019","lat":"31.200580596","category":"117","category_name":"便民商店/便利店","address":"长宁区淮海西路1号西华酒店公寓1楼(近华山路)"},{"poiid":"B2094655D26EA1FF469D","title":"金凤凰酒家","lon":"121.43513","lat":"31.2018","category":"247","category_name":"餐饮美食","address":"长宁区淮海西路1号西华酒店公寓4-5楼(华山路口)"},{"poiid":"B2094654DA6DABF84093","title":"上海沪剧院(东门)","lon":"121.4375","lat":"31.20307","category":"180","category_name":"剧场","address":"天平路38号甲"},{"poiid":"B2094757D06AA6F5459C","title":"新庆余","lon":"121.43956","lat":"31.20141","category":"68","category_name":"快餐厅","address":"徐汇区余庆路120号(近康平路)"},{"poiid":"B2094757D569A7FD469F","title":"天平书店","lon":"121.4378281","lat":"31.20149889","category":"125","category_name":"书店","address":"徐汇区天平路73号(近淮海中路)"},{"poiid":"B2094655D264ABF54692","title":"上海市徐汇区老干部大学","lon":"121.43819","lat":"31.20055","category":"53","category_name":"成人教育","address":"康平路205"},{"poiid":"B2094757D465A6F4479A","title":"鲜逸坊","lon":"121.43819133266","lat":"31.202362903399","category":"76","category_name":"上海菜","address":"徐汇区余庆路80号(淮海中路)"},{"poiid":"B2094757D66BA3F94298","title":"村夫烤鱼 广元路店","lon":"121.43862","lat":"31.19887","category":"68","category_name":"快餐厅","address":"徐汇区广元路196号(近天平路)"},{"poiid":"B2094751D26BA5FF4399","title":"二号线娄山关路地铁站","lon":"121.4378429","lat":"31.2024692","category":"36","category_name":"地铁站","address":null},{"poiid":"B2094750DA6EA6FA479D","title":"天府面庄","lon":"121.437126","lat":"31.200155","category":"68","category_name":"快餐厅","address":"徐汇区天平路(近康平路)"},{"poiid":"B2094757D16BA1F8409D","title":"汇星幼儿园","lon":"121.43653848","lat":"31.200972358","category":"57","category_name":"幼儿园","address":"徐汇区宛平南路19弄3号"},{"poiid":"B2094655D26AA6FB409C","title":"小小家园古董家具杂货铺","lon":"121.43701","lat":"31.20012","category":"247","category_name":"餐饮美食","address":"徐汇区康平路220号(华山路口)"},{"poiid":"B2094655D26FAAF54692","title":"天平1号小区","lon":"121.43867","lat":"31.2003","category":"47","category_name":"住宅区","address":"康平203弄1-40号"},{"poiid":"B2094655D26BA2F8499A","title":"天平路广元路","lon":"121.43803","lat":"31.19918","category":"38","category_name":"公交车站","address":""},{"poiid":"B2094655D26CA4FF489C","title":"南洋模范中学(2号门)","lon":"121.43643","lat":"31.20078","category":"678","category_name":"学校大门","address":""},{"poiid":"B2094655D26BA2F8499B","title":"天平路淮海中路","lon":"121.43785","lat":"31.20321","category":"38","category_name":"公交车站","address":""},{"poiid":"B2094750D76EA4F4439C","title":"交通大学教师活动中心","lon":"121.437","lat":"31.1988","category":"76","category_name":"上海菜","address":"徐汇区华山路1954号上海交通大学内(近广元西路)"},{"poiid":"B2094654DA6DABF84099","title":"上海市文艺门诊部","lon":"121.43766","lat":"31.20248","category":"162","category_name":"医院","address":"徐汇区天平路40号"},{"poiid":"B2094654DA6DA3FF429C","title":"交大游泳池","lon":"121.43591","lat":"31.20094","category":"231","category_name":"游泳馆","address":"华山路1794"},{"poiid":"B2094655D36CA0F84499","title":"交通大学(华山路康平路)","lon":"121.43632","lat":"31.20029","category":"38","category_name":"公交车站","address":""},{"poiid":"B2094654DA6DABF84393","title":"南洋模范中学(3号门)","lon":"121.43635","lat":"31.2011","category":"678","category_name":"学校大门","address":""},{"poiid":"B2094654DA6DABFE499F","title":"上海交通大学医学院附属国际和平妇幼保健院生殖医学中心","lon":"121.43977","lat":"31.1989","category":"162","category_name":"医院","address":"广元路145"}]