[{"poiid":"B2094757D06FA4FB4292","title":"番茄农庄圣湖度假俱乐部","lon":"121.11776","lat":"30.9435","category":"260","category_name":"其他","address":"上海近郊松江区泖港镇叶新支路1272号  "},{"poiid":"B2094757D16FA3F9499D","title":"乡屋人家","lon":"121.119316831","lat":"30.9432486423","category":"76","category_name":"上海菜","address":"松江区叶新支路1272号(近叶新公路)"},{"poiid":"B2094757D16DA1F94498","title":"天一农庄","lon":"121.11604","lat":"30.94237","category":"260","category_name":"其他","address":"上海近郊松江叶新支路1608号(近东方狐狸城)  "},{"poiid":"B2094654DB6FABFD4998","title":"番茄农庄","lon":"121.11752","lat":"30.94371","category":"248","category_name":"生活娱乐","address":"松江区泖港镇叶新支路1600号"},{"poiid":"B2094655D36DA1FA499C","title":"五厍","lon":"121.14269","lat":"30.95699","category":"38","category_name":"公交车站","address":""},{"poiid":"B2094654DB6FABF9479C","title":"松江区五厍学校","lon":"121.13914","lat":"30.93812","category":"55","category_name":"中学","address":""},{"poiid":"B2094757D169A0FF489B","title":"格林乡村酒店","lon":"121.13153621","lat":"30.928510898","category":"217","category_name":"旅馆招待所","address":"近郊西厍公路189号(近叶新公路)"},{"poiid":"B2094654DB6FABFD489C","title":"上海云间大自然农业科技示范基地","lon":"121.12686","lat":"30.93511","category":"45","category_name":"产业园区","address":""},{"poiid":"B2094654DB6FABFD489F","title":"名优养殖基地","lon":"121.12124","lat":"30.93585","category":"45","category_name":"产业园区","address":""},{"poiid":"B2094757D568A1F5499B","title":"番茄农庄圣湖俱乐部餐厅","lon":"121.141366","lat":"30.939203","category":"257","category_name":"中餐厅","address":"松江区泖港镇叶新支路1272号"},{"poiid":"B2094757D16AA7FE419F","title":"新天地乡村马术俱乐部","lon":"121.12017331","lat":"30.939371427","category":"260","category_name":"其他","address":"上海松江"},{"poiid":"B2094752D76EA3FB439E","title":"浦江蓝，蓝莓园","lon":"121.14244","lat":"30.936193","category":"263","category_name":"公司","address":"松江区泖港镇徐厍村叶新公路转黄桥公路"},{"poiid":"B2094654DB6FABF94593","title":"上海农村商业银行五厍支行","lon":"121.1433","lat":"30.95869","category":"150","category_name":"银行","address":"五厍镇"}]