[{"poiid":"B2094654DB65A1F54199","title":"南翔馒头店 豫园店","lon":"121.491505","lat":"31.226656","category":"68","category_name":"快餐厅","address":"黄浦区豫园路85号"},{"poiid":"B2094757D06FA1FF4799","title":"豫园","lon":"121.49209476305077","lat":"31.227224682757594","category":"240","category_name":"国家级景点","address":"上海市黄浦区安仁街218号"},{"poiid":"B2094654DA6EA4FD459E","title":"上海城隍庙","lon":"121.476706","lat":"31.227173","category":"244","category_name":"寺庙道观","address":"上海市黄浦区方浜中路249号"},{"poiid":"B209475CD564A7F84292","title":"上海滩新天地店","lon":"121.47463","lat":"31.22164","category":"119","category_name":"商场","address":"\"太仓路181弄新天地北里15号\r\n\""},{"poiid":"B209475CD564A7F84392","title":"上海滩浦东香格里拉店","lon":"121.50058","lat":"31.23634","category":"119","category_name":"商场","address":"浦东富成路33号香格里拉酒店内大堂层"},{"poiid":"B2094757D06FA3F5499B","title":"绿波廊(豫园路店)","lon":"121.49221","lat":"31.22628","category":"76","category_name":"上海菜","address":"黄浦区老城隍庙内豫园路115号(近九曲桥)"},{"poiid":"B2094757D468A6FE4392","title":"星巴克 豫园店 Starbucks Cafe","lon":"121.49193120286","lat":"31.226836909199","category":"65","category_name":"咖啡厅","address":"豫园路100号近福佑路"},{"poiid":"B2094757D06FA1F94792","title":"香港名都","lon":"121.496","lat":"31.228","category":"119","category_name":"商场","address":"黄浦区河南南路489号(近复兴东路)"},{"poiid":"B2094757D06FA6FC429D","title":"外滩新十六铺","lon":"121.498305","lat":"31.227433","category":"234","category_name":"海滨浴场","address":"上海中山东二路531号"},{"poiid":"B2094757D06FA1FE439B","title":"老城隍庙小吃广场","lon":"121.49257","lat":"31.22648","category":"68","category_name":"快餐厅","address":"黄浦区福佑路238号豫园内"},{"poiid":"B2094757D165A6FD409E","title":"外滩二十二号","lon":"121.48842638473934","lat":"31.239447501314032","category":"627","category_name":"一般地点标志","address":"上海市黄埔区中山东一路"},{"poiid":"B2094757D06FA7F54892","title":"外滩轮渡","lon":"121.49613189","lat":"31.232406616","category":"260","category_name":"其他","address":"上海外滩"},{"poiid":"B2094757D06FA3FC419B","title":"小林煎饼 豫园店","lon":"121.490016054","lat":"31.227538793","category":"67","category_name":"甜品店","address":"黄浦区豫春路9号豫园商城内B室(近老庙黄金广场)"},{"poiid":"B2094757D568A6FE449D","title":"松鹤楼(外滩店)","lon":"121.49712782","lat":"31.22868273","category":"76","category_name":"上海菜","address":"黄浦区中山东二路505号(近外马路)"},{"poiid":"B2094757D06FA4FF4298","title":"Zeal","lon":"121.494104619","lat":"31.230399184","category":"260","category_name":"其他","address":"黄浦区中山东二路22号6楼(近金陵东路)"},{"poiid":"B2094757D06FA0F5449B","title":"必胜客(丽水店)","lon":"121.490532","lat":"31.228192","category":"94","category_name":"西餐厅","address":"黄浦区丽水路69号(近福佑路)"},{"poiid":"B2094757D06FA6F8429D","title":"古城公园","lon":"121.493892508","lat":"31.2285424773","category":"196","category_name":"公园","address":"黄浦区人民路333号(近福佑路)"},{"poiid":"B2094757D06FABFD409A","title":"上海老街","lon":"121.49305","lat":"31.22534","category":"249","category_name":"购物服务","address":"黄浦区方浜中路"},{"poiid":"B2094750D26EA2FB419E","title":"El Willy","lon":"121.493644","lat":"31.231233","category":"94","category_name":"西餐厅","address":"黄浦区中山东二路22号5楼(近新永安路)"},{"poiid":"B2094757D06FA3FC439D","title":"城隍庙九曲桥","lon":"121.49238","lat":"31.22698","category":"260","category_name":"其他","address":"黄浦区福佑路238号豫园内"},{"poiid":"B2094654DA6EA5F54399","title":"小世界会所","lon":"121.4914","lat":"31.22774","category":"76","category_name":"上海菜","address":"黄浦区福佑路234号豫园3-4楼"},{"poiid":"B2094757D069A6FE449C","title":"十六铺码头边","lon":"121.49703768","lat":"31.228610509","category":"500","category_name":"未知分类","address":"上海市,上海中山东二路"},{"poiid":"B2094757D468A4FE489A","title":"Horizen","lon":"121.492901","lat":"31.231715","category":"247","category_name":"餐饮美食","address":"金陵东路1号近中山东二路"},{"poiid":"B2094757D068A3FA459C","title":"四牌楼路小吃一条街","lon":"121.4956","lat":"31.22506","category":"68","category_name":"快餐厅","address":"黄浦区四牌楼路牌坊下(方浜中路口)"},{"poiid":"B2094654DA6EA5F54699","title":"豫园商城","lon":"121.49107","lat":"31.22773","category":"119","category_name":"商场","address":"黄浦区方浜中路269号(近城隍庙豫龙坊)"},{"poiid":"B2094757D06FABFF4699","title":"东方商旅 Les Suites Orient","lon":"121.492741","lat":"31.231819","category":"217","category_name":"旅馆招待所","address":"黄浦区金陵东路1号(近中山东二路)"},{"poiid":"B2094757D06FA3FF419C","title":"星巴克 STARBUCKS (豫园二店)","lon":"121.49199","lat":"31.22696","category":"260","category_name":"其他","address":"黄浦区福佑路238号豫园内"},{"poiid":"B2094750D26FABF44592","title":"Bocca","lon":"121.4960508","lat":"31.2293856","category":"98","category_name":"意式菜品餐厅","address":"黄浦区中山东二路22号5楼(近新永安路)"},{"poiid":"B2094757D06FA0F5499C","title":"DQ冰雪皇后(豫园店)","lon":"121.4921","lat":"31.22631","category":"113","category_name":"冷饮店","address":"黄浦区豫园路112号(安仁街梧桐路)"},{"poiid":"B2094654DB65A1F5419F","title":"湖心亭","lon":"121.49141945573","lat":"31.227068113629","category":"260","category_name":"其他","address":"黄浦区豫园路257号(近九曲桥荷花池)"},{"poiid":"B2094750D26EA7F44892","title":"YAWARAGI ON THE BUND","lon":"121.494522","lat":"31.232086","category":"95","category_name":"日本料理","address":"黄浦区中山东二路22号3楼(近新永安路)"},{"poiid":"B2094757D068AAF44399","title":"士林华苑","lon":"121.497","lat":"31.2262","category":"47","category_name":"住宅区","address":"上海黄浦区河南南路555弄"},{"poiid":"B2094757D069A0FC4992","title":"松月楼","lon":"121.49108","lat":"31.22666","category":"89","category_name":"中式素餐馆","address":"黄浦区旧校场路99号(近方浜中路)"},{"poiid":"B209475CD76BA0F9469E","title":"大蔬无界 外滩22号馆","lon":"121.493989","lat":"31.230711","category":"111","category_name":"休闲餐饮场所","address":"上海市黄浦区中山东二路外滩22号4楼"},{"poiid":"B2094757D068A6FF489B","title":"金陵东路渡口","lon":"121.493181968","lat":"31.2321444779","category":"35","category_name":"长途汽车站","address":"上海中山东二路121号(金陵东路口)"},{"poiid":"B2094757D06FA7FD4592","title":"网鱼网咖(张杨店)","lon":"121.49722426","lat":"31.229141715","category":"173","category_name":"游戏厅","address":"浦东新区张杨路640号3楼A座(近第一八佰伴)"},{"poiid":"B2094757D06FA4FB4493","title":"黄浦区业余大学","lon":"121.4913","lat":"31.22992","category":"52","category_name":"高等院校","address":"黄浦区四川南路37号(近金陵东路)"},{"poiid":"B2094757D068A2FA4192","title":"肯德基 KFC (豫园店)","lon":"121.491322","lat":"31.227603","category":"68","category_name":"快餐厅","address":"黄浦区福佑路234号豫园商城内(近旧校场路)"},{"poiid":"B2094655D36DA1F5439B","title":"小东门","lon":"121.49708","lat":"31.22573","category":"38","category_name":"公交车站","address":""},{"poiid":"B2094757D06BA2FA4499","title":"新开河","lon":"121.495265841","lat":"31.2296010434","category":"38","category_name":"公交车站","address":"上海外滩"},{"poiid":"B2094757D069A2F8419D","title":"黄浦江游览","lon":"121.49412","lat":"31.23077","category":"260","category_name":"其他","address":"黄浦区中山东二路531号(近新开河)查看地图"},{"poiid":"B2094655D36DA6FF4493","title":"金陵东路","lon":"121.49318","lat":"31.23215","category":"38","category_name":"公交车站","address":"上海黄浦区金陵东路"},{"poiid":"B2094757D068A7F8429A","title":"老凤祥银楼(福佑路店)","lon":"121.49116","lat":"31.22737","category":"500","category_name":"未知分类","address":"黄浦区福佑路239号1-3楼(近旧校场路)查看地图"},{"poiid":"B2094757D068ABF4459F","title":"耕月人茶馆","lon":"121.4933","lat":"31.22533","category":"260","category_name":"其他","address":"上海黄浦区方浜中路235号豫安阁4楼(近安仁街)"},{"poiid":"B2094757D66AAAFB439C","title":"江畔Quay","lon":"121.496346","lat":"31.229182","category":"94","category_name":"西餐厅","address":"黄浦区中山东二路585号外滩英迪格酒店6楼"},{"poiid":"B2094654DA6EA5FA419E","title":"新外滩商厦","lon":"121.49335","lat":"31.23127","category":"46","category_name":"楼宇","address":"黄浦区中山东二路15号(龙潭路中山东二路)"},{"poiid":"B2094757D46BA1FD489C","title":"十二果芬 中山东二路店 Brix12","lon":"121.495787","lat":"31.2293892","category":"67","category_name":"甜品店","address":"中山东二路22号5楼近新开河路"},{"poiid":"B2094654DA6EA5F5459A","title":"宁波汤团店","lon":"121.49182","lat":"31.22629","category":"68","category_name":"快餐厅","address":"黄浦区福佑路238号豫园内"},{"poiid":"B2094757D569A2FE4693","title":"新外滩15号","lon":"121.4933389","lat":"31.23143889","category":"47","category_name":"住宅区","address":"黄浦区中山东二路15号"},{"poiid":"B2094757D065A5FD429E","title":"中山东二路新开河路站(公交33,55,65,868,910,926,928)","lon":"121.495716131","lat":"31.2294570049","category":"38","category_name":"公交车站","address":"上海市黄浦区中山东二路新开河路"},{"poiid":"B2094750D665A0FB469C","title":"船长5号","lon":"121.494","lat":"31.2295","category":"47","category_name":"住宅区","address":"黄浦区中山东二路531号(近东门路)"},{"poiid":"B2094750D665A0F4429B","title":"船长8号","lon":"121.496","lat":"31.2283","category":"76","category_name":"上海菜","address":"黄浦区中山东二路531号十六铺码头C区(近东门路)"},{"poiid":"B2094655D36CA2F9459D","title":"人民路新开河路","lon":"121.49446","lat":"31.22923","category":"38","category_name":"公交车站","address":""},{"poiid":"B2094655D26AABFA469B","title":"上海兴宇大酒店——原东莱大酒店","lon":"121.492","lat":"31.22982","category":"250","category_name":"公园户外","address":"上海市黄浦区人民路386号(永安路口)"},{"poiid":"B2094757D069A3FE459C","title":"欢乐谷 古木游龙","lon":"121.4943161","lat":"31.227687835","category":"195","category_name":"游乐场","address":"上海欢乐谷"},{"poiid":"B2094753D268A1FF499D","title":"Chez Ivan法庐法式餐厅","lon":"121.49395821594","lat":"31.23074345761","category":"97","category_name":"法式菜品餐厅","address":"中山东二路22号3F"},{"poiid":"B2094757D064A2FB459B","title":"55路公交车终点站","lon":"121.494495884","lat":"31.2298011176","category":"38","category_name":"公交车站","address":"上海新开河枢纽站"},{"poiid":"B2094757D069A2F9419C","title":"Horizen Lounge","lon":"121.49230372","lat":"31.230716185","category":"260","category_name":"其他","address":"黄浦区中山东二路12号23楼(近金陵东路)"},{"poiid":"B2094654DA6EA5FA419C","title":"中国工商银行上海市第一支行","lon":"121.49329","lat":"31.23151","category":"150","category_name":"银行","address":"黄浦区中山东二路15号外滩金陵东路口(金陵东路中山东二路)"},{"poiid":"B2094753D469A6FA429A","title":"外滩二十二号Bund22","lon":"121.493908","lat":"31.230748","category":"119","category_name":"商场","address":"中山东二路22号"},{"poiid":"B2094752DB6EA4FC499B","title":"上海半岛酒店","lon":"121.495568","lat":"31.227815","category":"500","category_name":"未知分类","address":"上海市 中山东一路32号"},{"poiid":"B2094655D36DA7F84499","title":"中山东二路新开河路","lon":"121.49485","lat":"31.23016","category":"38","category_name":"公交车站","address":""},{"poiid":"B2094757D06BAAF5439B","title":"大胡子烧烤","lon":"121.49381591","lat":"31.229353985","category":"247","category_name":"餐饮美食","address":"上海零陵路双峰北路口"},{"poiid":"B2094654DA6EA5F5439A","title":"豫园(南门)","lon":"121.49247","lat":"31.22772","category":"680","category_name":"楼宇机构","address":""},{"poiid":"B2094757D06AA7FE419C","title":"风波庄(豫园店)","lon":"121.49303223","lat":"31.226140712","category":"260","category_name":"其他","address":"黄浦区光启路23号(近方浜中路)"},{"poiid":"B2094757DB6FA3F84099","title":"淮海路一号酒吧","lon":"121.4966975953756","lat":"31.22976648979435","category":"248","category_name":"生活娱乐","address":"淮海路柳荫路"},{"poiid":"B209475CD76AABF9479C","title":"海龙海鲜坊","lon":"121.494018","lat":"31.229417","category":"500","category_name":"未知分类","address":"上海市 东昌路1号"},{"poiid":"B209475CD264AAF54799","title":"上海外滩","lon":"121.492996","lat":"31.227405","category":"500","category_name":"未知分类","address":"上海市 上海市黄浦区"},{"poiid":"B2094757D469A1F5479F","title":"MJ.98酒吧","lon":"121.4964225","lat":"31.2288226","category":"260","category_name":"其他","address":"黄浦区中山东二路501号新十六铺商业区B112室"},{"poiid":"B2094654DB6BA4F9459A","title":"徽宁里(福佑路)","lon":"121.49413","lat":"31.22767","category":"47","category_name":"住宅区","address":"福佑路86弄1-14号"},{"poiid":"B2094757D164A0F8419A","title":"璞丽酒店","lon":"121.493829238","lat":"31.2297287894","category":"500","category_name":"未知分类","address":"上海静安区常德路1号"},{"poiid":"B2094757D068ABF8409B","title":"上海滩商厦","lon":"121.492","lat":"31.22937","category":"249","category_name":"购物服务","address":"黄浦区人民路388号(人民路永安路)"},{"poiid":"B2094750DB6BA7F4449A","title":"花马天堂云南餐厅","lon":"121.495269","lat":"31.230751","category":"247","category_name":"餐饮美食","address":"延安西路17甲"},{"poiid":"B2094757D66EA4FA4592","title":"梧桐路","lon":"121.493896138","lat":"31.227267937","category":"500","category_name":"未知分类","address":"上海梧桐路"},{"poiid":"B2094757D569A2FA439F","title":"上海市黄浦江水上旅游客运港","lon":"121.4936463","lat":"31.23190027","category":"35","category_name":"长途汽车站","address":"中山东二路153号"},{"poiid":"B2094654DA6EA5F5429D","title":"福民商厦","lon":"121.49227","lat":"31.22797","category":"46","category_name":"楼宇","address":"黄浦区福佑路(福佑路豫园新路)"},{"poiid":"B2094750DB68A1F84699","title":"滨江大道  哈根达斯","lon":"121.497482","lat":"31.227943","category":"247","category_name":"餐饮美食","address":null},{"poiid":"B2094757D068A7FD4592","title":"新十六铺A区","lon":"121.4964221","lat":"31.2288222","category":"500","category_name":"未知分类","address":"上海黄浦区中山东二路501号"},{"poiid":"B2094757D069AAFC469B","title":"金陵中学","lon":"121.4924","lat":"31.23156","category":"55","category_name":"中学","address":"黄浦区金陵东路4号(近外滩)"},{"poiid":"B209475CD36AA3FB429D","title":"BOCCA意大利餐厅","lon":"121.49342","lat":"31.23091","category":"98","category_name":"意式菜品餐厅","address":"中山东二路22号5楼(近新永安路)"},{"poiid":"B2094757D16CA2FB419A","title":"喵喵之家","lon":"121.494001638","lat":"31.2296263872","category":"500","category_name":"未知分类","address":null},{"poiid":"B2094757D66EA6F4499D","title":"11路人民路新开河路站","lon":"121.494813","lat":"31.229825","category":"500","category_name":"未知分类","address":"上海人民路新开河路"},{"poiid":"B209475CD369A6FA4092","title":"天家二十二","lon":"121.49403427","lat":"31.23068657","category":"95","category_name":"日本料理","address":"中山东二路22号309室(近新永安路)"},{"poiid":"B2094654DB6BA4F94493","title":"福佑里小区","lon":"121.49439","lat":"31.227158","category":"47","category_name":"住宅区","address":"丹凤路102弄1-18号"},{"poiid":"B2094757DB69A1FB439D","title":"Jack London","lon":"121.49293","lat":"31.23177","category":"94","category_name":"西餐厅","address":"黄浦区中山东二路12号24楼(近金陵东路)"},{"poiid":"B2094655D26AA1FF479E","title":"真功夫 方浜中路店","lon":"121.493371054","lat":"31.225660793","category":"68","category_name":"快餐厅","address":"黄浦区方浜中路235号豫安阁大厦2楼A区(近城隍庙豫龙坊)"},{"poiid":"B2094655D265A4FA409F","title":"上海市书法实验幼儿园","lon":"121.49305","lat":"31.22768","category":"57","category_name":"幼儿园","address":"福佑路144"},{"poiid":"B2094757D165A4FF4398","title":"诺坎普体育场","lon":"121.493825838","lat":"31.2297272894","category":"500","category_name":"未知分类","address":"Avda. Aristides Maillol s/n Barcelona, Spain  "},{"poiid":"B2094757D16FA1F9479E","title":"丹凤路","lon":"121.495257","lat":"31.227325","category":"500","category_name":"未知分类","address":"上海丹凤路"},{"poiid":"B2094750D56FA5F44398","title":"城隍庙小吃街","lon":"121.49562","lat":"31.23211","category":"68","category_name":"快餐厅","address":"黄浦区中山东二路501号新十六铺商业区B2楼美食美客内(近东门路)"},{"poiid":"B2094757D568A5F54898","title":"沪南电影院","lon":"121.4964053","lat":"31.22740222","category":"178","category_name":"电影院","address":"人民路134号"},{"poiid":"B2094655D264A6FF419F","title":"福佑里小区(东二门)","lon":"121.49496","lat":"31.22698","category":"47","category_name":"住宅区","address":"丹凤路120弄19-30号"},{"poiid":"B209475CD46BA0F8499E","title":"CIRQUE LA SOIR","lon":"121.493484","lat":"31.230638","category":"500","category_name":"未知分类","address":"上海市 中山东二路外滩22号4楼(近永安路)"},{"poiid":"B2094654DB65A1F4479E","title":"上海小吃人家 豫园总店","lon":"121.49157872681","lat":"31.22739942353","category":"68","category_name":"快餐厅","address":"豫园老路59号近福佑路"},{"poiid":"B2094654DA6EA5F54299","title":"上海福民街小商品市场","lon":"121.49166","lat":"31.228","category":"120","category_name":"小商品市场","address":"黄浦区文昌路10号福佑商厦5楼(近老凤祥银楼)"},{"poiid":"B2094655D268ABFE4899","title":"环城商厦","lon":"121.49202","lat":"31.22912","category":"46","category_name":"楼宇","address":""},{"poiid":"B2094654DA6EABFE4292","title":"四牌楼","lon":"121.49531","lat":"31.22501","category":"116","category_name":"特色商业街","address":"上海市黄浦区红栏杆街"},{"poiid":"B2094757D06AA7F9429A","title":"悦园游艺厅","lon":"121.494789124","lat":"31.22722435","category":"173","category_name":"游戏厅","address":"黄浦区丽水路1号悦园商厦5楼(近人民路)"},{"poiid":"B2094757D064ABF94193","title":"THE RITZ CARLTON HOTEL PUDONG","lon":"121.49812147","lat":"31.23062966","category":"500","category_name":"未知分类","address":"上海浦东陆家嘴世纪大道8号上海国金中心"},{"poiid":"B2094750DB65A3F5479F","title":"越洋国际广场","lon":"121.49308","lat":"31.229843","category":"500","category_name":"未知分类","address":null},{"poiid":"B2094757D66BA0FD4898","title":"cafe DongXi","lon":"121.492901","lat":"31.231715","category":"94","category_name":"西餐厅","address":"黄浦区金陵东路1号东方商旅酒店2楼(近中山东二路)"},{"poiid":"B2094757D068A4FD409A","title":"平安银行上海分行","lon":"121.49371028","lat":"31.231478343","category":"150","category_name":"银行","address":"上海黄浦区中山东二路15号9楼"},{"poiid":"B2094750D568A3FC4098","title":"绿波廊会所","lon":"121.492","lat":"31.2263","category":"76","category_name":"上海菜","address":"黄浦区福佑路238号豫园内"},{"poiid":"B2094655D269AAF54292","title":"城隍庙小礼品市场","lon":"121.49202","lat":"31.22797","category":"247","category_name":"餐饮美食","address":"黄浦区文昌路10号福佑商厦地下室A8号(近旧校场路)"},{"poiid":"B2094753DA6BA0FB4699","title":"大蔬无界","lon":"121.493385","lat":"31.226587","category":"500","category_name":"未知分类","address":"上海市 外滩 中山东二路22号"},{"poiid":"B2094655D36CA2F9459C","title":"人民路新北门","lon":"121.49162","lat":"31.22949","category":"38","category_name":"公交车站","address":""},{"poiid":"B2094655D26FA5FC499B","title":"四川小区","lon":"121.49263","lat":"31.23013","category":"47","category_name":"住宅区","address":"新永安路21弄"},{"poiid":"B2094757D468A5F8469B","title":"桥香园 城隍庙店","lon":"121.495749054","lat":"31.225393793","category":"68","category_name":"快餐厅","address":"黄浦区方浜中路235号豫安阁大厦2楼(城隍庙豫龙坊对面)"},{"poiid":"B2094757D16EA4F9409B","title":"大娘水饺(方浜中路店)","lon":"121.49329","lat":"31.22533","category":"68","category_name":"快餐厅","address":"黄浦区方浜中路235号豫安阁大厦B1楼(近城隍庙豫龙坊)"},{"poiid":"B2094654DA6EABFE409C","title":"上海慈善文化大舞台","lon":"121.49422","lat":"31.22566","category":"180","category_name":"剧场","address":""},{"poiid":"B2094654DB6BA4F9459B","title":"四达里小区(安仁街)","lon":"121.49279","lat":"31.22732","category":"47","category_name":"住宅区","address":""},{"poiid":"B2094655D26AA1F8499D","title":"上海滩商厦停车场","lon":"121.49204","lat":"31.2297","category":"247","category_name":"餐饮美食","address":"黄浦区人民路388号"},{"poiid":"B2094757D465A3FC4898","title":"阿大名厨","lon":"121.49302","lat":"31.2256","category":"76","category_name":"上海菜","address":"黄浦区方浜中路235号豫安阁大厦2楼(安仁街方浜中路)"},{"poiid":"B209475DD265A5FF439B","title":"Ruth's Chris Steak House","lon":"121.495727","lat":"31.232585","category":"500","category_name":"未知分类","address":"上海市 外滩5号"},{"poiid":"B2094757D068A5F4419F","title":"吴地人家昆曲主题餐厅","lon":"121.493227738","lat":"31.225206193","category":"76","category_name":"上海菜","address":"黄浦区城隍庙方浜中路168号豫城时尚3楼"},{"poiid":"B2094654DA6EA5F4499C","title":"悦园商厦小商品批发市场","lon":"121.49125","lat":"31.22926","category":"120","category_name":"小商品市场","address":"丽水路1"},{"poiid":"B2094757D568ABFA4092","title":"点春堂","lon":"121.492138","lat":"31.227381","category":"607","category_name":"一般景点","address":"黄浦区安仁路132号豫园湖心亭九曲桥北首(安仁街硝皮弄)"},{"poiid":"B2094757D065A1FE469D","title":"馋佬汇","lon":"121.492872986","lat":"31.2296868","category":"500","category_name":"未知分类","address":"上海浦东新区浦东南路1101号远东大厦"},{"poiid":"B2094654DA6EA4FD4492","title":"品华坊","lon":"121.493","lat":"31.22697","category":"47","category_name":"住宅区","address":"安仁街139弄1-15号"},{"poiid":"B2094757D069A0FC499C","title":"东华美钻(丽水路店)","lon":"121.49108","lat":"31.22793","category":"131","category_name":"珠宝首饰工艺品","address":"黄浦区丽水路81号1楼(近福佑路)查看地图"},{"poiid":"B2094750DB6BA7FB4092","title":"Jz Lounge","lon":"121.492607","lat":"31.225881","category":"248","category_name":"生活娱乐","address":"萬麗酒店21樓"},{"poiid":"B2094654DB65A7FE4498","title":"巴比馒头 新永安路店 Babi Food","lon":"121.491625054","lat":"31.230168793","category":"68","category_name":"快餐厅","address":"黄浦区新永安路62号(近四川南路)"},{"poiid":"B2094751DA68A4FF489B","title":"南滨江","lon":"121.494553","lat":"31.231857","category":"250","category_name":"公园户外","address":"陆家嘴"},{"poiid":"B2094757D165A7F8469C","title":"十六铺美食美客","lon":"121.497693738","lat":"31.228069254","category":"247","category_name":"餐饮美食","address":"上海十六铺地下美食美客"},{"poiid":"B2094757D16EA3FB4799","title":"Bershka(豫城时尚店)","lon":"121.492556","lat":"31.227725","category":"141","category_name":"服装鞋帽皮具店","address":"黄浦区方浜中路168号豫城时尚L1-06室(近三牌楼路)"},{"poiid":"B2094753DA68A3F94493","title":"GOODFELLAS","lon":"121.495651","lat":"31.230916","category":"500","category_name":"未知分类","address":"上海市 延安东路7号"},{"poiid":"B2094753D56BA5FB489D","title":"La Pedrera 巴特洛西班牙餐厅","lon":"121.494056","lat":"31.231235","category":"500","category_name":"未知分类","address":"上海市 四川中路33号"},{"poiid":"B2094655D26FA7FF409D","title":"品华坊(西门)","lon":"121.49287","lat":"31.22694","category":"47","category_name":"住宅区","address":"安仁街139弄1-15号"},{"poiid":"B2094757D66DAAFD499B","title":"elaine's home","lon":"121.495131438","lat":"31.2263810181","category":"47","category_name":"住宅区","address":"上海市福佑路"},{"poiid":"B2094757D568A4FB4693","title":"紫砂茶坊","lon":"121.49290609","lat":"31.22775011","category":"255","category_name":"专卖店","address":"福佑路154"},{"poiid":"B2094757D469A7FC4499","title":"阿祥南翔小笼","lon":"121.49488","lat":"31.22509","category":"68","category_name":"快餐厅","address":"黄浦区四牌楼路6号(方浜中路口)"},{"poiid":"B2094757D56CABFE469E","title":"浦江游览一号中餐厅","lon":"121.492887054","lat":"31.232112793","category":"72","category_name":"广东菜","address":"黄浦区中山东二路219号(近金陵东路)"},{"poiid":"B2094654DA6EA4FD4493","title":"元城里","lon":"121.49314","lat":"31.22659","category":"47","category_name":"住宅区","address":"安仁街157弄1-13号"},{"poiid":"B2094757D569A6FF409F","title":"玉华堂","lon":"121.492408","lat":"31.227219","category":"607","category_name":"一般景点","address":"中国上海市黄浦区福佑路238"},{"poiid":"B2094757D66EA4FA459B","title":"第一医药连锁经营有限公司","lon":"121.495437338","lat":"31.231870335","category":"46","category_name":"楼宇","address":"上海香港路130号"},{"poiid":"B2094655D265A0FD4793","title":"宏图三胞奉贤店","lon":"121.49667","lat":"31.227","category":"138","category_name":"家电电子卖场","address":"奉贤南桥人民路112号2层"},{"poiid":"B2094655D26EA2FE4193","title":"元城里(西门)","lon":"121.49295","lat":"31.22656","category":"47","category_name":"住宅区","address":"安仁街157弄1-13号"},{"poiid":"B2094757D569A1FC409B","title":"上海旅游咨询服务中心(外滩隧道)","lon":"121.4945635","lat":"31.23109104","category":"604","category_name":"旅游咨询","address":"中山东二路(外滩)241"},{"poiid":"B2094655D26BA7FC4099","title":"文化电影院","lon":"121.49131","lat":"31.22752","category":"178","category_name":"电影院","address":"福佑路234号"},{"poiid":"B2094757D16FA6FC409C","title":"外滩支行个人信贷业务","lon":"121.49345963","lat":"31.23073371","category":"500","category_name":"未知分类","address":"上海黄浦区中山东二路11号光明大厦六楼小房间"},{"poiid":"B2094654DB65A1F4479F","title":"古城公园(南门)(埃力生国际大厦西北)","lon":"121.49488","lat":"31.22781","category":"656","category_name":"大门","address":""},{"poiid":"B2094654DA6EA4FE419C","title":"黄浦区中西医结合医院中医门诊部","lon":"121.49624","lat":"31.2253","category":"162","category_name":"医院","address":"方浜中路59号"},{"poiid":"B2094757D66FA6FD439D","title":"豫園湖心廳","lon":"121.492198","lat":"31.227087","category":"500","category_name":"未知分类","address":"上海豫園路257號"},{"poiid":"B2094757D569A7FF409A","title":"观涛楼","lon":"121.49253","lat":"31.226838","category":"607","category_name":"一般景点","address":"中国上海市黄浦区"},{"poiid":"B2094757D16AA6FA4698","title":"泓叶精菜馆","lon":"121.498124446","lat":"31.2285007716","category":"247","category_name":"餐饮美食","address":"上海金桥国际"},{"poiid":"B2094751D56BA0FD459D","title":"上海宝莱纳滨江路店","lon":"121.494414","lat":"31.231492","category":"500","category_name":"未知分类","address":null},{"poiid":"B2094654DA6EA4FD489D","title":"方中小区","lon":"121.49402","lat":"31.22599","category":"47","category_name":"住宅区","address":"方浜中路169弄1-2号"},{"poiid":"B2094654DB65A3FE4099","title":"长兴楼","lon":"121.49166","lat":"31.22689","category":"257","category_name":"中餐厅","address":"湖滨美食楼"},{"poiid":"B2094654DA6EA5F44899","title":"帕格尼尼KTV","lon":"121.49114","lat":"31.22978","category":"170","category_name":"KTV","address":"人民路388号"},{"poiid":"B2094757D16AABF4409C","title":"美国国家航空航天局","lon":"121.493911938","lat":"31.2272772372","category":"260","category_name":"其他","address":"华盛顿"},{"poiid":"B2094655D36CA0FF409C","title":"金陵东路中山东二路","lon":"121.49222","lat":"31.23177","category":"38","category_name":"公交车站","address":""},{"poiid":"B2094655D26AA4F5409A","title":"豆逗玩具","lon":"121.49202","lat":"31.22797","category":"128","category_name":"儿童用品店","address":"黄浦区文昌路10号福佑商厦3楼(近旧校场路)"},{"poiid":"B2094654DA6EA5FF489E","title":"可的(中山东二路)","lon":"121.49359","lat":"31.23194","category":"117","category_name":"便民商店/便利店","address":"中山东二路外滩133识别"},{"poiid":"B209475CD76CA5F9449E","title":"上海东方明珠","lon":"121.492912","lat":"31.225732","category":"500","category_name":"未知分类","address":"上海市 上海市浦东新区"},{"poiid":"B2094757D065A3FA4692","title":"M78星云","lon":"121.49431658","lat":"31.231392224","category":"500","category_name":"未知分类","address":"上海银河系太阳市LwOeViE路521弄1314号"},{"poiid":"B209475CD768A0FE489D","title":"万岛日本料理铁板烧","lon":"121.494544","lat":"31.231506","category":"500","category_name":"未知分类","address":"上海市 黄浦区四川中路33号1楼"},{"poiid":"B2094757D66EA2FA429F","title":"豫园庙会小吃","lon":"121.49256","lat":"31.22556","category":"257","category_name":"中餐厅","address":"上海黄浦区文昌路46号豫园中心广场内  "},{"poiid":"B2094654DB65A1F44298","title":"平安银行","lon":"121.49356","lat":"31.23123","category":"150","category_name":"银行","address":"福州路355号上海文化商厦5层"},{"poiid":"B2094757D16BA7FD4298","title":"富桥足浴上南店","lon":"121.49366773","lat":"31.231273322","category":"500","category_name":"未知分类","address":"上海浦东上南路杨思路口维也纳酒店3楼"},{"poiid":"B2094750D76FA2FE429E","title":"L'horizen","lon":"121.493","lat":"31.2319","category":"269","category_name":"烧烤","address":"中山东二路12号23楼(近金陵东路)"},{"poiid":"B2094757DB68A3FF4898","title":"浦发","lon":"121.493238","lat":"31.231629","category":"500","category_name":"未知分类","address":"外滩"},{"poiid":"B2094757D16FA3FF4393","title":"小开先生老巢","lon":"121.492727","lat":"31.231536","category":"247","category_name":"餐饮美食","address":null},{"poiid":"B2094655D26FA4FC439F","title":"方中小区(南门)","lon":"121.49409","lat":"31.22574","category":"47","category_name":"住宅区","address":"方浜中路169弄1-2号"},{"poiid":"B2094655D265A6F9479C","title":"三生缘","lon":"121.4943","lat":"31.22528","category":"66","category_name":"茶艺馆","address":"光启路23临"},{"poiid":"B2094757D16EA6FC489C","title":"农业银行城隍庙分理处","lon":"121.49486647","lat":"31.226245473","category":"500","category_name":"未知分类","address":"上海丽水路61号"},{"poiid":"B2094654DA6EA5FA4692","title":"上海市旅游服务职业技术学校","lon":"121.49152","lat":"31.23083","category":"54","category_name":"职业技术学校","address":"永安路8"},{"poiid":"B2094757D06BAAFF4698","title":"肯德基 KFC (豫安阁店)","lon":"121.493028","lat":"31.2256","category":"500","category_name":"未知分类","address":"上海方浜中路235号"},{"poiid":"B2094757D16FA4F84298","title":"冬至","lon":"121.492333","lat":"31.227172","category":"500","category_name":"未知分类","address":null},{"poiid":"B2094750D76DA7FC4899","title":"丸来玩趣(豫园路店)","lon":"121.492","lat":"31.2263","category":"111","category_name":"休闲餐饮场所","address":"豫园路100号城隍庙广场小吃广场"},{"poiid":"B2094654DA6EA4FE439F","title":"宁祥里","lon":"121.49494","lat":"31.22559","category":"47","category_name":"住宅区","address":"方浜中路121弄1-3号"},{"poiid":"B2094757D069AAFB4698","title":"中山东二路金陵东路","lon":"121.49200439","lat":"31.231647491","category":"500","category_name":"未知分类","address":"上海中山东二路金陵东路"},{"poiid":"B2094752DA69A0FF489F","title":"东方明珠","lon":"121.495307","lat":"31.23251","category":"500","category_name":"未知分类","address":"上海市 陆家嘴"},{"poiid":"B2094757D568A5FB459A","title":"瞬顺如商行","lon":"121.4913043","lat":"31.22837809","category":"141","category_name":"服装鞋帽皮具店","address":"福民街70"},{"poiid":"B2094757D569A1F44992","title":"环北福都商厦","lon":"121.49171278","lat":"31.22910292","category":"249","category_name":"购物服务","address":"人民路399号"},{"poiid":"B2094757D064A3FB429A","title":"OVS Indusry (818广场店)","lon":"121.492913","lat":"31.225587","category":"141","category_name":"服装鞋帽皮具店","address":"上海静安区南京西路818号818广场1楼(近石门一路)"},{"poiid":"B2094655D265A0F4489F","title":"浦江游览153号登船点","lon":"121.4934","lat":"31.23208","category":"250","category_name":"公园户外","address":"中山东二路153号"},{"poiid":"B2094654DA6EA5FF4792","title":"上海海洋水族馆外滩售票处","lon":"121.49414","lat":"31.23143","category":"33","category_name":"公园景点售票处","address":"中山东二路207号"},{"poiid":"B2094757D569A7FD4199","title":"九狮楼","lon":"121.49137885","lat":"31.22716363","category":"250","category_name":"公园户外","address":"豫春路7"},{"poiid":"B2094655D268A6FF489F","title":"久斯桌球俱乐部","lon":"121.49291","lat":"31.22558","category":"171","category_name":"台球厅","address":"方浜中路235号豫安阁B2层"},{"poiid":"B2094655D26EABF44693","title":"张飞牛肉面馆","lon":"121.49403","lat":"31.22501","category":"257","category_name":"中餐厅","address":"方浜中路168号"},{"poiid":"B2094654DB69A7F5429E","title":"方浜中路199弄小区","lon":"121.4934","lat":"31.22545","category":"47","category_name":"住宅区","address":"黄浦区方浜中路199弄小区"},{"poiid":"B2094655D26BABFB469B","title":"邻德里(南门)","lon":"121.49322","lat":"31.22553","category":"47","category_name":"住宅区","address":"方浜中路221弄1-20号"},{"poiid":"B2094654DB6BA4F94593","title":"德安里","lon":"121.49607","lat":"31.225533","category":"47","category_name":"住宅区","address":"方浜中路63弄2-6号"},{"poiid":"B2094654DA6EA5F44398","title":"柳青线(新永安路)","lon":"121.49138","lat":"31.23014","category":"123","category_name":"家具建材市场","address":"新永安路46号"},{"poiid":"B2094654DA6EA5F5449A","title":"上海故事(豫园新路)","lon":"121.49119","lat":"31.22748","category":"141","category_name":"服装鞋帽皮具店","address":"豫园新路17识别"},{"poiid":"B2094757D66DA7FC4499","title":"撒哈拉沙漠","lon":"121.495232538","lat":"31.2263903183","category":"260","category_name":"其他","address":"非洲"},{"poiid":"B2094753D165ABFD4799","title":"mizzi","lon":"121.492545","lat":"31.231597","category":"500","category_name":"未知分类","address":"上海市 陆家嘴富城路"},{"poiid":"B2094757D068A5FC409E","title":"837路","lon":"121.49136352","lat":"31.227861404","category":"500","category_name":"未知分类","address":"上海公交车"},{"poiid":"B2094757D068ABF54992","title":"埔里老镇","lon":"121.49283967","lat":"31.225654295","category":"260","category_name":"其他","address":"上海黄浦区方浜中路168号豫城时尚3层L318"},{"poiid":"B209475CD76CA3FE4093","title":"ashley","lon":"121.494148","lat":"31.23229","category":"500","category_name":"未知分类","address":"上海市 正大广场8楼"},{"poiid":"B2094757D16EA5FB4899","title":"四川南路金陵东路","lon":"121.492509","lat":"31.23172","category":"500","category_name":"未知分类","address":"上海四川南路金陵东路"},{"poiid":"B2094753DB6EA6F84992","title":"上海东方商旅酒店","lon":"121.492901","lat":"31.231715","category":"217","category_name":"旅馆招待所","address":"上海黄浦区金陵东路1号"},{"poiid":"B2094757D66CABF4429B","title":"豫园邮政所","lon":"121.49347686","lat":"31.225627899","category":"252","category_name":"楼宇机构","address":"黄浦区方浜中路193号"},{"poiid":"B2094655D264A2F9429A","title":"彬岛咖啡","lon":"121.49124","lat":"31.22805","category":"260","category_name":"其他","address":"黄浦区福佑路250号"},{"poiid":"B2094655D264A6FD419A","title":"九曲桥邮政所","lon":"121.49219","lat":"31.22628","category":"255","category_name":"专卖店","address":"豫园路128"},{"poiid":"B2094757D66FA2FD4499","title":"船坊厅","lon":"121.49166573","lat":"31.226592222","category":"500","category_name":"未知分类","address":"上海市黄浦区河南南路"},{"poiid":"B2094757D66CA1F4469F","title":"工行外滩支行理财柜","lon":"121.492747738","lat":"31.2319723372","category":"500","category_name":"未知分类","address":"上海光明大厦二楼"},{"poiid":"B2094757D164A5F4449D","title":"县左街","lon":"121.495005338","lat":"31.2259528089","category":"260","category_name":"其他","address":"上海黄浦区县左街"},{"poiid":"B2094757D16FA4F84092","title":"220终点站","lon":"121.496109","lat":"31.225275","category":"500","category_name":"未知分类","address":"上海人民路方浜中路"},{"poiid":"B2094655D26EA2F54898","title":"永安坊(南门)","lon":"121.49268","lat":"31.23057","category":"656","category_name":"大门","address":"新永安路12弄"},{"poiid":"B2094757D165A2FB419C","title":"城市记忆","lon":"121.49262","lat":"31.23205","category":"260","category_name":"其他","address":"黄浦区中山东二路9号(近上海市档案馆外滩新馆)"},{"poiid":"B2094654DA6EA5FA449F","title":"永安坊(西门)","lon":"121.49174","lat":"31.23105","category":"656","category_name":"大门","address":""}]