[{"poiid":"B2094655D26DA7FA489C","title":"浦南医院","lon":"121.51039","lat":"31.19795","category":"162","category_name":"医院","address":"上海浦东新区浦东南路2400号"},{"poiid":"B2094655D26BA2F5449E","title":"浦东南路浦三路","lon":"121.5112","lat":"31.19872","category":"38","category_name":"公交车站","address":""},{"poiid":"B2094757D169A6FF459D","title":"世博滨江大道","lon":"121.5105841","lat":"31.196527512","category":"500","category_name":"未知分类","address":"上海世博园区世博大道沿黄浦江边"},{"poiid":"B2094757D06FA2FD439B","title":"麦当劳(临沂路店)","lon":"121.51262","lat":"31.19464","category":"68","category_name":"快餐厅","address":"浦东新区临沂路180号百联社区商业中心1楼(近浦三路)"},{"poiid":"B2094757D06FA7F8409A","title":"肯德基 KFC (浦三店)","lon":"121.511004","lat":"31.198278","category":"68","category_name":"快餐厅","address":"浦东新区浦东南路2551号(近浦三路)"},{"poiid":"B2094654DA6AA3FC4593","title":"陌生人火锅餐厅浦三路店","lon":"121.51184","lat":"31.19657","category":"86","category_name":"火锅店","address":"浦东新区浦三路48号(近浦东南路)"},{"poiid":"B2094757D06FA4FD4893","title":"大富贵酒楼(临沂店)","lon":"121.512869","lat":"31.194746","category":"76","category_name":"上海菜","address":"浦东新区临沂路143号(近浦三路)"},{"poiid":"B2094655D26EA2F44199","title":"山城烤鱼浦三店","lon":"121.51065","lat":"31.19831","category":"88","category_name":"海鲜酒楼","address":"浦东新区浦东南路浦南医院附近(近临沂路)"},{"poiid":"B2094757D068A3FC439D","title":"陈记烧烤","lon":"121.51050259","lat":"31.197492468","category":"68","category_name":"快餐厅","address":"浦东新区南码头支路81号(胶南路口)"},{"poiid":"B2094757D068ABF8419D","title":"南码头小区","lon":"121.509275732","lat":"31.1982065693","category":"47","category_name":"住宅区","address":"上海浦东南路浦三路"},{"poiid":"B2094757D568A1F44998","title":"盱眙龙虾","lon":"121.510906","lat":"31.197684","category":"68","category_name":"快餐厅","address":"浦东新区浦东南路2384号(浦三路口)"},{"poiid":"B2094654DA6AA3F84898","title":"风味小吃","lon":"121.50752","lat":"31.20025","category":"68","category_name":"快餐厅","address":"浦东新区浦东南路2386号(近胶南路)"},{"poiid":"B2094655D36CA1F9489B","title":"临沂路浦三路","lon":"121.51166","lat":"31.19441","category":"38","category_name":"公交车站","address":""},{"poiid":"B2094654DA6AA3FC449B","title":"金霖酒家(浦东南路)","lon":"121.5108","lat":"31.19768","category":"76","category_name":"上海菜","address":"浦东新区浦东南路2611号(近浦三路)"},{"poiid":"B2094750D26FA4F9479D","title":"小尾羊(临沂路店)","lon":"121.51253383865355","lat":"31.1950916926387","category":"86","category_name":"火锅店","address":"浦东新区临沂路140号1楼(近浦三路)"},{"poiid":"B2094757D168A4F9429D","title":"来吧面道","lon":"121.510538","lat":"31.197409","category":"68","category_name":"快餐厅","address":"浦东新区浦东南路2661号(近浦三路)"},{"poiid":"B2094654DA6AA3FC4699","title":"齐爱馆","lon":"121.51199","lat":"31.19627","category":"76","category_name":"上海菜","address":"浦东新区浦三路58号(近临沂路)"},{"poiid":"B2094757D16AA7FC479D","title":"三两春","lon":"121.511521","lat":"31.197064","category":"68","category_name":"快餐厅","address":"浦东新区浦三路26-1号(近浦东南路)"},{"poiid":"B2094757D06BA6F5479D","title":"普明面馆(浦三路店)","lon":"121.512127888","lat":"31.1964895064","category":"68","category_name":"快餐厅","address":"浦东新区浦东南路2553号(近浦三路)"},{"poiid":"B2094655D264A5FF4998","title":"重庆鸡公煲浦三路店","lon":"121.51162","lat":"31.19691","category":"71","category_name":"四川菜","address":"长宁区武夷路340号(近定西路)"},{"poiid":"B2094757D16BA5F4429A","title":"老北京涮羊肉","lon":"121.510728","lat":"31.198508","category":"86","category_name":"火锅店","address":"浦东新区浦东南路2384号(近浦三路)"},{"poiid":"B2094757D068A7FF459D","title":"临沂一村","lon":"121.513924673","lat":"31.1973909041","category":"47","category_name":"住宅区","address":"上海临沂一村"},{"poiid":"B2094757D068A2F4479A","title":"南码头社区市民中心","lon":"121.50903","lat":"31.19601","category":"260","category_name":"其他","address":"浦东新区南码头路400号(近浦东南路)"},{"poiid":"B2094757D66CA3FD429F","title":"浦东南路浦三路汽车站","lon":"121.510943838","lat":"31.1972311972","category":"35","category_name":"长途汽车站","address":"上海浦东南路2551号肯德基门口"},{"poiid":"B2094757D068A4F5479C","title":"临沂三村","lon":"121.51024543","lat":"31.194138391","category":"47","category_name":"住宅区","address":"上海南码头路450弄"},{"poiid":"B2094655D26EA7F8419F","title":"浦南医院眼科诊治门诊(浦东南路)","lon":"121.51039","lat":"31.19795","category":"162","category_name":"医院","address":"浦东南路2388"},{"poiid":"B2094654DB65A6FA449D","title":"国美电器(浦三店)","lon":"121.51122","lat":"31.19806","category":"138","category_name":"家电电子卖场","address":"浦东新区浦东南路2551号(近浦三路)"},{"poiid":"B2094654DA6AA3FC4493","title":"忆星美容美发","lon":"121.51156","lat":"31.19701","category":"148","category_name":"美容美发店","address":"浦三路30号"},{"poiid":"B2094654DA6AA3FC449E","title":"海浦小区(东门)","lon":"121.51097","lat":"31.19761","category":"47","category_name":"住宅区","address":"浦三路12弄2"},{"poiid":"B2094757D064A4FC459C","title":"铭城园","lon":"121.51131","lat":"31.196751","category":"47","category_name":"住宅区","address":"上海市浦东新区浦三路28弄口(近浦东南路)"},{"poiid":"B2094757D069AAF54793","title":"喜士多便利(浦东南路店)","lon":"121.51115","lat":"31.19741","category":"117","category_name":"便民商店/便利店","address":"上海浦东新区浦东南路2601号(近浦三路)"},{"poiid":"B2094757D165A0FC489E","title":"浦南医院口腔科","lon":"121.50949223","lat":"31.197426601","category":"162","category_name":"医院","address":"上海浦东南路胶南路口"},{"poiid":"B2094654DA6AA3FF479F","title":"银河小区","lon":"121.50822","lat":"31.196613","category":"47","category_name":"住宅区","address":"南码头路240,260弄"},{"poiid":"B2094655D26BA2F4479F","title":"浦三路浦东南路","lon":"121.51112","lat":"31.19856","category":"38","category_name":"公交车站","address":""},{"poiid":"B2094757D064ABFF469A","title":"新安江野味馆","lon":"121.50968973","lat":"31.196814588","category":"260","category_name":"其他","address":"浦东新区浦东南路2805号"},{"poiid":"B2094654DA6AA3FC459D","title":"新煌宾馆","lon":"121.51174","lat":"31.1967","category":"250","category_name":"公园户外","address":"浦东新区浦三路38号(近浦东南路)"},{"poiid":"B2094654DB64A3F8469F","title":"上溶新村(西门)","lon":"121.51152","lat":"31.19754","category":"47","category_name":"住宅区","address":"临沂一村"},{"poiid":"B2094655D26BA2F5459D","title":"浦东南路","lon":"121.50846","lat":"31.19786","category":"38","category_name":"公交车站","address":""},{"poiid":"B2094654DA6AA3F9429D","title":"江天宾馆","lon":"121.50792","lat":"31.19542","category":"215","category_name":"三星级宾馆","address":"浦东新区浦东南路3456号(近南码头路)"},{"poiid":"B2094654DA6AA3F94299","title":"浦南医院泌尿外科","lon":"121.50931","lat":"31.19709","category":"162","category_name":"医院","address":"浦东南路2388号"},{"poiid":"B2094750D26CA1FD4693","title":"有家小菜","lon":"121.512136","lat":"31.195903","category":"76","category_name":"上海菜","address":"浦东新区浦三路70号(近临沂路)"},{"poiid":"B2094752D06DA0FB499D","title":"初鱼坊巫山烤全鱼","lon":"121.507796","lat":"31.197813","category":"247","category_name":"餐饮美食","address":"浦三路"},{"poiid":"B2094750DB68A0F9429D","title":"龙阳路地铁站","lon":"121.507537","lat":"31.197134","category":"36","category_name":"地铁站","address":null},{"poiid":"B2094654DB65A1F44092","title":"浦东新区医疗急救中心浦南分站","lon":"121.509","lat":"31.19695","category":"162","category_name":"医院","address":""},{"poiid":"B2094654DA6AA3FC449D","title":"技佳台球俱乐部","lon":"121.51145","lat":"31.19706","category":"171","category_name":"台球厅","address":"浦东新区浦三路24号4楼(浦东南路口)"},{"poiid":"B2094757D66FA3FD499E","title":"640路浦南医院站","lon":"121.508703232","lat":"31.1979451289","category":"38","category_name":"公交车站","address":"上海南码头路浦东南路路口"},{"poiid":"B2094757D16FA2F9469E","title":"可颂坊(临沂店)","lon":"121.51245498","lat":"31.194962984","category":"112","category_name":"糕饼店","address":"上海浦东新区临沂路144号华联吉买盛1楼(浦三路口)"},{"poiid":"B2094757D66FA7FD439E","title":"胡记小菜","lon":"121.512243538","lat":"31.1968336887","category":"257","category_name":"中餐厅","address":"上海市浦东新区浦三路24号"},{"poiid":"B2094655D265A5FB489F","title":"好德便利(浦三店)","lon":"121.51187","lat":"31.19655","category":"117","category_name":"便民商店/便利店","address":"浦三路48号南面"},{"poiid":"B2094757D069A0FA4699","title":"576路浦东南路浦三路站","lon":"121.511659","lat":"31.197369","category":"500","category_name":"未知分类","address":"上海市浦东新区浦东南路近浦三路北侧"},{"poiid":"B2094654DA6AA3F8489B","title":"好德便利No.477","lon":"121.51012","lat":"31.19914","category":"117","category_name":"便民商店/便利店","address":"南码头"},{"poiid":"B209475CDA6BA6FC4198","title":"倪同学炸猪排","lon":"121.509658","lat":"31.199125","category":"247","category_name":"餐饮美食","address":"上海市 浦东新区南码头胶南路路口"},{"poiid":"B2094757D064A2F54292","title":"Touch Bread(浦三路店)","lon":"121.512462738","lat":"31.1959735704","category":"112","category_name":"糕饼店","address":"浦东新区浦三路261号(近临沂路)"},{"poiid":"B2094757D465A5FB4199","title":"方师傅小笼 南码头路店","lon":"121.508044054","lat":"31.199132793","category":"68","category_name":"快餐厅","address":"浦东新区南码头路175号(东三里桥与沂南路间)"},{"poiid":"B2094757D568A5FE449E","title":"胶南路烧烤摊","lon":"121.5098869","lat":"31.19931889","category":"87","category_name":"特色／地方风味餐厅","address":"胶南路66号新亚大包附近"},{"poiid":"B2094654DA6AA3FF479C","title":"银河小区(东门)","lon":"121.50875","lat":"31.19687","category":"47","category_name":"住宅区","address":"南码头路240、260弄"},{"poiid":"B2094757D16FA2FE489E","title":"锦越坊","lon":"121.50997161","lat":"31.196706771","category":"500","category_name":"未知分类","address":"浦东南路2805号近南码头路"},{"poiid":"B2094654DA6AA3F8459B","title":"南码头小学","lon":"121.50871","lat":"31.19947","category":"56","category_name":"小学","address":"浦东新区东三里桥路16号(东三里桥路胶南路)"},{"poiid":"B2094654DB64A3F8469E","title":"湘香楼","lon":"121.51315962538","lat":"31.195334893863","category":"77","category_name":"湖南菜","address":"浦东新区浦三路157号(近临沂路)"},{"poiid":"B2094654DA6AA1FD489A","title":"临沂一村幼儿园","lon":"121.51243","lat":"31.19819","category":"57","category_name":"幼儿园","address":" 浦三路临沂一村56号"},{"poiid":"B2094655D26DA7F4469C","title":"铭城园(北门)","lon":"121.5113","lat":"31.19699","category":"48","category_name":"楼宇大门","address":"浦三路28弄"},{"poiid":"B2094757D06AA5F54693","title":"胶南小区","lon":"121.51067","lat":"31.199404","category":"252","category_name":"楼宇机构","address":"上海东三里桥路160弄"},{"poiid":"B2094757D16CA6F44498","title":"辛湘汇","lon":"121.508355938","lat":"31.197506603","category":"247","category_name":"餐饮美食","address":"上海八百伴"},{"poiid":"B2094757D16EA7F4409A","title":"浦南医院病房大楼","lon":"121.511040738","lat":"31.1940205288","category":"162","category_name":"医院","address":"上海浦东新区临沂路219号"},{"poiid":"B2094757D66EA7FA4692","title":"和睦家医疗 浦东","lon":"121.50928173","lat":"31.197253597","category":"500","category_name":"未知分类","address":"上海红枫路525号"},{"poiid":"B2094654DA6AA3FC479E","title":"锦汇酒家 临沂店","lon":"121.51262977322","lat":"31.195311344853","category":"76","category_name":"上海菜","address":"浦东新区临沂路180号2楼(浦三路)"},{"poiid":"B2094654DA6AA3F94199","title":"新华书店教材书店NO.020","lon":"121.50856","lat":"31.19796","category":"125","category_name":"书店","address":"南码头路231"},{"poiid":"B2094655D26FAAF94798","title":"银河小区(边门)","lon":"121.50839","lat":"31.19764","category":"47","category_name":"住宅区","address":"南码头路238弄"},{"poiid":"B2094757D66DA4FA4893","title":"浦三路","lon":"121.509324738","lat":"31.1966405846","category":"500","category_name":"未知分类","address":"上海市浦东新区雪野路"},{"poiid":"B2094655D26BA1FF449B","title":"南码头路浦东南路","lon":"121.50957","lat":"31.19542","category":"38","category_name":"公交车站","address":""},{"poiid":"B2094757D66DA4FE4498","title":"联华超市(南码头店)","lon":"121.50844013","lat":"31.197953912","category":"118","category_name":"超级市场","address":"浦东新区南码头路218号(近沂南路)"},{"poiid":"B2094757D06BA2FB4393","title":"湘汇轩(浦三路店)","lon":"121.51286","lat":"31.19538","category":"77","category_name":"湖南菜","address":"上海浦东新区浦三路70号(近临沂路)"},{"poiid":"B2094757D168A3FB459F","title":"糖果屋","lon":"121.509073038","lat":"31.197083994","category":"500","category_name":"未知分类","address":"上海浦东南路"},{"poiid":"B2094757D069A3FE499C","title":"迪信通(浦三店)","lon":"121.511420913","lat":"31.1957170453","category":"138","category_name":"家电电子卖场","address":"浦东新区临沂路140号1楼(临沂路浦三路)"},{"poiid":"B2094753D36FA2F54998","title":"香辣汇","lon":"121.507911","lat":"31.197949","category":"247","category_name":"餐饮美食","address":"上海市 浦三路70号"},{"poiid":"B2094757D664A6FF409A","title":"简朴森 临沂路店 Jepson Bread","lon":"121.512618054","lat":"31.194787793","category":"67","category_name":"甜品店","address":"浦东新区临沂路161号(近浦三路)"},{"poiid":"B2094654DB6AA2FE499C","title":"陌生人酒楼浦三店","lon":"121.51251","lat":"31.19612","category":"70","category_name":"综合酒楼","address":"浦东新区浦三路75号近浦东南路"},{"poiid":"B2094654DA6AA1FD429D","title":"永琪美容美发(临沂路)","lon":"121.51309","lat":"31.19532","category":"148","category_name":"美容美发店","address":"浦东新区临沂路136"},{"poiid":"B2094757D16AA6F9429B","title":"金缘坊","lon":"121.51179704242","lat":"31.196350668283","category":"500","category_name":"未知分类","address":"上海浦东新区浦东南路3606弄"},{"poiid":"B2094757D165A3FB429C","title":"福建千里香馄饨","lon":"121.50975","lat":"31.19955","category":"247","category_name":"餐饮美食","address":"上海浦东新区胶南路  "},{"poiid":"B2094654DB65A7FC469F","title":"百味林 浦三路店 Buy Well","lon":"121.51282","lat":"31.19559","category":"257","category_name":"中餐厅","address":"浦东新区浦三路151号(近临沂路)"},{"poiid":"B2094654DA6AA3F84998","title":"流金岁月专业美发美容","lon":"121.50829","lat":"31.19868","category":"148","category_name":"美容美发店","address":"南码头路223-1"},{"poiid":"B2094757D768A4F8429F","title":"甘其食 浦三路店","lon":"121.512855","lat":"31.195598","category":"87","category_name":"特色／地方风味餐厅","address":"浦东新区浦三路857号(近南码头路)"},{"poiid":"B2094757D66EA4F9479A","title":"徐川专线南码头路浦东南路站","lon":"121.511538038","lat":"31.1986937483","category":"500","category_name":"未知分类","address":"上海市浦东新区南码头路436号"},{"poiid":"B2094654DA6AA3FF4893","title":"金谷商厦","lon":"121.50791","lat":"31.19848","category":"46","category_name":"楼宇","address":""},{"poiid":"B2094654DA6AA3F9429A","title":"保健足浴","lon":"121.5087","lat":"31.19769","category":"149","category_name":"洗浴推拿场所","address":"南码头路237-1识别"},{"poiid":"B2094757D068A3F4499C","title":"上海燃气浦东销售有限公司第一营业所","lon":"121.51184","lat":"31.199103","category":"500","category_name":"未知分类","address":"上海浦东南路浦三路"},{"poiid":"B2094654DB64A3FF439B","title":"重庆鸡公煲 南码头店","lon":"121.510032054","lat":"31.194368793","category":"247","category_name":"餐饮美食","address":"南码头路440号近临沂路"},{"poiid":"B2094655D26DA1FF419F","title":"临沂二村(东门)","lon":"121.51097","lat":"31.19685","category":"656","category_name":"大门","address":"浦三路12弄"},{"poiid":"B2094655D268A6FA479A","title":"东三里桥路小区","lon":"121.50857","lat":"31.19923","category":"47","category_name":"住宅区","address":""},{"poiid":"B2094655D26DA1FA4998","title":"欣宇小区(西门)","lon":"121.51247","lat":"31.19618","category":"47","category_name":"住宅区","address":"三浦路135弄"},{"poiid":"B2094654DA6AA1FD479E","title":"中国农业银行浦东浦三路支行","lon":"121.51218","lat":"31.1967","category":"150","category_name":"银行","address":"浦三路69"},{"poiid":"B2094655D26DA4F9479C","title":"临沂一村(西门)","lon":"121.51152","lat":"31.19754","category":"656","category_name":"大门","address":""},{"poiid":"B2094655D26EA4FA459C","title":"一休茶坊","lon":"121.51262","lat":"31.19593","category":"66","category_name":"茶艺馆","address":"浦东新区浦三路141号"},{"poiid":"B2094757D16EABFF479E","title":"流金岁月专业美容美发","lon":"121.50857","lat":"31.19836","category":"148","category_name":"美容美发店","address":"上海浦东新区南码头路223号(近沂南路)  "},{"poiid":"B2094654DA69AAF5499F","title":"好德便利No.3091","lon":"121.50942","lat":"31.1952","category":"117","category_name":"便民商店/便利店","address":"南码头路430识别"},{"poiid":"B2094757D66DA3FF4398","title":"中国工商银行(南码头支行)","lon":"121.508288738","lat":"31.1980506146","category":"150","category_name":"银行","address":"上海市浦东新区南码头路189号"},{"poiid":"B2094751D26BA0F54299","title":"星美影城正大店","lon":"121.5121232","lat":"31.1993953","category":"248","category_name":"生活娱乐","address":"正大广场八楼"},{"poiid":"B2094654DA6AA3F94292","title":"江天大厦","lon":"121.50792","lat":"31.19542","category":"46","category_name":"楼宇","address":"浦东南路3456"},{"poiid":"B2094757D169A7FF499B","title":"欧偌妍SPA八佰伴旗舰店","lon":"121.508465","lat":"31.197864","category":"500","category_name":"未知分类","address":"上海浦东南路1038弄3号301室"},{"poiid":"B2094757D16EA3F84092","title":"Ling's house","lon":"121.51154773","lat":"31.199127637","category":"500","category_name":"未知分类","address":null},{"poiid":"B2094757D16AA4F9419F","title":"上溶新村","lon":"121.51334","lat":"31.197445","category":"47","category_name":"住宅区","address":"上海浦东南路2351号"},{"poiid":"B2094654DA69AAF5489D","title":"光明便利No.295","lon":"121.50947","lat":"31.19511","category":"117","category_name":"便民商店/便利店","address":"南码头路434"},{"poiid":"B209475CD365A5F4429E","title":"初鱼坊巫山烤全鱼 浦三店","lon":"121.51275","lat":"31.19571","category":"71","category_name":"四川菜","address":"浦三路141号(近临沂路)"},{"poiid":"B2094655D26DA1FA499B","title":"欣宇小区","lon":"121.51302","lat":"31.196407","category":"47","category_name":"住宅区","address":"浦三路135弄"},{"poiid":"B2094654DB64A3FF439D","title":"上岛咖啡 临沂路店","lon":"121.51239","lat":"31.19547","category":"260","category_name":"其他","address":"浦东新区浦三路华联吉买盛2楼(近临沂路)"},{"poiid":"B2094655D26DA7F44698","title":"惠盛大厦商务楼","lon":"121.51306","lat":"31.19536","category":"46","category_name":"楼宇","address":"浦三路159"},{"poiid":"B2094757D164A2F8439D","title":"中国建设银行塘桥支行","lon":"121.510759038","lat":"31.195344257","category":"150","category_name":"银行","address":"上海临沂路140号"},{"poiid":"B2094654DA6AA3F8469F","title":"南码头社区学校沂南分校","lon":"121.50885","lat":"31.19872","category":"253","category_name":"校园生活","address":""},{"poiid":"B2094655D268A6FA4693","title":"东三里桥路小区(西门)","lon":"121.50811","lat":"31.19902","category":"47","category_name":"住宅区","address":""},{"poiid":"B2094757D56EA6FF499B","title":"伊姿三日瘦（浦东八佰伴店）","lon":"121.508465","lat":"31.197864","category":"249","category_name":"购物服务","address":"浦东新区浦东南路商城路口八佰伴对面1036号隆宇大厦2102室(近商城路)"},{"poiid":"B2094655D26DA7FA4799","title":"仙桃林茶吧","lon":"121.50952","lat":"31.19503","category":"66","category_name":"茶艺馆","address":"南码头路436"},{"poiid":"B2094757D064AAFD4199","title":"百联社区商业中心","lon":"121.51277","lat":"31.19463","category":"119","category_name":"商场","address":"浦东新区临沂路140号(近浦三路)"},{"poiid":"B2094654DA6AA3FF4692","title":"柯达快速彩色(南码头路)","lon":"121.50889","lat":"31.19654","category":"248","category_name":"生活娱乐","address":""},{"poiid":"B2094757D16FAAF8449A","title":"迪亚天天(南码头路店)","lon":"121.510009766","lat":"31.1949882507","category":"117","category_name":"便民商店/便利店","address":"浦东新区南码头路451弄17-18号(临沂路南码头路)"},{"poiid":"B2094757D168A3FD409D","title":"SOHO包豪斯大学城分部","lon":"121.512129738","lat":"31.1958955687","category":"500","category_name":"未知分类","address":"天津大学城潘馨园12－6－502"},{"poiid":"B2094757D569A2FF489C","title":"南码头社区文化活动中心","lon":"121.5084342","lat":"31.19599943","category":"188","category_name":"文化宫","address":"南码头路400"},{"poiid":"B2094655D268A4FD499E","title":"西三里桥小区","lon":"121.50751","lat":"31.19902","category":"47","category_name":"住宅区","address":""},{"poiid":"B2094655D268A4FF4899","title":"西三里桥小区(侧门)","lon":"121.50779","lat":"31.19893","category":"47","category_name":"住宅区","address":""},{"poiid":"B2094654DA6AA1FD469A","title":"惠盛公寓","lon":"121.51335","lat":"31.19582","category":"47","category_name":"住宅区","address":"浦三路157弄1号"},{"poiid":"B2094654DB64A3F84699","title":"惠盛大厦商务楼大楼办公室","lon":"121.51306","lat":"31.19536","category":"46","category_name":"楼宇","address":"浦三路159号惠盛大厦商务楼201"},{"poiid":"B2094757D16FA1FD4098","title":"临沂路早饭滩头","lon":"121.51010166","lat":"31.195251175","category":"500","category_name":"未知分类","address":"上海市浦东新区临沂路161号家得利门口早饭滩头"},{"poiid":"B2094655D26DA1F44893","title":"南码头路160弄小区(南门)","lon":"121.50743","lat":"31.19869","category":"47","category_name":"住宅区","address":"南码头路160弄"},{"poiid":"B2094655D26DABFA469F","title":"胶南小区(北门)","lon":"121.51058","lat":"31.2006","category":"656","category_name":"大门","address":"东三里桥160、170弄"},{"poiid":"B2094654DA6AA3F9409E","title":"好德便利No.069","lon":"121.50779","lat":"31.19964","category":"117","category_name":"便民商店/便利店","address":"南码头路157"},{"poiid":"B2094655D26DABFA4493","title":"东三小区(边门)","lon":"121.50942","lat":"31.20057","category":"47","category_name":"住宅区","address":"东三街102弄"},{"poiid":"B2094654DA6AA1FD479A","title":"忆休茶坊","lon":"121.510869054","lat":"31.198150793","category":"260","category_name":"其他","address":"浦东新区浦三路141号(近浦东南路)"},{"poiid":"B2094654DA6AA3F8459D","title":"良友金伴(东三里桥路)","lon":"121.50967","lat":"31.20063","category":"117","category_name":"便民商店/便利店","address":"东三里桥路151-5"},{"poiid":"B2094655D26AA7F9439F","title":"山木培训浦三宾馆分校","lon":"121.51306","lat":"31.19536","category":"247","category_name":"餐饮美食","address":"浦东新区浦三路159号(浦东南路浦三路)"},{"poiid":"B2094655D26DA7F4469A","title":"惠盛公寓(西门)","lon":"121.51303","lat":"31.19543","category":"47","category_name":"住宅区","address":"浦三路157弄"},{"poiid":"B2094655D26DA1F44892","title":"南码头路160弄小区","lon":"121.50738","lat":"31.19891","category":"47","category_name":"住宅区","address":"南码头路160弄"},{"poiid":"B2094654DA69AAF5489B","title":"南晨造型染烫专业店","lon":"121.50982","lat":"31.19458","category":"148","category_name":"美容美发店","address":""},{"poiid":"B2094757D06BA4F5449F","title":"南码头街道社区学校","lon":"121.50846862","lat":"31.197864532","category":"260","category_name":"其他","address":"上海华丰路50弄11号（近浦东南路）"},{"poiid":"B2094654DA6AA1FD4593","title":"中国工商银行(浦三路)","lon":"121.51306","lat":"31.19536","category":"150","category_name":"银行","address":"浦三路159号惠盛大厦商务楼220-222、225-226"},{"poiid":"B2094654DB6AA2FB4498","title":"上海浦东新区南码头路街道社区服务中心","lon":"121.51217","lat":"31.19425","category":"47","category_name":"住宅区","address":"临沂路181弄111号"},{"poiid":"B2094757D66CA7FA419A","title":"云台路","lon":"121.50841973","lat":"31.19456554","category":"500","category_name":"未知分类","address":"上海市浦东新区云台路"},{"poiid":"B2094654DA6AA3F84499","title":"快客联华便利连锁No.1214","lon":"121.50785","lat":"31.19997","category":"117","category_name":"便民商店/便利店","address":"东三里桥路11识别"},{"poiid":"B2094654DB65A7FB469D","title":"家得利(胶南店)","lon":"121.50893","lat":"31.20037","category":"118","category_name":"超级市场","address":"浦东新区东三里桥路79弄1-6号"},{"poiid":"B2094757D16CA7FB4198","title":"温馨小筑","lon":"121.50980243","lat":"31.195062251","category":"500","category_name":"未知分类","address":"上海浦东南路浦三路"},{"poiid":"B2094757D66FA7F84993","title":"Sherry's Home","lon":"121.507463738","lat":"31.1979836132","category":"500","category_name":"未知分类","address":null},{"poiid":"B2094654DA6AA3F8449C","title":"大桥菜市场","lon":"121.50853","lat":"31.20021","category":"117","category_name":"便民商店/便利店","address":""},{"poiid":"B2094654DA69AAF4469B","title":"家得利超市临沂店","lon":"121.51235","lat":"31.19447","category":"118","category_name":"超级市场","address":"浦东新区临沂路161号(近浦三路)"},{"poiid":"B2094757D16EA2F9499C","title":"上海雅客世博滨江酒店公寓","lon":"121.507251738","lat":"31.197784609","category":"217","category_name":"旅馆招待所","address":"浦东新区雪野路1125号"},{"poiid":"B2094757D06BA4FD4499","title":"南码头144弄","lon":"121.50793973","lat":"31.199126637","category":"500","category_name":"未知分类","address":"上海市浦东新区世博大道"},{"poiid":"B2094757D06AA7FA4398","title":"临沂路邮局","lon":"121.51153564","lat":"31.194169998","category":"621","category_name":"邮局","address":"上海浦东新区临沂路207号"},{"poiid":"B2094750D464AAF4459A","title":"城隍庙","lon":"121.511665","lat":"31.194347","category":"500","category_name":"未知分类","address":null},{"poiid":"B2094757D16FA3FB4098","title":"文峰美容美发(浦三路店)","lon":"121.51289","lat":"31.19566","category":"148","category_name":"美容美发店","address":"浦东新区浦三路141号(临沂路浦三路)"},{"poiid":"B2094654DA6AA1FD4193","title":"上海市浦东新区价格认证中心","lon":"121.51361","lat":"31.19562","category":"250","category_name":"公园户外","address":"临沂路128号7层"},{"poiid":"B2094757D16BABFE459A","title":"青啤宝贝之家","lon":"121.508701","lat":"31.19509","category":"500","category_name":"未知分类","address":"上海浦东南路3405号"},{"poiid":"B2094757D66CA0FB4692","title":"临沂路128号4楼","lon":"121.513419738","lat":"31.1953405569","category":"500","category_name":"未知分类","address":"上海浦东统计局"},{"poiid":"B2094757D168A5F54393","title":"浦三路454路车站","lon":"121.508510738","lat":"31.1945865409","category":"500","category_name":"未知分类","address":"上海浦三路"},{"poiid":"B2094757D164A2F94393","title":"弘吉网吧","lon":"121.51163223","lat":"31.194783545","category":"248","category_name":"生活娱乐","address":"浦东新区临沂路140号2楼(近华联吉买盛)"},{"poiid":"B2094757D66CA2F4409B","title":"785路临沂路浦三路站","lon":"121.511631738","lat":"31.1944615382","category":"500","category_name":"未知分类","address":"上海市浦东新区临沂路近浦三路南侧"},{"poiid":"B2094752D16EAAFB4298","title":"浦东出入境管理局","lon":"121.512623","lat":"31.199971","category":"252","category_name":"楼宇机构","address":"民生路1500号"},{"poiid":"B2094757D069A4FE4293","title":"610路公交","lon":"121.51118223","lat":"31.20115392","category":"500","category_name":"未知分类","address":"上海东沟至耀华"},{"poiid":"B2094655D26EA3F54899","title":"胶南小区(东门)","lon":"121.51177","lat":"31.19968","category":"656","category_name":"大门","address":""},{"poiid":"B2094654DB64A3F8469A","title":"上海市浦东新区综合经济研究所","lon":"121.51361","lat":"31.19563","category":"191","category_name":"科研机构","address":"临沂路128号8层"},{"poiid":"B2094655D26DA0FE4393","title":"投资咨询公司","lon":"121.51362","lat":"31.19563","category":"263","category_name":"公司","address":"临沂路128号5层"},{"poiid":"B2094654DA6AA3FD419F","title":"临沂二村(西门)","lon":"121.51004","lat":"31.19475","category":"656","category_name":"大门","address":"南码头路451弄"},{"poiid":"B2094654DA6AA3FF469C","title":"临沂三村(北门)","lon":"121.50978","lat":"31.19465","category":"656","category_name":"大门","address":"南码头路450弄"},{"poiid":"B2094750D76CA1FF439B","title":"惠盛食堂","lon":"121.513","lat":"31.1955","category":"260","category_name":"其他","address":"浦东新区浦三路157弄惠盛公寓10楼(近临沂路)"},{"poiid":"B2094655D26EA2F4419B","title":"临沂三村(西门)","lon":"121.5087","lat":"31.19502","category":"656","category_name":"大门","address":"浦东南路3405弄"},{"poiid":"B2094655D26DA1F54399","title":"临沂二村(南门)","lon":"121.51163","lat":"31.19457","category":"656","category_name":"大门","address":"南码头路451弄"},{"poiid":"B2094654DA6AA3F8469B","title":"东三小区(南门)","lon":"121.51036","lat":"31.20089","category":"656","category_name":"大门","address":"东三街102弄1-45号"},{"poiid":"B2094655D26FABFC499A","title":"胶南小区(侧门)","lon":"121.51158","lat":"31.2006","category":"656","category_name":"大门","address":""},{"poiid":"B2094654DB64A3FF4299","title":"临沂六村(北门)","lon":"121.51199","lat":"31.19429","category":"656","category_name":"大门","address":"临沂路181弄"}]