[{"poiid":"B2094757D06FA7FD4293","title":"通北路海鲜","lon":"121.521346","lat":"31.25516","category":"68","category_name":"快餐厅","address":"杨浦区通北路176号(近平凉路)"},{"poiid":"B2094757D06EAAFF479A","title":"杨树浦路地铁站","lon":"121.51719604","lat":"31.252407847","category":"36","category_name":"地铁站","address":"上海轨道交通 四号线 轨交杨树浦路站 轻轨 4"},{"poiid":"B2094757D16CABF8439C","title":"老四海鮮","lon":"121.521366103","lat":"31.2538765766","category":"247","category_name":"餐饮美食","address":"上海楊浦區通北路"},{"poiid":"B209475CD564A7F84392","title":"上海滩浦东香格里拉店","lon":"121.50058","lat":"31.23634","category":"119","category_name":"商场","address":"浦东富成路33号香格里拉酒店内大堂层"},{"poiid":"B2094757D06FA3FF4692","title":"提篮桥监狱","lon":"121.51515197","lat":"31.253217697","category":"608","category_name":"法院","address":"上海市虹口区长阳路147号"},{"poiid":"B2094655D26BA1FC479B","title":"平凉路通北路","lon":"121.52108","lat":"31.25504","category":"38","category_name":"公交车站","address":""},{"poiid":"B2094757D06FA2FD409E","title":"上海市市东中学","lon":"121.51550766","lat":"31.257074778","category":"55","category_name":"中学","address":"杨浦区荆州路42号(长阳路荆州路)"},{"poiid":"B2094654DB69A5FF429A","title":"莫泰168连锁旅店(霍山路店)","lon":"121.51356","lat":"31.2559","category":"216","category_name":"经济型连锁酒店","address":"上海虹口区霍山路300号（近大连路）"},{"poiid":"B2094757D068A4F5479A","title":"隧道工程股份有限公司","lon":"121.517015","lat":"31.253451","category":"263","category_name":"公司","address":"上海大连路118号"},{"poiid":"B2094655D269ABFC449F","title":"市东中学羽毛球馆","lon":"121.51613","lat":"31.25695","category":"247","category_name":"餐饮美食","address":"杨浦区荆州路101号市东中学体育馆5楼(近霍山路)"},{"poiid":"B2094757D66FA2F9469F","title":"西门子总部","lon":"121.516492803","lat":"31.2571552451","category":"500","category_name":"未知分类","address":"上海大连路500号"},{"poiid":"B2094655D26BA1FC489F","title":"平凉路大连路","lon":"121.51745","lat":"31.25307","category":"38","category_name":"公交车站","address":""},{"poiid":"B2094655D26AA0F9409B","title":"地铁杨树浦路站","lon":"121.5172","lat":"31.25241","category":"36","category_name":"地铁站","address":""},{"poiid":"B2094757D068ABFE489E","title":"世博园秦皇岛水门","lon":"121.51718895","lat":"31.253926877","category":"260","category_name":"其他","address":"上海秦皇岛路32号"},{"poiid":"B2094655D26CA6FD439B","title":"上海精密机械加工园区榆林路201号园区","lon":"121.51712","lat":"31.25487","category":"45","category_name":"产业园区","address":"榆林路201号"},{"poiid":"B2094654D56EA5F94798","title":"好来西海鲜排档","lon":"121.52141","lat":"31.25548","category":"260","category_name":"其他","address":"杨浦区通北路217号(平凉路口)"},{"poiid":"B2094655D36DA6FE4992","title":"杨树浦路","lon":"121.5172","lat":"31.25241","category":"38","category_name":"公交车站","address":""},{"poiid":"B2094655D26EA1FC479F","title":"上海精密机械加工园区榆林路200号园区","lon":"121.51738","lat":"31.25431","category":"45","category_name":"产业园区","address":"榆林路200号"},{"poiid":"B2094757D16BA5FF479C","title":"coco奶茶(平凉店)","lon":"121.519247003","lat":"31.2554528095","category":"113","category_name":"冷饮店","address":"上海通北路平凉路口"},{"poiid":"B2094757D068AAF8469E","title":"上海船厂船舶有限公司","lon":"121.516366773","lat":"31.2546355024","category":"263","category_name":"公司","address":"上海杨树浦路468号"},{"poiid":"B2094757D06AA1FC4693","title":"德国大陆汽车亚太总部","lon":"121.51864624","lat":"31.256095886","category":"500","category_name":"未知分类","address":"上海大连路538号"},{"poiid":"B2094654DB6AA2FB479D","title":"上海仪电购物总汇榆林商场","lon":"121.51647","lat":"31.25425","category":"119","category_name":"商场","address":"榆林路161号-163号"},{"poiid":"B2094654D56EA5FF449E","title":"上海手表厂","lon":"121.5175","lat":"31.25486","category":"263","category_name":"公司","address":"平凉路"},{"poiid":"B2094655D26BA0F44692","title":"近胜里小区","lon":"121.51849","lat":"31.25417","category":"47","category_name":"住宅区","address":"平凉路245弄"},{"poiid":"B2094655D26CA6FD489E","title":"榆林路280弄小区(北门)","lon":"121.5185","lat":"31.25515","category":"47","category_name":"住宅区","address":"榆林路280弄"},{"poiid":"B2094655D265ABF4459F","title":"榆林路281弄小区","lon":"121.51835","lat":"31.2555","category":"47","category_name":"住宅区","address":"榆林路281弄"},{"poiid":"B2094655D26CA6FD469C","title":"景星路385弄小区","lon":"121.51866","lat":"31.25462","category":"47","category_name":"住宅区","address":"景星路385弄"},{"poiid":"B2094654D56EA5FF449D","title":"上海新世纪表业有限公司(榆林路)","lon":"121.51712","lat":"31.25487","category":"263","category_name":"公司","address":"榆林路201"},{"poiid":"B2094655D36CA0FB499D","title":"惠民路","lon":"121.51419","lat":"31.2546","category":"38","category_name":"公交车站","address":""},{"poiid":"B2094654D56EA5FF499C","title":"快客No.1123","lon":"121.51893","lat":"31.25402","category":"117","category_name":"便民商店/便利店","address":"平凉路"},{"poiid":"B2094757D068A4FD449A","title":"平凉街道社区卫生服务中心","lon":"121.520317959","lat":"31.2547247168","category":"162","category_name":"医院","address":"杨浦区平凉路335号(福禄街平凉路)"},{"poiid":"B2094654D56EA5FF4493","title":"上海表业有限公司营销部","lon":"121.51702","lat":"31.25459","category":"135","category_name":"钟表店","address":""},{"poiid":"B2094750DB6DA1FA479C","title":"新天地stayreal","lon":"121.516563","lat":"31.255727","category":"249","category_name":"购物服务","address":"马当路245号"},{"poiid":"B2094655D36CA3FC4292","title":"榆林路281弄小区(东门)","lon":"121.51836","lat":"31.25557","category":"47","category_name":"住宅区","address":"榆林路281弄"},{"poiid":"B2094654D56EA5F9479F","title":"沪东状元楼","lon":"121.52121","lat":"31.25524","category":"257","category_name":"中餐厅","address":"平凉路403号近通北路"},{"poiid":"B2094655D264ABFE4498","title":"三乐里(边门)","lon":"121.51617","lat":"31.25539","category":"47","category_name":"住宅区","address":""},{"poiid":"B2094757D064AAF84392","title":"东码头","lon":"121.5206998","lat":"31.25262055","category":"500","category_name":"未知分类","address":"上海市杨浦区秦皇岛路32号"},{"poiid":"B2094757D06FABFC469C","title":"平凉路大连路站(公交842,155,137,25,853,申川线,921终,79终)","lon":"121.518741","lat":"31.252096","category":"38","category_name":"公交车站","address":"上海市杨浦区平凉路179号"},{"poiid":"B2094654D56FA2FD4999","title":"云舫小区","lon":"121.51371","lat":"31.255001","category":"47","category_name":"住宅区","address":"保定路20弄10-40号"},{"poiid":"B2094655D26CA6FD4899","title":"虹口公安分局交通警察支队二中队","lon":"121.5168","lat":"31.25399","category":"248","category_name":"生活娱乐","address":"榆林路192号"},{"poiid":"B2094655D26CA6FD469F","title":"景星路385弄小区(东门)","lon":"121.5189","lat":"31.2547","category":"47","category_name":"住宅区","address":"景星路385弄"},{"poiid":"B2094655D26CA6FC4593","title":"人寿里","lon":"121.51683","lat":"31.25608","category":"47","category_name":"住宅区","address":""},{"poiid":"B2094757D06FA3FA499A","title":"宋记粥铺","lon":"121.52108764","lat":"31.255048751","category":"68","category_name":"快餐厅","address":"杨浦区平凉路(通北路口)"},{"poiid":"B2094655D26EA3FC409B","title":"听奕里(西门)","lon":"121.51895","lat":"31.25491","category":"47","category_name":"住宅区","address":"景星路390弄"},{"poiid":"B2094655D26DA4F54492","title":"惠民路355弄小区(南门)","lon":"121.51605","lat":"31.25557","category":"47","category_name":"住宅区","address":"惠民路355弄"},{"poiid":"B2094655D26BA6F54899","title":"近胜里小区(南门)","lon":"121.51865","lat":"31.25392","category":"47","category_name":"住宅区","address":"平凉路245弄"},{"poiid":"B2094654D56EA5F9489D","title":"上海市市东小学","lon":"121.51921","lat":"31.25589","category":"56","category_name":"小学","address":"榆林路313"},{"poiid":"B2094757D06BAAF44292","title":"杨浦牙防所","lon":"121.520728","lat":"31.254932","category":"500","category_name":"未知分类","address":"杨浦区平凉路337-339号(近通北路)"},{"poiid":"B2094654D56EA5F94693","title":"海北饭店 通北路店","lon":"121.52125537439","lat":"31.255798446073","category":"247","category_name":"餐饮美食","address":"杨浦区通北路231号(近平凉路)"},{"poiid":"B2094655D264ABF94092","title":"上海春蕾牌手表经营部","lon":"121.51679","lat":"31.25445","category":"135","category_name":"钟表店","address":"榆林路201-2临"},{"poiid":"B2094654D56EA5FF4592","title":"上海上隧实业公司大连路隧道养护管理分公司","lon":"121.51687","lat":"31.25417","category":"263","category_name":"公司","address":"榆林路192号"},{"poiid":"B2094655D26FA7FA429F","title":"近胜坊(西门)","lon":"121.51809","lat":"31.25632","category":"47","category_name":"住宅区","address":"景星路490弄"},{"poiid":"B2094655D26EA2FF469B","title":"惠民路355弄小区","lon":"121.51581","lat":"31.25572","category":"47","category_name":"住宅区","address":"惠民路355弄"},{"poiid":"B2094757D065A7FB469F","title":"上海市杨浦区天主教爱国会 和平之后圣母堂","lon":"121.5181706","lat":"31.256806937","category":"245","category_name":"教堂","address":"上海杨浦区惠民路692号(近益丰大药房)  和平堂"},{"poiid":"B2094757D66FA2FE459F","title":"申川线","lon":"121.517830303","lat":"31.2536470718","category":"500","category_name":"未知分类","address":"上海大连路长阳路"},{"poiid":"B2094655D26DAAF9439B","title":"宏惠花苑二期","lon":"121.51498","lat":"31.254585","category":"47","category_name":"住宅区","address":"上海市虹口区榆林路119号"},{"poiid":"B2094655D26CA6FD469D","title":"丁和里(北门)","lon":"121.51745","lat":"31.25282","category":"47","category_name":"住宅区","address":"平凉路164弄"},{"poiid":"B2094757D165A3FD4198","title":"都可茶飲","lon":"121.519574103","lat":"31.2548950978","category":"247","category_name":"餐饮美食","address":"上海平涼路429號"},{"poiid":"B2094752D368A4FA4698","title":"rich baby","lon":"121.517348","lat":"31.25503","category":"248","category_name":"生活娱乐","address":"淮海中路138号无限度广场"},{"poiid":"B2094655D26CA6FD4692","title":"平凉路174弄小区(北门)","lon":"121.5177","lat":"31.253","category":"47","category_name":"住宅区","address":"平凉路174弄"},{"poiid":"B2094654D56FA2FC4098","title":"快客No.1305","lon":"121.51496","lat":"31.25505","category":"117","category_name":"便民商店/便利店","address":"惠民路309号"},{"poiid":"B2094654D56EA5FA409E","title":"近胜坊","lon":"121.51829","lat":"31.256413","category":"47","category_name":"住宅区","address":"景星路490弄"},{"poiid":"B2094655D36DA0F94198","title":"杨树浦路大连路","lon":"121.51857","lat":"31.25196","category":"38","category_name":"公交车站","address":""},{"poiid":"B2094655D26CA6FD499C","title":"平凉路174弄小区","lon":"121.51785","lat":"31.25286","category":"47","category_name":"住宅区","address":"平凉路174弄"},{"poiid":"B2094654DB6BA3F4489F","title":"上海市市东中学初中部","lon":"121.51694","lat":"31.25698","category":"55","category_name":"中学","address":"荆州路100号"},{"poiid":"B2094757D06FAAFF469B","title":"DQ冰雪皇后(正大二店)","lon":"121.51651915","lat":"31.251704193","category":"113","category_name":"冷饮店","address":"浦东新区陆家嘴西路168号正大广场B2楼(近东方明珠)"},{"poiid":"B2094753D76CA5FD459A","title":"上海1937往事","lon":"121.515014","lat":"31.253509","category":"247","category_name":"餐饮美食","address":"上海市 上海市虹口区临潼路110号"},{"poiid":"B2094654DB6BA3F54299","title":"洁美理发店","lon":"121.51953","lat":"31.25431","category":"148","category_name":"美容美发店","address":"平凉路293"},{"poiid":"B2094654D56FA3F54192","title":"宏惠花苑","lon":"121.51508","lat":"31.25386","category":"47","category_name":"住宅区","address":"榆林路69弄1-6号"},{"poiid":"B2094654D56EA5FA4093","title":"文兴坊","lon":"121.51846","lat":"31.25658","category":"47","category_name":"住宅区","address":"惠民路518弄"},{"poiid":"B2094654D56FA2FE4992","title":"上汽霍山大楼","lon":"121.51394","lat":"31.25616","category":"46","category_name":"楼宇","address":"霍山路340"},{"poiid":"B2094655D26FA7FD419A","title":"三瑞里(东门)","lon":"121.51661","lat":"31.25671","category":"47","category_name":"住宅区","address":""},{"poiid":"B2094757D16CA6FA4192","title":"卡莎布兰卡(平凉店)","lon":"121.517949","lat":"31.253487","category":"500","category_name":"未知分类","address":"杨浦区平凉路183号(近大连路)"},{"poiid":"B2094655D26CA6F5419E","title":"大连路260弄小区","lon":"121.51529","lat":"31.25592","category":"47","category_name":"住宅区","address":"大连路260弄15-23号"},{"poiid":"B2094655D26DA6FA439D","title":"丁和里","lon":"121.5175","lat":"31.25272","category":"47","category_name":"住宅区","address":"平凉路164弄"},{"poiid":"B2094655D26FA7F8469A","title":"文兴坊(北门)","lon":"121.51829","lat":"31.25675","category":"47","category_name":"住宅区","address":"惠民路518弄"},{"poiid":"B2094654D56EA5F94992","title":"东海养老院","lon":"121.51933","lat":"31.25451","category":"207","category_name":"度假疗养场所","address":"景星路352"},{"poiid":"B2094757D165AAF8479D","title":"ˋ♥.уo尛囡丶窩窩","lon":"121.514754003","lat":"31.255285006","category":"47","category_name":"住宅区","address":"上海大連路榆林路"},{"poiid":"B2094655D26EA3F94798","title":"大连路260弄小区(西门)","lon":"121.51519","lat":"31.2559","category":"47","category_name":"住宅区","address":"大连路260弄15-23号"},{"poiid":"B2094654DB6BA3F4489D","title":"晋福里(南门)","lon":"121.51812","lat":"31.25687","category":"47","category_name":"住宅区","address":"惠民路507弄"},{"poiid":"B2094654D56EA5F8409B","title":"厚德里","lon":"121.51988","lat":"31.25398","category":"47","category_name":"住宅区","address":"巨鹿路163弄1-21号"},{"poiid":"B2094757D464A6FA409A","title":"重庆鸡公煲 通北路店","lon":"121.520616054","lat":"31.257234793","category":"71","category_name":"四川菜","address":"杨浦区平凉路412号振鼎鸡对面(近通北路)"},{"poiid":"B2094655D26CA7F5479D","title":"惠民路527弄小区(南门)","lon":"121.51832","lat":"31.25698","category":"47","category_name":"住宅区","address":"惠民路527弄"},{"poiid":"B2094654D56EA5F9489B","title":"杨浦区血液管理办公室","lon":"121.52032","lat":"31.25472","category":"162","category_name":"医院","address":"平凉路335-337"},{"poiid":"B2094654D56FA3F44193","title":"快客No.1324","lon":"121.5161","lat":"31.25248","category":"117","category_name":"便民商店/便利店","address":"平凉路87"},{"poiid":"B2094654DB64A4FA479F","title":"上海市杨浦区市东医院分院","lon":"121.52073","lat":"31.25494","category":"162","category_name":"医院","address":"平凉路335号"},{"poiid":"B2094654D56EA5F8409E","title":"杨浦区厚德托儿所","lon":"121.52004","lat":"31.25428","category":"57","category_name":"幼儿园","address":"平凉路320-322号"},{"poiid":"B2094655D26DA4F54098","title":"小花园茶坊","lon":"121.51419","lat":"31.2544","category":"66","category_name":"茶艺馆","address":""},{"poiid":"B2094655D26CA6FF479C","title":"榆林路357弄小区","lon":"121.51978","lat":"31.25634","category":"47","category_name":"住宅区","address":"榆林路357弄"},{"poiid":"B2094757D168A7F5419E","title":"浦东新区法院金桥人民法庭","lon":"121.51920318","lat":"31.253845214","category":"500","category_name":"未知分类","address":"上海浦东新区永宁路110号"},{"poiid":"B2094655D26DA4F84199","title":"惠民路527弄小区","lon":"121.51824","lat":"31.25707","category":"47","category_name":"住宅区","address":"惠民路527弄"},{"poiid":"B2094654D56EA5FA4192","title":"怀安坊","lon":"121.51923","lat":"31.256685","category":"47","category_name":"住宅区","address":"惠民路560弄"},{"poiid":"B2094655D26CA6F9439D","title":"榆林路357弄小区(南门)","lon":"121.51988","lat":"31.25614","category":"47","category_name":"住宅区","address":"榆林路357弄"},{"poiid":"B2094654D56EA5F9489A","title":"杨浦区牙病防治所通北门诊部","lon":"121.52053","lat":"31.25517","category":"162","category_name":"医院","address":"平凉路337-339"},{"poiid":"B2094757D069A7F4429A","title":"平凉路通北路站(公交37,25,155,842,868)","lon":"121.521170423","lat":"31.2550966869","category":"38","category_name":"公交车站","address":"上海杨浦区平凉路400号"},{"poiid":"B2094757D06BA6FD4899","title":"平凉路景星路星星粮油食品商店","lon":"121.51919","lat":"31.253808","category":"249","category_name":"购物服务","address":"上海平凉路景星路路口"},{"poiid":"B2094655D36CA4FC449F","title":"保定路惠民路","lon":"121.51368","lat":"31.25455","category":"38","category_name":"公交车站","address":""},{"poiid":"B2094654DB6BA3F5419B","title":"彩虹电玩","lon":"121.51899","lat":"31.25404","category":"173","category_name":"游戏厅","address":"平凉路261"},{"poiid":"B2094757D069A3F9409B","title":"上行线(杨树浦路店)","lon":"121.51722015","lat":"31.252408306","category":"125","category_name":"书店","address":"上海虹口区地铁四号线杨树浦路站"},{"poiid":"B2094654D56EA5FF4793","title":"上海景程旅行社有限公司","lon":"121.51812","lat":"31.25324","category":"248","category_name":"生活娱乐","address":"杨浦区平凉路200号(近大连路)"},{"poiid":"B2094654D56EA5FF4999","title":"麻将天地","lon":"121.51833","lat":"31.25369","category":"175","category_name":"棋牌室","address":"平凉路211"},{"poiid":"B2094655D26FA7FD4092","title":"怀安坊(北门)","lon":"121.51902","lat":"31.25709","category":"47","category_name":"住宅区","address":"惠民路560弄"},{"poiid":"B2094655D26DABFE4792","title":"霍山路376弄小区","lon":"121.51494","lat":"31.25653","category":"47","category_name":"住宅区","address":"霍山路376弄"},{"poiid":"B209475CD26CABF4409A","title":"桔子水晶酒店.北外滩","lon":"121.514915","lat":"31.253559","category":"251","category_name":"出行住宿","address":"虹口区东大名路1191号"},{"poiid":"B2094655D26CA7F54099","title":"长江大楼","lon":"121.515","lat":"31.2577","category":"46","category_name":"楼宇","address":"东大名路1096号"},{"poiid":"B2094654D56FA2FE4893","title":"提篮桥街道社区卫生服务中心","lon":"121.5137","lat":"31.25635","category":"162","category_name":"医院","address":"霍山路327"},{"poiid":"B2094654D56EA5FA429B","title":"惠民新苑","lon":"121.51949","lat":"31.256962","category":"47","category_name":"住宅区","address":"惠民路580弄"},{"poiid":"B2094757D16AA2FB499F","title":"于家","lon":"121.519748103","lat":"31.2541562824","category":"500","category_name":"未知分类","address":null},{"poiid":"B2094757D16CA7F8469B","title":"842路終點站","lon":"121.517201","lat":"31.252419","category":"500","category_name":"未知分类","address":"上海楊樹浦路"},{"poiid":"B2094655D26CA6FD4293","title":"景江公寓","lon":"121.51985","lat":"31.257236","category":"47","category_name":"住宅区","address":"上海市杨浦区通北路335弄"},{"poiid":"B2094655D26DABFE429A","title":"杨树浦路471弄小区","lon":"121.52003","lat":"31.25246","category":"47","category_name":"住宅区","address":"杨树浦路471弄"},{"poiid":"B2094757D168A6FC4393","title":"惠民路***号","lon":"121.514734603","lat":"31.2555773121","category":"500","category_name":"未知分类","address":"上海惠民路***号"},{"poiid":"B2094655D26CA5F8459B","title":"霍山路376弄小区(西门)","lon":"121.51473","lat":"31.25658","category":"47","category_name":"住宅区","address":"霍山路376弄"},{"poiid":"B2094655D26CA7F5449A","title":"杨树浦路461弄小区","lon":"121.51922","lat":"31.25242","category":"47","category_name":"住宅区","address":""},{"poiid":"B2094654DB6BA3F54399","title":"快客(杨树浦路)","lon":"121.51831","lat":"31.25177","category":"117","category_name":"便民商店/便利店","address":"杨树浦路622号A-7"},{"poiid":"B2094655D26CA6FD439A","title":"惠民新苑(北门)","lon":"121.51928","lat":"31.25722","category":"47","category_name":"住宅区","address":"惠民路580弄"},{"poiid":"B2094757D66EA3FA449B","title":"棋牌室","lon":"121.519989503","lat":"31.2552030043","category":"500","category_name":"未知分类","address":"上海通北路"},{"poiid":"B2094757D164A1F8409D","title":"大董棋牌室","lon":"121.5186491","lat":"31.253221062","category":"248","category_name":"生活娱乐","address":"上海杨树铺路461弄199号"},{"poiid":"B2094757D06BA5FF449A","title":"景星路平凉路","lon":"121.5188641","lat":"31.256840138","category":"500","category_name":"未知分类","address":"上海景星路平凉路"},{"poiid":"B2094655D36CA0FB4992","title":"惠民路临潼路","lon":"121.51335","lat":"31.25405","category":"38","category_name":"公交车站","address":""},{"poiid":"B2094750DA64A3F44498","title":"捞旺猪肚鸡","lon":"121.52094","lat":"31.25612","category":"86","category_name":"火锅店","address":"杨浦区通北路253号(近平凉路)"},{"poiid":"B2094654D56FA2FE499D","title":"上汽北外滩汽贸园区","lon":"121.51394","lat":"31.25616","category":"45","category_name":"产业园区","address":"霍山路340"},{"poiid":"B2094655D26CA6FC469A","title":"人寿里(南一门)","lon":"121.51673","lat":"31.2559","category":"656","category_name":"大门","address":"惠民路419弄"},{"poiid":"B2094654D56EA5F8429C","title":"唯兴里","lon":"121.52109","lat":"31.25465","category":"47","category_name":"住宅区","address":"平凉路370"},{"poiid":"B2094655D26FA7FA429E","title":"唯兴里(北门)","lon":"121.52092","lat":"31.25476","category":"47","category_name":"住宅区","address":"平凉路370"},{"poiid":"B2094655D265A2FD469F","title":"榆林路412弄小区","lon":"121.52065","lat":"31.25618","category":"47","category_name":"住宅区","address":"榆林路412弄"},{"poiid":"B2094757D66EA6FA409C","title":"同康坊","lon":"121.5147416","lat":"31.255562611","category":"500","category_name":"未知分类","address":"上海周家嘴路620弄"},{"poiid":"B2094654DB6BA3F4489E","title":"人寿里(南二门)","lon":"121.5162","lat":"31.25565","category":"656","category_name":"大门","address":""},{"poiid":"B2094654D56FA2FD499D","title":"惠民小区","lon":"121.51389","lat":"31.25386","category":"47","category_name":"住宅区","address":"惠民路220弄1-2号"},{"poiid":"B2094655D26CA6F44292","title":"市东羽毛球馆","lon":"121.5159","lat":"31.2575","category":"227","category_name":"羽毛球场","address":"荆州路101号4层"},{"poiid":"B2094655D26FA5FF4192","title":"惟善里","lon":"121.52094","lat":"31.255449","category":"47","category_name":"住宅区","address":"通北路225号"},{"poiid":"B2094757D16EA1FC439C","title":"榆林路临潼西村","lon":"121.514081103","lat":"31.2541400821","category":"500","category_name":"未知分类","address":"上海市虹口区长阳路"},{"poiid":"B2094655D26DABFB429E","title":"杨树浦路461弄小区(南门)","lon":"121.5193","lat":"31.25217","category":"47","category_name":"住宅区","address":"杨树浦路461弄"},{"poiid":"B2094655D265AAF9449E","title":"榆林路412弄小区(北门)","lon":"121.52054","lat":"31.25632","category":"47","category_name":"住宅区","address":"榆林路412弄"},{"poiid":"B2094757D06BA6FA439D","title":"510終點站","lon":"121.5135638","lat":"31.254585761","category":"500","category_name":"未知分类","address":"上海惠民路251號"},{"poiid":"B2094655D26CA7F54792","title":"人寿里(东门)","lon":"121.51707","lat":"31.25618","category":"656","category_name":"大门","address":""},{"poiid":"B2094655D264ABFE449D","title":"徉漾棋牌室","lon":"121.51499","lat":"31.25506","category":"175","category_name":"棋牌室","address":"惠民路"},{"poiid":"B2094655D26CA6F44299","title":"回力公寓","lon":"121.51735","lat":"31.25801","category":"47","category_name":"住宅区","address":"霍山路542"},{"poiid":"B2094654D56EA5FA429E","title":"上海市东幼儿园","lon":"121.52029","lat":"31.25746","category":"57","category_name":"幼儿园","address":"杨浦区通北路350号(惠民路通北路)"},{"poiid":"B2094655D36CA1F94799","title":"临潼路杨树浦路","lon":"121.5143","lat":"31.25222","category":"38","category_name":"公交车站","address":""},{"poiid":"B2094654D56FA3F44292","title":"海上人家","lon":"121.515036054","lat":"31.251712793","category":"257","category_name":"中餐厅","address":"上海杨浦区平凉路1号(近隆昌路)  "},{"poiid":"B2094654D56FA2FD499E","title":"新港工商所","lon":"121.51387","lat":"31.25418","category":"250","category_name":"公园户外","address":"惠民路232"},{"poiid":"B2094655D26DAAFF499A","title":"临潼路120弄小区","lon":"121.51378","lat":"31.2535","category":"47","category_name":"住宅区","address":"临潼路120弄2-12号"},{"poiid":"B2094655D265A6FB4292","title":"惟兴里(边门)","lon":"121.52122","lat":"31.25494","category":"47","category_name":"住宅区","address":""},{"poiid":"B2094655D26CA6F4429E","title":"回力公寓(北门)","lon":"121.5175","lat":"31.25813","category":"47","category_name":"住宅区","address":"霍山路542"},{"poiid":"B2094655D26CA6F4429C","title":"霍山路530弄小区","lon":"121.51689","lat":"31.25817","category":"47","category_name":"住宅区","address":"霍山路530弄"},{"poiid":"B2094757D16DA6FA409C","title":"通北路第一小学","lon":"121.52043","lat":"31.25715","category":"56","category_name":"小学","address":"杨浦区通北路350号(惠民路通北路)"},{"poiid":"B2094753DA65A4FC459D","title":"提篮桥监狱","lon":"121.514762","lat":"31.257255","category":"608","category_name":"法院","address":"上海市 上海市虹口区提篮桥监狱"},{"poiid":"B2094655D26CA7F5449B","title":"杨树浦路471弄小区(南门)","lon":"121.52007","lat":"31.25223","category":"47","category_name":"住宅区","address":"杨树浦路471弄"},{"poiid":"B2094654D56FA2FB459C","title":"乐声琴行","lon":"121.51441","lat":"31.25595","category":"255","category_name":"专卖店","address":"大连路277号"},{"poiid":"B2094757D165A4FE469F","title":"马路当中","lon":"121.514411","lat":"31.255953","category":"500","category_name":"未知分类","address":"上海大连路"},{"poiid":"B2094757D169A7FB4493","title":"Jayne.Lu@宅","lon":"121.5192381","lat":"31.252392045","category":"500","category_name":"未知分类","address":"上海杨树浦路471弄"},{"poiid":"B2094654D56EA5F84198","title":"知音茶座","lon":"121.52062","lat":"31.25458","category":"260","category_name":"其他","address":"杨浦区平凉路350号(近福禄街)"},{"poiid":"B2094654D56FA2FB4593","title":"中石化中海船舶燃料供应有限公司上海物资分公司","lon":"121.51431","lat":"31.25566","category":"263","category_name":"公司","address":"大连路277"},{"poiid":"B2094655D26CA6F4429D","title":"霍山路530弄小区(北门)","lon":"121.51679","lat":"31.25836","category":"47","category_name":"住宅区","address":"霍山路530弄"},{"poiid":"B2094757D169A3FC4099","title":"八埭头","lon":"121.519989403","lat":"31.2540123794","category":"260","category_name":"其他","address":"上海通北路134弄"},{"poiid":"B2094655D26CA6F4429B","title":"辽阳路51号5弄小区","lon":"121.51746","lat":"31.25857","category":"47","category_name":"住宅区","address":"辽阳路51号5弄"},{"poiid":"B2094655D26EA2FD489F","title":"辽阳路51号5弄小区(东门)","lon":"121.5176","lat":"31.25859","category":"47","category_name":"住宅区","address":"辽阳路51号5弄"},{"poiid":"B2094654D56FA3F4429C","title":"小江扦脚","lon":"121.51546","lat":"31.25207","category":"149","category_name":"洗浴推拿场所","address":"平凉路43"},{"poiid":"B2094655D26CA6FE4699","title":"云舫小区(东门)","lon":"121.51486","lat":"31.2553","category":"656","category_name":"大门","address":""},{"poiid":"B2094654DB6BA2FE409C","title":"宏惠花苑(南一门)","lon":"121.51538","lat":"31.25366","category":"656","category_name":"大门","address":"榆林路69弄"},{"poiid":"B2094757D16AAAFE4198","title":"平凉路临潼路","lon":"121.51530097","lat":"31.251615993","category":"500","category_name":"未知分类","address":"上海平凉路临潼路公交站点(868,37,921,330)"},{"poiid":"B2094654D56FA2FD439F","title":"上海江南职业技能培训中心(分部)","lon":"121.51346","lat":"31.25499","category":"190","category_name":"培训机构","address":"保定路2"},{"poiid":"B2094655D26FA5F9479C","title":"厚德里(北一门)","lon":"121.51976","lat":"31.25415","category":"656","category_name":"大门","address":"平凉路304弄3"},{"poiid":"B2094655D26FA7FF459E","title":"厚德里(北门)","lon":"121.51976","lat":"31.25415","category":"656","category_name":"大门","address":"平凉路304弄3"},{"poiid":"B2094757D16FA5FB449E","title":"一个神马鬼地方","lon":"121.51675075","lat":"31.251311223","category":"500","category_name":"未知分类","address":"上海"},{"poiid":"B2094757D065A4FD409B","title":"芈奁、俺の第一居住地","lon":"121.521063","lat":"31.255964","category":"500","category_name":"未知分类","address":null},{"poiid":"B2094757D164A4FD419C","title":"全家便利(杨树浦路店)","lon":"121.51762975","lat":"31.251271447","category":"249","category_name":"购物服务","address":"4号线杨树浦路站-4-102"},{"poiid":"B2094655D26DA5FE469C","title":"宏惠花苑(南二门)","lon":"121.51505","lat":"31.25353","category":"656","category_name":"大门","address":"榆林路69弄1-6号"},{"poiid":"B2094654D56EA5F9459B","title":"上海杨浦教育人才交流服务中心","lon":"121.5204","lat":"31.25723","category":"252","category_name":"楼宇机构","address":"杨浦区通北路350号(近榆林路)"},{"poiid":"B2094750D665A7F9439F","title":"金丰咖啡厅","lon":"121.515","lat":"31.2516","category":"260","category_name":"其他","address":"杨浦区杨树浦路248号瑞丰国际大厦1楼(近地铁四号线杨树浦路站)"},{"poiid":"B2094654DB6BA2FE4299","title":"惠民小区(北一门)","lon":"121.51403","lat":"31.25431","category":"656","category_name":"大门","address":"惠民路250弄1-11号"},{"poiid":"B2094655D26DA5F4449C","title":"西邨小区(南门)","lon":"121.51538","lat":"31.25209","category":"656","category_name":"大门","address":"平凉路41弄1-90号"},{"poiid":"B2094654D56FA3F5419D","title":"西邨小区(北门)","lon":"121.51445","lat":"31.25289","category":"656","category_name":"大门","address":"提篮桥"},{"poiid":"B2094655D26EA2F5429B","title":"云舫小区(西门)","lon":"121.51371","lat":"31.25483","category":"656","category_name":"大门","address":"保定路20弄10-40号"},{"poiid":"B2094655D26CA6FB449D","title":"景江公寓(北门)","lon":"121.51952","lat":"31.25736","category":"656","category_name":"大门","address":""},{"poiid":"B2094655D26FA7FD409C","title":"惠民小区(北二门)","lon":"121.51363","lat":"31.25405","category":"656","category_name":"大门","address":"惠民路220弄1-2号"},{"poiid":"B2094655D26CA6FB449C","title":"景江公寓(东门)","lon":"121.52014","lat":"31.25726","category":"656","category_name":"大门","address":"通北路335弄1"},{"poiid":"B2094655D26DA6F9439A","title":"辽海小区(后门)","lon":"121.51702","lat":"31.25884","category":"656","category_name":"大门","address":""}]