[{"poiid":"B2094757D06FA7FF4192","title":"阳光威尼斯三期","lon":"121.36702","lat":"31.260181","category":"47","category_name":"住宅区","address":"普陀区靖边路199弄"},{"poiid":"B2094655D36CA5FA4792","title":"曹安轻纺市场","lon":"121.36746315078733","lat":"31.252614331049582","category":"38","category_name":"公交车站","address":"上海市普陀区"},{"poiid":"B2094757D06FA5F4409D","title":"同君福大酒楼(曹安路店)","lon":"121.37076","lat":"31.2519","category":"76","category_name":"上海菜","address":"嘉定区曹安路1500号(近祁连山路)"},{"poiid":"B2094655D26EA1F5419E","title":"阳光威尼斯(提香湾)","lon":"121.37471033527845","lat":"31.26017739566505","category":"47","category_name":"住宅区","address":"普陀区祁连山南路2727弄"},{"poiid":"B2094654D46BA7FA449A","title":"曹安国际商城","lon":"121.36743760369","lat":"31.259760165281","category":"119","category_name":"商场","address":"上海近郊嘉定区曹安路1877号"},{"poiid":"B2094654D46BA7F5439B","title":"麦当劳(丰庄路店)","lon":"121.36637","lat":"31.2523","category":"68","category_name":"快餐厅","address":"嘉定区曹安路1685号好乐广场内(近丰庄路)"},{"poiid":"B2094757D06FA7FE479E","title":"丰庄十四街坊","lon":"121.36180756625","lat":"31.253108907649","category":"47","category_name":"住宅区","address":"上海嘉定区丰庄西路433弄,丰庄西路551弄,丰庄北路151弄"},{"poiid":"B2094757D068A0FD439E","title":"新世界生活广场","lon":"121.375626","lat":"31.258542","category":"119","category_name":"商场","address":"嘉定区曹安公路2378号(近华江支路沃尔玛)"},{"poiid":"B2094757D66CA6FA4193","title":"阳光威尼斯二期","lon":"121.371","lat":"31.2661","category":"500","category_name":"未知分类","address":"上海普陀区定边路377弄"},{"poiid":"B2094757D06AABF9489A","title":"温州特色海鲜面馆","lon":"121.36465","lat":"31.25277","category":"68","category_name":"快餐厅","address":"嘉定区曹安路1685号好乐广场内(近丰庄路)"},{"poiid":"B2094757D068A6F8459A","title":"新王府酒店(祁连山店)","lon":"121.3728","lat":"31.25293","category":"72","category_name":"广东菜","address":"嘉定区祁连山南路2199号(近曹安路口)"},{"poiid":"B2094757D06FA5FA4098","title":"85度C(嘉定曹安店)","lon":"121.3674","lat":"31.25211","category":"112","category_name":"糕饼店","address":"嘉定区曹安公路1615号利金国际1楼A1号(丰庄路口)"},{"poiid":"B2094655D26FA1FB4892","title":"阳光威尼斯AB区(东门)","lon":"121.37495","lat":"31.26017","category":"656","category_name":"大门","address":"祁连山南路2727弄"},{"poiid":"B2094757D068A6FE469F","title":"汇丰佳苑","lon":"121.37","lat":"31.2537","category":"47","category_name":"住宅区","address":"汇丰佳苑位于嘉定丰庄路339弄"},{"poiid":"B2094654D46BA7F44192","title":"嘉秀新苑","lon":"121.365452","lat":"31.256267","category":"47","category_name":"住宅区","address":"铜川路2655弄1-19号"},{"poiid":"B2094757D068A2FC439F","title":"曹安公路","lon":"121.36691336","lat":"31.252839236","category":"260","category_name":"其他","address":"上海嘉定区曹安公路"},{"poiid":"B2094757D16CABF54692","title":"真建花苑","lon":"121.36312","lat":"31.262707","category":"47","category_name":"住宅区","address":"上海普陀区桃浦路1925弄"},{"poiid":"B2094654D46BA7F5449F","title":"上海国际鞋城","lon":"121.37009865982","lat":"31.259068806056","category":"141","category_name":"服装鞋帽皮具店","address":"嘉定区曹安路1777号(轻纺市场对面)"},{"poiid":"B2094654D46BA6FF419E","title":"香樟苑(桃浦路)","lon":"121.37712","lat":"31.26046","category":"47","category_name":"住宅区","address":"桃浦路1341弄1-152号"},{"poiid":"B2094654DB69A5FD4993","title":"肯德基(丰庄店)","lon":"121.36524","lat":"31.25194","category":"68","category_name":"快餐厅","address":"嘉定区曹安路1685号好乐广场内(近丰庄路)"},{"poiid":"B2094757D065A3F84993","title":"万得城(曹安店)","lon":"121.36307675","lat":"31.2532906409","category":"500","category_name":"未知分类","address":"上海市嘉定区曹安路1688号"},{"poiid":"B2094757D069A7FB4099","title":"上海东方汽配城","lon":"121.369","lat":"31.2603","category":"158","category_name":"汽车销售","address":"嘉定区曹安路1926号(近定边路)"},{"poiid":"B2094757DA6FA1FE4398","title":"优衣库（曹安公路店）","lon":"121.35896005479","lat":"31.258394376656","category":"249","category_name":"购物服务","address":"嘉定区曹安公路1688号1-2楼(近轻纺市场)"},{"poiid":"B2094654D46BA6FF4998","title":"嘉善坊","lon":"121.37454","lat":"31.25315","category":"47","category_name":"住宅区","address":"卢湾区陕西南路550弄37号(近绍兴路)"},{"poiid":"B2094654DB65A7FE409E","title":"阳光威尼斯三期(东门)","lon":"121.36791","lat":"31.26027","category":"47","category_name":"住宅区","address":"靖边路199弄"},{"poiid":"B2094654D46BA7FB479A","title":"三元及地苑","lon":"121.36945","lat":"31.256847","category":"47","category_name":"住宅区","address":"上海市嘉定区铜川路2558号"},{"poiid":"B2094654DB6AA4FE4793","title":"阳光威尼斯AB区","lon":"121.37145","lat":"31.26122","category":"47","category_name":"住宅区","address":"桃浦路1599号"},{"poiid":"B2094654D46BA6FE4798","title":"安盛苑","lon":"121.37709","lat":"31.258755","category":"47","category_name":"住宅区","address":"双河路437弄"},{"poiid":"B2094654D46BA7F54399","title":"好乐厚生商业广场","lon":"121.373","lat":"31.2581","category":"119","category_name":"商场","address":"曹安路1685号(丰庄路口)"},{"poiid":"B2094654DB6AA4FE489C","title":"逸香园","lon":"121.36582","lat":"31.25705","category":"47","category_name":"住宅区","address":"上海铜川路2688弄1-32号"},{"poiid":"B2094750D365A0FB469F","title":"金鼎香樟苑","lon":"121.370266","lat":"31.259598","category":"627","category_name":"一般地点标志","address":"上海市嘉定区金鼎路2588弄"},{"poiid":"B2094654D46BA7F4419C","title":"真新新村嘉秀坊","lon":"121.36843","lat":"31.25489","category":"47","category_name":"住宅区","address":"铜川路2555弄"},{"poiid":"B2094757D068A3F9479D","title":"卜蜂莲花(曹安路店)","lon":"121.37048","lat":"31.25168","category":"118","category_name":"超级市场","address":"普陀区曹安路1538号(近安边路)"},{"poiid":"B2094655D26DAAFA4393","title":"上海未来岛高新技术产业园区","lon":"121.36917","lat":"31.26649","category":"45","category_name":"产业园区","address":"绥德路618"},{"poiid":"B2094750D365AAFA459C","title":"象山海鲜","lon":"121.370506","lat":"31.261077","category":"247","category_name":"餐饮美食","address":"铜川路万镇路"},{"poiid":"B2094757D16BA4FA4592","title":"锦银休闲广场","lon":"121.36873975","lat":"31.260838085","category":"500","category_name":"未知分类","address":"嘉定区曹安公路1909号(近新郁路)"},{"poiid":"B2094757D568A5F9479D","title":"上海木兆美容院","lon":"121.3681326","lat":"31.25902072","category":"148","category_name":"美容美发店","address":"靖边路166"},{"poiid":"B2094757D469A5F94698","title":"湘府酒楼 双河路店","lon":"121.37894","lat":"31.26103","category":"77","category_name":"湖南菜","address":"普陀区双河路588号(桃浦路口)"},{"poiid":"B2094654DB65A7FE4098","title":"阳光建华城(西门)","lon":"121.36885","lat":"31.26178","category":"47","category_name":"住宅区","address":"祁连山南路2727弄"},{"poiid":"B2094757D66DA6FB479A","title":"靖边路烧烤","lon":"121.36835785","lat":"31.262501016","category":"247","category_name":"餐饮美食","address":"上海靖边路299弄口"},{"poiid":"B2094757D169A7FD429F","title":"厦门沃头蚝干粥","lon":"121.36510195","lat":"31.2600908707","category":"247","category_name":"餐饮美食","address":"上海嘉定区曹安公路(丰庄路口)"},{"poiid":"B2094655D26FA6FB4699","title":"阳光建华城","lon":"121.37008","lat":"31.26146","category":"47","category_name":"住宅区","address":"祁连山南路2727弄"},{"poiid":"B2094654D46BA7FB439F","title":"新世纪华联(定边路)","lon":"121.36492","lat":"31.25971","category":"117","category_name":"便民商店/便利店","address":""},{"poiid":"B2094654D46BA7FB469F","title":"嘉福坊","lon":"121.36839","lat":"31.256912","category":"47","category_name":"住宅区","address":"铜川路2588弄"},{"poiid":"B2094655D26BA6F54398","title":"福瑞大厦","lon":"121.37085","lat":"31.25142","category":"46","category_name":"楼宇","address":"沈河北站路与北京街的交汇处"},{"poiid":"B2094654DB65A7FE409F","title":"阳光威尼斯C区(东门)","lon":"121.36851","lat":"31.26236","category":"656","category_name":"大门","address":"靖边路299弄"},{"poiid":"B2094757DA6BA4FE449C","title":"银座印象","lon":"121.369","lat":"31.2628","category":"252","category_name":"楼宇机构","address":"普陀区大渡河路588号"},{"poiid":"B2094757D068A7F5479F","title":"嘉美坊","lon":"121.3754","lat":"31.255497","category":"500","category_name":"未知分类","address":"上海铜川路2288弄"},{"poiid":"B2094757D66FA2FB4392","title":"祁连山路桥(长宁与普陀)","lon":"121.36800395","lat":"31.260637881","category":"500","category_name":"未知分类","address":"上海市普陀区祁连山南路"},{"poiid":"B2094757D66DA2F4429D","title":"天山星城停车场","lon":"121.36891448","lat":"31.260860825","category":"500","category_name":"未知分类","address":"上海天山路威宁路"},{"poiid":"B2094757D068A4F44892","title":"129路","lon":"121.365686","lat":"31.2636898","category":"38","category_name":"公交车站","address":"上海定边路桃浦路——北区汽车站"},{"poiid":"B2094751D269A2F5489E","title":"南翔医院住院部","lon":"121.364471","lat":"31.260459","category":"162","category_name":"医院","address":"银翔路"},{"poiid":"B2094655D26DAAFD429C","title":"金鼎路农贸市场","lon":"121.36571","lat":"31.25903","category":"117","category_name":"便民商店/便利店","address":"金鼎路农贸市场(近靖边路)"},{"poiid":"B2094654DB65A7FE479A","title":"建华城","lon":"121.37145","lat":"31.26122","category":"47","category_name":"住宅区","address":"桃浦路1599号"},{"poiid":"B2094655D26AA6FE439C","title":"真功夫曹安店","lon":"121.36558","lat":"31.25257","category":"68","category_name":"快餐厅","address":"普陀区曹安路1685号好乐广场内(近丰庄路)"},{"poiid":"B2094654D46BA6FE469F","title":"鑫园热气羊肉馆","lon":"121.37792","lat":"31.25831","category":"86","category_name":"火锅店","address":"普陀区双河路金鼎路(近祁连山路)"},{"poiid":"B2094757D16FA5FC499D","title":"上海市实验幼儿园阳光分园","lon":"121.36609295","lat":"31.2612708933","category":"253","category_name":"校园生活","address":"上海市普陀区桃浦路"},{"poiid":"B2094757D169A5FA4192","title":"天目山农庄","lon":"121.3668097","lat":"31.2522903","category":"87","category_name":"特色／地方风味餐厅","address":"普陀区丰庄路618号(近轻纺市场)"},{"poiid":"B2094757D16EA6FA489C","title":"苏宁电器(曹安店)","lon":"121.364331","lat":"31.253038","category":"138","category_name":"家电电子卖场","address":"普陀区曹安路1685号好乐广场内(近丰庄路)"},{"poiid":"B2094654DB65A6FB4692","title":"新郁社区","lon":"121.366","lat":"31.256","category":"47","category_name":"住宅区","address":"丰庄北路151弄"},{"poiid":"B2094654D46BA7FB4492","title":"快客No.6695","lon":"121.36659","lat":"31.25644","category":"117","category_name":"便民商店/便利店","address":"铜川路2672"},{"poiid":"B2094655D36CA1FE449A","title":"双河路金鼎路","lon":"121.37741","lat":"31.25732","category":"38","category_name":"公交车站","address":""},{"poiid":"B2094757D46FABFD4298","title":"厦门沃头蚝干粥店 丰庄店","lon":"121.3667947","lat":"31.2523494","category":"72","category_name":"广东菜","address":"嘉定区丰庄路609号"},{"poiid":"B2094655D264A4F5479F","title":"恒盛提香湾","lon":"121.37491","lat":"31.26077","category":"46","category_name":"楼宇","address":"普陀区祁连山南路2727弄,近金鼎路"},{"poiid":"B2094654D46BA7FB4992","title":"真新新村嘉和坊(铜川路)","lon":"121.3713","lat":"31.25409","category":"47","category_name":"住宅区","address":"铜川路2395弄"},{"poiid":"B2094757D164A3F5439D","title":"顺旺基","lon":"121.36383","lat":"31.25596","category":"68","category_name":"快餐厅","address":"普陀区定边路80号旁(近铜川路)"},{"poiid":"B2094757D464A7FB429A","title":"桃山日本料理","lon":"121.36678","lat":"31.25225","category":"247","category_name":"餐饮美食","address":"曹安路1615号（丰庄路606号）近丰庄路"},{"poiid":"B2094654DB65A0F4439C","title":"嘉福坊(南门)","lon":"121.36852","lat":"31.25608","category":"47","category_name":"住宅区","address":"铜川路2588弄"},{"poiid":"B2094654DB65A0F4449A","title":"真建花苑(北门)","lon":"121.36431","lat":"31.26372","category":"47","category_name":"住宅区","address":"桃浦路1925弄"},{"poiid":"B2094654DB65A0FB4698","title":"阳光建华城二期(东门)","lon":"121.3647","lat":"31.26071","category":"48","category_name":"楼宇大门","address":"定边路377弄"},{"poiid":"B2094757D16EA7FB429C","title":"105终点站","lon":"121.371604919","lat":"31.261100769","category":"500","category_name":"未知分类","address":"上海桃浦路定边路"},{"poiid":"B2094757D16FA5FD469C","title":"牧羊郎烧烤","lon":"121.3724","lat":"31.2615","category":"68","category_name":"快餐厅","address":"普陀区双河路"},{"poiid":"B2094654D46BA7F9489F","title":"真建花苑(边门)","lon":"121.3617","lat":"31.26387","category":"47","category_name":"住宅区","address":"桃浦路2055弄"},{"poiid":"B2094757D16EABF5429F","title":"上海文玩古琴馆","lon":"121.37005995","lat":"31.257701825","category":"500","category_name":"未知分类","address":"上海长宁区虹桥路977号3号楼2楼204D(入口在长顺路)"},{"poiid":"B2094757D16DABFA439F","title":"苏府","lon":"121.37380878","lat":"31.261165878","category":"247","category_name":"餐饮美食","address":"上海市普陀区祁连山南路2727弄12号301室"},{"poiid":"B2094757DA69A6F84093","title":"炫音","lon":"121.36718","lat":"31.252734","category":"248","category_name":"生活娱乐","address":"丰庄路"},{"poiid":"B2094654DB69A4F84798","title":"永乐电器(曹安店)","lon":"121.36894","lat":"31.25206","category":"138","category_name":"家电电子卖场","address":"嘉定区曹安路1583号"},{"poiid":"B2094654D46BA7FA409E","title":"曹安长途客运站","lon":"121.3638","lat":"31.25697","category":"35","category_name":"长途汽车站","address":"真新新村"},{"poiid":"B2094655D26FA1F54999","title":"嘉秀新苑(北门)","lon":"121.36551","lat":"31.25621","category":"47","category_name":"住宅区","address":"铜川路2655弄1-19号"},{"poiid":"B2094655D26BA2FF4499","title":"铜川路祁连山南路","lon":"121.37251","lat":"31.25527","category":"38","category_name":"公交车站","address":""},{"poiid":"B2094655D36CA4FD499D","title":"安边路","lon":"121.37199","lat":"31.25533","category":"38","category_name":"公交车站","address":""},{"poiid":"B2094654DB65A7FE479B","title":"阳光威尼斯AB区(北门)","lon":"121.37194","lat":"31.26231","category":"656","category_name":"大门","address":"桃浦路1599号"},{"poiid":"B2094654DB6AA2FC499E","title":"国际花园","lon":"121.37375","lat":"31.2574","category":"47","category_name":"住宅区","address":"祁连山南路2039号"},{"poiid":"B2094757D165ABF8469C","title":"天景精品酒店","lon":"121.36809295","lat":"31.251423705","category":"217","category_name":"旅馆招待所","address":"上海市嘉定区曹安路1611号"},{"poiid":"B2094757D068A7FF479F","title":"香樟苑","lon":"121.37540227","lat":"31.2608011643","category":"500","category_name":"未知分类","address":"上海桃浦路1341弄"},{"poiid":"B2094757D06FA6F9409B","title":"肯德基","lon":"121.362805397","lat":"31.2639950759","category":"68","category_name":"快餐厅","address":"上海曹杨路"},{"poiid":"B2094654D46BA7FA419E","title":"快客No.6252","lon":"121.36334","lat":"31.25621","category":"117","category_name":"便民商店/便利店","address":"定边路35号42幢117室"},{"poiid":"B2094654DB65A0F4489E","title":"聚沙源大酒店","lon":"121.37215","lat":"31.25221","category":"74","category_name":"江苏菜","address":"嘉定区曹安路1506号"},{"poiid":"B2094654DB6AA4FE4892","title":"蓝银美容美发足浴","lon":"121.36774","lat":"31.25627","category":"149","category_name":"洗浴推拿场所","address":"铜川路2596-1号"},{"poiid":"B209475CD068A2FF469E","title":"春季渔港 祁连山店","lon":"121.37255","lat":"31.25291","category":"72","category_name":"广东菜","address":"祁连山南路2199号(近曹安路口)"},{"poiid":"B2094654D46BA7FF4399","title":"未来岛公园","lon":"121.37504","lat":"31.26563","category":"196","category_name":"公园","address":"绥德路378号"},{"poiid":"B2094654DB65A7FD4199","title":"嘉善坊(北门)","lon":"121.37508","lat":"31.25465","category":"47","category_name":"住宅区","address":"铜川路2285弄"},{"poiid":"B2094654DB64A7F44392","title":"国美电器(新曹安旗舰店)","lon":"121.36819","lat":"31.25192","category":"138","category_name":"家电电子卖场","address":"曹安公路1611号"},{"poiid":"B2094757D16AA3F8489E","title":"嘉秀坊停車場(紋)","lon":"121.36797695","lat":"31.2560107928","category":"500","category_name":"未知分类","address":"上海銅川路2555弄"},{"poiid":"B2094654D46BA7FF439F","title":"东盛工业园","lon":"121.36875","lat":"31.26656","category":"45","category_name":"产业园区","address":"绥德路628"},{"poiid":"B2094654DB6AA4FF449E","title":"好美家建材超市","lon":"121.3731","lat":"31.25178","category":"123","category_name":"家具建材市场","address":"普陀区曹安路1488号(近易买得)"},{"poiid":"B2094757D16CA4FB469B","title":"老同兴汤包馆","lon":"121.36527068","lat":"31.251100599","category":"68","category_name":"快餐厅","address":"嘉定区丰庄路488号"},{"poiid":"B2094654D46BA7FA4293","title":"上海曹安国际商城1区","lon":"121.36205","lat":"31.25457","category":"119","category_name":"商场","address":"曹安路1926号"},{"poiid":"B2094750DA6AA1F84393","title":"百联中环","lon":"121.376548","lat":"31.259023","category":"248","category_name":"生活娱乐","address":"梅川路"},{"poiid":"B2094654D46BA7F54699","title":"永琪美容美发(安边路)","lon":"121.3689","lat":"31.25276","category":"148","category_name":"美容美发店","address":"嘉定区曹安路1558号(近轻纺市场)"},{"poiid":"B2094654DB65A0FB4993","title":"快客No.5189","lon":"121.37583","lat":"31.2583","category":"117","category_name":"便民商店/便利店","address":"金鼎路1368"},{"poiid":"B2094752D06EA3F9479E","title":"春季渔港","lon":"121.363381","lat":"31.254257","category":"247","category_name":"餐饮美食","address":"上海市祁连山南路2199号"},{"poiid":"B2094654DB65A0F44193","title":"嘉秀新苑西区二期","lon":"121.36434","lat":"31.2548","category":"47","category_name":"住宅区","address":"铜川路2655弄27-38号"},{"poiid":"B2094655D26DA6FA4192","title":"阳光威尼斯AB区(西门)","lon":"121.36894","lat":"31.26223","category":"656","category_name":"大门","address":"祁连山南路2727弄"},{"poiid":"B2094654DB65A7FC4893","title":"嘉秀新苑西区二期(西门)","lon":"121.36363","lat":"31.25494","category":"47","category_name":"住宅区","address":"铜川路2655弄27-38号"},{"poiid":"B2094655D26FA0FD489D","title":"轻纺公寓(西门)","lon":"121.36962","lat":"31.25353","category":"47","category_name":"住宅区","address":"曹安路1588弄"},{"poiid":"B2094655D26FA1FB489E","title":"阳光威尼斯(东门)","lon":"121.3749","lat":"31.26076","category":"48","category_name":"楼宇大门","address":"祁连山南路2727弄"},{"poiid":"B2094655D36CA2F84599","title":"轻纺市场","lon":"121.36763","lat":"31.25255","category":"38","category_name":"公交车站","address":""},{"poiid":"B2094757D16FA2F54592","title":"熙盛源","lon":"121.37216895","lat":"31.2524957257","category":"247","category_name":"餐饮美食","address":"上海丰庄"},{"poiid":"B2094654D46BA7F4409D","title":"轻纺公寓","lon":"121.37006","lat":"31.253572","category":"47","category_name":"住宅区","address":"曹安路1588弄"},{"poiid":"B2094655D26BA2F9459F","title":"桃浦路双河路","lon":"121.37701","lat":"31.26174","category":"38","category_name":"公交车站","address":""},{"poiid":"B2094757D569A0F4479D","title":"利富大厦","lon":"121.3673519","lat":"31.25225996","category":"46","category_name":"楼宇","address":"曹安路1617号"},{"poiid":"B2094757D66CA5F54293","title":"球之素撞球馆","lon":"121.36709595","lat":"31.2525797273","category":"500","category_name":"未知分类","address":"嘉定区丰庄路612号B1(近曹安路路口)"},{"poiid":"B2094757D66CA0FE429C","title":"铜川路祁连山南路公交站点","lon":"121.37468885","lat":"31.255145876","category":"38","category_name":"公交车站","address":"上海铜川路靠近祁连山南路"},{"poiid":"B2094757D068A7FD459A","title":"嘉和坊","lon":"121.376344","lat":"31.259686","category":"500","category_name":"未知分类","address":"上海铜川路2395弄"},{"poiid":"B2094757D06AA4FA409F","title":"嘉秀坊","lon":"121.376","lat":"31.2607","category":"500","category_name":"未知分类","address":"上海铜川路2555弄"},{"poiid":"B2094655D26FA1FB499D","title":"上海新国际博览中心","lon":"121.36221","lat":"31.25452","category":"185","category_name":"会展中心","address":"曹安路1926号东方汽配城"},{"poiid":"B2094655D26FA0FD479E","title":"三元及地苑(南门)","lon":"121.36941","lat":"31.25601","category":"48","category_name":"楼宇大门","address":"铜川路2558弄"},{"poiid":"B2094654D46BA6FD489B","title":"祁连社区","lon":"121.376","lat":"31.2547","category":"47","category_name":"住宅区","address":"丰庄北路480弄"},{"poiid":"B2094654DB6AA4FE499E","title":"百合缘大药房","lon":"121.36902","lat":"31.25299","category":"162","category_name":"医院","address":"嘉定区曹安公路1558号"},{"poiid":"B2094654DB6AA7F54892","title":"华轩大厦","lon":"121.36994","lat":"31.25249","category":"46","category_name":"楼宇","address":"嘉定区曹安路1558号"},{"poiid":"B2094654D46BA7F44998","title":"永乐生活电器曹安店","lon":"121.36916","lat":"31.25167","category":"138","category_name":"家电电子卖场","address":"普陀区曹安路1583号(近祁连山路)"},{"poiid":"B2094655D26FA0FC4992","title":"东珠苑(东门)","lon":"121.36376","lat":"31.25687","category":"48","category_name":"楼宇大门","address":"定边路99弄1-5号"},{"poiid":"B2094757D16FA7FE489B","title":"上海外国语大学出国留学部","lon":"121.37305083","lat":"31.2645098801","category":"500","category_name":"未知分类","address":"上海虹口区东体育会路410号"},{"poiid":"B2094654D46BA6FC4393","title":"真新小学","lon":"121.37289","lat":"31.25391","category":"56","category_name":"小学","address":"祁连山南路2235号"},{"poiid":"B2094751D365A7FB4598","title":"文峰总部大厦","lon":"121.367502","lat":"31.266727","category":"263","category_name":"公司","address":"上海市绥德路650号"},{"poiid":"B2094654D46BA7FF4592","title":"嘉柏(中国)国际货运代理有限公司","lon":"121.36438","lat":"31.26531","category":"248","category_name":"生活娱乐","address":"绥德路729弄75支弄59号"},{"poiid":"B2094654D46BA7F44293","title":"创新批发部","lon":"121.3655","lat":"31.25364","category":"117","category_name":"便民商店/便利店","address":"上海市轻纺市场2区1513"},{"poiid":"B2094655D36CA5FB419B","title":"曹安路定边路","lon":"121.36155","lat":"31.25422","category":"38","category_name":"公交车站","address":""},{"poiid":"B2094655D26DA5F9419A","title":"阳光威尼斯C区(西门)","lon":"121.36561","lat":"31.26284","category":"656","category_name":"大门","address":""},{"poiid":"B2094655D26DA5F8499E","title":"香樟苑北门(桃浦路)","lon":"121.37718","lat":"31.2614","category":"47","category_name":"住宅区","address":"桃浦路1341弄1-152号"},{"poiid":"B2094655D26FA1FB409A","title":"逸香园(东门)","lon":"121.36696","lat":"31.25681","category":"656","category_name":"大门","address":"靖边路13号"},{"poiid":"B2094757D16BA1FE479D","title":"桃浦路定边路","lon":"121.36154395","lat":"31.263299932","category":"500","category_name":"未知分类","address":"上海桃浦路2055弄33号202室"},{"poiid":"B2094654D46BA7FA439B","title":"上海市江桥批发市场","lon":"121.3594","lat":"31.25627","category":"123","category_name":"家具建材市场","address":"嘉定区曹安公路1936号"},{"poiid":"B2094757D465ABFE429F","title":"沈家门海鲜 嘉定店","lon":"121.36178255081","lat":"31.252964667092","category":"260","category_name":"其他","address":"嘉定区曹安路1901号锦银休闲广场C16-C17号商铺(近大润发)"},{"poiid":"B2094654DB65A0F4449B","title":"上海嘉顺汽车销售有限公司","lon":"121.37233","lat":"31.25274","category":"158","category_name":"汽车销售","address":"祁连山南路2199号"},{"poiid":"B2094655D26DA4FE419A","title":"快客No.7168","lon":"121.36793","lat":"31.252","category":"117","category_name":"便民商店/便利店","address":""},{"poiid":"B2094757D16FA5F9439F","title":"上海利丰国际物流有限公司","lon":"121.3722848","lat":"31.2656984","category":"500","category_name":"未知分类","address":"上海普陀区绥德路470弄128号"},{"poiid":"B2094654DB65A7FD479B","title":"嘉美坊(南门)","lon":"121.37514","lat":"31.25487","category":"47","category_name":"住宅区","address":"铜川路2288弄"},{"poiid":"B2094655D264A1F4449C","title":"阳光建华城三期","lon":"121.375352","lat":"31.266088","category":"47","category_name":"住宅区","address":"上海市普陀区祁连山南路2039号"},{"poiid":"B2094655D36CA5FA4999","title":"曹安路祁连山路","lon":"121.37143","lat":"31.25162","category":"38","category_name":"公交车站","address":""},{"poiid":"B2094654D46BA6FB409E","title":"快客No.6412","lon":"121.37779","lat":"31.2618","category":"117","category_name":"便民商店/便利店","address":"桃浦路1238号"},{"poiid":"B2094654D46BA7F4499A","title":"志能大楼","lon":"121.36985","lat":"31.2515","category":"46","category_name":"楼宇","address":"曹安路1525号"},{"poiid":"B2094757D164A2FD459C","title":"双河路夜排档","lon":"121.37789595","lat":"31.258817846","category":"247","category_name":"餐饮美食","address":"上海双河路437弄"},{"poiid":"B2094655D26EA2FA409D","title":"逸香园(南门)","lon":"121.36563","lat":"31.25659","category":"656","category_name":"大门","address":"铜川路2688弄1-32号"},{"poiid":"B2094757D069A7FD4298","title":"铜川路嘉秀坊","lon":"121.369728088","lat":"31.2536735535","category":"500","category_name":"未知分类","address":"上海近安边路"},{"poiid":"B2094757D168A3F9449E","title":"86i85","lon":"121.36894795","lat":"31.2537257492","category":"500","category_name":"未知分类","address":null},{"poiid":"B2094654DB65A0FB439A","title":"好德No.329","lon":"121.37805","lat":"31.25874","category":"117","category_name":"便民商店/便利店","address":"双河路436"},{"poiid":"B2094757D16AA2FB409A","title":"129路真建新村站","lon":"121.37540245","lat":"31.2620626084","category":"500","category_name":"未知分类","address":"上海桃浦路双河路"},{"poiid":"B2094655D36CA5FB4192","title":"曹安公路祁连山南路","lon":"121.37147","lat":"31.25161","category":"38","category_name":"公交车站","address":""},{"poiid":"B2094654DB6AA4FF409C","title":"良友金伴(兆地酒店南)","lon":"121.3636","lat":"31.25241","category":"117","category_name":"便民商店/便利店","address":""},{"poiid":"B2094654D46BA7F54198","title":"喜士多便利(好乐广场东南)","lon":"121.3662","lat":"31.25159","category":"117","category_name":"便民商店/便利店","address":"曹安公路1685号2幢E1-15室"},{"poiid":"B2094655D26FA1FA4399","title":"安盛苑(东门)","lon":"121.3777","lat":"31.25868","category":"47","category_name":"住宅区","address":"双河路437弄"},{"poiid":"B2094757D064AAF5409C","title":"hippo老宅","lon":"121.37432995","lat":"31.252985735","category":"247","category_name":"餐饮美食","address":"上海铜川路"},{"poiid":"B2094757D16EA0F5439D","title":"948路轻纺市场站","lon":"121.36714495","lat":"31.252442724","category":"500","category_name":"未知分类","address":"上海曹安路丰庄路"},{"poiid":"B2094752D36FA1FB489B","title":"百联中环","lon":"121.373369","lat":"31.254382","category":"263","category_name":"公司","address":"真光路梅川路"},{"poiid":"B2094655D26FA1FA439E","title":"真建七街坊小区(西门)","lon":"121.37798","lat":"31.25854","category":"47","category_name":"住宅区","address":"双河路438弄"},{"poiid":"B2094654D46BA7FF459C","title":"科尼起重机设备(上海)有限公司","lon":"121.36528","lat":"31.26655","category":"263","category_name":"公司","address":"绥德路789号"},{"poiid":"B2094757D16EA2F5489F","title":"酒窩の酒窖~ ♥有酒香飄出來~~","lon":"121.374541","lat":"31.253219","category":"247","category_name":"餐饮美食","address":"上海铜川路2285弄-嘉善坊"},{"poiid":"B2094654DB65AAF54599","title":"迪信通(曹安公路店)","lon":"121.36768","lat":"31.25207","category":"138","category_name":"家电电子卖场","address":"普陀区曹安路1611号(近丰庄路)"},{"poiid":"B2094757D66CA7FD499A","title":"祖国","lon":"121.37684869","lat":"31.2595545105","category":"500","category_name":"未知分类","address":"上海神州大地"},{"poiid":"B2094655D26FA0FC499D","title":"未来岛公园(南门)","lon":"121.37491","lat":"31.26527","category":"680","category_name":"楼宇机构","address":"绥德路378号"},{"poiid":"B2094757D16EABFD429D","title":"真建新村","lon":"121.37690795","lat":"31.25955486","category":"500","category_name":"未知分类","address":"上海真建新村"},{"poiid":"B2094757D16BA5FA499E","title":"金海螺香樟幼儿园","lon":"121.37706195","lat":"31.259751864","category":"500","category_name":"未知分类","address":"普陀区桃浦路1341弄41号"},{"poiid":"B2094654D46BA7F5469F","title":"玫瑰园宾馆","lon":"121.37227","lat":"31.2526","category":"250","category_name":"公园户外","address":"嘉定区祁连山南路2199号(近曹安路)"},{"poiid":"B2094757D66DA6F8449B","title":"小楠华饭店","lon":"121.36503595","lat":"31.250973696","category":"247","category_name":"餐饮美食","address":"上海市嘉定区环路"},{"poiid":"B2094757DA6EAAFA419B","title":"上海嘉顺汽车销售服务公司","lon":"121.373755931857","lat":"31.2544688502019","category":"263","category_name":"公司","address":"嘉定区祁连山南路2199号"},{"poiid":"B2094654D46BA7FF439C","title":"穆尔电子元器件(上海)有限公司","lon":"121.36875","lat":"31.26656","category":"263","category_name":"公司","address":"绥德路628号东盛工业园"},{"poiid":"B2094654D46BA7F4419D","title":"真新新村嘉秀坊(北门)","lon":"121.3693","lat":"31.25555","category":"656","category_name":"大门","address":"铜川路2555弄"},{"poiid":"B2094751D264A5F54792","title":"古猗庄园","lon":"121.359139","lat":"31.2607811","category":"500","category_name":"未知分类","address":"嘉定区南翔镇真南路3911号"},{"poiid":"B2094757D065A2F4479E","title":"新奇特车业服务有限公司","lon":"121.371514","lat":"31.252123","category":"500","category_name":"未知分类","address":"上海嘉定区曹安路1500号"},{"poiid":"B2094654D46BA7FF459E","title":"上海密特印制有限公司","lon":"121.36331","lat":"31.26681","category":"263","category_name":"公司","address":"绥德路887"},{"poiid":"B2094751D56DA6F54399","title":"11号线曹杨路","lon":"121.361063","lat":"31.264533","category":"500","category_name":"未知分类","address":"曹杨路"},{"poiid":"B2094757D66EA5FF489C","title":"叮叮宠物(同普店)","lon":"121.37361","lat":"31.25445","category":"249","category_name":"购物服务","address":"上海普陀区祁连山南路同普路1456号(凯撒宫大浴场斜对面)  "},{"poiid":"B2094757D16FA1F8479C","title":"归桑家","lon":"121.37704695","lat":"31.259701863","category":"500","category_name":"未知分类","address":null},{"poiid":"B2094654D46BA7FF459F","title":"上海证券印制有限公司","lon":"121.36331","lat":"31.2668","category":"263","category_name":"公司","address":"绥德路887"},{"poiid":"B2094655D26FA7FB4098","title":"中国银行上海市曹安路支行","lon":"121.36117","lat":"31.25378","category":"150","category_name":"银行","address":"嘉定区曹安公路1833号(曹安公路东栅桥路)"},{"poiid":"B2094757D16AABFC479E","title":"交通银行(丰庄支行)","lon":"121.36497105","lat":"31.2511283996","category":"150","category_name":"银行","address":"嘉定区丰庄路(近曹安路)"},{"poiid":"B2094757D16AAAF4449E","title":"3131曹安商务园","lon":"121.37074395","lat":"31.2525797273","category":"252","category_name":"楼宇机构","address":null},{"poiid":"B2094757D16EA1FB4293","title":"上海江桥批发市场曹杨分场","lon":"121.365562","lat":"31.251781","category":"500","category_name":"未知分类","address":"上海曹阳路1685号(近铜川路)"},{"poiid":"B2094757D66CAAFA439F","title":"民生银行曹安支行","lon":"121.36505295","lat":"31.251110699","category":"150","category_name":"银行","address":"嘉定区丰庄路521号(近曹安路)"},{"poiid":"B2094757D165A5FE4092","title":"真新工商所","lon":"121.37328095","lat":"31.2528512325","category":"500","category_name":"未知分类","address":"上海祁连山南路2228号"},{"poiid":"B2094654D46BA7FB4993","title":"真新新村嘉和坊(北门)","lon":"121.37201","lat":"31.25505","category":"656","category_name":"大门","address":"铜川路2395弄"},{"poiid":"B2094757D568A5F94599","title":"上海兆地生活广场","lon":"121.3633428","lat":"31.251995","category":"249","category_name":"购物服务","address":"新郁路835号"},{"poiid":"B2094757D16CA7F44199","title":"江桥 恒嘉花园","lon":"121.36262685","lat":"31.2671639058","category":"500","category_name":"未知分类","address":"上海曹安路江桥恒嘉花园"},{"poiid":"B2094757D165A2F84998","title":"华江建设","lon":"121.372276","lat":"31.252604","category":"263","category_name":"公司","address":"上海祁连山南路2199号"},{"poiid":"B2094654D46BA7F5479C","title":"上海华江建设发展有限公司(祁连山南路)","lon":"121.37228","lat":"31.2526","category":"263","category_name":"公司","address":"祁连山南路2199号真新商务楼3层"},{"poiid":"B2094654D46BA7F4419F","title":"真新新村嘉秀坊(东门)","lon":"121.36929","lat":"31.25363","category":"656","category_name":"大门","address":"铜川路2555弄"},{"poiid":"B2094654D46BA6FB409B","title":"王道锦口腔诊所","lon":"121.37792","lat":"31.26178","category":"668","category_name":"诊所","address":"桃浦路1228号2层"},{"poiid":"B2094757D56EA5FB4992","title":"来伊份","lon":"121.373095000002","lat":"31.2517909999999","category":"263","category_name":"公司","address":"曹安路1490"}]