[{"poiid":"B2094654DB6BA5FE4298","title":"小肥羊火锅(南丹路店)","lon":"121.43357","lat":"31.18927","category":"86","category_name":"火锅店","address":"徐汇区南丹路169号(近文定路)"},{"poiid":"B2094654D564A3F44592","title":"兆丰环球大厦","lon":"121.431","lat":"31.1896","category":"46","category_name":"楼宇","address":"上海市徐汇区中山西路1800号"},{"poiid":"B2094757D06FA2F4459D","title":"新疆风味饭馆维吾尔餐厅","lon":"121.42986","lat":"31.18846","category":"90","category_name":"清真餐馆","address":"徐汇区宜山路280号(南丹路蒲汇塘路间)"},{"poiid":"B2094757D06FA6FE429E","title":"东方曼哈顿","lon":"121.43316","lat":"31.191475","category":"184","category_name":"美术馆","address":"上海市徐汇区虹桥路168号"},{"poiid":"B2094757D06FAAFC429F","title":"慈铭健康体检(虹桥路门诊部)","lon":"121.4319992","lat":"31.19200325","category":"162","category_name":"医院","address":"徐汇区虹桥路188号元福大厦2楼(近宜山路)"},{"poiid":"B2094757D068A7F8469E","title":"宜山路南丹路","lon":"121.431745","lat":"31.18956","category":"500","category_name":"未知分类","address":"上海宜山路南丹路"},{"poiid":"B2094757D06FA6F5469B","title":"虹桥路宜山路","lon":"121.432367","lat":"31.192175","category":"500","category_name":"未知分类","address":"上海虹桥路宜山路"},{"poiid":"B2094757D16EA2FB4893","title":"永华电影城12号vip","lon":"121.432197586","lat":"31.1919806832","category":"500","category_name":"未知分类","address":"上海港汇"},{"poiid":"B2094757D06FA7FE419C","title":"徐汇区税务局","lon":"121.432397","lat":"31.191986","category":"253","category_name":"校园生活","address":"上海虹桥路188号元福大厦三楼"},{"poiid":"B2094655D268A3FB499A","title":"汇鑫国际","lon":"121.43058","lat":"31.18747","category":"47","category_name":"住宅区","address":"上海市徐汇区宜山路333号"},{"poiid":"B2094757D06FA7F44192","title":"永升大厦","lon":"121.434","lat":"31.1889","category":"46","category_name":"楼宇","address":"上海市徐汇区中山西路2025号"},{"poiid":"B2094757D068A0F84298","title":"徐家汇社保中心","lon":"121.429328","lat":"31.19171","category":"500","category_name":"未知分类","address":"上海徐虹北路80号"},{"poiid":"B2094757D069A5FE4099","title":"蜀签成都串串香","lon":"121.434","lat":"31.1868","category":"68","category_name":"快餐厅","address":"徐汇区蒲汇塘路98号日本第一村4楼(近文定路)"},{"poiid":"B2094654DA6DA2FD479E","title":"上海市徐汇区人民法院","lon":"121.43005","lat":"31.18992","category":"608","category_name":"法院","address":"上海徐汇区宜山路188号"},{"poiid":"B2094757D068A7FA4193","title":"光启公园","lon":"121.43457277","lat":"31.1895627398","category":"196","category_name":"公园","address":"徐汇区南丹路17号(近汇站路)"},{"poiid":"B2094757D068A6FF4493","title":"华宜大厦","lon":"121.433","lat":"31.188","category":"46","category_name":"楼宇","address":"上海市徐汇区中山西路2020号"},{"poiid":"B2094654DB6BA5FE4093","title":"两岸咖啡徐汇店","lon":"121.43383","lat":"31.18841","category":"65","category_name":"咖啡厅","address":"徐汇区文定路77-79号(近南丹东路)"},{"poiid":"B2094757D068A7F5419C","title":"上海慧谷高科技创业中心","lon":"121.431874","lat":"31.192751","category":"46","category_name":"楼宇","address":"徐汇区田林路388号"},{"poiid":"B2094654D564A3FB439A","title":"凯托大厦","lon":"121.431","lat":"31.1897","category":"46","category_name":"楼宇","address":"上海市徐汇区中山西路1878弄"},{"poiid":"B2094654DA6CABF5469F","title":"汇师小学","lon":"121.43315","lat":"31.18777","category":"56","category_name":"小学","address":"徐汇区文定路170号(近蒲汇塘路)"},{"poiid":"B2094757D06AA0F54798","title":"九香牛蛙","lon":"121.43268658","lat":"31.187628598","category":"247","category_name":"餐饮美食","address":"徐汇区蒲汇塘路101号-1(驴舍小区对面)"},{"poiid":"B2094655D26BA3FA409C","title":"韩佳岚韩国语徐家汇店","lon":"121.43189","lat":"31.18997","category":"190","category_name":"培训机构","address":"徐汇区南丹路191号诚品商务中心2楼A座(近宜山路)"},{"poiid":"B2094757D069AAFB409D","title":"南丹小区","lon":"121.4306277","lat":"31.1909371041","category":"47","category_name":"住宅区","address":"南丹路333弄10号"},{"poiid":"B2094654DA6CABF5449A","title":"新旺大厦","lon":"121.43336","lat":"31.18933","category":"46","category_name":"楼宇","address":"闸北区江场西路38号(近共和新路)"},{"poiid":"B2094757D16FA1FA429B","title":"蒲汇塘路","lon":"121.430538565","lat":"31.1879047087","category":"46","category_name":"楼宇","address":"上海"},{"poiid":"B2094655D26AABF84799","title":"心琪粥店宜山路店","lon":"121.4302","lat":"31.18923","category":"68","category_name":"快餐厅","address":"徐汇区徐虹北路21号(近南丹路)"},{"poiid":"B2094757D069A6F44892","title":"Change 舞蹈工作室","lon":"121.43190765","lat":"31.19001007","category":"500","category_name":"未知分类","address":"上海徐汇区南丹路191号诚品商务4楼A座(近地铁徐家汇路站)"},{"poiid":"B2094654DB6BA5FE4299","title":"诚品商务中心","lon":"121.43177","lat":"31.19","category":"46","category_name":"楼宇","address":"南丹路191"},{"poiid":"B2094757D464AAFC459E","title":"海记桂林米粉","lon":"121.430921054","lat":"31.190010793","category":"68","category_name":"快餐厅","address":"徐汇区南丹路179号(近宜山路)"},{"poiid":"B2094757D06AA4FC4393","title":"桦立酒家","lon":"121.4308","lat":"31.19032","category":"76","category_name":"上海菜","address":"徐汇区宜山路80号(近南丹路)"},{"poiid":"B2094654DA6CAAFC489C","title":"新丝美容美发(南丹路)","lon":"121.43177","lat":"31.18985","category":"148","category_name":"美容美发店","address":"徐汇区南丹路191号(近宜山路)"},{"poiid":"B2094654DA6CAAFC489D","title":"南丹社区卫生服务站","lon":"121.43155","lat":"31.19008","category":"162","category_name":"医院","address":"徐虹路112弄11号"},{"poiid":"B2094757D568AAFB469F","title":"快易派","lon":"121.4324031","lat":"31.19035889","category":"68","category_name":"快餐厅","address":"徐汇区南丹路189弄(近宜山路)"},{"poiid":"B2094757D469A2FE469F","title":"避风塘 宜山路店 Be For Time Tea House","lon":"121.430136054","lat":"31.190257793","category":"113","category_name":"冷饮店","address":"徐汇区宜山路86号(近南丹路)"},{"poiid":"B2094750DB6EA5FE449B","title":"上海体育馆（4号线）","lon":"121.431762","lat":"31.19186","category":"627","category_name":"一般地点标志","address":null},{"poiid":"B2094654DA6CAAFC4292","title":"金色年华发型美容南丹路店","lon":"121.43206","lat":"31.18933","category":"148","category_name":"美容美发店","address":"徐汇区南丹路134号(近宜山路)"},{"poiid":"B2094757D16FA1FE439F","title":"美加美咖啡红茶馆","lon":"121.430825054","lat":"31.189627793","category":"65","category_name":"咖啡厅","address":"徐汇区南丹路168号(近宜山路)"},{"poiid":"B2094757D66CAAF84798","title":"Elite Cafe","lon":"121.43134","lat":"31.19288","category":"94","category_name":"西餐厅","address":"徐汇区虹桥路355号107室城开国际大厦大堂(近宜山路)"},{"poiid":"B2094654DA6CAAFC479C","title":"南虹公寓","lon":"121.4324","lat":"31.190361","category":"47","category_name":"住宅区","address":"南虹公寓位于徐汇南丹路189号"},{"poiid":"B2094654DA6CAAFC429F","title":"伊微女子Spa","lon":"121.43167","lat":"31.18943","category":"148","category_name":"美容美发店","address":""},{"poiid":"B2094757D06BA4F54598","title":"青之杰花园","lon":"121.43174","lat":"31.190821","category":"500","category_name":"未知分类","address":"上海市徐汇区宜山路55号"},{"poiid":"B2094757D16AAAF54393","title":"蒙古王火锅","lon":"121.43119358","lat":"31.191207668","category":"247","category_name":"餐饮美食","address":"上海弘基广场"},{"poiid":"B2094750D565A5F9429B","title":"鱼羊老镇之崇明味道","lon":"121.429977","lat":"31.18943","category":"76","category_name":"上海菜","address":"徐汇区蒲汇塘路101号(近文定路)"},{"poiid":"B2094757D065A2FA469D","title":"10號線陝西南路站","lon":"121.434292386","lat":"31.1892307294","category":"36","category_name":"地铁站","address":"上海10號線陝西南路站"},{"poiid":"B2094654DA6CAAFC439A","title":"好德No.591","lon":"121.43227","lat":"31.18928","category":"117","category_name":"便民商店/便利店","address":"南丹路132"},{"poiid":"B2094757DA65A5F44993","title":"如家快捷酒店（上海徐家汇交通大学宜山路店）","lon":"121.429921389","lat":"31.189583782","category":"216","category_name":"经济型连锁酒店","address":"上海市徐汇区宜山路250弄12号（近南丹路）"},{"poiid":"B2094654DA6CABF54898","title":"颐峰苑","lon":"121.431869","lat":"31.188365","category":"47","category_name":"住宅区","address":"上海市徐汇区汇站街路126号"},{"poiid":"B2094757D064A5FC4499","title":"东芝笔记本电脑授权服务中心","lon":"121.43263","lat":"31.1894","category":"500","category_name":"未知分类","address":"徐汇区南丹路183号1楼(近宜山路)"},{"poiid":"B2094654DA6CAAFC409A","title":"喜盈门地板木业商城","lon":"121.43007","lat":"31.18855","category":"123","category_name":"家具建材市场","address":"徐汇区宜山路299"},{"poiid":"B2094654DA6CAAFC4192","title":"上海星达广告传播有限公司","lon":"121.43176","lat":"31.19001","category":"252","category_name":"楼宇机构","address":"南丹路191号诚品商务中心4层D座"},{"poiid":"B2094655D26EA7FE4193","title":"中国建设银行上海南丹路支行","lon":"121.43087","lat":"31.18969","category":"150","category_name":"银行","address":"南丹路158-2"},{"poiid":"B2094751D26EA5F84599","title":"上海芭比舞蹈中心","lon":"121.432197","lat":"31.189984","category":"252","category_name":"楼宇机构","address":"徐汇区南丹路191号诚品商务中心4楼C室(近宜山路)"},{"poiid":"B2094654DA6CABF54693","title":"宏景商务楼","lon":"121.432099","lat":"31.187601","category":"46","category_name":"楼宇","address":"北一环与亳州路交叉口(庐阳区政府对面)"},{"poiid":"B2094757D568A4F5419E","title":"来伊份","lon":"121.431358","lat":"31.189489","category":"249","category_name":"购物服务","address":"中国上海市徐汇区"},{"poiid":"B2094654DA6CAAFC4198","title":"锦南公寓","lon":"121.43053","lat":"31.188904","category":"47","category_name":"住宅区","address":"锦南公寓位于徐汇南丹路150弄1号――6号"},{"poiid":"B2094757D165AAFE4798","title":"南辅路莘东路","lon":"121.43097928","lat":"31.190016644","category":"500","category_name":"未知分类","address":"上海南辅路莘东路"},{"poiid":"B2094757D168A4FC4498","title":"徐匯區勞動人事爭議仲裁院","lon":"121.43088758","lat":"31.190355651","category":"500","category_name":"未知分类","address":"上海宜山路50弄1號"},{"poiid":"B2094757D165A4FD459C","title":"苏菲玛索婚纱礼服馆","lon":"121.43088018","lat":"31.190054645","category":"500","category_name":"未知分类","address":"徐汇区宜山路55号青之杰花园B座404室(近徐家汇)查看地图"},{"poiid":"B2094757D069AAF4409F","title":"一丁木造型","lon":"121.43127","lat":"31.19225","category":"148","category_name":"美容美发店","address":"徐汇区虹桥路412号(近宜山路)"},{"poiid":"B2094757D16EA0F54892","title":"兆丰虹桥公寓","lon":"121.430747","lat":"31.19036","category":"252","category_name":"楼宇机构","address":"兆丰虹桥公寓位于徐汇中山西路1790号"},{"poiid":"B2094654DB65A1FF4693","title":"宜山路250弄14-28号小区","lon":"121.42987","lat":"31.18959","category":"47","category_name":"住宅区","address":"宜山路220弄1-4号"},{"poiid":"B2094654DA6CAAFC459C","title":"华联超市南丹店","lon":"121.43292","lat":"31.18947","category":"118","category_name":"超级市场","address":"南丹路169号"},{"poiid":"B2094757D06FAAF84993","title":"中国银行(徐汇支行)","lon":"121.4315","lat":"31.19293","category":"150","category_name":"银行","address":"徐汇区虹桥路355号(虹桥路宜山北路)"},{"poiid":"B2094753DB69A6F4489C","title":"ming's  cafe' 銘咖啡","lon":"121.429664","lat":"31.188152","category":"65","category_name":"咖啡厅","address":"上海市徐汇区宜山路333号(汇鑫国际)3号楼303室"},{"poiid":"B2094757D06AA6FB419C","title":"天钥桥路斜土路","lon":"121.42978691","lat":"31.189133627","category":"500","category_name":"未知分类","address":"上海天钥桥路斜土路"},{"poiid":"B2094654DA6CAAFC4798","title":"我爱我家(南丹路)","lon":"121.4323","lat":"31.18969","category":"248","category_name":"生活娱乐","address":"南丹路183-4识别"},{"poiid":"B2094654DB64A5F9409B","title":"上海侨友进修学院","lon":"121.43336","lat":"31.18933","category":"52","category_name":"高等院校","address":"徐汇区南丹路169号新旺大厦5层5002"},{"poiid":"B2094757D165A4FF469F","title":"南丹路181弄","lon":"121.432221586","lat":"31.1907106583","category":"500","category_name":"未知分类","address":"上海南丹路181弄"},{"poiid":"B2094757D16EA3FB4993","title":"阿金专业发型","lon":"121.43224","lat":"31.18908","category":"148","category_name":"美容美发店","address":"徐汇区南丹路378号(近徐虹北路)"},{"poiid":"B2094654DB69AAF9429A","title":"中科院上海天文台","lon":"121.43436","lat":"31.1888","category":"187","category_name":"天文馆","address":"徐汇区南丹路80号"},{"poiid":"B2094753D665A7FE459F","title":"徐汇社保中心","lon":"121.431419","lat":"31.191104","category":"500","category_name":"未知分类","address":"上海市 徐汇区徐虹北路80号"},{"poiid":"B2094655D26EA5FA459D","title":"东方曼哈顿酒店公寓","lon":"121.43315","lat":"31.19147","category":"216","category_name":"经济型连锁酒店","address":"虹桥路168号9号楼"},{"poiid":"B2094655D26FABF4409E","title":"颐峰苑(西门)","lon":"121.43109","lat":"31.18918","category":"48","category_name":"楼宇大门","address":"汇站街126弄"},{"poiid":"B2094757D66DAAFB489F","title":"946虹桥路恭城路站","lon":"121.430568186","lat":"31.1905105544","category":"500","category_name":"未知分类","address":"上海虹桥路恭城路"},{"poiid":"B2094757D168A7FD4398","title":"喜盈门家具(宜山店)","lon":"121.43033","lat":"31.18829","category":"123","category_name":"家具建材市场","address":"徐汇区宜山路299号(近蒲汇塘路)"},{"poiid":"B2094752D46AA6FF4193","title":"陈鱼落宴","lon":"121.434618","lat":"31.18994","category":"247","category_name":"餐饮美食","address":"星游城4F"},{"poiid":"B2094757D16BA4FC4793","title":"蒲汇塘路99号","lon":"121.433179586","lat":"31.1894376335","category":"500","category_name":"未知分类","address":"上海蒲汇塘路99号"},{"poiid":"B2094654DA6CAAFD409C","title":"上海卓越慈铭门诊部","lon":"121.43194","lat":"31.19185","category":"162","category_name":"医院","address":"虹桥路188-2号元福大厦2层"},{"poiid":"B2094757D169A5F9429C","title":"小荧荧之家","lon":"121.430400586","lat":"31.1904436531","category":"500","category_name":"未知分类","address":null},{"poiid":"B209475DD368A5FA439E","title":"徐家汇","lon":"121.430007","lat":"31.18951","category":"500","category_name":"未知分类","address":"上海市 徐汇区"},{"poiid":"B2094654DB6BA5FE4193","title":"光启公寓","lon":"121.43301","lat":"31.188669","category":"47","category_name":"住宅区","address":"上海市徐汇区南丹路118号"},{"poiid":"B2094654DB6BA5FE4192","title":"明华苑(侧门)","lon":"121.43186","lat":"31.18932","category":"656","category_name":"大门","address":"上海市徐汇区南丹路140号"},{"poiid":"B2094655D26CA1FC4599","title":"明华苑","lon":"121.43197","lat":"31.189054","category":"48","category_name":"楼宇大门","address":"南丹路138弄"},{"poiid":"B2094655D268A4FF439D","title":"锦南公寓(南一门)","lon":"121.431","lat":"31.18918","category":"48","category_name":"楼宇大门","address":"南丹路150弄"},{"poiid":"B2094753D569AAFF489D","title":"上海体育馆","lon":"121.43103","lat":"31.191169","category":"500","category_name":"未知分类","address":"上海市 上海体育馆"},{"poiid":"B2094654DB65A1FF4692","title":"虹桥路400弄小区","lon":"121.43104","lat":"31.19217","category":"47","category_name":"住宅区","address":"上海虹桥路400弄"},{"poiid":"B2094654DA6CABF9439A","title":"中南商务楼","lon":"121.43014","lat":"31.18792","category":"46","category_name":"楼宇","address":"蒲汇塘路158号"},{"poiid":"B2094757D569A6FB409D","title":"联华超市南丹路店","lon":"121.4302211","lat":"31.19023111","category":"249","category_name":"购物服务","address":"徐汇区南丹路313号(近1号线上海体育馆站)"},{"poiid":"B2094654DA6CABF9459C","title":"盛源大地家居城","lon":"121.432","lat":"31.18685","category":"123","category_name":"家具建材市场","address":"徐汇区文定路200号"},{"poiid":"B2094757D064A6FD419F","title":"沃勤","lon":"121.43388366","lat":"31.189048767","category":"46","category_name":"楼宇","address":"上海南丹路80號"},{"poiid":"B2094654DB6BA5FE4293","title":"东方曼哈顿(侧门)","lon":"121.43392","lat":"31.19031","category":"47","category_name":"住宅区","address":""},{"poiid":"B2094654DA6CAAFD4098","title":"宇邦橱柜","lon":"121.43165","lat":"31.19151","category":"123","category_name":"家具建材市场","address":"徐汇区宜山路55A(虹桥路口)"},{"poiid":"B2094654DB6AA7FB419D","title":"上海市徐汇区地方税务局","lon":"121.43235","lat":"31.19199","category":"250","category_name":"公园户外","address":"虹桥路188-2号元福大厦"},{"poiid":"B2094655D36CA1F5489C","title":"凯旋路虹桥路","lon":"121.43162","lat":"31.19213","category":"38","category_name":"公交车站","address":""},{"poiid":"B2094654DA6CABF9429F","title":"申航大楼","lon":"121.42976","lat":"31.18823","category":"46","category_name":"楼宇","address":"蒲汇塘路200"},{"poiid":"B2094757D16FAAF54598","title":"柿子湾小区","lon":"121.42931","lat":"31.189404","category":"47","category_name":"住宅区","address":"宜山路220弄1-4号"},{"poiid":"B2094655D26BA1F8429A","title":"南丹路宜山路","lon":"121.42945","lat":"31.18816","category":"38","category_name":"公交车站","address":""},{"poiid":"B2094654DA6DA3FC4293","title":"上海交通大学国家大学科技园(虹桥路)","lon":"121.4318","lat":"31.19299","category":"45","category_name":"产业园区","address":"虹桥路333号慧谷高科技创业中心"},{"poiid":"B2094654DA6CAAFC409C","title":"摩恩","lon":"121.43003","lat":"31.1889","category":"123","category_name":"家具建材市场","address":"静安区乌鲁木齐北路211号圣安大厦703室"},{"poiid":"B2094757D065A0F44692","title":"浦发银行(徐家汇支行)","lon":"121.43206","lat":"31.19178","category":"500","category_name":"未知分类","address":"徐汇区虹桥路188号元福大厦内(近宜山路)"},{"poiid":"B2094757D16FA5F5479D","title":"汤胖屋","lon":"121.430026586","lat":"31.1905246547","category":"500","category_name":"未知分类","address":null},{"poiid":"B2094750DB6DA0FF469C","title":"爆爆椒","lon":"121.4340795838373","lat":"31.19128693053068","category":"247","category_name":"餐饮美食","address":"天鈅橋路315号3楼"},{"poiid":"B2094654DA6DA2FD489F","title":"城宾美发厅","lon":"121.42945","lat":"31.19063","category":"148","category_name":"美容美发店","address":"南丹路353"},{"poiid":"B2094654DA6CAAFD419D","title":"东方曼哈顿·尚东区","lon":"121.43408","lat":"31.19166","category":"47","category_name":"住宅区","address":"上海虹桥路128号"},{"poiid":"B2094654DA6CAAFD409E","title":"徐汇区国家税务局办税服务厅","lon":"121.43193","lat":"31.19186","category":"250","category_name":"公园户外","address":"虹桥路188-2号元福大厦"},{"poiid":"B2094654DA6DA2FD4598","title":"喜盈门卫浴陶瓷商城","lon":"121.42903","lat":"31.18833","category":"123","category_name":"家具建材市场","address":"徐汇区宜山路320号(近轨交三号宜山路站)"},{"poiid":"B2094757D765AAF94999","title":"今日亭","lon":"121.433020054","lat":"31.187053793","category":"95","category_name":"日本料理","address":"徐汇区蒲汇塘路98号日本村内(近文定路)"},{"poiid":"B2094654DB65A7F9419F","title":"索菲亚(喜盈门店)","lon":"121.43008","lat":"31.18855","category":"123","category_name":"家具建材市场","address":"徐汇区宜山路299号喜盈门地板木业商城2楼半"},{"poiid":"B2094757D66FA6FA4099","title":"卡哇伊美容美发","lon":"121.42952558","lat":"31.190361651","category":"148","category_name":"美容美发店","address":"徐汇区南丹路(近徐虹北路)"},{"poiid":"B2094654DB6AA7F4449A","title":"上海市地方税务局徐汇区第一税务所","lon":"121.43235","lat":"31.19199","category":"250","category_name":"公园户外","address":"虹桥路188-2号元福大厦3层申报大厅"},{"poiid":"B2094654DA6CABF5429D","title":"天文大厦","lon":"121.43408","lat":"31.18841","category":"46","category_name":"楼宇","address":"文定路81弄"},{"poiid":"B2094752D268ABFA4098","title":"中国科学院上海天文台","lon":"121.43405375981","lat":"31.188418543917","category":"52","category_name":"高等院校","address":"徐汇区南丹路80号"},{"poiid":"B2094654DB69A4F5449A","title":"克拉克海奇健身中心(东方曼哈顿店)","lon":"121.43323","lat":"31.19155","category":"221","category_name":"健身中心","address":"徐汇区虹桥路168号东方曼哈顿会所"},{"poiid":"B2094655D26CA4FA419E","title":"宜山路12弄小区（东门）","lon":"121.43146","lat":"31.19209","category":"47","category_name":"住宅区","address":"宜山路12弄"},{"poiid":"B2094655D26CA4F9489E","title":"东方曼哈顿·尚东区(侧门)","lon":"121.43434","lat":"31.1907","category":"47","category_name":"住宅区","address":"虹桥路128号"},{"poiid":"B2094654DB6BA5FE4292","title":"上海市徐汇区国家税务局","lon":"121.43234","lat":"31.19198","category":"250","category_name":"公园户外","address":"虹桥路188-2号元福大厦"},{"poiid":"B2094654DB6AA7F44498","title":"上海市地方税务局徐汇区第八税务所","lon":"121.43235","lat":"31.19198","category":"250","category_name":"公园户外","address":"虹桥路188-2号元福大厦904室"},{"poiid":"B2094655D26CA1FC449C","title":"青之杰花园(南门)","lon":"121.43109","lat":"31.19075","category":"656","category_name":"大门","address":"宜山路148"},{"poiid":"B2094654DB64A4FD409F","title":"南交小区","lon":"121.42886","lat":"31.190454","category":"47","category_name":"住宅区","address":"南丹路286弄"},{"poiid":"B2094655D268A2FA4198","title":"宜山路12弄小区","lon":"121.43131","lat":"31.19216","category":"47","category_name":"住宅区","address":"宜山路12弄"},{"poiid":"B2094757D16FA0FD4493","title":"祁华路地铁站","lon":"121.43378618","lat":"31.191573875","category":"36","category_name":"地铁站","address":"上海桥亭路锦秋路"},{"poiid":"B2094655D268A1FC4498","title":"光明乳业奶站","lon":"121.42873","lat":"31.19076","category":"117","category_name":"便民商店/便利店","address":""},{"poiid":"B2094757D168A2FF489E","title":"澳大利亚签证中心","lon":"121.430507586","lat":"31.1881245078","category":"500","category_name":"未知分类","address":"南京西路1376号上海商城西峰401"},{"poiid":"B2094654DA6DA2FD4998","title":"南交小区(北门)","lon":"121.42897","lat":"31.19065","category":"47","category_name":"住宅区","address":"南丹路286弄1-8号"},{"poiid":"B2094654DB6AA7F4459A","title":"上海市地方税务局徐汇区第四税务所","lon":"121.43235","lat":"31.19198","category":"250","category_name":"公园户外","address":"虹桥路188-2号元福大厦803室"},{"poiid":"B2094654DB6AA7F4449F","title":"上海市地方税务局徐汇区第三税务所","lon":"121.43235","lat":"31.19199","category":"250","category_name":"公园户外","address":"虹桥路188-2号元福大厦1003室"},{"poiid":"B2094757D569A1FF449C","title":"中国电信天翼专营店(宜山路)","lon":"121.4314619","lat":"31.19204671","category":"138","category_name":"家电电子卖场","address":"宜山路18"},{"poiid":"B2094757D66EABFA409B","title":"进巍美甲(港汇店)","lon":"121.432745586","lat":"31.1916006757","category":"148","category_name":"美容美发店","address":"徐汇区虹桥路1号港汇恒隆广场5楼510C号铺(近地铁9号线徐家汇站)"},{"poiid":"B2094654DA6CABF54393","title":"金源堡足浴会所","lon":"121.43386","lat":"31.18855","category":"149","category_name":"洗浴推拿场所","address":"徐汇区文定路77号"},{"poiid":"B2094655D268A3FF4892","title":"天文大厦(北门)","lon":"121.43437","lat":"31.18886","category":"49","category_name":"无中心点楼宇大门","address":"南丹路80"},{"poiid":"B2094757D568A5F4419E","title":"中国电信(天翼专营店)","lon":"121.4314678","lat":"31.19205458","category":"138","category_name":"家电电子卖场","address":"宜山路18"},{"poiid":"B2094654DA6CAAFC439E","title":"上海民生典当行","lon":"121.43347","lat":"31.1889","category":"249","category_name":"购物服务","address":"徐汇区南丹路108号(南丹路文定路)"},{"poiid":"B2094654DB65A3F84693","title":"好德便利No.259","lon":"121.42954","lat":"31.19206","category":"117","category_name":"便民商店/便利店","address":"徐虹北路90"},{"poiid":"B2094757D164A1F84293","title":"广元西路大桥六线车站","lon":"121.431948","lat":"31.191956","category":"500","category_name":"未知分类","address":"上海广元西路浦发银行前"},{"poiid":"B2094752D569A4FA449C","title":"一兆韦德东方曼哈顿会所","lon":"121.43237","lat":"31.191792","category":"248","category_name":"生活娱乐","address":"虹桥路168号"},{"poiid":"B2094757DA6EAAF8449C","title":"丁瑶与Kuma的世界","lon":"121.433537000002","lat":"31.1902859999999","category":"248","category_name":"生活娱乐","address":"文华苑"},{"poiid":"B2094757D069AAF44593","title":"Cocodemer东方曼哈顿尚东会所","lon":"121.43420958","lat":"31.191448672","category":"500","category_name":"未知分类","address":"上海市徐汇区虹桥路"},{"poiid":"B2094654DA6DA3FC429C","title":"上海市软件产业基地交大徐汇软件园","lon":"121.4318","lat":"31.19298","category":"45","category_name":"产业园区","address":"虹桥路333号慧谷高科技创业中心"},{"poiid":"B2094654DB65A1FF429E","title":"徐虹北路28弄1-6号小区","lon":"121.42858","lat":"31.19033","category":"47","category_name":"住宅区","address":"徐虹北路28弄1-6号"},{"poiid":"B2094757D16CA5F44398","title":"佳能快修中心(虹桥路店)","lon":"121.430896611","lat":"31.1925161677","category":"163","category_name":"4S店","address":"上海徐汇区虹桥路418号(近宜山路)"},{"poiid":"B209475DD668A0F54699","title":"徐家汇地铁站","lon":"121.429969","lat":"31.188714","category":"251","category_name":"出行住宿","address":"上海市 上海市徐汇区"},{"poiid":"B2094654DA6DA2FE439B","title":"南丹小区(东门)","lon":"121.43089","lat":"31.19111","category":"656","category_name":"大门","address":"宜山路50弄52-58号"},{"poiid":"B2094757D165A7FF4392","title":"凝肤ARTESIAN SPA(南丹路店)","lon":"121.43367","lat":"31.18868","category":"500","category_name":"未知分类","address":"上海徐汇区南丹路103-108号(近文定路)  "},{"poiid":"B2094654DB6BA5FE429F","title":"青之杰花园(侧门)","lon":"121.43143","lat":"31.19117","category":"656","category_name":"大门","address":"宜山路55"},{"poiid":"B2094757D16DAAFB4793","title":"环球雅思学校(南丹路店)","lon":"121.4341","lat":"31.18901","category":"253","category_name":"校园生活","address":"徐汇区南丹路169号新旺大厦5楼(近文定路)"},{"poiid":"B2094655D268A4FD409C","title":"柿子湾小区(东门)","lon":"121.43","lat":"31.18946","category":"656","category_name":"大门","address":"宜山路220弄1-4号"},{"poiid":"B2094757D568A4FD429D","title":"森尼咖啡","lon":"121.4331581","lat":"31.19147611","category":"260","category_name":"其他","address":"徐汇区虹桥路128号东方曼哈顿内(近宜山路)"},{"poiid":"B2094757D56CAAFC499A","title":"百汇娱乐","lon":"121.43280312578","lat":"31.192610814312","category":"247","category_name":"餐饮美食","address":"徐汇区虹桥路199号弘基休闲广场内(近恭城路)"},{"poiid":"B2094757D065A2F44492","title":"锦汇苑","lon":"121.4339","lat":"31.187771","category":"252","category_name":"楼宇机构","address":"锦汇苑位于徐汇文定路80弄"},{"poiid":"B2094757D16DA0FC459A","title":"喜士多便利店","lon":"121.43228912","lat":"31.192047119","category":"249","category_name":"购物服务","address":"上海虹桥路550号"},{"poiid":"B2094757D16EA5F9409D","title":"南丹路128弄","lon":"121.43408658","lat":"31.189181628","category":"500","category_name":"未知分类","address":"上海南丹路128弄"},{"poiid":"B2094655D26FAAFC489F","title":"徐虹北路28弄小区(西门)","lon":"121.42838","lat":"31.19051","category":"47","category_name":"住宅区","address":"徐虹北路28弄1-4号"},{"poiid":"B2094654DB65A4FF469F","title":"文涛盲人按摩","lon":"121.43222","lat":"31.18756","category":"149","category_name":"洗浴推拿场所","address":"徐汇区蒲汇塘路123号3楼(近宜山路)"},{"poiid":"B2094654DB6BA5FF469D","title":"科勒","lon":"121.42903","lat":"31.18834","category":"123","category_name":"家具建材市场","address":"宜山路320号喜盈门卫浴陶瓷商城156展厅"},{"poiid":"B2094757D66DA3FF489C","title":"上海徐汇招商局","lon":"121.432978586","lat":"31.1924976933","category":"500","category_name":"未知分类","address":"上海虹桥路313号"},{"poiid":"B2094655D26BA0FF439B","title":"慧谷一期","lon":"121.43181","lat":"31.19299","category":"47","category_name":"住宅区","address":"虹桥路333号"},{"poiid":"B2094655D26FABFB419A","title":"沪贵苑(西门)","lon":"121.43333","lat":"31.18742","category":"47","category_name":"住宅区","address":""},{"poiid":"B2094757D465A0F5449B","title":"曼哈顿尚东会所","lon":"121.43434","lat":"31.190697","category":"260","category_name":"其他","address":"徐汇区虹桥路128号东方曼哈顿"},{"poiid":"B2094654DA6DA2FD439C","title":"博洛尼","lon":"121.42903","lat":"31.18833","category":"123","category_name":"家具建材市场","address":"徐汇区凯旋路2588号兴力达国际装饰城内(近宜山路)"},{"poiid":"B2094655D26EA2F94099","title":"汉斯格雅","lon":"121.42903","lat":"31.18833","category":"123","category_name":"家具建材市场","address":"徐汇区宜山路320号喜盈门卫浴陶瓷商城146展厅(柿子湾路宜山路)"},{"poiid":"B2094757D16DA7FB449C","title":"Garden''s","lon":"121.43145958","lat":"31.19234269","category":"500","category_name":"未知分类","address":null},{"poiid":"B2094654DA6DA2FD4498","title":"蜜蜂瓷砖","lon":"121.42903","lat":"31.18833","category":"123","category_name":"家具建材市场","address":"宜山路320号喜盈门卫浴陶瓷商城217展厅"},{"poiid":"B2094654DA6DA2FD449C","title":"道格拉斯瓷砖","lon":"121.42903","lat":"31.18833","category":"123","category_name":"家具建材市场","address":"宜山路320号喜盈门卫浴陶瓷商城268展厅"},{"poiid":"B2094654DA6CAAFD4199","title":"21世纪不动产(文定路)","lon":"121.43415","lat":"31.19003","category":"248","category_name":"生活娱乐","address":"文定路55号"},{"poiid":"B2094654DA6CAAFD4099","title":"国泰君安证券股份有限公司虹桥路证券营业部","lon":"121.43195","lat":"31.19178","category":"219","category_name":"其他","address":"虹桥路188-1"},{"poiid":"B2094655D268A2FC4099","title":"城开国际大厦(南门)","lon":"121.43132","lat":"31.19286","category":"48","category_name":"楼宇大门","address":"虹桥路355号"},{"poiid":"B2094655D26FABFC439A","title":"柿子湾小区(东一门)","lon":"121.42975","lat":"31.189","category":"656","category_name":"大门","address":"宜山路250弄8-12号"},{"poiid":"B2094757D16FA5FA439C","title":"百济韩语学校","lon":"121.433667586","lat":"31.1919546827","category":"253","category_name":"校园生活","address":"上海市徐汇区虹桥路"},{"poiid":"B2094654DA6DA2FE419D","title":"上海农村商业银行徐家汇支行","lon":"121.43086","lat":"31.19258","category":"150","category_name":"银行","address":"虹桥路416"},{"poiid":"B2094654DA6DA2FD499F","title":"上海徐汇人力资源有限公司","lon":"121.42906","lat":"31.19137","category":"248","category_name":"生活娱乐","address":"徐虹北路56"},{"poiid":"B2094757D66CA6FA419D","title":"上海农商银行徐家汇支行","lon":"121.432366586","lat":"31.1925646946","category":"500","category_name":"未知分类","address":"徐汇区虹桥路416号"},{"poiid":"B2094757D064A2F8459B","title":"诺基亚客户服务体验中心(徐汇店)","lon":"121.431172132","lat":"31.1928977825","category":"500","category_name":"未知分类","address":"徐汇区虹桥路410号(近宜山路)"},{"poiid":"B2094757D164A3FE4798","title":"徐汇区就业促进中心","lon":"121.429884","lat":"31.192649","category":"500","category_name":"未知分类","address":"上海徐汇区虹桥路432号"},{"poiid":"B2094654DA6DA2FE419E","title":"愉君网吧","lon":"121.43061","lat":"31.19269","category":"176","category_name":"网吧","address":"虹桥路422"},{"poiid":"B2094757D66EA7FE499E","title":"乐宠","lon":"121.42859858","lat":"31.191201667","category":"249","category_name":"购物服务","address":"上海徐汇区南丹路"},{"poiid":"B2094757D66DA4FC479B","title":"连霍高速","lon":"121.431692","lat":"31.192906","category":"500","category_name":"未知分类","address":"郑州江苏连云港——新疆霍尔果斯"},{"poiid":"B2094757D56EA2FE439F","title":"101桌球俱乐部","lon":"121.43205642700195","lat":"31.186811963441517","category":"248","category_name":"生活娱乐","address":"上海 上海市 文定路218号"},{"poiid":"B2094655D268A5F4429C","title":"元福大厦(北门)","lon":"121.43267","lat":"31.19208","category":"656","category_name":"大门","address":"虹桥路188"},{"poiid":"B2094757D16BA7FE4999","title":"稻香蛙","lon":"121.431156","lat":"31.192623","category":"260","category_name":"其他","address":"上海虹桥路187号"}]