[{"poiid":"B2094757D06FA1FB479E","title":"海湾国家森林公园","lon":"121.680107161","lat":"30.8658122601","category":"196","category_name":"公园","address":"近郊奉贤区随塘河路1677号五四社区内(近星火开发区)"},{"poiid":"B2094757D069A6F94599","title":"五四农场","lon":"121.70645039","lat":"30.869701932","category":"47","category_name":"住宅区","address":"近郊奉贤区五四养路队(近中石油)"},{"poiid":"B2094750DA6EA7FB489A","title":"上海欧华职业技术学院奉贤校区","lon":"121.68988","lat":"30.864013","category":"253","category_name":"校园生活","address":"近郊五四公路3451号(近邮电路)"},{"poiid":"B2094655D36CA7FF489B","title":"洪卫新村","lon":"121.69147","lat":"30.872725","category":"38","category_name":"公交车站","address":"五四公路4888弄"},{"poiid":"B2094654DB68ABFF4498","title":"上海教卫青少年社会实践基地","lon":"121.69486","lat":"30.87261","category":"45","category_name":"产业园区","address":""},{"poiid":"B2094757D168A7FC419E","title":"坑爹的上海西点军事拓展基地","lon":"121.67466157","lat":"30.87259652","category":"500","category_name":"未知分类","address":"上海奉贤区五四公路4399号"},{"poiid":"B2094654DB68ABFF449B","title":"运佳黄浦制药","lon":"121.69277","lat":"30.87476","category":"263","category_name":"公司","address":""},{"poiid":"B2094757D164ABFB479D","title":"奉城会务中心","lon":"121.68037878","lat":"30.866839003","category":"500","category_name":"未知分类","address":"上海奉贤某处"},{"poiid":"B2094654DB68ABFE4192","title":"上海旅游高等专科学校","lon":"121.67642","lat":"30.87318","category":"671","category_name":"高校中心点","address":"五四公路2011"},{"poiid":"B2094654DB68ABFE429C","title":"上海师范大学旅游学院","lon":"121.67642","lat":"30.87318","category":"52","category_name":"高等院校","address":"五四公路2011"},{"poiid":"B2094757D168A4FF489D","title":"上海市公路管理處奉城會務中心","lon":"121.674000263","lat":"30.8711670769","category":"500","category_name":"未知分类","address":"近郊奉贤区奉城奉干公路1号桥"},{"poiid":"B2094655D264A6FA409A","title":"上海海湾国家森林公园(北门)","lon":"121.6801","lat":"30.86584","category":"656","category_name":"大门","address":"上海奉贤区随塘河路1677号五四社区内(近星火开发区)"},{"poiid":"B2094655D264A1F8419D","title":"上海海湾国家森林公园(北一门)","lon":"121.68081","lat":"30.86589","category":"656","category_name":"大门","address":"上海奉贤区随塘河路1677号五四社区内(近星火开发区)"},{"poiid":"B2094655D36DA7FA489B","title":"朱新村","lon":"121.69276","lat":"30.8866","category":"38","category_name":"公交车站","address":""}]