[{"poiid":"B2094757D06EAAFF409F","title":"希望小学堂 “80”后主题餐厅","lon":"121.48657982","lat":"31.249435447","category":"75","category_name":"浙江菜","address":"上海虹口区昆山路214号"},{"poiid":"B2094654D56EA1FD4198","title":"海底捞火锅(森林湾大厦西南)","lon":"121.4878","lat":"31.25103","category":"86","category_name":"火锅店","address":""},{"poiid":"B2094655D26FA3F4489D","title":"避风塘(海宁路)","lon":"121.48574","lat":"31.25061","category":"72","category_name":"广东菜","address":"虹口区海宁路358号国际商厦1楼(近四川北路)"},{"poiid":"B209475CD564A7F84392","title":"上海滩浦东香格里拉店","lon":"121.50058","lat":"31.23634","category":"119","category_name":"商场","address":"浦东富成路33号香格里拉酒店内大堂层"},{"poiid":"B2094655D269A4F9469F","title":"上海星美影城","lon":"121.48596","lat":"31.25076","category":"178","category_name":"电影院","address":"上海市虹口区海宁路330号"},{"poiid":"B2094757D06FA1FF429C","title":"海宁路吴淞路","lon":"121.48706817","lat":"31.251310348","category":"46","category_name":"楼宇","address":"上海海宁路吴淞路"},{"poiid":"B2094757D06FA7F44193","title":"王朝大酒店(虹口店)","lon":"121.487015366","lat":"31.2500422888","category":"76","category_name":"上海菜","address":"虹口区乍浦路324号(海宁路口)"},{"poiid":"B2094757D06FA3F8459A","title":"香港永祥烧腊餐厅(虹口店)","lon":"121.48678","lat":"31.25126","category":"72","category_name":"广东菜","address":"虹口区乍浦路423号(北海宁路口)"},{"poiid":"B2094655D265A1FF4592","title":"小南国(海宁路店)","lon":"121.48832","lat":"31.25122","category":"257","category_name":"中餐厅","address":"虹口区海宁路263号森林湾大厦3楼(近乍浦路)"},{"poiid":"B2094757D06FA3FD439D","title":"玛格萝妮比萨屋(昆山店)","lon":"121.48835125","lat":"31.249665167","category":"94","category_name":"西餐厅","address":"虹口区昆山路122号(近乍浦路)"},{"poiid":"B2094757D76EA3FB4198","title":"好好栗子店 海宁总店","lon":"121.488088054","lat":"31.251880793","category":"648","category_name":"零食","address":"虹口区北海宁路63路终点站旁(吴淞路口)"},{"poiid":"B2094757D06FA3F54793","title":"侬好蛙干锅传奇(乍浦路店)","lon":"121.48702","lat":"31.25089","category":"71","category_name":"四川菜","address":"虹口区乍浦路408号(近海宁路)"},{"poiid":"B2094751D36EA0FB4499","title":"鼓浪屿的风Amoy Restaurant","lon":"121.48813","lat":"31.24963","category":"247","category_name":"餐饮美食","address":"虹口区昆山路128号(近吴淞路)"},{"poiid":"B2094757D068A6FE419D","title":"宝御酒店 (Hotel Pravo Shanghai)","lon":"121.489273","lat":"31.248918","category":"217","category_name":"旅馆招待所","address":"上海虹口区吴淞路299号"},{"poiid":"B2094757D06FA3FE459A","title":"上海财经大学成人教育学院","lon":"121.48796","lat":"31.24937","category":"253","category_name":"校园生活","address":"虹口区昆山路146号(近乍浦路)"},{"poiid":"B2094757D068A3FE4799","title":"景灵堂","lon":"121.48806","lat":"31.24935","category":"245","category_name":"教堂","address":"虹口区昆山路135号(近乍浦路)"},{"poiid":"B2094757D069A2F4419C","title":"中国太平洋保险公司上海分公司","lon":"121.489896003","lat":"31.2502330005","category":"263","category_name":"公司","address":"上海吴淞路400号"},{"poiid":"B2094757D06BA5FB4093","title":"玛蕾西餐厅","lon":"121.4893438","lat":"31.2491687","category":"94","category_name":"西餐厅","address":"虹口区吴淞路299号宝御酒店2楼(近塘沽路)"},{"poiid":"B2094751DA6BA2FC419D","title":"顺风北外滩店","lon":"121.486372","lat":"31.250989","category":"75","category_name":"浙江菜","address":"虹口区汉阳路88号(近吴淞路)"},{"poiid":"B2094757D06FA7FD4092","title":"萨莉亚(海宁路店)","lon":"121.48402","lat":"31.25185","category":"94","category_name":"西餐厅","address":"虹口区海宁路307号爱思大厦2楼(近乍浦路)"},{"poiid":"B2094655D36CA7FB429B","title":"海宁路","lon":"121.48917","lat":"31.25","category":"38","category_name":"公交车站","address":""},{"poiid":"B2094654D56EA3F4429F","title":"鱼林岛金龙火锅","lon":"121.4874637049","lat":"31.253117704965","category":"86","category_name":"火锅店","address":"虹口区武进路183号(近吴淞路)"},{"poiid":"B2094654D56EA1FC4692","title":"珠江大酒店","lon":"121.48693","lat":"31.25037","category":"76","category_name":"上海菜","address":"虹口区乍浦路346号4楼(近海宁路)"},{"poiid":"B2094757D06FA6F5479B","title":"兴旺国际服饰城","lon":"121.489","lat":"31.2514","category":"249","category_name":"购物服务","address":"虹口区七浦路133号(近河南北路)"},{"poiid":"B2094655D265A4FF469B","title":"联富商业广场","lon":"121.488","lat":"31.2496","category":"46","category_name":"楼宇","address":"河南北路99号"},{"poiid":"B2094757D068ABFF409D","title":"锡缘无锡小笼馆 北海宁路店","lon":"121.487075054","lat":"31.251334793","category":"68","category_name":"快餐厅","address":"虹口区北海宁路64号(近乍浦路)"},{"poiid":"B2094757D068A6F8479F","title":"财大继续教育学院昆山路校区","lon":"121.487709288","lat":"31.2495277949","category":"253","category_name":"校园生活","address":"上海昆山路146号"},{"poiid":"B2094757D069ABF9499E","title":"永祥烧腊餐厅(兄弟楼)","lon":"121.487063","lat":"31.251815","category":"72","category_name":"广东菜","address":"虹口区北海宁路76号(近吴淞路)"},{"poiid":"B2094750DA68A5F84193","title":"Q先生真人密室","lon":"121.485969","lat":"31.251867","category":"248","category_name":"生活娱乐","address":"虹口区武进路289号海泰时代大厦1425室(近四川北路)"},{"poiid":"B2094655D26EA4F8459F","title":"国际电影院","lon":"121.48603","lat":"31.25083","category":"178","category_name":"电影院","address":"虹口区海宁路330号"},{"poiid":"B2094757D069A3F9449B","title":"五云德 乍浦路店","lon":"121.486512","lat":"31.251097","category":"68","category_name":"快餐厅","address":"虹口区乍浦路338号(近海宁路)"},{"poiid":"B2094757D068A6FC439A","title":"老盛昌苏州汤包馆(乍浦路店)","lon":"121.48744","lat":"31.24909","category":"68","category_name":"快餐厅","address":"虹口区乍浦路175号(近塘沽路)"},{"poiid":"B2094757DA65AAF5439F","title":"上海安徒生文化酒店","lon":"121.486765","lat":"31.250296","category":"215","category_name":"三星级宾馆","address":"虹口区乍浦路349号(近海宁路)"},{"poiid":"B209475CD06AA2FC449B","title":"海底捞火锅店 海宁路店","lon":"121.48781","lat":"31.25117","category":"86","category_name":"火锅店","address":"海宁路263号2楼(吴淞路乍浦路间)"},{"poiid":"B2094757D168A0FC409E","title":"市一医院","lon":"121.485996503","lat":"31.2504730055","category":"162","category_name":"医院","address":"上海武进路85号"},{"poiid":"B2094655D26BA2FC469D","title":"吴淞路海宁路","lon":"121.48789","lat":"31.25144","category":"38","category_name":"公交车站","address":"上海吴淞路529号"},{"poiid":"B2094750DB64A1F5479D","title":"someday cafe","lon":"121.48583","lat":"31.24999","category":"65","category_name":"咖啡厅","address":"虹口区汉阳路63号(近吴淞路)"},{"poiid":"B2094757D064A7F8409A","title":"刘锡安奥灶面","lon":"121.4863421","lat":"31.251396024","category":"75","category_name":"浙江菜","address":"上海武进路255号近乍浦路"},{"poiid":"B2094654D56EA1FC419E","title":"上海财经大学继续教育学院","lon":"121.48764","lat":"31.25005","category":"53","category_name":"成人教育","address":"昆山路146"},{"poiid":"B2094757D168AAFB4693","title":"上海市第一人民医院国际部","lon":"121.488517903","lat":"31.2513569239","category":"162","category_name":"医院","address":"上海武进路"},{"poiid":"B2094757DA6AABFA4692","title":"香港福记茶餐厅","lon":"121.48796","lat":"31.24937","category":"72","category_name":"广东菜","address":"虹口区昆山路177号(近乍浦路)"},{"poiid":"B2094750DA6FA7F54293","title":"friends主题咖啡店","lon":"121.487365","lat":"31.252862","category":"247","category_name":"餐饮美食","address":"虹口区哈尔滨路160号1913老洋行A105号(近1933创意园"},{"poiid":"B2094757D064ABFC4793","title":"外滩3号4楼法国餐厅","lon":"121.488834887","lat":"31.2511940089","category":"94","category_name":"西餐厅","address":"上海外滩"},{"poiid":"B2094750D664AAFA499E","title":"御园中餐厅","lon":"121.489","lat":"31.2489","category":"72","category_name":"广东菜","address":"虹口区吴淞路299号宝御酒店3楼(近塘沽路)"},{"poiid":"B2094655D26FAAF8439B","title":"太保大厦","lon":"121.48954","lat":"31.25057","category":"46","category_name":"楼宇","address":"吴淞路400号"},{"poiid":"B2094757D464A0FA4698","title":"香满楼 乍浦路店","lon":"121.48656726423","lat":"31.251482066702","category":"76","category_name":"上海菜","address":"虹口区乍浦路429号(近武进路)"},{"poiid":"B2094750D76DABFF4599","title":"新炳记蚝庄","lon":"121.487","lat":"31.2519","category":"72","category_name":"广东菜","address":"虹口区乍浦路430号(近北海宁路)"},{"poiid":"B2094757D06AAAFC439A","title":"徐记生煎王","lon":"121.486616054","lat":"31.250439793","category":"68","category_name":"快餐厅","address":"虹口区乍浦路402号(近海宁路)"},{"poiid":"B2094757D06FA2FC479A","title":"7-ELEVEN(森林湾店)","lon":"121.488246646","lat":"31.2513149783","category":"117","category_name":"便民商店/便利店","address":"虹口区海宁路269号森林湾大厦B座1楼(近吴淞路)"},{"poiid":"B2094753D768A1FD4498","title":"点点心","lon":"121.48703","lat":"31.250722","category":"247","category_name":"餐饮美食","address":"上海市 海宁路307号"},{"poiid":"B2094757D06EAAFF409F","title":"希望小学堂 “80”后主题餐厅","lon":"121.48657982","lat":"31.249435447","category":"75","category_name":"浙江菜","address":"上海虹口区昆山路214号"},{"poiid":"B2094654D56EA1FD4198","title":"海底捞火锅(森林湾大厦西南)","lon":"121.4878","lat":"31.25103","category":"86","category_name":"火锅店","address":""},{"poiid":"B2094655D26FA3F4489D","title":"避风塘(海宁路)","lon":"121.48574","lat":"31.25061","category":"72","category_name":"广东菜","address":"虹口区海宁路358号国际商厦1楼(近四川北路)"},{"poiid":"B209475CD564A7F84392","title":"上海滩浦东香格里拉店","lon":"121.50058","lat":"31.23634","category":"119","category_name":"商场","address":"浦东富成路33号香格里拉酒店内大堂层"},{"poiid":"B2094655D269A4F9469F","title":"上海星美影城","lon":"121.48596","lat":"31.25076","category":"178","category_name":"电影院","address":"上海市虹口区海宁路330号"},{"poiid":"B2094757D06FA1FF429C","title":"海宁路吴淞路","lon":"121.48706817","lat":"31.251310348","category":"46","category_name":"楼宇","address":"上海海宁路吴淞路"},{"poiid":"B2094757D06FA7F44193","title":"王朝大酒店(虹口店)","lon":"121.487015366","lat":"31.2500422888","category":"76","category_name":"上海菜","address":"虹口区乍浦路324号(海宁路口)"},{"poiid":"B2094757D06FA3F8459A","title":"香港永祥烧腊餐厅(虹口店)","lon":"121.48678","lat":"31.25126","category":"72","category_name":"广东菜","address":"虹口区乍浦路423号(北海宁路口)"},{"poiid":"B2094655D265A1FF4592","title":"小南国(海宁路店)","lon":"121.48832","lat":"31.25122","category":"257","category_name":"中餐厅","address":"虹口区海宁路263号森林湾大厦3楼(近乍浦路)"},{"poiid":"B2094757D06FA3FD439D","title":"玛格萝妮比萨屋(昆山店)","lon":"121.48835125","lat":"31.249665167","category":"94","category_name":"西餐厅","address":"虹口区昆山路122号(近乍浦路)"},{"poiid":"B2094757D76EA3FB4198","title":"好好栗子店 海宁总店","lon":"121.488088054","lat":"31.251880793","category":"648","category_name":"零食","address":"虹口区北海宁路63路终点站旁(吴淞路口)"},{"poiid":"B2094757D06FA3F54793","title":"侬好蛙干锅传奇(乍浦路店)","lon":"121.48702","lat":"31.25089","category":"71","category_name":"四川菜","address":"虹口区乍浦路408号(近海宁路)"},{"poiid":"B2094751D36EA0FB4499","title":"鼓浪屿的风Amoy Restaurant","lon":"121.48813","lat":"31.24963","category":"247","category_name":"餐饮美食","address":"虹口区昆山路128号(近吴淞路)"},{"poiid":"B2094757D068A6FE419D","title":"宝御酒店 (Hotel Pravo Shanghai)","lon":"121.489273","lat":"31.248918","category":"217","category_name":"旅馆招待所","address":"上海虹口区吴淞路299号"},{"poiid":"B2094757D06FA3FE459A","title":"上海财经大学成人教育学院","lon":"121.48796","lat":"31.24937","category":"253","category_name":"校园生活","address":"虹口区昆山路146号(近乍浦路)"},{"poiid":"B2094757D068A3FE4799","title":"景灵堂","lon":"121.48806","lat":"31.24935","category":"245","category_name":"教堂","address":"虹口区昆山路135号(近乍浦路)"},{"poiid":"B2094757D069A2F4419C","title":"中国太平洋保险公司上海分公司","lon":"121.489896003","lat":"31.2502330005","category":"263","category_name":"公司","address":"上海吴淞路400号"},{"poiid":"B2094757D06BA5FB4093","title":"玛蕾西餐厅","lon":"121.4893438","lat":"31.2491687","category":"94","category_name":"西餐厅","address":"虹口区吴淞路299号宝御酒店2楼(近塘沽路)"},{"poiid":"B2094751DA6BA2FC419D","title":"顺风北外滩店","lon":"121.486372","lat":"31.250989","category":"75","category_name":"浙江菜","address":"虹口区汉阳路88号(近吴淞路)"},{"poiid":"B2094757D06FA7FD4092","title":"萨莉亚(海宁路店)","lon":"121.48402","lat":"31.25185","category":"94","category_name":"西餐厅","address":"虹口区海宁路307号爱思大厦2楼(近乍浦路)"},{"poiid":"B2094655D36CA7FB429B","title":"海宁路","lon":"121.48917","lat":"31.25","category":"38","category_name":"公交车站","address":""},{"poiid":"B2094654D56EA3F4429F","title":"鱼林岛金龙火锅","lon":"121.4874637049","lat":"31.253117704965","category":"86","category_name":"火锅店","address":"虹口区武进路183号(近吴淞路)"},{"poiid":"B2094654D56EA1FC4692","title":"珠江大酒店","lon":"121.48693","lat":"31.25037","category":"76","category_name":"上海菜","address":"虹口区乍浦路346号4楼(近海宁路)"},{"poiid":"B2094757D06FA6F5479B","title":"兴旺国际服饰城","lon":"121.489","lat":"31.2514","category":"249","category_name":"购物服务","address":"虹口区七浦路133号(近河南北路)"},{"poiid":"B2094655D265A4FF469B","title":"联富商业广场","lon":"121.488","lat":"31.2496","category":"46","category_name":"楼宇","address":"河南北路99号"},{"poiid":"B2094757D068ABFF409D","title":"锡缘无锡小笼馆 北海宁路店","lon":"121.487075054","lat":"31.251334793","category":"68","category_name":"快餐厅","address":"虹口区北海宁路64号(近乍浦路)"},{"poiid":"B2094757D068A6F8479F","title":"财大继续教育学院昆山路校区","lon":"121.487709288","lat":"31.2495277949","category":"253","category_name":"校园生活","address":"上海昆山路146号"},{"poiid":"B2094757D069ABF9499E","title":"永祥烧腊餐厅(兄弟楼)","lon":"121.487063","lat":"31.251815","category":"72","category_name":"广东菜","address":"虹口区北海宁路76号(近吴淞路)"},{"poiid":"B2094750DA68A5F84193","title":"Q先生真人密室","lon":"121.485969","lat":"31.251867","category":"248","category_name":"生活娱乐","address":"虹口区武进路289号海泰时代大厦1425室(近四川北路)"},{"poiid":"B2094655D26EA4F8459F","title":"国际电影院","lon":"121.48603","lat":"31.25083","category":"178","category_name":"电影院","address":"虹口区海宁路330号"},{"poiid":"B2094757D069A3F9449B","title":"五云德 乍浦路店","lon":"121.486512","lat":"31.251097","category":"68","category_name":"快餐厅","address":"虹口区乍浦路338号(近海宁路)"},{"poiid":"B2094757D068A6FC439A","title":"老盛昌苏州汤包馆(乍浦路店)","lon":"121.48744","lat":"31.24909","category":"68","category_name":"快餐厅","address":"虹口区乍浦路175号(近塘沽路)"},{"poiid":"B2094757DA65AAF5439F","title":"上海安徒生文化酒店","lon":"121.486765","lat":"31.250296","category":"215","category_name":"三星级宾馆","address":"虹口区乍浦路349号(近海宁路)"},{"poiid":"B209475CD06AA2FC449B","title":"海底捞火锅店 海宁路店","lon":"121.48781","lat":"31.25117","category":"86","category_name":"火锅店","address":"海宁路263号2楼(吴淞路乍浦路间)"},{"poiid":"B2094757D168A0FC409E","title":"市一医院","lon":"121.485996503","lat":"31.2504730055","category":"162","category_name":"医院","address":"上海武进路85号"},{"poiid":"B2094655D26BA2FC469D","title":"吴淞路海宁路","lon":"121.48789","lat":"31.25144","category":"38","category_name":"公交车站","address":"上海吴淞路529号"},{"poiid":"B2094750DB64A1F5479D","title":"someday cafe","lon":"121.48583","lat":"31.24999","category":"65","category_name":"咖啡厅","address":"虹口区汉阳路63号(近吴淞路)"},{"poiid":"B2094757D064A7F8409A","title":"刘锡安奥灶面","lon":"121.4863421","lat":"31.251396024","category":"75","category_name":"浙江菜","address":"上海武进路255号近乍浦路"},{"poiid":"B2094654D56EA1FC419E","title":"上海财经大学继续教育学院","lon":"121.48764","lat":"31.25005","category":"53","category_name":"成人教育","address":"昆山路146"},{"poiid":"B2094757D168AAFB4693","title":"上海市第一人民医院国际部","lon":"121.488517903","lat":"31.2513569239","category":"162","category_name":"医院","address":"上海武进路"},{"poiid":"B2094757DA6AABFA4692","title":"香港福记茶餐厅","lon":"121.48796","lat":"31.24937","category":"72","category_name":"广东菜","address":"虹口区昆山路177号(近乍浦路)"},{"poiid":"B2094750DA6FA7F54293","title":"friends主题咖啡店","lon":"121.487365","lat":"31.252862","category":"247","category_name":"餐饮美食","address":"虹口区哈尔滨路160号1913老洋行A105号(近1933创意园"},{"poiid":"B2094757D064ABFC4793","title":"外滩3号4楼法国餐厅","lon":"121.488834887","lat":"31.2511940089","category":"94","category_name":"西餐厅","address":"上海外滩"},{"poiid":"B2094750D664AAFA499E","title":"御园中餐厅","lon":"121.489","lat":"31.2489","category":"72","category_name":"广东菜","address":"虹口区吴淞路299号宝御酒店3楼(近塘沽路)"},{"poiid":"B2094655D26FAAF8439B","title":"太保大厦","lon":"121.48954","lat":"31.25057","category":"46","category_name":"楼宇","address":"吴淞路400号"},{"poiid":"B2094757D464A0FA4698","title":"香满楼 乍浦路店","lon":"121.48656726423","lat":"31.251482066702","category":"76","category_name":"上海菜","address":"虹口区乍浦路429号(近武进路)"},{"poiid":"B2094750D76DABFF4599","title":"新炳记蚝庄","lon":"121.487","lat":"31.2519","category":"72","category_name":"广东菜","address":"虹口区乍浦路430号(近北海宁路)"},{"poiid":"B2094757D06AAAFC439A","title":"徐记生煎王","lon":"121.486616054","lat":"31.250439793","category":"68","category_name":"快餐厅","address":"虹口区乍浦路402号(近海宁路)"},{"poiid":"B2094757D06FA2FC479A","title":"7-ELEVEN(森林湾店)","lon":"121.488246646","lat":"31.2513149783","category":"117","category_name":"便民商店/便利店","address":"虹口区海宁路269号森林湾大厦B座1楼(近吴淞路)"},{"poiid":"B2094753D768A1FD4498","title":"点点心","lon":"121.48703","lat":"31.250722","category":"247","category_name":"餐饮美食","address":"上海市 海宁路307号"},{"poiid":"B2094757D06EAAFF409F","title":"希望小学堂 “80”后主题餐厅","lon":"121.48657982","lat":"31.249435447","category":"75","category_name":"浙江菜","address":"上海虹口区昆山路214号"},{"poiid":"B2094654D56EA1FD4198","title":"海底捞火锅(森林湾大厦西南)","lon":"121.4878","lat":"31.25103","category":"86","category_name":"火锅店","address":""},{"poiid":"B2094655D26FA3F4489D","title":"避风塘(海宁路)","lon":"121.48574","lat":"31.25061","category":"72","category_name":"广东菜","address":"虹口区海宁路358号国际商厦1楼(近四川北路)"},{"poiid":"B209475CD564A7F84392","title":"上海滩浦东香格里拉店","lon":"121.50058","lat":"31.23634","category":"119","category_name":"商场","address":"浦东富成路33号香格里拉酒店内大堂层"},{"poiid":"B2094655D269A4F9469F","title":"上海星美影城","lon":"121.48596","lat":"31.25076","category":"178","category_name":"电影院","address":"上海市虹口区海宁路330号"},{"poiid":"B2094757D06FA1FF429C","title":"海宁路吴淞路","lon":"121.48706817","lat":"31.251310348","category":"46","category_name":"楼宇","address":"上海海宁路吴淞路"},{"poiid":"B2094757D06FA7F44193","title":"王朝大酒店(虹口店)","lon":"121.487015366","lat":"31.2500422888","category":"76","category_name":"上海菜","address":"虹口区乍浦路324号(海宁路口)"},{"poiid":"B2094757D06FA3F8459A","title":"香港永祥烧腊餐厅(虹口店)","lon":"121.48678","lat":"31.25126","category":"72","category_name":"广东菜","address":"虹口区乍浦路423号(北海宁路口)"},{"poiid":"B2094655D265A1FF4592","title":"小南国(海宁路店)","lon":"121.48832","lat":"31.25122","category":"257","category_name":"中餐厅","address":"虹口区海宁路263号森林湾大厦3楼(近乍浦路)"},{"poiid":"B2094757D06FA3FD439D","title":"玛格萝妮比萨屋(昆山店)","lon":"121.48835125","lat":"31.249665167","category":"94","category_name":"西餐厅","address":"虹口区昆山路122号(近乍浦路)"},{"poiid":"B2094757D76EA3FB4198","title":"好好栗子店 海宁总店","lon":"121.488088054","lat":"31.251880793","category":"648","category_name":"零食","address":"虹口区北海宁路63路终点站旁(吴淞路口)"},{"poiid":"B2094757D06FA3F54793","title":"侬好蛙干锅传奇(乍浦路店)","lon":"121.48702","lat":"31.25089","category":"71","category_name":"四川菜","address":"虹口区乍浦路408号(近海宁路)"},{"poiid":"B2094751D36EA0FB4499","title":"鼓浪屿的风Amoy Restaurant","lon":"121.48813","lat":"31.24963","category":"247","category_name":"餐饮美食","address":"虹口区昆山路128号(近吴淞路)"},{"poiid":"B2094757D068A6FE419D","title":"宝御酒店 (Hotel Pravo Shanghai)","lon":"121.489273","lat":"31.248918","category":"217","category_name":"旅馆招待所","address":"上海虹口区吴淞路299号"},{"poiid":"B2094757D06FA3FE459A","title":"上海财经大学成人教育学院","lon":"121.48796","lat":"31.24937","category":"253","category_name":"校园生活","address":"虹口区昆山路146号(近乍浦路)"},{"poiid":"B2094757D068A3FE4799","title":"景灵堂","lon":"121.48806","lat":"31.24935","category":"245","category_name":"教堂","address":"虹口区昆山路135号(近乍浦路)"},{"poiid":"B2094757D069A2F4419C","title":"中国太平洋保险公司上海分公司","lon":"121.489896003","lat":"31.2502330005","category":"263","category_name":"公司","address":"上海吴淞路400号"},{"poiid":"B2094757D06BA5FB4093","title":"玛蕾西餐厅","lon":"121.4893438","lat":"31.2491687","category":"94","category_name":"西餐厅","address":"虹口区吴淞路299号宝御酒店2楼(近塘沽路)"},{"poiid":"B2094751DA6BA2FC419D","title":"顺风北外滩店","lon":"121.486372","lat":"31.250989","category":"75","category_name":"浙江菜","address":"虹口区汉阳路88号(近吴淞路)"},{"poiid":"B2094757D06FA7FD4092","title":"萨莉亚(海宁路店)","lon":"121.48402","lat":"31.25185","category":"94","category_name":"西餐厅","address":"虹口区海宁路307号爱思大厦2楼(近乍浦路)"},{"poiid":"B2094655D36CA7FB429B","title":"海宁路","lon":"121.48917","lat":"31.25","category":"38","category_name":"公交车站","address":""},{"poiid":"B2094654D56EA3F4429F","title":"鱼林岛金龙火锅","lon":"121.4874637049","lat":"31.253117704965","category":"86","category_name":"火锅店","address":"虹口区武进路183号(近吴淞路)"},{"poiid":"B2094654D56EA1FC4692","title":"珠江大酒店","lon":"121.48693","lat":"31.25037","category":"76","category_name":"上海菜","address":"虹口区乍浦路346号4楼(近海宁路)"},{"poiid":"B2094757D06FA6F5479B","title":"兴旺国际服饰城","lon":"121.489","lat":"31.2514","category":"249","category_name":"购物服务","address":"虹口区七浦路133号(近河南北路)"},{"poiid":"B2094655D265A4FF469B","title":"联富商业广场","lon":"121.488","lat":"31.2496","category":"46","category_name":"楼宇","address":"河南北路99号"},{"poiid":"B2094757D068ABFF409D","title":"锡缘无锡小笼馆 北海宁路店","lon":"121.487075054","lat":"31.251334793","category":"68","category_name":"快餐厅","address":"虹口区北海宁路64号(近乍浦路)"},{"poiid":"B2094757D068A6F8479F","title":"财大继续教育学院昆山路校区","lon":"121.487709288","lat":"31.2495277949","category":"253","category_name":"校园生活","address":"上海昆山路146号"},{"poiid":"B2094757D069ABF9499E","title":"永祥烧腊餐厅(兄弟楼)","lon":"121.487063","lat":"31.251815","category":"72","category_name":"广东菜","address":"虹口区北海宁路76号(近吴淞路)"},{"poiid":"B2094750DA68A5F84193","title":"Q先生真人密室","lon":"121.485969","lat":"31.251867","category":"248","category_name":"生活娱乐","address":"虹口区武进路289号海泰时代大厦1425室(近四川北路)"},{"poiid":"B2094655D26EA4F8459F","title":"国际电影院","lon":"121.48603","lat":"31.25083","category":"178","category_name":"电影院","address":"虹口区海宁路330号"},{"poiid":"B2094757D069A3F9449B","title":"五云德 乍浦路店","lon":"121.486512","lat":"31.251097","category":"68","category_name":"快餐厅","address":"虹口区乍浦路338号(近海宁路)"},{"poiid":"B2094757D068A6FC439A","title":"老盛昌苏州汤包馆(乍浦路店)","lon":"121.48744","lat":"31.24909","category":"68","category_name":"快餐厅","address":"虹口区乍浦路175号(近塘沽路)"},{"poiid":"B2094757DA65AAF5439F","title":"上海安徒生文化酒店","lon":"121.486765","lat":"31.250296","category":"215","category_name":"三星级宾馆","address":"虹口区乍浦路349号(近海宁路)"},{"poiid":"B209475CD06AA2FC449B","title":"海底捞火锅店 海宁路店","lon":"121.48781","lat":"31.25117","category":"86","category_name":"火锅店","address":"海宁路263号2楼(吴淞路乍浦路间)"},{"poiid":"B2094757D168A0FC409E","title":"市一医院","lon":"121.485996503","lat":"31.2504730055","category":"162","category_name":"医院","address":"上海武进路85号"},{"poiid":"B2094655D26BA2FC469D","title":"吴淞路海宁路","lon":"121.48789","lat":"31.25144","category":"38","category_name":"公交车站","address":"上海吴淞路529号"},{"poiid":"B2094750DB64A1F5479D","title":"someday cafe","lon":"121.48583","lat":"31.24999","category":"65","category_name":"咖啡厅","address":"虹口区汉阳路63号(近吴淞路)"},{"poiid":"B2094757D064A7F8409A","title":"刘锡安奥灶面","lon":"121.4863421","lat":"31.251396024","category":"75","category_name":"浙江菜","address":"上海武进路255号近乍浦路"},{"poiid":"B2094654D56EA1FC419E","title":"上海财经大学继续教育学院","lon":"121.48764","lat":"31.25005","category":"53","category_name":"成人教育","address":"昆山路146"},{"poiid":"B2094757D168AAFB4693","title":"上海市第一人民医院国际部","lon":"121.488517903","lat":"31.2513569239","category":"162","category_name":"医院","address":"上海武进路"},{"poiid":"B2094757DA6AABFA4692","title":"香港福记茶餐厅","lon":"121.48796","lat":"31.24937","category":"72","category_name":"广东菜","address":"虹口区昆山路177号(近乍浦路)"},{"poiid":"B2094750DA6FA7F54293","title":"friends主题咖啡店","lon":"121.487365","lat":"31.252862","category":"247","category_name":"餐饮美食","address":"虹口区哈尔滨路160号1913老洋行A105号(近1933创意园"},{"poiid":"B2094757D064ABFC4793","title":"外滩3号4楼法国餐厅","lon":"121.488834887","lat":"31.2511940089","category":"94","category_name":"西餐厅","address":"上海外滩"},{"poiid":"B2094750D664AAFA499E","title":"御园中餐厅","lon":"121.489","lat":"31.2489","category":"72","category_name":"广东菜","address":"虹口区吴淞路299号宝御酒店3楼(近塘沽路)"},{"poiid":"B2094655D26FAAF8439B","title":"太保大厦","lon":"121.48954","lat":"31.25057","category":"46","category_name":"楼宇","address":"吴淞路400号"},{"poiid":"B2094757D464A0FA4698","title":"香满楼 乍浦路店","lon":"121.48656726423","lat":"31.251482066702","category":"76","category_name":"上海菜","address":"虹口区乍浦路429号(近武进路)"},{"poiid":"B2094750D76DABFF4599","title":"新炳记蚝庄","lon":"121.487","lat":"31.2519","category":"72","category_name":"广东菜","address":"虹口区乍浦路430号(近北海宁路)"},{"poiid":"B2094757D06AAAFC439A","title":"徐记生煎王","lon":"121.486616054","lat":"31.250439793","category":"68","category_name":"快餐厅","address":"虹口区乍浦路402号(近海宁路)"},{"poiid":"B2094757D06FA2FC479A","title":"7-ELEVEN(森林湾店)","lon":"121.488246646","lat":"31.2513149783","category":"117","category_name":"便民商店/便利店","address":"虹口区海宁路269号森林湾大厦B座1楼(近吴淞路)"},{"poiid":"B2094753D768A1FD4498","title":"点点心","lon":"121.48703","lat":"31.250722","category":"247","category_name":"餐饮美食","address":"上海市 海宁路307号"},{"poiid":"B2094757D06EAAFF409F","title":"希望小学堂 “80”后主题餐厅","lon":"121.48657982","lat":"31.249435447","category":"75","category_name":"浙江菜","address":"上海虹口区昆山路214号"},{"poiid":"B2094654D56EA1FD4198","title":"海底捞火锅(森林湾大厦西南)","lon":"121.4878","lat":"31.25103","category":"86","category_name":"火锅店","address":""},{"poiid":"B2094655D26FA3F4489D","title":"避风塘(海宁路)","lon":"121.48574","lat":"31.25061","category":"72","category_name":"广东菜","address":"虹口区海宁路358号国际商厦1楼(近四川北路)"},{"poiid":"B209475CD564A7F84392","title":"上海滩浦东香格里拉店","lon":"121.50058","lat":"31.23634","category":"119","category_name":"商场","address":"浦东富成路33号香格里拉酒店内大堂层"},{"poiid":"B2094655D269A4F9469F","title":"上海星美影城","lon":"121.48596","lat":"31.25076","category":"178","category_name":"电影院","address":"上海市虹口区海宁路330号"},{"poiid":"B2094757D06FA1FF429C","title":"海宁路吴淞路","lon":"121.48706817","lat":"31.251310348","category":"46","category_name":"楼宇","address":"上海海宁路吴淞路"},{"poiid":"B2094757D06FA7F44193","title":"王朝大酒店(虹口店)","lon":"121.487015366","lat":"31.2500422888","category":"76","category_name":"上海菜","address":"虹口区乍浦路324号(海宁路口)"},{"poiid":"B2094757D06FA3F8459A","title":"香港永祥烧腊餐厅(虹口店)","lon":"121.48678","lat":"31.25126","category":"72","category_name":"广东菜","address":"虹口区乍浦路423号(北海宁路口)"},{"poiid":"B2094655D265A1FF4592","title":"小南国(海宁路店)","lon":"121.48832","lat":"31.25122","category":"257","category_name":"中餐厅","address":"虹口区海宁路263号森林湾大厦3楼(近乍浦路)"},{"poiid":"B2094757D06FA3FD439D","title":"玛格萝妮比萨屋(昆山店)","lon":"121.48835125","lat":"31.249665167","category":"94","category_name":"西餐厅","address":"虹口区昆山路122号(近乍浦路)"},{"poiid":"B2094757D76EA3FB4198","title":"好好栗子店 海宁总店","lon":"121.488088054","lat":"31.251880793","category":"648","category_name":"零食","address":"虹口区北海宁路63路终点站旁(吴淞路口)"},{"poiid":"B2094757D06FA3F54793","title":"侬好蛙干锅传奇(乍浦路店)","lon":"121.48702","lat":"31.25089","category":"71","category_name":"四川菜","address":"虹口区乍浦路408号(近海宁路)"},{"poiid":"B2094751D36EA0FB4499","title":"鼓浪屿的风Amoy Restaurant","lon":"121.48813","lat":"31.24963","category":"247","category_name":"餐饮美食","address":"虹口区昆山路128号(近吴淞路)"},{"poiid":"B2094757D068A6FE419D","title":"宝御酒店 (Hotel Pravo Shanghai)","lon":"121.489273","lat":"31.248918","category":"217","category_name":"旅馆招待所","address":"上海虹口区吴淞路299号"},{"poiid":"B2094757D06FA3FE459A","title":"上海财经大学成人教育学院","lon":"121.48796","lat":"31.24937","category":"253","category_name":"校园生活","address":"虹口区昆山路146号(近乍浦路)"},{"poiid":"B2094757D068A3FE4799","title":"景灵堂","lon":"121.48806","lat":"31.24935","category":"245","category_name":"教堂","address":"虹口区昆山路135号(近乍浦路)"},{"poiid":"B2094757D069A2F4419C","title":"中国太平洋保险公司上海分公司","lon":"121.489896003","lat":"31.2502330005","category":"263","category_name":"公司","address":"上海吴淞路400号"},{"poiid":"B2094757D06BA5FB4093","title":"玛蕾西餐厅","lon":"121.4893438","lat":"31.2491687","category":"94","category_name":"西餐厅","address":"虹口区吴淞路299号宝御酒店2楼(近塘沽路)"},{"poiid":"B2094751DA6BA2FC419D","title":"顺风北外滩店","lon":"121.486372","lat":"31.250989","category":"75","category_name":"浙江菜","address":"虹口区汉阳路88号(近吴淞路)"},{"poiid":"B2094757D06FA7FD4092","title":"萨莉亚(海宁路店)","lon":"121.48402","lat":"31.25185","category":"94","category_name":"西餐厅","address":"虹口区海宁路307号爱思大厦2楼(近乍浦路)"},{"poiid":"B2094655D36CA7FB429B","title":"海宁路","lon":"121.48917","lat":"31.25","category":"38","category_name":"公交车站","address":""},{"poiid":"B2094654D56EA3F4429F","title":"鱼林岛金龙火锅","lon":"121.4874637049","lat":"31.253117704965","category":"86","category_name":"火锅店","address":"虹口区武进路183号(近吴淞路)"},{"poiid":"B2094654D56EA1FC4692","title":"珠江大酒店","lon":"121.48693","lat":"31.25037","category":"76","category_name":"上海菜","address":"虹口区乍浦路346号4楼(近海宁路)"},{"poiid":"B2094757D06FA6F5479B","title":"兴旺国际服饰城","lon":"121.489","lat":"31.2514","category":"249","category_name":"购物服务","address":"虹口区七浦路133号(近河南北路)"},{"poiid":"B2094655D265A4FF469B","title":"联富商业广场","lon":"121.488","lat":"31.2496","category":"46","category_name":"楼宇","address":"河南北路99号"},{"poiid":"B2094757D068ABFF409D","title":"锡缘无锡小笼馆 北海宁路店","lon":"121.487075054","lat":"31.251334793","category":"68","category_name":"快餐厅","address":"虹口区北海宁路64号(近乍浦路)"},{"poiid":"B2094757D068A6F8479F","title":"财大继续教育学院昆山路校区","lon":"121.487709288","lat":"31.2495277949","category":"253","category_name":"校园生活","address":"上海昆山路146号"},{"poiid":"B2094757D069ABF9499E","title":"永祥烧腊餐厅(兄弟楼)","lon":"121.487063","lat":"31.251815","category":"72","category_name":"广东菜","address":"虹口区北海宁路76号(近吴淞路)"},{"poiid":"B2094750DA68A5F84193","title":"Q先生真人密室","lon":"121.485969","lat":"31.251867","category":"248","category_name":"生活娱乐","address":"虹口区武进路289号海泰时代大厦1425室(近四川北路)"},{"poiid":"B2094655D26EA4F8459F","title":"国际电影院","lon":"121.48603","lat":"31.25083","category":"178","category_name":"电影院","address":"虹口区海宁路330号"},{"poiid":"B2094757D069A3F9449B","title":"五云德 乍浦路店","lon":"121.486512","lat":"31.251097","category":"68","category_name":"快餐厅","address":"虹口区乍浦路338号(近海宁路)"},{"poiid":"B2094757D068A6FC439A","title":"老盛昌苏州汤包馆(乍浦路店)","lon":"121.48744","lat":"31.24909","category":"68","category_name":"快餐厅","address":"虹口区乍浦路175号(近塘沽路)"},{"poiid":"B2094757DA65AAF5439F","title":"上海安徒生文化酒店","lon":"121.486765","lat":"31.250296","category":"215","category_name":"三星级宾馆","address":"虹口区乍浦路349号(近海宁路)"},{"poiid":"B209475CD06AA2FC449B","title":"海底捞火锅店 海宁路店","lon":"121.48781","lat":"31.25117","category":"86","category_name":"火锅店","address":"海宁路263号2楼(吴淞路乍浦路间)"},{"poiid":"B2094757D168A0FC409E","title":"市一医院","lon":"121.485996503","lat":"31.2504730055","category":"162","category_name":"医院","address":"上海武进路85号"},{"poiid":"B2094655D26BA2FC469D","title":"吴淞路海宁路","lon":"121.48789","lat":"31.25144","category":"38","category_name":"公交车站","address":"上海吴淞路529号"},{"poiid":"B2094750DB64A1F5479D","title":"someday cafe","lon":"121.48583","lat":"31.24999","category":"65","category_name":"咖啡厅","address":"虹口区汉阳路63号(近吴淞路)"},{"poiid":"B2094757D064A7F8409A","title":"刘锡安奥灶面","lon":"121.4863421","lat":"31.251396024","category":"75","category_name":"浙江菜","address":"上海武进路255号近乍浦路"},{"poiid":"B2094654D56EA1FC419E","title":"上海财经大学继续教育学院","lon":"121.48764","lat":"31.25005","category":"53","category_name":"成人教育","address":"昆山路146"},{"poiid":"B2094757D168AAFB4693","title":"上海市第一人民医院国际部","lon":"121.488517903","lat":"31.2513569239","category":"162","category_name":"医院","address":"上海武进路"},{"poiid":"B2094757DA6AABFA4692","title":"香港福记茶餐厅","lon":"121.48796","lat":"31.24937","category":"72","category_name":"广东菜","address":"虹口区昆山路177号(近乍浦路)"},{"poiid":"B2094750DA6FA7F54293","title":"friends主题咖啡店","lon":"121.487365","lat":"31.252862","category":"247","category_name":"餐饮美食","address":"虹口区哈尔滨路160号1913老洋行A105号(近1933创意园"},{"poiid":"B2094757D064ABFC4793","title":"外滩3号4楼法国餐厅","lon":"121.488834887","lat":"31.2511940089","category":"94","category_name":"西餐厅","address":"上海外滩"},{"poiid":"B2094750D664AAFA499E","title":"御园中餐厅","lon":"121.489","lat":"31.2489","category":"72","category_name":"广东菜","address":"虹口区吴淞路299号宝御酒店3楼(近塘沽路)"},{"poiid":"B2094655D26FAAF8439B","title":"太保大厦","lon":"121.48954","lat":"31.25057","category":"46","category_name":"楼宇","address":"吴淞路400号"},{"poiid":"B2094757D464A0FA4698","title":"香满楼 乍浦路店","lon":"121.48656726423","lat":"31.251482066702","category":"76","category_name":"上海菜","address":"虹口区乍浦路429号(近武进路)"},{"poiid":"B2094750D76DABFF4599","title":"新炳记蚝庄","lon":"121.487","lat":"31.2519","category":"72","category_name":"广东菜","address":"虹口区乍浦路430号(近北海宁路)"},{"poiid":"B2094757D06AAAFC439A","title":"徐记生煎王","lon":"121.486616054","lat":"31.250439793","category":"68","category_name":"快餐厅","address":"虹口区乍浦路402号(近海宁路)"},{"poiid":"B2094757D06FA2FC479A","title":"7-ELEVEN(森林湾店)","lon":"121.488246646","lat":"31.2513149783","category":"117","category_name":"便民商店/便利店","address":"虹口区海宁路269号森林湾大厦B座1楼(近吴淞路)"},{"poiid":"B2094753D768A1FD4498","title":"点点心","lon":"121.48703","lat":"31.250722","category":"247","category_name":"餐饮美食","address":"上海市 海宁路307号"},{"poiid":"B2094757D06EAAFF409F","title":"希望小学堂 “80”后主题餐厅","lon":"121.48657982","lat":"31.249435447","category":"75","category_name":"浙江菜","address":"上海虹口区昆山路214号"},{"poiid":"B2094654D56EA1FD4198","title":"海底捞火锅(森林湾大厦西南)","lon":"121.4878","lat":"31.25103","category":"86","category_name":"火锅店","address":""},{"poiid":"B2094655D26FA3F4489D","title":"避风塘(海宁路)","lon":"121.48574","lat":"31.25061","category":"72","category_name":"广东菜","address":"虹口区海宁路358号国际商厦1楼(近四川北路)"},{"poiid":"B209475CD564A7F84392","title":"上海滩浦东香格里拉店","lon":"121.50058","lat":"31.23634","category":"119","category_name":"商场","address":"浦东富成路33号香格里拉酒店内大堂层"},{"poiid":"B2094655D269A4F9469F","title":"上海星美影城","lon":"121.48596","lat":"31.25076","category":"178","category_name":"电影院","address":"上海市虹口区海宁路330号"},{"poiid":"B2094757D06FA1FF429C","title":"海宁路吴淞路","lon":"121.48706817","lat":"31.251310348","category":"46","category_name":"楼宇","address":"上海海宁路吴淞路"},{"poiid":"B2094757D06FA7F44193","title":"王朝大酒店(虹口店)","lon":"121.487015366","lat":"31.2500422888","category":"76","category_name":"上海菜","address":"虹口区乍浦路324号(海宁路口)"},{"poiid":"B2094757D06FA3F8459A","title":"香港永祥烧腊餐厅(虹口店)","lon":"121.48678","lat":"31.25126","category":"72","category_name":"广东菜","address":"虹口区乍浦路423号(北海宁路口)"},{"poiid":"B2094655D265A1FF4592","title":"小南国(海宁路店)","lon":"121.48832","lat":"31.25122","category":"257","category_name":"中餐厅","address":"虹口区海宁路263号森林湾大厦3楼(近乍浦路)"},{"poiid":"B2094757D06FA3FD439D","title":"玛格萝妮比萨屋(昆山店)","lon":"121.48835125","lat":"31.249665167","category":"94","category_name":"西餐厅","address":"虹口区昆山路122号(近乍浦路)"},{"poiid":"B2094757D76EA3FB4198","title":"好好栗子店 海宁总店","lon":"121.488088054","lat":"31.251880793","category":"648","category_name":"零食","address":"虹口区北海宁路63路终点站旁(吴淞路口)"},{"poiid":"B2094757D06FA3F54793","title":"侬好蛙干锅传奇(乍浦路店)","lon":"121.48702","lat":"31.25089","category":"71","category_name":"四川菜","address":"虹口区乍浦路408号(近海宁路)"},{"poiid":"B2094751D36EA0FB4499","title":"鼓浪屿的风Amoy Restaurant","lon":"121.48813","lat":"31.24963","category":"247","category_name":"餐饮美食","address":"虹口区昆山路128号(近吴淞路)"},{"poiid":"B2094757D068A6FE419D","title":"宝御酒店 (Hotel Pravo Shanghai)","lon":"121.489273","lat":"31.248918","category":"217","category_name":"旅馆招待所","address":"上海虹口区吴淞路299号"},{"poiid":"B2094757D06FA3FE459A","title":"上海财经大学成人教育学院","lon":"121.48796","lat":"31.24937","category":"253","category_name":"校园生活","address":"虹口区昆山路146号(近乍浦路)"},{"poiid":"B2094757D068A3FE4799","title":"景灵堂","lon":"121.48806","lat":"31.24935","category":"245","category_name":"教堂","address":"虹口区昆山路135号(近乍浦路)"},{"poiid":"B2094757D069A2F4419C","title":"中国太平洋保险公司上海分公司","lon":"121.489896003","lat":"31.2502330005","category":"263","category_name":"公司","address":"上海吴淞路400号"},{"poiid":"B2094757D06BA5FB4093","title":"玛蕾西餐厅","lon":"121.4893438","lat":"31.2491687","category":"94","category_name":"西餐厅","address":"虹口区吴淞路299号宝御酒店2楼(近塘沽路)"},{"poiid":"B2094751DA6BA2FC419D","title":"顺风北外滩店","lon":"121.486372","lat":"31.250989","category":"75","category_name":"浙江菜","address":"虹口区汉阳路88号(近吴淞路)"},{"poiid":"B2094757D06FA7FD4092","title":"萨莉亚(海宁路店)","lon":"121.48402","lat":"31.25185","category":"94","category_name":"西餐厅","address":"虹口区海宁路307号爱思大厦2楼(近乍浦路)"},{"poiid":"B2094655D36CA7FB429B","title":"海宁路","lon":"121.48917","lat":"31.25","category":"38","category_name":"公交车站","address":""},{"poiid":"B2094654D56EA3F4429F","title":"鱼林岛金龙火锅","lon":"121.4874637049","lat":"31.253117704965","category":"86","category_name":"火锅店","address":"虹口区武进路183号(近吴淞路)"},{"poiid":"B2094654D56EA1FC4692","title":"珠江大酒店","lon":"121.48693","lat":"31.25037","category":"76","category_name":"上海菜","address":"虹口区乍浦路346号4楼(近海宁路)"},{"poiid":"B2094757D06FA6F5479B","title":"兴旺国际服饰城","lon":"121.489","lat":"31.2514","category":"249","category_name":"购物服务","address":"虹口区七浦路133号(近河南北路)"},{"poiid":"B2094655D265A4FF469B","title":"联富商业广场","lon":"121.488","lat":"31.2496","category":"46","category_name":"楼宇","address":"河南北路99号"},{"poiid":"B2094757D068ABFF409D","title":"锡缘无锡小笼馆 北海宁路店","lon":"121.487075054","lat":"31.251334793","category":"68","category_name":"快餐厅","address":"虹口区北海宁路64号(近乍浦路)"},{"poiid":"B2094757D068A6F8479F","title":"财大继续教育学院昆山路校区","lon":"121.487709288","lat":"31.2495277949","category":"253","category_name":"校园生活","address":"上海昆山路146号"},{"poiid":"B2094757D069ABF9499E","title":"永祥烧腊餐厅(兄弟楼)","lon":"121.487063","lat":"31.251815","category":"72","category_name":"广东菜","address":"虹口区北海宁路76号(近吴淞路)"},{"poiid":"B2094750DA68A5F84193","title":"Q先生真人密室","lon":"121.485969","lat":"31.251867","category":"248","category_name":"生活娱乐","address":"虹口区武进路289号海泰时代大厦1425室(近四川北路)"},{"poiid":"B2094655D26EA4F8459F","title":"国际电影院","lon":"121.48603","lat":"31.25083","category":"178","category_name":"电影院","address":"虹口区海宁路330号"},{"poiid":"B2094757D069A3F9449B","title":"五云德 乍浦路店","lon":"121.486512","lat":"31.251097","category":"68","category_name":"快餐厅","address":"虹口区乍浦路338号(近海宁路)"},{"poiid":"B2094757D068A6FC439A","title":"老盛昌苏州汤包馆(乍浦路店)","lon":"121.48744","lat":"31.24909","category":"68","category_name":"快餐厅","address":"虹口区乍浦路175号(近塘沽路)"},{"poiid":"B2094757DA65AAF5439F","title":"上海安徒生文化酒店","lon":"121.486765","lat":"31.250296","category":"215","category_name":"三星级宾馆","address":"虹口区乍浦路349号(近海宁路)"},{"poiid":"B209475CD06AA2FC449B","title":"海底捞火锅店 海宁路店","lon":"121.48781","lat":"31.25117","category":"86","category_name":"火锅店","address":"海宁路263号2楼(吴淞路乍浦路间)"},{"poiid":"B2094757D168A0FC409E","title":"市一医院","lon":"121.485996503","lat":"31.2504730055","category":"162","category_name":"医院","address":"上海武进路85号"},{"poiid":"B2094655D26BA2FC469D","title":"吴淞路海宁路","lon":"121.48789","lat":"31.25144","category":"38","category_name":"公交车站","address":"上海吴淞路529号"},{"poiid":"B2094750DB64A1F5479D","title":"someday cafe","lon":"121.48583","lat":"31.24999","category":"65","category_name":"咖啡厅","address":"虹口区汉阳路63号(近吴淞路)"},{"poiid":"B2094757D064A7F8409A","title":"刘锡安奥灶面","lon":"121.4863421","lat":"31.251396024","category":"75","category_name":"浙江菜","address":"上海武进路255号近乍浦路"},{"poiid":"B2094654D56EA1FC419E","title":"上海财经大学继续教育学院","lon":"121.48764","lat":"31.25005","category":"53","category_name":"成人教育","address":"昆山路146"},{"poiid":"B2094757D168AAFB4693","title":"上海市第一人民医院国际部","lon":"121.488517903","lat":"31.2513569239","category":"162","category_name":"医院","address":"上海武进路"},{"poiid":"B2094757DA6AABFA4692","title":"香港福记茶餐厅","lon":"121.48796","lat":"31.24937","category":"72","category_name":"广东菜","address":"虹口区昆山路177号(近乍浦路)"},{"poiid":"B2094750DA6FA7F54293","title":"friends主题咖啡店","lon":"121.487365","lat":"31.252862","category":"247","category_name":"餐饮美食","address":"虹口区哈尔滨路160号1913老洋行A105号(近1933创意园"},{"poiid":"B2094757D064ABFC4793","title":"外滩3号4楼法国餐厅","lon":"121.488834887","lat":"31.2511940089","category":"94","category_name":"西餐厅","address":"上海外滩"},{"poiid":"B2094750D664AAFA499E","title":"御园中餐厅","lon":"121.489","lat":"31.2489","category":"72","category_name":"广东菜","address":"虹口区吴淞路299号宝御酒店3楼(近塘沽路)"},{"poiid":"B2094655D26FAAF8439B","title":"太保大厦","lon":"121.48954","lat":"31.25057","category":"46","category_name":"楼宇","address":"吴淞路400号"},{"poiid":"B2094757D464A0FA4698","title":"香满楼 乍浦路店","lon":"121.48656726423","lat":"31.251482066702","category":"76","category_name":"上海菜","address":"虹口区乍浦路429号(近武进路)"},{"poiid":"B2094750D76DABFF4599","title":"新炳记蚝庄","lon":"121.487","lat":"31.2519","category":"72","category_name":"广东菜","address":"虹口区乍浦路430号(近北海宁路)"},{"poiid":"B2094757D06AAAFC439A","title":"徐记生煎王","lon":"121.486616054","lat":"31.250439793","category":"68","category_name":"快餐厅","address":"虹口区乍浦路402号(近海宁路)"},{"poiid":"B2094757D06FA2FC479A","title":"7-ELEVEN(森林湾店)","lon":"121.488246646","lat":"31.2513149783","category":"117","category_name":"便民商店/便利店","address":"虹口区海宁路269号森林湾大厦B座1楼(近吴淞路)"},{"poiid":"B2094753D768A1FD4498","title":"点点心","lon":"121.48703","lat":"31.250722","category":"247","category_name":"餐饮美食","address":"上海市 海宁路307号"}]