[{"poiid":"B2094757D06FA0F8419E","title":"宏泉丽笙酒店","lon":"121.39765003","lat":"31.260702703","category":"213","category_name":"五星级宾馆","address":"上海普陀区桃浦路210号(近大渡河路)"},{"poiid":"B2094757D06FA3FE419B","title":"普陀区图书馆","lon":"121.39705524842736","lat":"31.251366379011127","category":"181","category_name":"图书馆","address":"普陀区铜川路1280号(近大渡河路)"},{"poiid":"B2094757D06FA7FD489E","title":"上海市出入境管理局普陀分局","lon":"121.39796447","lat":"31.255281448","category":"260","category_name":"其他","address":"上海大渡河路1913号"},{"poiid":"B2094757D06FA1FE499D","title":"上海市体育宫","lon":"121.39738","lat":"31.25243","category":"224","category_name":"综合体育馆","address":"普陀区大渡河路1860号沪西体育宫内(近铜川路)"},{"poiid":"B2094757D06FA2FC4793","title":"家乐福(真北店)","lon":"121.39413","lat":"31.25947","category":"118","category_name":"超级市场","address":"普陀区桃浦路328号(近大渡河路)"},{"poiid":"B2094757D06FA0FA479F","title":"上海宏康医院","lon":"121.39803177","lat":"31.255997442","category":"162","category_name":"医院","address":"上海市普陀区大渡河路1933号(近芝川路)"},{"poiid":"B2094757D06FA4F54193","title":"桃浦路真北路","lon":"121.39279721","lat":"31.261585202","category":"500","category_name":"未知分类","address":"上海桃浦路真北路"},{"poiid":"B2094757D468A4FB4298","title":"春季海鲜港","lon":"121.3946693","lat":"31.2598593","category":"76","category_name":"上海菜","address":"桃浦路318号近真北路"},{"poiid":"B2094655D26EA2F5409B","title":"上海宏泉丽笙酒店(南门)","lon":"121.39762","lat":"31.26059","category":"656","category_name":"大门","address":"上海市桃浦路210号（近大渡河路）"},{"poiid":"B2094655D26AA7F4419A","title":"索福德足球世界体育宫中心","lon":"121.39697","lat":"31.25246","category":"247","category_name":"餐饮美食","address":"普陀区大渡河路1860号沪西体育宫内(近铜川路)"},{"poiid":"B2094757D06FAAF8429F","title":"宏泉丽笙酒店西餐厅","lon":"121.39795","lat":"31.26042","category":"94","category_name":"西餐厅","address":"普陀区桃浦路210号上海宏泉丽笙酒店1楼(近上海西站)"},{"poiid":"B2094655D264A6F54498","title":"肯德基KFC(真北家乐福店)","lon":"121.39488","lat":"31.2599","category":"68","category_name":"快餐厅","address":"普陀区桃浦路328号家乐福(近大渡河路)"},{"poiid":"B2094757D569A3F8449B","title":"潮隆大酒店铜川路店","lon":"121.40021","lat":"31.25081","category":"72","category_name":"广东菜","address":"普陀区铜川路990弄6区28号(近兰溪路)"},{"poiid":"B2094655D36CA2F4469E","title":"上海火车站西站","lon":"121.40105","lat":"31.26152","category":"38","category_name":"公交车站","address":""},{"poiid":"B2094654DB6AA6F94093","title":"上海西上海奥杰汽车销售服务有限公司","lon":"121.39274","lat":"31.25377","category":"159","category_name":"汽车维修","address":"普陀区真北路2158号(金鼎路真北路)"},{"poiid":"B2094654D464AAF94098","title":"星河世纪城樱树芳庭","lon":"121.39402","lat":"31.25939","category":"47","category_name":"住宅区","address":"上海市普陀区桃浦路321弄"},{"poiid":"B2094654D464AAF9429F","title":"真北新村","lon":"121.39898","lat":"31.25612","category":"47","category_name":"住宅区","address":"大渡河路1927弄"},{"poiid":"B2094757D068A3F9429A","title":"上海家园","lon":"121.39114","lat":"31.258083","category":"47","category_name":"住宅区","address":"上海市普陀区桃浦路742弄"},{"poiid":"B2094757D06FA5F4499D","title":"绿洲公寓","lon":"121.39385","lat":"31.252184","category":"47","category_name":"住宅区","address":"上海市普陀区铜川路1422弄44号"},{"poiid":"B2094757D069A1FF499B","title":"萨莉亚(桃浦路店)","lon":"121.39411","lat":"31.25966","category":"94","category_name":"西餐厅","address":"普陀区桃浦路328号家乐福内118A室(近大渡河路)"},{"poiid":"B2094757D168A6FF4299","title":"澳门豆捞","lon":"121.39399","lat":"31.2597","category":"86","category_name":"火锅店","address":"普陀区桃浦路328号家乐福旁(近真北路)"},{"poiid":"B2094750DA68AAFA4893","title":"春季海港城","lon":"121.3974","lat":"31.26045","category":"72","category_name":"广东菜","address":"普陀区桃浦路266号(近家乐福真北店)"},{"poiid":"B2094655D26DA5F44592","title":"星河世纪城星月蓝湾西区","lon":"121.39389","lat":"31.26205","category":"47","category_name":"住宅区","address":"桃浦路300弄单号"},{"poiid":"B2094654D464AAF84392","title":"真北二街坊","lon":"121.39614","lat":"31.258846","category":"47","category_name":"住宅区","address":"大渡河路2030弄"},{"poiid":"B2094757D168A6FA429F","title":"别克名流4S店","lon":"121.39515795","lat":"31.251129699","category":"500","category_name":"未知分类","address":"上海市普陀区真北路1366号"},{"poiid":"B2094654D464AAFE4798","title":"星河世纪城星月蓝湾","lon":"121.39632","lat":"31.26153","category":"47","category_name":"住宅区","address":"上海市普陀区桃浦路368号"},{"poiid":"B2094654D464AAF8469B","title":"上海安吉名世凯迪拉克","lon":"121.39595","lat":"31.25106","category":"158","category_name":"汽车销售","address":"普陀区铜川路1288号(靖边路铜川路)"},{"poiid":"B2094757D06BA1FD4393","title":"车站新村","lon":"121.40018795","lat":"31.260032869","category":"252","category_name":"楼宇机构","address":"上海市普陀区桃浦路"},{"poiid":"B2094654D465A3FA4293","title":"明丰世纪苑(南门)","lon":"121.39123","lat":"31.2601","category":"656","category_name":"大门","address":"子洲路680弄"},{"poiid":"B2094757D06AABFE449F","title":"大食代(真北家乐福店)","lon":"121.39605","lat":"31.25973","category":"68","category_name":"快餐厅","address":"普陀区桃浦路368号家乐福购物中心1楼(近真北路)"},{"poiid":"B2094757D06FA7F44292","title":"真光七街坊","lon":"121.392926","lat":"31.257911","category":"252","category_name":"楼宇机构","address":"铜川路1781弄"},{"poiid":"B2094757D16CA0FC4692","title":"克莉丝汀 大渡河路店","lon":"121.39651","lat":"31.25949","category":"112","category_name":"糕饼店","address":"普陀区大渡河路2128号(近桃浦路)"},{"poiid":"B2094655D26AABFB4998","title":"真如镇图书馆","lon":"121.39635","lat":"31.25779","category":"181","category_name":"图书馆","address":"普陀区大渡河路2030弄4号(大渡河路芝川路)"},{"poiid":"B2094655D26CA1F84193","title":"真北二街坊(东门)","lon":"121.39704","lat":"31.25758","category":"47","category_name":"住宅区","address":"大渡河路2030弄"},{"poiid":"B2094654D464AAF8449C","title":"良友金伴No.375","lon":"121.39712","lat":"31.25729","category":"117","category_name":"便民商店/便利店","address":"大渡河路2030弄14号"},{"poiid":"B2094757D56CAAFB489F","title":"争鲜回转寿司 真北店","lon":"121.396146054","lat":"31.260250793","category":"247","category_name":"餐饮美食","address":"桃浦路328号家乐福3楼近大渡河路"},{"poiid":"B2094655D26AA6F84399","title":"上岛咖啡真如店","lon":"121.39712","lat":"31.26064","category":"260","category_name":"其他","address":"普陀区桃浦路226号总部大厦2楼(近大渡河路)"},{"poiid":"B2094757D66CA5FF479D","title":"宏康口腔治疗","lon":"121.3972516","lat":"31.2583611377","category":"162","category_name":"医院","address":"上海大渡河路1933号"},{"poiid":"B2094757D06BA1FE489F","title":"真北新村一街坊","lon":"121.397213776","lat":"31.2582428086","category":"252","category_name":"楼宇机构","address":"上海大渡河路2087弄"},{"poiid":"B2094757D068A3F5489E","title":"曹杨花苑","lon":"121.40144","lat":"31.258196","category":"47","category_name":"住宅区","address":"上海市普陀区芝川路138弄"},{"poiid":"B2094757D16BAAF8469C","title":"永琪桃浦旗舰店","lon":"121.39390795","lat":"31.2599083672","category":"148","category_name":"美容美发店","address":"上海桃浦路真北芝路路口"},{"poiid":"B2094757D464A0F5499C","title":"映像戴斯大酒店餐厅","lon":"121.39235","lat":"31.25751","category":"76","category_name":"上海菜","address":"普陀区真北路2022号(铜川路口)"},{"poiid":"B2094757D06BA5F8489B","title":"双孖府第","lon":"121.39732695","lat":"31.258344837","category":"47","category_name":"住宅区","address":"上海普陀区双孖路"},{"poiid":"B2094654D464AAF8439B","title":"可的(真如敬老院北)","lon":"121.39648","lat":"31.25918","category":"117","category_name":"便民商店/便利店","address":"普陀区大渡河路2126号(大渡河路桃浦路)"},{"poiid":"B2094654D464AAF84198","title":"上海第四十四机动车安全检测站","lon":"121.39799","lat":"31.26289","category":"250","category_name":"公园户外","address":"普陀区兰溪路1888号(近桃浦路)"},{"poiid":"B2094655D264AAFD4292","title":"真北新邨二街坊","lon":"121.3957","lat":"31.25932","category":"47","category_name":"住宅区","address":"桃浦路261弄1-17号"},{"poiid":"B2094757D569A3FB479C","title":"金鼎生活休闲街","lon":"121.39395612779","lat":"31.256152927438","category":"46","category_name":"楼宇","address":"上海市普陀区金鼎路380-396号"},{"poiid":"B2094757D06AA6FC4099","title":"上海市体育宫羽毛球场","lon":"121.396973151","lat":"31.2524595545","category":"220","category_name":"运动场所","address":"普陀区大渡河路1860号沪西体育宫内(近铜川路)"},{"poiid":"B2094757D164A3F94599","title":"普陀公安分局出入境管理处","lon":"121.397913139","lat":"31.2552812105","category":"500","category_name":"未知分类","address":"上海大渡河路1913号"},{"poiid":"B2094751D365A2FD429C","title":"大悦城","lon":"121.3950414","lat":"31.2569359","category":"500","category_name":"未知分类","address":"西藏北路"},{"poiid":"B2094757D06FA0F8419E","title":"宏泉丽笙酒店","lon":"121.39765003","lat":"31.260702703","category":"213","category_name":"五星级宾馆","address":"上海普陀区桃浦路210号(近大渡河路)"},{"poiid":"B2094757D06FA3FE419B","title":"普陀区图书馆","lon":"121.39705524842736","lat":"31.251366379011127","category":"181","category_name":"图书馆","address":"普陀区铜川路1280号(近大渡河路)"},{"poiid":"B2094757D06FA7FD489E","title":"上海市出入境管理局普陀分局","lon":"121.39796447","lat":"31.255281448","category":"260","category_name":"其他","address":"上海大渡河路1913号"},{"poiid":"B2094757D06FA1FE499D","title":"上海市体育宫","lon":"121.39738","lat":"31.25243","category":"224","category_name":"综合体育馆","address":"普陀区大渡河路1860号沪西体育宫内(近铜川路)"},{"poiid":"B2094757D06FA2FC4793","title":"家乐福(真北店)","lon":"121.39413","lat":"31.25947","category":"118","category_name":"超级市场","address":"普陀区桃浦路328号(近大渡河路)"},{"poiid":"B2094757D06FA0FA479F","title":"上海宏康医院","lon":"121.39803177","lat":"31.255997442","category":"162","category_name":"医院","address":"上海市普陀区大渡河路1933号(近芝川路)"},{"poiid":"B2094757D06FA4F54193","title":"桃浦路真北路","lon":"121.39279721","lat":"31.261585202","category":"500","category_name":"未知分类","address":"上海桃浦路真北路"},{"poiid":"B2094757D468A4FB4298","title":"春季海鲜港","lon":"121.3946693","lat":"31.2598593","category":"76","category_name":"上海菜","address":"桃浦路318号近真北路"},{"poiid":"B2094655D26EA2F5409B","title":"上海宏泉丽笙酒店(南门)","lon":"121.39762","lat":"31.26059","category":"656","category_name":"大门","address":"上海市桃浦路210号（近大渡河路）"},{"poiid":"B2094655D26AA7F4419A","title":"索福德足球世界体育宫中心","lon":"121.39697","lat":"31.25246","category":"247","category_name":"餐饮美食","address":"普陀区大渡河路1860号沪西体育宫内(近铜川路)"},{"poiid":"B2094757D06FAAF8429F","title":"宏泉丽笙酒店西餐厅","lon":"121.39795","lat":"31.26042","category":"94","category_name":"西餐厅","address":"普陀区桃浦路210号上海宏泉丽笙酒店1楼(近上海西站)"},{"poiid":"B2094655D264A6F54498","title":"肯德基KFC(真北家乐福店)","lon":"121.39488","lat":"31.2599","category":"68","category_name":"快餐厅","address":"普陀区桃浦路328号家乐福(近大渡河路)"},{"poiid":"B2094757D569A3F8449B","title":"潮隆大酒店铜川路店","lon":"121.40021","lat":"31.25081","category":"72","category_name":"广东菜","address":"普陀区铜川路990弄6区28号(近兰溪路)"},{"poiid":"B2094655D36CA2F4469E","title":"上海火车站西站","lon":"121.40105","lat":"31.26152","category":"38","category_name":"公交车站","address":""},{"poiid":"B2094654DB6AA6F94093","title":"上海西上海奥杰汽车销售服务有限公司","lon":"121.39274","lat":"31.25377","category":"159","category_name":"汽车维修","address":"普陀区真北路2158号(金鼎路真北路)"},{"poiid":"B2094654D464AAF94098","title":"星河世纪城樱树芳庭","lon":"121.39402","lat":"31.25939","category":"47","category_name":"住宅区","address":"上海市普陀区桃浦路321弄"},{"poiid":"B2094654D464AAF9429F","title":"真北新村","lon":"121.39898","lat":"31.25612","category":"47","category_name":"住宅区","address":"大渡河路1927弄"},{"poiid":"B2094757D068A3F9429A","title":"上海家园","lon":"121.39114","lat":"31.258083","category":"47","category_name":"住宅区","address":"上海市普陀区桃浦路742弄"},{"poiid":"B2094757D06FA5F4499D","title":"绿洲公寓","lon":"121.39385","lat":"31.252184","category":"47","category_name":"住宅区","address":"上海市普陀区铜川路1422弄44号"},{"poiid":"B2094757D069A1FF499B","title":"萨莉亚(桃浦路店)","lon":"121.39411","lat":"31.25966","category":"94","category_name":"西餐厅","address":"普陀区桃浦路328号家乐福内118A室(近大渡河路)"},{"poiid":"B2094757D168A6FF4299","title":"澳门豆捞","lon":"121.39399","lat":"31.2597","category":"86","category_name":"火锅店","address":"普陀区桃浦路328号家乐福旁(近真北路)"},{"poiid":"B2094750DA68AAFA4893","title":"春季海港城","lon":"121.3974","lat":"31.26045","category":"72","category_name":"广东菜","address":"普陀区桃浦路266号(近家乐福真北店)"},{"poiid":"B2094655D26DA5F44592","title":"星河世纪城星月蓝湾西区","lon":"121.39389","lat":"31.26205","category":"47","category_name":"住宅区","address":"桃浦路300弄单号"},{"poiid":"B2094654D464AAF84392","title":"真北二街坊","lon":"121.39614","lat":"31.258846","category":"47","category_name":"住宅区","address":"大渡河路2030弄"},{"poiid":"B2094757D168A6FA429F","title":"别克名流4S店","lon":"121.39515795","lat":"31.251129699","category":"500","category_name":"未知分类","address":"上海市普陀区真北路1366号"},{"poiid":"B2094654D464AAFE4798","title":"星河世纪城星月蓝湾","lon":"121.39632","lat":"31.26153","category":"47","category_name":"住宅区","address":"上海市普陀区桃浦路368号"},{"poiid":"B2094654D464AAF8469B","title":"上海安吉名世凯迪拉克","lon":"121.39595","lat":"31.25106","category":"158","category_name":"汽车销售","address":"普陀区铜川路1288号(靖边路铜川路)"},{"poiid":"B2094757D06BA1FD4393","title":"车站新村","lon":"121.40018795","lat":"31.260032869","category":"252","category_name":"楼宇机构","address":"上海市普陀区桃浦路"},{"poiid":"B2094654D465A3FA4293","title":"明丰世纪苑(南门)","lon":"121.39123","lat":"31.2601","category":"656","category_name":"大门","address":"子洲路680弄"},{"poiid":"B2094757D06AABFE449F","title":"大食代(真北家乐福店)","lon":"121.39605","lat":"31.25973","category":"68","category_name":"快餐厅","address":"普陀区桃浦路368号家乐福购物中心1楼(近真北路)"},{"poiid":"B2094757D06FA7F44292","title":"真光七街坊","lon":"121.392926","lat":"31.257911","category":"252","category_name":"楼宇机构","address":"铜川路1781弄"},{"poiid":"B2094757D16CA0FC4692","title":"克莉丝汀 大渡河路店","lon":"121.39651","lat":"31.25949","category":"112","category_name":"糕饼店","address":"普陀区大渡河路2128号(近桃浦路)"},{"poiid":"B2094655D26AABFB4998","title":"真如镇图书馆","lon":"121.39635","lat":"31.25779","category":"181","category_name":"图书馆","address":"普陀区大渡河路2030弄4号(大渡河路芝川路)"},{"poiid":"B2094655D26CA1F84193","title":"真北二街坊(东门)","lon":"121.39704","lat":"31.25758","category":"47","category_name":"住宅区","address":"大渡河路2030弄"},{"poiid":"B2094654D464AAF8449C","title":"良友金伴No.375","lon":"121.39712","lat":"31.25729","category":"117","category_name":"便民商店/便利店","address":"大渡河路2030弄14号"},{"poiid":"B2094757D56CAAFB489F","title":"争鲜回转寿司 真北店","lon":"121.396146054","lat":"31.260250793","category":"247","category_name":"餐饮美食","address":"桃浦路328号家乐福3楼近大渡河路"},{"poiid":"B2094655D26AA6F84399","title":"上岛咖啡真如店","lon":"121.39712","lat":"31.26064","category":"260","category_name":"其他","address":"普陀区桃浦路226号总部大厦2楼(近大渡河路)"},{"poiid":"B2094757D66CA5FF479D","title":"宏康口腔治疗","lon":"121.3972516","lat":"31.2583611377","category":"162","category_name":"医院","address":"上海大渡河路1933号"},{"poiid":"B2094757D06BA1FE489F","title":"真北新村一街坊","lon":"121.397213776","lat":"31.2582428086","category":"252","category_name":"楼宇机构","address":"上海大渡河路2087弄"},{"poiid":"B2094757D068A3F5489E","title":"曹杨花苑","lon":"121.40144","lat":"31.258196","category":"47","category_name":"住宅区","address":"上海市普陀区芝川路138弄"},{"poiid":"B2094757D16BAAF8469C","title":"永琪桃浦旗舰店","lon":"121.39390795","lat":"31.2599083672","category":"148","category_name":"美容美发店","address":"上海桃浦路真北芝路路口"},{"poiid":"B2094757D464A0F5499C","title":"映像戴斯大酒店餐厅","lon":"121.39235","lat":"31.25751","category":"76","category_name":"上海菜","address":"普陀区真北路2022号(铜川路口)"},{"poiid":"B2094757D06BA5F8489B","title":"双孖府第","lon":"121.39732695","lat":"31.258344837","category":"47","category_name":"住宅区","address":"上海普陀区双孖路"},{"poiid":"B2094654D464AAF8439B","title":"可的(真如敬老院北)","lon":"121.39648","lat":"31.25918","category":"117","category_name":"便民商店/便利店","address":"普陀区大渡河路2126号(大渡河路桃浦路)"},{"poiid":"B2094654D464AAF84198","title":"上海第四十四机动车安全检测站","lon":"121.39799","lat":"31.26289","category":"250","category_name":"公园户外","address":"普陀区兰溪路1888号(近桃浦路)"},{"poiid":"B2094655D264AAFD4292","title":"真北新邨二街坊","lon":"121.3957","lat":"31.25932","category":"47","category_name":"住宅区","address":"桃浦路261弄1-17号"},{"poiid":"B2094757D569A3FB479C","title":"金鼎生活休闲街","lon":"121.39395612779","lat":"31.256152927438","category":"46","category_name":"楼宇","address":"上海市普陀区金鼎路380-396号"},{"poiid":"B2094757D06AA6FC4099","title":"上海市体育宫羽毛球场","lon":"121.396973151","lat":"31.2524595545","category":"220","category_name":"运动场所","address":"普陀区大渡河路1860号沪西体育宫内(近铜川路)"},{"poiid":"B2094757D164A3F94599","title":"普陀公安分局出入境管理处","lon":"121.397913139","lat":"31.2552812105","category":"500","category_name":"未知分类","address":"上海大渡河路1913号"},{"poiid":"B2094751D365A2FD429C","title":"大悦城","lon":"121.3950414","lat":"31.2569359","category":"500","category_name":"未知分类","address":"西藏北路"},{"poiid":"B2094757D06FA0F8419E","title":"宏泉丽笙酒店","lon":"121.39765003","lat":"31.260702703","category":"213","category_name":"五星级宾馆","address":"上海普陀区桃浦路210号(近大渡河路)"},{"poiid":"B2094757D06FA3FE419B","title":"普陀区图书馆","lon":"121.39705524842736","lat":"31.251366379011127","category":"181","category_name":"图书馆","address":"普陀区铜川路1280号(近大渡河路)"},{"poiid":"B2094757D06FA7FD489E","title":"上海市出入境管理局普陀分局","lon":"121.39796447","lat":"31.255281448","category":"260","category_name":"其他","address":"上海大渡河路1913号"},{"poiid":"B2094757D06FA1FE499D","title":"上海市体育宫","lon":"121.39738","lat":"31.25243","category":"224","category_name":"综合体育馆","address":"普陀区大渡河路1860号沪西体育宫内(近铜川路)"},{"poiid":"B2094757D06FA2FC4793","title":"家乐福(真北店)","lon":"121.39413","lat":"31.25947","category":"118","category_name":"超级市场","address":"普陀区桃浦路328号(近大渡河路)"},{"poiid":"B2094757D06FA0FA479F","title":"上海宏康医院","lon":"121.39803177","lat":"31.255997442","category":"162","category_name":"医院","address":"上海市普陀区大渡河路1933号(近芝川路)"},{"poiid":"B2094757D06FA4F54193","title":"桃浦路真北路","lon":"121.39279721","lat":"31.261585202","category":"500","category_name":"未知分类","address":"上海桃浦路真北路"},{"poiid":"B2094757D468A4FB4298","title":"春季海鲜港","lon":"121.3946693","lat":"31.2598593","category":"76","category_name":"上海菜","address":"桃浦路318号近真北路"},{"poiid":"B2094655D26EA2F5409B","title":"上海宏泉丽笙酒店(南门)","lon":"121.39762","lat":"31.26059","category":"656","category_name":"大门","address":"上海市桃浦路210号（近大渡河路）"},{"poiid":"B2094655D26AA7F4419A","title":"索福德足球世界体育宫中心","lon":"121.39697","lat":"31.25246","category":"247","category_name":"餐饮美食","address":"普陀区大渡河路1860号沪西体育宫内(近铜川路)"},{"poiid":"B2094757D06FAAF8429F","title":"宏泉丽笙酒店西餐厅","lon":"121.39795","lat":"31.26042","category":"94","category_name":"西餐厅","address":"普陀区桃浦路210号上海宏泉丽笙酒店1楼(近上海西站)"},{"poiid":"B2094655D264A6F54498","title":"肯德基KFC(真北家乐福店)","lon":"121.39488","lat":"31.2599","category":"68","category_name":"快餐厅","address":"普陀区桃浦路328号家乐福(近大渡河路)"},{"poiid":"B2094757D569A3F8449B","title":"潮隆大酒店铜川路店","lon":"121.40021","lat":"31.25081","category":"72","category_name":"广东菜","address":"普陀区铜川路990弄6区28号(近兰溪路)"},{"poiid":"B2094655D36CA2F4469E","title":"上海火车站西站","lon":"121.40105","lat":"31.26152","category":"38","category_name":"公交车站","address":""},{"poiid":"B2094654DB6AA6F94093","title":"上海西上海奥杰汽车销售服务有限公司","lon":"121.39274","lat":"31.25377","category":"159","category_name":"汽车维修","address":"普陀区真北路2158号(金鼎路真北路)"},{"poiid":"B2094654D464AAF94098","title":"星河世纪城樱树芳庭","lon":"121.39402","lat":"31.25939","category":"47","category_name":"住宅区","address":"上海市普陀区桃浦路321弄"},{"poiid":"B2094654D464AAF9429F","title":"真北新村","lon":"121.39898","lat":"31.25612","category":"47","category_name":"住宅区","address":"大渡河路1927弄"},{"poiid":"B2094757D068A3F9429A","title":"上海家园","lon":"121.39114","lat":"31.258083","category":"47","category_name":"住宅区","address":"上海市普陀区桃浦路742弄"},{"poiid":"B2094757D06FA5F4499D","title":"绿洲公寓","lon":"121.39385","lat":"31.252184","category":"47","category_name":"住宅区","address":"上海市普陀区铜川路1422弄44号"},{"poiid":"B2094757D069A1FF499B","title":"萨莉亚(桃浦路店)","lon":"121.39411","lat":"31.25966","category":"94","category_name":"西餐厅","address":"普陀区桃浦路328号家乐福内118A室(近大渡河路)"},{"poiid":"B2094757D168A6FF4299","title":"澳门豆捞","lon":"121.39399","lat":"31.2597","category":"86","category_name":"火锅店","address":"普陀区桃浦路328号家乐福旁(近真北路)"},{"poiid":"B2094750DA68AAFA4893","title":"春季海港城","lon":"121.3974","lat":"31.26045","category":"72","category_name":"广东菜","address":"普陀区桃浦路266号(近家乐福真北店)"},{"poiid":"B2094655D26DA5F44592","title":"星河世纪城星月蓝湾西区","lon":"121.39389","lat":"31.26205","category":"47","category_name":"住宅区","address":"桃浦路300弄单号"},{"poiid":"B2094654D464AAF84392","title":"真北二街坊","lon":"121.39614","lat":"31.258846","category":"47","category_name":"住宅区","address":"大渡河路2030弄"},{"poiid":"B2094757D168A6FA429F","title":"别克名流4S店","lon":"121.39515795","lat":"31.251129699","category":"500","category_name":"未知分类","address":"上海市普陀区真北路1366号"},{"poiid":"B2094654D464AAFE4798","title":"星河世纪城星月蓝湾","lon":"121.39632","lat":"31.26153","category":"47","category_name":"住宅区","address":"上海市普陀区桃浦路368号"},{"poiid":"B2094654D464AAF8469B","title":"上海安吉名世凯迪拉克","lon":"121.39595","lat":"31.25106","category":"158","category_name":"汽车销售","address":"普陀区铜川路1288号(靖边路铜川路)"},{"poiid":"B2094757D06BA1FD4393","title":"车站新村","lon":"121.40018795","lat":"31.260032869","category":"252","category_name":"楼宇机构","address":"上海市普陀区桃浦路"},{"poiid":"B2094654D465A3FA4293","title":"明丰世纪苑(南门)","lon":"121.39123","lat":"31.2601","category":"656","category_name":"大门","address":"子洲路680弄"},{"poiid":"B2094757D06AABFE449F","title":"大食代(真北家乐福店)","lon":"121.39605","lat":"31.25973","category":"68","category_name":"快餐厅","address":"普陀区桃浦路368号家乐福购物中心1楼(近真北路)"},{"poiid":"B2094757D06FA7F44292","title":"真光七街坊","lon":"121.392926","lat":"31.257911","category":"252","category_name":"楼宇机构","address":"铜川路1781弄"},{"poiid":"B2094757D16CA0FC4692","title":"克莉丝汀 大渡河路店","lon":"121.39651","lat":"31.25949","category":"112","category_name":"糕饼店","address":"普陀区大渡河路2128号(近桃浦路)"},{"poiid":"B2094655D26AABFB4998","title":"真如镇图书馆","lon":"121.39635","lat":"31.25779","category":"181","category_name":"图书馆","address":"普陀区大渡河路2030弄4号(大渡河路芝川路)"},{"poiid":"B2094655D26CA1F84193","title":"真北二街坊(东门)","lon":"121.39704","lat":"31.25758","category":"47","category_name":"住宅区","address":"大渡河路2030弄"},{"poiid":"B2094654D464AAF8449C","title":"良友金伴No.375","lon":"121.39712","lat":"31.25729","category":"117","category_name":"便民商店/便利店","address":"大渡河路2030弄14号"},{"poiid":"B2094757D56CAAFB489F","title":"争鲜回转寿司 真北店","lon":"121.396146054","lat":"31.260250793","category":"247","category_name":"餐饮美食","address":"桃浦路328号家乐福3楼近大渡河路"},{"poiid":"B2094655D26AA6F84399","title":"上岛咖啡真如店","lon":"121.39712","lat":"31.26064","category":"260","category_name":"其他","address":"普陀区桃浦路226号总部大厦2楼(近大渡河路)"},{"poiid":"B2094757D66CA5FF479D","title":"宏康口腔治疗","lon":"121.3972516","lat":"31.2583611377","category":"162","category_name":"医院","address":"上海大渡河路1933号"},{"poiid":"B2094757D06BA1FE489F","title":"真北新村一街坊","lon":"121.397213776","lat":"31.2582428086","category":"252","category_name":"楼宇机构","address":"上海大渡河路2087弄"},{"poiid":"B2094757D068A3F5489E","title":"曹杨花苑","lon":"121.40144","lat":"31.258196","category":"47","category_name":"住宅区","address":"上海市普陀区芝川路138弄"},{"poiid":"B2094757D16BAAF8469C","title":"永琪桃浦旗舰店","lon":"121.39390795","lat":"31.2599083672","category":"148","category_name":"美容美发店","address":"上海桃浦路真北芝路路口"},{"poiid":"B2094757D464A0F5499C","title":"映像戴斯大酒店餐厅","lon":"121.39235","lat":"31.25751","category":"76","category_name":"上海菜","address":"普陀区真北路2022号(铜川路口)"},{"poiid":"B2094757D06BA5F8489B","title":"双孖府第","lon":"121.39732695","lat":"31.258344837","category":"47","category_name":"住宅区","address":"上海普陀区双孖路"},{"poiid":"B2094654D464AAF8439B","title":"可的(真如敬老院北)","lon":"121.39648","lat":"31.25918","category":"117","category_name":"便民商店/便利店","address":"普陀区大渡河路2126号(大渡河路桃浦路)"},{"poiid":"B2094654D464AAF84198","title":"上海第四十四机动车安全检测站","lon":"121.39799","lat":"31.26289","category":"250","category_name":"公园户外","address":"普陀区兰溪路1888号(近桃浦路)"},{"poiid":"B2094655D264AAFD4292","title":"真北新邨二街坊","lon":"121.3957","lat":"31.25932","category":"47","category_name":"住宅区","address":"桃浦路261弄1-17号"},{"poiid":"B2094757D569A3FB479C","title":"金鼎生活休闲街","lon":"121.39395612779","lat":"31.256152927438","category":"46","category_name":"楼宇","address":"上海市普陀区金鼎路380-396号"},{"poiid":"B2094757D06AA6FC4099","title":"上海市体育宫羽毛球场","lon":"121.396973151","lat":"31.2524595545","category":"220","category_name":"运动场所","address":"普陀区大渡河路1860号沪西体育宫内(近铜川路)"},{"poiid":"B2094757D164A3F94599","title":"普陀公安分局出入境管理处","lon":"121.397913139","lat":"31.2552812105","category":"500","category_name":"未知分类","address":"上海大渡河路1913号"},{"poiid":"B2094751D365A2FD429C","title":"大悦城","lon":"121.3950414","lat":"31.2569359","category":"500","category_name":"未知分类","address":"西藏北路"},{"poiid":"B2094757D06FA0F8419E","title":"宏泉丽笙酒店","lon":"121.39765003","lat":"31.260702703","category":"213","category_name":"五星级宾馆","address":"上海普陀区桃浦路210号(近大渡河路)"},{"poiid":"B2094757D06FA3FE419B","title":"普陀区图书馆","lon":"121.39705524842736","lat":"31.251366379011127","category":"181","category_name":"图书馆","address":"普陀区铜川路1280号(近大渡河路)"},{"poiid":"B2094757D06FA7FD489E","title":"上海市出入境管理局普陀分局","lon":"121.39796447","lat":"31.255281448","category":"260","category_name":"其他","address":"上海大渡河路1913号"},{"poiid":"B2094757D06FA1FE499D","title":"上海市体育宫","lon":"121.39738","lat":"31.25243","category":"224","category_name":"综合体育馆","address":"普陀区大渡河路1860号沪西体育宫内(近铜川路)"},{"poiid":"B2094757D06FA2FC4793","title":"家乐福(真北店)","lon":"121.39413","lat":"31.25947","category":"118","category_name":"超级市场","address":"普陀区桃浦路328号(近大渡河路)"},{"poiid":"B2094757D06FA0FA479F","title":"上海宏康医院","lon":"121.39803177","lat":"31.255997442","category":"162","category_name":"医院","address":"上海市普陀区大渡河路1933号(近芝川路)"},{"poiid":"B2094757D06FA4F54193","title":"桃浦路真北路","lon":"121.39279721","lat":"31.261585202","category":"500","category_name":"未知分类","address":"上海桃浦路真北路"},{"poiid":"B2094757D468A4FB4298","title":"春季海鲜港","lon":"121.3946693","lat":"31.2598593","category":"76","category_name":"上海菜","address":"桃浦路318号近真北路"},{"poiid":"B2094655D26EA2F5409B","title":"上海宏泉丽笙酒店(南门)","lon":"121.39762","lat":"31.26059","category":"656","category_name":"大门","address":"上海市桃浦路210号（近大渡河路）"},{"poiid":"B2094655D26AA7F4419A","title":"索福德足球世界体育宫中心","lon":"121.39697","lat":"31.25246","category":"247","category_name":"餐饮美食","address":"普陀区大渡河路1860号沪西体育宫内(近铜川路)"},{"poiid":"B2094757D06FAAF8429F","title":"宏泉丽笙酒店西餐厅","lon":"121.39795","lat":"31.26042","category":"94","category_name":"西餐厅","address":"普陀区桃浦路210号上海宏泉丽笙酒店1楼(近上海西站)"},{"poiid":"B2094655D264A6F54498","title":"肯德基KFC(真北家乐福店)","lon":"121.39488","lat":"31.2599","category":"68","category_name":"快餐厅","address":"普陀区桃浦路328号家乐福(近大渡河路)"},{"poiid":"B2094757D569A3F8449B","title":"潮隆大酒店铜川路店","lon":"121.40021","lat":"31.25081","category":"72","category_name":"广东菜","address":"普陀区铜川路990弄6区28号(近兰溪路)"},{"poiid":"B2094655D36CA2F4469E","title":"上海火车站西站","lon":"121.40105","lat":"31.26152","category":"38","category_name":"公交车站","address":""},{"poiid":"B2094654DB6AA6F94093","title":"上海西上海奥杰汽车销售服务有限公司","lon":"121.39274","lat":"31.25377","category":"159","category_name":"汽车维修","address":"普陀区真北路2158号(金鼎路真北路)"},{"poiid":"B2094654D464AAF94098","title":"星河世纪城樱树芳庭","lon":"121.39402","lat":"31.25939","category":"47","category_name":"住宅区","address":"上海市普陀区桃浦路321弄"},{"poiid":"B2094654D464AAF9429F","title":"真北新村","lon":"121.39898","lat":"31.25612","category":"47","category_name":"住宅区","address":"大渡河路1927弄"},{"poiid":"B2094757D068A3F9429A","title":"上海家园","lon":"121.39114","lat":"31.258083","category":"47","category_name":"住宅区","address":"上海市普陀区桃浦路742弄"},{"poiid":"B2094757D06FA5F4499D","title":"绿洲公寓","lon":"121.39385","lat":"31.252184","category":"47","category_name":"住宅区","address":"上海市普陀区铜川路1422弄44号"},{"poiid":"B2094757D069A1FF499B","title":"萨莉亚(桃浦路店)","lon":"121.39411","lat":"31.25966","category":"94","category_name":"西餐厅","address":"普陀区桃浦路328号家乐福内118A室(近大渡河路)"},{"poiid":"B2094757D168A6FF4299","title":"澳门豆捞","lon":"121.39399","lat":"31.2597","category":"86","category_name":"火锅店","address":"普陀区桃浦路328号家乐福旁(近真北路)"},{"poiid":"B2094750DA68AAFA4893","title":"春季海港城","lon":"121.3974","lat":"31.26045","category":"72","category_name":"广东菜","address":"普陀区桃浦路266号(近家乐福真北店)"},{"poiid":"B2094655D26DA5F44592","title":"星河世纪城星月蓝湾西区","lon":"121.39389","lat":"31.26205","category":"47","category_name":"住宅区","address":"桃浦路300弄单号"},{"poiid":"B2094654D464AAF84392","title":"真北二街坊","lon":"121.39614","lat":"31.258846","category":"47","category_name":"住宅区","address":"大渡河路2030弄"},{"poiid":"B2094757D168A6FA429F","title":"别克名流4S店","lon":"121.39515795","lat":"31.251129699","category":"500","category_name":"未知分类","address":"上海市普陀区真北路1366号"},{"poiid":"B2094654D464AAFE4798","title":"星河世纪城星月蓝湾","lon":"121.39632","lat":"31.26153","category":"47","category_name":"住宅区","address":"上海市普陀区桃浦路368号"},{"poiid":"B2094654D464AAF8469B","title":"上海安吉名世凯迪拉克","lon":"121.39595","lat":"31.25106","category":"158","category_name":"汽车销售","address":"普陀区铜川路1288号(靖边路铜川路)"},{"poiid":"B2094757D06BA1FD4393","title":"车站新村","lon":"121.40018795","lat":"31.260032869","category":"252","category_name":"楼宇机构","address":"上海市普陀区桃浦路"},{"poiid":"B2094654D465A3FA4293","title":"明丰世纪苑(南门)","lon":"121.39123","lat":"31.2601","category":"656","category_name":"大门","address":"子洲路680弄"},{"poiid":"B2094757D06AABFE449F","title":"大食代(真北家乐福店)","lon":"121.39605","lat":"31.25973","category":"68","category_name":"快餐厅","address":"普陀区桃浦路368号家乐福购物中心1楼(近真北路)"},{"poiid":"B2094757D06FA7F44292","title":"真光七街坊","lon":"121.392926","lat":"31.257911","category":"252","category_name":"楼宇机构","address":"铜川路1781弄"},{"poiid":"B2094757D16CA0FC4692","title":"克莉丝汀 大渡河路店","lon":"121.39651","lat":"31.25949","category":"112","category_name":"糕饼店","address":"普陀区大渡河路2128号(近桃浦路)"},{"poiid":"B2094655D26AABFB4998","title":"真如镇图书馆","lon":"121.39635","lat":"31.25779","category":"181","category_name":"图书馆","address":"普陀区大渡河路2030弄4号(大渡河路芝川路)"},{"poiid":"B2094655D26CA1F84193","title":"真北二街坊(东门)","lon":"121.39704","lat":"31.25758","category":"47","category_name":"住宅区","address":"大渡河路2030弄"},{"poiid":"B2094654D464AAF8449C","title":"良友金伴No.375","lon":"121.39712","lat":"31.25729","category":"117","category_name":"便民商店/便利店","address":"大渡河路2030弄14号"},{"poiid":"B2094757D56CAAFB489F","title":"争鲜回转寿司 真北店","lon":"121.396146054","lat":"31.260250793","category":"247","category_name":"餐饮美食","address":"桃浦路328号家乐福3楼近大渡河路"},{"poiid":"B2094655D26AA6F84399","title":"上岛咖啡真如店","lon":"121.39712","lat":"31.26064","category":"260","category_name":"其他","address":"普陀区桃浦路226号总部大厦2楼(近大渡河路)"},{"poiid":"B2094757D66CA5FF479D","title":"宏康口腔治疗","lon":"121.3972516","lat":"31.2583611377","category":"162","category_name":"医院","address":"上海大渡河路1933号"},{"poiid":"B2094757D06BA1FE489F","title":"真北新村一街坊","lon":"121.397213776","lat":"31.2582428086","category":"252","category_name":"楼宇机构","address":"上海大渡河路2087弄"},{"poiid":"B2094757D068A3F5489E","title":"曹杨花苑","lon":"121.40144","lat":"31.258196","category":"47","category_name":"住宅区","address":"上海市普陀区芝川路138弄"},{"poiid":"B2094757D16BAAF8469C","title":"永琪桃浦旗舰店","lon":"121.39390795","lat":"31.2599083672","category":"148","category_name":"美容美发店","address":"上海桃浦路真北芝路路口"},{"poiid":"B2094757D464A0F5499C","title":"映像戴斯大酒店餐厅","lon":"121.39235","lat":"31.25751","category":"76","category_name":"上海菜","address":"普陀区真北路2022号(铜川路口)"},{"poiid":"B2094757D06BA5F8489B","title":"双孖府第","lon":"121.39732695","lat":"31.258344837","category":"47","category_name":"住宅区","address":"上海普陀区双孖路"},{"poiid":"B2094654D464AAF8439B","title":"可的(真如敬老院北)","lon":"121.39648","lat":"31.25918","category":"117","category_name":"便民商店/便利店","address":"普陀区大渡河路2126号(大渡河路桃浦路)"},{"poiid":"B2094654D464AAF84198","title":"上海第四十四机动车安全检测站","lon":"121.39799","lat":"31.26289","category":"250","category_name":"公园户外","address":"普陀区兰溪路1888号(近桃浦路)"},{"poiid":"B2094655D264AAFD4292","title":"真北新邨二街坊","lon":"121.3957","lat":"31.25932","category":"47","category_name":"住宅区","address":"桃浦路261弄1-17号"},{"poiid":"B2094757D569A3FB479C","title":"金鼎生活休闲街","lon":"121.39395612779","lat":"31.256152927438","category":"46","category_name":"楼宇","address":"上海市普陀区金鼎路380-396号"},{"poiid":"B2094757D06AA6FC4099","title":"上海市体育宫羽毛球场","lon":"121.396973151","lat":"31.2524595545","category":"220","category_name":"运动场所","address":"普陀区大渡河路1860号沪西体育宫内(近铜川路)"},{"poiid":"B2094757D164A3F94599","title":"普陀公安分局出入境管理处","lon":"121.397913139","lat":"31.2552812105","category":"500","category_name":"未知分类","address":"上海大渡河路1913号"},{"poiid":"B2094751D365A2FD429C","title":"大悦城","lon":"121.3950414","lat":"31.2569359","category":"500","category_name":"未知分类","address":"西藏北路"}]