[{"poiid":"B2094757D56DA4F9439D","title":"银乐迪","lon":"121.416022","lat":"31.254856","category":"248","category_name":"生活娱乐","address":"铜川路66号"},{"poiid":"B2094757D06FA2FF4098","title":"真如地铁站","lon":"121.407202","lat":"31.251089","category":"36","category_name":"地铁站","address":"上海轨道交通 十一号线 轨交真如站 11"},{"poiid":"B2094757D66EA7FB4498","title":"长征饭店","lon":"121.40305895","lat":"31.261562898","category":"76","category_name":"上海菜","address":"普陀区曹杨路2175号(近三源路)"},{"poiid":"B2094757D06FA3F8419D","title":"真如西村","lon":"121.406","lat":"31.2507","category":"47","category_name":"住宅区","address":"上海普陀区大渡河路北石路"},{"poiid":"B2094757D06FA1F5469B","title":"金盛国际家居(铜川路店)","lon":"121.417231","lat":"31.252637","category":"123","category_name":"家具建材市场","address":"普陀区铜川路185号(近岚皋路)"},{"poiid":"B2094757D06FA0FE439D","title":"中浩云花园","lon":"121.41626","lat":"31.262239","category":"47","category_name":"住宅区","address":"普陀区交通路3107号"},{"poiid":"B2094757DB6CAAF84592","title":"哈米儿童畅想小镇","lon":"121.4145473082891","lat":"31.25726952023632","category":"248","category_name":"生活娱乐","address":"铜川路68号"},{"poiid":"B2094654D56BA3F84698","title":"真如古镇","lon":"121.408872","lat":"31.251409","category":"250","category_name":"公园户外","address":"兰溪路209弄"},{"poiid":"B2094750D664ABFE4292","title":"重庆德庄火锅(曹杨路店)","lon":"121.405","lat":"31.2599","category":"86","category_name":"火锅店","address":"普陀区曹杨路2212号仙乐都生活广场2楼(三源路路口)"},{"poiid":"B2094757D06EAAFE439E","title":"上海西站地铁站","lon":"121.4035539","lat":"31.262408391","category":"36","category_name":"地铁站","address":"上海轨道交通 十一号线 轨交上海西站站 11"},{"poiid":"B2094750D26CA4FB4993","title":"costa（品尊店）","lon":"121.4140471","lat":"31.2568432","category":"247","category_name":"餐饮美食","address":"普陀区铜川路68号弘基时尚生活中心106室(近府村路)"},{"poiid":"B2094757D06AABFF4799","title":"巴黎贝甜(曹杨路店)","lon":"121.40394395","lat":"31.2600498699","category":"67","category_name":"甜品店","address":"普陀区曹杨路2212号(近三源路)"},{"poiid":"B2094757D069A0F5429D","title":"顺煊靓汤海鲜","lon":"121.40796","lat":"31.259","category":"72","category_name":"广东菜","address":"普陀区潮州路508号(近曹杨路)"},{"poiid":"B2094654D464AAFF4192","title":"曹杨五月天","lon":"121.408","lat":"31.26059","category":"47","category_name":"住宅区","address":"上海三源路41弄"},{"poiid":"B2094757D169A2FE419E","title":"铜川路岚皋路","lon":"121.41777695","lat":"31.2550817751","category":"500","category_name":"未知分类","address":"上海市普陀区铜川路岚皋路"},{"poiid":"B2094654D464AAFE499D","title":"恒力锦沧花园","lon":"121.40666","lat":"31.259937","category":"47","category_name":"住宅区","address":"上海市曹杨路2170弄"},{"poiid":"B2094757D06AA7FA499A","title":"金明大酒店","lon":"121.405516043","lat":"31.257940521","category":"217","category_name":"旅馆招待所","address":"上海普陀区曹杨路2088号(近芝川路))"},{"poiid":"B2094757D069A2FE4993","title":"普陀公安分局交警支队","lon":"121.417973768","lat":"31.2557047464","category":"250","category_name":"公园户外","address":"上海府村路125号"},{"poiid":"B2094757D06FA2FE419E","title":"农行信用卡客户服务中心","lon":"121.404226991","lat":"31.2599336131","category":"46","category_name":"楼宇","address":"上海市普陀区曹杨路2211号"},{"poiid":"B2094757D06FABFD479F","title":"岚皋馨苑","lon":"121.41546","lat":"31.254305","category":"47","category_name":"住宅区","address":"上海市宝山区行知路50弄"},{"poiid":"B2094757D06BAAFB4298","title":"芝川路曹杨路","lon":"121.40447295","lat":"31.258223835","category":"500","category_name":"未知分类","address":"上海市普陀区"},{"poiid":"B2094654D464AAFE4593","title":"进华中学","lon":"121.40894","lat":"31.26481","category":"55","category_name":"中学","address":"上海市普陀区富平路657弄91号"},{"poiid":"B2094757D66EA5FF4492","title":"农行培训中心","lon":"121.40480295","lat":"31.2587208446","category":"253","category_name":"校园生活","address":"上海曹杨路1329号"},{"poiid":"B2094757D16DA7FF439B","title":"曹杨路铜川路","lon":"121.40696345","lat":"31.25062539","category":"500","category_name":"未知分类","address":"上海曹杨路铜川路"},{"poiid":"B2094655D26CA0FE4198","title":"香泉小区","lon":"121.4121","lat":"31.263485","category":"47","category_name":"住宅区","address":"香泉路85弄1-109号"},{"poiid":"B2094654DB69A0FB439A","title":"金明大酒店餐厅","lon":"121.40477233122","lat":"31.259109861248","category":"76","category_name":"上海菜","address":"普陀区曹杨路2088号(近潮州路)"},{"poiid":"B2094654D465A3FC439A","title":"水塘小区","lon":"121.406","lat":"31.2564","category":"47","category_name":"住宅区","address":"铜川路175弄1-61号"},{"poiid":"B2094757D06FA4FD469E","title":"中友大厦","lon":"121.416","lat":"31.2509","category":"46","category_name":"楼宇","address":"上海普陀区曹杨路1040弄1号"},{"poiid":"B2094655D36DA6FF4192","title":"真如","lon":"121.4072","lat":"31.2511","category":"38","category_name":"公交车站","address":""},{"poiid":"B2094655D265A2FE409D","title":"长江实业办公楼","lon":"121.40907","lat":"31.25472","category":"46","category_name":"楼宇","address":"曹杨路1560"},{"poiid":"B2094757D168A0FE469E","title":"第二十四机动车检测中心","lon":"121.414619446","lat":"31.2593536377","category":"500","category_name":"未知分类","address":"上海府村路409号"},{"poiid":"B2094757D06AA0FC4699","title":"金纺苑","lon":"121.40601","lat":"31.25915","category":"500","category_name":"未知分类","address":"上海市普陀区曹杨路2168弄"},{"poiid":"B2094752D16FA2FB4498","title":"中环百联","lon":"121.413684","lat":"31.257346","category":"247","category_name":"餐饮美食","address":"真光路1288号百联中环4楼近梅川路"},{"poiid":"B2094654D465A2F94992","title":"市政馨苑","lon":"121.41392","lat":"31.253273","category":"47","category_name":"住宅区","address":"联谊西康大厦位于静安西康路578号"},{"poiid":"B2094752D165A7F9439A","title":"武宁路  我格广场","lon":"121.412871","lat":"31.256013","category":"500","category_name":"未知分类","address":"武宁路55号"},{"poiid":"B2094655D26BA7FA4093","title":"月记商务楼","lon":"121.40898","lat":"31.25977","category":"46","category_name":"楼宇","address":"潮州路508号"},{"poiid":"B2094655D265A2FE4092","title":"普陀真如副中心","lon":"121.40794","lat":"31.25377","category":"46","category_name":"楼宇","address":""},{"poiid":"B2094654D464AAFF459A","title":"曹杨新苑","lon":"121.405","lat":"31.261202","category":"47","category_name":"住宅区","address":"曹杨新苑(曹杨五月天)位于普陀曹杨路2288号"},{"poiid":"B2094654D464AAFA4999","title":"绿翡翠家园","lon":"121.40497","lat":"31.255423","category":"47","category_name":"住宅区","address":"上海普陀区曹杨路2001弄"},{"poiid":"B2094757D16EA5FD4793","title":"中铁快运上海分拨中心","lon":"121.41214115","lat":"31.2573033175","category":"500","category_name":"未知分类","address":"上海府村路255号107库"},{"poiid":"B2094752D465A2FB4593","title":"COSTA","lon":"121.414363","lat":"31.256832","category":"247","category_name":"餐饮美食","address":"弘基.时尚生活中心"},{"poiid":"B2094757D76AA1FE419F","title":"重庆周氏麻辣烫 芝川路店","lon":"121.404194","lat":"31.258205","category":"68","category_name":"快餐厅","address":"普陀区芝川路38号(近曹杨路)"},{"poiid":"B2094752D765A2FA459F","title":"顾村公园","lon":"121.414461","lat":"31.252933","category":"196","category_name":"公园","address":null},{"poiid":"B2094757D165A1FE4993","title":"重庆鸡公煲 芝川路店","lon":"121.403753054","lat":"31.259234793","category":"71","category_name":"四川菜","address":"普陀区芝川路80号(近曹杨路)"},{"poiid":"B2094654D464AAFA479D","title":"曹杨家园","lon":"121.40366","lat":"31.258814","category":"47","category_name":"住宅区","address":"上海市普陀区曹杨路1559号"},{"poiid":"B2094654DB6AABFA4399","title":"快客超市NO.0516","lon":"121.41377","lat":"31.25967","category":"117","category_name":"便民商店/便利店","address":""},{"poiid":"B2094655D26BA5FC439E","title":"品月公寓","lon":"121.41433","lat":"31.25983","category":"47","category_name":"住宅区","address":"府村路400号"},{"poiid":"B2094655D265A2FE4093","title":"普陀真如副中心(西二门)","lon":"121.40677","lat":"31.25372","category":"46","category_name":"楼宇","address":"曹杨路1560号"},{"poiid":"B2094757D568A7FE499D","title":"中环家园二期","lon":"121.41336","lat":"31.26318","category":"47","category_name":"住宅区","address":"上海市普陀区新村路1388弄"},{"poiid":"B2094655D265A2FE409C","title":"普陀真如副中心(西一门)","lon":"121.4069","lat":"31.25318","category":"46","category_name":"楼宇","address":""},{"poiid":"B2094757D56DA4F9439D","title":"银乐迪","lon":"121.416022","lat":"31.254856","category":"248","category_name":"生活娱乐","address":"铜川路66号"},{"poiid":"B2094757D06FA2FF4098","title":"真如地铁站","lon":"121.407202","lat":"31.251089","category":"36","category_name":"地铁站","address":"上海轨道交通 十一号线 轨交真如站 11"},{"poiid":"B2094757D66EA7FB4498","title":"长征饭店","lon":"121.40305895","lat":"31.261562898","category":"76","category_name":"上海菜","address":"普陀区曹杨路2175号(近三源路)"},{"poiid":"B2094757D06FA3F8419D","title":"真如西村","lon":"121.406","lat":"31.2507","category":"47","category_name":"住宅区","address":"上海普陀区大渡河路北石路"},{"poiid":"B2094757D06FA1F5469B","title":"金盛国际家居(铜川路店)","lon":"121.417231","lat":"31.252637","category":"123","category_name":"家具建材市场","address":"普陀区铜川路185号(近岚皋路)"},{"poiid":"B2094757D06FA0FE439D","title":"中浩云花园","lon":"121.41626","lat":"31.262239","category":"47","category_name":"住宅区","address":"普陀区交通路3107号"},{"poiid":"B2094757DB6CAAF84592","title":"哈米儿童畅想小镇","lon":"121.4145473082891","lat":"31.25726952023632","category":"248","category_name":"生活娱乐","address":"铜川路68号"},{"poiid":"B2094654D56BA3F84698","title":"真如古镇","lon":"121.408872","lat":"31.251409","category":"250","category_name":"公园户外","address":"兰溪路209弄"},{"poiid":"B2094750D664ABFE4292","title":"重庆德庄火锅(曹杨路店)","lon":"121.405","lat":"31.2599","category":"86","category_name":"火锅店","address":"普陀区曹杨路2212号仙乐都生活广场2楼(三源路路口)"},{"poiid":"B2094757D06EAAFE439E","title":"上海西站地铁站","lon":"121.4035539","lat":"31.262408391","category":"36","category_name":"地铁站","address":"上海轨道交通 十一号线 轨交上海西站站 11"},{"poiid":"B2094750D26CA4FB4993","title":"costa（品尊店）","lon":"121.4140471","lat":"31.2568432","category":"247","category_name":"餐饮美食","address":"普陀区铜川路68号弘基时尚生活中心106室(近府村路)"},{"poiid":"B2094757D06AABFF4799","title":"巴黎贝甜(曹杨路店)","lon":"121.40394395","lat":"31.2600498699","category":"67","category_name":"甜品店","address":"普陀区曹杨路2212号(近三源路)"},{"poiid":"B2094757D069A0F5429D","title":"顺煊靓汤海鲜","lon":"121.40796","lat":"31.259","category":"72","category_name":"广东菜","address":"普陀区潮州路508号(近曹杨路)"},{"poiid":"B2094654D464AAFF4192","title":"曹杨五月天","lon":"121.408","lat":"31.26059","category":"47","category_name":"住宅区","address":"上海三源路41弄"},{"poiid":"B2094757D169A2FE419E","title":"铜川路岚皋路","lon":"121.41777695","lat":"31.2550817751","category":"500","category_name":"未知分类","address":"上海市普陀区铜川路岚皋路"},{"poiid":"B2094654D464AAFE499D","title":"恒力锦沧花园","lon":"121.40666","lat":"31.259937","category":"47","category_name":"住宅区","address":"上海市曹杨路2170弄"},{"poiid":"B2094757D06AA7FA499A","title":"金明大酒店","lon":"121.405516043","lat":"31.257940521","category":"217","category_name":"旅馆招待所","address":"上海普陀区曹杨路2088号(近芝川路))"},{"poiid":"B2094757D069A2FE4993","title":"普陀公安分局交警支队","lon":"121.417973768","lat":"31.2557047464","category":"250","category_name":"公园户外","address":"上海府村路125号"},{"poiid":"B2094757D06FA2FE419E","title":"农行信用卡客户服务中心","lon":"121.404226991","lat":"31.2599336131","category":"46","category_name":"楼宇","address":"上海市普陀区曹杨路2211号"},{"poiid":"B2094757D06FABFD479F","title":"岚皋馨苑","lon":"121.41546","lat":"31.254305","category":"47","category_name":"住宅区","address":"上海市宝山区行知路50弄"},{"poiid":"B2094757D06BAAFB4298","title":"芝川路曹杨路","lon":"121.40447295","lat":"31.258223835","category":"500","category_name":"未知分类","address":"上海市普陀区"},{"poiid":"B2094654D464AAFE4593","title":"进华中学","lon":"121.40894","lat":"31.26481","category":"55","category_name":"中学","address":"上海市普陀区富平路657弄91号"},{"poiid":"B2094757D66EA5FF4492","title":"农行培训中心","lon":"121.40480295","lat":"31.2587208446","category":"253","category_name":"校园生活","address":"上海曹杨路1329号"},{"poiid":"B2094757D16DA7FF439B","title":"曹杨路铜川路","lon":"121.40696345","lat":"31.25062539","category":"500","category_name":"未知分类","address":"上海曹杨路铜川路"},{"poiid":"B2094655D26CA0FE4198","title":"香泉小区","lon":"121.4121","lat":"31.263485","category":"47","category_name":"住宅区","address":"香泉路85弄1-109号"},{"poiid":"B2094654DB69A0FB439A","title":"金明大酒店餐厅","lon":"121.40477233122","lat":"31.259109861248","category":"76","category_name":"上海菜","address":"普陀区曹杨路2088号(近潮州路)"},{"poiid":"B2094654D465A3FC439A","title":"水塘小区","lon":"121.406","lat":"31.2564","category":"47","category_name":"住宅区","address":"铜川路175弄1-61号"},{"poiid":"B2094757D06FA4FD469E","title":"中友大厦","lon":"121.416","lat":"31.2509","category":"46","category_name":"楼宇","address":"上海普陀区曹杨路1040弄1号"},{"poiid":"B2094655D36DA6FF4192","title":"真如","lon":"121.4072","lat":"31.2511","category":"38","category_name":"公交车站","address":""},{"poiid":"B2094655D265A2FE409D","title":"长江实业办公楼","lon":"121.40907","lat":"31.25472","category":"46","category_name":"楼宇","address":"曹杨路1560"},{"poiid":"B2094757D168A0FE469E","title":"第二十四机动车检测中心","lon":"121.414619446","lat":"31.2593536377","category":"500","category_name":"未知分类","address":"上海府村路409号"},{"poiid":"B2094757D06AA0FC4699","title":"金纺苑","lon":"121.40601","lat":"31.25915","category":"500","category_name":"未知分类","address":"上海市普陀区曹杨路2168弄"},{"poiid":"B2094752D16FA2FB4498","title":"中环百联","lon":"121.413684","lat":"31.257346","category":"247","category_name":"餐饮美食","address":"真光路1288号百联中环4楼近梅川路"},{"poiid":"B2094654D465A2F94992","title":"市政馨苑","lon":"121.41392","lat":"31.253273","category":"47","category_name":"住宅区","address":"联谊西康大厦位于静安西康路578号"},{"poiid":"B2094752D165A7F9439A","title":"武宁路  我格广场","lon":"121.412871","lat":"31.256013","category":"500","category_name":"未知分类","address":"武宁路55号"},{"poiid":"B2094655D26BA7FA4093","title":"月记商务楼","lon":"121.40898","lat":"31.25977","category":"46","category_name":"楼宇","address":"潮州路508号"},{"poiid":"B2094655D265A2FE4092","title":"普陀真如副中心","lon":"121.40794","lat":"31.25377","category":"46","category_name":"楼宇","address":""},{"poiid":"B2094654D464AAFF459A","title":"曹杨新苑","lon":"121.405","lat":"31.261202","category":"47","category_name":"住宅区","address":"曹杨新苑(曹杨五月天)位于普陀曹杨路2288号"},{"poiid":"B2094654D464AAFA4999","title":"绿翡翠家园","lon":"121.40497","lat":"31.255423","category":"47","category_name":"住宅区","address":"上海普陀区曹杨路2001弄"},{"poiid":"B2094757D16EA5FD4793","title":"中铁快运上海分拨中心","lon":"121.41214115","lat":"31.2573033175","category":"500","category_name":"未知分类","address":"上海府村路255号107库"},{"poiid":"B2094752D465A2FB4593","title":"COSTA","lon":"121.414363","lat":"31.256832","category":"247","category_name":"餐饮美食","address":"弘基.时尚生活中心"},{"poiid":"B2094757D76AA1FE419F","title":"重庆周氏麻辣烫 芝川路店","lon":"121.404194","lat":"31.258205","category":"68","category_name":"快餐厅","address":"普陀区芝川路38号(近曹杨路)"},{"poiid":"B2094752D765A2FA459F","title":"顾村公园","lon":"121.414461","lat":"31.252933","category":"196","category_name":"公园","address":null},{"poiid":"B2094757D165A1FE4993","title":"重庆鸡公煲 芝川路店","lon":"121.403753054","lat":"31.259234793","category":"71","category_name":"四川菜","address":"普陀区芝川路80号(近曹杨路)"},{"poiid":"B2094654D464AAFA479D","title":"曹杨家园","lon":"121.40366","lat":"31.258814","category":"47","category_name":"住宅区","address":"上海市普陀区曹杨路1559号"},{"poiid":"B2094654DB6AABFA4399","title":"快客超市NO.0516","lon":"121.41377","lat":"31.25967","category":"117","category_name":"便民商店/便利店","address":""},{"poiid":"B2094655D26BA5FC439E","title":"品月公寓","lon":"121.41433","lat":"31.25983","category":"47","category_name":"住宅区","address":"府村路400号"},{"poiid":"B2094655D265A2FE4093","title":"普陀真如副中心(西二门)","lon":"121.40677","lat":"31.25372","category":"46","category_name":"楼宇","address":"曹杨路1560号"},{"poiid":"B2094757D568A7FE499D","title":"中环家园二期","lon":"121.41336","lat":"31.26318","category":"47","category_name":"住宅区","address":"上海市普陀区新村路1388弄"},{"poiid":"B2094655D265A2FE409C","title":"普陀真如副中心(西一门)","lon":"121.4069","lat":"31.25318","category":"46","category_name":"楼宇","address":""},{"poiid":"B2094757D56DA4F9439D","title":"银乐迪","lon":"121.416022","lat":"31.254856","category":"248","category_name":"生活娱乐","address":"铜川路66号"},{"poiid":"B2094757D06FA2FF4098","title":"真如地铁站","lon":"121.407202","lat":"31.251089","category":"36","category_name":"地铁站","address":"上海轨道交通 十一号线 轨交真如站 11"},{"poiid":"B2094757D66EA7FB4498","title":"长征饭店","lon":"121.40305895","lat":"31.261562898","category":"76","category_name":"上海菜","address":"普陀区曹杨路2175号(近三源路)"},{"poiid":"B2094757D06FA3F8419D","title":"真如西村","lon":"121.406","lat":"31.2507","category":"47","category_name":"住宅区","address":"上海普陀区大渡河路北石路"},{"poiid":"B2094757D06FA1F5469B","title":"金盛国际家居(铜川路店)","lon":"121.417231","lat":"31.252637","category":"123","category_name":"家具建材市场","address":"普陀区铜川路185号(近岚皋路)"},{"poiid":"B2094757D06FA0FE439D","title":"中浩云花园","lon":"121.41626","lat":"31.262239","category":"47","category_name":"住宅区","address":"普陀区交通路3107号"},{"poiid":"B2094757DB6CAAF84592","title":"哈米儿童畅想小镇","lon":"121.4145473082891","lat":"31.25726952023632","category":"248","category_name":"生活娱乐","address":"铜川路68号"},{"poiid":"B2094654D56BA3F84698","title":"真如古镇","lon":"121.408872","lat":"31.251409","category":"250","category_name":"公园户外","address":"兰溪路209弄"},{"poiid":"B2094750D664ABFE4292","title":"重庆德庄火锅(曹杨路店)","lon":"121.405","lat":"31.2599","category":"86","category_name":"火锅店","address":"普陀区曹杨路2212号仙乐都生活广场2楼(三源路路口)"},{"poiid":"B2094757D06EAAFE439E","title":"上海西站地铁站","lon":"121.4035539","lat":"31.262408391","category":"36","category_name":"地铁站","address":"上海轨道交通 十一号线 轨交上海西站站 11"},{"poiid":"B2094750D26CA4FB4993","title":"costa（品尊店）","lon":"121.4140471","lat":"31.2568432","category":"247","category_name":"餐饮美食","address":"普陀区铜川路68号弘基时尚生活中心106室(近府村路)"},{"poiid":"B2094757D06AABFF4799","title":"巴黎贝甜(曹杨路店)","lon":"121.40394395","lat":"31.2600498699","category":"67","category_name":"甜品店","address":"普陀区曹杨路2212号(近三源路)"},{"poiid":"B2094757D069A0F5429D","title":"顺煊靓汤海鲜","lon":"121.40796","lat":"31.259","category":"72","category_name":"广东菜","address":"普陀区潮州路508号(近曹杨路)"},{"poiid":"B2094654D464AAFF4192","title":"曹杨五月天","lon":"121.408","lat":"31.26059","category":"47","category_name":"住宅区","address":"上海三源路41弄"},{"poiid":"B2094757D169A2FE419E","title":"铜川路岚皋路","lon":"121.41777695","lat":"31.2550817751","category":"500","category_name":"未知分类","address":"上海市普陀区铜川路岚皋路"},{"poiid":"B2094654D464AAFE499D","title":"恒力锦沧花园","lon":"121.40666","lat":"31.259937","category":"47","category_name":"住宅区","address":"上海市曹杨路2170弄"},{"poiid":"B2094757D06AA7FA499A","title":"金明大酒店","lon":"121.405516043","lat":"31.257940521","category":"217","category_name":"旅馆招待所","address":"上海普陀区曹杨路2088号(近芝川路))"},{"poiid":"B2094757D069A2FE4993","title":"普陀公安分局交警支队","lon":"121.417973768","lat":"31.2557047464","category":"250","category_name":"公园户外","address":"上海府村路125号"},{"poiid":"B2094757D06FA2FE419E","title":"农行信用卡客户服务中心","lon":"121.404226991","lat":"31.2599336131","category":"46","category_name":"楼宇","address":"上海市普陀区曹杨路2211号"},{"poiid":"B2094757D06FABFD479F","title":"岚皋馨苑","lon":"121.41546","lat":"31.254305","category":"47","category_name":"住宅区","address":"上海市宝山区行知路50弄"},{"poiid":"B2094757D06BAAFB4298","title":"芝川路曹杨路","lon":"121.40447295","lat":"31.258223835","category":"500","category_name":"未知分类","address":"上海市普陀区"},{"poiid":"B2094654D464AAFE4593","title":"进华中学","lon":"121.40894","lat":"31.26481","category":"55","category_name":"中学","address":"上海市普陀区富平路657弄91号"},{"poiid":"B2094757D66EA5FF4492","title":"农行培训中心","lon":"121.40480295","lat":"31.2587208446","category":"253","category_name":"校园生活","address":"上海曹杨路1329号"},{"poiid":"B2094757D16DA7FF439B","title":"曹杨路铜川路","lon":"121.40696345","lat":"31.25062539","category":"500","category_name":"未知分类","address":"上海曹杨路铜川路"},{"poiid":"B2094655D26CA0FE4198","title":"香泉小区","lon":"121.4121","lat":"31.263485","category":"47","category_name":"住宅区","address":"香泉路85弄1-109号"},{"poiid":"B2094654DB69A0FB439A","title":"金明大酒店餐厅","lon":"121.40477233122","lat":"31.259109861248","category":"76","category_name":"上海菜","address":"普陀区曹杨路2088号(近潮州路)"},{"poiid":"B2094654D465A3FC439A","title":"水塘小区","lon":"121.406","lat":"31.2564","category":"47","category_name":"住宅区","address":"铜川路175弄1-61号"},{"poiid":"B2094757D06FA4FD469E","title":"中友大厦","lon":"121.416","lat":"31.2509","category":"46","category_name":"楼宇","address":"上海普陀区曹杨路1040弄1号"},{"poiid":"B2094655D36DA6FF4192","title":"真如","lon":"121.4072","lat":"31.2511","category":"38","category_name":"公交车站","address":""},{"poiid":"B2094655D265A2FE409D","title":"长江实业办公楼","lon":"121.40907","lat":"31.25472","category":"46","category_name":"楼宇","address":"曹杨路1560"},{"poiid":"B2094757D168A0FE469E","title":"第二十四机动车检测中心","lon":"121.414619446","lat":"31.2593536377","category":"500","category_name":"未知分类","address":"上海府村路409号"},{"poiid":"B2094757D06AA0FC4699","title":"金纺苑","lon":"121.40601","lat":"31.25915","category":"500","category_name":"未知分类","address":"上海市普陀区曹杨路2168弄"},{"poiid":"B2094752D16FA2FB4498","title":"中环百联","lon":"121.413684","lat":"31.257346","category":"247","category_name":"餐饮美食","address":"真光路1288号百联中环4楼近梅川路"},{"poiid":"B2094654D465A2F94992","title":"市政馨苑","lon":"121.41392","lat":"31.253273","category":"47","category_name":"住宅区","address":"联谊西康大厦位于静安西康路578号"},{"poiid":"B2094752D165A7F9439A","title":"武宁路  我格广场","lon":"121.412871","lat":"31.256013","category":"500","category_name":"未知分类","address":"武宁路55号"},{"poiid":"B2094655D26BA7FA4093","title":"月记商务楼","lon":"121.40898","lat":"31.25977","category":"46","category_name":"楼宇","address":"潮州路508号"},{"poiid":"B2094655D265A2FE4092","title":"普陀真如副中心","lon":"121.40794","lat":"31.25377","category":"46","category_name":"楼宇","address":""},{"poiid":"B2094654D464AAFF459A","title":"曹杨新苑","lon":"121.405","lat":"31.261202","category":"47","category_name":"住宅区","address":"曹杨新苑(曹杨五月天)位于普陀曹杨路2288号"},{"poiid":"B2094654D464AAFA4999","title":"绿翡翠家园","lon":"121.40497","lat":"31.255423","category":"47","category_name":"住宅区","address":"上海普陀区曹杨路2001弄"},{"poiid":"B2094757D16EA5FD4793","title":"中铁快运上海分拨中心","lon":"121.41214115","lat":"31.2573033175","category":"500","category_name":"未知分类","address":"上海府村路255号107库"},{"poiid":"B2094752D465A2FB4593","title":"COSTA","lon":"121.414363","lat":"31.256832","category":"247","category_name":"餐饮美食","address":"弘基.时尚生活中心"},{"poiid":"B2094757D76AA1FE419F","title":"重庆周氏麻辣烫 芝川路店","lon":"121.404194","lat":"31.258205","category":"68","category_name":"快餐厅","address":"普陀区芝川路38号(近曹杨路)"},{"poiid":"B2094752D765A2FA459F","title":"顾村公园","lon":"121.414461","lat":"31.252933","category":"196","category_name":"公园","address":null},{"poiid":"B2094757D165A1FE4993","title":"重庆鸡公煲 芝川路店","lon":"121.403753054","lat":"31.259234793","category":"71","category_name":"四川菜","address":"普陀区芝川路80号(近曹杨路)"},{"poiid":"B2094654D464AAFA479D","title":"曹杨家园","lon":"121.40366","lat":"31.258814","category":"47","category_name":"住宅区","address":"上海市普陀区曹杨路1559号"},{"poiid":"B2094654DB6AABFA4399","title":"快客超市NO.0516","lon":"121.41377","lat":"31.25967","category":"117","category_name":"便民商店/便利店","address":""},{"poiid":"B2094655D26BA5FC439E","title":"品月公寓","lon":"121.41433","lat":"31.25983","category":"47","category_name":"住宅区","address":"府村路400号"},{"poiid":"B2094655D265A2FE4093","title":"普陀真如副中心(西二门)","lon":"121.40677","lat":"31.25372","category":"46","category_name":"楼宇","address":"曹杨路1560号"},{"poiid":"B2094757D568A7FE499D","title":"中环家园二期","lon":"121.41336","lat":"31.26318","category":"47","category_name":"住宅区","address":"上海市普陀区新村路1388弄"},{"poiid":"B2094655D265A2FE409C","title":"普陀真如副中心(西一门)","lon":"121.4069","lat":"31.25318","category":"46","category_name":"楼宇","address":""},{"poiid":"B2094757D56DA4F9439D","title":"银乐迪","lon":"121.416022","lat":"31.254856","category":"248","category_name":"生活娱乐","address":"铜川路66号"},{"poiid":"B2094757D06FA2FF4098","title":"真如地铁站","lon":"121.407202","lat":"31.251089","category":"36","category_name":"地铁站","address":"上海轨道交通 十一号线 轨交真如站 11"},{"poiid":"B2094757D66EA7FB4498","title":"长征饭店","lon":"121.40305895","lat":"31.261562898","category":"76","category_name":"上海菜","address":"普陀区曹杨路2175号(近三源路)"},{"poiid":"B2094757D06FA3F8419D","title":"真如西村","lon":"121.406","lat":"31.2507","category":"47","category_name":"住宅区","address":"上海普陀区大渡河路北石路"},{"poiid":"B2094757D06FA1F5469B","title":"金盛国际家居(铜川路店)","lon":"121.417231","lat":"31.252637","category":"123","category_name":"家具建材市场","address":"普陀区铜川路185号(近岚皋路)"},{"poiid":"B2094757D06FA0FE439D","title":"中浩云花园","lon":"121.41626","lat":"31.262239","category":"47","category_name":"住宅区","address":"普陀区交通路3107号"},{"poiid":"B2094757DB6CAAF84592","title":"哈米儿童畅想小镇","lon":"121.4145473082891","lat":"31.25726952023632","category":"248","category_name":"生活娱乐","address":"铜川路68号"},{"poiid":"B2094654D56BA3F84698","title":"真如古镇","lon":"121.408872","lat":"31.251409","category":"250","category_name":"公园户外","address":"兰溪路209弄"},{"poiid":"B2094750D664ABFE4292","title":"重庆德庄火锅(曹杨路店)","lon":"121.405","lat":"31.2599","category":"86","category_name":"火锅店","address":"普陀区曹杨路2212号仙乐都生活广场2楼(三源路路口)"},{"poiid":"B2094757D06EAAFE439E","title":"上海西站地铁站","lon":"121.4035539","lat":"31.262408391","category":"36","category_name":"地铁站","address":"上海轨道交通 十一号线 轨交上海西站站 11"},{"poiid":"B2094750D26CA4FB4993","title":"costa（品尊店）","lon":"121.4140471","lat":"31.2568432","category":"247","category_name":"餐饮美食","address":"普陀区铜川路68号弘基时尚生活中心106室(近府村路)"},{"poiid":"B2094757D06AABFF4799","title":"巴黎贝甜(曹杨路店)","lon":"121.40394395","lat":"31.2600498699","category":"67","category_name":"甜品店","address":"普陀区曹杨路2212号(近三源路)"},{"poiid":"B2094757D069A0F5429D","title":"顺煊靓汤海鲜","lon":"121.40796","lat":"31.259","category":"72","category_name":"广东菜","address":"普陀区潮州路508号(近曹杨路)"},{"poiid":"B2094654D464AAFF4192","title":"曹杨五月天","lon":"121.408","lat":"31.26059","category":"47","category_name":"住宅区","address":"上海三源路41弄"},{"poiid":"B2094757D169A2FE419E","title":"铜川路岚皋路","lon":"121.41777695","lat":"31.2550817751","category":"500","category_name":"未知分类","address":"上海市普陀区铜川路岚皋路"},{"poiid":"B2094654D464AAFE499D","title":"恒力锦沧花园","lon":"121.40666","lat":"31.259937","category":"47","category_name":"住宅区","address":"上海市曹杨路2170弄"},{"poiid":"B2094757D06AA7FA499A","title":"金明大酒店","lon":"121.405516043","lat":"31.257940521","category":"217","category_name":"旅馆招待所","address":"上海普陀区曹杨路2088号(近芝川路))"},{"poiid":"B2094757D069A2FE4993","title":"普陀公安分局交警支队","lon":"121.417973768","lat":"31.2557047464","category":"250","category_name":"公园户外","address":"上海府村路125号"},{"poiid":"B2094757D06FA2FE419E","title":"农行信用卡客户服务中心","lon":"121.404226991","lat":"31.2599336131","category":"46","category_name":"楼宇","address":"上海市普陀区曹杨路2211号"},{"poiid":"B2094757D06FABFD479F","title":"岚皋馨苑","lon":"121.41546","lat":"31.254305","category":"47","category_name":"住宅区","address":"上海市宝山区行知路50弄"},{"poiid":"B2094757D06BAAFB4298","title":"芝川路曹杨路","lon":"121.40447295","lat":"31.258223835","category":"500","category_name":"未知分类","address":"上海市普陀区"},{"poiid":"B2094654D464AAFE4593","title":"进华中学","lon":"121.40894","lat":"31.26481","category":"55","category_name":"中学","address":"上海市普陀区富平路657弄91号"},{"poiid":"B2094757D66EA5FF4492","title":"农行培训中心","lon":"121.40480295","lat":"31.2587208446","category":"253","category_name":"校园生活","address":"上海曹杨路1329号"},{"poiid":"B2094757D16DA7FF439B","title":"曹杨路铜川路","lon":"121.40696345","lat":"31.25062539","category":"500","category_name":"未知分类","address":"上海曹杨路铜川路"},{"poiid":"B2094655D26CA0FE4198","title":"香泉小区","lon":"121.4121","lat":"31.263485","category":"47","category_name":"住宅区","address":"香泉路85弄1-109号"},{"poiid":"B2094654DB69A0FB439A","title":"金明大酒店餐厅","lon":"121.40477233122","lat":"31.259109861248","category":"76","category_name":"上海菜","address":"普陀区曹杨路2088号(近潮州路)"},{"poiid":"B2094654D465A3FC439A","title":"水塘小区","lon":"121.406","lat":"31.2564","category":"47","category_name":"住宅区","address":"铜川路175弄1-61号"},{"poiid":"B2094757D06FA4FD469E","title":"中友大厦","lon":"121.416","lat":"31.2509","category":"46","category_name":"楼宇","address":"上海普陀区曹杨路1040弄1号"},{"poiid":"B2094655D36DA6FF4192","title":"真如","lon":"121.4072","lat":"31.2511","category":"38","category_name":"公交车站","address":""},{"poiid":"B2094655D265A2FE409D","title":"长江实业办公楼","lon":"121.40907","lat":"31.25472","category":"46","category_name":"楼宇","address":"曹杨路1560"},{"poiid":"B2094757D168A0FE469E","title":"第二十四机动车检测中心","lon":"121.414619446","lat":"31.2593536377","category":"500","category_name":"未知分类","address":"上海府村路409号"},{"poiid":"B2094757D06AA0FC4699","title":"金纺苑","lon":"121.40601","lat":"31.25915","category":"500","category_name":"未知分类","address":"上海市普陀区曹杨路2168弄"},{"poiid":"B2094752D16FA2FB4498","title":"中环百联","lon":"121.413684","lat":"31.257346","category":"247","category_name":"餐饮美食","address":"真光路1288号百联中环4楼近梅川路"},{"poiid":"B2094654D465A2F94992","title":"市政馨苑","lon":"121.41392","lat":"31.253273","category":"47","category_name":"住宅区","address":"联谊西康大厦位于静安西康路578号"},{"poiid":"B2094752D165A7F9439A","title":"武宁路  我格广场","lon":"121.412871","lat":"31.256013","category":"500","category_name":"未知分类","address":"武宁路55号"},{"poiid":"B2094655D26BA7FA4093","title":"月记商务楼","lon":"121.40898","lat":"31.25977","category":"46","category_name":"楼宇","address":"潮州路508号"},{"poiid":"B2094655D265A2FE4092","title":"普陀真如副中心","lon":"121.40794","lat":"31.25377","category":"46","category_name":"楼宇","address":""},{"poiid":"B2094654D464AAFF459A","title":"曹杨新苑","lon":"121.405","lat":"31.261202","category":"47","category_name":"住宅区","address":"曹杨新苑(曹杨五月天)位于普陀曹杨路2288号"},{"poiid":"B2094654D464AAFA4999","title":"绿翡翠家园","lon":"121.40497","lat":"31.255423","category":"47","category_name":"住宅区","address":"上海普陀区曹杨路2001弄"},{"poiid":"B2094757D16EA5FD4793","title":"中铁快运上海分拨中心","lon":"121.41214115","lat":"31.2573033175","category":"500","category_name":"未知分类","address":"上海府村路255号107库"},{"poiid":"B2094752D465A2FB4593","title":"COSTA","lon":"121.414363","lat":"31.256832","category":"247","category_name":"餐饮美食","address":"弘基.时尚生活中心"},{"poiid":"B2094757D76AA1FE419F","title":"重庆周氏麻辣烫 芝川路店","lon":"121.404194","lat":"31.258205","category":"68","category_name":"快餐厅","address":"普陀区芝川路38号(近曹杨路)"},{"poiid":"B2094752D765A2FA459F","title":"顾村公园","lon":"121.414461","lat":"31.252933","category":"196","category_name":"公园","address":null},{"poiid":"B2094757D165A1FE4993","title":"重庆鸡公煲 芝川路店","lon":"121.403753054","lat":"31.259234793","category":"71","category_name":"四川菜","address":"普陀区芝川路80号(近曹杨路)"},{"poiid":"B2094654D464AAFA479D","title":"曹杨家园","lon":"121.40366","lat":"31.258814","category":"47","category_name":"住宅区","address":"上海市普陀区曹杨路1559号"},{"poiid":"B2094654DB6AABFA4399","title":"快客超市NO.0516","lon":"121.41377","lat":"31.25967","category":"117","category_name":"便民商店/便利店","address":""},{"poiid":"B2094655D26BA5FC439E","title":"品月公寓","lon":"121.41433","lat":"31.25983","category":"47","category_name":"住宅区","address":"府村路400号"},{"poiid":"B2094655D265A2FE4093","title":"普陀真如副中心(西二门)","lon":"121.40677","lat":"31.25372","category":"46","category_name":"楼宇","address":"曹杨路1560号"},{"poiid":"B2094757D568A7FE499D","title":"中环家园二期","lon":"121.41336","lat":"31.26318","category":"47","category_name":"住宅区","address":"上海市普陀区新村路1388弄"},{"poiid":"B2094655D265A2FE409C","title":"普陀真如副中心(西一门)","lon":"121.4069","lat":"31.25318","category":"46","category_name":"楼宇","address":""}]