[{"poiid":"B2094757D56DA4F9439D","title":"银乐迪","lon":"121.416022","lat":"31.254856","category":"248","category_name":"生活娱乐","address":"铜川路66号"},{"poiid":"B2094757D06FAAF9429E","title":"江苏饭店","lon":"121.41120158","lat":"31.246796755","category":"247","category_name":"餐饮美食","address":"普陀区普陀区武宁路888号(近中宁路)"},{"poiid":"B2094757D06FABFD4098","title":"曹杨路武宁路","lon":"121.40878673","lat":"31.245086773","category":"260","category_name":"其他","address":"上海十字路口"},{"poiid":"B2094757D06FA2FF4098","title":"真如地铁站","lon":"121.407202","lat":"31.251089","category":"36","category_name":"地铁站","address":"上海轨道交通 十一号线 轨交真如站 11"},{"poiid":"B2094757D06FA1F5469B","title":"金盛国际家居(铜川路店)","lon":"121.417231","lat":"31.252637","category":"123","category_name":"家具建材市场","address":"普陀区铜川路185号(近岚皋路)"},{"poiid":"B2094757D068A0F8469D","title":"金狮麟豪冠酒店","lon":"121.410437492","lat":"31.2447190276","category":"75","category_name":"浙江菜","address":"普陀区武宁路1047号(近曹杨路)"},{"poiid":"B2094757D06FAAF54799","title":"武宁公园","lon":"121.41519767","lat":"31.24542618","category":"196","category_name":"公园","address":"普陀区石泉路450号(近中宁路)"},{"poiid":"B2094654D56BA3F84698","title":"真如古镇","lon":"121.408872","lat":"31.251409","category":"250","category_name":"公园户外","address":"兰溪路209弄"},{"poiid":"B2094654DB6AA6F8409E","title":"上海港鸿大酒店","lon":"121.41536","lat":"31.24405","category":"215","category_name":"三星级宾馆","address":"上海市普陀区武宁路501号(近中山北路)"},{"poiid":"B2094757D16AABFC4298","title":"上海悦馨大酒店","lon":"121.413955586","lat":"31.2480587799","category":"76","category_name":"上海菜","address":"普陀区中宁路176号广西宾馆后侧"},{"poiid":"B2094757D169A2FE419E","title":"铜川路岚皋路","lon":"121.41777695","lat":"31.2550817751","category":"500","category_name":"未知分类","address":"上海市普陀区铜川路岚皋路"},{"poiid":"B2094654D56AAAFE469F","title":"上海市国家税务局车辆购置税曹杨征收所","lon":"121.41257","lat":"31.24795","category":"250","category_name":"公园户外","address":"武宁路"},{"poiid":"B2094757D06FA4FD469E","title":"中友大厦","lon":"121.416","lat":"31.2509","category":"46","category_name":"楼宇","address":"上海普陀区曹杨路1040弄1号"},{"poiid":"B2094757D068A5F9409D","title":"普陀区中医医院","lon":"121.4076828","lat":"31.2479404483","category":"162","category_name":"医院","address":"普陀区曹杨路1261号(近北石路)"},{"poiid":"B2094757D168ABFC4593","title":"劳动和社会保障局","lon":"121.410700386","lat":"31.2455235303","category":"500","category_name":"未知分类","address":"上海武宁路1036号"},{"poiid":"B2094757D06FA4FE489B","title":"中宁家园","lon":"121.41636","lat":"31.249048","category":"47","category_name":"住宅区","address":"上海市普陀区中宁路88弄"},{"poiid":"B2094654DB6BA0FB4792","title":"城市之家酒店(上海北海饭店)","lon":"121.40896","lat":"31.24598","category":"250","category_name":"公园户外","address":"上海普陀区武宁路1500号(近曹杨路口)"},{"poiid":"B2094757D06FABFD479F","title":"岚皋馨苑","lon":"121.41546","lat":"31.254305","category":"47","category_name":"住宅区","address":"上海市宝山区行知路50弄"},{"poiid":"B2094654D56AAAFD469F","title":"武宁长途汽车站","lon":"121.41323","lat":"31.24603","category":"35","category_name":"长途汽车站","address":"中宁路230"},{"poiid":"B2094750D76CA2FD4093","title":"沈家门兰嫂海鲜面(曹杨路店)","lon":"121.409","lat":"31.2456","category":"68","category_name":"快餐厅","address":"普陀区武宁路1071号(曹杨路武宁路口)"},{"poiid":"B2094654DB64A6FB409D","title":"上海广西宾馆","lon":"121.41406","lat":"31.24752","category":"215","category_name":"三星级宾馆","address":"普陀区中宁路176号(近石泉路)"},{"poiid":"B2094757D16DA7FF439B","title":"曹杨路铜川路","lon":"121.40696345","lat":"31.25062539","category":"500","category_name":"未知分类","address":"上海曹杨路铜川路"},{"poiid":"B2094757D068A2FF439F","title":"上海电器科学研究所","lon":"121.415145","lat":"31.244191","category":"500","category_name":"未知分类","address":"上海市武宁路505号"},{"poiid":"B2094655D26EAAF9419C","title":"月季园别墅式宾馆餐厅","lon":"121.41448","lat":"31.24755","category":"257","category_name":"中餐厅","address":"普陀区中宁路138弄月季园"},{"poiid":"B2094757DB6CA6FA4598","title":"华东师大","lon":"121.41347","lat":"31.2484","category":"500","category_name":"未知分类","address":"中山北路3600号"},{"poiid":"B2094757D068A3FD489F","title":"颐宁苑","lon":"121.40983","lat":"31.246778","category":"252","category_name":"楼宇机构","address":"上海市普陀区曹杨路1222弄"},{"poiid":"B2094753D568A0FA4593","title":"上海图书馆","lon":"121.414421","lat":"31.249023","category":"500","category_name":"未知分类","address":"上海市 淮海中路1555号"},{"poiid":"B2094655D36DA6FF4192","title":"真如","lon":"121.4072","lat":"31.2511","category":"38","category_name":"公交车站","address":""},{"poiid":"B2094654D465A2F94992","title":"市政馨苑","lon":"121.41392","lat":"31.253273","category":"47","category_name":"住宅区","address":"联谊西康大厦位于静安西康路578号"},{"poiid":"B2094655D26EA1F5499E","title":"胜利大酒店","lon":"121.41371","lat":"31.24833","category":"214","category_name":"四星级宾馆","address":"中宁路176号"},{"poiid":"B2094654D56AAAFD479D","title":"中宁商务住宅楼","lon":"121.41479","lat":"31.24778","category":"46","category_name":"楼宇","address":"中宁路138弄1"},{"poiid":"B2094655D36CA3F9469E","title":"罗马假日梅岭苑","lon":"121.411","lat":"31.2484","category":"47","category_name":"住宅区","address":"上海市普陀区梅岭北路400弄"},{"poiid":"B2094752D765A2FA459F","title":"顾村公园","lon":"121.414461","lat":"31.252933","category":"196","category_name":"公园","address":null},{"poiid":"B2094655D26CA0F5429B","title":"浩创商务公寓","lon":"121.41266","lat":"31.24827","category":"47","category_name":"住宅区","address":"武宁路900弄118"},{"poiid":"B2094654D56BA2F4469E","title":"上海星港","lon":"121.41226","lat":"31.24498","category":"47","category_name":"住宅区","address":"上海浦东新区东昌路、银城路交界处"},{"poiid":"B2094655D265A0F8499C","title":"重庆鸡公煲川夫烤鱼","lon":"121.41232","lat":"31.24656","category":"71","category_name":"四川菜","address":"普陀区中山北路2400弄7号(近东新路)"},{"poiid":"B2094655D26DAAF8499D","title":"浩创商务公寓(西门)","lon":"121.41235","lat":"31.24827","category":"47","category_name":"住宅区","address":"武宁路900弄118"},{"poiid":"B2094757D068A2FA429E","title":"曹杨华庭","lon":"121.411","lat":"31.2441","category":"47","category_name":"住宅区","address":"上海市普陀区杏山路500弄"},{"poiid":"B209475CD66CA1F9459A","title":"五角场万达广场","lon":"121.412315","lat":"31.250873","category":"500","category_name":"未知分类","address":"上海市 杨浦区五角场"},{"poiid":"B2094757D16DA7FD4692","title":"铜川水产市场","lon":"121.4130457","lat":"31.252476465","category":"500","category_name":"未知分类","address":"上海铜川路880"},{"poiid":"B2094655D264A7F4459A","title":"盛兴公寓","lon":"121.41692879563","lat":"31.249345750994","category":"47","category_name":"住宅区","address":"上海市普陀区曹杨路930号(近中山北路)"},{"poiid":"B2094753D46BA1FB4592","title":"环球港","lon":"121.408569","lat":"31.250509","category":"500","category_name":"未知分类","address":"上海市 中山北路"},{"poiid":"B2094750D76DAAFA409F","title":"吉野家  杨柳青店","lon":"121.415","lat":"31.2451","category":"95","category_name":"日本料理","address":"普陀区武宁路768号乐天玛特购物中心1楼(近杨柳青路)"},{"poiid":"B2094757D66DA5F44199","title":"石泉路","lon":"121.420192386","lat":"31.2480075789","category":"500","category_name":"未知分类","address":"上海石泉路岚皋路"},{"poiid":"B2094654D464A0FF439D","title":"山华果品批发市场","lon":"121.40937","lat":"31.25102","category":"117","category_name":"便民商店/便利店","address":"曹杨路1350弄"},{"poiid":"B2094757D069A7F94793","title":"Hayes星港","lon":"121.41215","lat":"31.243679","category":"47","category_name":"住宅区","address":"上海武宁路955弄"},{"poiid":"B209475CD46BA0FD4392","title":"外滩十八号","lon":"121.414199","lat":"31.252687","category":"500","category_name":"未知分类","address":"上海市 黄浦区外滩"},{"poiid":"B2094654DB6AA4F44892","title":"盐阜人家 铜川店","lon":"121.41535","lat":"31.25254","category":"260","category_name":"其他","address":"普陀区铜川路333号(近岚皋路)"},{"poiid":"B2094757D568A1F84592","title":"Alibi","lon":"121.4116281","lat":"31.24495611","category":"94","category_name":"西餐厅","address":"普陀区武宁路955弄1号1204室(近曹杨地铁站)"},{"poiid":"B2094654DB6AABFA439F","title":"良友","lon":"121.41413","lat":"31.25275","category":"117","category_name":"便民商店/便利店","address":"铜川路354"},{"poiid":"B2094757D56DA4F9439D","title":"银乐迪","lon":"121.416022","lat":"31.254856","category":"248","category_name":"生活娱乐","address":"铜川路66号"},{"poiid":"B2094757D06FAAF9429E","title":"江苏饭店","lon":"121.41120158","lat":"31.246796755","category":"247","category_name":"餐饮美食","address":"普陀区普陀区武宁路888号(近中宁路)"},{"poiid":"B2094757D06FABFD4098","title":"曹杨路武宁路","lon":"121.40878673","lat":"31.245086773","category":"260","category_name":"其他","address":"上海十字路口"},{"poiid":"B2094757D06FA2FF4098","title":"真如地铁站","lon":"121.407202","lat":"31.251089","category":"36","category_name":"地铁站","address":"上海轨道交通 十一号线 轨交真如站 11"},{"poiid":"B2094757D06FA1F5469B","title":"金盛国际家居(铜川路店)","lon":"121.417231","lat":"31.252637","category":"123","category_name":"家具建材市场","address":"普陀区铜川路185号(近岚皋路)"},{"poiid":"B2094757D068A0F8469D","title":"金狮麟豪冠酒店","lon":"121.410437492","lat":"31.2447190276","category":"75","category_name":"浙江菜","address":"普陀区武宁路1047号(近曹杨路)"},{"poiid":"B2094757D06FAAF54799","title":"武宁公园","lon":"121.41519767","lat":"31.24542618","category":"196","category_name":"公园","address":"普陀区石泉路450号(近中宁路)"},{"poiid":"B2094654D56BA3F84698","title":"真如古镇","lon":"121.408872","lat":"31.251409","category":"250","category_name":"公园户外","address":"兰溪路209弄"},{"poiid":"B2094654DB6AA6F8409E","title":"上海港鸿大酒店","lon":"121.41536","lat":"31.24405","category":"215","category_name":"三星级宾馆","address":"上海市普陀区武宁路501号(近中山北路)"},{"poiid":"B2094757D16AABFC4298","title":"上海悦馨大酒店","lon":"121.413955586","lat":"31.2480587799","category":"76","category_name":"上海菜","address":"普陀区中宁路176号广西宾馆后侧"},{"poiid":"B2094757D169A2FE419E","title":"铜川路岚皋路","lon":"121.41777695","lat":"31.2550817751","category":"500","category_name":"未知分类","address":"上海市普陀区铜川路岚皋路"},{"poiid":"B2094654D56AAAFE469F","title":"上海市国家税务局车辆购置税曹杨征收所","lon":"121.41257","lat":"31.24795","category":"250","category_name":"公园户外","address":"武宁路"},{"poiid":"B2094757D06FA4FD469E","title":"中友大厦","lon":"121.416","lat":"31.2509","category":"46","category_name":"楼宇","address":"上海普陀区曹杨路1040弄1号"},{"poiid":"B2094757D068A5F9409D","title":"普陀区中医医院","lon":"121.4076828","lat":"31.2479404483","category":"162","category_name":"医院","address":"普陀区曹杨路1261号(近北石路)"},{"poiid":"B2094757D168ABFC4593","title":"劳动和社会保障局","lon":"121.410700386","lat":"31.2455235303","category":"500","category_name":"未知分类","address":"上海武宁路1036号"},{"poiid":"B2094757D06FA4FE489B","title":"中宁家园","lon":"121.41636","lat":"31.249048","category":"47","category_name":"住宅区","address":"上海市普陀区中宁路88弄"},{"poiid":"B2094654DB6BA0FB4792","title":"城市之家酒店(上海北海饭店)","lon":"121.40896","lat":"31.24598","category":"250","category_name":"公园户外","address":"上海普陀区武宁路1500号(近曹杨路口)"},{"poiid":"B2094757D06FABFD479F","title":"岚皋馨苑","lon":"121.41546","lat":"31.254305","category":"47","category_name":"住宅区","address":"上海市宝山区行知路50弄"},{"poiid":"B2094654D56AAAFD469F","title":"武宁长途汽车站","lon":"121.41323","lat":"31.24603","category":"35","category_name":"长途汽车站","address":"中宁路230"},{"poiid":"B2094750D76CA2FD4093","title":"沈家门兰嫂海鲜面(曹杨路店)","lon":"121.409","lat":"31.2456","category":"68","category_name":"快餐厅","address":"普陀区武宁路1071号(曹杨路武宁路口)"},{"poiid":"B2094654DB64A6FB409D","title":"上海广西宾馆","lon":"121.41406","lat":"31.24752","category":"215","category_name":"三星级宾馆","address":"普陀区中宁路176号(近石泉路)"},{"poiid":"B2094757D16DA7FF439B","title":"曹杨路铜川路","lon":"121.40696345","lat":"31.25062539","category":"500","category_name":"未知分类","address":"上海曹杨路铜川路"},{"poiid":"B2094757D068A2FF439F","title":"上海电器科学研究所","lon":"121.415145","lat":"31.244191","category":"500","category_name":"未知分类","address":"上海市武宁路505号"},{"poiid":"B2094655D26EAAF9419C","title":"月季园别墅式宾馆餐厅","lon":"121.41448","lat":"31.24755","category":"257","category_name":"中餐厅","address":"普陀区中宁路138弄月季园"},{"poiid":"B2094757DB6CA6FA4598","title":"华东师大","lon":"121.41347","lat":"31.2484","category":"500","category_name":"未知分类","address":"中山北路3600号"},{"poiid":"B2094757D068A3FD489F","title":"颐宁苑","lon":"121.40983","lat":"31.246778","category":"252","category_name":"楼宇机构","address":"上海市普陀区曹杨路1222弄"},{"poiid":"B2094753D568A0FA4593","title":"上海图书馆","lon":"121.414421","lat":"31.249023","category":"500","category_name":"未知分类","address":"上海市 淮海中路1555号"},{"poiid":"B2094655D36DA6FF4192","title":"真如","lon":"121.4072","lat":"31.2511","category":"38","category_name":"公交车站","address":""},{"poiid":"B2094654D465A2F94992","title":"市政馨苑","lon":"121.41392","lat":"31.253273","category":"47","category_name":"住宅区","address":"联谊西康大厦位于静安西康路578号"},{"poiid":"B2094655D26EA1F5499E","title":"胜利大酒店","lon":"121.41371","lat":"31.24833","category":"214","category_name":"四星级宾馆","address":"中宁路176号"},{"poiid":"B2094654D56AAAFD479D","title":"中宁商务住宅楼","lon":"121.41479","lat":"31.24778","category":"46","category_name":"楼宇","address":"中宁路138弄1"},{"poiid":"B2094655D36CA3F9469E","title":"罗马假日梅岭苑","lon":"121.411","lat":"31.2484","category":"47","category_name":"住宅区","address":"上海市普陀区梅岭北路400弄"},{"poiid":"B2094752D765A2FA459F","title":"顾村公园","lon":"121.414461","lat":"31.252933","category":"196","category_name":"公园","address":null},{"poiid":"B2094655D26CA0F5429B","title":"浩创商务公寓","lon":"121.41266","lat":"31.24827","category":"47","category_name":"住宅区","address":"武宁路900弄118"},{"poiid":"B2094654D56BA2F4469E","title":"上海星港","lon":"121.41226","lat":"31.24498","category":"47","category_name":"住宅区","address":"上海浦东新区东昌路、银城路交界处"},{"poiid":"B2094655D265A0F8499C","title":"重庆鸡公煲川夫烤鱼","lon":"121.41232","lat":"31.24656","category":"71","category_name":"四川菜","address":"普陀区中山北路2400弄7号(近东新路)"},{"poiid":"B2094655D26DAAF8499D","title":"浩创商务公寓(西门)","lon":"121.41235","lat":"31.24827","category":"47","category_name":"住宅区","address":"武宁路900弄118"},{"poiid":"B2094757D068A2FA429E","title":"曹杨华庭","lon":"121.411","lat":"31.2441","category":"47","category_name":"住宅区","address":"上海市普陀区杏山路500弄"},{"poiid":"B209475CD66CA1F9459A","title":"五角场万达广场","lon":"121.412315","lat":"31.250873","category":"500","category_name":"未知分类","address":"上海市 杨浦区五角场"},{"poiid":"B2094757D16DA7FD4692","title":"铜川水产市场","lon":"121.4130457","lat":"31.252476465","category":"500","category_name":"未知分类","address":"上海铜川路880"},{"poiid":"B2094655D264A7F4459A","title":"盛兴公寓","lon":"121.41692879563","lat":"31.249345750994","category":"47","category_name":"住宅区","address":"上海市普陀区曹杨路930号(近中山北路)"},{"poiid":"B2094753D46BA1FB4592","title":"环球港","lon":"121.408569","lat":"31.250509","category":"500","category_name":"未知分类","address":"上海市 中山北路"},{"poiid":"B2094750D76DAAFA409F","title":"吉野家  杨柳青店","lon":"121.415","lat":"31.2451","category":"95","category_name":"日本料理","address":"普陀区武宁路768号乐天玛特购物中心1楼(近杨柳青路)"},{"poiid":"B2094757D66DA5F44199","title":"石泉路","lon":"121.420192386","lat":"31.2480075789","category":"500","category_name":"未知分类","address":"上海石泉路岚皋路"},{"poiid":"B2094654D464A0FF439D","title":"山华果品批发市场","lon":"121.40937","lat":"31.25102","category":"117","category_name":"便民商店/便利店","address":"曹杨路1350弄"},{"poiid":"B2094757D069A7F94793","title":"Hayes星港","lon":"121.41215","lat":"31.243679","category":"47","category_name":"住宅区","address":"上海武宁路955弄"},{"poiid":"B209475CD46BA0FD4392","title":"外滩十八号","lon":"121.414199","lat":"31.252687","category":"500","category_name":"未知分类","address":"上海市 黄浦区外滩"},{"poiid":"B2094654DB6AA4F44892","title":"盐阜人家 铜川店","lon":"121.41535","lat":"31.25254","category":"260","category_name":"其他","address":"普陀区铜川路333号(近岚皋路)"},{"poiid":"B2094757D568A1F84592","title":"Alibi","lon":"121.4116281","lat":"31.24495611","category":"94","category_name":"西餐厅","address":"普陀区武宁路955弄1号1204室(近曹杨地铁站)"},{"poiid":"B2094654DB6AABFA439F","title":"良友","lon":"121.41413","lat":"31.25275","category":"117","category_name":"便民商店/便利店","address":"铜川路354"},{"poiid":"B2094757D56DA4F9439D","title":"银乐迪","lon":"121.416022","lat":"31.254856","category":"248","category_name":"生活娱乐","address":"铜川路66号"},{"poiid":"B2094757D06FAAF9429E","title":"江苏饭店","lon":"121.41120158","lat":"31.246796755","category":"247","category_name":"餐饮美食","address":"普陀区普陀区武宁路888号(近中宁路)"},{"poiid":"B2094757D06FABFD4098","title":"曹杨路武宁路","lon":"121.40878673","lat":"31.245086773","category":"260","category_name":"其他","address":"上海十字路口"},{"poiid":"B2094757D06FA2FF4098","title":"真如地铁站","lon":"121.407202","lat":"31.251089","category":"36","category_name":"地铁站","address":"上海轨道交通 十一号线 轨交真如站 11"},{"poiid":"B2094757D06FA1F5469B","title":"金盛国际家居(铜川路店)","lon":"121.417231","lat":"31.252637","category":"123","category_name":"家具建材市场","address":"普陀区铜川路185号(近岚皋路)"},{"poiid":"B2094757D068A0F8469D","title":"金狮麟豪冠酒店","lon":"121.410437492","lat":"31.2447190276","category":"75","category_name":"浙江菜","address":"普陀区武宁路1047号(近曹杨路)"},{"poiid":"B2094757D06FAAF54799","title":"武宁公园","lon":"121.41519767","lat":"31.24542618","category":"196","category_name":"公园","address":"普陀区石泉路450号(近中宁路)"},{"poiid":"B2094654D56BA3F84698","title":"真如古镇","lon":"121.408872","lat":"31.251409","category":"250","category_name":"公园户外","address":"兰溪路209弄"},{"poiid":"B2094654DB6AA6F8409E","title":"上海港鸿大酒店","lon":"121.41536","lat":"31.24405","category":"215","category_name":"三星级宾馆","address":"上海市普陀区武宁路501号(近中山北路)"},{"poiid":"B2094757D16AABFC4298","title":"上海悦馨大酒店","lon":"121.413955586","lat":"31.2480587799","category":"76","category_name":"上海菜","address":"普陀区中宁路176号广西宾馆后侧"},{"poiid":"B2094757D169A2FE419E","title":"铜川路岚皋路","lon":"121.41777695","lat":"31.2550817751","category":"500","category_name":"未知分类","address":"上海市普陀区铜川路岚皋路"},{"poiid":"B2094654D56AAAFE469F","title":"上海市国家税务局车辆购置税曹杨征收所","lon":"121.41257","lat":"31.24795","category":"250","category_name":"公园户外","address":"武宁路"},{"poiid":"B2094757D06FA4FD469E","title":"中友大厦","lon":"121.416","lat":"31.2509","category":"46","category_name":"楼宇","address":"上海普陀区曹杨路1040弄1号"},{"poiid":"B2094757D068A5F9409D","title":"普陀区中医医院","lon":"121.4076828","lat":"31.2479404483","category":"162","category_name":"医院","address":"普陀区曹杨路1261号(近北石路)"},{"poiid":"B2094757D168ABFC4593","title":"劳动和社会保障局","lon":"121.410700386","lat":"31.2455235303","category":"500","category_name":"未知分类","address":"上海武宁路1036号"},{"poiid":"B2094757D06FA4FE489B","title":"中宁家园","lon":"121.41636","lat":"31.249048","category":"47","category_name":"住宅区","address":"上海市普陀区中宁路88弄"},{"poiid":"B2094654DB6BA0FB4792","title":"城市之家酒店(上海北海饭店)","lon":"121.40896","lat":"31.24598","category":"250","category_name":"公园户外","address":"上海普陀区武宁路1500号(近曹杨路口)"},{"poiid":"B2094757D06FABFD479F","title":"岚皋馨苑","lon":"121.41546","lat":"31.254305","category":"47","category_name":"住宅区","address":"上海市宝山区行知路50弄"},{"poiid":"B2094654D56AAAFD469F","title":"武宁长途汽车站","lon":"121.41323","lat":"31.24603","category":"35","category_name":"长途汽车站","address":"中宁路230"},{"poiid":"B2094750D76CA2FD4093","title":"沈家门兰嫂海鲜面(曹杨路店)","lon":"121.409","lat":"31.2456","category":"68","category_name":"快餐厅","address":"普陀区武宁路1071号(曹杨路武宁路口)"},{"poiid":"B2094654DB64A6FB409D","title":"上海广西宾馆","lon":"121.41406","lat":"31.24752","category":"215","category_name":"三星级宾馆","address":"普陀区中宁路176号(近石泉路)"},{"poiid":"B2094757D16DA7FF439B","title":"曹杨路铜川路","lon":"121.40696345","lat":"31.25062539","category":"500","category_name":"未知分类","address":"上海曹杨路铜川路"},{"poiid":"B2094757D068A2FF439F","title":"上海电器科学研究所","lon":"121.415145","lat":"31.244191","category":"500","category_name":"未知分类","address":"上海市武宁路505号"},{"poiid":"B2094655D26EAAF9419C","title":"月季园别墅式宾馆餐厅","lon":"121.41448","lat":"31.24755","category":"257","category_name":"中餐厅","address":"普陀区中宁路138弄月季园"},{"poiid":"B2094757DB6CA6FA4598","title":"华东师大","lon":"121.41347","lat":"31.2484","category":"500","category_name":"未知分类","address":"中山北路3600号"},{"poiid":"B2094757D068A3FD489F","title":"颐宁苑","lon":"121.40983","lat":"31.246778","category":"252","category_name":"楼宇机构","address":"上海市普陀区曹杨路1222弄"},{"poiid":"B2094753D568A0FA4593","title":"上海图书馆","lon":"121.414421","lat":"31.249023","category":"500","category_name":"未知分类","address":"上海市 淮海中路1555号"},{"poiid":"B2094655D36DA6FF4192","title":"真如","lon":"121.4072","lat":"31.2511","category":"38","category_name":"公交车站","address":""},{"poiid":"B2094654D465A2F94992","title":"市政馨苑","lon":"121.41392","lat":"31.253273","category":"47","category_name":"住宅区","address":"联谊西康大厦位于静安西康路578号"},{"poiid":"B2094655D26EA1F5499E","title":"胜利大酒店","lon":"121.41371","lat":"31.24833","category":"214","category_name":"四星级宾馆","address":"中宁路176号"},{"poiid":"B2094654D56AAAFD479D","title":"中宁商务住宅楼","lon":"121.41479","lat":"31.24778","category":"46","category_name":"楼宇","address":"中宁路138弄1"},{"poiid":"B2094655D36CA3F9469E","title":"罗马假日梅岭苑","lon":"121.411","lat":"31.2484","category":"47","category_name":"住宅区","address":"上海市普陀区梅岭北路400弄"},{"poiid":"B2094752D765A2FA459F","title":"顾村公园","lon":"121.414461","lat":"31.252933","category":"196","category_name":"公园","address":null},{"poiid":"B2094655D26CA0F5429B","title":"浩创商务公寓","lon":"121.41266","lat":"31.24827","category":"47","category_name":"住宅区","address":"武宁路900弄118"},{"poiid":"B2094654D56BA2F4469E","title":"上海星港","lon":"121.41226","lat":"31.24498","category":"47","category_name":"住宅区","address":"上海浦东新区东昌路、银城路交界处"},{"poiid":"B2094655D265A0F8499C","title":"重庆鸡公煲川夫烤鱼","lon":"121.41232","lat":"31.24656","category":"71","category_name":"四川菜","address":"普陀区中山北路2400弄7号(近东新路)"},{"poiid":"B2094655D26DAAF8499D","title":"浩创商务公寓(西门)","lon":"121.41235","lat":"31.24827","category":"47","category_name":"住宅区","address":"武宁路900弄118"},{"poiid":"B2094757D068A2FA429E","title":"曹杨华庭","lon":"121.411","lat":"31.2441","category":"47","category_name":"住宅区","address":"上海市普陀区杏山路500弄"},{"poiid":"B209475CD66CA1F9459A","title":"五角场万达广场","lon":"121.412315","lat":"31.250873","category":"500","category_name":"未知分类","address":"上海市 杨浦区五角场"},{"poiid":"B2094757D16DA7FD4692","title":"铜川水产市场","lon":"121.4130457","lat":"31.252476465","category":"500","category_name":"未知分类","address":"上海铜川路880"},{"poiid":"B2094655D264A7F4459A","title":"盛兴公寓","lon":"121.41692879563","lat":"31.249345750994","category":"47","category_name":"住宅区","address":"上海市普陀区曹杨路930号(近中山北路)"},{"poiid":"B2094753D46BA1FB4592","title":"环球港","lon":"121.408569","lat":"31.250509","category":"500","category_name":"未知分类","address":"上海市 中山北路"},{"poiid":"B2094750D76DAAFA409F","title":"吉野家  杨柳青店","lon":"121.415","lat":"31.2451","category":"95","category_name":"日本料理","address":"普陀区武宁路768号乐天玛特购物中心1楼(近杨柳青路)"},{"poiid":"B2094757D66DA5F44199","title":"石泉路","lon":"121.420192386","lat":"31.2480075789","category":"500","category_name":"未知分类","address":"上海石泉路岚皋路"},{"poiid":"B2094654D464A0FF439D","title":"山华果品批发市场","lon":"121.40937","lat":"31.25102","category":"117","category_name":"便民商店/便利店","address":"曹杨路1350弄"},{"poiid":"B2094757D069A7F94793","title":"Hayes星港","lon":"121.41215","lat":"31.243679","category":"47","category_name":"住宅区","address":"上海武宁路955弄"},{"poiid":"B209475CD46BA0FD4392","title":"外滩十八号","lon":"121.414199","lat":"31.252687","category":"500","category_name":"未知分类","address":"上海市 黄浦区外滩"},{"poiid":"B2094654DB6AA4F44892","title":"盐阜人家 铜川店","lon":"121.41535","lat":"31.25254","category":"260","category_name":"其他","address":"普陀区铜川路333号(近岚皋路)"},{"poiid":"B2094757D568A1F84592","title":"Alibi","lon":"121.4116281","lat":"31.24495611","category":"94","category_name":"西餐厅","address":"普陀区武宁路955弄1号1204室(近曹杨地铁站)"},{"poiid":"B2094654DB6AABFA439F","title":"良友","lon":"121.41413","lat":"31.25275","category":"117","category_name":"便民商店/便利店","address":"铜川路354"},{"poiid":"B2094757D56DA4F9439D","title":"银乐迪","lon":"121.416022","lat":"31.254856","category":"248","category_name":"生活娱乐","address":"铜川路66号"},{"poiid":"B2094757D06FAAF9429E","title":"江苏饭店","lon":"121.41120158","lat":"31.246796755","category":"247","category_name":"餐饮美食","address":"普陀区普陀区武宁路888号(近中宁路)"},{"poiid":"B2094757D06FABFD4098","title":"曹杨路武宁路","lon":"121.40878673","lat":"31.245086773","category":"260","category_name":"其他","address":"上海十字路口"},{"poiid":"B2094757D06FA2FF4098","title":"真如地铁站","lon":"121.407202","lat":"31.251089","category":"36","category_name":"地铁站","address":"上海轨道交通 十一号线 轨交真如站 11"},{"poiid":"B2094757D06FA1F5469B","title":"金盛国际家居(铜川路店)","lon":"121.417231","lat":"31.252637","category":"123","category_name":"家具建材市场","address":"普陀区铜川路185号(近岚皋路)"},{"poiid":"B2094757D068A0F8469D","title":"金狮麟豪冠酒店","lon":"121.410437492","lat":"31.2447190276","category":"75","category_name":"浙江菜","address":"普陀区武宁路1047号(近曹杨路)"},{"poiid":"B2094757D06FAAF54799","title":"武宁公园","lon":"121.41519767","lat":"31.24542618","category":"196","category_name":"公园","address":"普陀区石泉路450号(近中宁路)"},{"poiid":"B2094654D56BA3F84698","title":"真如古镇","lon":"121.408872","lat":"31.251409","category":"250","category_name":"公园户外","address":"兰溪路209弄"},{"poiid":"B2094654DB6AA6F8409E","title":"上海港鸿大酒店","lon":"121.41536","lat":"31.24405","category":"215","category_name":"三星级宾馆","address":"上海市普陀区武宁路501号(近中山北路)"},{"poiid":"B2094757D16AABFC4298","title":"上海悦馨大酒店","lon":"121.413955586","lat":"31.2480587799","category":"76","category_name":"上海菜","address":"普陀区中宁路176号广西宾馆后侧"},{"poiid":"B2094757D169A2FE419E","title":"铜川路岚皋路","lon":"121.41777695","lat":"31.2550817751","category":"500","category_name":"未知分类","address":"上海市普陀区铜川路岚皋路"},{"poiid":"B2094654D56AAAFE469F","title":"上海市国家税务局车辆购置税曹杨征收所","lon":"121.41257","lat":"31.24795","category":"250","category_name":"公园户外","address":"武宁路"},{"poiid":"B2094757D06FA4FD469E","title":"中友大厦","lon":"121.416","lat":"31.2509","category":"46","category_name":"楼宇","address":"上海普陀区曹杨路1040弄1号"},{"poiid":"B2094757D068A5F9409D","title":"普陀区中医医院","lon":"121.4076828","lat":"31.2479404483","category":"162","category_name":"医院","address":"普陀区曹杨路1261号(近北石路)"},{"poiid":"B2094757D168ABFC4593","title":"劳动和社会保障局","lon":"121.410700386","lat":"31.2455235303","category":"500","category_name":"未知分类","address":"上海武宁路1036号"},{"poiid":"B2094757D06FA4FE489B","title":"中宁家园","lon":"121.41636","lat":"31.249048","category":"47","category_name":"住宅区","address":"上海市普陀区中宁路88弄"},{"poiid":"B2094654DB6BA0FB4792","title":"城市之家酒店(上海北海饭店)","lon":"121.40896","lat":"31.24598","category":"250","category_name":"公园户外","address":"上海普陀区武宁路1500号(近曹杨路口)"},{"poiid":"B2094757D06FABFD479F","title":"岚皋馨苑","lon":"121.41546","lat":"31.254305","category":"47","category_name":"住宅区","address":"上海市宝山区行知路50弄"},{"poiid":"B2094654D56AAAFD469F","title":"武宁长途汽车站","lon":"121.41323","lat":"31.24603","category":"35","category_name":"长途汽车站","address":"中宁路230"},{"poiid":"B2094750D76CA2FD4093","title":"沈家门兰嫂海鲜面(曹杨路店)","lon":"121.409","lat":"31.2456","category":"68","category_name":"快餐厅","address":"普陀区武宁路1071号(曹杨路武宁路口)"},{"poiid":"B2094654DB64A6FB409D","title":"上海广西宾馆","lon":"121.41406","lat":"31.24752","category":"215","category_name":"三星级宾馆","address":"普陀区中宁路176号(近石泉路)"},{"poiid":"B2094757D16DA7FF439B","title":"曹杨路铜川路","lon":"121.40696345","lat":"31.25062539","category":"500","category_name":"未知分类","address":"上海曹杨路铜川路"},{"poiid":"B2094757D068A2FF439F","title":"上海电器科学研究所","lon":"121.415145","lat":"31.244191","category":"500","category_name":"未知分类","address":"上海市武宁路505号"},{"poiid":"B2094655D26EAAF9419C","title":"月季园别墅式宾馆餐厅","lon":"121.41448","lat":"31.24755","category":"257","category_name":"中餐厅","address":"普陀区中宁路138弄月季园"},{"poiid":"B2094757DB6CA6FA4598","title":"华东师大","lon":"121.41347","lat":"31.2484","category":"500","category_name":"未知分类","address":"中山北路3600号"},{"poiid":"B2094757D068A3FD489F","title":"颐宁苑","lon":"121.40983","lat":"31.246778","category":"252","category_name":"楼宇机构","address":"上海市普陀区曹杨路1222弄"},{"poiid":"B2094753D568A0FA4593","title":"上海图书馆","lon":"121.414421","lat":"31.249023","category":"500","category_name":"未知分类","address":"上海市 淮海中路1555号"},{"poiid":"B2094655D36DA6FF4192","title":"真如","lon":"121.4072","lat":"31.2511","category":"38","category_name":"公交车站","address":""},{"poiid":"B2094654D465A2F94992","title":"市政馨苑","lon":"121.41392","lat":"31.253273","category":"47","category_name":"住宅区","address":"联谊西康大厦位于静安西康路578号"},{"poiid":"B2094655D26EA1F5499E","title":"胜利大酒店","lon":"121.41371","lat":"31.24833","category":"214","category_name":"四星级宾馆","address":"中宁路176号"},{"poiid":"B2094654D56AAAFD479D","title":"中宁商务住宅楼","lon":"121.41479","lat":"31.24778","category":"46","category_name":"楼宇","address":"中宁路138弄1"},{"poiid":"B2094655D36CA3F9469E","title":"罗马假日梅岭苑","lon":"121.411","lat":"31.2484","category":"47","category_name":"住宅区","address":"上海市普陀区梅岭北路400弄"},{"poiid":"B2094752D765A2FA459F","title":"顾村公园","lon":"121.414461","lat":"31.252933","category":"196","category_name":"公园","address":null},{"poiid":"B2094655D26CA0F5429B","title":"浩创商务公寓","lon":"121.41266","lat":"31.24827","category":"47","category_name":"住宅区","address":"武宁路900弄118"},{"poiid":"B2094654D56BA2F4469E","title":"上海星港","lon":"121.41226","lat":"31.24498","category":"47","category_name":"住宅区","address":"上海浦东新区东昌路、银城路交界处"},{"poiid":"B2094655D265A0F8499C","title":"重庆鸡公煲川夫烤鱼","lon":"121.41232","lat":"31.24656","category":"71","category_name":"四川菜","address":"普陀区中山北路2400弄7号(近东新路)"},{"poiid":"B2094655D26DAAF8499D","title":"浩创商务公寓(西门)","lon":"121.41235","lat":"31.24827","category":"47","category_name":"住宅区","address":"武宁路900弄118"},{"poiid":"B2094757D068A2FA429E","title":"曹杨华庭","lon":"121.411","lat":"31.2441","category":"47","category_name":"住宅区","address":"上海市普陀区杏山路500弄"},{"poiid":"B209475CD66CA1F9459A","title":"五角场万达广场","lon":"121.412315","lat":"31.250873","category":"500","category_name":"未知分类","address":"上海市 杨浦区五角场"},{"poiid":"B2094757D16DA7FD4692","title":"铜川水产市场","lon":"121.4130457","lat":"31.252476465","category":"500","category_name":"未知分类","address":"上海铜川路880"},{"poiid":"B2094655D264A7F4459A","title":"盛兴公寓","lon":"121.41692879563","lat":"31.249345750994","category":"47","category_name":"住宅区","address":"上海市普陀区曹杨路930号(近中山北路)"},{"poiid":"B2094753D46BA1FB4592","title":"环球港","lon":"121.408569","lat":"31.250509","category":"500","category_name":"未知分类","address":"上海市 中山北路"},{"poiid":"B2094750D76DAAFA409F","title":"吉野家  杨柳青店","lon":"121.415","lat":"31.2451","category":"95","category_name":"日本料理","address":"普陀区武宁路768号乐天玛特购物中心1楼(近杨柳青路)"},{"poiid":"B2094757D66DA5F44199","title":"石泉路","lon":"121.420192386","lat":"31.2480075789","category":"500","category_name":"未知分类","address":"上海石泉路岚皋路"},{"poiid":"B2094654D464A0FF439D","title":"山华果品批发市场","lon":"121.40937","lat":"31.25102","category":"117","category_name":"便民商店/便利店","address":"曹杨路1350弄"},{"poiid":"B2094757D069A7F94793","title":"Hayes星港","lon":"121.41215","lat":"31.243679","category":"47","category_name":"住宅区","address":"上海武宁路955弄"},{"poiid":"B209475CD46BA0FD4392","title":"外滩十八号","lon":"121.414199","lat":"31.252687","category":"500","category_name":"未知分类","address":"上海市 黄浦区外滩"},{"poiid":"B2094654DB6AA4F44892","title":"盐阜人家 铜川店","lon":"121.41535","lat":"31.25254","category":"260","category_name":"其他","address":"普陀区铜川路333号(近岚皋路)"},{"poiid":"B2094757D568A1F84592","title":"Alibi","lon":"121.4116281","lat":"31.24495611","category":"94","category_name":"西餐厅","address":"普陀区武宁路955弄1号1204室(近曹杨地铁站)"},{"poiid":"B2094654DB6AABFA439F","title":"良友","lon":"121.41413","lat":"31.25275","category":"117","category_name":"便民商店/便利店","address":"铜川路354"}]