[{"poiid":"B2094757D56DA4F9439D","title":"银乐迪","lon":"121.416022","lat":"31.254856","category":"248","category_name":"生活娱乐","address":"铜川路66号"},{"poiid":"B2094757DA6EA5FD479E","title":"丰收日(铜川路店)","lon":"121.419672599997","lat":"31.2543013999998","category":"75","category_name":"浙江菜","address":"普陀区铜川路68号弘基时尚生活中心4楼(近府村路)"},{"poiid":"B2094757DA69A1FA429C","title":"弘基时尚生活中心","lon":"121.41999985138","lat":"31.254465590793","category":"119","category_name":"商场","address":"普陀区铜川路68号(近地铁7号线岚皋路站)"},{"poiid":"B2094757D06FAAF9429E","title":"江苏饭店","lon":"121.41120158","lat":"31.246796755","category":"247","category_name":"餐饮美食","address":"普陀区普陀区武宁路888号(近中宁路)"},{"poiid":"B2094757D468A4FB4193","title":"香港狮子山下 弘基店","lon":"121.4199273","lat":"31.2544813","category":"72","category_name":"广东菜","address":"普陀区铜川路68号弘基时尚生活中心3楼305-306室(近岚皋路)"},{"poiid":"B2094751D36FA3FD4099","title":"宝燕海鲜自助火锅(铜川店)","lon":"121.41968","lat":"31.25428","category":"86","category_name":"火锅店","address":"普陀区铜川路68号宏基时尚中心3楼301室(近岚皋路)"},{"poiid":"B2094757D06FA2FF4098","title":"真如地铁站","lon":"121.407202","lat":"31.251089","category":"36","category_name":"地铁站","address":"上海轨道交通 十一号线 轨交真如站 11"},{"poiid":"B2094757D069A6F9429B","title":"品尊国际MOB会所","lon":"121.42003895","lat":"31.256073794","category":"500","category_name":"未知分类","address":"上海铜川路岚皋路"},{"poiid":"B2094757DA6EAAF4469C","title":"必胜客(品尊国际店)","lon":"121.4196839","lat":"31.2542897","category":"94","category_name":"西餐厅","address":"普陀区铜川路68号弘基时尚生活中心1楼(近岚皋路)"},{"poiid":"B2094757D06FA1F5469B","title":"金盛国际家居(铜川路店)","lon":"121.417231","lat":"31.252637","category":"123","category_name":"家具建材市场","address":"普陀区铜川路185号(近岚皋路)"},{"poiid":"B2094757D06FA1F84493","title":"品尊国际","lon":"121.419493","lat":"31.255982","category":"252","category_name":"楼宇机构","address":"上海铜川路58弄"},{"poiid":"B2094757D06FA3F8419D","title":"真如西村","lon":"121.406","lat":"31.2507","category":"47","category_name":"住宅区","address":"上海普陀区大渡河路北石路"},{"poiid":"B2094654D56BA3F84698","title":"真如古镇","lon":"121.408872","lat":"31.251409","category":"250","category_name":"公园户外","address":"兰溪路209弄"},{"poiid":"B2094757DB6CAAF84592","title":"哈米儿童畅想小镇","lon":"121.4145473082891","lat":"31.25726952023632","category":"248","category_name":"生活娱乐","address":"铜川路68号"},{"poiid":"B2094757D06FAAF54799","title":"武宁公园","lon":"121.41519767","lat":"31.24542618","category":"196","category_name":"公园","address":"普陀区石泉路450号(近中宁路)"},{"poiid":"B2094750D26AA1FA419E","title":"七欣天迷宗蟹 铜川路店","lon":"121.41956806183","lat":"31.254413819535","category":"86","category_name":"火锅店","address":"普陀区铜川路68号弘基时尚生活中心4楼(近岚皋路)"},{"poiid":"B2094757D169A2FE419E","title":"铜川路岚皋路","lon":"121.41777695","lat":"31.2550817751","category":"500","category_name":"未知分类","address":"上海市普陀区铜川路岚皋路"},{"poiid":"B2094757D16CA6F84492","title":"新城市中心广场","lon":"121.42099495","lat":"31.2525797273","category":"46","category_name":"楼宇","address":"上海铜川路70号"},{"poiid":"B2094750D26CA4FB4993","title":"costa（品尊店）","lon":"121.4140471","lat":"31.2568432","category":"247","category_name":"餐饮美食","address":"普陀区铜川路68号弘基时尚生活中心106室(近府村路)"},{"poiid":"B2094757D069A2FE4993","title":"普陀公安分局交警支队","lon":"121.417973768","lat":"31.2557047464","category":"250","category_name":"公园户外","address":"上海府村路125号"},{"poiid":"B2094757D06FABFD479F","title":"岚皋馨苑","lon":"121.41546","lat":"31.254305","category":"47","category_name":"住宅区","address":"上海市宝山区行知路50弄"},{"poiid":"B2094757D16AABFC4298","title":"上海悦馨大酒店","lon":"121.413955586","lat":"31.2480587799","category":"76","category_name":"上海菜","address":"普陀区中宁路176号广西宾馆后侧"},{"poiid":"B2094757D068A5F9409D","title":"普陀区中医医院","lon":"121.4076828","lat":"31.2479404483","category":"162","category_name":"医院","address":"普陀区曹杨路1261号(近北石路)"},{"poiid":"B2094757D06FA4FD469E","title":"中友大厦","lon":"121.416","lat":"31.2509","category":"46","category_name":"楼宇","address":"上海普陀区曹杨路1040弄1号"},{"poiid":"B2094750D464AAF94298","title":"宝燕自助海鲜火锅","lon":"121.420852","lat":"31.252481","category":"247","category_name":"餐饮美食","address":"宏基"},{"poiid":"B2094751D369A4F8449A","title":"浅草居酒屋","lon":"121.41973","lat":"31.25432","category":"95","category_name":"日本料理","address":"普陀区铜川路66号弘基时尚生活中心2楼(近岚皋路)"},{"poiid":"B2094757D168ABFC4593","title":"劳动和社会保障局","lon":"121.410700386","lat":"31.2455235303","category":"500","category_name":"未知分类","address":"上海武宁路1036号"},{"poiid":"B2094757D16DA7FF439B","title":"曹杨路铜川路","lon":"121.40696345","lat":"31.25062539","category":"500","category_name":"未知分类","address":"上海曹杨路铜川路"},{"poiid":"B2094654D465A2F94992","title":"市政馨苑","lon":"121.41392","lat":"31.253273","category":"47","category_name":"住宅区","address":"联谊西康大厦位于静安西康路578号"},{"poiid":"B2094654D56AAAFE469F","title":"上海市国家税务局车辆购置税曹杨征收所","lon":"121.41257","lat":"31.24795","category":"250","category_name":"公园户外","address":"武宁路"},{"poiid":"B2094751D56CA5FD4399","title":"丸龟制面(弘基店)","lon":"121.41968","lat":"31.25428","category":"68","category_name":"快餐厅","address":"普陀区铜川路68号弘基时尚生活中心B1楼IFood食街(近岚皋路)"},{"poiid":"B2094750D269A1F54599","title":"铜川路银乐迪","lon":"121.419898","lat":"31.255123","category":"500","category_name":"未知分类","address":"普陀区铜川路68号弘基时尚生活中心4楼(近岚皋路)"},{"poiid":"B2094757D06FA4FE489B","title":"中宁家园","lon":"121.41636","lat":"31.249048","category":"47","category_name":"住宅区","address":"上海市普陀区中宁路88弄"},{"poiid":"B2094752D765A2FA459F","title":"顾村公园","lon":"121.414461","lat":"31.252933","category":"196","category_name":"公园","address":null},{"poiid":"B2094655D36DA6FF4192","title":"真如","lon":"121.4072","lat":"31.2511","category":"38","category_name":"公交车站","address":""},{"poiid":"B2094757D16DA7FD4692","title":"铜川水产市场","lon":"121.4130457","lat":"31.252476465","category":"500","category_name":"未知分类","address":"上海铜川路880"},{"poiid":"B2094757D069AAFF4093","title":"佑生精致月子会所(普陀店)","lon":"121.41972228","lat":"31.255999142","category":"149","category_name":"洗浴推拿场所","address":"普陀区铜川路58弄6号(近岚皋路)"},{"poiid":"B2094757D16DA7FA429E","title":"柚日式餐厅","lon":"121.420217","lat":"31.254686","category":"269","category_name":"烧烤","address":"普陀区铜川路50号明捷万丽酒店内(近地铁岚皋路站)"},{"poiid":"B209475CD46BA0FD4392","title":"外滩十八号","lon":"121.414199","lat":"31.252687","category":"500","category_name":"未知分类","address":"上海市 黄浦区外滩"},{"poiid":"B2094654DB6AABFA439F","title":"良友","lon":"121.41413","lat":"31.25275","category":"117","category_name":"便民商店/便利店","address":"铜川路354"},{"poiid":"B2094654D56AAAFD469F","title":"武宁长途汽车站","lon":"121.41323","lat":"31.24603","category":"35","category_name":"长途汽车站","address":"中宁路230"},{"poiid":"B2094654D465A2FA409E","title":"上海飞翼汽车服务有限公司","lon":"121.41353","lat":"31.25261","category":"250","category_name":"公园户外","address":"铜川路376"},{"poiid":"B2094757D468A4FE459C","title":"明捷万丽行政酒廊","lon":"121.4202169","lat":"31.2546865","category":"67","category_name":"甜品店","address":"普陀区铜川路50号"},{"poiid":"B2094654DB6AA4F44892","title":"盐阜人家 铜川店","lon":"121.41535","lat":"31.25254","category":"260","category_name":"其他","address":"普陀区铜川路333号(近岚皋路)"},{"poiid":"B2094750D76EA6FC4399","title":"Ifood美食广场","lon":"121.419","lat":"31.2556","category":"68","category_name":"快餐厅","address":"普陀区铜川路60号品尊国际B1楼37-50室(近品尊国际公寓)"},{"poiid":"B2094753D46BA1FB4592","title":"环球港","lon":"121.408569","lat":"31.250509","category":"500","category_name":"未知分类","address":"上海市 中山北路"},{"poiid":"B2094655D265A2FE409D","title":"长江实业办公楼","lon":"121.40907","lat":"31.25472","category":"46","category_name":"楼宇","address":"曹杨路1560"},{"poiid":"B2094654DB64A6FB409D","title":"上海广西宾馆","lon":"121.41406","lat":"31.24752","category":"215","category_name":"三星级宾馆","address":"普陀区中宁路176号(近石泉路)"},{"poiid":"B2094654D464A0FF439D","title":"山华果品批发市场","lon":"121.40937","lat":"31.25102","category":"117","category_name":"便民商店/便利店","address":"曹杨路1350弄"},{"poiid":"B2094752D165A7F9439A","title":"武宁路  我格广场","lon":"121.412871","lat":"31.256013","category":"500","category_name":"未知分类","address":"武宁路55号"},{"poiid":"B2094757D56DA4F9439D","title":"银乐迪","lon":"121.416022","lat":"31.254856","category":"248","category_name":"生活娱乐","address":"铜川路66号"},{"poiid":"B2094757DA6EA5FD479E","title":"丰收日(铜川路店)","lon":"121.419672599997","lat":"31.2543013999998","category":"75","category_name":"浙江菜","address":"普陀区铜川路68号弘基时尚生活中心4楼(近府村路)"},{"poiid":"B2094757DA69A1FA429C","title":"弘基时尚生活中心","lon":"121.41999985138","lat":"31.254465590793","category":"119","category_name":"商场","address":"普陀区铜川路68号(近地铁7号线岚皋路站)"},{"poiid":"B2094757D06FAAF9429E","title":"江苏饭店","lon":"121.41120158","lat":"31.246796755","category":"247","category_name":"餐饮美食","address":"普陀区普陀区武宁路888号(近中宁路)"},{"poiid":"B2094757D468A4FB4193","title":"香港狮子山下 弘基店","lon":"121.4199273","lat":"31.2544813","category":"72","category_name":"广东菜","address":"普陀区铜川路68号弘基时尚生活中心3楼305-306室(近岚皋路)"},{"poiid":"B2094751D36FA3FD4099","title":"宝燕海鲜自助火锅(铜川店)","lon":"121.41968","lat":"31.25428","category":"86","category_name":"火锅店","address":"普陀区铜川路68号宏基时尚中心3楼301室(近岚皋路)"},{"poiid":"B2094757D06FA2FF4098","title":"真如地铁站","lon":"121.407202","lat":"31.251089","category":"36","category_name":"地铁站","address":"上海轨道交通 十一号线 轨交真如站 11"},{"poiid":"B2094757D069A6F9429B","title":"品尊国际MOB会所","lon":"121.42003895","lat":"31.256073794","category":"500","category_name":"未知分类","address":"上海铜川路岚皋路"},{"poiid":"B2094757DA6EAAF4469C","title":"必胜客(品尊国际店)","lon":"121.4196839","lat":"31.2542897","category":"94","category_name":"西餐厅","address":"普陀区铜川路68号弘基时尚生活中心1楼(近岚皋路)"},{"poiid":"B2094757D06FA1F5469B","title":"金盛国际家居(铜川路店)","lon":"121.417231","lat":"31.252637","category":"123","category_name":"家具建材市场","address":"普陀区铜川路185号(近岚皋路)"},{"poiid":"B2094757D06FA1F84493","title":"品尊国际","lon":"121.419493","lat":"31.255982","category":"252","category_name":"楼宇机构","address":"上海铜川路58弄"},{"poiid":"B2094757D06FA3F8419D","title":"真如西村","lon":"121.406","lat":"31.2507","category":"47","category_name":"住宅区","address":"上海普陀区大渡河路北石路"},{"poiid":"B2094654D56BA3F84698","title":"真如古镇","lon":"121.408872","lat":"31.251409","category":"250","category_name":"公园户外","address":"兰溪路209弄"},{"poiid":"B2094757DB6CAAF84592","title":"哈米儿童畅想小镇","lon":"121.4145473082891","lat":"31.25726952023632","category":"248","category_name":"生活娱乐","address":"铜川路68号"},{"poiid":"B2094757D06FAAF54799","title":"武宁公园","lon":"121.41519767","lat":"31.24542618","category":"196","category_name":"公园","address":"普陀区石泉路450号(近中宁路)"},{"poiid":"B2094750D26AA1FA419E","title":"七欣天迷宗蟹 铜川路店","lon":"121.41956806183","lat":"31.254413819535","category":"86","category_name":"火锅店","address":"普陀区铜川路68号弘基时尚生活中心4楼(近岚皋路)"},{"poiid":"B2094757D169A2FE419E","title":"铜川路岚皋路","lon":"121.41777695","lat":"31.2550817751","category":"500","category_name":"未知分类","address":"上海市普陀区铜川路岚皋路"},{"poiid":"B2094757D16CA6F84492","title":"新城市中心广场","lon":"121.42099495","lat":"31.2525797273","category":"46","category_name":"楼宇","address":"上海铜川路70号"},{"poiid":"B2094750D26CA4FB4993","title":"costa（品尊店）","lon":"121.4140471","lat":"31.2568432","category":"247","category_name":"餐饮美食","address":"普陀区铜川路68号弘基时尚生活中心106室(近府村路)"},{"poiid":"B2094757D069A2FE4993","title":"普陀公安分局交警支队","lon":"121.417973768","lat":"31.2557047464","category":"250","category_name":"公园户外","address":"上海府村路125号"},{"poiid":"B2094757D06FABFD479F","title":"岚皋馨苑","lon":"121.41546","lat":"31.254305","category":"47","category_name":"住宅区","address":"上海市宝山区行知路50弄"},{"poiid":"B2094757D16AABFC4298","title":"上海悦馨大酒店","lon":"121.413955586","lat":"31.2480587799","category":"76","category_name":"上海菜","address":"普陀区中宁路176号广西宾馆后侧"},{"poiid":"B2094757D068A5F9409D","title":"普陀区中医医院","lon":"121.4076828","lat":"31.2479404483","category":"162","category_name":"医院","address":"普陀区曹杨路1261号(近北石路)"},{"poiid":"B2094757D06FA4FD469E","title":"中友大厦","lon":"121.416","lat":"31.2509","category":"46","category_name":"楼宇","address":"上海普陀区曹杨路1040弄1号"},{"poiid":"B2094750D464AAF94298","title":"宝燕自助海鲜火锅","lon":"121.420852","lat":"31.252481","category":"247","category_name":"餐饮美食","address":"宏基"},{"poiid":"B2094751D369A4F8449A","title":"浅草居酒屋","lon":"121.41973","lat":"31.25432","category":"95","category_name":"日本料理","address":"普陀区铜川路66号弘基时尚生活中心2楼(近岚皋路)"},{"poiid":"B2094757D168ABFC4593","title":"劳动和社会保障局","lon":"121.410700386","lat":"31.2455235303","category":"500","category_name":"未知分类","address":"上海武宁路1036号"},{"poiid":"B2094757D16DA7FF439B","title":"曹杨路铜川路","lon":"121.40696345","lat":"31.25062539","category":"500","category_name":"未知分类","address":"上海曹杨路铜川路"},{"poiid":"B2094654D465A2F94992","title":"市政馨苑","lon":"121.41392","lat":"31.253273","category":"47","category_name":"住宅区","address":"联谊西康大厦位于静安西康路578号"},{"poiid":"B2094654D56AAAFE469F","title":"上海市国家税务局车辆购置税曹杨征收所","lon":"121.41257","lat":"31.24795","category":"250","category_name":"公园户外","address":"武宁路"},{"poiid":"B2094751D56CA5FD4399","title":"丸龟制面(弘基店)","lon":"121.41968","lat":"31.25428","category":"68","category_name":"快餐厅","address":"普陀区铜川路68号弘基时尚生活中心B1楼IFood食街(近岚皋路)"},{"poiid":"B2094750D269A1F54599","title":"铜川路银乐迪","lon":"121.419898","lat":"31.255123","category":"500","category_name":"未知分类","address":"普陀区铜川路68号弘基时尚生活中心4楼(近岚皋路)"},{"poiid":"B2094757D06FA4FE489B","title":"中宁家园","lon":"121.41636","lat":"31.249048","category":"47","category_name":"住宅区","address":"上海市普陀区中宁路88弄"},{"poiid":"B2094752D765A2FA459F","title":"顾村公园","lon":"121.414461","lat":"31.252933","category":"196","category_name":"公园","address":null},{"poiid":"B2094655D36DA6FF4192","title":"真如","lon":"121.4072","lat":"31.2511","category":"38","category_name":"公交车站","address":""},{"poiid":"B2094757D16DA7FD4692","title":"铜川水产市场","lon":"121.4130457","lat":"31.252476465","category":"500","category_name":"未知分类","address":"上海铜川路880"},{"poiid":"B2094757D069AAFF4093","title":"佑生精致月子会所(普陀店)","lon":"121.41972228","lat":"31.255999142","category":"149","category_name":"洗浴推拿场所","address":"普陀区铜川路58弄6号(近岚皋路)"},{"poiid":"B2094757D16DA7FA429E","title":"柚日式餐厅","lon":"121.420217","lat":"31.254686","category":"269","category_name":"烧烤","address":"普陀区铜川路50号明捷万丽酒店内(近地铁岚皋路站)"},{"poiid":"B209475CD46BA0FD4392","title":"外滩十八号","lon":"121.414199","lat":"31.252687","category":"500","category_name":"未知分类","address":"上海市 黄浦区外滩"},{"poiid":"B2094654DB6AABFA439F","title":"良友","lon":"121.41413","lat":"31.25275","category":"117","category_name":"便民商店/便利店","address":"铜川路354"},{"poiid":"B2094654D56AAAFD469F","title":"武宁长途汽车站","lon":"121.41323","lat":"31.24603","category":"35","category_name":"长途汽车站","address":"中宁路230"},{"poiid":"B2094654D465A2FA409E","title":"上海飞翼汽车服务有限公司","lon":"121.41353","lat":"31.25261","category":"250","category_name":"公园户外","address":"铜川路376"},{"poiid":"B2094757D468A4FE459C","title":"明捷万丽行政酒廊","lon":"121.4202169","lat":"31.2546865","category":"67","category_name":"甜品店","address":"普陀区铜川路50号"},{"poiid":"B2094654DB6AA4F44892","title":"盐阜人家 铜川店","lon":"121.41535","lat":"31.25254","category":"260","category_name":"其他","address":"普陀区铜川路333号(近岚皋路)"},{"poiid":"B2094750D76EA6FC4399","title":"Ifood美食广场","lon":"121.419","lat":"31.2556","category":"68","category_name":"快餐厅","address":"普陀区铜川路60号品尊国际B1楼37-50室(近品尊国际公寓)"},{"poiid":"B2094753D46BA1FB4592","title":"环球港","lon":"121.408569","lat":"31.250509","category":"500","category_name":"未知分类","address":"上海市 中山北路"},{"poiid":"B2094655D265A2FE409D","title":"长江实业办公楼","lon":"121.40907","lat":"31.25472","category":"46","category_name":"楼宇","address":"曹杨路1560"},{"poiid":"B2094654DB64A6FB409D","title":"上海广西宾馆","lon":"121.41406","lat":"31.24752","category":"215","category_name":"三星级宾馆","address":"普陀区中宁路176号(近石泉路)"},{"poiid":"B2094654D464A0FF439D","title":"山华果品批发市场","lon":"121.40937","lat":"31.25102","category":"117","category_name":"便民商店/便利店","address":"曹杨路1350弄"},{"poiid":"B2094752D165A7F9439A","title":"武宁路  我格广场","lon":"121.412871","lat":"31.256013","category":"500","category_name":"未知分类","address":"武宁路55号"},{"poiid":"B2094757D56DA4F9439D","title":"银乐迪","lon":"121.416022","lat":"31.254856","category":"248","category_name":"生活娱乐","address":"铜川路66号"},{"poiid":"B2094757DA6EA5FD479E","title":"丰收日(铜川路店)","lon":"121.419672599997","lat":"31.2543013999998","category":"75","category_name":"浙江菜","address":"普陀区铜川路68号弘基时尚生活中心4楼(近府村路)"},{"poiid":"B2094757DA69A1FA429C","title":"弘基时尚生活中心","lon":"121.41999985138","lat":"31.254465590793","category":"119","category_name":"商场","address":"普陀区铜川路68号(近地铁7号线岚皋路站)"},{"poiid":"B2094757D06FAAF9429E","title":"江苏饭店","lon":"121.41120158","lat":"31.246796755","category":"247","category_name":"餐饮美食","address":"普陀区普陀区武宁路888号(近中宁路)"},{"poiid":"B2094757D468A4FB4193","title":"香港狮子山下 弘基店","lon":"121.4199273","lat":"31.2544813","category":"72","category_name":"广东菜","address":"普陀区铜川路68号弘基时尚生活中心3楼305-306室(近岚皋路)"},{"poiid":"B2094751D36FA3FD4099","title":"宝燕海鲜自助火锅(铜川店)","lon":"121.41968","lat":"31.25428","category":"86","category_name":"火锅店","address":"普陀区铜川路68号宏基时尚中心3楼301室(近岚皋路)"},{"poiid":"B2094757D06FA2FF4098","title":"真如地铁站","lon":"121.407202","lat":"31.251089","category":"36","category_name":"地铁站","address":"上海轨道交通 十一号线 轨交真如站 11"},{"poiid":"B2094757D069A6F9429B","title":"品尊国际MOB会所","lon":"121.42003895","lat":"31.256073794","category":"500","category_name":"未知分类","address":"上海铜川路岚皋路"},{"poiid":"B2094757DA6EAAF4469C","title":"必胜客(品尊国际店)","lon":"121.4196839","lat":"31.2542897","category":"94","category_name":"西餐厅","address":"普陀区铜川路68号弘基时尚生活中心1楼(近岚皋路)"},{"poiid":"B2094757D06FA1F5469B","title":"金盛国际家居(铜川路店)","lon":"121.417231","lat":"31.252637","category":"123","category_name":"家具建材市场","address":"普陀区铜川路185号(近岚皋路)"},{"poiid":"B2094757D06FA1F84493","title":"品尊国际","lon":"121.419493","lat":"31.255982","category":"252","category_name":"楼宇机构","address":"上海铜川路58弄"},{"poiid":"B2094757D06FA3F8419D","title":"真如西村","lon":"121.406","lat":"31.2507","category":"47","category_name":"住宅区","address":"上海普陀区大渡河路北石路"},{"poiid":"B2094654D56BA3F84698","title":"真如古镇","lon":"121.408872","lat":"31.251409","category":"250","category_name":"公园户外","address":"兰溪路209弄"},{"poiid":"B2094757DB6CAAF84592","title":"哈米儿童畅想小镇","lon":"121.4145473082891","lat":"31.25726952023632","category":"248","category_name":"生活娱乐","address":"铜川路68号"},{"poiid":"B2094757D06FAAF54799","title":"武宁公园","lon":"121.41519767","lat":"31.24542618","category":"196","category_name":"公园","address":"普陀区石泉路450号(近中宁路)"},{"poiid":"B2094750D26AA1FA419E","title":"七欣天迷宗蟹 铜川路店","lon":"121.41956806183","lat":"31.254413819535","category":"86","category_name":"火锅店","address":"普陀区铜川路68号弘基时尚生活中心4楼(近岚皋路)"},{"poiid":"B2094757D169A2FE419E","title":"铜川路岚皋路","lon":"121.41777695","lat":"31.2550817751","category":"500","category_name":"未知分类","address":"上海市普陀区铜川路岚皋路"},{"poiid":"B2094757D16CA6F84492","title":"新城市中心广场","lon":"121.42099495","lat":"31.2525797273","category":"46","category_name":"楼宇","address":"上海铜川路70号"},{"poiid":"B2094750D26CA4FB4993","title":"costa（品尊店）","lon":"121.4140471","lat":"31.2568432","category":"247","category_name":"餐饮美食","address":"普陀区铜川路68号弘基时尚生活中心106室(近府村路)"},{"poiid":"B2094757D069A2FE4993","title":"普陀公安分局交警支队","lon":"121.417973768","lat":"31.2557047464","category":"250","category_name":"公园户外","address":"上海府村路125号"},{"poiid":"B2094757D06FABFD479F","title":"岚皋馨苑","lon":"121.41546","lat":"31.254305","category":"47","category_name":"住宅区","address":"上海市宝山区行知路50弄"},{"poiid":"B2094757D16AABFC4298","title":"上海悦馨大酒店","lon":"121.413955586","lat":"31.2480587799","category":"76","category_name":"上海菜","address":"普陀区中宁路176号广西宾馆后侧"},{"poiid":"B2094757D068A5F9409D","title":"普陀区中医医院","lon":"121.4076828","lat":"31.2479404483","category":"162","category_name":"医院","address":"普陀区曹杨路1261号(近北石路)"},{"poiid":"B2094757D06FA4FD469E","title":"中友大厦","lon":"121.416","lat":"31.2509","category":"46","category_name":"楼宇","address":"上海普陀区曹杨路1040弄1号"},{"poiid":"B2094750D464AAF94298","title":"宝燕自助海鲜火锅","lon":"121.420852","lat":"31.252481","category":"247","category_name":"餐饮美食","address":"宏基"},{"poiid":"B2094751D369A4F8449A","title":"浅草居酒屋","lon":"121.41973","lat":"31.25432","category":"95","category_name":"日本料理","address":"普陀区铜川路66号弘基时尚生活中心2楼(近岚皋路)"},{"poiid":"B2094757D168ABFC4593","title":"劳动和社会保障局","lon":"121.410700386","lat":"31.2455235303","category":"500","category_name":"未知分类","address":"上海武宁路1036号"},{"poiid":"B2094757D16DA7FF439B","title":"曹杨路铜川路","lon":"121.40696345","lat":"31.25062539","category":"500","category_name":"未知分类","address":"上海曹杨路铜川路"},{"poiid":"B2094654D465A2F94992","title":"市政馨苑","lon":"121.41392","lat":"31.253273","category":"47","category_name":"住宅区","address":"联谊西康大厦位于静安西康路578号"},{"poiid":"B2094654D56AAAFE469F","title":"上海市国家税务局车辆购置税曹杨征收所","lon":"121.41257","lat":"31.24795","category":"250","category_name":"公园户外","address":"武宁路"},{"poiid":"B2094751D56CA5FD4399","title":"丸龟制面(弘基店)","lon":"121.41968","lat":"31.25428","category":"68","category_name":"快餐厅","address":"普陀区铜川路68号弘基时尚生活中心B1楼IFood食街(近岚皋路)"},{"poiid":"B2094750D269A1F54599","title":"铜川路银乐迪","lon":"121.419898","lat":"31.255123","category":"500","category_name":"未知分类","address":"普陀区铜川路68号弘基时尚生活中心4楼(近岚皋路)"},{"poiid":"B2094757D06FA4FE489B","title":"中宁家园","lon":"121.41636","lat":"31.249048","category":"47","category_name":"住宅区","address":"上海市普陀区中宁路88弄"},{"poiid":"B2094752D765A2FA459F","title":"顾村公园","lon":"121.414461","lat":"31.252933","category":"196","category_name":"公园","address":null},{"poiid":"B2094655D36DA6FF4192","title":"真如","lon":"121.4072","lat":"31.2511","category":"38","category_name":"公交车站","address":""},{"poiid":"B2094757D16DA7FD4692","title":"铜川水产市场","lon":"121.4130457","lat":"31.252476465","category":"500","category_name":"未知分类","address":"上海铜川路880"},{"poiid":"B2094757D069AAFF4093","title":"佑生精致月子会所(普陀店)","lon":"121.41972228","lat":"31.255999142","category":"149","category_name":"洗浴推拿场所","address":"普陀区铜川路58弄6号(近岚皋路)"},{"poiid":"B2094757D16DA7FA429E","title":"柚日式餐厅","lon":"121.420217","lat":"31.254686","category":"269","category_name":"烧烤","address":"普陀区铜川路50号明捷万丽酒店内(近地铁岚皋路站)"},{"poiid":"B209475CD46BA0FD4392","title":"外滩十八号","lon":"121.414199","lat":"31.252687","category":"500","category_name":"未知分类","address":"上海市 黄浦区外滩"},{"poiid":"B2094654DB6AABFA439F","title":"良友","lon":"121.41413","lat":"31.25275","category":"117","category_name":"便民商店/便利店","address":"铜川路354"},{"poiid":"B2094654D56AAAFD469F","title":"武宁长途汽车站","lon":"121.41323","lat":"31.24603","category":"35","category_name":"长途汽车站","address":"中宁路230"},{"poiid":"B2094654D465A2FA409E","title":"上海飞翼汽车服务有限公司","lon":"121.41353","lat":"31.25261","category":"250","category_name":"公园户外","address":"铜川路376"},{"poiid":"B2094757D468A4FE459C","title":"明捷万丽行政酒廊","lon":"121.4202169","lat":"31.2546865","category":"67","category_name":"甜品店","address":"普陀区铜川路50号"},{"poiid":"B2094654DB6AA4F44892","title":"盐阜人家 铜川店","lon":"121.41535","lat":"31.25254","category":"260","category_name":"其他","address":"普陀区铜川路333号(近岚皋路)"},{"poiid":"B2094750D76EA6FC4399","title":"Ifood美食广场","lon":"121.419","lat":"31.2556","category":"68","category_name":"快餐厅","address":"普陀区铜川路60号品尊国际B1楼37-50室(近品尊国际公寓)"},{"poiid":"B2094753D46BA1FB4592","title":"环球港","lon":"121.408569","lat":"31.250509","category":"500","category_name":"未知分类","address":"上海市 中山北路"},{"poiid":"B2094655D265A2FE409D","title":"长江实业办公楼","lon":"121.40907","lat":"31.25472","category":"46","category_name":"楼宇","address":"曹杨路1560"},{"poiid":"B2094654DB64A6FB409D","title":"上海广西宾馆","lon":"121.41406","lat":"31.24752","category":"215","category_name":"三星级宾馆","address":"普陀区中宁路176号(近石泉路)"},{"poiid":"B2094654D464A0FF439D","title":"山华果品批发市场","lon":"121.40937","lat":"31.25102","category":"117","category_name":"便民商店/便利店","address":"曹杨路1350弄"},{"poiid":"B2094752D165A7F9439A","title":"武宁路  我格广场","lon":"121.412871","lat":"31.256013","category":"500","category_name":"未知分类","address":"武宁路55号"},{"poiid":"B2094757D56DA4F9439D","title":"银乐迪","lon":"121.416022","lat":"31.254856","category":"248","category_name":"生活娱乐","address":"铜川路66号"},{"poiid":"B2094757DA6EA5FD479E","title":"丰收日(铜川路店)","lon":"121.419672599997","lat":"31.2543013999998","category":"75","category_name":"浙江菜","address":"普陀区铜川路68号弘基时尚生活中心4楼(近府村路)"},{"poiid":"B2094757DA69A1FA429C","title":"弘基时尚生活中心","lon":"121.41999985138","lat":"31.254465590793","category":"119","category_name":"商场","address":"普陀区铜川路68号(近地铁7号线岚皋路站)"},{"poiid":"B2094757D06FAAF9429E","title":"江苏饭店","lon":"121.41120158","lat":"31.246796755","category":"247","category_name":"餐饮美食","address":"普陀区普陀区武宁路888号(近中宁路)"},{"poiid":"B2094757D468A4FB4193","title":"香港狮子山下 弘基店","lon":"121.4199273","lat":"31.2544813","category":"72","category_name":"广东菜","address":"普陀区铜川路68号弘基时尚生活中心3楼305-306室(近岚皋路)"},{"poiid":"B2094751D36FA3FD4099","title":"宝燕海鲜自助火锅(铜川店)","lon":"121.41968","lat":"31.25428","category":"86","category_name":"火锅店","address":"普陀区铜川路68号宏基时尚中心3楼301室(近岚皋路)"},{"poiid":"B2094757D06FA2FF4098","title":"真如地铁站","lon":"121.407202","lat":"31.251089","category":"36","category_name":"地铁站","address":"上海轨道交通 十一号线 轨交真如站 11"},{"poiid":"B2094757D069A6F9429B","title":"品尊国际MOB会所","lon":"121.42003895","lat":"31.256073794","category":"500","category_name":"未知分类","address":"上海铜川路岚皋路"},{"poiid":"B2094757DA6EAAF4469C","title":"必胜客(品尊国际店)","lon":"121.4196839","lat":"31.2542897","category":"94","category_name":"西餐厅","address":"普陀区铜川路68号弘基时尚生活中心1楼(近岚皋路)"},{"poiid":"B2094757D06FA1F5469B","title":"金盛国际家居(铜川路店)","lon":"121.417231","lat":"31.252637","category":"123","category_name":"家具建材市场","address":"普陀区铜川路185号(近岚皋路)"},{"poiid":"B2094757D06FA1F84493","title":"品尊国际","lon":"121.419493","lat":"31.255982","category":"252","category_name":"楼宇机构","address":"上海铜川路58弄"},{"poiid":"B2094757D06FA3F8419D","title":"真如西村","lon":"121.406","lat":"31.2507","category":"47","category_name":"住宅区","address":"上海普陀区大渡河路北石路"},{"poiid":"B2094654D56BA3F84698","title":"真如古镇","lon":"121.408872","lat":"31.251409","category":"250","category_name":"公园户外","address":"兰溪路209弄"},{"poiid":"B2094757DB6CAAF84592","title":"哈米儿童畅想小镇","lon":"121.4145473082891","lat":"31.25726952023632","category":"248","category_name":"生活娱乐","address":"铜川路68号"},{"poiid":"B2094757D06FAAF54799","title":"武宁公园","lon":"121.41519767","lat":"31.24542618","category":"196","category_name":"公园","address":"普陀区石泉路450号(近中宁路)"},{"poiid":"B2094750D26AA1FA419E","title":"七欣天迷宗蟹 铜川路店","lon":"121.41956806183","lat":"31.254413819535","category":"86","category_name":"火锅店","address":"普陀区铜川路68号弘基时尚生活中心4楼(近岚皋路)"},{"poiid":"B2094757D169A2FE419E","title":"铜川路岚皋路","lon":"121.41777695","lat":"31.2550817751","category":"500","category_name":"未知分类","address":"上海市普陀区铜川路岚皋路"},{"poiid":"B2094757D16CA6F84492","title":"新城市中心广场","lon":"121.42099495","lat":"31.2525797273","category":"46","category_name":"楼宇","address":"上海铜川路70号"},{"poiid":"B2094750D26CA4FB4993","title":"costa（品尊店）","lon":"121.4140471","lat":"31.2568432","category":"247","category_name":"餐饮美食","address":"普陀区铜川路68号弘基时尚生活中心106室(近府村路)"},{"poiid":"B2094757D069A2FE4993","title":"普陀公安分局交警支队","lon":"121.417973768","lat":"31.2557047464","category":"250","category_name":"公园户外","address":"上海府村路125号"},{"poiid":"B2094757D06FABFD479F","title":"岚皋馨苑","lon":"121.41546","lat":"31.254305","category":"47","category_name":"住宅区","address":"上海市宝山区行知路50弄"},{"poiid":"B2094757D16AABFC4298","title":"上海悦馨大酒店","lon":"121.413955586","lat":"31.2480587799","category":"76","category_name":"上海菜","address":"普陀区中宁路176号广西宾馆后侧"},{"poiid":"B2094757D068A5F9409D","title":"普陀区中医医院","lon":"121.4076828","lat":"31.2479404483","category":"162","category_name":"医院","address":"普陀区曹杨路1261号(近北石路)"},{"poiid":"B2094757D06FA4FD469E","title":"中友大厦","lon":"121.416","lat":"31.2509","category":"46","category_name":"楼宇","address":"上海普陀区曹杨路1040弄1号"},{"poiid":"B2094750D464AAF94298","title":"宝燕自助海鲜火锅","lon":"121.420852","lat":"31.252481","category":"247","category_name":"餐饮美食","address":"宏基"},{"poiid":"B2094751D369A4F8449A","title":"浅草居酒屋","lon":"121.41973","lat":"31.25432","category":"95","category_name":"日本料理","address":"普陀区铜川路66号弘基时尚生活中心2楼(近岚皋路)"},{"poiid":"B2094757D168ABFC4593","title":"劳动和社会保障局","lon":"121.410700386","lat":"31.2455235303","category":"500","category_name":"未知分类","address":"上海武宁路1036号"},{"poiid":"B2094757D16DA7FF439B","title":"曹杨路铜川路","lon":"121.40696345","lat":"31.25062539","category":"500","category_name":"未知分类","address":"上海曹杨路铜川路"},{"poiid":"B2094654D465A2F94992","title":"市政馨苑","lon":"121.41392","lat":"31.253273","category":"47","category_name":"住宅区","address":"联谊西康大厦位于静安西康路578号"},{"poiid":"B2094654D56AAAFE469F","title":"上海市国家税务局车辆购置税曹杨征收所","lon":"121.41257","lat":"31.24795","category":"250","category_name":"公园户外","address":"武宁路"},{"poiid":"B2094751D56CA5FD4399","title":"丸龟制面(弘基店)","lon":"121.41968","lat":"31.25428","category":"68","category_name":"快餐厅","address":"普陀区铜川路68号弘基时尚生活中心B1楼IFood食街(近岚皋路)"},{"poiid":"B2094750D269A1F54599","title":"铜川路银乐迪","lon":"121.419898","lat":"31.255123","category":"500","category_name":"未知分类","address":"普陀区铜川路68号弘基时尚生活中心4楼(近岚皋路)"},{"poiid":"B2094757D06FA4FE489B","title":"中宁家园","lon":"121.41636","lat":"31.249048","category":"47","category_name":"住宅区","address":"上海市普陀区中宁路88弄"},{"poiid":"B2094752D765A2FA459F","title":"顾村公园","lon":"121.414461","lat":"31.252933","category":"196","category_name":"公园","address":null},{"poiid":"B2094655D36DA6FF4192","title":"真如","lon":"121.4072","lat":"31.2511","category":"38","category_name":"公交车站","address":""},{"poiid":"B2094757D16DA7FD4692","title":"铜川水产市场","lon":"121.4130457","lat":"31.252476465","category":"500","category_name":"未知分类","address":"上海铜川路880"},{"poiid":"B2094757D069AAFF4093","title":"佑生精致月子会所(普陀店)","lon":"121.41972228","lat":"31.255999142","category":"149","category_name":"洗浴推拿场所","address":"普陀区铜川路58弄6号(近岚皋路)"},{"poiid":"B2094757D16DA7FA429E","title":"柚日式餐厅","lon":"121.420217","lat":"31.254686","category":"269","category_name":"烧烤","address":"普陀区铜川路50号明捷万丽酒店内(近地铁岚皋路站)"},{"poiid":"B209475CD46BA0FD4392","title":"外滩十八号","lon":"121.414199","lat":"31.252687","category":"500","category_name":"未知分类","address":"上海市 黄浦区外滩"},{"poiid":"B2094654DB6AABFA439F","title":"良友","lon":"121.41413","lat":"31.25275","category":"117","category_name":"便民商店/便利店","address":"铜川路354"},{"poiid":"B2094654D56AAAFD469F","title":"武宁长途汽车站","lon":"121.41323","lat":"31.24603","category":"35","category_name":"长途汽车站","address":"中宁路230"},{"poiid":"B2094654D465A2FA409E","title":"上海飞翼汽车服务有限公司","lon":"121.41353","lat":"31.25261","category":"250","category_name":"公园户外","address":"铜川路376"},{"poiid":"B2094757D468A4FE459C","title":"明捷万丽行政酒廊","lon":"121.4202169","lat":"31.2546865","category":"67","category_name":"甜品店","address":"普陀区铜川路50号"},{"poiid":"B2094654DB6AA4F44892","title":"盐阜人家 铜川店","lon":"121.41535","lat":"31.25254","category":"260","category_name":"其他","address":"普陀区铜川路333号(近岚皋路)"},{"poiid":"B2094750D76EA6FC4399","title":"Ifood美食广场","lon":"121.419","lat":"31.2556","category":"68","category_name":"快餐厅","address":"普陀区铜川路60号品尊国际B1楼37-50室(近品尊国际公寓)"},{"poiid":"B2094753D46BA1FB4592","title":"环球港","lon":"121.408569","lat":"31.250509","category":"500","category_name":"未知分类","address":"上海市 中山北路"},{"poiid":"B2094655D265A2FE409D","title":"长江实业办公楼","lon":"121.40907","lat":"31.25472","category":"46","category_name":"楼宇","address":"曹杨路1560"},{"poiid":"B2094654DB64A6FB409D","title":"上海广西宾馆","lon":"121.41406","lat":"31.24752","category":"215","category_name":"三星级宾馆","address":"普陀区中宁路176号(近石泉路)"},{"poiid":"B2094654D464A0FF439D","title":"山华果品批发市场","lon":"121.40937","lat":"31.25102","category":"117","category_name":"便民商店/便利店","address":"曹杨路1350弄"},{"poiid":"B2094752D165A7F9439A","title":"武宁路  我格广场","lon":"121.412871","lat":"31.256013","category":"500","category_name":"未知分类","address":"武宁路55号"}]