[{"poiid":"B2094655D26BA2F84293","title":"甜爱路","lon":"121.48344","lat":"31.26536","category":"116","category_name":"特色商业街","address":""},{"poiid":"B2094654D56CA7FC4298","title":"万寿斋","lon":"121.48483604535","lat":"31.266169526803","category":"68","category_name":"快餐厅","address":"虹口区山阴路123号(四达路吉祥路间)"},{"poiid":"B2094750D66EA5F94192","title":"觅糖记","lon":"121.483413","lat":"31.265596","category":"67","category_name":"甜品店","address":"虹口区甜爱路11号(近四川北路)"},{"poiid":"B2094757D06FA3F84392","title":"南华火锅(四川路店)","lon":"121.48408","lat":"31.26301","category":"86","category_name":"火锅店","address":"虹口区四川北路1975-1985号(长春路口)"},{"poiid":"B2094757D46DABFA419F","title":"哈根达斯 四川北路店 Haagen-Dazs","lon":"121.483787","lat":"31.264406","category":"113","category_name":"冷饮店","address":"虹口区四川北路1661号凯鸿商场1楼(近东宝兴路)"},{"poiid":"B2094757D06FA5FF469A","title":"普乐迪量贩KTV","lon":"121.483738206","lat":"31.2622111583","category":"170","category_name":"KTV","address":"虹口区四川北路1915号时装大厦7楼(近多伦路)"},{"poiid":"B2094757D06FA2F44092","title":"甜爱路心型邮筒","lon":"121.483449795","lat":"31.2644705499","category":"260","category_name":"其他","address":"上海甜爱路3号对面"},{"poiid":"B2094757D068A1F8499E","title":"独门冲炭火自助烤肉","lon":"121.4837534","lat":"31.26218585","category":"268","category_name":"自助","address":"虹口区四川北路1885号多伦生活广场B1楼"},{"poiid":"B2094654DB6AAAF9419A","title":"必胜客东泰餐厅","lon":"121.48393","lat":"31.26451","category":"68","category_name":"快餐厅","address":"四川北路2002弄17号东泰休闲广场1-2层"},{"poiid":"B2094757D06FA6F94392","title":"四新食苑","lon":"121.48449","lat":"31.26215","category":"68","category_name":"快餐厅","address":"虹口区四川北路1908号(近多伦路)"},{"poiid":"B2094757D06FA3F9489E","title":"飞龙生煎","lon":"121.484089067","lat":"31.2644533438","category":"68","category_name":"快餐厅","address":"虹口区四川北路2002号东泰休闲广场1楼(近山阴路)"},{"poiid":"B2094757D06FA1FC469F","title":"生仕鱼林港(四川北路店)","lon":"121.48429","lat":"31.26422","category":"86","category_name":"火锅店","address":"虹口区四川北路2002号东泰休闲广场17号2楼(近山阴路)"},{"poiid":"B2094654D56CA7FA4192","title":"东泰休闲广场","lon":"121.48425","lat":"31.26416","category":"119","category_name":"商场","address":"虹口区四川北路2002号东泰休闲广场内(近山阴路)"},{"poiid":"B2094654D56CA7FA459D","title":"四川北路营业厅","lon":"121.48413","lat":"31.26351","category":"151","category_name":"电讯营业厅","address":"虹口区四川北路1970号"},{"poiid":"B2094757D06FA4FD449A","title":"山阴路","lon":"121.48394016","lat":"31.26469785","category":"500","category_name":"未知分类","address":"上海市虹口区山阴路"},{"poiid":"B2094757D06FA4F5459F","title":"虹东韩国料理","lon":"121.48310883759","lat":"31.262272939894","category":"96","category_name":"韩国料理","address":"虹口区多伦路239号(近四川北路)"},{"poiid":"B2094757D068A3FC429B","title":"天兴百货","lon":"121.48212","lat":"31.26491","category":"119","category_name":"商场","address":"虹口区四川北路2120号(近东江湾路)"},{"poiid":"B2094757D06FA0F94298","title":"望湘园(四川北路店)","lon":"121.48399","lat":"31.26204","category":"77","category_name":"湖南菜","address":"虹口区四川北路1941号金海岸大厦4楼(近多伦路)"},{"poiid":"B2094757D06BA5F84699","title":"复地新都国际","lon":"121.48436466224","lat":"31.264570145955","category":"47","category_name":"住宅区","address":"吴中区临湖镇腾飞路588号(腾飞路与东山大道交汇处向西1500米)"},{"poiid":"B2094757D569A0FA4292","title":"麦迪森视听歌城","lon":"121.48221137","lat":"31.26560845","category":"170","category_name":"KTV","address":"四川北路2118号3层"},{"poiid":"B2094655D26FAAF8449C","title":"考拉花园旅舍多伦路店","lon":"121.48172","lat":"31.26435","category":"217","category_name":"旅馆招待所","address":"多伦路240号"},{"poiid":"B2094654D56CA6FE4099","title":"伊斯兰餐厅","lon":"121.48391306194","lat":"31.263468635239","category":"90","category_name":"清真餐馆","address":"虹口区四川北路2035号(近山阴路)"},{"poiid":"B2094757D06FA7F94793","title":"一品韩拌饭(四川北路店)","lon":"121.48244","lat":"31.26456","category":"96","category_name":"韩国料理","address":"虹口区四川北路2091号(近多伦路)"},{"poiid":"B2094655D265A5FB4493","title":"DQ天兴店","lon":"121.4821","lat":"31.26526","category":"113","category_name":"冷饮店","address":"四川北路2118号天兴百货旁"},{"poiid":"B2094655D26EA3F84393","title":"味千拉面四川北路店","lon":"121.48346","lat":"31.2648","category":"95","category_name":"日本料理","address":"虹口区四川北路2058号(近甜爱路)"},{"poiid":"B2094757D06FA4F84993","title":"振鼎鸡(溧阳路店)","lon":"121.48465","lat":"31.26335","category":"68","category_name":"快餐厅","address":"虹口区溧阳路1400号(近四川北路)"},{"poiid":"B2094654DB6AAAF9429A","title":"傣妹(四川路二店)","lon":"121.48404","lat":"31.26201","category":"87","category_name":"特色／地方风味餐厅","address":"虹口区四川北路1898号3楼(近多伦路)"},{"poiid":"B2094757D065A6FC4093","title":"光头生煎","lon":"121.4845941","lat":"31.266254335","category":"68","category_name":"快餐厅","address":"虹口区山阴路141号(近吉祥路)"},{"poiid":"B2094753D26EA2FA409C","title":"虹口足球场","lon":"121.484102","lat":"31.265335","category":"220","category_name":"运动场所","address":"上海市 东江湾路100号"},{"poiid":"B2094655D36CA1FF439E","title":"四川北路多伦路","lon":"121.48198","lat":"31.26562","category":"38","category_name":"公交车站","address":"上海市虹口区西江湾路"},{"poiid":"B2094757D06AA1FB419D","title":"桉树餐馆 illy","lon":"121.48199","lat":"31.2648","category":"94","category_name":"西餐厅","address":"虹口区多伦路240号考拉花园旅舍内(近四川北路)"},{"poiid":"B2094654DB65A5F9429C","title":"和中堂足道(多伦路文化名人街)","lon":"121.48358","lat":"31.26229","category":"149","category_name":"洗浴推拿场所","address":"虹口区多伦路8号4楼(近四川北路)"},{"poiid":"B2094757D068A1F5429B","title":"光头面馆 山阴路店","lon":"121.48487","lat":"31.266139","category":"68","category_name":"快餐厅","address":"虹口区山阴路139号(近吉祥路)"},{"poiid":"B2094757D06FAAF44499","title":"金太子形象设计(四川北路店)","lon":"121.48269","lat":"31.26462","category":"148","category_name":"美容美发店","address":"虹口区四川北路2075号(近多伦路)"},{"poiid":"B2094654DB69A0F5419B","title":"鲁迅故居","lon":"121.48435","lat":"31.26613","category":"243","category_name":"纪念馆","address":"虹口区山阴路132弄(大陆新村)9号"},{"poiid":"B2094757D068A6F5489E","title":"鸭王(虹口店)","lon":"121.4843","lat":"31.26422","category":"260","category_name":"其他","address":"虹口区四川北路2002弄17号东泰休闲广场3楼(近山阴路)"},{"poiid":"B2094655D26AA5F44893","title":"王磊形象公社四川北路店","lon":"121.48273","lat":"31.26457","category":"247","category_name":"餐饮美食","address":"虹口区四川北路2071号2楼(近甜爱路)"},{"poiid":"B2094757D469A7FF489B","title":"虹口糕团","lon":"121.48353","lat":"31.26454","category":"87","category_name":"特色／地方风味餐厅","address":"虹口区四川北路2305号-2(近虹口足球场站)"},{"poiid":"B2094655D26BA2F8439A","title":"甜爱路四川北路","lon":"121.48337","lat":"31.26492","category":"38","category_name":"公交车站","address":""},{"poiid":"B2094757D068AAF5469B","title":"美豪酒店多伦路店","lon":"121.4841961","lat":"31.262308252","category":"214","category_name":"四星级宾馆","address":"上海市虹口区四川北路1885号(近多伦路)"},{"poiid":"B2094757D06AA0FB4992","title":"重庆鸡公煲 东泰广场店","lon":"121.483622054","lat":"31.263378793","category":"71","category_name":"四川菜","address":"虹口区四川北路2005号(东泰广场对面)"},{"poiid":"B2094757D068A7FA489C","title":"予约时尚(山阴路店)","lon":"121.48487469","lat":"31.264853465","category":"148","category_name":"美容美发店","address":"虹口区山阴路51号(近东泰休闲广场)"},{"poiid":"B2094757D66BA0F4449A","title":"复茂小龙虾 四川北路店","lon":"121.483972054","lat":"31.264285793","category":"68","category_name":"快餐厅","address":"虹口区四川北路2002弄东泰休闲广场1楼(近山阴路)"},{"poiid":"B2094750D76EA3FE489F","title":"富源春鸡汤面(四川北路店)","lon":"121.484","lat":"31.2622","category":"68","category_name":"快餐厅","address":"虹口区四川北路1906弄100号(近多伦路)"},{"poiid":"B2094757D06AA4F44493","title":"福徕小菜(四川北路店)","lon":"121.48214","lat":"31.26553","category":"76","category_name":"上海菜","address":"虹口区四川北路2131号(近东江湾路)"},{"poiid":"B2094655D26EA5F84292","title":"如家快捷酒店(上海鲁迅公园店)","lon":"121.48258","lat":"31.26624","category":"216","category_name":"经济型连锁酒店","address":"上海市虹口区四川北路2146号(近鲁迅公园)"},{"poiid":"B2094757D064A4FA4693","title":"复兴初级中学","lon":"121.48348","lat":"31.26472","category":"55","category_name":"中学","address":"上海虹口区四川北路2066号  "},{"poiid":"B2094757D66FA2FC4099","title":"鱼林港","lon":"121.484525103","lat":"31.2620422471","category":"500","category_name":"未知分类","address":"上海四川北路东泰休闲广场"},{"poiid":"B2094750D565A4FC469B","title":"丰庭私房菜","lon":"121.484443","lat":"31.263837","category":"76","category_name":"上海菜","address":"虹口区四川北路2002弄12号东泰休闲广场3楼(近鲁迅公园)"},{"poiid":"B2094757D46EA2FC489F","title":"85度C 四川北路店","lon":"121.484003054","lat":"31.263574793","category":"112","category_name":"糕饼店","address":"虹口区四川北路1861号荣欣大厦31室(近多伦路)"},{"poiid":"B2094655D26BA2F84293","title":"甜爱路","lon":"121.48344","lat":"31.26536","category":"116","category_name":"特色商业街","address":""},{"poiid":"B2094654D56CA7FC4298","title":"万寿斋","lon":"121.48483604535","lat":"31.266169526803","category":"68","category_name":"快餐厅","address":"虹口区山阴路123号(四达路吉祥路间)"},{"poiid":"B2094750D66EA5F94192","title":"觅糖记","lon":"121.483413","lat":"31.265596","category":"67","category_name":"甜品店","address":"虹口区甜爱路11号(近四川北路)"},{"poiid":"B2094757D06FA3F84392","title":"南华火锅(四川路店)","lon":"121.48408","lat":"31.26301","category":"86","category_name":"火锅店","address":"虹口区四川北路1975-1985号(长春路口)"},{"poiid":"B2094757D46DABFA419F","title":"哈根达斯 四川北路店 Haagen-Dazs","lon":"121.483787","lat":"31.264406","category":"113","category_name":"冷饮店","address":"虹口区四川北路1661号凯鸿商场1楼(近东宝兴路)"},{"poiid":"B2094757D06FA5FF469A","title":"普乐迪量贩KTV","lon":"121.483738206","lat":"31.2622111583","category":"170","category_name":"KTV","address":"虹口区四川北路1915号时装大厦7楼(近多伦路)"},{"poiid":"B2094757D06FA2F44092","title":"甜爱路心型邮筒","lon":"121.483449795","lat":"31.2644705499","category":"260","category_name":"其他","address":"上海甜爱路3号对面"},{"poiid":"B2094757D068A1F8499E","title":"独门冲炭火自助烤肉","lon":"121.4837534","lat":"31.26218585","category":"268","category_name":"自助","address":"虹口区四川北路1885号多伦生活广场B1楼"},{"poiid":"B2094654DB6AAAF9419A","title":"必胜客东泰餐厅","lon":"121.48393","lat":"31.26451","category":"68","category_name":"快餐厅","address":"四川北路2002弄17号东泰休闲广场1-2层"},{"poiid":"B2094757D06FA6F94392","title":"四新食苑","lon":"121.48449","lat":"31.26215","category":"68","category_name":"快餐厅","address":"虹口区四川北路1908号(近多伦路)"},{"poiid":"B2094757D06FA3F9489E","title":"飞龙生煎","lon":"121.484089067","lat":"31.2644533438","category":"68","category_name":"快餐厅","address":"虹口区四川北路2002号东泰休闲广场1楼(近山阴路)"},{"poiid":"B2094757D06FA1FC469F","title":"生仕鱼林港(四川北路店)","lon":"121.48429","lat":"31.26422","category":"86","category_name":"火锅店","address":"虹口区四川北路2002号东泰休闲广场17号2楼(近山阴路)"},{"poiid":"B2094654D56CA7FA4192","title":"东泰休闲广场","lon":"121.48425","lat":"31.26416","category":"119","category_name":"商场","address":"虹口区四川北路2002号东泰休闲广场内(近山阴路)"},{"poiid":"B2094654D56CA7FA459D","title":"四川北路营业厅","lon":"121.48413","lat":"31.26351","category":"151","category_name":"电讯营业厅","address":"虹口区四川北路1970号"},{"poiid":"B2094757D06FA4FD449A","title":"山阴路","lon":"121.48394016","lat":"31.26469785","category":"500","category_name":"未知分类","address":"上海市虹口区山阴路"},{"poiid":"B2094757D06FA4F5459F","title":"虹东韩国料理","lon":"121.48310883759","lat":"31.262272939894","category":"96","category_name":"韩国料理","address":"虹口区多伦路239号(近四川北路)"},{"poiid":"B2094757D068A3FC429B","title":"天兴百货","lon":"121.48212","lat":"31.26491","category":"119","category_name":"商场","address":"虹口区四川北路2120号(近东江湾路)"},{"poiid":"B2094757D06FA0F94298","title":"望湘园(四川北路店)","lon":"121.48399","lat":"31.26204","category":"77","category_name":"湖南菜","address":"虹口区四川北路1941号金海岸大厦4楼(近多伦路)"},{"poiid":"B2094757D06BA5F84699","title":"复地新都国际","lon":"121.48436466224","lat":"31.264570145955","category":"47","category_name":"住宅区","address":"吴中区临湖镇腾飞路588号(腾飞路与东山大道交汇处向西1500米)"},{"poiid":"B2094757D569A0FA4292","title":"麦迪森视听歌城","lon":"121.48221137","lat":"31.26560845","category":"170","category_name":"KTV","address":"四川北路2118号3层"},{"poiid":"B2094655D26FAAF8449C","title":"考拉花园旅舍多伦路店","lon":"121.48172","lat":"31.26435","category":"217","category_name":"旅馆招待所","address":"多伦路240号"},{"poiid":"B2094654D56CA6FE4099","title":"伊斯兰餐厅","lon":"121.48391306194","lat":"31.263468635239","category":"90","category_name":"清真餐馆","address":"虹口区四川北路2035号(近山阴路)"},{"poiid":"B2094757D06FA7F94793","title":"一品韩拌饭(四川北路店)","lon":"121.48244","lat":"31.26456","category":"96","category_name":"韩国料理","address":"虹口区四川北路2091号(近多伦路)"},{"poiid":"B2094655D265A5FB4493","title":"DQ天兴店","lon":"121.4821","lat":"31.26526","category":"113","category_name":"冷饮店","address":"四川北路2118号天兴百货旁"},{"poiid":"B2094655D26EA3F84393","title":"味千拉面四川北路店","lon":"121.48346","lat":"31.2648","category":"95","category_name":"日本料理","address":"虹口区四川北路2058号(近甜爱路)"},{"poiid":"B2094757D06FA4F84993","title":"振鼎鸡(溧阳路店)","lon":"121.48465","lat":"31.26335","category":"68","category_name":"快餐厅","address":"虹口区溧阳路1400号(近四川北路)"},{"poiid":"B2094654DB6AAAF9429A","title":"傣妹(四川路二店)","lon":"121.48404","lat":"31.26201","category":"87","category_name":"特色／地方风味餐厅","address":"虹口区四川北路1898号3楼(近多伦路)"},{"poiid":"B2094757D065A6FC4093","title":"光头生煎","lon":"121.4845941","lat":"31.266254335","category":"68","category_name":"快餐厅","address":"虹口区山阴路141号(近吉祥路)"},{"poiid":"B2094753D26EA2FA409C","title":"虹口足球场","lon":"121.484102","lat":"31.265335","category":"220","category_name":"运动场所","address":"上海市 东江湾路100号"},{"poiid":"B2094655D36CA1FF439E","title":"四川北路多伦路","lon":"121.48198","lat":"31.26562","category":"38","category_name":"公交车站","address":"上海市虹口区西江湾路"},{"poiid":"B2094757D06AA1FB419D","title":"桉树餐馆 illy","lon":"121.48199","lat":"31.2648","category":"94","category_name":"西餐厅","address":"虹口区多伦路240号考拉花园旅舍内(近四川北路)"},{"poiid":"B2094654DB65A5F9429C","title":"和中堂足道(多伦路文化名人街)","lon":"121.48358","lat":"31.26229","category":"149","category_name":"洗浴推拿场所","address":"虹口区多伦路8号4楼(近四川北路)"},{"poiid":"B2094757D068A1F5429B","title":"光头面馆 山阴路店","lon":"121.48487","lat":"31.266139","category":"68","category_name":"快餐厅","address":"虹口区山阴路139号(近吉祥路)"},{"poiid":"B2094757D06FAAF44499","title":"金太子形象设计(四川北路店)","lon":"121.48269","lat":"31.26462","category":"148","category_name":"美容美发店","address":"虹口区四川北路2075号(近多伦路)"},{"poiid":"B2094654DB69A0F5419B","title":"鲁迅故居","lon":"121.48435","lat":"31.26613","category":"243","category_name":"纪念馆","address":"虹口区山阴路132弄(大陆新村)9号"},{"poiid":"B2094757D068A6F5489E","title":"鸭王(虹口店)","lon":"121.4843","lat":"31.26422","category":"260","category_name":"其他","address":"虹口区四川北路2002弄17号东泰休闲广场3楼(近山阴路)"},{"poiid":"B2094655D26AA5F44893","title":"王磊形象公社四川北路店","lon":"121.48273","lat":"31.26457","category":"247","category_name":"餐饮美食","address":"虹口区四川北路2071号2楼(近甜爱路)"},{"poiid":"B2094757D469A7FF489B","title":"虹口糕团","lon":"121.48353","lat":"31.26454","category":"87","category_name":"特色／地方风味餐厅","address":"虹口区四川北路2305号-2(近虹口足球场站)"},{"poiid":"B2094655D26BA2F8439A","title":"甜爱路四川北路","lon":"121.48337","lat":"31.26492","category":"38","category_name":"公交车站","address":""},{"poiid":"B2094757D068AAF5469B","title":"美豪酒店多伦路店","lon":"121.4841961","lat":"31.262308252","category":"214","category_name":"四星级宾馆","address":"上海市虹口区四川北路1885号(近多伦路)"},{"poiid":"B2094757D06AA0FB4992","title":"重庆鸡公煲 东泰广场店","lon":"121.483622054","lat":"31.263378793","category":"71","category_name":"四川菜","address":"虹口区四川北路2005号(东泰广场对面)"},{"poiid":"B2094757D068A7FA489C","title":"予约时尚(山阴路店)","lon":"121.48487469","lat":"31.264853465","category":"148","category_name":"美容美发店","address":"虹口区山阴路51号(近东泰休闲广场)"},{"poiid":"B2094757D66BA0F4449A","title":"复茂小龙虾 四川北路店","lon":"121.483972054","lat":"31.264285793","category":"68","category_name":"快餐厅","address":"虹口区四川北路2002弄东泰休闲广场1楼(近山阴路)"},{"poiid":"B2094750D76EA3FE489F","title":"富源春鸡汤面(四川北路店)","lon":"121.484","lat":"31.2622","category":"68","category_name":"快餐厅","address":"虹口区四川北路1906弄100号(近多伦路)"},{"poiid":"B2094757D06AA4F44493","title":"福徕小菜(四川北路店)","lon":"121.48214","lat":"31.26553","category":"76","category_name":"上海菜","address":"虹口区四川北路2131号(近东江湾路)"},{"poiid":"B2094655D26EA5F84292","title":"如家快捷酒店(上海鲁迅公园店)","lon":"121.48258","lat":"31.26624","category":"216","category_name":"经济型连锁酒店","address":"上海市虹口区四川北路2146号(近鲁迅公园)"},{"poiid":"B2094757D064A4FA4693","title":"复兴初级中学","lon":"121.48348","lat":"31.26472","category":"55","category_name":"中学","address":"上海虹口区四川北路2066号  "},{"poiid":"B2094757D66FA2FC4099","title":"鱼林港","lon":"121.484525103","lat":"31.2620422471","category":"500","category_name":"未知分类","address":"上海四川北路东泰休闲广场"},{"poiid":"B2094750D565A4FC469B","title":"丰庭私房菜","lon":"121.484443","lat":"31.263837","category":"76","category_name":"上海菜","address":"虹口区四川北路2002弄12号东泰休闲广场3楼(近鲁迅公园)"},{"poiid":"B2094757D46EA2FC489F","title":"85度C 四川北路店","lon":"121.484003054","lat":"31.263574793","category":"112","category_name":"糕饼店","address":"虹口区四川北路1861号荣欣大厦31室(近多伦路)"},{"poiid":"B2094655D26BA2F84293","title":"甜爱路","lon":"121.48344","lat":"31.26536","category":"116","category_name":"特色商业街","address":""},{"poiid":"B2094654D56CA7FC4298","title":"万寿斋","lon":"121.48483604535","lat":"31.266169526803","category":"68","category_name":"快餐厅","address":"虹口区山阴路123号(四达路吉祥路间)"},{"poiid":"B2094750D66EA5F94192","title":"觅糖记","lon":"121.483413","lat":"31.265596","category":"67","category_name":"甜品店","address":"虹口区甜爱路11号(近四川北路)"},{"poiid":"B2094757D06FA3F84392","title":"南华火锅(四川路店)","lon":"121.48408","lat":"31.26301","category":"86","category_name":"火锅店","address":"虹口区四川北路1975-1985号(长春路口)"},{"poiid":"B2094757D46DABFA419F","title":"哈根达斯 四川北路店 Haagen-Dazs","lon":"121.483787","lat":"31.264406","category":"113","category_name":"冷饮店","address":"虹口区四川北路1661号凯鸿商场1楼(近东宝兴路)"},{"poiid":"B2094757D06FA5FF469A","title":"普乐迪量贩KTV","lon":"121.483738206","lat":"31.2622111583","category":"170","category_name":"KTV","address":"虹口区四川北路1915号时装大厦7楼(近多伦路)"},{"poiid":"B2094757D06FA2F44092","title":"甜爱路心型邮筒","lon":"121.483449795","lat":"31.2644705499","category":"260","category_name":"其他","address":"上海甜爱路3号对面"},{"poiid":"B2094757D068A1F8499E","title":"独门冲炭火自助烤肉","lon":"121.4837534","lat":"31.26218585","category":"268","category_name":"自助","address":"虹口区四川北路1885号多伦生活广场B1楼"},{"poiid":"B2094654DB6AAAF9419A","title":"必胜客东泰餐厅","lon":"121.48393","lat":"31.26451","category":"68","category_name":"快餐厅","address":"四川北路2002弄17号东泰休闲广场1-2层"},{"poiid":"B2094757D06FA6F94392","title":"四新食苑","lon":"121.48449","lat":"31.26215","category":"68","category_name":"快餐厅","address":"虹口区四川北路1908号(近多伦路)"},{"poiid":"B2094757D06FA3F9489E","title":"飞龙生煎","lon":"121.484089067","lat":"31.2644533438","category":"68","category_name":"快餐厅","address":"虹口区四川北路2002号东泰休闲广场1楼(近山阴路)"},{"poiid":"B2094757D06FA1FC469F","title":"生仕鱼林港(四川北路店)","lon":"121.48429","lat":"31.26422","category":"86","category_name":"火锅店","address":"虹口区四川北路2002号东泰休闲广场17号2楼(近山阴路)"},{"poiid":"B2094654D56CA7FA4192","title":"东泰休闲广场","lon":"121.48425","lat":"31.26416","category":"119","category_name":"商场","address":"虹口区四川北路2002号东泰休闲广场内(近山阴路)"},{"poiid":"B2094654D56CA7FA459D","title":"四川北路营业厅","lon":"121.48413","lat":"31.26351","category":"151","category_name":"电讯营业厅","address":"虹口区四川北路1970号"},{"poiid":"B2094757D06FA4FD449A","title":"山阴路","lon":"121.48394016","lat":"31.26469785","category":"500","category_name":"未知分类","address":"上海市虹口区山阴路"},{"poiid":"B2094757D06FA4F5459F","title":"虹东韩国料理","lon":"121.48310883759","lat":"31.262272939894","category":"96","category_name":"韩国料理","address":"虹口区多伦路239号(近四川北路)"},{"poiid":"B2094757D068A3FC429B","title":"天兴百货","lon":"121.48212","lat":"31.26491","category":"119","category_name":"商场","address":"虹口区四川北路2120号(近东江湾路)"},{"poiid":"B2094757D06FA0F94298","title":"望湘园(四川北路店)","lon":"121.48399","lat":"31.26204","category":"77","category_name":"湖南菜","address":"虹口区四川北路1941号金海岸大厦4楼(近多伦路)"},{"poiid":"B2094757D06BA5F84699","title":"复地新都国际","lon":"121.48436466224","lat":"31.264570145955","category":"47","category_name":"住宅区","address":"吴中区临湖镇腾飞路588号(腾飞路与东山大道交汇处向西1500米)"},{"poiid":"B2094757D569A0FA4292","title":"麦迪森视听歌城","lon":"121.48221137","lat":"31.26560845","category":"170","category_name":"KTV","address":"四川北路2118号3层"},{"poiid":"B2094655D26FAAF8449C","title":"考拉花园旅舍多伦路店","lon":"121.48172","lat":"31.26435","category":"217","category_name":"旅馆招待所","address":"多伦路240号"},{"poiid":"B2094654D56CA6FE4099","title":"伊斯兰餐厅","lon":"121.48391306194","lat":"31.263468635239","category":"90","category_name":"清真餐馆","address":"虹口区四川北路2035号(近山阴路)"},{"poiid":"B2094757D06FA7F94793","title":"一品韩拌饭(四川北路店)","lon":"121.48244","lat":"31.26456","category":"96","category_name":"韩国料理","address":"虹口区四川北路2091号(近多伦路)"},{"poiid":"B2094655D265A5FB4493","title":"DQ天兴店","lon":"121.4821","lat":"31.26526","category":"113","category_name":"冷饮店","address":"四川北路2118号天兴百货旁"},{"poiid":"B2094655D26EA3F84393","title":"味千拉面四川北路店","lon":"121.48346","lat":"31.2648","category":"95","category_name":"日本料理","address":"虹口区四川北路2058号(近甜爱路)"},{"poiid":"B2094757D06FA4F84993","title":"振鼎鸡(溧阳路店)","lon":"121.48465","lat":"31.26335","category":"68","category_name":"快餐厅","address":"虹口区溧阳路1400号(近四川北路)"},{"poiid":"B2094654DB6AAAF9429A","title":"傣妹(四川路二店)","lon":"121.48404","lat":"31.26201","category":"87","category_name":"特色／地方风味餐厅","address":"虹口区四川北路1898号3楼(近多伦路)"},{"poiid":"B2094757D065A6FC4093","title":"光头生煎","lon":"121.4845941","lat":"31.266254335","category":"68","category_name":"快餐厅","address":"虹口区山阴路141号(近吉祥路)"},{"poiid":"B2094753D26EA2FA409C","title":"虹口足球场","lon":"121.484102","lat":"31.265335","category":"220","category_name":"运动场所","address":"上海市 东江湾路100号"},{"poiid":"B2094655D36CA1FF439E","title":"四川北路多伦路","lon":"121.48198","lat":"31.26562","category":"38","category_name":"公交车站","address":"上海市虹口区西江湾路"},{"poiid":"B2094757D06AA1FB419D","title":"桉树餐馆 illy","lon":"121.48199","lat":"31.2648","category":"94","category_name":"西餐厅","address":"虹口区多伦路240号考拉花园旅舍内(近四川北路)"},{"poiid":"B2094654DB65A5F9429C","title":"和中堂足道(多伦路文化名人街)","lon":"121.48358","lat":"31.26229","category":"149","category_name":"洗浴推拿场所","address":"虹口区多伦路8号4楼(近四川北路)"},{"poiid":"B2094757D068A1F5429B","title":"光头面馆 山阴路店","lon":"121.48487","lat":"31.266139","category":"68","category_name":"快餐厅","address":"虹口区山阴路139号(近吉祥路)"},{"poiid":"B2094757D06FAAF44499","title":"金太子形象设计(四川北路店)","lon":"121.48269","lat":"31.26462","category":"148","category_name":"美容美发店","address":"虹口区四川北路2075号(近多伦路)"},{"poiid":"B2094654DB69A0F5419B","title":"鲁迅故居","lon":"121.48435","lat":"31.26613","category":"243","category_name":"纪念馆","address":"虹口区山阴路132弄(大陆新村)9号"},{"poiid":"B2094757D068A6F5489E","title":"鸭王(虹口店)","lon":"121.4843","lat":"31.26422","category":"260","category_name":"其他","address":"虹口区四川北路2002弄17号东泰休闲广场3楼(近山阴路)"},{"poiid":"B2094655D26AA5F44893","title":"王磊形象公社四川北路店","lon":"121.48273","lat":"31.26457","category":"247","category_name":"餐饮美食","address":"虹口区四川北路2071号2楼(近甜爱路)"},{"poiid":"B2094757D469A7FF489B","title":"虹口糕团","lon":"121.48353","lat":"31.26454","category":"87","category_name":"特色／地方风味餐厅","address":"虹口区四川北路2305号-2(近虹口足球场站)"},{"poiid":"B2094655D26BA2F8439A","title":"甜爱路四川北路","lon":"121.48337","lat":"31.26492","category":"38","category_name":"公交车站","address":""},{"poiid":"B2094757D068AAF5469B","title":"美豪酒店多伦路店","lon":"121.4841961","lat":"31.262308252","category":"214","category_name":"四星级宾馆","address":"上海市虹口区四川北路1885号(近多伦路)"},{"poiid":"B2094757D06AA0FB4992","title":"重庆鸡公煲 东泰广场店","lon":"121.483622054","lat":"31.263378793","category":"71","category_name":"四川菜","address":"虹口区四川北路2005号(东泰广场对面)"},{"poiid":"B2094757D068A7FA489C","title":"予约时尚(山阴路店)","lon":"121.48487469","lat":"31.264853465","category":"148","category_name":"美容美发店","address":"虹口区山阴路51号(近东泰休闲广场)"},{"poiid":"B2094757D66BA0F4449A","title":"复茂小龙虾 四川北路店","lon":"121.483972054","lat":"31.264285793","category":"68","category_name":"快餐厅","address":"虹口区四川北路2002弄东泰休闲广场1楼(近山阴路)"},{"poiid":"B2094750D76EA3FE489F","title":"富源春鸡汤面(四川北路店)","lon":"121.484","lat":"31.2622","category":"68","category_name":"快餐厅","address":"虹口区四川北路1906弄100号(近多伦路)"},{"poiid":"B2094757D06AA4F44493","title":"福徕小菜(四川北路店)","lon":"121.48214","lat":"31.26553","category":"76","category_name":"上海菜","address":"虹口区四川北路2131号(近东江湾路)"},{"poiid":"B2094655D26EA5F84292","title":"如家快捷酒店(上海鲁迅公园店)","lon":"121.48258","lat":"31.26624","category":"216","category_name":"经济型连锁酒店","address":"上海市虹口区四川北路2146号(近鲁迅公园)"},{"poiid":"B2094757D064A4FA4693","title":"复兴初级中学","lon":"121.48348","lat":"31.26472","category":"55","category_name":"中学","address":"上海虹口区四川北路2066号  "},{"poiid":"B2094757D66FA2FC4099","title":"鱼林港","lon":"121.484525103","lat":"31.2620422471","category":"500","category_name":"未知分类","address":"上海四川北路东泰休闲广场"},{"poiid":"B2094750D565A4FC469B","title":"丰庭私房菜","lon":"121.484443","lat":"31.263837","category":"76","category_name":"上海菜","address":"虹口区四川北路2002弄12号东泰休闲广场3楼(近鲁迅公园)"},{"poiid":"B2094757D46EA2FC489F","title":"85度C 四川北路店","lon":"121.484003054","lat":"31.263574793","category":"112","category_name":"糕饼店","address":"虹口区四川北路1861号荣欣大厦31室(近多伦路)"},{"poiid":"B2094655D26BA2F84293","title":"甜爱路","lon":"121.48344","lat":"31.26536","category":"116","category_name":"特色商业街","address":""},{"poiid":"B2094654D56CA7FC4298","title":"万寿斋","lon":"121.48483604535","lat":"31.266169526803","category":"68","category_name":"快餐厅","address":"虹口区山阴路123号(四达路吉祥路间)"},{"poiid":"B2094750D66EA5F94192","title":"觅糖记","lon":"121.483413","lat":"31.265596","category":"67","category_name":"甜品店","address":"虹口区甜爱路11号(近四川北路)"},{"poiid":"B2094757D06FA3F84392","title":"南华火锅(四川路店)","lon":"121.48408","lat":"31.26301","category":"86","category_name":"火锅店","address":"虹口区四川北路1975-1985号(长春路口)"},{"poiid":"B2094757D46DABFA419F","title":"哈根达斯 四川北路店 Haagen-Dazs","lon":"121.483787","lat":"31.264406","category":"113","category_name":"冷饮店","address":"虹口区四川北路1661号凯鸿商场1楼(近东宝兴路)"},{"poiid":"B2094757D06FA5FF469A","title":"普乐迪量贩KTV","lon":"121.483738206","lat":"31.2622111583","category":"170","category_name":"KTV","address":"虹口区四川北路1915号时装大厦7楼(近多伦路)"},{"poiid":"B2094757D06FA2F44092","title":"甜爱路心型邮筒","lon":"121.483449795","lat":"31.2644705499","category":"260","category_name":"其他","address":"上海甜爱路3号对面"},{"poiid":"B2094757D068A1F8499E","title":"独门冲炭火自助烤肉","lon":"121.4837534","lat":"31.26218585","category":"268","category_name":"自助","address":"虹口区四川北路1885号多伦生活广场B1楼"},{"poiid":"B2094654DB6AAAF9419A","title":"必胜客东泰餐厅","lon":"121.48393","lat":"31.26451","category":"68","category_name":"快餐厅","address":"四川北路2002弄17号东泰休闲广场1-2层"},{"poiid":"B2094757D06FA6F94392","title":"四新食苑","lon":"121.48449","lat":"31.26215","category":"68","category_name":"快餐厅","address":"虹口区四川北路1908号(近多伦路)"},{"poiid":"B2094757D06FA3F9489E","title":"飞龙生煎","lon":"121.484089067","lat":"31.2644533438","category":"68","category_name":"快餐厅","address":"虹口区四川北路2002号东泰休闲广场1楼(近山阴路)"},{"poiid":"B2094757D06FA1FC469F","title":"生仕鱼林港(四川北路店)","lon":"121.48429","lat":"31.26422","category":"86","category_name":"火锅店","address":"虹口区四川北路2002号东泰休闲广场17号2楼(近山阴路)"},{"poiid":"B2094654D56CA7FA4192","title":"东泰休闲广场","lon":"121.48425","lat":"31.26416","category":"119","category_name":"商场","address":"虹口区四川北路2002号东泰休闲广场内(近山阴路)"},{"poiid":"B2094654D56CA7FA459D","title":"四川北路营业厅","lon":"121.48413","lat":"31.26351","category":"151","category_name":"电讯营业厅","address":"虹口区四川北路1970号"},{"poiid":"B2094757D06FA4FD449A","title":"山阴路","lon":"121.48394016","lat":"31.26469785","category":"500","category_name":"未知分类","address":"上海市虹口区山阴路"},{"poiid":"B2094757D06FA4F5459F","title":"虹东韩国料理","lon":"121.48310883759","lat":"31.262272939894","category":"96","category_name":"韩国料理","address":"虹口区多伦路239号(近四川北路)"},{"poiid":"B2094757D068A3FC429B","title":"天兴百货","lon":"121.48212","lat":"31.26491","category":"119","category_name":"商场","address":"虹口区四川北路2120号(近东江湾路)"},{"poiid":"B2094757D06FA0F94298","title":"望湘园(四川北路店)","lon":"121.48399","lat":"31.26204","category":"77","category_name":"湖南菜","address":"虹口区四川北路1941号金海岸大厦4楼(近多伦路)"},{"poiid":"B2094757D06BA5F84699","title":"复地新都国际","lon":"121.48436466224","lat":"31.264570145955","category":"47","category_name":"住宅区","address":"吴中区临湖镇腾飞路588号(腾飞路与东山大道交汇处向西1500米)"},{"poiid":"B2094757D569A0FA4292","title":"麦迪森视听歌城","lon":"121.48221137","lat":"31.26560845","category":"170","category_name":"KTV","address":"四川北路2118号3层"},{"poiid":"B2094655D26FAAF8449C","title":"考拉花园旅舍多伦路店","lon":"121.48172","lat":"31.26435","category":"217","category_name":"旅馆招待所","address":"多伦路240号"},{"poiid":"B2094654D56CA6FE4099","title":"伊斯兰餐厅","lon":"121.48391306194","lat":"31.263468635239","category":"90","category_name":"清真餐馆","address":"虹口区四川北路2035号(近山阴路)"},{"poiid":"B2094757D06FA7F94793","title":"一品韩拌饭(四川北路店)","lon":"121.48244","lat":"31.26456","category":"96","category_name":"韩国料理","address":"虹口区四川北路2091号(近多伦路)"},{"poiid":"B2094655D265A5FB4493","title":"DQ天兴店","lon":"121.4821","lat":"31.26526","category":"113","category_name":"冷饮店","address":"四川北路2118号天兴百货旁"},{"poiid":"B2094655D26EA3F84393","title":"味千拉面四川北路店","lon":"121.48346","lat":"31.2648","category":"95","category_name":"日本料理","address":"虹口区四川北路2058号(近甜爱路)"},{"poiid":"B2094757D06FA4F84993","title":"振鼎鸡(溧阳路店)","lon":"121.48465","lat":"31.26335","category":"68","category_name":"快餐厅","address":"虹口区溧阳路1400号(近四川北路)"},{"poiid":"B2094654DB6AAAF9429A","title":"傣妹(四川路二店)","lon":"121.48404","lat":"31.26201","category":"87","category_name":"特色／地方风味餐厅","address":"虹口区四川北路1898号3楼(近多伦路)"},{"poiid":"B2094757D065A6FC4093","title":"光头生煎","lon":"121.4845941","lat":"31.266254335","category":"68","category_name":"快餐厅","address":"虹口区山阴路141号(近吉祥路)"},{"poiid":"B2094753D26EA2FA409C","title":"虹口足球场","lon":"121.484102","lat":"31.265335","category":"220","category_name":"运动场所","address":"上海市 东江湾路100号"},{"poiid":"B2094655D36CA1FF439E","title":"四川北路多伦路","lon":"121.48198","lat":"31.26562","category":"38","category_name":"公交车站","address":"上海市虹口区西江湾路"},{"poiid":"B2094757D06AA1FB419D","title":"桉树餐馆 illy","lon":"121.48199","lat":"31.2648","category":"94","category_name":"西餐厅","address":"虹口区多伦路240号考拉花园旅舍内(近四川北路)"},{"poiid":"B2094654DB65A5F9429C","title":"和中堂足道(多伦路文化名人街)","lon":"121.48358","lat":"31.26229","category":"149","category_name":"洗浴推拿场所","address":"虹口区多伦路8号4楼(近四川北路)"},{"poiid":"B2094757D068A1F5429B","title":"光头面馆 山阴路店","lon":"121.48487","lat":"31.266139","category":"68","category_name":"快餐厅","address":"虹口区山阴路139号(近吉祥路)"},{"poiid":"B2094757D06FAAF44499","title":"金太子形象设计(四川北路店)","lon":"121.48269","lat":"31.26462","category":"148","category_name":"美容美发店","address":"虹口区四川北路2075号(近多伦路)"},{"poiid":"B2094654DB69A0F5419B","title":"鲁迅故居","lon":"121.48435","lat":"31.26613","category":"243","category_name":"纪念馆","address":"虹口区山阴路132弄(大陆新村)9号"},{"poiid":"B2094757D068A6F5489E","title":"鸭王(虹口店)","lon":"121.4843","lat":"31.26422","category":"260","category_name":"其他","address":"虹口区四川北路2002弄17号东泰休闲广场3楼(近山阴路)"},{"poiid":"B2094655D26AA5F44893","title":"王磊形象公社四川北路店","lon":"121.48273","lat":"31.26457","category":"247","category_name":"餐饮美食","address":"虹口区四川北路2071号2楼(近甜爱路)"},{"poiid":"B2094757D469A7FF489B","title":"虹口糕团","lon":"121.48353","lat":"31.26454","category":"87","category_name":"特色／地方风味餐厅","address":"虹口区四川北路2305号-2(近虹口足球场站)"},{"poiid":"B2094655D26BA2F8439A","title":"甜爱路四川北路","lon":"121.48337","lat":"31.26492","category":"38","category_name":"公交车站","address":""},{"poiid":"B2094757D068AAF5469B","title":"美豪酒店多伦路店","lon":"121.4841961","lat":"31.262308252","category":"214","category_name":"四星级宾馆","address":"上海市虹口区四川北路1885号(近多伦路)"},{"poiid":"B2094757D06AA0FB4992","title":"重庆鸡公煲 东泰广场店","lon":"121.483622054","lat":"31.263378793","category":"71","category_name":"四川菜","address":"虹口区四川北路2005号(东泰广场对面)"},{"poiid":"B2094757D068A7FA489C","title":"予约时尚(山阴路店)","lon":"121.48487469","lat":"31.264853465","category":"148","category_name":"美容美发店","address":"虹口区山阴路51号(近东泰休闲广场)"},{"poiid":"B2094757D66BA0F4449A","title":"复茂小龙虾 四川北路店","lon":"121.483972054","lat":"31.264285793","category":"68","category_name":"快餐厅","address":"虹口区四川北路2002弄东泰休闲广场1楼(近山阴路)"},{"poiid":"B2094750D76EA3FE489F","title":"富源春鸡汤面(四川北路店)","lon":"121.484","lat":"31.2622","category":"68","category_name":"快餐厅","address":"虹口区四川北路1906弄100号(近多伦路)"},{"poiid":"B2094757D06AA4F44493","title":"福徕小菜(四川北路店)","lon":"121.48214","lat":"31.26553","category":"76","category_name":"上海菜","address":"虹口区四川北路2131号(近东江湾路)"},{"poiid":"B2094655D26EA5F84292","title":"如家快捷酒店(上海鲁迅公园店)","lon":"121.48258","lat":"31.26624","category":"216","category_name":"经济型连锁酒店","address":"上海市虹口区四川北路2146号(近鲁迅公园)"},{"poiid":"B2094757D064A4FA4693","title":"复兴初级中学","lon":"121.48348","lat":"31.26472","category":"55","category_name":"中学","address":"上海虹口区四川北路2066号  "},{"poiid":"B2094757D66FA2FC4099","title":"鱼林港","lon":"121.484525103","lat":"31.2620422471","category":"500","category_name":"未知分类","address":"上海四川北路东泰休闲广场"},{"poiid":"B2094750D565A4FC469B","title":"丰庭私房菜","lon":"121.484443","lat":"31.263837","category":"76","category_name":"上海菜","address":"虹口区四川北路2002弄12号东泰休闲广场3楼(近鲁迅公园)"},{"poiid":"B2094757D46EA2FC489F","title":"85度C 四川北路店","lon":"121.484003054","lat":"31.263574793","category":"112","category_name":"糕饼店","address":"虹口区四川北路1861号荣欣大厦31室(近多伦路)"}]