[{"poiid":"B2094750D365A4F94493","title":"顺风大酒店(瑞虹路店)","lon":"121.4979346984253","lat":"31.261761356687256","category":"75","category_name":"浙江菜","address":"虹口区瑞虹路116号瑞虹坊2楼(近临平北路)"},{"poiid":"B2094757D06FA3FA489E","title":"瑞虹新城一期","lon":"121.495416194","lat":"31.263365933","category":"47","category_name":"住宅区","address":"上海市虹口区临平路333号"},{"poiid":"B2094654D56DAAF4449D","title":"上海市地方税务局虹口区分局","lon":"121.49301","lat":"31.26348","category":"250","category_name":"公园户外","address":"虹口区临平北路35号"},{"poiid":"B209475CD564A7F84392","title":"上海滩浦东香格里拉店","lon":"121.50058","lat":"31.23634","category":"119","category_name":"商场","address":"浦东富成路33号香格里拉酒店内大堂层"},{"poiid":"B2094757D069AAF9479B","title":"老盛昌苏州汤包馆(临平店)","lon":"121.49756","lat":"31.26158","category":"68","category_name":"快餐厅","address":"虹口区临平路333号瑞虹新城正门旁(近天宝路)"},{"poiid":"B2094757D065A0FE429E","title":"10号线四平路站","lon":"121.492128103","lat":"31.2614232342","category":"500","category_name":"未知分类","address":"上海四平路"},{"poiid":"B2094757D065A2F54992","title":"木子麻雀","lon":"121.495811103","lat":"31.2608422221","category":"500","category_name":"未知分类","address":"上海市虹口区物化路"},{"poiid":"B2094757D069AAF8429F","title":"虹口现代公寓","lon":"121.49509","lat":"31.261597","category":"500","category_name":"未知分类","address":"上海市虹口区天宝路66弄"},{"poiid":"B2094750D66EA5F5479E","title":"COSTA COFFEE","lon":"121.49328","lat":"31.26153","category":"65","category_name":"咖啡厅","address":"虹口区物华路212号(近香烟桥路)"},{"poiid":"B2094752DA6AABFF4393","title":"红麻辣料理","lon":"121.4919952653603","lat":"31.26094885039997","category":"247","category_name":"餐饮美食","address":"上海市 物华路海拉尔路"},{"poiid":"B2094757DA6EAAF8439C","title":"深井大叔港式烧腊(瑞虹生活广场店)","lon":"121.49768","lat":"31.2613","category":"72","category_name":"广东菜","address":"虹口区临平路133弄瑞虹生活广场1-01室(近天宝路)"},{"poiid":"B2094757D068A5FE4992","title":"邵福楼(物华路店)","lon":"121.4967","lat":"31.259759","category":"76","category_name":"上海菜","address":"虹口区物华路73号渡边物华园附楼(近海拉尔路)"},{"poiid":"B2094654D56DAAF44592","title":"渡边国际商务楼","lon":"121.49254932887084","lat":"31.263657606365875","category":"46","category_name":"楼宇","address":"上海市虹口区临平北路55号"},{"poiid":"B2094757D069A1FA4492","title":"云酒楼","lon":"121.49545","lat":"31.26243","category":"260","category_name":"其他","address":"上海虹口区临平路303号(近天宝路瑞虹新城一期)  "},{"poiid":"B2094757D068A1F5469B","title":"中国建设银行(临平路支行)","lon":"121.49348","lat":"31.26289","category":"150","category_name":"银行","address":"虹口区临平北路12号(临平北路临平路)"},{"poiid":"B2094757D465ABFE469C","title":"重庆鸡公煲 临平路店","lon":"121.494897054","lat":"31.262573793","category":"71","category_name":"四川菜","address":"虹口区临平路78号(近天宝路)"},{"poiid":"B2094654DB6BA3F8499A","title":"春草堂足道","lon":"121.49593","lat":"31.26154","category":"149","category_name":"洗浴推拿场所","address":""},{"poiid":"B2094757D16DA6FF409D","title":"临平路天宝路口","lon":"121.495831103","lat":"31.261654239","category":"500","category_name":"未知分类","address":"上海市虹口区临平北路"},{"poiid":"B2094757D069A0F94792","title":"临平路小吃摊","lon":"121.495465773","lat":"31.2624106022","category":"68","category_name":"快餐厅","address":"虹口区临平路333号瑞虹一期对面(近天宝路)"},{"poiid":"B2094654D56DABF5439E","title":"银欣花苑","lon":"121.49253","lat":"31.262911","category":"47","category_name":"住宅区","address":"临平北路36-58号,60弄1-8号"},{"poiid":"B2094757D46FA3FF4292","title":"85度C 临平店","lon":"121.496640054","lat":"31.262250793","category":"67","category_name":"甜品店","address":"虹口区临平路327号(近天宝路)"},{"poiid":"B2094757D069AAF94892","title":"大桶大足浴(物华店)","lon":"121.49236","lat":"31.26168","category":"149","category_name":"洗浴推拿场所","address":"虹口区物华路276号(近四平路)"},{"poiid":"B2094757D164A7F5469B","title":"瑞虹新城","lon":"121.495373","lat":"31.263544","category":"47","category_name":"住宅区","address":"虹口区临平路333号"},{"poiid":"B2094757D66DA3FA419C","title":"1933老廠房","lon":"121.4938251","lat":"31.262522257","category":"500","category_name":"未知分类","address":"上海九龍路法拉利俱樂部"},{"poiid":"B2094655D36CA3FB499D","title":"毛家湘菜","lon":"121.49622","lat":"31.26126","category":"77","category_name":"湖南菜","address":"虹口区天宝路65号(近物华路)"},{"poiid":"B2094757DA69A2F44692","title":"牡丹亭--精品湘菜","lon":"121.49775232302","lat":"31.261720377328","category":"77","category_name":"湖南菜","address":"虹口区瑞虹路134号1楼(近临平路)"},{"poiid":"B2094654D56DABFA499A","title":"爱家豪庭","lon":"121.49217","lat":"31.26136","category":"47","category_name":"住宅区","address":"物华路246弄1-6号"},{"poiid":"B2094757D069A0FD429D","title":"德笼馆 物华店","lon":"121.497431054","lat":"31.258773793","category":"68","category_name":"快餐厅","address":"虹口区物华路73号(海拉尔路口)"},{"poiid":"B2094655D264A7FC429C","title":"瑞嘉苑三期","lon":"121.495099","lat":"31.261467","category":"47","category_name":"住宅区","address":"上海市虹口区新嘉路1弄5－8号"},{"poiid":"B2094654DB64A4FE469B","title":"叶都市型工业楼","lon":"121.49441","lat":"31.26081","category":"46","category_name":"楼宇","address":"物华路178"},{"poiid":"B2094757D065ABFC449A","title":"重庆鸡公煲(天宝店)","lon":"121.49589","lat":"31.26045","category":"71","category_name":"四川菜","address":"虹口区天宝路7号(近物华路)"},{"poiid":"B2094454D36BA3FE449F","title":"zoo coffee","lon":"121.493743","lat":"31.258939","category":"247","category_name":"餐饮美食","address":"上海市 四平路150号"},{"poiid":"B2094757D169A5FA439F","title":"47路","lon":"121.4948003","lat":"31.261142697","category":"500","category_name":"未知分类","address":"上海临平北路四平路"},{"poiid":"B2094757D168A2F8479B","title":"五角场斯柯达4S店","lon":"121.49465603","lat":"31.261423017","category":"500","category_name":"未知分类","address":"上海市民庆路208号"},{"poiid":"B2094757D66CA0FC419F","title":"小绍兴","lon":"121.496257103","lat":"31.2596081963","category":"68","category_name":"快餐厅","address":"虹口区物华路73号(近海拉尔路)"},{"poiid":"B2094654D56DABFA4992","title":"好德No.614","lon":"121.49518","lat":"31.26048","category":"117","category_name":"便民商店/便利店","address":"物华路102"},{"poiid":"B2094655D265AAFA489F","title":"蔓舍陀专业护肤SPA","lon":"121.49366","lat":"31.26132","category":"148","category_name":"美容美发店","address":"物华路186"},{"poiid":"B2094655D26FA2FA439A","title":"元祖 瑞虹新城店 Ganso","lon":"121.495296054","lat":"31.262369793","category":"67","category_name":"甜品店","address":"虹口区临平路333号瑞虹二期1楼(近天宝路)"},{"poiid":"B2094750D76EABFD4193","title":"青海海洋面馆","lon":"121.49301","lat":"31.26169","category":"68","category_name":"快餐厅","address":"杨浦区江浦路1078号(近昆明路)"},{"poiid":"B2094757D16DA2FF459A","title":"晨林花苑","lon":"121.49493","lat":"31.259647","category":"252","category_name":"楼宇机构","address":"上海市虹口区物华路98弄"},{"poiid":"B2094654D56DABFB409A","title":"好邻居水果","lon":"121.49558","lat":"31.26056","category":"117","category_name":"便民商店/便利店","address":"物华路"},{"poiid":"B2094750D665A1F5479B","title":"心琪粥店(天宝路店)","lon":"121.496","lat":"31.2613","category":"68","category_name":"快餐厅","address":"虹口区天宝路69号(近临平路)"},{"poiid":"B2094752D068A0FB499E","title":"阿姨奶茶","lon":"121.493859","lat":"31.262288","category":"247","category_name":"餐饮美食","address":"霍山路"},{"poiid":"B2094655D269ABFC4392","title":"瑞虹新城一期会所游泳馆","lon":"121.49582","lat":"31.26264","category":"247","category_name":"餐饮美食","address":"虹口区临平路133弄瑞虹新城内(近飞虹路)"},{"poiid":"B209475CD26AA0FB459D","title":"稻香","lon":"121.494842","lat":"31.259649","category":"247","category_name":"餐饮美食","address":"上海市 上海淮海中路999号环贸iapm商场3楼301号铺(近陕西南路)"},{"poiid":"B2094654D56DABF4459C","title":"虹口现代公寓(边门)","lon":"121.49604","lat":"31.26163","category":"47","category_name":"住宅区","address":"天宝路66弄"},{"poiid":"B2094757D16CA0FD4798","title":"和洋日式餐厅","lon":"121.496388103","lat":"31.2598522014","category":"500","category_name":"未知分类","address":"虹口区物华路73号(近香港丽园)"},{"poiid":"B2094655D264A1F5409D","title":"瑞嘉苑二期","lon":"121.496","lat":"31.2623","category":"47","category_name":"住宅区","address":"上海市虹口区新嘉路1弄5-8号"},{"poiid":"B2094757D06BA2FA419E","title":"唐恩都乐 瑞虹广场店 Dunkin Donuts","lon":"121.49935","lat":"31.26114","category":"67","category_name":"甜品店","address":"虹口区临平路133弄瑞虹生活广场B1楼05-06号(近飞虹路)"},{"poiid":"B2094757D16EA5FB4598","title":"看美剧","lon":"121.4944091","lat":"31.262467256","category":"247","category_name":"餐饮美食","address":"上海市虹口区临平北路"},{"poiid":"B2094750D365A4F94493","title":"顺风大酒店(瑞虹路店)","lon":"121.4979346984253","lat":"31.261761356687256","category":"75","category_name":"浙江菜","address":"虹口区瑞虹路116号瑞虹坊2楼(近临平北路)"},{"poiid":"B2094757D06FA3FA489E","title":"瑞虹新城一期","lon":"121.495416194","lat":"31.263365933","category":"47","category_name":"住宅区","address":"上海市虹口区临平路333号"},{"poiid":"B2094654D56DAAF4449D","title":"上海市地方税务局虹口区分局","lon":"121.49301","lat":"31.26348","category":"250","category_name":"公园户外","address":"虹口区临平北路35号"},{"poiid":"B209475CD564A7F84392","title":"上海滩浦东香格里拉店","lon":"121.50058","lat":"31.23634","category":"119","category_name":"商场","address":"浦东富成路33号香格里拉酒店内大堂层"},{"poiid":"B2094757D069AAF9479B","title":"老盛昌苏州汤包馆(临平店)","lon":"121.49756","lat":"31.26158","category":"68","category_name":"快餐厅","address":"虹口区临平路333号瑞虹新城正门旁(近天宝路)"},{"poiid":"B2094757D065A0FE429E","title":"10号线四平路站","lon":"121.492128103","lat":"31.2614232342","category":"500","category_name":"未知分类","address":"上海四平路"},{"poiid":"B2094757D065A2F54992","title":"木子麻雀","lon":"121.495811103","lat":"31.2608422221","category":"500","category_name":"未知分类","address":"上海市虹口区物化路"},{"poiid":"B2094757D069AAF8429F","title":"虹口现代公寓","lon":"121.49509","lat":"31.261597","category":"500","category_name":"未知分类","address":"上海市虹口区天宝路66弄"},{"poiid":"B2094750D66EA5F5479E","title":"COSTA COFFEE","lon":"121.49328","lat":"31.26153","category":"65","category_name":"咖啡厅","address":"虹口区物华路212号(近香烟桥路)"},{"poiid":"B2094752DA6AABFF4393","title":"红麻辣料理","lon":"121.4919952653603","lat":"31.26094885039997","category":"247","category_name":"餐饮美食","address":"上海市 物华路海拉尔路"},{"poiid":"B2094757DA6EAAF8439C","title":"深井大叔港式烧腊(瑞虹生活广场店)","lon":"121.49768","lat":"31.2613","category":"72","category_name":"广东菜","address":"虹口区临平路133弄瑞虹生活广场1-01室(近天宝路)"},{"poiid":"B2094757D068A5FE4992","title":"邵福楼(物华路店)","lon":"121.4967","lat":"31.259759","category":"76","category_name":"上海菜","address":"虹口区物华路73号渡边物华园附楼(近海拉尔路)"},{"poiid":"B2094654D56DAAF44592","title":"渡边国际商务楼","lon":"121.49254932887084","lat":"31.263657606365875","category":"46","category_name":"楼宇","address":"上海市虹口区临平北路55号"},{"poiid":"B2094757D069A1FA4492","title":"云酒楼","lon":"121.49545","lat":"31.26243","category":"260","category_name":"其他","address":"上海虹口区临平路303号(近天宝路瑞虹新城一期)  "},{"poiid":"B2094757D068A1F5469B","title":"中国建设银行(临平路支行)","lon":"121.49348","lat":"31.26289","category":"150","category_name":"银行","address":"虹口区临平北路12号(临平北路临平路)"},{"poiid":"B2094757D465ABFE469C","title":"重庆鸡公煲 临平路店","lon":"121.494897054","lat":"31.262573793","category":"71","category_name":"四川菜","address":"虹口区临平路78号(近天宝路)"},{"poiid":"B2094654DB6BA3F8499A","title":"春草堂足道","lon":"121.49593","lat":"31.26154","category":"149","category_name":"洗浴推拿场所","address":""},{"poiid":"B2094757D16DA6FF409D","title":"临平路天宝路口","lon":"121.495831103","lat":"31.261654239","category":"500","category_name":"未知分类","address":"上海市虹口区临平北路"},{"poiid":"B2094757D069A0F94792","title":"临平路小吃摊","lon":"121.495465773","lat":"31.2624106022","category":"68","category_name":"快餐厅","address":"虹口区临平路333号瑞虹一期对面(近天宝路)"},{"poiid":"B2094654D56DABF5439E","title":"银欣花苑","lon":"121.49253","lat":"31.262911","category":"47","category_name":"住宅区","address":"临平北路36-58号,60弄1-8号"},{"poiid":"B2094757D46FA3FF4292","title":"85度C 临平店","lon":"121.496640054","lat":"31.262250793","category":"67","category_name":"甜品店","address":"虹口区临平路327号(近天宝路)"},{"poiid":"B2094757D069AAF94892","title":"大桶大足浴(物华店)","lon":"121.49236","lat":"31.26168","category":"149","category_name":"洗浴推拿场所","address":"虹口区物华路276号(近四平路)"},{"poiid":"B2094757D164A7F5469B","title":"瑞虹新城","lon":"121.495373","lat":"31.263544","category":"47","category_name":"住宅区","address":"虹口区临平路333号"},{"poiid":"B2094757D66DA3FA419C","title":"1933老廠房","lon":"121.4938251","lat":"31.262522257","category":"500","category_name":"未知分类","address":"上海九龍路法拉利俱樂部"},{"poiid":"B2094655D36CA3FB499D","title":"毛家湘菜","lon":"121.49622","lat":"31.26126","category":"77","category_name":"湖南菜","address":"虹口区天宝路65号(近物华路)"},{"poiid":"B2094757DA69A2F44692","title":"牡丹亭--精品湘菜","lon":"121.49775232302","lat":"31.261720377328","category":"77","category_name":"湖南菜","address":"虹口区瑞虹路134号1楼(近临平路)"},{"poiid":"B2094654D56DABFA499A","title":"爱家豪庭","lon":"121.49217","lat":"31.26136","category":"47","category_name":"住宅区","address":"物华路246弄1-6号"},{"poiid":"B2094757D069A0FD429D","title":"德笼馆 物华店","lon":"121.497431054","lat":"31.258773793","category":"68","category_name":"快餐厅","address":"虹口区物华路73号(海拉尔路口)"},{"poiid":"B2094655D264A7FC429C","title":"瑞嘉苑三期","lon":"121.495099","lat":"31.261467","category":"47","category_name":"住宅区","address":"上海市虹口区新嘉路1弄5－8号"},{"poiid":"B2094654DB64A4FE469B","title":"叶都市型工业楼","lon":"121.49441","lat":"31.26081","category":"46","category_name":"楼宇","address":"物华路178"},{"poiid":"B2094757D065ABFC449A","title":"重庆鸡公煲(天宝店)","lon":"121.49589","lat":"31.26045","category":"71","category_name":"四川菜","address":"虹口区天宝路7号(近物华路)"},{"poiid":"B2094454D36BA3FE449F","title":"zoo coffee","lon":"121.493743","lat":"31.258939","category":"247","category_name":"餐饮美食","address":"上海市 四平路150号"},{"poiid":"B2094757D169A5FA439F","title":"47路","lon":"121.4948003","lat":"31.261142697","category":"500","category_name":"未知分类","address":"上海临平北路四平路"},{"poiid":"B2094757D168A2F8479B","title":"五角场斯柯达4S店","lon":"121.49465603","lat":"31.261423017","category":"500","category_name":"未知分类","address":"上海市民庆路208号"},{"poiid":"B2094757D66CA0FC419F","title":"小绍兴","lon":"121.496257103","lat":"31.2596081963","category":"68","category_name":"快餐厅","address":"虹口区物华路73号(近海拉尔路)"},{"poiid":"B2094654D56DABFA4992","title":"好德No.614","lon":"121.49518","lat":"31.26048","category":"117","category_name":"便民商店/便利店","address":"物华路102"},{"poiid":"B2094655D265AAFA489F","title":"蔓舍陀专业护肤SPA","lon":"121.49366","lat":"31.26132","category":"148","category_name":"美容美发店","address":"物华路186"},{"poiid":"B2094655D26FA2FA439A","title":"元祖 瑞虹新城店 Ganso","lon":"121.495296054","lat":"31.262369793","category":"67","category_name":"甜品店","address":"虹口区临平路333号瑞虹二期1楼(近天宝路)"},{"poiid":"B2094750D76EABFD4193","title":"青海海洋面馆","lon":"121.49301","lat":"31.26169","category":"68","category_name":"快餐厅","address":"杨浦区江浦路1078号(近昆明路)"},{"poiid":"B2094757D16DA2FF459A","title":"晨林花苑","lon":"121.49493","lat":"31.259647","category":"252","category_name":"楼宇机构","address":"上海市虹口区物华路98弄"},{"poiid":"B2094654D56DABFB409A","title":"好邻居水果","lon":"121.49558","lat":"31.26056","category":"117","category_name":"便民商店/便利店","address":"物华路"},{"poiid":"B2094750D665A1F5479B","title":"心琪粥店(天宝路店)","lon":"121.496","lat":"31.2613","category":"68","category_name":"快餐厅","address":"虹口区天宝路69号(近临平路)"},{"poiid":"B2094752D068A0FB499E","title":"阿姨奶茶","lon":"121.493859","lat":"31.262288","category":"247","category_name":"餐饮美食","address":"霍山路"},{"poiid":"B2094655D269ABFC4392","title":"瑞虹新城一期会所游泳馆","lon":"121.49582","lat":"31.26264","category":"247","category_name":"餐饮美食","address":"虹口区临平路133弄瑞虹新城内(近飞虹路)"},{"poiid":"B209475CD26AA0FB459D","title":"稻香","lon":"121.494842","lat":"31.259649","category":"247","category_name":"餐饮美食","address":"上海市 上海淮海中路999号环贸iapm商场3楼301号铺(近陕西南路)"},{"poiid":"B2094654D56DABF4459C","title":"虹口现代公寓(边门)","lon":"121.49604","lat":"31.26163","category":"47","category_name":"住宅区","address":"天宝路66弄"},{"poiid":"B2094757D16CA0FD4798","title":"和洋日式餐厅","lon":"121.496388103","lat":"31.2598522014","category":"500","category_name":"未知分类","address":"虹口区物华路73号(近香港丽园)"},{"poiid":"B2094655D264A1F5409D","title":"瑞嘉苑二期","lon":"121.496","lat":"31.2623","category":"47","category_name":"住宅区","address":"上海市虹口区新嘉路1弄5-8号"},{"poiid":"B2094757D06BA2FA419E","title":"唐恩都乐 瑞虹广场店 Dunkin Donuts","lon":"121.49935","lat":"31.26114","category":"67","category_name":"甜品店","address":"虹口区临平路133弄瑞虹生活广场B1楼05-06号(近飞虹路)"},{"poiid":"B2094757D16EA5FB4598","title":"看美剧","lon":"121.4944091","lat":"31.262467256","category":"247","category_name":"餐饮美食","address":"上海市虹口区临平北路"},{"poiid":"B2094750D365A4F94493","title":"顺风大酒店(瑞虹路店)","lon":"121.4979346984253","lat":"31.261761356687256","category":"75","category_name":"浙江菜","address":"虹口区瑞虹路116号瑞虹坊2楼(近临平北路)"},{"poiid":"B2094757D06FA3FA489E","title":"瑞虹新城一期","lon":"121.495416194","lat":"31.263365933","category":"47","category_name":"住宅区","address":"上海市虹口区临平路333号"},{"poiid":"B2094654D56DAAF4449D","title":"上海市地方税务局虹口区分局","lon":"121.49301","lat":"31.26348","category":"250","category_name":"公园户外","address":"虹口区临平北路35号"},{"poiid":"B209475CD564A7F84392","title":"上海滩浦东香格里拉店","lon":"121.50058","lat":"31.23634","category":"119","category_name":"商场","address":"浦东富成路33号香格里拉酒店内大堂层"},{"poiid":"B2094757D069AAF9479B","title":"老盛昌苏州汤包馆(临平店)","lon":"121.49756","lat":"31.26158","category":"68","category_name":"快餐厅","address":"虹口区临平路333号瑞虹新城正门旁(近天宝路)"},{"poiid":"B2094757D065A0FE429E","title":"10号线四平路站","lon":"121.492128103","lat":"31.2614232342","category":"500","category_name":"未知分类","address":"上海四平路"},{"poiid":"B2094757D065A2F54992","title":"木子麻雀","lon":"121.495811103","lat":"31.2608422221","category":"500","category_name":"未知分类","address":"上海市虹口区物化路"},{"poiid":"B2094757D069AAF8429F","title":"虹口现代公寓","lon":"121.49509","lat":"31.261597","category":"500","category_name":"未知分类","address":"上海市虹口区天宝路66弄"},{"poiid":"B2094750D66EA5F5479E","title":"COSTA COFFEE","lon":"121.49328","lat":"31.26153","category":"65","category_name":"咖啡厅","address":"虹口区物华路212号(近香烟桥路)"},{"poiid":"B2094752DA6AABFF4393","title":"红麻辣料理","lon":"121.4919952653603","lat":"31.26094885039997","category":"247","category_name":"餐饮美食","address":"上海市 物华路海拉尔路"},{"poiid":"B2094757DA6EAAF8439C","title":"深井大叔港式烧腊(瑞虹生活广场店)","lon":"121.49768","lat":"31.2613","category":"72","category_name":"广东菜","address":"虹口区临平路133弄瑞虹生活广场1-01室(近天宝路)"},{"poiid":"B2094757D068A5FE4992","title":"邵福楼(物华路店)","lon":"121.4967","lat":"31.259759","category":"76","category_name":"上海菜","address":"虹口区物华路73号渡边物华园附楼(近海拉尔路)"},{"poiid":"B2094654D56DAAF44592","title":"渡边国际商务楼","lon":"121.49254932887084","lat":"31.263657606365875","category":"46","category_name":"楼宇","address":"上海市虹口区临平北路55号"},{"poiid":"B2094757D069A1FA4492","title":"云酒楼","lon":"121.49545","lat":"31.26243","category":"260","category_name":"其他","address":"上海虹口区临平路303号(近天宝路瑞虹新城一期)  "},{"poiid":"B2094757D068A1F5469B","title":"中国建设银行(临平路支行)","lon":"121.49348","lat":"31.26289","category":"150","category_name":"银行","address":"虹口区临平北路12号(临平北路临平路)"},{"poiid":"B2094757D465ABFE469C","title":"重庆鸡公煲 临平路店","lon":"121.494897054","lat":"31.262573793","category":"71","category_name":"四川菜","address":"虹口区临平路78号(近天宝路)"},{"poiid":"B2094654DB6BA3F8499A","title":"春草堂足道","lon":"121.49593","lat":"31.26154","category":"149","category_name":"洗浴推拿场所","address":""},{"poiid":"B2094757D16DA6FF409D","title":"临平路天宝路口","lon":"121.495831103","lat":"31.261654239","category":"500","category_name":"未知分类","address":"上海市虹口区临平北路"},{"poiid":"B2094757D069A0F94792","title":"临平路小吃摊","lon":"121.495465773","lat":"31.2624106022","category":"68","category_name":"快餐厅","address":"虹口区临平路333号瑞虹一期对面(近天宝路)"},{"poiid":"B2094654D56DABF5439E","title":"银欣花苑","lon":"121.49253","lat":"31.262911","category":"47","category_name":"住宅区","address":"临平北路36-58号,60弄1-8号"},{"poiid":"B2094757D46FA3FF4292","title":"85度C 临平店","lon":"121.496640054","lat":"31.262250793","category":"67","category_name":"甜品店","address":"虹口区临平路327号(近天宝路)"},{"poiid":"B2094757D069AAF94892","title":"大桶大足浴(物华店)","lon":"121.49236","lat":"31.26168","category":"149","category_name":"洗浴推拿场所","address":"虹口区物华路276号(近四平路)"},{"poiid":"B2094757D164A7F5469B","title":"瑞虹新城","lon":"121.495373","lat":"31.263544","category":"47","category_name":"住宅区","address":"虹口区临平路333号"},{"poiid":"B2094757D66DA3FA419C","title":"1933老廠房","lon":"121.4938251","lat":"31.262522257","category":"500","category_name":"未知分类","address":"上海九龍路法拉利俱樂部"},{"poiid":"B2094655D36CA3FB499D","title":"毛家湘菜","lon":"121.49622","lat":"31.26126","category":"77","category_name":"湖南菜","address":"虹口区天宝路65号(近物华路)"},{"poiid":"B2094757DA69A2F44692","title":"牡丹亭--精品湘菜","lon":"121.49775232302","lat":"31.261720377328","category":"77","category_name":"湖南菜","address":"虹口区瑞虹路134号1楼(近临平路)"},{"poiid":"B2094654D56DABFA499A","title":"爱家豪庭","lon":"121.49217","lat":"31.26136","category":"47","category_name":"住宅区","address":"物华路246弄1-6号"},{"poiid":"B2094757D069A0FD429D","title":"德笼馆 物华店","lon":"121.497431054","lat":"31.258773793","category":"68","category_name":"快餐厅","address":"虹口区物华路73号(海拉尔路口)"},{"poiid":"B2094655D264A7FC429C","title":"瑞嘉苑三期","lon":"121.495099","lat":"31.261467","category":"47","category_name":"住宅区","address":"上海市虹口区新嘉路1弄5－8号"},{"poiid":"B2094654DB64A4FE469B","title":"叶都市型工业楼","lon":"121.49441","lat":"31.26081","category":"46","category_name":"楼宇","address":"物华路178"},{"poiid":"B2094757D065ABFC449A","title":"重庆鸡公煲(天宝店)","lon":"121.49589","lat":"31.26045","category":"71","category_name":"四川菜","address":"虹口区天宝路7号(近物华路)"},{"poiid":"B2094454D36BA3FE449F","title":"zoo coffee","lon":"121.493743","lat":"31.258939","category":"247","category_name":"餐饮美食","address":"上海市 四平路150号"},{"poiid":"B2094757D169A5FA439F","title":"47路","lon":"121.4948003","lat":"31.261142697","category":"500","category_name":"未知分类","address":"上海临平北路四平路"},{"poiid":"B2094757D168A2F8479B","title":"五角场斯柯达4S店","lon":"121.49465603","lat":"31.261423017","category":"500","category_name":"未知分类","address":"上海市民庆路208号"},{"poiid":"B2094757D66CA0FC419F","title":"小绍兴","lon":"121.496257103","lat":"31.2596081963","category":"68","category_name":"快餐厅","address":"虹口区物华路73号(近海拉尔路)"},{"poiid":"B2094654D56DABFA4992","title":"好德No.614","lon":"121.49518","lat":"31.26048","category":"117","category_name":"便民商店/便利店","address":"物华路102"},{"poiid":"B2094655D265AAFA489F","title":"蔓舍陀专业护肤SPA","lon":"121.49366","lat":"31.26132","category":"148","category_name":"美容美发店","address":"物华路186"},{"poiid":"B2094655D26FA2FA439A","title":"元祖 瑞虹新城店 Ganso","lon":"121.495296054","lat":"31.262369793","category":"67","category_name":"甜品店","address":"虹口区临平路333号瑞虹二期1楼(近天宝路)"},{"poiid":"B2094750D76EABFD4193","title":"青海海洋面馆","lon":"121.49301","lat":"31.26169","category":"68","category_name":"快餐厅","address":"杨浦区江浦路1078号(近昆明路)"},{"poiid":"B2094757D16DA2FF459A","title":"晨林花苑","lon":"121.49493","lat":"31.259647","category":"252","category_name":"楼宇机构","address":"上海市虹口区物华路98弄"},{"poiid":"B2094654D56DABFB409A","title":"好邻居水果","lon":"121.49558","lat":"31.26056","category":"117","category_name":"便民商店/便利店","address":"物华路"},{"poiid":"B2094750D665A1F5479B","title":"心琪粥店(天宝路店)","lon":"121.496","lat":"31.2613","category":"68","category_name":"快餐厅","address":"虹口区天宝路69号(近临平路)"},{"poiid":"B2094752D068A0FB499E","title":"阿姨奶茶","lon":"121.493859","lat":"31.262288","category":"247","category_name":"餐饮美食","address":"霍山路"},{"poiid":"B2094655D269ABFC4392","title":"瑞虹新城一期会所游泳馆","lon":"121.49582","lat":"31.26264","category":"247","category_name":"餐饮美食","address":"虹口区临平路133弄瑞虹新城内(近飞虹路)"},{"poiid":"B209475CD26AA0FB459D","title":"稻香","lon":"121.494842","lat":"31.259649","category":"247","category_name":"餐饮美食","address":"上海市 上海淮海中路999号环贸iapm商场3楼301号铺(近陕西南路)"},{"poiid":"B2094654D56DABF4459C","title":"虹口现代公寓(边门)","lon":"121.49604","lat":"31.26163","category":"47","category_name":"住宅区","address":"天宝路66弄"},{"poiid":"B2094757D16CA0FD4798","title":"和洋日式餐厅","lon":"121.496388103","lat":"31.2598522014","category":"500","category_name":"未知分类","address":"虹口区物华路73号(近香港丽园)"},{"poiid":"B2094655D264A1F5409D","title":"瑞嘉苑二期","lon":"121.496","lat":"31.2623","category":"47","category_name":"住宅区","address":"上海市虹口区新嘉路1弄5-8号"},{"poiid":"B2094757D06BA2FA419E","title":"唐恩都乐 瑞虹广场店 Dunkin Donuts","lon":"121.49935","lat":"31.26114","category":"67","category_name":"甜品店","address":"虹口区临平路133弄瑞虹生活广场B1楼05-06号(近飞虹路)"},{"poiid":"B2094757D16EA5FB4598","title":"看美剧","lon":"121.4944091","lat":"31.262467256","category":"247","category_name":"餐饮美食","address":"上海市虹口区临平北路"},{"poiid":"B2094750D365A4F94493","title":"顺风大酒店(瑞虹路店)","lon":"121.4979346984253","lat":"31.261761356687256","category":"75","category_name":"浙江菜","address":"虹口区瑞虹路116号瑞虹坊2楼(近临平北路)"},{"poiid":"B2094757D06FA3FA489E","title":"瑞虹新城一期","lon":"121.495416194","lat":"31.263365933","category":"47","category_name":"住宅区","address":"上海市虹口区临平路333号"},{"poiid":"B2094654D56DAAF4449D","title":"上海市地方税务局虹口区分局","lon":"121.49301","lat":"31.26348","category":"250","category_name":"公园户外","address":"虹口区临平北路35号"},{"poiid":"B209475CD564A7F84392","title":"上海滩浦东香格里拉店","lon":"121.50058","lat":"31.23634","category":"119","category_name":"商场","address":"浦东富成路33号香格里拉酒店内大堂层"},{"poiid":"B2094757D069AAF9479B","title":"老盛昌苏州汤包馆(临平店)","lon":"121.49756","lat":"31.26158","category":"68","category_name":"快餐厅","address":"虹口区临平路333号瑞虹新城正门旁(近天宝路)"},{"poiid":"B2094757D065A0FE429E","title":"10号线四平路站","lon":"121.492128103","lat":"31.2614232342","category":"500","category_name":"未知分类","address":"上海四平路"},{"poiid":"B2094757D065A2F54992","title":"木子麻雀","lon":"121.495811103","lat":"31.2608422221","category":"500","category_name":"未知分类","address":"上海市虹口区物化路"},{"poiid":"B2094757D069AAF8429F","title":"虹口现代公寓","lon":"121.49509","lat":"31.261597","category":"500","category_name":"未知分类","address":"上海市虹口区天宝路66弄"},{"poiid":"B2094750D66EA5F5479E","title":"COSTA COFFEE","lon":"121.49328","lat":"31.26153","category":"65","category_name":"咖啡厅","address":"虹口区物华路212号(近香烟桥路)"},{"poiid":"B2094752DA6AABFF4393","title":"红麻辣料理","lon":"121.4919952653603","lat":"31.26094885039997","category":"247","category_name":"餐饮美食","address":"上海市 物华路海拉尔路"},{"poiid":"B2094757DA6EAAF8439C","title":"深井大叔港式烧腊(瑞虹生活广场店)","lon":"121.49768","lat":"31.2613","category":"72","category_name":"广东菜","address":"虹口区临平路133弄瑞虹生活广场1-01室(近天宝路)"},{"poiid":"B2094757D068A5FE4992","title":"邵福楼(物华路店)","lon":"121.4967","lat":"31.259759","category":"76","category_name":"上海菜","address":"虹口区物华路73号渡边物华园附楼(近海拉尔路)"},{"poiid":"B2094654D56DAAF44592","title":"渡边国际商务楼","lon":"121.49254932887084","lat":"31.263657606365875","category":"46","category_name":"楼宇","address":"上海市虹口区临平北路55号"},{"poiid":"B2094757D069A1FA4492","title":"云酒楼","lon":"121.49545","lat":"31.26243","category":"260","category_name":"其他","address":"上海虹口区临平路303号(近天宝路瑞虹新城一期)  "},{"poiid":"B2094757D068A1F5469B","title":"中国建设银行(临平路支行)","lon":"121.49348","lat":"31.26289","category":"150","category_name":"银行","address":"虹口区临平北路12号(临平北路临平路)"},{"poiid":"B2094757D465ABFE469C","title":"重庆鸡公煲 临平路店","lon":"121.494897054","lat":"31.262573793","category":"71","category_name":"四川菜","address":"虹口区临平路78号(近天宝路)"},{"poiid":"B2094654DB6BA3F8499A","title":"春草堂足道","lon":"121.49593","lat":"31.26154","category":"149","category_name":"洗浴推拿场所","address":""},{"poiid":"B2094757D16DA6FF409D","title":"临平路天宝路口","lon":"121.495831103","lat":"31.261654239","category":"500","category_name":"未知分类","address":"上海市虹口区临平北路"},{"poiid":"B2094757D069A0F94792","title":"临平路小吃摊","lon":"121.495465773","lat":"31.2624106022","category":"68","category_name":"快餐厅","address":"虹口区临平路333号瑞虹一期对面(近天宝路)"},{"poiid":"B2094654D56DABF5439E","title":"银欣花苑","lon":"121.49253","lat":"31.262911","category":"47","category_name":"住宅区","address":"临平北路36-58号,60弄1-8号"},{"poiid":"B2094757D46FA3FF4292","title":"85度C 临平店","lon":"121.496640054","lat":"31.262250793","category":"67","category_name":"甜品店","address":"虹口区临平路327号(近天宝路)"},{"poiid":"B2094757D069AAF94892","title":"大桶大足浴(物华店)","lon":"121.49236","lat":"31.26168","category":"149","category_name":"洗浴推拿场所","address":"虹口区物华路276号(近四平路)"},{"poiid":"B2094757D164A7F5469B","title":"瑞虹新城","lon":"121.495373","lat":"31.263544","category":"47","category_name":"住宅区","address":"虹口区临平路333号"},{"poiid":"B2094757D66DA3FA419C","title":"1933老廠房","lon":"121.4938251","lat":"31.262522257","category":"500","category_name":"未知分类","address":"上海九龍路法拉利俱樂部"},{"poiid":"B2094655D36CA3FB499D","title":"毛家湘菜","lon":"121.49622","lat":"31.26126","category":"77","category_name":"湖南菜","address":"虹口区天宝路65号(近物华路)"},{"poiid":"B2094757DA69A2F44692","title":"牡丹亭--精品湘菜","lon":"121.49775232302","lat":"31.261720377328","category":"77","category_name":"湖南菜","address":"虹口区瑞虹路134号1楼(近临平路)"},{"poiid":"B2094654D56DABFA499A","title":"爱家豪庭","lon":"121.49217","lat":"31.26136","category":"47","category_name":"住宅区","address":"物华路246弄1-6号"},{"poiid":"B2094757D069A0FD429D","title":"德笼馆 物华店","lon":"121.497431054","lat":"31.258773793","category":"68","category_name":"快餐厅","address":"虹口区物华路73号(海拉尔路口)"},{"poiid":"B2094655D264A7FC429C","title":"瑞嘉苑三期","lon":"121.495099","lat":"31.261467","category":"47","category_name":"住宅区","address":"上海市虹口区新嘉路1弄5－8号"},{"poiid":"B2094654DB64A4FE469B","title":"叶都市型工业楼","lon":"121.49441","lat":"31.26081","category":"46","category_name":"楼宇","address":"物华路178"},{"poiid":"B2094757D065ABFC449A","title":"重庆鸡公煲(天宝店)","lon":"121.49589","lat":"31.26045","category":"71","category_name":"四川菜","address":"虹口区天宝路7号(近物华路)"},{"poiid":"B2094454D36BA3FE449F","title":"zoo coffee","lon":"121.493743","lat":"31.258939","category":"247","category_name":"餐饮美食","address":"上海市 四平路150号"},{"poiid":"B2094757D169A5FA439F","title":"47路","lon":"121.4948003","lat":"31.261142697","category":"500","category_name":"未知分类","address":"上海临平北路四平路"},{"poiid":"B2094757D168A2F8479B","title":"五角场斯柯达4S店","lon":"121.49465603","lat":"31.261423017","category":"500","category_name":"未知分类","address":"上海市民庆路208号"},{"poiid":"B2094757D66CA0FC419F","title":"小绍兴","lon":"121.496257103","lat":"31.2596081963","category":"68","category_name":"快餐厅","address":"虹口区物华路73号(近海拉尔路)"},{"poiid":"B2094654D56DABFA4992","title":"好德No.614","lon":"121.49518","lat":"31.26048","category":"117","category_name":"便民商店/便利店","address":"物华路102"},{"poiid":"B2094655D265AAFA489F","title":"蔓舍陀专业护肤SPA","lon":"121.49366","lat":"31.26132","category":"148","category_name":"美容美发店","address":"物华路186"},{"poiid":"B2094655D26FA2FA439A","title":"元祖 瑞虹新城店 Ganso","lon":"121.495296054","lat":"31.262369793","category":"67","category_name":"甜品店","address":"虹口区临平路333号瑞虹二期1楼(近天宝路)"},{"poiid":"B2094750D76EABFD4193","title":"青海海洋面馆","lon":"121.49301","lat":"31.26169","category":"68","category_name":"快餐厅","address":"杨浦区江浦路1078号(近昆明路)"},{"poiid":"B2094757D16DA2FF459A","title":"晨林花苑","lon":"121.49493","lat":"31.259647","category":"252","category_name":"楼宇机构","address":"上海市虹口区物华路98弄"},{"poiid":"B2094654D56DABFB409A","title":"好邻居水果","lon":"121.49558","lat":"31.26056","category":"117","category_name":"便民商店/便利店","address":"物华路"},{"poiid":"B2094750D665A1F5479B","title":"心琪粥店(天宝路店)","lon":"121.496","lat":"31.2613","category":"68","category_name":"快餐厅","address":"虹口区天宝路69号(近临平路)"},{"poiid":"B2094752D068A0FB499E","title":"阿姨奶茶","lon":"121.493859","lat":"31.262288","category":"247","category_name":"餐饮美食","address":"霍山路"},{"poiid":"B2094655D269ABFC4392","title":"瑞虹新城一期会所游泳馆","lon":"121.49582","lat":"31.26264","category":"247","category_name":"餐饮美食","address":"虹口区临平路133弄瑞虹新城内(近飞虹路)"},{"poiid":"B209475CD26AA0FB459D","title":"稻香","lon":"121.494842","lat":"31.259649","category":"247","category_name":"餐饮美食","address":"上海市 上海淮海中路999号环贸iapm商场3楼301号铺(近陕西南路)"},{"poiid":"B2094654D56DABF4459C","title":"虹口现代公寓(边门)","lon":"121.49604","lat":"31.26163","category":"47","category_name":"住宅区","address":"天宝路66弄"},{"poiid":"B2094757D16CA0FD4798","title":"和洋日式餐厅","lon":"121.496388103","lat":"31.2598522014","category":"500","category_name":"未知分类","address":"虹口区物华路73号(近香港丽园)"},{"poiid":"B2094655D264A1F5409D","title":"瑞嘉苑二期","lon":"121.496","lat":"31.2623","category":"47","category_name":"住宅区","address":"上海市虹口区新嘉路1弄5-8号"},{"poiid":"B2094757D06BA2FA419E","title":"唐恩都乐 瑞虹广场店 Dunkin Donuts","lon":"121.49935","lat":"31.26114","category":"67","category_name":"甜品店","address":"虹口区临平路133弄瑞虹生活广场B1楼05-06号(近飞虹路)"},{"poiid":"B2094757D16EA5FB4598","title":"看美剧","lon":"121.4944091","lat":"31.262467256","category":"247","category_name":"餐饮美食","address":"上海市虹口区临平北路"}]