[{"poiid":"B2094757DA69A3F44592","title":"甲泰餐厅","lon":"121.48598641005","lat":"31.239524260517","category":"99","category_name":"泰国／越南菜品餐厅","address":"黄浦区宁波路51号(近江西中路)"},{"poiid":"B2094654DA6FA4FD489A","title":"上海市口腔病防治院","lon":"121.48338","lat":"31.24057","category":"162","category_name":"医院","address":"北京东路356号国华大楼3-5层"},{"poiid":"B2094757D06FA6F4499F","title":"新协通国际大酒店","lon":"121.48261","lat":"31.24007","category":"217","category_name":"旅馆招待所","address":"北京东路398号新协通国际大酒店18楼(山东北路口)"},{"poiid":"B209475CD564A7F84292","title":"上海滩新天地店","lon":"121.47463","lat":"31.22164","category":"119","category_name":"商场","address":"\"太仓路181弄新天地北里15号\r\n\""},{"poiid":"B209475CD564A7F84392","title":"上海滩浦东香格里拉店","lon":"121.50058","lat":"31.23634","category":"119","category_name":"商场","address":"浦东富成路33号香格里拉酒店内大堂层"},{"poiid":"B2094757D06FA2F44099","title":"绿雅酒家","lon":"121.48623","lat":"31.23976","category":"76","category_name":"上海菜","address":"上海黄浦区江西中路372号(近宁波路)  "},{"poiid":"B2094654DA6FA4FD489C","title":"老丰阁品珍轩(北京东路)","lon":"121.48229","lat":"31.24043","category":"76","category_name":"上海菜","address":"黄浦区北京东路398号新协通国际大酒店3楼(山东北路口)"},{"poiid":"B2094757D06AA2FA4392","title":"香港路","lon":"121.485499","lat":"31.242465","category":"500","category_name":"未知分类","address":"上海香港路"},{"poiid":"B2094757DB6CA6FD419A","title":"Cuvve","lon":"121.485513","lat":"31.240501","category":"248","category_name":"生活娱乐","address":"外灘十八號"},{"poiid":"B2094757D068A2FE4799","title":"小杨生煎(河南中路店)","lon":"121.4841","lat":"31.239","category":"68","category_name":"快餐厅","address":"黄浦区宁波路178号(近河南中路)"},{"poiid":"B2094753D469A5FC469E","title":"年代秀饭堂","lon":"121.483963","lat":"31.23822","category":"247","category_name":"餐饮美食","address":"上海市 天津路118号（近河南中路）"},{"poiid":"B2094654DB6BABFD479B","title":"明堂上海旅行者青年旅舍","lon":"121.48529","lat":"31.24161","category":"218","category_name":"青年旅舍","address":"黄浦区江西中路450号(近北京东路)"},{"poiid":"B2094757DB6FA0FA4298","title":"益丰外滩源","lon":"121.484644","lat":"31.242458","category":"637","category_name":"房地产类公司","address":"黄浦区北京东路31-91号(近圆明园路)"},{"poiid":"B2094654DB69A4FE439E","title":"莫泰168连锁旅店(外滩店)","lon":"121.48634","lat":"31.23979","category":"216","category_name":"经济型连锁酒店","address":"上海黄浦区宁波路50号（近江西中路口）"},{"poiid":"B2094757DB6CA4FF419D","title":"汉拿山","lon":"121.48404","lat":"31.23815","category":"96","category_name":"韩国料理","address":"黄浦区南京东路300号名人大厦5楼511-513号(近河南中路)"},{"poiid":"B2094757D068A7F44893","title":"小梁园精菜坊","lon":"121.48434","lat":"31.23824","category":"75","category_name":"浙江菜","address":"黄浦区天津路118号(近河南中路)"},{"poiid":"B2094757D065A4FD4893","title":"轨道交通2号线(南京东路)","lon":"121.484178138","lat":"31.2382214704","category":"500","category_name":"未知分类","address":"上海南京东路河南中路(可换乘轨道交通10号线)"},{"poiid":"B2094654DA6FA2F84799","title":"春申江大厦","lon":"121.485","lat":"31.2422","category":"46","category_name":"楼宇","address":"上海市黄浦区浙江中路400号"},{"poiid":"B2094757D068A1FD489D","title":"亚洲大厦","lon":"121.485","lat":"31.2397","category":"46","category_name":"楼宇","address":"松江区工业区鼎源路广富林路路口"},{"poiid":"B2094751D364A7FA419F","title":"星巴克外滩店","lon":"121.485804","lat":"31.242252","category":"247","category_name":"餐饮美食","address":"外滩"},{"poiid":"B2094654DA6FA4FF459D","title":"宝龙大酒楼","lon":"121.48596793288","lat":"31.240782833756","category":"72","category_name":"广东菜","address":"黄浦区北京东路230号(近河南中路)"},{"poiid":"B2094757D069A0FE4599","title":"三林塘馄饨店","lon":"121.48568504662","lat":"31.240624646304","category":"68","category_name":"快餐厅","address":"黄浦区江西中路416号(北京东路口)"},{"poiid":"B2094654DB6AA6F84599","title":"湖滨假日酒店","lon":"121.48266","lat":"31.24101","category":"250","category_name":"公园户外","address":"黄浦区南苏州路445号(近山东北路)"},{"poiid":"B2094757D468A6FB4899","title":"85度C 宁波路店","lon":"121.484141054","lat":"31.239500793","category":"112","category_name":"糕饼店","address":"黄浦区河南中路521-3号(宁波路口)"},{"poiid":"B2094757D168A2FE489D","title":"海上荟","lon":"121.484368738","lat":"31.2424785612","category":"76","category_name":"上海菜","address":"黄浦区江西中路371号(近北京东路)"},{"poiid":"B2094757D468AAF94193","title":"CHAI Living Lounge","lon":"121.482989","lat":"31.242648","category":"260","category_name":"其他","address":"虹口区北苏州路410号C座1楼(近河南路)"},{"poiid":"B2094655D36CA5F5419D","title":"北京东路四川中路","lon":"121.48625","lat":"31.24066","category":"38","category_name":"公交车站","address":"上海北京东路四川中路"},{"poiid":"B2094750D26FABFE4898","title":"muse1","lon":"121.485687","lat":"31.240003","category":"500","category_name":"未知分类","address":"北京东路圆明圆路"},{"poiid":"B2094753D16DA1FA4492","title":"外滩和平饭店","lon":"121.486209","lat":"31.240235","category":"247","category_name":"餐饮美食","address":"上海市 外滩和平饭店"},{"poiid":"B2094654DA6FA4F4419A","title":"浦光中学","lon":"121.4862","lat":"31.24195","category":"55","category_name":"中学","address":"上海黄浦区四川中路599号(近河南拉面馆)"},{"poiid":"B2094654DB69A6FE4693","title":"滇池大楼","lon":"121.48584","lat":"31.24007","category":"46","category_name":"楼宇","address":"昌平区回龙观镇国际信息产业基地高新二街"},{"poiid":"B2094654DA6FA4FD479D","title":"国华大楼","lon":"121.48324","lat":"31.24048","category":"46","category_name":"楼宇","address":"北京东路356"},{"poiid":"B2094654DA6FA4FF449A","title":"宁波小区","lon":"121.48452","lat":"31.239851","category":"47","category_name":"住宅区","address":"上海宁波路120号"},{"poiid":"B2094757D66BA0FA459D","title":"上味馆南翔小笼 四川中路店","lon":"121.48675","lat":"31.24045","category":"247","category_name":"餐饮美食","address":"黄浦区四川中路504号(近北京东路)"},{"poiid":"B2094757D06AA7F5469B","title":"外滩街道社区事务受理服务中心","lon":"121.484199","lat":"31.240043","category":"252","category_name":"楼宇机构","address":"上海河南中路568号"},{"poiid":"B2094757D66AA4FE459E","title":"凯恩酒家","lon":"121.48556141797","lat":"31.242659854707","category":"76","category_name":"上海菜","address":"黄浦区香港路123号(近四川中路)"},{"poiid":"B2094655D269A4F54393","title":"新协通国际大酒店宴会厅","lon":"121.48236","lat":"31.24034","category":"247","category_name":"餐饮美食","address":"黄浦区北京东路398号新协通国际大酒店内(山东北路口)"},{"poiid":"B2094752DA65A3FB449C","title":"上海南京路外滩","lon":"121.483871","lat":"31.242178","category":"500","category_name":"未知分类","address":"上海市 上海"},{"poiid":"B2094757D16DA0FD4298","title":"coco都可茶饮(宁波路店)","lon":"121.483673738","lat":"31.2403950167","category":"113","category_name":"冷饮店","address":"黄浦区宁波路188号(河南中路口)"},{"poiid":"B2094750DA65A3F54599","title":"上海市外滩","lon":"121.482643","lat":"31.239095","category":"500","category_name":"未知分类","address":null},{"poiid":"B2094655D26BA2FB4993","title":"四川中路香港路","lon":"121.48635","lat":"31.24187","category":"38","category_name":"公交车站","address":"上海市闸北区北苏州路"},{"poiid":"B2094757D16BABF9449A","title":"江西中路","lon":"121.48410263","lat":"31.239679301","category":"500","category_name":"未知分类","address":"上海江西中路"},{"poiid":"B2094655D36CA0F8499E","title":"江西中路北京东路","lon":"121.48574","lat":"31.24011","category":"38","category_name":"公交车站","address":""},{"poiid":"B209475CD668A5FD439C","title":"甲泰船面","lon":"121.485992","lat":"31.239599","category":"500","category_name":"未知分类","address":"上海市 上海市黄浦区宁波路51号"},{"poiid":"B2094757D06FA5F84192","title":"民生路1500号","lon":"121.483988053","lat":"31.241195523","category":"260","category_name":"其他","address":"上海出入境管理局"},{"poiid":"B2094655D36CA3F9499A","title":"中福城三期","lon":"121.484135","lat":"31.239161","category":"47","category_name":"住宅区","address":"上海市黄浦区汉口路689弄"},{"poiid":"B2094757D46EABF9469F","title":"张鼎鸡 黄浦店","lon":"121.48292","lat":"31.23913","category":"68","category_name":"快餐厅","address":"黄浦区宁波路216-218号(宁波路山东北路)"},{"poiid":"B2094753D56DA4FC449E","title":"上海世博展览馆","lon":"121.485015","lat":"31.240404","category":"500","category_name":"未知分类","address":"上海市 上海浦东新区国展路1099号"},{"poiid":"B2094757DB69A6F84398","title":"百米香榭","lon":"121.485","lat":"31.2386","category":"249","category_name":"购物服务","address":"黄浦区浙江中路229号(近福州路)"},{"poiid":"B209475DD46FA6FE4893","title":"掌上韩品","lon":"121.48397","lat":"31.238342","category":"247","category_name":"餐饮美食","address":"上海市 南京东路300号名人广场"},{"poiid":"B2094757DA69A3F44592","title":"甲泰餐厅","lon":"121.48598641005","lat":"31.239524260517","category":"99","category_name":"泰国／越南菜品餐厅","address":"黄浦区宁波路51号(近江西中路)"},{"poiid":"B2094654DA6FA4FD489A","title":"上海市口腔病防治院","lon":"121.48338","lat":"31.24057","category":"162","category_name":"医院","address":"北京东路356号国华大楼3-5层"},{"poiid":"B2094757D06FA6F4499F","title":"新协通国际大酒店","lon":"121.48261","lat":"31.24007","category":"217","category_name":"旅馆招待所","address":"北京东路398号新协通国际大酒店18楼(山东北路口)"},{"poiid":"B209475CD564A7F84292","title":"上海滩新天地店","lon":"121.47463","lat":"31.22164","category":"119","category_name":"商场","address":"\"太仓路181弄新天地北里15号\r\n\""},{"poiid":"B209475CD564A7F84392","title":"上海滩浦东香格里拉店","lon":"121.50058","lat":"31.23634","category":"119","category_name":"商场","address":"浦东富成路33号香格里拉酒店内大堂层"},{"poiid":"B2094757D06FA2F44099","title":"绿雅酒家","lon":"121.48623","lat":"31.23976","category":"76","category_name":"上海菜","address":"上海黄浦区江西中路372号(近宁波路)  "},{"poiid":"B2094654DA6FA4FD489C","title":"老丰阁品珍轩(北京东路)","lon":"121.48229","lat":"31.24043","category":"76","category_name":"上海菜","address":"黄浦区北京东路398号新协通国际大酒店3楼(山东北路口)"},{"poiid":"B2094757D06AA2FA4392","title":"香港路","lon":"121.485499","lat":"31.242465","category":"500","category_name":"未知分类","address":"上海香港路"},{"poiid":"B2094757DB6CA6FD419A","title":"Cuvve","lon":"121.485513","lat":"31.240501","category":"248","category_name":"生活娱乐","address":"外灘十八號"},{"poiid":"B2094757D068A2FE4799","title":"小杨生煎(河南中路店)","lon":"121.4841","lat":"31.239","category":"68","category_name":"快餐厅","address":"黄浦区宁波路178号(近河南中路)"},{"poiid":"B2094753D469A5FC469E","title":"年代秀饭堂","lon":"121.483963","lat":"31.23822","category":"247","category_name":"餐饮美食","address":"上海市 天津路118号（近河南中路）"},{"poiid":"B2094654DB6BABFD479B","title":"明堂上海旅行者青年旅舍","lon":"121.48529","lat":"31.24161","category":"218","category_name":"青年旅舍","address":"黄浦区江西中路450号(近北京东路)"},{"poiid":"B2094757DB6FA0FA4298","title":"益丰外滩源","lon":"121.484644","lat":"31.242458","category":"637","category_name":"房地产类公司","address":"黄浦区北京东路31-91号(近圆明园路)"},{"poiid":"B2094654DB69A4FE439E","title":"莫泰168连锁旅店(外滩店)","lon":"121.48634","lat":"31.23979","category":"216","category_name":"经济型连锁酒店","address":"上海黄浦区宁波路50号（近江西中路口）"},{"poiid":"B2094757DB6CA4FF419D","title":"汉拿山","lon":"121.48404","lat":"31.23815","category":"96","category_name":"韩国料理","address":"黄浦区南京东路300号名人大厦5楼511-513号(近河南中路)"},{"poiid":"B2094757D068A7F44893","title":"小梁园精菜坊","lon":"121.48434","lat":"31.23824","category":"75","category_name":"浙江菜","address":"黄浦区天津路118号(近河南中路)"},{"poiid":"B2094757D065A4FD4893","title":"轨道交通2号线(南京东路)","lon":"121.484178138","lat":"31.2382214704","category":"500","category_name":"未知分类","address":"上海南京东路河南中路(可换乘轨道交通10号线)"},{"poiid":"B2094654DA6FA2F84799","title":"春申江大厦","lon":"121.485","lat":"31.2422","category":"46","category_name":"楼宇","address":"上海市黄浦区浙江中路400号"},{"poiid":"B2094757D068A1FD489D","title":"亚洲大厦","lon":"121.485","lat":"31.2397","category":"46","category_name":"楼宇","address":"松江区工业区鼎源路广富林路路口"},{"poiid":"B2094751D364A7FA419F","title":"星巴克外滩店","lon":"121.485804","lat":"31.242252","category":"247","category_name":"餐饮美食","address":"外滩"},{"poiid":"B2094654DA6FA4FF459D","title":"宝龙大酒楼","lon":"121.48596793288","lat":"31.240782833756","category":"72","category_name":"广东菜","address":"黄浦区北京东路230号(近河南中路)"},{"poiid":"B2094757D069A0FE4599","title":"三林塘馄饨店","lon":"121.48568504662","lat":"31.240624646304","category":"68","category_name":"快餐厅","address":"黄浦区江西中路416号(北京东路口)"},{"poiid":"B2094654DB6AA6F84599","title":"湖滨假日酒店","lon":"121.48266","lat":"31.24101","category":"250","category_name":"公园户外","address":"黄浦区南苏州路445号(近山东北路)"},{"poiid":"B2094757D468A6FB4899","title":"85度C 宁波路店","lon":"121.484141054","lat":"31.239500793","category":"112","category_name":"糕饼店","address":"黄浦区河南中路521-3号(宁波路口)"},{"poiid":"B2094757D168A2FE489D","title":"海上荟","lon":"121.484368738","lat":"31.2424785612","category":"76","category_name":"上海菜","address":"黄浦区江西中路371号(近北京东路)"},{"poiid":"B2094757D468AAF94193","title":"CHAI Living Lounge","lon":"121.482989","lat":"31.242648","category":"260","category_name":"其他","address":"虹口区北苏州路410号C座1楼(近河南路)"},{"poiid":"B2094655D36CA5F5419D","title":"北京东路四川中路","lon":"121.48625","lat":"31.24066","category":"38","category_name":"公交车站","address":"上海北京东路四川中路"},{"poiid":"B2094750D26FABFE4898","title":"muse1","lon":"121.485687","lat":"31.240003","category":"500","category_name":"未知分类","address":"北京东路圆明圆路"},{"poiid":"B2094753D16DA1FA4492","title":"外滩和平饭店","lon":"121.486209","lat":"31.240235","category":"247","category_name":"餐饮美食","address":"上海市 外滩和平饭店"},{"poiid":"B2094654DA6FA4F4419A","title":"浦光中学","lon":"121.4862","lat":"31.24195","category":"55","category_name":"中学","address":"上海黄浦区四川中路599号(近河南拉面馆)"},{"poiid":"B2094654DB69A6FE4693","title":"滇池大楼","lon":"121.48584","lat":"31.24007","category":"46","category_name":"楼宇","address":"昌平区回龙观镇国际信息产业基地高新二街"},{"poiid":"B2094654DA6FA4FD479D","title":"国华大楼","lon":"121.48324","lat":"31.24048","category":"46","category_name":"楼宇","address":"北京东路356"},{"poiid":"B2094654DA6FA4FF449A","title":"宁波小区","lon":"121.48452","lat":"31.239851","category":"47","category_name":"住宅区","address":"上海宁波路120号"},{"poiid":"B2094757D66BA0FA459D","title":"上味馆南翔小笼 四川中路店","lon":"121.48675","lat":"31.24045","category":"247","category_name":"餐饮美食","address":"黄浦区四川中路504号(近北京东路)"},{"poiid":"B2094757D06AA7F5469B","title":"外滩街道社区事务受理服务中心","lon":"121.484199","lat":"31.240043","category":"252","category_name":"楼宇机构","address":"上海河南中路568号"},{"poiid":"B2094757D66AA4FE459E","title":"凯恩酒家","lon":"121.48556141797","lat":"31.242659854707","category":"76","category_name":"上海菜","address":"黄浦区香港路123号(近四川中路)"},{"poiid":"B2094655D269A4F54393","title":"新协通国际大酒店宴会厅","lon":"121.48236","lat":"31.24034","category":"247","category_name":"餐饮美食","address":"黄浦区北京东路398号新协通国际大酒店内(山东北路口)"},{"poiid":"B2094752DA65A3FB449C","title":"上海南京路外滩","lon":"121.483871","lat":"31.242178","category":"500","category_name":"未知分类","address":"上海市 上海"},{"poiid":"B2094757D16DA0FD4298","title":"coco都可茶饮(宁波路店)","lon":"121.483673738","lat":"31.2403950167","category":"113","category_name":"冷饮店","address":"黄浦区宁波路188号(河南中路口)"},{"poiid":"B2094750DA65A3F54599","title":"上海市外滩","lon":"121.482643","lat":"31.239095","category":"500","category_name":"未知分类","address":null},{"poiid":"B2094655D26BA2FB4993","title":"四川中路香港路","lon":"121.48635","lat":"31.24187","category":"38","category_name":"公交车站","address":"上海市闸北区北苏州路"},{"poiid":"B2094757D16BABF9449A","title":"江西中路","lon":"121.48410263","lat":"31.239679301","category":"500","category_name":"未知分类","address":"上海江西中路"},{"poiid":"B2094655D36CA0F8499E","title":"江西中路北京东路","lon":"121.48574","lat":"31.24011","category":"38","category_name":"公交车站","address":""},{"poiid":"B209475CD668A5FD439C","title":"甲泰船面","lon":"121.485992","lat":"31.239599","category":"500","category_name":"未知分类","address":"上海市 上海市黄浦区宁波路51号"},{"poiid":"B2094757D06FA5F84192","title":"民生路1500号","lon":"121.483988053","lat":"31.241195523","category":"260","category_name":"其他","address":"上海出入境管理局"},{"poiid":"B2094655D36CA3F9499A","title":"中福城三期","lon":"121.484135","lat":"31.239161","category":"47","category_name":"住宅区","address":"上海市黄浦区汉口路689弄"},{"poiid":"B2094757D46EABF9469F","title":"张鼎鸡 黄浦店","lon":"121.48292","lat":"31.23913","category":"68","category_name":"快餐厅","address":"黄浦区宁波路216-218号(宁波路山东北路)"},{"poiid":"B2094753D56DA4FC449E","title":"上海世博展览馆","lon":"121.485015","lat":"31.240404","category":"500","category_name":"未知分类","address":"上海市 上海浦东新区国展路1099号"},{"poiid":"B2094757DB69A6F84398","title":"百米香榭","lon":"121.485","lat":"31.2386","category":"249","category_name":"购物服务","address":"黄浦区浙江中路229号(近福州路)"},{"poiid":"B209475DD46FA6FE4893","title":"掌上韩品","lon":"121.48397","lat":"31.238342","category":"247","category_name":"餐饮美食","address":"上海市 南京东路300号名人广场"},{"poiid":"B2094757DA69A3F44592","title":"甲泰餐厅","lon":"121.48598641005","lat":"31.239524260517","category":"99","category_name":"泰国／越南菜品餐厅","address":"黄浦区宁波路51号(近江西中路)"},{"poiid":"B2094654DA6FA4FD489A","title":"上海市口腔病防治院","lon":"121.48338","lat":"31.24057","category":"162","category_name":"医院","address":"北京东路356号国华大楼3-5层"},{"poiid":"B2094757D06FA6F4499F","title":"新协通国际大酒店","lon":"121.48261","lat":"31.24007","category":"217","category_name":"旅馆招待所","address":"北京东路398号新协通国际大酒店18楼(山东北路口)"},{"poiid":"B209475CD564A7F84292","title":"上海滩新天地店","lon":"121.47463","lat":"31.22164","category":"119","category_name":"商场","address":"\"太仓路181弄新天地北里15号\r\n\""},{"poiid":"B209475CD564A7F84392","title":"上海滩浦东香格里拉店","lon":"121.50058","lat":"31.23634","category":"119","category_name":"商场","address":"浦东富成路33号香格里拉酒店内大堂层"},{"poiid":"B2094757D06FA2F44099","title":"绿雅酒家","lon":"121.48623","lat":"31.23976","category":"76","category_name":"上海菜","address":"上海黄浦区江西中路372号(近宁波路)  "},{"poiid":"B2094654DA6FA4FD489C","title":"老丰阁品珍轩(北京东路)","lon":"121.48229","lat":"31.24043","category":"76","category_name":"上海菜","address":"黄浦区北京东路398号新协通国际大酒店3楼(山东北路口)"},{"poiid":"B2094757D06AA2FA4392","title":"香港路","lon":"121.485499","lat":"31.242465","category":"500","category_name":"未知分类","address":"上海香港路"},{"poiid":"B2094757DB6CA6FD419A","title":"Cuvve","lon":"121.485513","lat":"31.240501","category":"248","category_name":"生活娱乐","address":"外灘十八號"},{"poiid":"B2094757D068A2FE4799","title":"小杨生煎(河南中路店)","lon":"121.4841","lat":"31.239","category":"68","category_name":"快餐厅","address":"黄浦区宁波路178号(近河南中路)"},{"poiid":"B2094753D469A5FC469E","title":"年代秀饭堂","lon":"121.483963","lat":"31.23822","category":"247","category_name":"餐饮美食","address":"上海市 天津路118号（近河南中路）"},{"poiid":"B2094654DB6BABFD479B","title":"明堂上海旅行者青年旅舍","lon":"121.48529","lat":"31.24161","category":"218","category_name":"青年旅舍","address":"黄浦区江西中路450号(近北京东路)"},{"poiid":"B2094757DB6FA0FA4298","title":"益丰外滩源","lon":"121.484644","lat":"31.242458","category":"637","category_name":"房地产类公司","address":"黄浦区北京东路31-91号(近圆明园路)"},{"poiid":"B2094654DB69A4FE439E","title":"莫泰168连锁旅店(外滩店)","lon":"121.48634","lat":"31.23979","category":"216","category_name":"经济型连锁酒店","address":"上海黄浦区宁波路50号（近江西中路口）"},{"poiid":"B2094757DB6CA4FF419D","title":"汉拿山","lon":"121.48404","lat":"31.23815","category":"96","category_name":"韩国料理","address":"黄浦区南京东路300号名人大厦5楼511-513号(近河南中路)"},{"poiid":"B2094757D068A7F44893","title":"小梁园精菜坊","lon":"121.48434","lat":"31.23824","category":"75","category_name":"浙江菜","address":"黄浦区天津路118号(近河南中路)"},{"poiid":"B2094757D065A4FD4893","title":"轨道交通2号线(南京东路)","lon":"121.484178138","lat":"31.2382214704","category":"500","category_name":"未知分类","address":"上海南京东路河南中路(可换乘轨道交通10号线)"},{"poiid":"B2094654DA6FA2F84799","title":"春申江大厦","lon":"121.485","lat":"31.2422","category":"46","category_name":"楼宇","address":"上海市黄浦区浙江中路400号"},{"poiid":"B2094757D068A1FD489D","title":"亚洲大厦","lon":"121.485","lat":"31.2397","category":"46","category_name":"楼宇","address":"松江区工业区鼎源路广富林路路口"},{"poiid":"B2094751D364A7FA419F","title":"星巴克外滩店","lon":"121.485804","lat":"31.242252","category":"247","category_name":"餐饮美食","address":"外滩"},{"poiid":"B2094654DA6FA4FF459D","title":"宝龙大酒楼","lon":"121.48596793288","lat":"31.240782833756","category":"72","category_name":"广东菜","address":"黄浦区北京东路230号(近河南中路)"},{"poiid":"B2094757D069A0FE4599","title":"三林塘馄饨店","lon":"121.48568504662","lat":"31.240624646304","category":"68","category_name":"快餐厅","address":"黄浦区江西中路416号(北京东路口)"},{"poiid":"B2094654DB6AA6F84599","title":"湖滨假日酒店","lon":"121.48266","lat":"31.24101","category":"250","category_name":"公园户外","address":"黄浦区南苏州路445号(近山东北路)"},{"poiid":"B2094757D468A6FB4899","title":"85度C 宁波路店","lon":"121.484141054","lat":"31.239500793","category":"112","category_name":"糕饼店","address":"黄浦区河南中路521-3号(宁波路口)"},{"poiid":"B2094757D168A2FE489D","title":"海上荟","lon":"121.484368738","lat":"31.2424785612","category":"76","category_name":"上海菜","address":"黄浦区江西中路371号(近北京东路)"},{"poiid":"B2094757D468AAF94193","title":"CHAI Living Lounge","lon":"121.482989","lat":"31.242648","category":"260","category_name":"其他","address":"虹口区北苏州路410号C座1楼(近河南路)"},{"poiid":"B2094655D36CA5F5419D","title":"北京东路四川中路","lon":"121.48625","lat":"31.24066","category":"38","category_name":"公交车站","address":"上海北京东路四川中路"},{"poiid":"B2094750D26FABFE4898","title":"muse1","lon":"121.485687","lat":"31.240003","category":"500","category_name":"未知分类","address":"北京东路圆明圆路"},{"poiid":"B2094753D16DA1FA4492","title":"外滩和平饭店","lon":"121.486209","lat":"31.240235","category":"247","category_name":"餐饮美食","address":"上海市 外滩和平饭店"},{"poiid":"B2094654DA6FA4F4419A","title":"浦光中学","lon":"121.4862","lat":"31.24195","category":"55","category_name":"中学","address":"上海黄浦区四川中路599号(近河南拉面馆)"},{"poiid":"B2094654DB69A6FE4693","title":"滇池大楼","lon":"121.48584","lat":"31.24007","category":"46","category_name":"楼宇","address":"昌平区回龙观镇国际信息产业基地高新二街"},{"poiid":"B2094654DA6FA4FD479D","title":"国华大楼","lon":"121.48324","lat":"31.24048","category":"46","category_name":"楼宇","address":"北京东路356"},{"poiid":"B2094654DA6FA4FF449A","title":"宁波小区","lon":"121.48452","lat":"31.239851","category":"47","category_name":"住宅区","address":"上海宁波路120号"},{"poiid":"B2094757D66BA0FA459D","title":"上味馆南翔小笼 四川中路店","lon":"121.48675","lat":"31.24045","category":"247","category_name":"餐饮美食","address":"黄浦区四川中路504号(近北京东路)"},{"poiid":"B2094757D06AA7F5469B","title":"外滩街道社区事务受理服务中心","lon":"121.484199","lat":"31.240043","category":"252","category_name":"楼宇机构","address":"上海河南中路568号"},{"poiid":"B2094757D66AA4FE459E","title":"凯恩酒家","lon":"121.48556141797","lat":"31.242659854707","category":"76","category_name":"上海菜","address":"黄浦区香港路123号(近四川中路)"},{"poiid":"B2094655D269A4F54393","title":"新协通国际大酒店宴会厅","lon":"121.48236","lat":"31.24034","category":"247","category_name":"餐饮美食","address":"黄浦区北京东路398号新协通国际大酒店内(山东北路口)"},{"poiid":"B2094752DA65A3FB449C","title":"上海南京路外滩","lon":"121.483871","lat":"31.242178","category":"500","category_name":"未知分类","address":"上海市 上海"},{"poiid":"B2094757D16DA0FD4298","title":"coco都可茶饮(宁波路店)","lon":"121.483673738","lat":"31.2403950167","category":"113","category_name":"冷饮店","address":"黄浦区宁波路188号(河南中路口)"},{"poiid":"B2094750DA65A3F54599","title":"上海市外滩","lon":"121.482643","lat":"31.239095","category":"500","category_name":"未知分类","address":null},{"poiid":"B2094655D26BA2FB4993","title":"四川中路香港路","lon":"121.48635","lat":"31.24187","category":"38","category_name":"公交车站","address":"上海市闸北区北苏州路"},{"poiid":"B2094757D16BABF9449A","title":"江西中路","lon":"121.48410263","lat":"31.239679301","category":"500","category_name":"未知分类","address":"上海江西中路"},{"poiid":"B2094655D36CA0F8499E","title":"江西中路北京东路","lon":"121.48574","lat":"31.24011","category":"38","category_name":"公交车站","address":""},{"poiid":"B209475CD668A5FD439C","title":"甲泰船面","lon":"121.485992","lat":"31.239599","category":"500","category_name":"未知分类","address":"上海市 上海市黄浦区宁波路51号"},{"poiid":"B2094757D06FA5F84192","title":"民生路1500号","lon":"121.483988053","lat":"31.241195523","category":"260","category_name":"其他","address":"上海出入境管理局"},{"poiid":"B2094655D36CA3F9499A","title":"中福城三期","lon":"121.484135","lat":"31.239161","category":"47","category_name":"住宅区","address":"上海市黄浦区汉口路689弄"},{"poiid":"B2094757D46EABF9469F","title":"张鼎鸡 黄浦店","lon":"121.48292","lat":"31.23913","category":"68","category_name":"快餐厅","address":"黄浦区宁波路216-218号(宁波路山东北路)"},{"poiid":"B2094753D56DA4FC449E","title":"上海世博展览馆","lon":"121.485015","lat":"31.240404","category":"500","category_name":"未知分类","address":"上海市 上海浦东新区国展路1099号"},{"poiid":"B2094757DB69A6F84398","title":"百米香榭","lon":"121.485","lat":"31.2386","category":"249","category_name":"购物服务","address":"黄浦区浙江中路229号(近福州路)"},{"poiid":"B209475DD46FA6FE4893","title":"掌上韩品","lon":"121.48397","lat":"31.238342","category":"247","category_name":"餐饮美食","address":"上海市 南京东路300号名人广场"},{"poiid":"B2094757DA69A3F44592","title":"甲泰餐厅","lon":"121.48598641005","lat":"31.239524260517","category":"99","category_name":"泰国／越南菜品餐厅","address":"黄浦区宁波路51号(近江西中路)"},{"poiid":"B2094654DA6FA4FD489A","title":"上海市口腔病防治院","lon":"121.48338","lat":"31.24057","category":"162","category_name":"医院","address":"北京东路356号国华大楼3-5层"},{"poiid":"B2094757D06FA6F4499F","title":"新协通国际大酒店","lon":"121.48261","lat":"31.24007","category":"217","category_name":"旅馆招待所","address":"北京东路398号新协通国际大酒店18楼(山东北路口)"},{"poiid":"B209475CD564A7F84292","title":"上海滩新天地店","lon":"121.47463","lat":"31.22164","category":"119","category_name":"商场","address":"\"太仓路181弄新天地北里15号\r\n\""},{"poiid":"B209475CD564A7F84392","title":"上海滩浦东香格里拉店","lon":"121.50058","lat":"31.23634","category":"119","category_name":"商场","address":"浦东富成路33号香格里拉酒店内大堂层"},{"poiid":"B2094757D06FA2F44099","title":"绿雅酒家","lon":"121.48623","lat":"31.23976","category":"76","category_name":"上海菜","address":"上海黄浦区江西中路372号(近宁波路)  "},{"poiid":"B2094654DA6FA4FD489C","title":"老丰阁品珍轩(北京东路)","lon":"121.48229","lat":"31.24043","category":"76","category_name":"上海菜","address":"黄浦区北京东路398号新协通国际大酒店3楼(山东北路口)"},{"poiid":"B2094757D06AA2FA4392","title":"香港路","lon":"121.485499","lat":"31.242465","category":"500","category_name":"未知分类","address":"上海香港路"},{"poiid":"B2094757DB6CA6FD419A","title":"Cuvve","lon":"121.485513","lat":"31.240501","category":"248","category_name":"生活娱乐","address":"外灘十八號"},{"poiid":"B2094757D068A2FE4799","title":"小杨生煎(河南中路店)","lon":"121.4841","lat":"31.239","category":"68","category_name":"快餐厅","address":"黄浦区宁波路178号(近河南中路)"},{"poiid":"B2094753D469A5FC469E","title":"年代秀饭堂","lon":"121.483963","lat":"31.23822","category":"247","category_name":"餐饮美食","address":"上海市 天津路118号（近河南中路）"},{"poiid":"B2094654DB6BABFD479B","title":"明堂上海旅行者青年旅舍","lon":"121.48529","lat":"31.24161","category":"218","category_name":"青年旅舍","address":"黄浦区江西中路450号(近北京东路)"},{"poiid":"B2094757DB6FA0FA4298","title":"益丰外滩源","lon":"121.484644","lat":"31.242458","category":"637","category_name":"房地产类公司","address":"黄浦区北京东路31-91号(近圆明园路)"},{"poiid":"B2094654DB69A4FE439E","title":"莫泰168连锁旅店(外滩店)","lon":"121.48634","lat":"31.23979","category":"216","category_name":"经济型连锁酒店","address":"上海黄浦区宁波路50号（近江西中路口）"},{"poiid":"B2094757DB6CA4FF419D","title":"汉拿山","lon":"121.48404","lat":"31.23815","category":"96","category_name":"韩国料理","address":"黄浦区南京东路300号名人大厦5楼511-513号(近河南中路)"},{"poiid":"B2094757D068A7F44893","title":"小梁园精菜坊","lon":"121.48434","lat":"31.23824","category":"75","category_name":"浙江菜","address":"黄浦区天津路118号(近河南中路)"},{"poiid":"B2094757D065A4FD4893","title":"轨道交通2号线(南京东路)","lon":"121.484178138","lat":"31.2382214704","category":"500","category_name":"未知分类","address":"上海南京东路河南中路(可换乘轨道交通10号线)"},{"poiid":"B2094654DA6FA2F84799","title":"春申江大厦","lon":"121.485","lat":"31.2422","category":"46","category_name":"楼宇","address":"上海市黄浦区浙江中路400号"},{"poiid":"B2094757D068A1FD489D","title":"亚洲大厦","lon":"121.485","lat":"31.2397","category":"46","category_name":"楼宇","address":"松江区工业区鼎源路广富林路路口"},{"poiid":"B2094751D364A7FA419F","title":"星巴克外滩店","lon":"121.485804","lat":"31.242252","category":"247","category_name":"餐饮美食","address":"外滩"},{"poiid":"B2094654DA6FA4FF459D","title":"宝龙大酒楼","lon":"121.48596793288","lat":"31.240782833756","category":"72","category_name":"广东菜","address":"黄浦区北京东路230号(近河南中路)"},{"poiid":"B2094757D069A0FE4599","title":"三林塘馄饨店","lon":"121.48568504662","lat":"31.240624646304","category":"68","category_name":"快餐厅","address":"黄浦区江西中路416号(北京东路口)"},{"poiid":"B2094654DB6AA6F84599","title":"湖滨假日酒店","lon":"121.48266","lat":"31.24101","category":"250","category_name":"公园户外","address":"黄浦区南苏州路445号(近山东北路)"},{"poiid":"B2094757D468A6FB4899","title":"85度C 宁波路店","lon":"121.484141054","lat":"31.239500793","category":"112","category_name":"糕饼店","address":"黄浦区河南中路521-3号(宁波路口)"},{"poiid":"B2094757D168A2FE489D","title":"海上荟","lon":"121.484368738","lat":"31.2424785612","category":"76","category_name":"上海菜","address":"黄浦区江西中路371号(近北京东路)"},{"poiid":"B2094757D468AAF94193","title":"CHAI Living Lounge","lon":"121.482989","lat":"31.242648","category":"260","category_name":"其他","address":"虹口区北苏州路410号C座1楼(近河南路)"},{"poiid":"B2094655D36CA5F5419D","title":"北京东路四川中路","lon":"121.48625","lat":"31.24066","category":"38","category_name":"公交车站","address":"上海北京东路四川中路"},{"poiid":"B2094750D26FABFE4898","title":"muse1","lon":"121.485687","lat":"31.240003","category":"500","category_name":"未知分类","address":"北京东路圆明圆路"},{"poiid":"B2094753D16DA1FA4492","title":"外滩和平饭店","lon":"121.486209","lat":"31.240235","category":"247","category_name":"餐饮美食","address":"上海市 外滩和平饭店"},{"poiid":"B2094654DA6FA4F4419A","title":"浦光中学","lon":"121.4862","lat":"31.24195","category":"55","category_name":"中学","address":"上海黄浦区四川中路599号(近河南拉面馆)"},{"poiid":"B2094654DB69A6FE4693","title":"滇池大楼","lon":"121.48584","lat":"31.24007","category":"46","category_name":"楼宇","address":"昌平区回龙观镇国际信息产业基地高新二街"},{"poiid":"B2094654DA6FA4FD479D","title":"国华大楼","lon":"121.48324","lat":"31.24048","category":"46","category_name":"楼宇","address":"北京东路356"},{"poiid":"B2094654DA6FA4FF449A","title":"宁波小区","lon":"121.48452","lat":"31.239851","category":"47","category_name":"住宅区","address":"上海宁波路120号"},{"poiid":"B2094757D66BA0FA459D","title":"上味馆南翔小笼 四川中路店","lon":"121.48675","lat":"31.24045","category":"247","category_name":"餐饮美食","address":"黄浦区四川中路504号(近北京东路)"},{"poiid":"B2094757D06AA7F5469B","title":"外滩街道社区事务受理服务中心","lon":"121.484199","lat":"31.240043","category":"252","category_name":"楼宇机构","address":"上海河南中路568号"},{"poiid":"B2094757D66AA4FE459E","title":"凯恩酒家","lon":"121.48556141797","lat":"31.242659854707","category":"76","category_name":"上海菜","address":"黄浦区香港路123号(近四川中路)"},{"poiid":"B2094655D269A4F54393","title":"新协通国际大酒店宴会厅","lon":"121.48236","lat":"31.24034","category":"247","category_name":"餐饮美食","address":"黄浦区北京东路398号新协通国际大酒店内(山东北路口)"},{"poiid":"B2094752DA65A3FB449C","title":"上海南京路外滩","lon":"121.483871","lat":"31.242178","category":"500","category_name":"未知分类","address":"上海市 上海"},{"poiid":"B2094757D16DA0FD4298","title":"coco都可茶饮(宁波路店)","lon":"121.483673738","lat":"31.2403950167","category":"113","category_name":"冷饮店","address":"黄浦区宁波路188号(河南中路口)"},{"poiid":"B2094750DA65A3F54599","title":"上海市外滩","lon":"121.482643","lat":"31.239095","category":"500","category_name":"未知分类","address":null},{"poiid":"B2094655D26BA2FB4993","title":"四川中路香港路","lon":"121.48635","lat":"31.24187","category":"38","category_name":"公交车站","address":"上海市闸北区北苏州路"},{"poiid":"B2094757D16BABF9449A","title":"江西中路","lon":"121.48410263","lat":"31.239679301","category":"500","category_name":"未知分类","address":"上海江西中路"},{"poiid":"B2094655D36CA0F8499E","title":"江西中路北京东路","lon":"121.48574","lat":"31.24011","category":"38","category_name":"公交车站","address":""},{"poiid":"B209475CD668A5FD439C","title":"甲泰船面","lon":"121.485992","lat":"31.239599","category":"500","category_name":"未知分类","address":"上海市 上海市黄浦区宁波路51号"},{"poiid":"B2094757D06FA5F84192","title":"民生路1500号","lon":"121.483988053","lat":"31.241195523","category":"260","category_name":"其他","address":"上海出入境管理局"},{"poiid":"B2094655D36CA3F9499A","title":"中福城三期","lon":"121.484135","lat":"31.239161","category":"47","category_name":"住宅区","address":"上海市黄浦区汉口路689弄"},{"poiid":"B2094757D46EABF9469F","title":"张鼎鸡 黄浦店","lon":"121.48292","lat":"31.23913","category":"68","category_name":"快餐厅","address":"黄浦区宁波路216-218号(宁波路山东北路)"},{"poiid":"B2094753D56DA4FC449E","title":"上海世博展览馆","lon":"121.485015","lat":"31.240404","category":"500","category_name":"未知分类","address":"上海市 上海浦东新区国展路1099号"},{"poiid":"B2094757DB69A6F84398","title":"百米香榭","lon":"121.485","lat":"31.2386","category":"249","category_name":"购物服务","address":"黄浦区浙江中路229号(近福州路)"},{"poiid":"B209475DD46FA6FE4893","title":"掌上韩品","lon":"121.48397","lat":"31.238342","category":"247","category_name":"餐饮美食","address":"上海市 南京东路300号名人广场"}]