[{"poiid":"B2094757D068A2FD419B","title":"石洞口码头","lon":"121.421338","lat":"31.461493","category":"35","category_name":"长途汽车站","address":"上海宝山区盛石路石洞口码头"},{"poiid":"B2094757D568A5F5419D","title":"上海市石洞口客运港","lon":"121.417667","lat":"31.464807","category":"35","category_name":"长途汽车站","address":"盛石路"},{"poiid":"B2094750D564A3FD4999","title":"宝华盛世花园","lon":"121.413984","lat":"31.451447","category":"47","category_name":"住宅区","address":"宝山区蕰川公路与月川路路口"},{"poiid":"B2094757D065A0FF4493","title":"华能上海石洞口第一电厂","lon":"121.40841066","lat":"31.451718647","category":"500","category_name":"未知分类","address":"上海盛石路270号"},{"poiid":"B2094655D36DA1F8459D","title":"电厂环保桥","lon":"121.41673","lat":"31.46052","category":"250","category_name":"公园户外","address":""},{"poiid":"B2094654D468ABFC4498","title":"宝钢码头","lon":"121.43454","lat":"31.45449","category":"34","category_name":"港口码头","address":""},{"poiid":"B2094654D468ABFC479A","title":"上海紫凌轩大酒店","lon":"121.40484","lat":"31.45005","category":"76","category_name":"上海菜","address":"宝山区盛桥古莲路200号(近蕴川路)"},{"poiid":"B2094655D36CA1FC469A","title":"盛石路","lon":"121.4087","lat":"31.4562","category":"38","category_name":"公交车站","address":""},{"poiid":"B2094757D66BA7FC4092","title":"缘江圆酒店","lon":"121.40574","lat":"31.45319","category":"76","category_name":"上海菜","address":"盛桥镇蕰川路5575弄3号锦江之星旁近古莲路"},{"poiid":"B2094654D468ABFC4693","title":"海石宾馆(蕴川路)","lon":"121.40683","lat":"31.44917","category":"250","category_name":"公园户外","address":"宝山区蕴川路5418号"},{"poiid":"B2094757D568AAF9469D","title":"锦江之星旅馆(宝山盛桥店)","lon":"121.40541911","lat":"31.45349582","category":"216","category_name":"经济型连锁酒店","address":"蕰川公路5575弄3号"},{"poiid":"B2094757D66CA4FE449E","title":"好沣水果","lon":"121.407049768","lat":"31.459225218","category":"500","category_name":"未知分类","address":"上海蕴川路5860号"},{"poiid":"B2094654DB69ABFF469E","title":"农工商超市(盛桥店)","lon":"121.40603","lat":"31.45093","category":"118","category_name":"超级市场","address":"宝山区盛桥镇古莲路185号"},{"poiid":"B2094654D468ABFC459E","title":"上海市盛桥中学","lon":"121.40295","lat":"31.45599","category":"55","category_name":"中学","address":""},{"poiid":"B2094654D468ABFF489A","title":"锦怡宾馆","lon":"121.4058","lat":"31.45301","category":"250","category_name":"公园户外","address":"蕴川路5569号"},{"poiid":"B2094750DA6AA7FF449D","title":"华能上海电力检修公司","lon":"121.405761","lat":"31.457777","category":"263","category_name":"公司","address":"宝山区盛石路288号"},{"poiid":"B2094757D66EA6F4459C","title":"盛桥地段医院","lon":"121.40341324","lat":"31.452282254","category":"162","category_name":"医院","address":"上海盛桥"},{"poiid":"B2094757D66CA6FC4099","title":"爱巢℡","lon":"121.4060394","lat":"31.465673138","category":"500","category_name":"未知分类","address":null},{"poiid":"B2094750DB64A2FD479D","title":"华能上海石洞口第二电厂","lon":"121.403442","lat":"31.457254","category":"263","category_name":"公司","address":"盛石路350号"},{"poiid":"B2094654D468ABFF439D","title":"宝山区盛桥中心校","lon":"121.40357","lat":"31.45","category":"55","category_name":"中学","address":"古莲路271"},{"poiid":"B2094757D16DAAFF499C","title":"石洞口二电厂","lon":"121.41695501","lat":"31.477540657","category":"500","category_name":"未知分类","address":"上海石洞口"},{"poiid":"B2094757D169ABFA4892","title":"江苏太仓浏河牡丹园山庄","lon":"121.407681679","lat":"31.44764892","category":"500","category_name":"未知分类","address":"上海江苏省太仓市浏河镇新闸村"},{"poiid":"B2094654D468ABFC459C","title":"中国农业银行盛桥营业所","lon":"121.40557","lat":"31.45078","category":"150","category_name":"银行","address":"宝山区古莲路187号"}]