[{"poiid":"B2094750DA65A3FD4399","title":"辰山植物园","lon":"121.185836","lat":"31.075887","category":"196","category_name":"公园","address":"上海市松江区辰花路"},{"poiid":"B2094757D06BA2FF499F","title":"辰山植物园大草坪","lon":"121.180050196","lat":"31.0788457038","category":"197","category_name":"动物园","address":"上海市松江区辰塔路"},{"poiid":"B2094757D16CABF54193","title":"辰山植物园月季园","lon":"121.181565196","lat":"31.072828575","category":"500","category_name":"未知分类","address":"上海辰山植物园"},{"poiid":"B2094654DB6DA4FF489C","title":"大众国际会议中心","lon":"121.189","lat":"31.08096","category":"214","category_name":"四星级宾馆","address":"松江区赵昆路1515号(近沈砖公路)"},{"poiid":"B2094654DB6DA4FF499B","title":"华东政法学院(广富林路)","lon":"121.1954","lat":"31.05699","category":"671","category_name":"高校中心点","address":""},{"poiid":"B2094750D56EA3FF4498","title":"辰山植物园秋季活动－辰山秋韵（签到惊喜）","lon":"121.181173","lat":"31.072418","category":"250","category_name":"公园户外","address":"松江区辰花公路3888号"},{"poiid":"B2094757D16AABFC4798","title":"辰山山庄","lon":"121.168518196","lat":"31.0699665137","category":"500","category_name":"未知分类","address":"上海市松江区陈家公路508号"},{"poiid":"B2094757D66CA5F9439A","title":"广富林遗址文化公园","lon":"121.19717419","lat":"31.057697176","category":"196","category_name":"公园","address":"上海近郊松江  "},{"poiid":"B2094757D065A6FA439C","title":"新陈家食堂","lon":"121.18435","lat":"31.06734","category":"76","category_name":"上海菜","address":"松江区新陈家村张家公路187号(近辰花路)"},{"poiid":"B2094757D06FA2F44098","title":"上海天文博物馆","lon":"121.1888551","lat":"31.0926714","category":"182","category_name":"博物馆","address":"松江区外青松公路西佘山北门"},{"poiid":"B2094654DB6EA0FE449D","title":"广富林遗址","lon":"121.19608","lat":"31.06449","category":"250","category_name":"公园户外","address":""},{"poiid":"B2094655D36CA5F84298","title":"辰花公路辰塔路","lon":"121.1759","lat":"31.06879","category":"38","category_name":"公交车站","address":""},{"poiid":"B2094655D36CA5F84198","title":"辰山植物园(招呼站)","lon":"121.18943","lat":"31.05438","category":"38","category_name":"公交车站","address":""},{"poiid":"B2094752D568A0FC449A","title":"上海辰山植物园","lon":"121.177192","lat":"31.074245","category":"250","category_name":"公园户外","address":null},{"poiid":"B2094757D165A5FD4898","title":"辰山植物园水生植物园","lon":"121.189439","lat":"31.054384","category":"500","category_name":"未知分类","address":"上海辰山植物园"},{"poiid":"B2094757D164A4FD489F","title":"佘山珑原别墅","lon":"121.19510019","lat":"31.076042643","category":"47","category_name":"住宅区","address":"上海市松江区辰花公路龙源路"},{"poiid":"B2094655D36DA2F94498","title":"辰山塘桥","lon":"121.1843","lat":"31.08357","category":"250","category_name":"公园户外","address":""},{"poiid":"B2094655D36DA2FF429A","title":"辰山河桥","lon":"121.17469","lat":"31.07859","category":"250","category_name":"公园户外","address":""},{"poiid":"B2094752D56CABFB4292","title":"纳米魔幻城","lon":"121.169379","lat":"31.06904","category":"47","category_name":"住宅区","address":"佘山国家旅游度假区辰花路5088号"},{"poiid":"B2094655D264A7FA4292","title":"复地香堤苑","lon":"121.193935","lat":"31.057255","category":"47","category_name":"住宅区","address":"上海市松江区三新路1755号"},{"poiid":"B2094654DA6BA4F4439A","title":"上海紫园","lon":"121.19228","lat":"31.08679","category":"47","category_name":"住宅区","address":"环山路9号"},{"poiid":"B2094757D66EA7FD4098","title":"Enovos Coffee","lon":"121.198757296","lat":"31.068253277","category":"500","category_name":"未知分类","address":"上海松江大学城三期工商银行楼上"},{"poiid":"B2094655D26FA1FE469C","title":"佘山国家旅游度假区(沈砖公路)","lon":"121.17105","lat":"31.0845","category":"240","category_name":"国家级景点","address":""},{"poiid":"B2094655D36CA7F5419E","title":"广富林路","lon":"121.19085","lat":"31.05508","category":"38","category_name":"公交车站","address":""},{"poiid":"B2094757D569A3FC409A","title":"上海紫园二期","lon":"121.1922831","lat":"31.08679306","category":"47","category_name":"住宅区","address":"佘山镇佘天昆公路268弄"},{"poiid":"B2094655D36CA5F8429B","title":"辰花公路龙源路","lon":"121.20241","lat":"31.06944","category":"38","category_name":"公交车站","address":""},{"poiid":"B2094654DA6BABF94292","title":"中建三局中凯佘山别墅","lon":"121.19762","lat":"31.08419","category":"47","category_name":"住宅区","address":"沈砖公路4777"},{"poiid":"B2094655D36CA7F5409D","title":"广富林路三新路","lon":"121.18934","lat":"31.05437","category":"38","category_name":"公交车站","address":""},{"poiid":"B2094757D569A2FB469A","title":"易捷便利店","lon":"121.20095676","lat":"31.06822266","category":"117","category_name":"便民商店/便利店","address":"中国上海市松江区"},{"poiid":"B2094757D568A7FE469C","title":"大业领地","lon":"121.19519421706","lat":"31.058753803848","category":"47","category_name":"住宅区","address":"松江区工业区鼎源路广富林路路口"},{"poiid":"B2094757D568A7FD459F","title":"佘山度假饭店","lon":"121.18166558","lat":"31.08534966","category":"251","category_name":"出行住宿","address":"佘山国家度假区"},{"poiid":"B2094655D36DA2FE4992","title":"三湾里桥","lon":"121.17677","lat":"31.05882","category":"250","category_name":"公园户外","address":""},{"poiid":"B2094757D568A0F54892","title":"佘山天邻别墅","lon":"121.19902","lat":"31.085815","category":"47","category_name":"住宅区","address":"上海市松江区沈砖公路3899号"},{"poiid":"B2094654DA6BA4F8449C","title":"中国天主教佘山修院","lon":"121.19111","lat":"31.09149","category":"250","category_name":"公园户外","address":"佘山镇"},{"poiid":"B2094751D26CA2FE4399","title":"上海欢乐谷","lon":"121.188842","lat":"31.05566","category":"500","category_name":"未知分类","address":null},{"poiid":"B2094654DA6BABFF489A","title":"佘山人家","lon":"121.18841","lat":"31.09316","category":"76","category_name":"上海菜","address":"松江区环山路(近桃源路)"},{"poiid":"B2094752D665ABFD469D","title":"佘山","lon":"121.187027","lat":"31.053702","category":"500","category_name":"未知分类","address":null},{"poiid":"B2094752D464A6FB459A","title":"华东政法大学富田体育馆","lon":"121.18678","lat":"31.05552","category":"500","category_name":"未知分类","address":null},{"poiid":"B2094757DA6AA4FC4793","title":"华东政法大学二食堂","lon":"121.184938","lat":"31.055129","category":"253","category_name":"校园生活","address":"松江校区"},{"poiid":"B2094757D164AAF9429E","title":"华东政法大学五期宿舍5号楼","lon":"121.19633572","lat":"31.057042634","category":"253","category_name":"校园生活","address":"上海市松江区广富林路3455弄5号"},{"poiid":"B2094757D06AA2F54298","title":"新陈家村陈家","lon":"121.18410652","lat":"31.054339729","category":"500","category_name":"未知分类","address":"上海松江区辰塔路"},{"poiid":"B2094757D169A4FA4399","title":"上海市地方海事局油墩港海事所","lon":"121.18550872","lat":"31.054357528","category":"500","category_name":"未知分类","address":"上海松江油墩港"},{"poiid":"B2094757D165A2FF4099","title":"5019大神宫","lon":"121.1892096","lat":"31.0541625","category":"607","category_name":"一般景点","address":null},{"poiid":"B2094757D06BA7FA439A","title":"陈家厍","lon":"121.18388449","lat":"31.054296678","category":"500","category_name":"未知分类","address":"上海松江区方松街道新陈家村新辰公路"}]