[{"poiid":"B2094757D06FA1F9409F","title":"华美达大酒店(新金桥路店)","lon":"121.59237","lat":"31.24504","category":"214","category_name":"四星级宾馆","address":"上海浦东新区新金桥路18号(近新金桥大厦)  "},{"poiid":"B2094752D06EA3FB4792","title":"极乐汤","lon":"121.600227","lat":"31.249919","category":"248","category_name":"生活娱乐","address":"浦东新区新金桥路600号"},{"poiid":"B2094757D068A7F8499C","title":"佳友维景大酒店","lon":"121.59724729","lat":"31.247203359","category":"217","category_name":"旅馆招待所","address":"上海市浦东新区新金桥路159号(近金桥路)"},{"poiid":"B2094757D06FA7F4419A","title":"新金桥路金藏路","lon":"121.5987091","lat":"31.248832702","category":"38","category_name":"公交车站","address":"上海新金桥路金藏路"},{"poiid":"B2094757D66AAAFA449B","title":"新元素 金桥店 Element Fresh","lon":"121.59175019852","lat":"31.242573521999","category":"94","category_name":"西餐厅","address":"浦东新区红枫路331号(近碧云路)"},{"poiid":"B2094752D16CABFA4098","title":"极乐汤碧云温泉馆","lon":"121.600174","lat":"31.250107","category":"248","category_name":"生活娱乐","address":"新金桥路600号"},{"poiid":"B2094757D06FA5F5459E","title":"苏先生海鲜渔庄(金桥店)","lon":"121.58887","lat":"31.2473","category":"260","category_name":"其他","address":"浦东新区杨高中路758号(近金桥路)"},{"poiid":"B2094757D06FA5F44398","title":"COSTA COFFEE (红枫路店)","lon":"121.5930128","lat":"31.2414766","category":"65","category_name":"咖啡厅","address":"浦东新区红枫路399号B区(近碧云国际社区)"},{"poiid":"B2094757D06FA0FD4698","title":"Office Park","lon":"121.59123","lat":"31.24407","category":"196","category_name":"公园","address":"上海浦东新区新金桥路(华美达大酒店对面)  "},{"poiid":"B2094757D068A3FF4298","title":"新金桥大厦","lon":"121.591656208","lat":"31.2455679412","category":"46","category_name":"楼宇","address":"上海市浦东新区新金桥路28号"},{"poiid":"B2094757D068AAF5439C","title":"御璟轩(红枫路店)","lon":"121.59152","lat":"31.24242","category":"72","category_name":"广东菜","address":"浦东新区红枫路293号(近碧云路)"},{"poiid":"B2094757D06FAAFD499E","title":"佳友维景大酒店宴会厅","lon":"121.5967","lat":"31.24755","category":"217","category_name":"旅馆招待所","address":"浦东新区新金桥路159号(近金藏路)查看地图"},{"poiid":"B2094753D66DA2F8479F","title":"上海金桥红枫万豪酒店","lon":"121.591152995825","lat":"31.2440606046672","category":"213","category_name":"五星级宾馆","address":"新金桥路15号"},{"poiid":"B2094655D26EA6FD409D","title":"Johnny Moo 红枫店","lon":"121.59057274914","lat":"31.243509593747","category":"94","category_name":"西餐厅","address":"浦东新区红枫路228号(近碧云路)"},{"poiid":"B2094757DA6BABF4409F","title":"碧云公馆","lon":"121.599491","lat":"31.25091","category":"252","category_name":"楼宇机构","address":"浦东浙桥路289弄(近杨高中路,金海路口)"},{"poiid":"B2094757D068ABFE4992","title":"银东大厦","lon":"121.59239363","lat":"31.246649735","category":"46","category_name":"楼宇","address":"融程花园酒店位于雨花红星会展中心西北侧"},{"poiid":"B2094757D06AAAFE449C","title":"CANTINA  AGAVE","lon":"121.591676","lat":"31.242395","category":"94","category_name":"西餐厅","address":"浦东新区红枫路357号(近碧云路)"},{"poiid":"B2094757D468A4FA409E","title":"宝莱坞印度餐厅 bollywood","lon":"121.59133","lat":"31.2422","category":"102","category_name":"印度风味","address":"浦东新区红枫路326号(近碧云路)"},{"poiid":"B2094752D06DAAFA429E","title":"极乐汤碧云温泉馆","lon":"121.596011","lat":"31.252186","category":"248","category_name":"生活娱乐","address":"上海市浦东新区新金桥路600号"},{"poiid":"B2094752D16FA2FC409A","title":"极樂汤","lon":"121.600093","lat":"31.250086","category":"247","category_name":"餐饮美食","address":"上海市新金桥路600号"},{"poiid":"B2094757D569A1FF4399","title":"碧云社区","lon":"121.5927881","lat":"31.24458806","category":"47","category_name":"住宅区","address":"新金桥路27号"},{"poiid":"B2094757D06AAAF94598","title":"Office park 湖和3个小岛","lon":"121.59400391","lat":"31.244913414","category":"234","category_name":"海滨浴场","address":"上海浦东新区明月路1257号"},{"poiid":"B2094757D168A0FA4793","title":"纽约客匹萨(红枫路店)","lon":"121.5923","lat":"31.24154","category":"94","category_name":"西餐厅","address":"浦东新区红枫路336号(近碧云路)"},{"poiid":"B2094654DB69A5FF4399","title":"莫泰168连锁旅店(新金桥路店)","lon":"121.59775","lat":"31.24797","category":"216","category_name":"经济型连锁酒店","address":"上海市浦东新区新金桥路179号（近金藏路）"},{"poiid":"B2094654DA6AA7FA449C","title":"上海浦东国际培训中心教学楼","lon":"121.5969","lat":"31.24516","category":"46","category_name":"楼宇","address":""},{"poiid":"B2094655D26AA1F4499D","title":"汉庭快捷酒店新金桥店","lon":"121.59763","lat":"31.24899","category":"247","category_name":"餐饮美食","address":"上海浦东新区新金桥路230号17-6(近金藏路)"},{"poiid":"B2094654DA6AA7FA449E","title":"花园5号酒楼","lon":"121.59534","lat":"31.24637","category":"70","category_name":"综合酒楼","address":"金桥路1775号"},{"poiid":"B2094757D66BA5F5409A","title":"香啡缤 碧云店 Coffee Bean&Tea Leaf","lon":"121.59029016157","lat":"31.24344483425","category":"65","category_name":"咖啡厅","address":"红枫路376号近碧云路"},{"poiid":"B2094757D16CA4FC4899","title":"胡姬园 金桥店 Corss Road Cofe","lon":"121.59408287165","lat":"31.246897585595","category":"110","category_name":"其他亚洲菜","address":"浦东新区金桥路1775号(近新金桥路)"},{"poiid":"B2094654DA6AA1FB4093","title":"金桥现代产业服务园区","lon":"121.59279","lat":"31.24458","category":"45","category_name":"产业园区","address":"新金桥路27号"},{"poiid":"B2094757DB69A1FE409F","title":"鱼美人大酒店","lon":"121.59747","lat":"31.24991","category":"72","category_name":"广东菜","address":"浦东新区浙桥路200号(近金藏路)"},{"poiid":"B2094654DA6AA7FB4593","title":"碧云国际社区·晓园","lon":"121.59255","lat":"31.24144","category":"47","category_name":"住宅区","address":"红枫路366"},{"poiid":"B2094655D26BA7F94992","title":"惠普综合大楼","lon":"121.59994","lat":"31.2463","category":"46","category_name":"楼宇","address":"金藏路351号"},{"poiid":"B2094757D064A1F9409F","title":"电讯盈科","lon":"121.59867233","lat":"31.248694767","category":"249","category_name":"购物服务","address":"新金桥路金藏路222号"},{"poiid":"B2094757D66BA6F44898","title":"巴罗莎西餐厅","lon":"121.59707263301","lat":"31.247717926271","category":"268","category_name":"自助","address":"浦东新区新金桥路159号佳友维景大酒店1楼(近金藏路)"},{"poiid":"B2094654DA6AA1FA489E","title":"浦东民航大厦","lon":"121.597","lat":"31.2507","category":"46","category_name":"楼宇","address":"上海市黄浦区南京东路409-459号"},{"poiid":"B2094655D26FA4F8429B","title":"雅斯酒店连锁(上海金桥酒店公寓)","lon":"121.59646","lat":"31.25053","category":"216","category_name":"经济型连锁酒店","address":"上海市浦东新区金藏路51号(近新金桥路)"},{"poiid":"B2094655D26EABFD459D","title":"华美达中餐厅","lon":"121.59052007463","lat":"31.244308684054","category":"247","category_name":"餐饮美食","address":"新金桥路18号华美达大酒店近红枫路"},{"poiid":"B2094757D66CAAFE409E","title":"杨高中路金桥立交桥","lon":"121.590676873","lat":"31.2483536596","category":"500","category_name":"未知分类","address":"上海杨高中路金桥立交桥"},{"poiid":"B2094752D16DAAFC469E","title":"极乐汤碧云温泉","lon":"121.592955","lat":"31.248058","category":"247","category_name":"餐饮美食","address":"新金桥路600号"},{"poiid":"B2094757D069A3FF4599","title":"中国建设银行（金桥支行）","lon":"121.596949739","lat":"31.2486174657","category":"150","category_name":"银行","address":"浦东新区新金桥路196号(金藏路新金桥路)"},{"poiid":"B2094757D76DA0FD4392","title":"美林阁 金桥店","lon":"121.59800399575","lat":"31.248306650962","category":"76","category_name":"上海菜","address":"浦东新区新金桥路179号(近金藏路)"},{"poiid":"B2094757D06BA7FA459F","title":"水上餐厅","lon":"121.59305","lat":"31.24437","category":"76","category_name":"上海菜","address":"浦东新区新金桥路27号金桥软件园内(近明月路)"},{"poiid":"B2094757D068A7FC4398","title":"金桥现代科技园12号楼","lon":"121.593557567","lat":"31.2449755814","category":"46","category_name":"楼宇","address":"上海浦东新区新金桥路27号"},{"poiid":"B2094757D069A4FB4499","title":"中国电信天翼视讯传媒有限公司","lon":"121.59391161","lat":"31.242911702","category":"263","category_name":"公司","address":"上海浦东新区新金桥路27号5号楼"},{"poiid":"B2094757D069A1FD479F","title":"上海市浦东新区税务局第五税务所","lon":"121.59530693","lat":"31.248696749","category":"250","category_name":"公园户外","address":"上海新金桥路201号"},{"poiid":"B2094757D16CA5F9459F","title":"元子韩国料理","lon":"121.593214","lat":"31.246556","category":"247","category_name":"餐饮美食","address":"上海浦东金桥乐林路135号(近巨峰路卜蜂莲花)"},{"poiid":"B2094757D16AA5FA499E","title":"浦东新区税务局23所","lon":"121.59268116","lat":"31.246208234","category":"46","category_name":"楼宇","address":"上海新金桥路201号"},{"poiid":"B2094654D568AAFC4499","title":"上海粼凌商场","lon":"121.59688","lat":"31.24829","category":"119","category_name":"商场","address":"新金桥路188"},{"poiid":"B2094757D66EABFC4799","title":"佰味知客","lon":"121.598408339","lat":"31.2481155541","category":"68","category_name":"快餐厅","address":"浦东新区浙桥路19号"},{"poiid":"B2094757D069A1FA4292","title":"全家便利新金桥店","lon":"121.59805552","lat":"31.248482675","category":"117","category_name":"便民商店/便利店","address":"上海新金桥路230号T17-7底层D区"},{"poiid":"B2094654DB69A6FC4698","title":"上海市金桥出口加工区","lon":"121.59426","lat":"31.24956","category":"45","category_name":"产业园区","address":"浦东新区中部"},{"poiid":"B2094757D66CA6FE479D","title":"中国银行上海市浦东开发区支行","lon":"121.593072975","lat":"31.2459984298","category":"500","category_name":"未知分类","address":"浦东新区新金桥路58号(金桥路新金桥路)"},{"poiid":"B2094655D268ABFF429F","title":"金桥立交桥","lon":"121.59184","lat":"31.24927","category":"250","category_name":"公园户外","address":""},{"poiid":"B2094750D664A5F9419C","title":"大头仔特色海鲜面馆","lon":"121.597","lat":"31.2502","category":"68","category_name":"快餐厅","address":"浦东新区浙桥路21号(近金藏路)"},{"poiid":"B2094655D265A5F84693","title":"莱卡大厦","lon":"121.59831","lat":"31.24735","category":"46","category_name":"楼宇","address":"金藏路258号"},{"poiid":"B2094757D069A1F4469B","title":"金桥股份office park","lon":"121.59278869","lat":"31.244588851","category":"263","category_name":"公司","address":"上海新金桥路27号"},{"poiid":"B2094757D16CA4FD4093","title":"浦东华美达大酒店宴会厅","lon":"121.59128","lat":"31.24418","category":"217","category_name":"旅馆招待所","address":"浦东新区新金桥路18号华美达大酒店内(近红枫路)查看地图"},{"poiid":"B2094757D464A7FF489C","title":"一龙烧肉","lon":"121.59366","lat":"31.24673","category":"269","category_name":"烧烤","address":"浦东新区碧云路1168号(近红枫路)"},{"poiid":"B2094757D168A7F5479B","title":"BOLLYWOOD Indian Restaurant","lon":"121.59326138","lat":"31.242487597","category":"500","category_name":"未知分类","address":"上海浦东金桥红枫路326号"},{"poiid":"B2094753DB6DA7FD449A","title":"金桥酒店公寓","lon":"121.594688","lat":"31.249923","category":"213","category_name":"五星级宾馆","address":"上海浦东新区红枫路108弄"},{"poiid":"B2094757D065A5FB4393","title":"Offiec Park No.14 Building","lon":"121.59531153","lat":"31.245715367","category":"500","category_name":"未知分类","address":"上海No.1257 Mingyue Read, Pudong"},{"poiid":"B2094654DA6AA1F9499F","title":"金桥出口加工区20号","lon":"121.59831","lat":"31.24735","category":"45","category_name":"产业园区","address":"金藏路258(1-5)"},{"poiid":"B2094757D66DA1F8449C","title":"金桥现代科技园","lon":"121.594085975","lat":"31.2450494075","category":"500","category_name":"未知分类","address":"上海新金桥路27号"},{"poiid":"B2094654D568ABFA4299","title":"中国农业银行上海市金桥支行","lon":"121.59717","lat":"31.24859","category":"150","category_name":"银行","address":"浦东新区新金桥路188号(金藏路新金桥路)"},{"poiid":"B2094654DA6AA7FA4498","title":"上海浦东国际培训中心","lon":"121.59636","lat":"31.2451","category":"190","category_name":"培训机构","address":"上海新金桥路1851号"},{"poiid":"B2094757D568A2FB479E","title":"碧云东壹栋","lon":"121.59685248","lat":"31.25053955","category":"47","category_name":"住宅区","address":"碧云东壹栋位于浦东金藏路51号(浙桥路口)"},{"poiid":"B2094654D568ABFA4099","title":"浦东新区国家税务局第二十二税务所","lon":"121.59857","lat":"31.24799","category":"250","category_name":"公园户外","address":"新金桥路201"},{"poiid":"B2094654DB65A4FE4399","title":"上海贝尔阿尔卡特股份有限公司","lon":"121.59319","lat":"31.24657","category":"263","category_name":"公司","address":"新金桥路58"},{"poiid":"B2094654DA6AA1FB439E","title":"阿尔卡特企业方案事业部亚太研发中心","lon":"121.59387","lat":"31.24635","category":"191","category_name":"科研机构","address":"新金桥路58"},{"poiid":"B2094752D16CA1FF469E","title":"极乐汤","lon":"121.59297","lat":"31.248079","category":"247","category_name":"餐饮美食","address":"新心金桥路600号"},{"poiid":"B2094757D66CA3F8429D","title":"珍好甲台湾小吃","lon":"121.59367397","lat":"31.244581396","category":"247","category_name":"餐饮美食","address":"上海浦东新区红枫路350号"},{"poiid":"B2094654DA6AA1FA489D","title":"金桥大厦客户服务处","lon":"121.59159","lat":"31.24567","category":"46","category_name":"楼宇","address":""},{"poiid":"B2094757D06AA0FA429A","title":"二工大5号楼","lon":"121.594459239","lat":"31.2495902213","category":"500","category_name":"未知分类","address":"上海第二工业大学5号教学楼"},{"poiid":"B2094655D269ABFD4898","title":"圣雪绒工厂折扣店","lon":"121.59763","lat":"31.24899","category":"247","category_name":"餐饮美食","address":"浦东新区新金桥路230号(近金藏路)"},{"poiid":"B2094757D16CABF5459D","title":"香香桂林米粉(新金桥路店)","lon":"121.59947","lat":"31.24902","category":"68","category_name":"快餐厅","address":"浦东新区新金桥路255号(近金藏路)"},{"poiid":"B2094757D16AA2F44399","title":"金桥路川桥路","lon":"121.596808","lat":"31.244701","category":"500","category_name":"未知分类","address":"上海每天和倪猪在这里交错两次……要是时间卡的准的话……"},{"poiid":"B2094654DA6AA1FA4893","title":"上海华联罗森有限公司便利店","lon":"121.59159","lat":"31.24567","category":"117","category_name":"便民商店/便利店","address":""},{"poiid":"B2094655D26BA1FD409B","title":"平度路杨高中路","lon":"121.5946","lat":"31.25272","category":"38","category_name":"公交车站","address":""},{"poiid":"B2094757D06BABF54393","title":"蒲舍日式料理","lon":"121.59213387","lat":"31.242119949","category":"95","category_name":"日本料理","address":"浦东新区红枫路348号(近碧云路)"},{"poiid":"B2094654D568A6FC4993","title":"金桥一景","lon":"121.59414","lat":"31.25207","category":"47","category_name":"住宅区","address":"金桥一景位于浦东上海浦东浦东新区杨高中路(路口)"},{"poiid":"B2094757D16BA6FC4099","title":"杨高中路平度路金藏路路口","lon":"121.59597563","lat":"31.249668589","category":"500","category_name":"未知分类","address":"上海浦东新区杨高中路平度路金藏路路口"},{"poiid":"B2094654DA6AA1F84792","title":"柯达电子(上海)有限公司","lon":"121.59745","lat":"31.24678","category":"263","category_name":"公司","address":""},{"poiid":"B2094654D568ABFA4098","title":"浦东新区地方税务局第五税务所","lon":"121.59857","lat":"31.24799","category":"250","category_name":"公园户外","address":"新金桥路201"},{"poiid":"B2094757D068A1F44593","title":"交通银行（新区支行）","lon":"121.5989658","lat":"31.249395163","category":"150","category_name":"银行","address":"上海新金桥路260号"},{"poiid":"B2094750D56DA6F4439B","title":"上海佳友维景大酒店","lon":"121.596656","lat":"31.24727","category":"251","category_name":"出行住宿","address":"新金桥路159号"},{"poiid":"B2094654D568A6F9489D","title":"金台三居","lon":"121.58943","lat":"31.249607","category":"47","category_name":"住宅区","address":"金桥路1498-1510弄"},{"poiid":"B2094752D16DA0FB4598","title":"极乐汤","lon":"121.596367","lat":"31.249642","category":"247","category_name":"餐饮美食","address":null},{"poiid":"B2094654D568ABFA409C","title":"浦东新区地方税务局第二十三税务所","lon":"121.59857","lat":"31.24799","category":"250","category_name":"公园户外","address":"新金桥路201"},{"poiid":"B2094654D568ABFA409F","title":"浦东新区国家税务局第二十三税务所","lon":"121.59857","lat":"31.248","category":"250","category_name":"公园户外","address":"新金桥路201"},{"poiid":"B2094757D568AAFA499A","title":"汇丰馨苑(尚城)","lon":"121.59497179","lat":"31.2506288","category":"47","category_name":"住宅区","address":"汇丰大街159号"},{"poiid":"B2094654D568ABFA409B","title":"浦东新区国家税务局第五税务所","lon":"121.59857","lat":"31.24799","category":"250","category_name":"公园户外","address":"新金桥路201"},{"poiid":"B209475DD26AA0FB4492","title":"红星美凯龙金桥商场","lon":"121.595741","lat":"31.250011","category":"500","category_name":"未知分类","address":"上海市 金藏路58号"},{"poiid":"B2094757D068A0F94298","title":"联芯科技","lon":"121.59718417","lat":"31.241866598","category":"249","category_name":"购物服务","address":"上海浦东新区明月路1258号"},{"poiid":"B2094654DB6BA1F9439E","title":"金桥出口加工区17号","lon":"121.59904","lat":"31.24931","category":"45","category_name":"产业园区","address":"新金桥路230(1-8)"},{"poiid":"B2094654DA6AA1FA4899","title":"张家楼耶稣圣心天主堂迁建奠基","lon":"121.58956","lat":"31.24424","category":"245","category_name":"教堂","address":"浦东新区红枫路151"},{"poiid":"B2094757D469A3FA4398","title":"台湾爱百汇","lon":"121.5923575","lat":"31.2418144","category":"91","category_name":"台湾菜","address":"浦东新区红枫路348号(近碧云路)"},{"poiid":"B2094757D16DA1FD449D","title":"多美滋Dumex","lon":"121.59564997","lat":"31.24259135","category":"247","category_name":"餐饮美食","address":"上海新金桥路27号12＃"},{"poiid":"B2094757D164ABF84892","title":"云晟酒家","lon":"121.597320039","lat":"31.2525808567","category":"76","category_name":"上海菜","address":"浦东新区浙桥路200号碧云90商业中心1楼(近金藏路)"},{"poiid":"B209475DD26CA5F44592","title":"红星美凯龙金桥商场","lon":"121.59114","lat":"31.247659","category":"500","category_name":"未知分类","address":"上海市 金藏路58号"},{"poiid":"B2094757D164AAF5489A","title":"雅思大酒店幼圣国际母婴服务中心","lon":"121.59701133","lat":"31.249982797","category":"217","category_name":"旅馆招待所","address":"上海市浦东新区金藏路51号"},{"poiid":"B2094655D26BA1F8489D","title":"明月路金桥路","lon":"121.5974","lat":"31.24277","category":"38","category_name":"公交车站","address":""},{"poiid":"B2094753D165A1FA409A","title":"上海金桥红枫万豪酒店","lon":"121.591682","lat":"31.243661","category":"500","category_name":"未知分类","address":"上海市 新金桥路15号"},{"poiid":"B2094750D36BABFA499F","title":"幼圣国际月子会所","lon":"121.59641600007","lat":"31.251220644222","category":"606","category_name":"社区服务","address":"浦东金藏路51号雅斯酒店30楼，近杨高中路。"},{"poiid":"B2094750DB64A5FE4098","title":"上海金桥国际广场","lon":"121.59156","lat":"31.252201","category":"500","category_name":"未知分类","address":null},{"poiid":"B2094757D169A5FD489B","title":"新金桥路27号","lon":"121.598706","lat":"31.248832","category":"500","category_name":"未知分类","address":"上海新金桥路金桥路"},{"poiid":"B2094753D46CA3FF4298","title":"極楽湯","lon":"121.600013","lat":"31.249507","category":"247","category_name":"餐饮美食","address":"上海市 新金桥路600号"},{"poiid":"B2094757D16DA0FC4898","title":"上海惠普有限公司","lon":"121.60010267","lat":"31.246317927","category":"263","category_name":"公司","address":"上海市浦东新区云桥路25号"},{"poiid":"B2094654DA6AA7F8469E","title":"金桥出口加工区21号","lon":"121.59998","lat":"31.24527","category":"45","category_name":"产业园区","address":"金藏路366"},{"poiid":"B2094757DA6BABF44099","title":"碧云90商业中心","lon":"121.598265","lat":"31.251295","category":"252","category_name":"楼宇机构","address":"浦东浙桥路200号"},{"poiid":"B2094757D16AA5F5419C","title":"瑤家湘域","lon":"121.598626975","lat":"31.2476775691","category":"500","category_name":"未知分类","address":"上海妙境路168号近新德路"},{"poiid":"B2094757D064A7F84398","title":"上海市浦东新区税务局第二十一税务所","lon":"121.59843338","lat":"31.248638336","category":"500","category_name":"未知分类","address":"上海居家桥路913号"},{"poiid":"B2094757D66FA2FC409B","title":"DEVIL NUT(宏伊店)","lon":"121.59844224","lat":"31.248644441","category":"500","category_name":"未知分类","address":"上海宏伊广场1楼"},{"poiid":"B2094654DA6AA1F9499B","title":"金桥科技工业城","lon":"121.59988","lat":"31.2452","category":"45","category_name":"产业园区","address":"金藏路366"},{"poiid":"B2094757D165A6FD469C","title":"M's Teppanyaki","lon":"121.597613339","lat":"31.2496187887","category":"500","category_name":"未知分类","address":"上海外马路579号"},{"poiid":"B2094654DA6AA1FB419A","title":"金桥集团","lon":"121.59279","lat":"31.24458","category":"263","category_name":"公司","address":"新金桥路27号"},{"poiid":"B2094757D66EA5F9499F","title":"龙门路邮局","lon":"121.59842563","lat":"31.248668889","category":"621","category_name":"邮局","address":"上海柳林路"},{"poiid":"B2094654DA6AA1F9499A","title":"金桥出口加工区22号(云桥路)","lon":"121.60066","lat":"31.24586","category":"45","category_name":"产业园区","address":"云桥路25号"},{"poiid":"B2094757D16BA3F44399","title":"联想客户服务中心(杨高店)","lon":"121.595616755","lat":"31.2512742134","category":"500","category_name":"未知分类","address":"上海杨高中路268号"},{"poiid":"B2094655D36CA7FF469C","title":"红枫路新金桥路","lon":"121.59077","lat":"31.24299","category":"38","category_name":"公交车站","address":""},{"poiid":"B2094757D06BA1F5499F","title":"姗娜娜(金桥碧云店)","lon":"121.59058","lat":"31.24315","category":"149","category_name":"洗浴推拿场所","address":"浦东新区碧云路1234号(红枫路口)"},{"poiid":"B2094655D26BA0F9489B","title":"金桥白领公寓","lon":"121.5908","lat":"31.24983","category":"250","category_name":"公园户外","address":"金桥路1728"},{"poiid":"B2094757D16DA5FC449E","title":"上海威虎网络通讯有限公司","lon":"121.5990356","lat":"31.2490136","category":"263","category_name":"公司","address":"上海新金桥路222号"},{"poiid":"B2094757D16DA5F54993","title":"韩上托玛琳 汗蒸馆","lon":"121.593203","lat":"31.250561","category":"500","category_name":"未知分类","address":"上海东书房路302号"},{"poiid":"B2094655D264ABFD449D","title":"金台三居(东门)","lon":"121.59","lat":"31.2499","category":"47","category_name":"住宅区","address":""},{"poiid":"B2094750D36BA4FA4298","title":"121speak","lon":"121.59763","lat":"31.24899","category":"634","category_name":"IT类公司","address":"上海市浦东新区三林世博软件园19201"},{"poiid":"B2094654D568A7F4449C","title":"金桥一景丽苑","lon":"121.59535","lat":"31.25301","category":"47","category_name":"住宅区","address":"平度路485弄1-16号"},{"poiid":"B2094757D06AA7FC489A","title":"耶稣圣心堂","lon":"121.591003","lat":"31.243117","category":"500","category_name":"未知分类","address":"上海红枫路近新金桥路"},{"poiid":"B2094654D568ABFB4898","title":"交通银行上海新区支行","lon":"121.59934","lat":"31.24944","category":"150","category_name":"银行","address":"新金桥路230"},{"poiid":"B2094655D26EA2F54092","title":"贝尔新村","lon":"121.59596","lat":"31.252804","category":"47","category_name":"住宅区","address":"杨高中路266弄1-18号"},{"poiid":"B2094750D76CA4FE429E","title":"BigBamboo(金桥店)","lon":"121.593","lat":"31.2416","category":"269","category_name":"烧烤","address":"红枫路381号(近碧云路)"},{"poiid":"B2094757D168A2F84892","title":"赫比国际 新金桥大厦","lon":"121.599968875","lat":"31.2465965438","category":"252","category_name":"楼宇机构","address":"上海新金桥路28号"},{"poiid":"B2094757D068A5FD4992","title":"金桥T17","lon":"121.599038","lat":"31.24932","category":"500","category_name":"未知分类","address":"上海新金桥路230号"},{"poiid":"B2094757D169A1FE4793","title":"DIY FOOD SHOP","lon":"121.59402797","lat":"31.242722353","category":"500","category_name":"未知分类","address":"上海市浦东新区红枫路232号"},{"poiid":"B2094654DA6AA1F94999","title":"硕科图像(上海)有限公司","lon":"121.59993","lat":"31.24629","category":"263","category_name":"公司","address":"金藏路351号"},{"poiid":"B2094757D165A7FD439A","title":"交通银行上海市分行大客户五部","lon":"121.600074939","lat":"31.2488090701","category":"500","category_name":"未知分类","address":"上海新金桥路230号4楼"},{"poiid":"B2094654DB6BA1FD479C","title":"贝尔新村(南门)","lon":"121.59611","lat":"31.2525","category":"47","category_name":"住宅区","address":"杨高中路266弄1-18号"},{"poiid":"B2094757D168A3FC4193","title":"上海东昌奥迪","lon":"121.59862493","lat":"31.243612453","category":"158","category_name":"汽车销售","address":"上海锦绣路金滇路口"},{"poiid":"B2094757D16AA0FC4998","title":"赫比(上海)家用电器产品有限公司","lon":"121.599982","lat":"31.245278","category":"500","category_name":"未知分类","address":"上海市浦东新区金藏路366号"},{"poiid":"B2094757D568AAFF439B","title":"华美达多功能厅","lon":"121.5918833","lat":"31.24485806","category":"251","category_name":"出行住宿","address":"新金桥路18号华美达大酒店B1层"},{"poiid":"B2094757D16EA7F84292","title":"中国银行 金桥支行","lon":"121.59755706","lat":"31.244344711","category":"260","category_name":"其他","address":"上海银东大厦"},{"poiid":"B2094655D26BAAFB489B","title":"金家桥","lon":"121.59094","lat":"31.25165","category":"250","category_name":"公园户外","address":""},{"poiid":"B2094757D464A6F9499C","title":"维诺维拉葡萄酒吧 Vino Villa","lon":"121.591293054","lat":"31.242871793","category":"172","category_name":"酒吧","address":"红枫路350号近碧云路"},{"poiid":"B2094757D66FA6FA439A","title":"悠庭保健会所","lon":"121.59307797","lat":"31.241448323","category":"148","category_name":"美容美发店","address":"上海红枫路368号"},{"poiid":"B2094654D568A6FC4992","title":"中国电信东昌分局金桥站","lon":"121.59481","lat":"31.25193","category":"263","category_name":"公司","address":"杨高中路372号"},{"poiid":"B2094654DA6AA7FB469A","title":"梦加园","lon":"121.59403","lat":"31.24205","category":"248","category_name":"生活娱乐","address":"红枫路425"},{"poiid":"B2094757D16FA0F54198","title":"上海华为通信有限公司","lon":"121.59410095","lat":"31.242176055","category":"263","category_name":"公司","address":"上海浦东新区新金桥路27号…"},{"poiid":"B2094757D065A5F5439B","title":"社会保险基金管理中心","lon":"121.59935","lat":"31.249432","category":"260","category_name":"其他","address":"上海新金桥路230号"},{"poiid":"B2094757D16FA4FA439F","title":"崇明长兴岛","lon":"121.594444673","lat":"31.2530076582","category":"500","category_name":"未知分类","address":"上海农家"},{"poiid":"B2094654DA6AA7FB4698","title":"Kodak","lon":"121.59568","lat":"31.24164","category":"263","category_name":"公司","address":"金桥软件园,新金桥路27号8号楼"},{"poiid":"B2094757D165A4F5439A","title":"农业银行金桥","lon":"121.589605339","lat":"31.2501198002","category":"500","category_name":"未知分类","address":"上海金桥路1399号"},{"poiid":"B2094750D26CA7FC409D","title":"迪拜公馆","lon":"121.5952476839079","lat":"31.25324269539726","category":"248","category_name":"生活娱乐","address":"浙桥路200号"},{"poiid":"B2094757D66EA5F8429B","title":"胶东站","lon":"121.59046233","lat":"31.251311827","category":"500","category_name":"未知分类","address":"上海市浦东新区金桥路"},{"poiid":"B2094655D26FA7FE4092","title":"金桥一景丽苑(西门)","lon":"121.595","lat":"31.25256","category":"48","category_name":"楼宇大门","address":"平度路485弄1-16号"},{"poiid":"B2094655D265A5FA4992","title":"金桥一景(北一门)","lon":"121.59412","lat":"31.25287","category":"48","category_name":"楼宇大门","address":""}]