[{"poiid":"B2094757D06FA3F44799","title":"华夏东路地铁站","lon":"121.67645614","lat":"31.196494693","category":"36","category_name":"地铁站","address":"上海轨道交通 二号线 轨交华夏东路站 2"},{"poiid":"B2094757D165ABFF4493","title":"浦东国际机场T1航线楼215#登机口","lon":"121.6746256","lat":"31.177408596","category":"21","category_name":"飞机场","address":"上海浦东国际机场"},{"poiid":"B2094654DA6AAAFD4699","title":"上海民远职业技术学院","lon":"121.66107","lat":"31.19932","category":"671","category_name":"高校中心点","address":"浦东新区唐陆公路3892号(近华夏东路)"},{"poiid":"B2094757D06AA5FA489D","title":"永安公墓","lon":"121.666467005","lat":"31.195946669","category":"620","category_name":"丧葬","address":"浦东新区川沙镇唐陆公路(近华夏东路)"},{"poiid":"B2094757D065A5F8409E","title":"华夏公园","lon":"121.65080441079522","lat":"31.192232339010502","category":"196","category_name":"公园","address":"上海华夏东路185号"},{"poiid":"B2094654DA6AAAFD489D","title":"绿波城","lon":"121.66481","lat":"31.209545","category":"47","category_name":"住宅区","address":"创新中路258号"},{"poiid":"B2094757D068A7FA469F","title":"金唐公寓","lon":"121.65786","lat":"31.202555","category":"500","category_name":"未知分类","address":"创新西路75弄1-136号"},{"poiid":"B2094654DA6AABF4419B","title":"万馨佳园","lon":"121.67354","lat":"31.192419","category":"47","category_name":"住宅区","address":"新德西路207弄"},{"poiid":"B2094757D069A3F9479C","title":"唐镇天主教堂","lon":"121.65758514","lat":"31.201940536","category":"245","category_name":"教堂","address":"上海唐陆路"},{"poiid":"B2094757D06FA5FF4692","title":"金利公寓","lon":"121.66344","lat":"31.2026","category":"47","category_name":"住宅区","address":"上海南曹路901弄"},{"poiid":"B2094655D36CA6F5449F","title":"德川路新德西路","lon":"121.67037","lat":"31.19054","category":"38","category_name":"公交车站","address":""},{"poiid":"B2094757D065A2F4419D","title":"乐乡公墓","lon":"121.666836085","lat":"31.1802569844","category":"620","category_name":"丧葬","address":"浦东新区栏学路8号(近科农路)"},{"poiid":"B2094757D16DA6FC459E","title":"S1高速公路","lon":"121.646461375","lat":"31.1899818195","category":"500","category_name":"未知分类","address":"上海S1高速公路"},{"poiid":"B2094655D36CA7FC4092","title":"华夏东路唐陆路","lon":"121.66202","lat":"31.19424","category":"38","category_name":"公交车站","address":""},{"poiid":"B2094654DA6AABFB4993","title":"环东别墅","lon":"121.669","lat":"31.1925","category":"47","category_name":"住宅区","address":"三灶路1630号"},{"poiid":"B2094757D064A7F44692","title":"东方城市绿洲","lon":"121.68076","lat":"31.186369","category":"47","category_name":"住宅区","address":"浦东新区城丰路577号(近华夏三路)"},{"poiid":"B2094757D06BA3FD409E","title":"瀚盛家园","lon":"121.65532","lat":"31.200581","category":"47","category_name":"住宅区","address":"上海浦东新区创新西路199弄"},{"poiid":"B2094757D16FABFA439B","title":"顺馨佳园","lon":"121.67588","lat":"31.193375","category":"46","category_name":"楼宇","address":"浦东新区新德西路99弄"},{"poiid":"B2094757D169A3FC479B","title":"园西小学","lon":"121.672974109","lat":"31.1927022909","category":"56","category_name":"小学","address":"浦东新区新德西路236号"},{"poiid":"B2094757DB6CA0F5459D","title":"舒馨北苑","lon":"121.6678","lat":"31.191277","category":"47","category_name":"住宅区","address":"浦东新区新德西路508弄"},{"poiid":"B2094655D36CA2FB449E","title":"三灶浜路","lon":"121.66379","lat":"31.1865","category":"38","category_name":"公交车站","address":""},{"poiid":"B2094655D36CA6F9489C","title":"对面街","lon":"121.66672","lat":"31.19537","category":"38","category_name":"公交车站","address":""},{"poiid":"B2094757D164A6FD409F","title":"学校","lon":"121.659774","lat":"31.197994","category":"500","category_name":"未知分类","address":"上海民远学院"},{"poiid":"B2094757D065A4F9429B","title":"上海民远学院","lon":"121.662209","lat":"31.194214","category":"253","category_name":"校园生活","address":"上海华夏东路唐陆路"},{"poiid":"B2094655D36CA7FC429F","title":"华夏东路","lon":"121.67","lat":"31.19609","category":"38","category_name":"公交车站","address":""},{"poiid":"B2094757D069A0FA4498","title":"华夏东路华东路","lon":"121.680707333","lat":"31.1978406773","category":"500","category_name":"未知分类","address":"上海华夏东路华东路"},{"poiid":"B2094655D36CA7FC429A","title":"华夏东路德川路","lon":"121.66601","lat":"31.19523","category":"38","category_name":"公交车站","address":""},{"poiid":"B2094654DA6AA4FD409B","title":"三王庙","lon":"121.65623","lat":"31.18862","category":"244","category_name":"寺庙道观","address":""},{"poiid":"B2094750D565A0FC429D","title":"新德佳苑","lon":"121.66776","lat":"31.190361","category":"627","category_name":"一般地点标志","address":"新德西路511弄"},{"poiid":"B2094655D26BA2FA499C","title":"孙浦路华夏东路","lon":"121.65624","lat":"31.19223","category":"38","category_name":"公交车站","address":""},{"poiid":"B2094757D169A0F9439B","title":"瀚龙苑","lon":"121.6634969","lat":"31.194606549","category":"252","category_name":"楼宇机构","address":"上海華夏東路860號"},{"poiid":"B2094757D16EA3FE4898","title":"沙田公寓","lon":"121.67172","lat":"31.1945","category":"47","category_name":"住宅区","address":"上海市浦东新区华夏东路1152弄"},{"poiid":"B2094655D36CA1F44093","title":"乐乡","lon":"121.66475","lat":"31.18448","category":"38","category_name":"公交车站","address":""},{"poiid":"B2094654DA6AA4FC4899","title":"王港工业区","lon":"121.66764","lat":"31.18537","category":"45","category_name":"产业园区","address":""},{"poiid":"B2094655D36CA7FC4193","title":"华夏东路环东路","lon":"121.65718","lat":"31.19302","category":"38","category_name":"公交车站","address":""},{"poiid":"B2094757DA6FA3FF4092","title":"环东农庄","lon":"121.654787063599","lat":"31.1825806532364","category":"76","category_name":"上海菜","address":"浦东新区孙建路(近三灶路)"},{"poiid":"B2094757D064ABFA4999","title":"华夏三路","lon":"121.670334","lat":"31.190744","category":"500","category_name":"未知分类","address":"上海川沙华夏三路"},{"poiid":"B2094654DA6BA3FE459D","title":"中国电信(华夏东路)","lon":"121.66672","lat":"31.19555","category":"151","category_name":"电讯营业厅","address":""},{"poiid":"B209475CD669A2FE429F","title":"陆家嘴","lon":"121.663475","lat":"31.182979","category":"500","category_name":"未知分类","address":"上海市 人民公园外滩"},{"poiid":"B2094655D36CA7FC419A","title":"华夏东路孙新路","lon":"121.65593","lat":"31.19276","category":"38","category_name":"公交车站","address":""},{"poiid":"B2094655D36CA7FC419D","title":"华夏东路华夏三路","lon":"121.67512","lat":"31.19707","category":"38","category_name":"公交车站","address":""},{"poiid":"B2094654DB69A7F9419A","title":"银龙小区","lon":"121.66895","lat":"31.19564","category":"47","category_name":"住宅区","address":"银龙小区位于浦东华夏东路1036弄"},{"poiid":"B2094655D36CA5FF4592","title":"城丰村","lon":"121.67253","lat":"31.18416","category":"38","category_name":"公交车站","address":""},{"poiid":"B2094757D16DA6FA449D","title":"黑暗料理界","lon":"121.65785208","lat":"31.200647432","category":"247","category_name":"餐饮美食","address":"上海市浦东新区创新西路"},{"poiid":"B2094751D56FA4FE469E","title":"浦东机场","lon":"121.6714","lat":"31.19806","category":"500","category_name":"未知分类","address":null},{"poiid":"B209475CD46FABFF479C","title":"上海浦东国际机场","lon":"121.668991","lat":"31.195882","category":"500","category_name":"未知分类","address":"上海市 上海浦东国际机场"},{"poiid":"B2094654DA6BA3FE449B","title":"精剪坊","lon":"121.66964","lat":"31.19613","category":"148","category_name":"美容美发店","address":""},{"poiid":"B2094654DB64A3FB4798","title":"中国移动通信","lon":"121.66898","lat":"31.19601","category":"138","category_name":"家电电子卖场","address":"华飞金桂苑西"},{"poiid":"B2094757D66FA3FD419B","title":"南门幼儿园","lon":"121.660486985","lat":"31.1808699979","category":"57","category_name":"幼儿园","address":"上海华夏二路828号"},{"poiid":"B2094655D36DA0FC439E","title":"新德西路德华路","lon":"121.67486","lat":"31.19319","category":"38","category_name":"公交车站","address":""},{"poiid":"B2094654DA6AA5F54992","title":"天堂商场","lon":"121.66354","lat":"31.19948","category":"119","category_name":"商场","address":"唐陆路3269号"},{"poiid":"B2094655D26BA2FE439B","title":"万馨家园","lon":"121.67467","lat":"31.19308","category":"47","category_name":"住宅区","address":""},{"poiid":"B2094751D56FA4FE4793","title":"浦东机场T1","lon":"121.6714","lat":"31.19806","category":"500","category_name":"未知分类","address":null},{"poiid":"B2094750D768A3F84399","title":"川悦食空","lon":"121.655","lat":"31.2048","category":"71","category_name":"四川菜","address":"浦东新区唐安路1008号(唐兴路口)"},{"poiid":"B2094750D165A3F44998","title":"华夏金桂苑","lon":"121.674438","lat":"31.197114","category":"47","category_name":"住宅区","address":"华夏金桂苑位于浦东上海浦东华夏东路1349弄"},{"poiid":"B2094757D66DA6FC4593","title":"615车站","lon":"121.660014885","lat":"31.1838669637","category":"251","category_name":"出行住宿","address":"上海环东广场站"},{"poiid":"B2094654DA6BA2FA4192","title":"环东菜市场","lon":"121.65422","lat":"31.18417","category":"117","category_name":"便民商店/便利店","address":""},{"poiid":"B2094655D26BA1F8449A","title":"南曹","lon":"121.66075","lat":"31.20117","category":"38","category_name":"公交车站","address":""},{"poiid":"B2094757D16EA7FD469E","title":"新川中学羽毛球馆","lon":"121.67920808","lat":"31.191496231","category":"500","category_name":"未知分类","address":"上海市浦东新区新德西路169号"},{"poiid":"B2094654DA6BA2FA4399","title":"老二水果超市","lon":"121.65325","lat":"31.18409","category":"117","category_name":"便民商店/便利店","address":""},{"poiid":"B2094757D069A1F44693","title":"肯德基 KFC (金汇店)","lon":"121.65681783","lat":"31.197557864","category":"500","category_name":"未知分类","address":"上海华夏东路2255号"},{"poiid":"B2094757D66DA6FE499B","title":"靈異地帶","lon":"121.67184278","lat":"31.196367038","category":"500","category_name":"未知分类","address":null},{"poiid":"B2094655D264A6FD449A","title":"齐爱佳苑","lon":"121.6618","lat":"31.206957","category":"47","category_name":"住宅区","address":"上海市宝山区新二路183弄"},{"poiid":"B2094654DA6AA5F5409E","title":"佳晖百货商场","lon":"121.65885","lat":"31.2008","category":"119","category_name":"商场","address":"唐陆路3354号"},{"poiid":"B2094655D26FA1FD4893","title":"川沙金汇NK","lon":"121.65265","lat":"31.18516","category":"140","category_name":"体育用品店","address":"浦东新区华夏东路2255号金汇广场"},{"poiid":"B2094757D06BA0FA4999","title":"晴川佳苑","lon":"121.679419085","lat":"31.1926132558","category":"47","category_name":"住宅区","address":"上海华夏东路"},{"poiid":"B2094654DA6AA5F54298","title":"佳晔综合商场","lon":"121.65946","lat":"31.20145","category":"119","category_name":"商场","address":"唐陆路3351号"},{"poiid":"B2094655D36CA0F5499A","title":"华夏中路孙新路","lon":"121.64965","lat":"31.19079","category":"38","category_name":"公交车站","address":""},{"poiid":"B2094757D569A3FF459E","title":"金象华庭","lon":"121.67774984","lat":"31.1960102","category":"47","category_name":"住宅区","address":"浦东华夏三路85弄"},{"poiid":"B2094757D16EA3FB499B","title":"盛南易初莲花(川沙店)","lon":"121.65281","lat":"31.185086","category":"500","category_name":"未知分类","address":"上海浦东新区华夏东路2239号"},{"poiid":"B2094655D36CA7FC419C","title":"华夏东路华夏二路","lon":"121.67974","lat":"31.19791","category":"38","category_name":"公交车站","address":""},{"poiid":"B2094654DA6AA5F5429B","title":"佳丽商场","lon":"121.65801","lat":"31.20137","category":"119","category_name":"商场","address":"唐陆路3251号"},{"poiid":"B2094750D768A7F9499C","title":"爵鼎鸡(唐安路店)","lon":"121.655","lat":"31.2037","category":"68","category_name":"快餐厅","address":"浦东新区唐镇唐安路1052-1058号(近创新西路)"},{"poiid":"B2094655D265A0FE4293","title":"华夏公园(南门)","lon":"121.65121","lat":"31.19153","category":"680","category_name":"楼宇机构","address":""},{"poiid":"B2094654DA6BA2FA4598","title":"上海钧定国际集装箱储运有限公司","lon":"121.65179","lat":"31.18979","category":"263","category_name":"公司","address":""},{"poiid":"B2094654DA6BA2F84299","title":"浦东新区雪英小学","lon":"121.65077","lat":"31.18363","category":"56","category_name":"小学","address":""},{"poiid":"B2094654DA6AA4FD4598","title":"上海市浦东新区育华(集团)学校","lon":"121.6807","lat":"31.19004","category":"55","category_name":"中学","address":"川沙镇华夏三路441号"},{"poiid":"B2094757D16BABF44298","title":"40集会舍","lon":"121.66002","lat":"31.17884","category":"500","category_name":"未知分类","address":"浦东新区科农路2015号(孙浦路进入)"},{"poiid":"B2094655D36CA5FD439D","title":"创新中路齐爱路","lon":"121.66386","lat":"31.20711","category":"38","category_name":"公交车站","address":""},{"poiid":"B2094757D06BA5F54599","title":"阳台","lon":"121.659713385","lat":"31.20099523","category":"500","category_name":"未知分类","address":"上海家里"},{"poiid":"B2094757D169A0FB4899","title":"上海师范大学西一寝室","lon":"121.676483085","lat":"31.1918742396","category":"500","category_name":"未知分类","address":null},{"poiid":"B2094757D16DA0F84392","title":"浦东出租屋","lon":"121.658122601","lat":"31.2000060259","category":"500","category_name":"未知分类","address":"上海浦东创新西路75弄72号"},{"poiid":"B2094757D16CA1F5439D","title":"界龙古园","lon":"121.675784129","lat":"31.1967500737","category":"500","category_name":"未知分类","address":"上海界龙一路759号"},{"poiid":"B2094757D568A0FA419D","title":"东方城市绿洲一期","lon":"121.6809439","lat":"31.18807889","category":"47","category_name":"住宅区","address":"安波路569号(近营口路)"},{"poiid":"B2094654DA6AA5F5429A","title":"佳乐商场","lon":"121.65726","lat":"31.20282","category":"119","category_name":"商场","address":"唐陆路3343号"},{"poiid":"B2094757D168ABF9469B","title":"小恢's家","lon":"121.67703108","lat":"31.192402051","category":"500","category_name":"未知分类","address":null},{"poiid":"B2094655D26BA2FE429D","title":"王恒昌桥","lon":"121.64732","lat":"31.18995","category":"38","category_name":"公交车站","address":""},{"poiid":"B2094654DA6AABF44493","title":"华飞金桂苑","lon":"121.67636","lat":"31.198824","category":"47","category_name":"住宅区","address":"华夏东路1349号"},{"poiid":"B2094654DA6AABF4459A","title":"申华公寓","lon":"121.68002","lat":"31.196543","category":"47","category_name":"住宅区","address":"青艺路181弄"},{"poiid":"B2094757D16AABF84199","title":"浦东张江腾越篮球馆","lon":"121.64855867","lat":"31.181599657","category":"220","category_name":"运动场所","address":"上海张江三灶路(三灶浜路)851号院内(靠近孙弘路)"},{"poiid":"B2094654DA6AAAF5459D","title":"鑫唐佳苑","lon":"121.65543","lat":"31.203997","category":"47","category_name":"住宅区","address":"唐安路1047弄"},{"poiid":"B2094654DA6AA5F44493","title":"华夏文化公园","lon":"121.67938","lat":"31.19882","category":"196","category_name":"公园","address":"华夏东路"},{"poiid":"B2094655D36CA1F54398","title":"科农路稻香路","lon":"121.654","lat":"31.1767","category":"38","category_name":"公交车站","address":""},{"poiid":"B2094654DA6AAAFD449E","title":"唐镇小学","lon":"121.65505","lat":"31.20651","category":"56","category_name":"小学","address":"唐兴路439号"},{"poiid":"B2094757DA6EAAF94692","title":"海珑烧烤","lon":"121.656160354614","lat":"31.2033315370279","category":"247","category_name":"餐饮美食","address":"浦东新区创新西路1085号门口"},{"poiid":"B2094757D66DA7FD429B","title":"华夏中学羽毛球馆","lon":"121.67960238","lat":"31.197466062","category":"500","category_name":"未知分类","address":"上海川沙华夏西校羽毛球馆"},{"poiid":"B2094654DA6AA5F44799","title":"南外滩花园","lon":"121.65717","lat":"31.204578","category":"47","category_name":"住宅区","address":"创新中路"},{"poiid":"B2094654DA6AAAFD4792","title":"上海市浦东新区唐镇卫生院","lon":"121.66007","lat":"31.20582","category":"162","category_name":"医院","address":"创新中路566号"},{"poiid":"B2094654DA6AABFB469E","title":"上海海立钢琴有限公司","lon":"121.6781","lat":"31.18664","category":"263","category_name":"公司","address":""},{"poiid":"B2094654DA6AAAFD469B","title":"东菱花苑","lon":"121.65678","lat":"31.204088","category":"47","category_name":"住宅区","address":"创新西路76号"},{"poiid":"B2094757D16EA0F84692","title":"盛唐府邸","lon":"121.65809208","lat":"31.204972527","category":"500","category_name":"未知分类","address":"上海市浦东新区创新西路28弄16号"},{"poiid":"B2094654DA6AABF4469F","title":"华港华园","lon":"121.68212","lat":"31.1948","category":"47","category_name":"住宅区","address":"新德路1058弄"},{"poiid":"B2094757D568A5FF499E","title":"金象华庭(西门)","lon":"121.67746202","lat":"31.19605767","category":"48","category_name":"楼宇大门","address":"华夏三路85弄"},{"poiid":"B2094751DA69A4FE449B","title":"川沙浮游酒吧","lon":"121.678948","lat":"31.196206","category":"248","category_name":"生活娱乐","address":"川沙青艺路"},{"poiid":"B2094654DB69A6F94993","title":"欧泊圣堡","lon":"121.674","lat":"31.1741","category":"47","category_name":"住宅区","address":"上海市浦东新区栏学路328弄"},{"poiid":"B2094654DA6AAAFD4998","title":"上海浦东唐镇机口工业小区","lon":"121.66721","lat":"31.20535","category":"47","category_name":"住宅区","address":""},{"poiid":"B2094752DB6EA6FA429C","title":"上海浦东国际机场","lon":"121.683344","lat":"31.187176","category":"500","category_name":"未知分类","address":"上海市 上海浦东国际机场"},{"poiid":"B2094757D065A5FE4093","title":"旺族家园","lon":"121.682","lat":"31.197311","category":"47","category_name":"住宅区","address":"上海市浦东新区华夏东路1668号"},{"poiid":"B2094655D36DA0F94893","title":"药水弄","lon":"121.68109","lat":"31.19815","category":"38","category_name":"公交车站","address":""},{"poiid":"B2094757D66EA0F9409F","title":"Ryan's home","lon":"121.677681085","lat":"31.1816100141","category":"500","category_name":"未知分类","address":"上海市浦东新区"},{"poiid":"B2094655D36CA0FB4593","title":"机口村","lon":"121.66283","lat":"31.20693","category":"38","category_name":"公交车站","address":""},{"poiid":"B2094654DA6AAAFD4393","title":"唐镇中学","lon":"121.65885","lat":"31.20886","category":"55","category_name":"中学","address":"浦东新区齐爱路646号"},{"poiid":"B2094654DA6AAAF54799","title":"唐欣苑","lon":"121.65605","lat":"31.205748","category":"47","category_name":"住宅区","address":"唐兴路436弄"},{"poiid":"B2094757D164A3FC419D","title":"腾跃球馆","lon":"121.64666597","lat":"31.183144959","category":"220","category_name":"运动场所","address":null},{"poiid":"B2094757D165A5FF469F","title":"得利酒店","lon":"121.66810808","lat":"31.209185619","category":"76","category_name":"上海菜","address":"上海市浦东新区唐兴路"},{"poiid":"B2094757D66EA6FB409D","title":"唐镇社区卫生服务中心","lon":"121.660797385","lat":"31.2052437333","category":"500","category_name":"未知分类","address":"上海创新中路"},{"poiid":"B2094757D569A2F9449E","title":"华港花园(南门)","lon":"121.68225016","lat":"31.1947309","category":"47","category_name":"住宅区","address":"新德路1058弄"},{"poiid":"B2094655D26BA2F9499F","title":"唐安路唐兴路","lon":"121.6545","lat":"31.20557","category":"38","category_name":"公交车站","address":""},{"poiid":"B2094757D66DA0F4439E","title":"ORBIS","lon":"121.66486178","lat":"31.205525839","category":"500","category_name":"未知分类","address":"上海中山公园龙之梦2楼2035"},{"poiid":"B2094757D16CA5FA4499","title":"♥けぁいうえ鮭鮭魚滴书房(*¯︶¯*)♥","lon":"121.66479998","lat":"31.205534239","category":"249","category_name":"购物服务","address":null},{"poiid":"B2094757D16AA4FF469E","title":"♥えういぁけ鮭鮭魚魔兽ing♥","lon":"121.664799985","lat":"31.2055342397","category":"500","category_name":"未知分类","address":"上海♥えういぁけ鮭鮭魚书房笔记本电脑前♥"},{"poiid":"B2094654DB64A6FF4799","title":"中国移动唐镇营业厅","lon":"121.65652","lat":"31.20698","category":"151","category_name":"电讯营业厅","address":"浦东新区唐兴路488-494号1层"},{"poiid":"B2094757D66FA6FD409A","title":"张江一路终点站","lon":"121.667221","lat":"31.205349","category":"500","category_name":"未知分类","address":"上海浦东新区南曹路"},{"poiid":"B2094757D164A7F5479E","title":"复旦大学光华楼西主楼10楼","lon":"121.66602168","lat":"31.209501926","category":"500","category_name":"未知分类","address":"上海邯郸路220号复旦大学光华楼"},{"poiid":"B2094757D16FA1FB479A","title":"王港中学","lon":"121.65526","lat":"31.20775","category":"55","category_name":"中学","address":"上海浦东新区唐镇王港龙东大道5237号  "},{"poiid":"B2094757D66EA4F4409D","title":"唐镇幼儿园","lon":"121.65379797","lat":"31.206488505","category":"57","category_name":"幼儿园","address":"浦东新区唐安路东首(唐安路唐镇路)"},{"poiid":"B2094752DA6EABFB469E","title":"浦东国际机场T2","lon":"121.670372","lat":"31.174076","category":"500","category_name":"未知分类","address":"上海市 浦东国际机场"},{"poiid":"B2094757D169A4F84393","title":"浦南金爵幼儿园","lon":"121.649669975","lat":"31.203733441","category":"253","category_name":"校园生活","address":"上海唐安路创新路口"},{"poiid":"B2094757D66DA3FD409B","title":"唐镇镇市政府","lon":"121.65564608","lat":"31.207468582","category":"500","category_name":"未知分类","address":"上海市浦东新区唐陆路3312号"},{"poiid":"B2094753D46CA1F5429C","title":"创新佳苑","lon":"121.668563","lat":"31.207235","category":"500","category_name":"未知分类","address":"上海市 浦东新区创新中路380弄"},{"poiid":"B2094757D568A7F5489A","title":"川奇汽车快修","lon":"121.68331136","lat":"31.18884033","category":"159","category_name":"汽车维修","address":"中国上海市浦东新区城丰路"},{"poiid":"B2094654DA6AAAFD479F","title":"上海浦东新区唐安敬老院","lon":"121.65975","lat":"31.20567","category":"615","category_name":"敬老院","address":""},{"poiid":"B2094757D169A6FD409B","title":"阳光宠物","lon":"121.682842185","lat":"31.1938163522","category":"249","category_name":"购物服务","address":"浦东新区川沙镇青厦路215号对面(近华夏二路)"},{"poiid":"B2094752D469AAF54292","title":"维也纳国际酒店（上海浦东机场迪士尼店）","lon":"121.680661","lat":"31.197595","category":"251","category_name":"出行住宿","address":"浦东新区川沙华夏东路1478号"},{"poiid":"B2094757D66CA6FA4199","title":"★鮭鮭魚尐厷紸房间の飘窗★","lon":"121.664580685","lat":"31.2054752384","category":"260","category_name":"其他","address":"上海*^_^*粉粉尐厷紸*^_^*"},{"poiid":"B2094654DA6AA4FC4698","title":"上海市浦东新区唐镇文化中心站","lon":"121.65608","lat":"31.20733","category":"248","category_name":"生活娱乐","address":"唐镇新街3号"},{"poiid":"B2094654DA6AAAF54999","title":"唐镇阳光驿站","lon":"121.65629","lat":"31.20752","category":"248","category_name":"生活娱乐","address":"唐兴路495临"}]