[{"poiid":"B2094655D36CA1FC4093","title":"沈杜公路召稼楼","lon":"121.54435","lat":"31.07292","category":"38","category_name":"公交车站","address":""},{"poiid":"B2094757D06AA2FF439C","title":"召稼樓古镇老八样酒楼","lon":"121.54887155","lat":"31.078935015","category":"500","category_name":"未知分类","address":"上海召稼楼古镇兴东街15號"},{"poiid":"B2094757D064A2FE479D","title":"青桔一碗面","lon":"121.5511","lat":"31.07493","category":"87","category_name":"特色／地方风味餐厅","address":"闵行区浦江镇召稼楼古镇保南街63号(近宁俭桥)"},{"poiid":"B2094757D069ABF5419C","title":"海鲨生态农庄","lon":"121.548961","lat":"31.072856413","category":"247","category_name":"餐饮美食","address":"上海市闵行区沈杜公路128号"},{"poiid":"B2094757D169A5FA479B","title":"召稼楼田园坊","lon":"121.5526","lat":"31.071131375","category":"247","category_name":"餐饮美食","address":"上海市闵行区沈杜路"},{"poiid":"B2094757D16DA4F84899","title":"老八样酒店","lon":"121.549669009","lat":"31.0743454458","category":"76","category_name":"上海菜","address":"上海近郊南汇惠南镇拱极路86号(近听潮路)  "},{"poiid":"B2094757D064A3FB469F","title":"沈家花园(沈杜公路店)","lon":"121.54903944","lat":"31.087028055","category":"47","category_name":"住宅区","address":"闵行区浦江镇沈杜公路(近苏召路)"},{"poiid":"B2094757D065A0FE4999","title":"召稼楼乐添兴汤包","lon":"121.54277564","lat":"31.074583784","category":"247","category_name":"餐饮美食","address":"上海召稼楼"},{"poiid":"B2094750DB68AAFB4498","title":"方圆生态园","lon":"121.565559","lat":"31.079477","category":"250","category_name":"公园户外","address":"闵行区浦江镇沈杜公路(近林海公路)"},{"poiid":"B2094655D36CA6FD4898","title":"革新村","lon":"121.56","lat":"31.07912","category":"38","category_name":"公交车站","address":""},{"poiid":"B2094654DB6FA0F94393","title":"三得利啤酒(上海)有限公司","lon":"121.55637","lat":"31.0763","category":"263","category_name":"公司","address":""},{"poiid":"B2094751D36EAAFC489F","title":"召楼古镇","lon":"121.5505","lat":"31.07521","category":"76","category_name":"上海菜","address":"闵行区召楼路(近杜行公路)"},{"poiid":"B2094757D165A0FA4492","title":"田园英式红茶坊","lon":"121.55054","lat":"31.07502","category":"66","category_name":"茶艺馆","address":"闵行区召稼楼文化区域纯佑街20-26号"},{"poiid":"B2094757D164A1F5499E","title":"古韵轩茶楼","lon":"121.5509","lat":"31.07477","category":"66","category_name":"茶艺馆","address":"闵行区浦江镇召稼楼古镇仁善街11-13号"},{"poiid":"B2094750D56EA4F9439D","title":"召稼楼古镇人家","lon":"121.549324","lat":"31.074501","category":"247","category_name":"餐饮美食","address":null},{"poiid":"B2094655D36CA1FC4092","title":"沈杜公路赵家宅","lon":"121.57083","lat":"31.08168","category":"38","category_name":"公交车站","address":""},{"poiid":"B2094750DA64ABFB419B","title":"召稼楼胡家羊肉","lon":"121.547889","lat":"31.074701","category":"68","category_name":"快餐厅","address":"闵行区沈社公路召稼楼美食一条街平西街16号"},{"poiid":"B2094654DB64ABFD489E","title":"梅林学校","lon":"121.56053","lat":"31.08726","category":"55","category_name":"中学","address":""},{"poiid":"B209475CD66DA1FF469C","title":"召稼楼","lon":"121.549118","lat":"31.074457","category":"500","category_name":"未知分类","address":"上海市 闵行区"},{"poiid":"B2094757D66EA5FF4098","title":"美味坊酒楼","lon":"121.547352109","lat":"31.0738994361","category":"247","category_name":"餐饮美食","address":"上海闵行区召稼楼古镇内"},{"poiid":"B2094757D16EA6F94698","title":"万达广场(周浦店)","lon":"121.565420246","lat":"31.0601465437","category":"500","category_name":"未知分类","address":"上海浦东新区年家浜路518号(近沪南公路)"},{"poiid":"B2094757D66CA6FA409E","title":"漕河泾浦江高科技园","lon":"121.56151724","lat":"31.085730153","category":"500","category_name":"未知分类","address":"上海市浦江镇"},{"poiid":"B2094757D16AA5F9499E","title":"沈庄公交站","lon":"121.56588264","lat":"31.064441546","category":"38","category_name":"公交车站","address":"上海浦东新区沪南公路(近沈杜公路)"},{"poiid":"B2094654DB6FA0FD439D","title":"召楼集贸市场","lon":"121.54748","lat":"31.07539","category":"123","category_name":"家具建材市场","address":"闵行区苏召路63号"},{"poiid":"B2094757D16DA0F9409D","title":"S32申嘉湖高速航头服务区","lon":"121.55104619","lat":"31.0630413471","category":"260","category_name":"其他","address":"上海浦东新区S32申嘉湖高速航头服务区"},{"poiid":"B2094757D06BA4FB4693","title":"巴顿火锅浦江店","lon":"121.57343324","lat":"31.073261856","category":"500","category_name":"未知分类","address":"上海浦锦路沃尔玛2楼"},{"poiid":"B2094654DB6FA0FD469B","title":"普静绿围","lon":"121.57324","lat":"31.07919","category":"248","category_name":"生活娱乐","address":"杜行镇"},{"poiid":"B2094750D664ABF54598","title":"大灶传承","lon":"121.571","lat":"31.0913","category":"76","category_name":"上海菜","address":"浦东新区周浦镇沈梅路99弄1号楼2-5楼(近沪南公路)"},{"poiid":"B2094655D264A5FC409F","title":"航头服务区","lon":"121.55101","lat":"31.0634","category":"250","category_name":"公园户外","address":""},{"poiid":"B2094655D36DA2FD409D","title":"钱岸二桥","lon":"121.57621","lat":"31.07147","category":"250","category_name":"公园户外","address":""},{"poiid":"B2094757D16AA7FA4193","title":"传奇火锅","lon":"121.558928246","lat":"31.0605655536","category":"247","category_name":"餐饮美食","address":"上海浦东御青路1039号"},{"poiid":"B2094757D66EA7FB4398","title":"万歌ktv","lon":"121.541549","lat":"31.078797542","category":"170","category_name":"KTV","address":"闵行区浦江镇康华路146号金硕广场2楼(近三鲁路)"},{"poiid":"B2094757D064ABF44399","title":"浦星公路","lon":"121.552639","lat":"31.089891784","category":"500","category_name":"未知分类","address":"上海浦星公路"},{"poiid":"B2094655D36DA2FD409B","title":"S32航头服务区","lon":"121.54963","lat":"31.06208","category":"250","category_name":"公园户外","address":""},{"poiid":"B2094751D46BA5FD4493","title":"博雅苑二期","lon":"121.5456379","lat":"31.0648359","category":"47","category_name":"住宅区","address":"上海市闵行区浦连路汇驰路"},{"poiid":"B2094655D36DA2FD4498","title":"永乐桥","lon":"121.56791","lat":"31.09051","category":"250","category_name":"公园户外","address":""},{"poiid":"B209475CD36EAAFC489D","title":"鹤丰庄园度假村","lon":"121.56404","lat":"31.05887","category":"87","category_name":"特色／地方风味餐厅","address":"南汇航头镇鹤立西路牌楼村13组490号(近三鲁公路)"},{"poiid":"B2094757D168A4F5429C","title":"包包家","lon":"121.545644209","lat":"31.0650720442","category":"500","category_name":"未知分类","address":null}]