[{"poiid":"B2094654DB68A2F4429A","title":"上海东湖临港大酒店","lon":"121.73597","lat":"30.96562","category":"260","category_name":"其他","address":"浦东新区大团镇南芦公路888号(南芦公路永春南路)"},{"poiid":"B2094757D16DA7FA459F","title":"浦东新区大团镇","lon":"121.739478128","lat":"30.9729776601","category":"500","category_name":"未知分类","address":"上海浦东新区大团镇"},{"poiid":"B2094757D069A7FB479C","title":"花王人家","lon":"121.734222","lat":"30.967409","category":"76","category_name":"上海菜","address":"浦东新区南芦公路夏家村858号"},{"poiid":"B2094654DB68A2F44699","title":"上海市大团高级中学","lon":"121.74992","lat":"30.96061","category":"55","category_name":"中学","address":"浦东新区南芦公路999号(近沪南公路)"},{"poiid":"B2094655D26BA1FE4898","title":"南团公路南芦公路","lon":"121.74602","lat":"30.963","category":"38","category_name":"公交车站","address":""},{"poiid":"B2094654DB64A0F54199","title":"快客(南团公路)","lon":"121.74629","lat":"30.96249","category":"117","category_name":"便民商店/便利店","address":""},{"poiid":"B2094757D165ABFB419B","title":"南芦公路永春南路站(龙港线,龙大线,南大线,南闵线,航泥线)","lon":"121.737630897","lat":"30.965863687","category":"38","category_name":"公交车站","address":"上海市浦东新区南芦公路永春南路"},{"poiid":"B2094654DB69A6F94098","title":"大团医院","lon":"121.7405","lat":"30.96738","category":"162","category_name":"医院","address":"南汇区大团镇永定南路169号"},{"poiid":"B2094655D36CA6F5499D","title":"大团镇","lon":"121.73864","lat":"30.97023","category":"38","category_name":"公交车站","address":"上海南芦公路"},{"poiid":"B2094757D66CA7FA439D","title":"建設銀行大團支行","lon":"121.74213612","lat":"30.96399722","category":"150","category_name":"银行","address":"上海浦東新區大團南灣新邨18號101室"},{"poiid":"B2094757DB6EABFC429F","title":"上海临港大酒店","lon":"121.736342","lat":"30.966098","category":"214","category_name":"四星级宾馆","address":"上海市浦东新区南汇大团镇南芦路888号(近S2新四平公路出口处)"},{"poiid":"B2094655D36CA6F5499E","title":"大团镇(永晖路)","lon":"121.73813","lat":"30.96731","category":"38","category_name":"公交车站","address":""},{"poiid":"B2094654DB68A2F4489B","title":"海港商务楼","lon":"121.73713","lat":"30.96637","category":"46","category_name":"楼宇","address":"南芦公路899号"},{"poiid":"B2094757D568AAF8479C","title":"永晖旅馆","lon":"121.74636068","lat":"30.96258599","category":"217","category_name":"旅馆招待所","address":"永飞2号"},{"poiid":"B2094655D36DA7FF419D","title":"镇南","lon":"121.73862","lat":"30.96671","category":"38","category_name":"公交车站","address":""},{"poiid":"B2094655D36CA3FB459F","title":"S2新四平公路收费站","lon":"121.72938","lat":"30.95937","category":"267","category_name":"收费站","address":"上海沪芦高速"},{"poiid":"B2094757D66DA3F44692","title":"上岛咖啡","lon":"121.744458628","lat":"30.9714956261","category":"65","category_name":"咖啡厅","address":"浦东新区大团镇永春东路36号"},{"poiid":"B2094654DB68A2FB4099","title":"大团镇初级中学","lon":"121.74075","lat":"30.9677","category":"55","category_name":"中学","address":"浦东新区大团镇永定南路304弄20号(永定北路永定南路)"},{"poiid":"B2094654DB64A0F54193","title":"大团镇社区卫生服务中心","lon":"121.74023","lat":"30.96775","category":"162","category_name":"医院","address":""},{"poiid":"B2094757D465A1F8479E","title":"团一舫","lon":"121.7449","lat":"30.97314","category":"76","category_name":"上海菜","address":"浦东新区南汇大团镇永春东路39号(近永春东路)"},{"poiid":"B2094757D165A2F8409C","title":"大团文化中心","lon":"121.751506628","lat":"30.960936384","category":"500","category_name":"未知分类","address":"上海大团文化中心"},{"poiid":"B2094757D16BA1FD439D","title":"东湖临港大酒店中餐厅","lon":"121.736921","lat":"30.965685","category":"217","category_name":"旅馆招待所","address":"上海南芦公路888号一楼"},{"poiid":"B2094757D064A6FA409F","title":"小大洋饭店","lon":"121.76134","lat":"30.95416","category":"76","category_name":"上海菜","address":"浦东新区南芦公路1100号(近沪南公路)"},{"poiid":"B2094654DB68A1FC439F","title":"南湾新村","lon":"121.73803","lat":"30.96934","category":"47","category_name":"住宅区","address":""},{"poiid":"B2094655D265A0F4429E","title":"克莉丝汀(大团店)","lon":"121.738","lat":"30.96935","category":"112","category_name":"糕饼店","address":"浦东新区南三支路南湾新村17号(近永春东路)"},{"poiid":"B2094655D26BA1FF4493","title":"南芦公路永春南路","lon":"121.73883","lat":"30.9692","category":"38","category_name":"公交车站","address":""},{"poiid":"B2094757D169A0F4499D","title":"大桥饭店","lon":"121.75358872","lat":"30.947935986","category":"247","category_name":"餐饮美食","address":"浦东新区南芦公路1166号(川南奉公路口)"},{"poiid":"B2094655D26BA1FE489B","title":"南团公路南大公路","lon":"121.74816","lat":"30.96871","category":"38","category_name":"公交车站","address":""},{"poiid":"B2094654DB68A2F44193","title":"上海神仙酒厂","lon":"121.73099","lat":"30.95362","category":"263","category_name":"公司","address":"近郊奉贤区新四平公路2888号"},{"poiid":"B2094757D164A6FA409B","title":"元圆酒家","lon":"121.75595","lat":"30.95756","category":"247","category_name":"餐饮美食","address":"上海近郊南汇区南芦公路1122号  "},{"poiid":"B2094655D36CA6F5499C","title":"大团镇(永春中路)","lon":"121.73855","lat":"30.97116","category":"38","category_name":"公交车站","address":""},{"poiid":"B2094655D268ABFF4193","title":"Ａ２新四平公路收费站","lon":"121.72945","lat":"30.95938","category":"267","category_name":"收费站","address":""},{"poiid":"B2094655D36CA4FE4099","title":"爱家新城","lon":"121.75229","lat":"30.97403","category":"47","category_name":"住宅区","address":"永旺路258弄1～16号"},{"poiid":"B2094655D36DA3F4419A","title":"十村桥","lon":"121.75232","lat":"30.94849","category":"250","category_name":"公园户外","address":""},{"poiid":"B2094655D264A5FF429E","title":"五谷农家菜","lon":"121.74839","lat":"30.97059","category":"257","category_name":"中餐厅","address":"永晖路59号"},{"poiid":"B2094757D465ABFB499C","title":"小正兴酒楼","lon":"121.7602511","lat":"30.9549717","category":"76","category_name":"上海菜","address":"浦东新区南芦公路1128号"},{"poiid":"B2094654DB64A0F5429D","title":"中国建设银行上海大团支行","lon":"121.73817","lat":"30.96976","category":"150","category_name":"银行","address":"浦东新区大团镇南湾新村18号101室(永春南路永宁东路)"},{"poiid":"B2094654DB64ABFA409D","title":"元圆酒楼","lon":"121.75977","lat":"30.95514","category":"70","category_name":"综合酒楼","address":"南芦公路1122号"},{"poiid":"B2094654DB69A0F4439E","title":"大团镇小学","lon":"121.74079","lat":"30.97261","category":"56","category_name":"小学","address":"浦东新区大团镇永春东路70号(永春东路永定北路)"},{"poiid":"B2094654DB68A2FB469A","title":"奉贤区景秀高级中学","lon":"121.72647","lat":"30.95024","category":"55","category_name":"中学","address":""},{"poiid":"B2094654DB65A6FC409D","title":"百味林(大团镇二店)","lon":"121.739585","lat":"30.972633","category":"648","category_name":"零食","address":"浦东新区大团镇永春东路83号"},{"poiid":"B2094654DB68A2F44599","title":"大团派出所","lon":"121.74798","lat":"30.97076","category":"609","category_name":"警察局","address":"南汇区大团镇永春路8号"},{"poiid":"B2094654DB68A2F4449B","title":"军民新村","lon":"121.74622","lat":"30.972281","category":"47","category_name":"住宅区","address":"新场镇军民新村"},{"poiid":"B2094654DB68A2F4479C","title":"小辣椒火锅城","lon":"121.73903","lat":"30.97294","category":"86","category_name":"火锅店","address":""},{"poiid":"B2094750D26CA2FD419C","title":"奉城医院","lon":"121.735759","lat":"30.972803","category":"162","category_name":"医院","address":null},{"poiid":"B2094654DB68A2FB4098","title":"新华书店(永春中路)","lon":"121.73888","lat":"30.97303","category":"125","category_name":"书店","address":"永春路138号"},{"poiid":"B2094757D66CA1F8459D","title":"南俊大酒店四团店","lon":"121.729425263","lat":"30.9444067958","category":"500","category_name":"未知分类","address":"上海新四平公路"},{"poiid":"B2094654DB68A1FD4293","title":"南汇大桥酒家","lon":"121.76126","lat":"30.95517","category":"70","category_name":"综合酒楼","address":""},{"poiid":"B2094655D26EABF54692","title":"大团笙安幼儿园","lon":"121.75096","lat":"30.97228","category":"57","category_name":"幼儿园","address":""},{"poiid":"B2094654DB64AAFD459F","title":"芦洋花园","lon":"121.7356","lat":"30.973581","category":"47","category_name":"住宅区","address":"永春西一路169弄"},{"poiid":"B2094654DB68A2F4429A","title":"上海东湖临港大酒店","lon":"121.73597","lat":"30.96562","category":"260","category_name":"其他","address":"浦东新区大团镇南芦公路888号(南芦公路永春南路)"},{"poiid":"B2094757D16DA7FA459F","title":"浦东新区大团镇","lon":"121.739478128","lat":"30.9729776601","category":"500","category_name":"未知分类","address":"上海浦东新区大团镇"},{"poiid":"B2094757D069A7FB479C","title":"花王人家","lon":"121.734222","lat":"30.967409","category":"76","category_name":"上海菜","address":"浦东新区南芦公路夏家村858号"},{"poiid":"B2094654DB68A2F44699","title":"上海市大团高级中学","lon":"121.74992","lat":"30.96061","category":"55","category_name":"中学","address":"浦东新区南芦公路999号(近沪南公路)"},{"poiid":"B2094655D26BA1FE4898","title":"南团公路南芦公路","lon":"121.74602","lat":"30.963","category":"38","category_name":"公交车站","address":""},{"poiid":"B2094654DB64A0F54199","title":"快客(南团公路)","lon":"121.74629","lat":"30.96249","category":"117","category_name":"便民商店/便利店","address":""},{"poiid":"B2094757D165ABFB419B","title":"南芦公路永春南路站(龙港线,龙大线,南大线,南闵线,航泥线)","lon":"121.737630897","lat":"30.965863687","category":"38","category_name":"公交车站","address":"上海市浦东新区南芦公路永春南路"},{"poiid":"B2094654DB69A6F94098","title":"大团医院","lon":"121.7405","lat":"30.96738","category":"162","category_name":"医院","address":"南汇区大团镇永定南路169号"},{"poiid":"B2094655D36CA6F5499D","title":"大团镇","lon":"121.73864","lat":"30.97023","category":"38","category_name":"公交车站","address":"上海南芦公路"},{"poiid":"B2094757D66CA7FA439D","title":"建設銀行大團支行","lon":"121.74213612","lat":"30.96399722","category":"150","category_name":"银行","address":"上海浦東新區大團南灣新邨18號101室"},{"poiid":"B2094757DB6EABFC429F","title":"上海临港大酒店","lon":"121.736342","lat":"30.966098","category":"214","category_name":"四星级宾馆","address":"上海市浦东新区南汇大团镇南芦路888号(近S2新四平公路出口处)"},{"poiid":"B2094655D36CA6F5499E","title":"大团镇(永晖路)","lon":"121.73813","lat":"30.96731","category":"38","category_name":"公交车站","address":""},{"poiid":"B2094654DB68A2F4489B","title":"海港商务楼","lon":"121.73713","lat":"30.96637","category":"46","category_name":"楼宇","address":"南芦公路899号"},{"poiid":"B2094757D568AAF8479C","title":"永晖旅馆","lon":"121.74636068","lat":"30.96258599","category":"217","category_name":"旅馆招待所","address":"永飞2号"},{"poiid":"B2094655D36DA7FF419D","title":"镇南","lon":"121.73862","lat":"30.96671","category":"38","category_name":"公交车站","address":""},{"poiid":"B2094655D36CA3FB459F","title":"S2新四平公路收费站","lon":"121.72938","lat":"30.95937","category":"267","category_name":"收费站","address":"上海沪芦高速"},{"poiid":"B2094757D66DA3F44692","title":"上岛咖啡","lon":"121.744458628","lat":"30.9714956261","category":"65","category_name":"咖啡厅","address":"浦东新区大团镇永春东路36号"},{"poiid":"B2094654DB68A2FB4099","title":"大团镇初级中学","lon":"121.74075","lat":"30.9677","category":"55","category_name":"中学","address":"浦东新区大团镇永定南路304弄20号(永定北路永定南路)"},{"poiid":"B2094654DB64A0F54193","title":"大团镇社区卫生服务中心","lon":"121.74023","lat":"30.96775","category":"162","category_name":"医院","address":""},{"poiid":"B2094757D465A1F8479E","title":"团一舫","lon":"121.7449","lat":"30.97314","category":"76","category_name":"上海菜","address":"浦东新区南汇大团镇永春东路39号(近永春东路)"},{"poiid":"B2094757D165A2F8409C","title":"大团文化中心","lon":"121.751506628","lat":"30.960936384","category":"500","category_name":"未知分类","address":"上海大团文化中心"},{"poiid":"B2094757D16BA1FD439D","title":"东湖临港大酒店中餐厅","lon":"121.736921","lat":"30.965685","category":"217","category_name":"旅馆招待所","address":"上海南芦公路888号一楼"},{"poiid":"B2094757D064A6FA409F","title":"小大洋饭店","lon":"121.76134","lat":"30.95416","category":"76","category_name":"上海菜","address":"浦东新区南芦公路1100号(近沪南公路)"},{"poiid":"B2094654DB68A1FC439F","title":"南湾新村","lon":"121.73803","lat":"30.96934","category":"47","category_name":"住宅区","address":""},{"poiid":"B2094655D265A0F4429E","title":"克莉丝汀(大团店)","lon":"121.738","lat":"30.96935","category":"112","category_name":"糕饼店","address":"浦东新区南三支路南湾新村17号(近永春东路)"},{"poiid":"B2094655D26BA1FF4493","title":"南芦公路永春南路","lon":"121.73883","lat":"30.9692","category":"38","category_name":"公交车站","address":""},{"poiid":"B2094757D169A0F4499D","title":"大桥饭店","lon":"121.75358872","lat":"30.947935986","category":"247","category_name":"餐饮美食","address":"浦东新区南芦公路1166号(川南奉公路口)"},{"poiid":"B2094655D26BA1FE489B","title":"南团公路南大公路","lon":"121.74816","lat":"30.96871","category":"38","category_name":"公交车站","address":""},{"poiid":"B2094654DB68A2F44193","title":"上海神仙酒厂","lon":"121.73099","lat":"30.95362","category":"263","category_name":"公司","address":"近郊奉贤区新四平公路2888号"},{"poiid":"B2094757D164A6FA409B","title":"元圆酒家","lon":"121.75595","lat":"30.95756","category":"247","category_name":"餐饮美食","address":"上海近郊南汇区南芦公路1122号  "},{"poiid":"B2094655D36CA6F5499C","title":"大团镇(永春中路)","lon":"121.73855","lat":"30.97116","category":"38","category_name":"公交车站","address":""},{"poiid":"B2094655D268ABFF4193","title":"Ａ２新四平公路收费站","lon":"121.72945","lat":"30.95938","category":"267","category_name":"收费站","address":""},{"poiid":"B2094655D36CA4FE4099","title":"爱家新城","lon":"121.75229","lat":"30.97403","category":"47","category_name":"住宅区","address":"永旺路258弄1～16号"},{"poiid":"B2094655D36DA3F4419A","title":"十村桥","lon":"121.75232","lat":"30.94849","category":"250","category_name":"公园户外","address":""},{"poiid":"B2094655D264A5FF429E","title":"五谷农家菜","lon":"121.74839","lat":"30.97059","category":"257","category_name":"中餐厅","address":"永晖路59号"},{"poiid":"B2094757D465ABFB499C","title":"小正兴酒楼","lon":"121.7602511","lat":"30.9549717","category":"76","category_name":"上海菜","address":"浦东新区南芦公路1128号"},{"poiid":"B2094654DB64A0F5429D","title":"中国建设银行上海大团支行","lon":"121.73817","lat":"30.96976","category":"150","category_name":"银行","address":"浦东新区大团镇南湾新村18号101室(永春南路永宁东路)"},{"poiid":"B2094654DB64ABFA409D","title":"元圆酒楼","lon":"121.75977","lat":"30.95514","category":"70","category_name":"综合酒楼","address":"南芦公路1122号"},{"poiid":"B2094654DB69A0F4439E","title":"大团镇小学","lon":"121.74079","lat":"30.97261","category":"56","category_name":"小学","address":"浦东新区大团镇永春东路70号(永春东路永定北路)"},{"poiid":"B2094654DB68A2FB469A","title":"奉贤区景秀高级中学","lon":"121.72647","lat":"30.95024","category":"55","category_name":"中学","address":""},{"poiid":"B2094654DB65A6FC409D","title":"百味林(大团镇二店)","lon":"121.739585","lat":"30.972633","category":"648","category_name":"零食","address":"浦东新区大团镇永春东路83号"},{"poiid":"B2094654DB68A2F44599","title":"大团派出所","lon":"121.74798","lat":"30.97076","category":"609","category_name":"警察局","address":"南汇区大团镇永春路8号"},{"poiid":"B2094654DB68A2F4449B","title":"军民新村","lon":"121.74622","lat":"30.972281","category":"47","category_name":"住宅区","address":"新场镇军民新村"},{"poiid":"B2094654DB68A2F4479C","title":"小辣椒火锅城","lon":"121.73903","lat":"30.97294","category":"86","category_name":"火锅店","address":""},{"poiid":"B2094750D26CA2FD419C","title":"奉城医院","lon":"121.735759","lat":"30.972803","category":"162","category_name":"医院","address":null},{"poiid":"B2094654DB68A2FB4098","title":"新华书店(永春中路)","lon":"121.73888","lat":"30.97303","category":"125","category_name":"书店","address":"永春路138号"},{"poiid":"B2094757D66CA1F8459D","title":"南俊大酒店四团店","lon":"121.729425263","lat":"30.9444067958","category":"500","category_name":"未知分类","address":"上海新四平公路"},{"poiid":"B2094654DB68A1FD4293","title":"南汇大桥酒家","lon":"121.76126","lat":"30.95517","category":"70","category_name":"综合酒楼","address":""},{"poiid":"B2094655D26EABF54692","title":"大团笙安幼儿园","lon":"121.75096","lat":"30.97228","category":"57","category_name":"幼儿园","address":""},{"poiid":"B2094654DB64AAFD459F","title":"芦洋花园","lon":"121.7356","lat":"30.973581","category":"47","category_name":"住宅区","address":"永春西一路169弄"}]