[{"poiid":"B2094654D56BA3FC4492","title":"百联中环购物广场","lon":"121.39","lat":"31.2514","category":"119","category_name":"商场","address":"普陀区真光路1288号百联购物广场内(近梅川路)"},{"poiid":"B2094757D06EAAF44593","title":"17.5中环放电影院","lon":"121.38516473","lat":"31.245884844","category":"178","category_name":"电影院","address":"上海普陀区真光路1288号百联购物广场C区4楼(近梅川路)"},{"poiid":"B2094750D268A6F4439D","title":"西贝西北菜 百联中环店","lon":"121.385221","lat":"31.246424","category":"84","category_name":"西北菜","address":"普陀区真光路1288号百联中环购物广场C区2楼(近梅川路)"},{"poiid":"B2094757D06FA0F94793","title":"麦德龙中国总部","lon":"121.38516837","lat":"31.244178483","category":"46","category_name":"楼宇","address":"上海真北路1425号"},{"poiid":"B2094757D06EABF54898","title":"武宁路大渡河路","lon":"121.396488","lat":"31.246277","category":"38","category_name":"公交车站","address":"上海武宁路大渡河路"},{"poiid":"B2094654D56BA3FD439F","title":"中环放电影院","lon":"121.38492","lat":"31.24666","category":"178","category_name":"电影院","address":"曹安路169"},{"poiid":"B2094757D068A4FF449D","title":"明港海鲜大酒楼","lon":"121.38734","lat":"31.24213","category":"76","category_name":"上海菜","address":"普陀区梅川路1275号3楼(近真光路)"},{"poiid":"B2094757D16EA7FB479A","title":"波黎露(百联中环店)","lon":"121.390805586","lat":"31.2436804942","category":"94","category_name":"西餐厅","address":"普陀区真光路1288号百联中环B区3楼(近梅川路)"},{"poiid":"B2094654D56BA4FD479F","title":"海上名庭","lon":"121.39221","lat":"31.243805","category":"47","category_name":"住宅区","address":"梅岭北路1258弄1-99号"},{"poiid":"B2094757D568A7FF439D","title":"中环生活广场","lon":"121.386085","lat":"31.244754","category":"46","category_name":"楼宇","address":"中国上海市普陀区真北路立交桥"},{"poiid":"B2094757D068AAFE4899","title":"上海市普陀区人民法院","lon":"121.392296","lat":"31.251391","category":"608","category_name":"法院","address":"上海市普陀区铜川路1472号"},{"poiid":"B2094757D068A1FF4192","title":"普陀区税务局","lon":"121.394380281","lat":"31.2493238773","category":"252","category_name":"楼宇机构","address":"上海普陀区北石路579号"},{"poiid":"B2094654D465A6FD4193","title":"海棠苑","lon":"121.39087","lat":"31.24982","category":"47","category_name":"住宅区","address":"棕榈路300弄1-75"},{"poiid":"B2094757D068ABF44493","title":"梅陇中学","lon":"121.388899461","lat":"31.2427585512","category":"55","category_name":"中学","address":"上海丹巴路梅岭北路"},{"poiid":"B2094757D165A6FA4293","title":"长风公园海底世界","lon":"121.39705058","lat":"31.245754734","category":"196","category_name":"公园","address":"上海市普陀区北石路"},{"poiid":"B2094655D26BA2FC439C","title":"武宁路真北路","lon":"121.39005","lat":"31.24633","category":"38","category_name":"公交车站","address":"上海市武宁路真北路"},{"poiid":"B2094654D56BA4FD409B","title":"创邑金沙谷","lon":"121.39","lat":"31.2414","category":"46","category_name":"楼宇","address":"行宫位于沈河北站一路41号"},{"poiid":"B2094757D16AA1FF409F","title":"红星世贸大厦","lon":"121.39256181928","lat":"31.243826936363","category":"252","category_name":"楼宇机构","address":"上海怒江北路598号"},{"poiid":"B2094751D56AA1FD449D","title":"谈阿姨炸猪排","lon":"121.3921658502795","lat":"31.24863703506036","category":"247","category_name":"餐饮美食","address":"铜川路万镇路"},{"poiid":"B2094654D56BA4FD4598","title":"上海市普陀区疾病预防控制中心","lon":"121.39037","lat":"31.24439","category":"162","category_name":"医院","address":"丹巴路1628号"},{"poiid":"B2094757D06FA7F4419E","title":"山间堂民间瓦缸煨汤(百联中环店)","lon":"121.38832517","lat":"31.243628422","category":"260","category_name":"其他","address":"上海普陀区真光路1288号百联中环购物广场A区4F"},{"poiid":"B2094654DB6AABFF4398","title":"锦江之星(真北店)","lon":"121.39112","lat":"31.25214","category":"216","category_name":"经济型连锁酒店","address":"普陀区真北路2051号(近铜川路)"},{"poiid":"B2094654D465A6FC4499","title":"樱花苑","lon":"121.39289","lat":"31.24876","category":"47","category_name":"住宅区","address":"静安区陕西南路(复兴中路陕西南路)"},{"poiid":"B2094654DB6BA7FE4493","title":"海堂苑(武宁路南门)","lon":"121.39063","lat":"31.24685","category":"47","category_name":"住宅区","address":"真北路1902弄"},{"poiid":"B2094654DB6BA7FE4692","title":"梅四小区(北门)","lon":"121.39034","lat":"31.24607","category":"47","category_name":"住宅区","address":"武宁路2525弄1-90号"},{"poiid":"B2094757D069A3F9449F","title":"金玉苑","lon":"121.390902","lat":"31.240216","category":"47","category_name":"住宅区","address":"上海市普陀区梅川路999弄"},{"poiid":"B2094757DB6DA5FC479B","title":"上海映像戴斯大酒店\\t","lon":"121.391724","lat":"31.251577","category":"214","category_name":"四星级宾馆","address":"上海市普陀区真北路2022号(近铜川路)。"},{"poiid":"B2094757D06BA3FF499E","title":"新普陀小学","lon":"121.3903","lat":"31.23977","category":"500","category_name":"未知分类","address":"普陀区梅川路999弄43号(近真北路)"},{"poiid":"B2094757D06FA7FF4292","title":"曹安路农贸市场","lon":"121.39717","lat":"31.24498","category":"500","category_name":"未知分类","address":"普陀区武宁路2255号(大渡河路武宁路)"},{"poiid":"B2094757D06AA2FC449E","title":"金盟豪海鲜大酒楼","lon":"121.39387","lat":"31.24203","category":"75","category_name":"浙江菜","address":"普陀区中江路1277号(近梅川路)"},{"poiid":"B2094751D464A6FE449A","title":"上山下乡知青火锅","lon":"121.39691","lat":"31.24574","category":"86","category_name":"火锅店","address":"普陀区兰溪路201号第一酒市6楼(近武宁路)"},{"poiid":"B2094655D268ABFF4099","title":"真北路立交桥环岛","lon":"121.3887","lat":"31.24687","category":"250","category_name":"公园户外","address":""},{"poiid":"B2094757D069A5FF449E","title":"宁馨家园","lon":"121.39222","lat":"31.247187","category":"47","category_name":"住宅区","address":"上海市浦东新区花木路1883弄"},{"poiid":"B2094757D16AA1FE449B","title":"大渡河路","lon":"121.39415058","lat":"31.245613732","category":"500","category_name":"未知分类","address":"上海市普陀区大渡河路1550弄90支弄"},{"poiid":"B2094654D56BA3FC449D","title":"巴贝拉(中环放电影院东)","lon":"121.38527","lat":"31.24669","category":"98","category_name":"意式菜品餐厅","address":"真光路1288号百联中环购物广场1楼"},{"poiid":"B2094654D56BA4FC499A","title":"梅川公园","lon":"121.39271","lat":"31.24489","category":"196","category_name":"公园","address":"普陀区武宁路2361号(沪宁高速公路武宁路)"},{"poiid":"B2094757D069A4FA449F","title":"海棠公园","lon":"121.39043","lat":"31.24713","category":"196","category_name":"公园","address":"普陀区武宁路2650号"},{"poiid":"B2094654D56BA4FD4492","title":"梅六小区","lon":"121.388","lat":"31.241823","category":"47","category_name":"住宅区","address":"梅川路916弄1-83号"},{"poiid":"B2094655D26FA5FC429E","title":"真西新村第二小区","lon":"121.39331","lat":"31.246763","category":"47","category_name":"住宅区","address":"普陀区北石路1550弄160支弄真西新村9号居委会(近苏武牧)"},{"poiid":"B2094757D169A2F9439C","title":"梅川路真北路","lon":"121.386533586","lat":"31.2435486916","category":"500","category_name":"未知分类","address":"上海梅川路真北路"},{"poiid":"B2094654D465A6FC499B","title":"铜川学校","lon":"121.39197","lat":"31.25077","category":"56","category_name":"小学","address":"普陀区北石路610弄28号(近铜川路)"},{"poiid":"B2094757D16DA7FA489F","title":"圆百爱(中环百联店)","lon":"121.38752","lat":"31.24702","category":"113","category_name":"冷饮店","address":"普陀区真光路1288号百联购物广场1楼(近梅川路)"},{"poiid":"B2094757D068A6F44799","title":"67路中山公园终点站","lon":"121.3880183","lat":"31.245654598","category":"38","category_name":"公交车站","address":"上海中山公园龙之梦67路终点站"},{"poiid":"B2094757D065AAFC4592","title":"普陀分局长征派出所","lon":"121.392971","lat":"31.24282","category":"609","category_name":"警察局","address":"上海梅岭北路1238号"},{"poiid":"B2094757D06AA3FD439C","title":"新驰苑","lon":"121.39180058","lat":"31.246892757","category":"500","category_name":"未知分类","address":"上海北石路440弄24-25号"},{"poiid":"B2094751D56DA2F84198","title":"红宝石(大渡河路店)","lon":"121.3971","lat":"31.24719","category":"67","category_name":"甜品店","address":"普陀区大渡河路1550弄(近武宁路)"},{"poiid":"B2094757D06BA6FE499F","title":"只有时间是解药","lon":"121.39368958","lat":"31.245563731","category":"245","category_name":"教堂","address":"上海梅岭北路中江路"},{"poiid":"B2094757D064A6FF4899","title":"华东师大图书馆五楼","lon":"121.388624186","lat":"31.2465785509","category":"181","category_name":"图书馆","address":"上海心旷神怡"},{"poiid":"B2094654D56BA4FC499B","title":"星梅花苑","lon":"121.38805","lat":"31.243599","category":"47","category_name":"住宅区","address":"上海市静安区万航渡路458弄"},{"poiid":"B2094655D26CABFA479A","title":"梅川新村二街坊(北门)","lon":"121.39231","lat":"31.24264","category":"47","category_name":"住宅区","address":"梅岭北路1251弄"},{"poiid":"B2094654D56BA3FC4492","title":"百联中环购物广场","lon":"121.39","lat":"31.2514","category":"119","category_name":"商场","address":"普陀区真光路1288号百联购物广场内(近梅川路)"},{"poiid":"B2094757D06EAAF44593","title":"17.5中环放电影院","lon":"121.38516473","lat":"31.245884844","category":"178","category_name":"电影院","address":"上海普陀区真光路1288号百联购物广场C区4楼(近梅川路)"},{"poiid":"B2094750D268A6F4439D","title":"西贝西北菜 百联中环店","lon":"121.385221","lat":"31.246424","category":"84","category_name":"西北菜","address":"普陀区真光路1288号百联中环购物广场C区2楼(近梅川路)"},{"poiid":"B2094757D06FA0F94793","title":"麦德龙中国总部","lon":"121.38516837","lat":"31.244178483","category":"46","category_name":"楼宇","address":"上海真北路1425号"},{"poiid":"B2094757D06EABF54898","title":"武宁路大渡河路","lon":"121.396488","lat":"31.246277","category":"38","category_name":"公交车站","address":"上海武宁路大渡河路"},{"poiid":"B2094654D56BA3FD439F","title":"中环放电影院","lon":"121.38492","lat":"31.24666","category":"178","category_name":"电影院","address":"曹安路169"},{"poiid":"B2094757D068A4FF449D","title":"明港海鲜大酒楼","lon":"121.38734","lat":"31.24213","category":"76","category_name":"上海菜","address":"普陀区梅川路1275号3楼(近真光路)"},{"poiid":"B2094757D16EA7FB479A","title":"波黎露(百联中环店)","lon":"121.390805586","lat":"31.2436804942","category":"94","category_name":"西餐厅","address":"普陀区真光路1288号百联中环B区3楼(近梅川路)"},{"poiid":"B2094654D56BA4FD479F","title":"海上名庭","lon":"121.39221","lat":"31.243805","category":"47","category_name":"住宅区","address":"梅岭北路1258弄1-99号"},{"poiid":"B2094757D568A7FF439D","title":"中环生活广场","lon":"121.386085","lat":"31.244754","category":"46","category_name":"楼宇","address":"中国上海市普陀区真北路立交桥"},{"poiid":"B2094757D068AAFE4899","title":"上海市普陀区人民法院","lon":"121.392296","lat":"31.251391","category":"608","category_name":"法院","address":"上海市普陀区铜川路1472号"},{"poiid":"B2094757D068A1FF4192","title":"普陀区税务局","lon":"121.394380281","lat":"31.2493238773","category":"252","category_name":"楼宇机构","address":"上海普陀区北石路579号"},{"poiid":"B2094654D465A6FD4193","title":"海棠苑","lon":"121.39087","lat":"31.24982","category":"47","category_name":"住宅区","address":"棕榈路300弄1-75"},{"poiid":"B2094757D068ABF44493","title":"梅陇中学","lon":"121.388899461","lat":"31.2427585512","category":"55","category_name":"中学","address":"上海丹巴路梅岭北路"},{"poiid":"B2094757D165A6FA4293","title":"长风公园海底世界","lon":"121.39705058","lat":"31.245754734","category":"196","category_name":"公园","address":"上海市普陀区北石路"},{"poiid":"B2094655D26BA2FC439C","title":"武宁路真北路","lon":"121.39005","lat":"31.24633","category":"38","category_name":"公交车站","address":"上海市武宁路真北路"},{"poiid":"B2094654D56BA4FD409B","title":"创邑金沙谷","lon":"121.39","lat":"31.2414","category":"46","category_name":"楼宇","address":"行宫位于沈河北站一路41号"},{"poiid":"B2094757D16AA1FF409F","title":"红星世贸大厦","lon":"121.39256181928","lat":"31.243826936363","category":"252","category_name":"楼宇机构","address":"上海怒江北路598号"},{"poiid":"B2094751D56AA1FD449D","title":"谈阿姨炸猪排","lon":"121.3921658502795","lat":"31.24863703506036","category":"247","category_name":"餐饮美食","address":"铜川路万镇路"},{"poiid":"B2094654D56BA4FD4598","title":"上海市普陀区疾病预防控制中心","lon":"121.39037","lat":"31.24439","category":"162","category_name":"医院","address":"丹巴路1628号"},{"poiid":"B2094757D06FA7F4419E","title":"山间堂民间瓦缸煨汤(百联中环店)","lon":"121.38832517","lat":"31.243628422","category":"260","category_name":"其他","address":"上海普陀区真光路1288号百联中环购物广场A区4F"},{"poiid":"B2094654DB6AABFF4398","title":"锦江之星(真北店)","lon":"121.39112","lat":"31.25214","category":"216","category_name":"经济型连锁酒店","address":"普陀区真北路2051号(近铜川路)"},{"poiid":"B2094654D465A6FC4499","title":"樱花苑","lon":"121.39289","lat":"31.24876","category":"47","category_name":"住宅区","address":"静安区陕西南路(复兴中路陕西南路)"},{"poiid":"B2094654DB6BA7FE4493","title":"海堂苑(武宁路南门)","lon":"121.39063","lat":"31.24685","category":"47","category_name":"住宅区","address":"真北路1902弄"},{"poiid":"B2094654DB6BA7FE4692","title":"梅四小区(北门)","lon":"121.39034","lat":"31.24607","category":"47","category_name":"住宅区","address":"武宁路2525弄1-90号"},{"poiid":"B2094757D069A3F9449F","title":"金玉苑","lon":"121.390902","lat":"31.240216","category":"47","category_name":"住宅区","address":"上海市普陀区梅川路999弄"},{"poiid":"B2094757DB6DA5FC479B","title":"上海映像戴斯大酒店\\t","lon":"121.391724","lat":"31.251577","category":"214","category_name":"四星级宾馆","address":"上海市普陀区真北路2022号(近铜川路)。"},{"poiid":"B2094757D06BA3FF499E","title":"新普陀小学","lon":"121.3903","lat":"31.23977","category":"500","category_name":"未知分类","address":"普陀区梅川路999弄43号(近真北路)"},{"poiid":"B2094757D06FA7FF4292","title":"曹安路农贸市场","lon":"121.39717","lat":"31.24498","category":"500","category_name":"未知分类","address":"普陀区武宁路2255号(大渡河路武宁路)"},{"poiid":"B2094757D06AA2FC449E","title":"金盟豪海鲜大酒楼","lon":"121.39387","lat":"31.24203","category":"75","category_name":"浙江菜","address":"普陀区中江路1277号(近梅川路)"},{"poiid":"B2094751D464A6FE449A","title":"上山下乡知青火锅","lon":"121.39691","lat":"31.24574","category":"86","category_name":"火锅店","address":"普陀区兰溪路201号第一酒市6楼(近武宁路)"},{"poiid":"B2094655D268ABFF4099","title":"真北路立交桥环岛","lon":"121.3887","lat":"31.24687","category":"250","category_name":"公园户外","address":""},{"poiid":"B2094757D069A5FF449E","title":"宁馨家园","lon":"121.39222","lat":"31.247187","category":"47","category_name":"住宅区","address":"上海市浦东新区花木路1883弄"},{"poiid":"B2094757D16AA1FE449B","title":"大渡河路","lon":"121.39415058","lat":"31.245613732","category":"500","category_name":"未知分类","address":"上海市普陀区大渡河路1550弄90支弄"},{"poiid":"B2094654D56BA3FC449D","title":"巴贝拉(中环放电影院东)","lon":"121.38527","lat":"31.24669","category":"98","category_name":"意式菜品餐厅","address":"真光路1288号百联中环购物广场1楼"},{"poiid":"B2094654D56BA4FC499A","title":"梅川公园","lon":"121.39271","lat":"31.24489","category":"196","category_name":"公园","address":"普陀区武宁路2361号(沪宁高速公路武宁路)"},{"poiid":"B2094757D069A4FA449F","title":"海棠公园","lon":"121.39043","lat":"31.24713","category":"196","category_name":"公园","address":"普陀区武宁路2650号"},{"poiid":"B2094654D56BA4FD4492","title":"梅六小区","lon":"121.388","lat":"31.241823","category":"47","category_name":"住宅区","address":"梅川路916弄1-83号"},{"poiid":"B2094655D26FA5FC429E","title":"真西新村第二小区","lon":"121.39331","lat":"31.246763","category":"47","category_name":"住宅区","address":"普陀区北石路1550弄160支弄真西新村9号居委会(近苏武牧)"},{"poiid":"B2094757D169A2F9439C","title":"梅川路真北路","lon":"121.386533586","lat":"31.2435486916","category":"500","category_name":"未知分类","address":"上海梅川路真北路"},{"poiid":"B2094654D465A6FC499B","title":"铜川学校","lon":"121.39197","lat":"31.25077","category":"56","category_name":"小学","address":"普陀区北石路610弄28号(近铜川路)"},{"poiid":"B2094757D16DA7FA489F","title":"圆百爱(中环百联店)","lon":"121.38752","lat":"31.24702","category":"113","category_name":"冷饮店","address":"普陀区真光路1288号百联购物广场1楼(近梅川路)"},{"poiid":"B2094757D068A6F44799","title":"67路中山公园终点站","lon":"121.3880183","lat":"31.245654598","category":"38","category_name":"公交车站","address":"上海中山公园龙之梦67路终点站"},{"poiid":"B2094757D065AAFC4592","title":"普陀分局长征派出所","lon":"121.392971","lat":"31.24282","category":"609","category_name":"警察局","address":"上海梅岭北路1238号"},{"poiid":"B2094757D06AA3FD439C","title":"新驰苑","lon":"121.39180058","lat":"31.246892757","category":"500","category_name":"未知分类","address":"上海北石路440弄24-25号"},{"poiid":"B2094751D56DA2F84198","title":"红宝石(大渡河路店)","lon":"121.3971","lat":"31.24719","category":"67","category_name":"甜品店","address":"普陀区大渡河路1550弄(近武宁路)"},{"poiid":"B2094757D06BA6FE499F","title":"只有时间是解药","lon":"121.39368958","lat":"31.245563731","category":"245","category_name":"教堂","address":"上海梅岭北路中江路"},{"poiid":"B2094757D064A6FF4899","title":"华东师大图书馆五楼","lon":"121.388624186","lat":"31.2465785509","category":"181","category_name":"图书馆","address":"上海心旷神怡"},{"poiid":"B2094654D56BA4FC499B","title":"星梅花苑","lon":"121.38805","lat":"31.243599","category":"47","category_name":"住宅区","address":"上海市静安区万航渡路458弄"},{"poiid":"B2094655D26CABFA479A","title":"梅川新村二街坊(北门)","lon":"121.39231","lat":"31.24264","category":"47","category_name":"住宅区","address":"梅岭北路1251弄"},{"poiid":"B2094654D56BA3FC4492","title":"百联中环购物广场","lon":"121.39","lat":"31.2514","category":"119","category_name":"商场","address":"普陀区真光路1288号百联购物广场内(近梅川路)"},{"poiid":"B2094757D06EAAF44593","title":"17.5中环放电影院","lon":"121.38516473","lat":"31.245884844","category":"178","category_name":"电影院","address":"上海普陀区真光路1288号百联购物广场C区4楼(近梅川路)"},{"poiid":"B2094750D268A6F4439D","title":"西贝西北菜 百联中环店","lon":"121.385221","lat":"31.246424","category":"84","category_name":"西北菜","address":"普陀区真光路1288号百联中环购物广场C区2楼(近梅川路)"},{"poiid":"B2094757D06FA0F94793","title":"麦德龙中国总部","lon":"121.38516837","lat":"31.244178483","category":"46","category_name":"楼宇","address":"上海真北路1425号"},{"poiid":"B2094757D06EABF54898","title":"武宁路大渡河路","lon":"121.396488","lat":"31.246277","category":"38","category_name":"公交车站","address":"上海武宁路大渡河路"},{"poiid":"B2094654D56BA3FD439F","title":"中环放电影院","lon":"121.38492","lat":"31.24666","category":"178","category_name":"电影院","address":"曹安路169"},{"poiid":"B2094757D068A4FF449D","title":"明港海鲜大酒楼","lon":"121.38734","lat":"31.24213","category":"76","category_name":"上海菜","address":"普陀区梅川路1275号3楼(近真光路)"},{"poiid":"B2094757D16EA7FB479A","title":"波黎露(百联中环店)","lon":"121.390805586","lat":"31.2436804942","category":"94","category_name":"西餐厅","address":"普陀区真光路1288号百联中环B区3楼(近梅川路)"},{"poiid":"B2094654D56BA4FD479F","title":"海上名庭","lon":"121.39221","lat":"31.243805","category":"47","category_name":"住宅区","address":"梅岭北路1258弄1-99号"},{"poiid":"B2094757D568A7FF439D","title":"中环生活广场","lon":"121.386085","lat":"31.244754","category":"46","category_name":"楼宇","address":"中国上海市普陀区真北路立交桥"},{"poiid":"B2094757D068AAFE4899","title":"上海市普陀区人民法院","lon":"121.392296","lat":"31.251391","category":"608","category_name":"法院","address":"上海市普陀区铜川路1472号"},{"poiid":"B2094757D068A1FF4192","title":"普陀区税务局","lon":"121.394380281","lat":"31.2493238773","category":"252","category_name":"楼宇机构","address":"上海普陀区北石路579号"},{"poiid":"B2094654D465A6FD4193","title":"海棠苑","lon":"121.39087","lat":"31.24982","category":"47","category_name":"住宅区","address":"棕榈路300弄1-75"},{"poiid":"B2094757D068ABF44493","title":"梅陇中学","lon":"121.388899461","lat":"31.2427585512","category":"55","category_name":"中学","address":"上海丹巴路梅岭北路"},{"poiid":"B2094757D165A6FA4293","title":"长风公园海底世界","lon":"121.39705058","lat":"31.245754734","category":"196","category_name":"公园","address":"上海市普陀区北石路"},{"poiid":"B2094655D26BA2FC439C","title":"武宁路真北路","lon":"121.39005","lat":"31.24633","category":"38","category_name":"公交车站","address":"上海市武宁路真北路"},{"poiid":"B2094654D56BA4FD409B","title":"创邑金沙谷","lon":"121.39","lat":"31.2414","category":"46","category_name":"楼宇","address":"行宫位于沈河北站一路41号"},{"poiid":"B2094757D16AA1FF409F","title":"红星世贸大厦","lon":"121.39256181928","lat":"31.243826936363","category":"252","category_name":"楼宇机构","address":"上海怒江北路598号"},{"poiid":"B2094751D56AA1FD449D","title":"谈阿姨炸猪排","lon":"121.3921658502795","lat":"31.24863703506036","category":"247","category_name":"餐饮美食","address":"铜川路万镇路"},{"poiid":"B2094654D56BA4FD4598","title":"上海市普陀区疾病预防控制中心","lon":"121.39037","lat":"31.24439","category":"162","category_name":"医院","address":"丹巴路1628号"},{"poiid":"B2094757D06FA7F4419E","title":"山间堂民间瓦缸煨汤(百联中环店)","lon":"121.38832517","lat":"31.243628422","category":"260","category_name":"其他","address":"上海普陀区真光路1288号百联中环购物广场A区4F"},{"poiid":"B2094654DB6AABFF4398","title":"锦江之星(真北店)","lon":"121.39112","lat":"31.25214","category":"216","category_name":"经济型连锁酒店","address":"普陀区真北路2051号(近铜川路)"},{"poiid":"B2094654D465A6FC4499","title":"樱花苑","lon":"121.39289","lat":"31.24876","category":"47","category_name":"住宅区","address":"静安区陕西南路(复兴中路陕西南路)"},{"poiid":"B2094654DB6BA7FE4493","title":"海堂苑(武宁路南门)","lon":"121.39063","lat":"31.24685","category":"47","category_name":"住宅区","address":"真北路1902弄"},{"poiid":"B2094654DB6BA7FE4692","title":"梅四小区(北门)","lon":"121.39034","lat":"31.24607","category":"47","category_name":"住宅区","address":"武宁路2525弄1-90号"},{"poiid":"B2094757D069A3F9449F","title":"金玉苑","lon":"121.390902","lat":"31.240216","category":"47","category_name":"住宅区","address":"上海市普陀区梅川路999弄"},{"poiid":"B2094757DB6DA5FC479B","title":"上海映像戴斯大酒店\\t","lon":"121.391724","lat":"31.251577","category":"214","category_name":"四星级宾馆","address":"上海市普陀区真北路2022号(近铜川路)。"},{"poiid":"B2094757D06BA3FF499E","title":"新普陀小学","lon":"121.3903","lat":"31.23977","category":"500","category_name":"未知分类","address":"普陀区梅川路999弄43号(近真北路)"},{"poiid":"B2094757D06FA7FF4292","title":"曹安路农贸市场","lon":"121.39717","lat":"31.24498","category":"500","category_name":"未知分类","address":"普陀区武宁路2255号(大渡河路武宁路)"},{"poiid":"B2094757D06AA2FC449E","title":"金盟豪海鲜大酒楼","lon":"121.39387","lat":"31.24203","category":"75","category_name":"浙江菜","address":"普陀区中江路1277号(近梅川路)"},{"poiid":"B2094751D464A6FE449A","title":"上山下乡知青火锅","lon":"121.39691","lat":"31.24574","category":"86","category_name":"火锅店","address":"普陀区兰溪路201号第一酒市6楼(近武宁路)"},{"poiid":"B2094655D268ABFF4099","title":"真北路立交桥环岛","lon":"121.3887","lat":"31.24687","category":"250","category_name":"公园户外","address":""},{"poiid":"B2094757D069A5FF449E","title":"宁馨家园","lon":"121.39222","lat":"31.247187","category":"47","category_name":"住宅区","address":"上海市浦东新区花木路1883弄"},{"poiid":"B2094757D16AA1FE449B","title":"大渡河路","lon":"121.39415058","lat":"31.245613732","category":"500","category_name":"未知分类","address":"上海市普陀区大渡河路1550弄90支弄"},{"poiid":"B2094654D56BA3FC449D","title":"巴贝拉(中环放电影院东)","lon":"121.38527","lat":"31.24669","category":"98","category_name":"意式菜品餐厅","address":"真光路1288号百联中环购物广场1楼"},{"poiid":"B2094654D56BA4FC499A","title":"梅川公园","lon":"121.39271","lat":"31.24489","category":"196","category_name":"公园","address":"普陀区武宁路2361号(沪宁高速公路武宁路)"},{"poiid":"B2094757D069A4FA449F","title":"海棠公园","lon":"121.39043","lat":"31.24713","category":"196","category_name":"公园","address":"普陀区武宁路2650号"},{"poiid":"B2094654D56BA4FD4492","title":"梅六小区","lon":"121.388","lat":"31.241823","category":"47","category_name":"住宅区","address":"梅川路916弄1-83号"},{"poiid":"B2094655D26FA5FC429E","title":"真西新村第二小区","lon":"121.39331","lat":"31.246763","category":"47","category_name":"住宅区","address":"普陀区北石路1550弄160支弄真西新村9号居委会(近苏武牧)"},{"poiid":"B2094757D169A2F9439C","title":"梅川路真北路","lon":"121.386533586","lat":"31.2435486916","category":"500","category_name":"未知分类","address":"上海梅川路真北路"},{"poiid":"B2094654D465A6FC499B","title":"铜川学校","lon":"121.39197","lat":"31.25077","category":"56","category_name":"小学","address":"普陀区北石路610弄28号(近铜川路)"},{"poiid":"B2094757D16DA7FA489F","title":"圆百爱(中环百联店)","lon":"121.38752","lat":"31.24702","category":"113","category_name":"冷饮店","address":"普陀区真光路1288号百联购物广场1楼(近梅川路)"},{"poiid":"B2094757D068A6F44799","title":"67路中山公园终点站","lon":"121.3880183","lat":"31.245654598","category":"38","category_name":"公交车站","address":"上海中山公园龙之梦67路终点站"},{"poiid":"B2094757D065AAFC4592","title":"普陀分局长征派出所","lon":"121.392971","lat":"31.24282","category":"609","category_name":"警察局","address":"上海梅岭北路1238号"},{"poiid":"B2094757D06AA3FD439C","title":"新驰苑","lon":"121.39180058","lat":"31.246892757","category":"500","category_name":"未知分类","address":"上海北石路440弄24-25号"},{"poiid":"B2094751D56DA2F84198","title":"红宝石(大渡河路店)","lon":"121.3971","lat":"31.24719","category":"67","category_name":"甜品店","address":"普陀区大渡河路1550弄(近武宁路)"},{"poiid":"B2094757D06BA6FE499F","title":"只有时间是解药","lon":"121.39368958","lat":"31.245563731","category":"245","category_name":"教堂","address":"上海梅岭北路中江路"},{"poiid":"B2094757D064A6FF4899","title":"华东师大图书馆五楼","lon":"121.388624186","lat":"31.2465785509","category":"181","category_name":"图书馆","address":"上海心旷神怡"},{"poiid":"B2094654D56BA4FC499B","title":"星梅花苑","lon":"121.38805","lat":"31.243599","category":"47","category_name":"住宅区","address":"上海市静安区万航渡路458弄"},{"poiid":"B2094655D26CABFA479A","title":"梅川新村二街坊(北门)","lon":"121.39231","lat":"31.24264","category":"47","category_name":"住宅区","address":"梅岭北路1251弄"},{"poiid":"B2094654D56BA3FC4492","title":"百联中环购物广场","lon":"121.39","lat":"31.2514","category":"119","category_name":"商场","address":"普陀区真光路1288号百联购物广场内(近梅川路)"},{"poiid":"B2094757D06EAAF44593","title":"17.5中环放电影院","lon":"121.38516473","lat":"31.245884844","category":"178","category_name":"电影院","address":"上海普陀区真光路1288号百联购物广场C区4楼(近梅川路)"},{"poiid":"B2094750D268A6F4439D","title":"西贝西北菜 百联中环店","lon":"121.385221","lat":"31.246424","category":"84","category_name":"西北菜","address":"普陀区真光路1288号百联中环购物广场C区2楼(近梅川路)"},{"poiid":"B2094757D06FA0F94793","title":"麦德龙中国总部","lon":"121.38516837","lat":"31.244178483","category":"46","category_name":"楼宇","address":"上海真北路1425号"},{"poiid":"B2094757D06EABF54898","title":"武宁路大渡河路","lon":"121.396488","lat":"31.246277","category":"38","category_name":"公交车站","address":"上海武宁路大渡河路"},{"poiid":"B2094654D56BA3FD439F","title":"中环放电影院","lon":"121.38492","lat":"31.24666","category":"178","category_name":"电影院","address":"曹安路169"},{"poiid":"B2094757D068A4FF449D","title":"明港海鲜大酒楼","lon":"121.38734","lat":"31.24213","category":"76","category_name":"上海菜","address":"普陀区梅川路1275号3楼(近真光路)"},{"poiid":"B2094757D16EA7FB479A","title":"波黎露(百联中环店)","lon":"121.390805586","lat":"31.2436804942","category":"94","category_name":"西餐厅","address":"普陀区真光路1288号百联中环B区3楼(近梅川路)"},{"poiid":"B2094654D56BA4FD479F","title":"海上名庭","lon":"121.39221","lat":"31.243805","category":"47","category_name":"住宅区","address":"梅岭北路1258弄1-99号"},{"poiid":"B2094757D568A7FF439D","title":"中环生活广场","lon":"121.386085","lat":"31.244754","category":"46","category_name":"楼宇","address":"中国上海市普陀区真北路立交桥"},{"poiid":"B2094757D068AAFE4899","title":"上海市普陀区人民法院","lon":"121.392296","lat":"31.251391","category":"608","category_name":"法院","address":"上海市普陀区铜川路1472号"},{"poiid":"B2094757D068A1FF4192","title":"普陀区税务局","lon":"121.394380281","lat":"31.2493238773","category":"252","category_name":"楼宇机构","address":"上海普陀区北石路579号"},{"poiid":"B2094654D465A6FD4193","title":"海棠苑","lon":"121.39087","lat":"31.24982","category":"47","category_name":"住宅区","address":"棕榈路300弄1-75"},{"poiid":"B2094757D068ABF44493","title":"梅陇中学","lon":"121.388899461","lat":"31.2427585512","category":"55","category_name":"中学","address":"上海丹巴路梅岭北路"},{"poiid":"B2094757D165A6FA4293","title":"长风公园海底世界","lon":"121.39705058","lat":"31.245754734","category":"196","category_name":"公园","address":"上海市普陀区北石路"},{"poiid":"B2094655D26BA2FC439C","title":"武宁路真北路","lon":"121.39005","lat":"31.24633","category":"38","category_name":"公交车站","address":"上海市武宁路真北路"},{"poiid":"B2094654D56BA4FD409B","title":"创邑金沙谷","lon":"121.39","lat":"31.2414","category":"46","category_name":"楼宇","address":"行宫位于沈河北站一路41号"},{"poiid":"B2094757D16AA1FF409F","title":"红星世贸大厦","lon":"121.39256181928","lat":"31.243826936363","category":"252","category_name":"楼宇机构","address":"上海怒江北路598号"},{"poiid":"B2094751D56AA1FD449D","title":"谈阿姨炸猪排","lon":"121.3921658502795","lat":"31.24863703506036","category":"247","category_name":"餐饮美食","address":"铜川路万镇路"},{"poiid":"B2094654D56BA4FD4598","title":"上海市普陀区疾病预防控制中心","lon":"121.39037","lat":"31.24439","category":"162","category_name":"医院","address":"丹巴路1628号"},{"poiid":"B2094757D06FA7F4419E","title":"山间堂民间瓦缸煨汤(百联中环店)","lon":"121.38832517","lat":"31.243628422","category":"260","category_name":"其他","address":"上海普陀区真光路1288号百联中环购物广场A区4F"},{"poiid":"B2094654DB6AABFF4398","title":"锦江之星(真北店)","lon":"121.39112","lat":"31.25214","category":"216","category_name":"经济型连锁酒店","address":"普陀区真北路2051号(近铜川路)"},{"poiid":"B2094654D465A6FC4499","title":"樱花苑","lon":"121.39289","lat":"31.24876","category":"47","category_name":"住宅区","address":"静安区陕西南路(复兴中路陕西南路)"},{"poiid":"B2094654DB6BA7FE4493","title":"海堂苑(武宁路南门)","lon":"121.39063","lat":"31.24685","category":"47","category_name":"住宅区","address":"真北路1902弄"},{"poiid":"B2094654DB6BA7FE4692","title":"梅四小区(北门)","lon":"121.39034","lat":"31.24607","category":"47","category_name":"住宅区","address":"武宁路2525弄1-90号"},{"poiid":"B2094757D069A3F9449F","title":"金玉苑","lon":"121.390902","lat":"31.240216","category":"47","category_name":"住宅区","address":"上海市普陀区梅川路999弄"},{"poiid":"B2094757DB6DA5FC479B","title":"上海映像戴斯大酒店\\t","lon":"121.391724","lat":"31.251577","category":"214","category_name":"四星级宾馆","address":"上海市普陀区真北路2022号(近铜川路)。"},{"poiid":"B2094757D06BA3FF499E","title":"新普陀小学","lon":"121.3903","lat":"31.23977","category":"500","category_name":"未知分类","address":"普陀区梅川路999弄43号(近真北路)"},{"poiid":"B2094757D06FA7FF4292","title":"曹安路农贸市场","lon":"121.39717","lat":"31.24498","category":"500","category_name":"未知分类","address":"普陀区武宁路2255号(大渡河路武宁路)"},{"poiid":"B2094757D06AA2FC449E","title":"金盟豪海鲜大酒楼","lon":"121.39387","lat":"31.24203","category":"75","category_name":"浙江菜","address":"普陀区中江路1277号(近梅川路)"},{"poiid":"B2094751D464A6FE449A","title":"上山下乡知青火锅","lon":"121.39691","lat":"31.24574","category":"86","category_name":"火锅店","address":"普陀区兰溪路201号第一酒市6楼(近武宁路)"},{"poiid":"B2094655D268ABFF4099","title":"真北路立交桥环岛","lon":"121.3887","lat":"31.24687","category":"250","category_name":"公园户外","address":""},{"poiid":"B2094757D069A5FF449E","title":"宁馨家园","lon":"121.39222","lat":"31.247187","category":"47","category_name":"住宅区","address":"上海市浦东新区花木路1883弄"},{"poiid":"B2094757D16AA1FE449B","title":"大渡河路","lon":"121.39415058","lat":"31.245613732","category":"500","category_name":"未知分类","address":"上海市普陀区大渡河路1550弄90支弄"},{"poiid":"B2094654D56BA3FC449D","title":"巴贝拉(中环放电影院东)","lon":"121.38527","lat":"31.24669","category":"98","category_name":"意式菜品餐厅","address":"真光路1288号百联中环购物广场1楼"},{"poiid":"B2094654D56BA4FC499A","title":"梅川公园","lon":"121.39271","lat":"31.24489","category":"196","category_name":"公园","address":"普陀区武宁路2361号(沪宁高速公路武宁路)"},{"poiid":"B2094757D069A4FA449F","title":"海棠公园","lon":"121.39043","lat":"31.24713","category":"196","category_name":"公园","address":"普陀区武宁路2650号"},{"poiid":"B2094654D56BA4FD4492","title":"梅六小区","lon":"121.388","lat":"31.241823","category":"47","category_name":"住宅区","address":"梅川路916弄1-83号"},{"poiid":"B2094655D26FA5FC429E","title":"真西新村第二小区","lon":"121.39331","lat":"31.246763","category":"47","category_name":"住宅区","address":"普陀区北石路1550弄160支弄真西新村9号居委会(近苏武牧)"},{"poiid":"B2094757D169A2F9439C","title":"梅川路真北路","lon":"121.386533586","lat":"31.2435486916","category":"500","category_name":"未知分类","address":"上海梅川路真北路"},{"poiid":"B2094654D465A6FC499B","title":"铜川学校","lon":"121.39197","lat":"31.25077","category":"56","category_name":"小学","address":"普陀区北石路610弄28号(近铜川路)"},{"poiid":"B2094757D16DA7FA489F","title":"圆百爱(中环百联店)","lon":"121.38752","lat":"31.24702","category":"113","category_name":"冷饮店","address":"普陀区真光路1288号百联购物广场1楼(近梅川路)"},{"poiid":"B2094757D068A6F44799","title":"67路中山公园终点站","lon":"121.3880183","lat":"31.245654598","category":"38","category_name":"公交车站","address":"上海中山公园龙之梦67路终点站"},{"poiid":"B2094757D065AAFC4592","title":"普陀分局长征派出所","lon":"121.392971","lat":"31.24282","category":"609","category_name":"警察局","address":"上海梅岭北路1238号"},{"poiid":"B2094757D06AA3FD439C","title":"新驰苑","lon":"121.39180058","lat":"31.246892757","category":"500","category_name":"未知分类","address":"上海北石路440弄24-25号"},{"poiid":"B2094751D56DA2F84198","title":"红宝石(大渡河路店)","lon":"121.3971","lat":"31.24719","category":"67","category_name":"甜品店","address":"普陀区大渡河路1550弄(近武宁路)"},{"poiid":"B2094757D06BA6FE499F","title":"只有时间是解药","lon":"121.39368958","lat":"31.245563731","category":"245","category_name":"教堂","address":"上海梅岭北路中江路"},{"poiid":"B2094757D064A6FF4899","title":"华东师大图书馆五楼","lon":"121.388624186","lat":"31.2465785509","category":"181","category_name":"图书馆","address":"上海心旷神怡"},{"poiid":"B2094654D56BA4FC499B","title":"星梅花苑","lon":"121.38805","lat":"31.243599","category":"47","category_name":"住宅区","address":"上海市静安区万航渡路458弄"},{"poiid":"B2094655D26CABFA479A","title":"梅川新村二街坊(北门)","lon":"121.39231","lat":"31.24264","category":"47","category_name":"住宅区","address":"梅岭北路1251弄"}]