[{"poiid":"B2094757D06EAAFF499A","title":"汶水路地铁站","lon":"121.450118","lat":"31.293038","category":"36","category_name":"地铁站","address":"上海轨道交通 一号线 轨交汶水路站 1"},{"poiid":"B2094757D068A6FE489A","title":"东方环球企业中心","lon":"121.451","lat":"31.2949","category":"46","category_name":"楼宇","address":"闸北区永和路118弄"},{"poiid":"B2094757D06FAAF5459A","title":"祥腾财富广场","lon":"121.45338429981","lat":"31.299858297168","category":"250","category_name":"公园户外","address":"上海市闸北区共和新路3088号"},{"poiid":"B2094757D069A7FC479A","title":"共和新路高架","lon":"121.450425","lat":"31.292605","category":"500","category_name":"未知分类","address":"上海共和新路高架"},{"poiid":"B2094757D06FA6F5459D","title":"明园森林都市","lon":"121.46","lat":"31.2946","category":"47","category_name":"住宅区","address":"浦东区花木路1983弄"},{"poiid":"B2094750D16BA6F9439F","title":"鲜芋仙","lon":"121.449943","lat":"31.30298","category":"247","category_name":"餐饮美食","address":"闸北区共和新路1998号大宁国际商业广场10座2楼201号商铺(近大宁路)"},{"poiid":"B2094757D06FAAFB459E","title":"鼎中鼎澳门豆捞(共和新路店)","lon":"121.44859","lat":"31.29727","category":"86","category_name":"火锅店","address":"闸北区共和新路3318号大润发超市2楼(近江场西路)"},{"poiid":"B2094757D06FA6FC4293","title":"城大建材中心","lon":"121.45017684","lat":"31.297758425","category":"123","category_name":"家具建材市场","address":"闸北区共和新路3301号(近江场西路)"},{"poiid":"B2094757D068ABF4499A","title":"风华初级中学","lon":"121.46188008","lat":"31.293839901","category":"55","category_name":"中学","address":"闸北区永和东路393号"},{"poiid":"B2094757D069ABFF4898","title":"协通福特4s店","lon":"121.449394395","lat":"31.2950059539","category":"500","category_name":"未知分类","address":"上海共和新路"},{"poiid":"B2094654D56CA5F84798","title":"快客No.6799","lon":"121.45643","lat":"31.29904","category":"117","category_name":"便民商店/便利店","address":"江场路1301"},{"poiid":"B2094753DA6FABF44292","title":"上海大宁剧场","lon":"121.457008","lat":"31.298803","category":"500","category_name":"未知分类","address":"上海市 平型关路1222号"},{"poiid":"B2094654D464A3FA449D","title":"上海协通百联别克","lon":"121.44893","lat":"31.29561","category":"158","category_name":"汽车销售","address":"详细地址，共和新路3200号"},{"poiid":"B2094654D56CA5F9449E","title":"文苑小区(南门)","lon":"121.46587","lat":"31.29736","category":"656","category_name":"大门","address":"车站北路732弄17-89号"},{"poiid":"B2094654D56CA5F44892","title":"彭浦大厦","lon":"121.457","lat":"31.301","category":"46","category_name":"楼宇","address":"共和新路3201弄"},{"poiid":"B2094654D56CA4FD4692","title":"捷通驾驶员培训部","lon":"121.45888","lat":"31.29906","category":"192","category_name":"驾校","address":"江场路1240号"},{"poiid":"B2094757D064A3FB4793","title":"东联奥迪","lon":"121.45386395","lat":"31.305465737","category":"263","category_name":"公司","address":"上海市闸北区场中路"},{"poiid":"B2094757D068A0FC429A","title":"永鼎大厦","lon":"121.45444","lat":"31.304861","category":"46","category_name":"楼宇","address":"徐汇区田林路300号"},{"poiid":"B2094654D56CA5F84599","title":"北郊站","lon":"121.45604","lat":"31.30207","category":"22","category_name":"火车站","address":"闸北区寿阳路1500"},{"poiid":"B2094757D06BA4F54992","title":"ME shop","lon":"121.460112103","lat":"31.2965039675","category":"500","category_name":"未知分类","address":"上海市闸北区平型关路汶水路口"},{"poiid":"B2094654D56CA4FD4698","title":"上海市果品有限公司北郊冷库","lon":"121.45584","lat":"31.29831","category":"263","category_name":"公司","address":"江场路1400号"},{"poiid":"B2094751D56FA0FD449A","title":"上海外国语大学附属外国语学校（临时校区）","lon":"121.45532633333","lat":"31.296555","category":"253","category_name":"校园生活","address":"上海市虹口区车站北路730号"},{"poiid":"B2094654D56CA5F84598","title":"上海铁路分局北郊站装卸委外宿舍楼","lon":"121.45579","lat":"31.30016","category":"47","category_name":"住宅区","address":""},{"poiid":"B2094655D36DA7F4489C","title":"汶水路寿阳路","lon":"121.4581","lat":"31.29453","category":"38","category_name":"公交车站","address":""},{"poiid":"B2094757D06AA7F44792","title":"迅达中国电梯有限公司","lon":"121.456124","lat":"31.293794","category":"263","category_name":"公司","address":"上海汶水路40号"},{"poiid":"B2094654D56CA5F9459A","title":"文华苑(车站北路)","lon":"121.46509","lat":"31.29703","category":"47","category_name":"住宅区","address":"车站北路727弄1-31号"},{"poiid":"B2094654D56CA5FA4399","title":"海虹欣苑","lon":"121.46313","lat":"31.29796","category":"47","category_name":"住宅区","address":"江场路1067,1099弄"},{"poiid":"B2094757D06BA7FB429A","title":"申崇三线汶水路到堡镇","lon":"121.450134","lat":"31.293095","category":"38","category_name":"公交车站","address":"上海汶水路车站"},{"poiid":"B2094757D06FABFE439E","title":"百安居(闸北店)","lon":"121.44958","lat":"31.29525","category":"123","category_name":"家具建材市场","address":"闸北区共和新路3228号(近场中路)"},{"poiid":"B2094757D16EA6FA4192","title":"复旦大学光华楼东辅楼202","lon":"121.4549926","lat":"31.299636299","category":"500","category_name":"未知分类","address":"上海邯郸路220号"},{"poiid":"B2094654D56CA3FD4592","title":"迅达中国","lon":"121.4586","lat":"31.29346","category":"263","category_name":"公司","address":"汶水路40号"},{"poiid":"B2094654D56CA4FE419E","title":"快客联华便利连锁","lon":"121.45305","lat":"31.29875","category":"117","category_name":"便民商店/便利店","address":"江场路1395乙"},{"poiid":"B2094757D06AA7FD439B","title":"韩一拌饭馆","lon":"121.457784843","lat":"31.3021360567","category":"247","category_name":"餐饮美食","address":"上海杨浦区国济路30号(五角场百联又一城附近)"},{"poiid":"B2094655D26AA0FA4898","title":"地铁汶水路站","lon":"121.45013","lat":"31.29309","category":"36","category_name":"地铁站","address":""},{"poiid":"B2094655D26AA4F44098","title":"宾利上海维修中心","lon":"121.46354","lat":"31.29452","category":"247","category_name":"餐饮美食","address":"虹口区汶水东路957号(近广粤路)"},{"poiid":"B2094654D56CA5F44793","title":"上海电气汽车服务有限公司","lon":"121.45703","lat":"31.2946","category":"159","category_name":"汽车维修","address":"上海汶水路51号"},{"poiid":"B2094654DB6AAAFA479A","title":"海虹欣苑(南门)","lon":"121.46281","lat":"31.29682","category":"47","category_name":"住宅区","address":"江场路1067、1099弄"},{"poiid":"B2094757D165A6F44798","title":"海洋大厦对面公园","lon":"121.4579789","lat":"31.302479192","category":"196","category_name":"公园","address":"上海海洋大厦对面"},{"poiid":"B2094757D66DA6FC4399","title":"上海sct赛车队","lon":"121.4565171","lat":"31.29426192","category":"500","category_name":"未知分类","address":"上海市闸北区江场路"},{"poiid":"B2094757D06AA3F5459C","title":"SPR咖啡(共和新路点店)","lon":"121.4535455","lat":"31.302849198","category":"65","category_name":"咖啡厅","address":"闸北区共和新路3703号共和国际商务广场1楼(近彭浦新村地铁站)"},{"poiid":"B2094757D16BAAFD469B","title":"大润发肯德基kfc","lon":"121.45375035","lat":"31.293481408","category":"500","category_name":"未知分类","address":"上海共和新路"},{"poiid":"B2094654D56CA4FD4393","title":"上海天明货运服务有限公司","lon":"121.45387","lat":"31.29848","category":"248","category_name":"生活娱乐","address":"江场路1408号"},{"poiid":"B2094654D56CA4FD449A","title":"上海图书公司储运科","lon":"121.45386","lat":"31.29848","category":"248","category_name":"生活娱乐","address":"江场路1408号"},{"poiid":"B2094655D265A7F94199","title":"闸北青年创业园区","lon":"121.46063","lat":"31.2935","category":"45","category_name":"产业园区","address":""},{"poiid":"B2094654DB69A5F5419D","title":"大娘水饺 共和新路店","lon":"121.448917054","lat":"31.298265793","category":"68","category_name":"快餐厅","address":"闸北区共和新路3318号大润发2楼(近江场西路)"},{"poiid":"B2094655D26DAAFD4892","title":"上海市风华初级中学(南二门)","lon":"121.45835","lat":"31.29115","category":"678","category_name":"学校大门","address":"永和东路417"},{"poiid":"B2094655D265A3FB419F","title":"风行汽车东仪专营店","lon":"121.45724","lat":"31.29409","category":"158","category_name":"汽车销售","address":"汶水路50"},{"poiid":"B2094654D56CA3FD449D","title":"粤彭工业园","lon":"121.46067","lat":"31.29323","category":"45","category_name":"产业园区","address":"汶水支路5号"},{"poiid":"B2094655D26AA1F8489E","title":"众泰汽车销售有限公司","lon":"121.46354","lat":"31.29452","category":"247","category_name":"餐饮美食","address":"虹口区汶水东路957号(汶水东路粤秀路)"},{"poiid":"B2094655D26CA1FD4393","title":"上海东仪汽车贸易有限公司","lon":"121.45685","lat":"31.294","category":"158","category_name":"汽车销售","address":"汶水路40-7号"},{"poiid":"B2094757D06EAAFF499A","title":"汶水路地铁站","lon":"121.450118","lat":"31.293038","category":"36","category_name":"地铁站","address":"上海轨道交通 一号线 轨交汶水路站 1"},{"poiid":"B2094757D068A6FE489A","title":"东方环球企业中心","lon":"121.451","lat":"31.2949","category":"46","category_name":"楼宇","address":"闸北区永和路118弄"},{"poiid":"B2094757D06FAAF5459A","title":"祥腾财富广场","lon":"121.45338429981","lat":"31.299858297168","category":"250","category_name":"公园户外","address":"上海市闸北区共和新路3088号"},{"poiid":"B2094757D069A7FC479A","title":"共和新路高架","lon":"121.450425","lat":"31.292605","category":"500","category_name":"未知分类","address":"上海共和新路高架"},{"poiid":"B2094757D06FA6F5459D","title":"明园森林都市","lon":"121.46","lat":"31.2946","category":"47","category_name":"住宅区","address":"浦东区花木路1983弄"},{"poiid":"B2094750D16BA6F9439F","title":"鲜芋仙","lon":"121.449943","lat":"31.30298","category":"247","category_name":"餐饮美食","address":"闸北区共和新路1998号大宁国际商业广场10座2楼201号商铺(近大宁路)"},{"poiid":"B2094757D06FAAFB459E","title":"鼎中鼎澳门豆捞(共和新路店)","lon":"121.44859","lat":"31.29727","category":"86","category_name":"火锅店","address":"闸北区共和新路3318号大润发超市2楼(近江场西路)"},{"poiid":"B2094757D06FA6FC4293","title":"城大建材中心","lon":"121.45017684","lat":"31.297758425","category":"123","category_name":"家具建材市场","address":"闸北区共和新路3301号(近江场西路)"},{"poiid":"B2094757D068ABF4499A","title":"风华初级中学","lon":"121.46188008","lat":"31.293839901","category":"55","category_name":"中学","address":"闸北区永和东路393号"},{"poiid":"B2094757D069ABFF4898","title":"协通福特4s店","lon":"121.449394395","lat":"31.2950059539","category":"500","category_name":"未知分类","address":"上海共和新路"},{"poiid":"B2094654D56CA5F84798","title":"快客No.6799","lon":"121.45643","lat":"31.29904","category":"117","category_name":"便民商店/便利店","address":"江场路1301"},{"poiid":"B2094753DA6FABF44292","title":"上海大宁剧场","lon":"121.457008","lat":"31.298803","category":"500","category_name":"未知分类","address":"上海市 平型关路1222号"},{"poiid":"B2094654D464A3FA449D","title":"上海协通百联别克","lon":"121.44893","lat":"31.29561","category":"158","category_name":"汽车销售","address":"详细地址，共和新路3200号"},{"poiid":"B2094654D56CA5F9449E","title":"文苑小区(南门)","lon":"121.46587","lat":"31.29736","category":"656","category_name":"大门","address":"车站北路732弄17-89号"},{"poiid":"B2094654D56CA5F44892","title":"彭浦大厦","lon":"121.457","lat":"31.301","category":"46","category_name":"楼宇","address":"共和新路3201弄"},{"poiid":"B2094654D56CA4FD4692","title":"捷通驾驶员培训部","lon":"121.45888","lat":"31.29906","category":"192","category_name":"驾校","address":"江场路1240号"},{"poiid":"B2094757D064A3FB4793","title":"东联奥迪","lon":"121.45386395","lat":"31.305465737","category":"263","category_name":"公司","address":"上海市闸北区场中路"},{"poiid":"B2094757D068A0FC429A","title":"永鼎大厦","lon":"121.45444","lat":"31.304861","category":"46","category_name":"楼宇","address":"徐汇区田林路300号"},{"poiid":"B2094654D56CA5F84599","title":"北郊站","lon":"121.45604","lat":"31.30207","category":"22","category_name":"火车站","address":"闸北区寿阳路1500"},{"poiid":"B2094757D06BA4F54992","title":"ME shop","lon":"121.460112103","lat":"31.2965039675","category":"500","category_name":"未知分类","address":"上海市闸北区平型关路汶水路口"},{"poiid":"B2094654D56CA4FD4698","title":"上海市果品有限公司北郊冷库","lon":"121.45584","lat":"31.29831","category":"263","category_name":"公司","address":"江场路1400号"},{"poiid":"B2094751D56FA0FD449A","title":"上海外国语大学附属外国语学校（临时校区）","lon":"121.45532633333","lat":"31.296555","category":"253","category_name":"校园生活","address":"上海市虹口区车站北路730号"},{"poiid":"B2094654D56CA5F84598","title":"上海铁路分局北郊站装卸委外宿舍楼","lon":"121.45579","lat":"31.30016","category":"47","category_name":"住宅区","address":""},{"poiid":"B2094655D36DA7F4489C","title":"汶水路寿阳路","lon":"121.4581","lat":"31.29453","category":"38","category_name":"公交车站","address":""},{"poiid":"B2094757D06AA7F44792","title":"迅达中国电梯有限公司","lon":"121.456124","lat":"31.293794","category":"263","category_name":"公司","address":"上海汶水路40号"},{"poiid":"B2094654D56CA5F9459A","title":"文华苑(车站北路)","lon":"121.46509","lat":"31.29703","category":"47","category_name":"住宅区","address":"车站北路727弄1-31号"},{"poiid":"B2094654D56CA5FA4399","title":"海虹欣苑","lon":"121.46313","lat":"31.29796","category":"47","category_name":"住宅区","address":"江场路1067,1099弄"},{"poiid":"B2094757D06BA7FB429A","title":"申崇三线汶水路到堡镇","lon":"121.450134","lat":"31.293095","category":"38","category_name":"公交车站","address":"上海汶水路车站"},{"poiid":"B2094757D06FABFE439E","title":"百安居(闸北店)","lon":"121.44958","lat":"31.29525","category":"123","category_name":"家具建材市场","address":"闸北区共和新路3228号(近场中路)"},{"poiid":"B2094757D16EA6FA4192","title":"复旦大学光华楼东辅楼202","lon":"121.4549926","lat":"31.299636299","category":"500","category_name":"未知分类","address":"上海邯郸路220号"},{"poiid":"B2094654D56CA3FD4592","title":"迅达中国","lon":"121.4586","lat":"31.29346","category":"263","category_name":"公司","address":"汶水路40号"},{"poiid":"B2094654D56CA4FE419E","title":"快客联华便利连锁","lon":"121.45305","lat":"31.29875","category":"117","category_name":"便民商店/便利店","address":"江场路1395乙"},{"poiid":"B2094757D06AA7FD439B","title":"韩一拌饭馆","lon":"121.457784843","lat":"31.3021360567","category":"247","category_name":"餐饮美食","address":"上海杨浦区国济路30号(五角场百联又一城附近)"},{"poiid":"B2094655D26AA0FA4898","title":"地铁汶水路站","lon":"121.45013","lat":"31.29309","category":"36","category_name":"地铁站","address":""},{"poiid":"B2094655D26AA4F44098","title":"宾利上海维修中心","lon":"121.46354","lat":"31.29452","category":"247","category_name":"餐饮美食","address":"虹口区汶水东路957号(近广粤路)"},{"poiid":"B2094654D56CA5F44793","title":"上海电气汽车服务有限公司","lon":"121.45703","lat":"31.2946","category":"159","category_name":"汽车维修","address":"上海汶水路51号"},{"poiid":"B2094654DB6AAAFA479A","title":"海虹欣苑(南门)","lon":"121.46281","lat":"31.29682","category":"47","category_name":"住宅区","address":"江场路1067、1099弄"},{"poiid":"B2094757D165A6F44798","title":"海洋大厦对面公园","lon":"121.4579789","lat":"31.302479192","category":"196","category_name":"公园","address":"上海海洋大厦对面"},{"poiid":"B2094757D66DA6FC4399","title":"上海sct赛车队","lon":"121.4565171","lat":"31.29426192","category":"500","category_name":"未知分类","address":"上海市闸北区江场路"},{"poiid":"B2094757D06AA3F5459C","title":"SPR咖啡(共和新路点店)","lon":"121.4535455","lat":"31.302849198","category":"65","category_name":"咖啡厅","address":"闸北区共和新路3703号共和国际商务广场1楼(近彭浦新村地铁站)"},{"poiid":"B2094757D16BAAFD469B","title":"大润发肯德基kfc","lon":"121.45375035","lat":"31.293481408","category":"500","category_name":"未知分类","address":"上海共和新路"},{"poiid":"B2094654D56CA4FD4393","title":"上海天明货运服务有限公司","lon":"121.45387","lat":"31.29848","category":"248","category_name":"生活娱乐","address":"江场路1408号"},{"poiid":"B2094654D56CA4FD449A","title":"上海图书公司储运科","lon":"121.45386","lat":"31.29848","category":"248","category_name":"生活娱乐","address":"江场路1408号"},{"poiid":"B2094655D265A7F94199","title":"闸北青年创业园区","lon":"121.46063","lat":"31.2935","category":"45","category_name":"产业园区","address":""},{"poiid":"B2094654DB69A5F5419D","title":"大娘水饺 共和新路店","lon":"121.448917054","lat":"31.298265793","category":"68","category_name":"快餐厅","address":"闸北区共和新路3318号大润发2楼(近江场西路)"},{"poiid":"B2094655D26DAAFD4892","title":"上海市风华初级中学(南二门)","lon":"121.45835","lat":"31.29115","category":"678","category_name":"学校大门","address":"永和东路417"},{"poiid":"B2094655D265A3FB419F","title":"风行汽车东仪专营店","lon":"121.45724","lat":"31.29409","category":"158","category_name":"汽车销售","address":"汶水路50"},{"poiid":"B2094654D56CA3FD449D","title":"粤彭工业园","lon":"121.46067","lat":"31.29323","category":"45","category_name":"产业园区","address":"汶水支路5号"},{"poiid":"B2094655D26AA1F8489E","title":"众泰汽车销售有限公司","lon":"121.46354","lat":"31.29452","category":"247","category_name":"餐饮美食","address":"虹口区汶水东路957号(汶水东路粤秀路)"},{"poiid":"B2094655D26CA1FD4393","title":"上海东仪汽车贸易有限公司","lon":"121.45685","lat":"31.294","category":"158","category_name":"汽车销售","address":"汶水路40-7号"},{"poiid":"B2094757D06EAAFF499A","title":"汶水路地铁站","lon":"121.450118","lat":"31.293038","category":"36","category_name":"地铁站","address":"上海轨道交通 一号线 轨交汶水路站 1"},{"poiid":"B2094757D068A6FE489A","title":"东方环球企业中心","lon":"121.451","lat":"31.2949","category":"46","category_name":"楼宇","address":"闸北区永和路118弄"},{"poiid":"B2094757D06FAAF5459A","title":"祥腾财富广场","lon":"121.45338429981","lat":"31.299858297168","category":"250","category_name":"公园户外","address":"上海市闸北区共和新路3088号"},{"poiid":"B2094757D069A7FC479A","title":"共和新路高架","lon":"121.450425","lat":"31.292605","category":"500","category_name":"未知分类","address":"上海共和新路高架"},{"poiid":"B2094757D06FA6F5459D","title":"明园森林都市","lon":"121.46","lat":"31.2946","category":"47","category_name":"住宅区","address":"浦东区花木路1983弄"},{"poiid":"B2094750D16BA6F9439F","title":"鲜芋仙","lon":"121.449943","lat":"31.30298","category":"247","category_name":"餐饮美食","address":"闸北区共和新路1998号大宁国际商业广场10座2楼201号商铺(近大宁路)"},{"poiid":"B2094757D06FAAFB459E","title":"鼎中鼎澳门豆捞(共和新路店)","lon":"121.44859","lat":"31.29727","category":"86","category_name":"火锅店","address":"闸北区共和新路3318号大润发超市2楼(近江场西路)"},{"poiid":"B2094757D06FA6FC4293","title":"城大建材中心","lon":"121.45017684","lat":"31.297758425","category":"123","category_name":"家具建材市场","address":"闸北区共和新路3301号(近江场西路)"},{"poiid":"B2094757D068ABF4499A","title":"风华初级中学","lon":"121.46188008","lat":"31.293839901","category":"55","category_name":"中学","address":"闸北区永和东路393号"},{"poiid":"B2094757D069ABFF4898","title":"协通福特4s店","lon":"121.449394395","lat":"31.2950059539","category":"500","category_name":"未知分类","address":"上海共和新路"},{"poiid":"B2094654D56CA5F84798","title":"快客No.6799","lon":"121.45643","lat":"31.29904","category":"117","category_name":"便民商店/便利店","address":"江场路1301"},{"poiid":"B2094753DA6FABF44292","title":"上海大宁剧场","lon":"121.457008","lat":"31.298803","category":"500","category_name":"未知分类","address":"上海市 平型关路1222号"},{"poiid":"B2094654D464A3FA449D","title":"上海协通百联别克","lon":"121.44893","lat":"31.29561","category":"158","category_name":"汽车销售","address":"详细地址，共和新路3200号"},{"poiid":"B2094654D56CA5F9449E","title":"文苑小区(南门)","lon":"121.46587","lat":"31.29736","category":"656","category_name":"大门","address":"车站北路732弄17-89号"},{"poiid":"B2094654D56CA5F44892","title":"彭浦大厦","lon":"121.457","lat":"31.301","category":"46","category_name":"楼宇","address":"共和新路3201弄"},{"poiid":"B2094654D56CA4FD4692","title":"捷通驾驶员培训部","lon":"121.45888","lat":"31.29906","category":"192","category_name":"驾校","address":"江场路1240号"},{"poiid":"B2094757D064A3FB4793","title":"东联奥迪","lon":"121.45386395","lat":"31.305465737","category":"263","category_name":"公司","address":"上海市闸北区场中路"},{"poiid":"B2094757D068A0FC429A","title":"永鼎大厦","lon":"121.45444","lat":"31.304861","category":"46","category_name":"楼宇","address":"徐汇区田林路300号"},{"poiid":"B2094654D56CA5F84599","title":"北郊站","lon":"121.45604","lat":"31.30207","category":"22","category_name":"火车站","address":"闸北区寿阳路1500"},{"poiid":"B2094757D06BA4F54992","title":"ME shop","lon":"121.460112103","lat":"31.2965039675","category":"500","category_name":"未知分类","address":"上海市闸北区平型关路汶水路口"},{"poiid":"B2094654D56CA4FD4698","title":"上海市果品有限公司北郊冷库","lon":"121.45584","lat":"31.29831","category":"263","category_name":"公司","address":"江场路1400号"},{"poiid":"B2094751D56FA0FD449A","title":"上海外国语大学附属外国语学校（临时校区）","lon":"121.45532633333","lat":"31.296555","category":"253","category_name":"校园生活","address":"上海市虹口区车站北路730号"},{"poiid":"B2094654D56CA5F84598","title":"上海铁路分局北郊站装卸委外宿舍楼","lon":"121.45579","lat":"31.30016","category":"47","category_name":"住宅区","address":""},{"poiid":"B2094655D36DA7F4489C","title":"汶水路寿阳路","lon":"121.4581","lat":"31.29453","category":"38","category_name":"公交车站","address":""},{"poiid":"B2094757D06AA7F44792","title":"迅达中国电梯有限公司","lon":"121.456124","lat":"31.293794","category":"263","category_name":"公司","address":"上海汶水路40号"},{"poiid":"B2094654D56CA5F9459A","title":"文华苑(车站北路)","lon":"121.46509","lat":"31.29703","category":"47","category_name":"住宅区","address":"车站北路727弄1-31号"},{"poiid":"B2094654D56CA5FA4399","title":"海虹欣苑","lon":"121.46313","lat":"31.29796","category":"47","category_name":"住宅区","address":"江场路1067,1099弄"},{"poiid":"B2094757D06BA7FB429A","title":"申崇三线汶水路到堡镇","lon":"121.450134","lat":"31.293095","category":"38","category_name":"公交车站","address":"上海汶水路车站"},{"poiid":"B2094757D06FABFE439E","title":"百安居(闸北店)","lon":"121.44958","lat":"31.29525","category":"123","category_name":"家具建材市场","address":"闸北区共和新路3228号(近场中路)"},{"poiid":"B2094757D16EA6FA4192","title":"复旦大学光华楼东辅楼202","lon":"121.4549926","lat":"31.299636299","category":"500","category_name":"未知分类","address":"上海邯郸路220号"},{"poiid":"B2094654D56CA3FD4592","title":"迅达中国","lon":"121.4586","lat":"31.29346","category":"263","category_name":"公司","address":"汶水路40号"},{"poiid":"B2094654D56CA4FE419E","title":"快客联华便利连锁","lon":"121.45305","lat":"31.29875","category":"117","category_name":"便民商店/便利店","address":"江场路1395乙"},{"poiid":"B2094757D06AA7FD439B","title":"韩一拌饭馆","lon":"121.457784843","lat":"31.3021360567","category":"247","category_name":"餐饮美食","address":"上海杨浦区国济路30号(五角场百联又一城附近)"},{"poiid":"B2094655D26AA0FA4898","title":"地铁汶水路站","lon":"121.45013","lat":"31.29309","category":"36","category_name":"地铁站","address":""},{"poiid":"B2094655D26AA4F44098","title":"宾利上海维修中心","lon":"121.46354","lat":"31.29452","category":"247","category_name":"餐饮美食","address":"虹口区汶水东路957号(近广粤路)"},{"poiid":"B2094654D56CA5F44793","title":"上海电气汽车服务有限公司","lon":"121.45703","lat":"31.2946","category":"159","category_name":"汽车维修","address":"上海汶水路51号"},{"poiid":"B2094654DB6AAAFA479A","title":"海虹欣苑(南门)","lon":"121.46281","lat":"31.29682","category":"47","category_name":"住宅区","address":"江场路1067、1099弄"},{"poiid":"B2094757D165A6F44798","title":"海洋大厦对面公园","lon":"121.4579789","lat":"31.302479192","category":"196","category_name":"公园","address":"上海海洋大厦对面"},{"poiid":"B2094757D66DA6FC4399","title":"上海sct赛车队","lon":"121.4565171","lat":"31.29426192","category":"500","category_name":"未知分类","address":"上海市闸北区江场路"},{"poiid":"B2094757D06AA3F5459C","title":"SPR咖啡(共和新路点店)","lon":"121.4535455","lat":"31.302849198","category":"65","category_name":"咖啡厅","address":"闸北区共和新路3703号共和国际商务广场1楼(近彭浦新村地铁站)"},{"poiid":"B2094757D16BAAFD469B","title":"大润发肯德基kfc","lon":"121.45375035","lat":"31.293481408","category":"500","category_name":"未知分类","address":"上海共和新路"},{"poiid":"B2094654D56CA4FD4393","title":"上海天明货运服务有限公司","lon":"121.45387","lat":"31.29848","category":"248","category_name":"生活娱乐","address":"江场路1408号"},{"poiid":"B2094654D56CA4FD449A","title":"上海图书公司储运科","lon":"121.45386","lat":"31.29848","category":"248","category_name":"生活娱乐","address":"江场路1408号"},{"poiid":"B2094655D265A7F94199","title":"闸北青年创业园区","lon":"121.46063","lat":"31.2935","category":"45","category_name":"产业园区","address":""},{"poiid":"B2094654DB69A5F5419D","title":"大娘水饺 共和新路店","lon":"121.448917054","lat":"31.298265793","category":"68","category_name":"快餐厅","address":"闸北区共和新路3318号大润发2楼(近江场西路)"},{"poiid":"B2094655D26DAAFD4892","title":"上海市风华初级中学(南二门)","lon":"121.45835","lat":"31.29115","category":"678","category_name":"学校大门","address":"永和东路417"},{"poiid":"B2094655D265A3FB419F","title":"风行汽车东仪专营店","lon":"121.45724","lat":"31.29409","category":"158","category_name":"汽车销售","address":"汶水路50"},{"poiid":"B2094654D56CA3FD449D","title":"粤彭工业园","lon":"121.46067","lat":"31.29323","category":"45","category_name":"产业园区","address":"汶水支路5号"},{"poiid":"B2094655D26AA1F8489E","title":"众泰汽车销售有限公司","lon":"121.46354","lat":"31.29452","category":"247","category_name":"餐饮美食","address":"虹口区汶水东路957号(汶水东路粤秀路)"},{"poiid":"B2094655D26CA1FD4393","title":"上海东仪汽车贸易有限公司","lon":"121.45685","lat":"31.294","category":"158","category_name":"汽车销售","address":"汶水路40-7号"},{"poiid":"B2094757D06EAAFF499A","title":"汶水路地铁站","lon":"121.450118","lat":"31.293038","category":"36","category_name":"地铁站","address":"上海轨道交通 一号线 轨交汶水路站 1"},{"poiid":"B2094757D068A6FE489A","title":"东方环球企业中心","lon":"121.451","lat":"31.2949","category":"46","category_name":"楼宇","address":"闸北区永和路118弄"},{"poiid":"B2094757D06FAAF5459A","title":"祥腾财富广场","lon":"121.45338429981","lat":"31.299858297168","category":"250","category_name":"公园户外","address":"上海市闸北区共和新路3088号"},{"poiid":"B2094757D069A7FC479A","title":"共和新路高架","lon":"121.450425","lat":"31.292605","category":"500","category_name":"未知分类","address":"上海共和新路高架"},{"poiid":"B2094757D06FA6F5459D","title":"明园森林都市","lon":"121.46","lat":"31.2946","category":"47","category_name":"住宅区","address":"浦东区花木路1983弄"},{"poiid":"B2094750D16BA6F9439F","title":"鲜芋仙","lon":"121.449943","lat":"31.30298","category":"247","category_name":"餐饮美食","address":"闸北区共和新路1998号大宁国际商业广场10座2楼201号商铺(近大宁路)"},{"poiid":"B2094757D06FAAFB459E","title":"鼎中鼎澳门豆捞(共和新路店)","lon":"121.44859","lat":"31.29727","category":"86","category_name":"火锅店","address":"闸北区共和新路3318号大润发超市2楼(近江场西路)"},{"poiid":"B2094757D06FA6FC4293","title":"城大建材中心","lon":"121.45017684","lat":"31.297758425","category":"123","category_name":"家具建材市场","address":"闸北区共和新路3301号(近江场西路)"},{"poiid":"B2094757D068ABF4499A","title":"风华初级中学","lon":"121.46188008","lat":"31.293839901","category":"55","category_name":"中学","address":"闸北区永和东路393号"},{"poiid":"B2094757D069ABFF4898","title":"协通福特4s店","lon":"121.449394395","lat":"31.2950059539","category":"500","category_name":"未知分类","address":"上海共和新路"},{"poiid":"B2094654D56CA5F84798","title":"快客No.6799","lon":"121.45643","lat":"31.29904","category":"117","category_name":"便民商店/便利店","address":"江场路1301"},{"poiid":"B2094753DA6FABF44292","title":"上海大宁剧场","lon":"121.457008","lat":"31.298803","category":"500","category_name":"未知分类","address":"上海市 平型关路1222号"},{"poiid":"B2094654D464A3FA449D","title":"上海协通百联别克","lon":"121.44893","lat":"31.29561","category":"158","category_name":"汽车销售","address":"详细地址，共和新路3200号"},{"poiid":"B2094654D56CA5F9449E","title":"文苑小区(南门)","lon":"121.46587","lat":"31.29736","category":"656","category_name":"大门","address":"车站北路732弄17-89号"},{"poiid":"B2094654D56CA5F44892","title":"彭浦大厦","lon":"121.457","lat":"31.301","category":"46","category_name":"楼宇","address":"共和新路3201弄"},{"poiid":"B2094654D56CA4FD4692","title":"捷通驾驶员培训部","lon":"121.45888","lat":"31.29906","category":"192","category_name":"驾校","address":"江场路1240号"},{"poiid":"B2094757D064A3FB4793","title":"东联奥迪","lon":"121.45386395","lat":"31.305465737","category":"263","category_name":"公司","address":"上海市闸北区场中路"},{"poiid":"B2094757D068A0FC429A","title":"永鼎大厦","lon":"121.45444","lat":"31.304861","category":"46","category_name":"楼宇","address":"徐汇区田林路300号"},{"poiid":"B2094654D56CA5F84599","title":"北郊站","lon":"121.45604","lat":"31.30207","category":"22","category_name":"火车站","address":"闸北区寿阳路1500"},{"poiid":"B2094757D06BA4F54992","title":"ME shop","lon":"121.460112103","lat":"31.2965039675","category":"500","category_name":"未知分类","address":"上海市闸北区平型关路汶水路口"},{"poiid":"B2094654D56CA4FD4698","title":"上海市果品有限公司北郊冷库","lon":"121.45584","lat":"31.29831","category":"263","category_name":"公司","address":"江场路1400号"},{"poiid":"B2094751D56FA0FD449A","title":"上海外国语大学附属外国语学校（临时校区）","lon":"121.45532633333","lat":"31.296555","category":"253","category_name":"校园生活","address":"上海市虹口区车站北路730号"},{"poiid":"B2094654D56CA5F84598","title":"上海铁路分局北郊站装卸委外宿舍楼","lon":"121.45579","lat":"31.30016","category":"47","category_name":"住宅区","address":""},{"poiid":"B2094655D36DA7F4489C","title":"汶水路寿阳路","lon":"121.4581","lat":"31.29453","category":"38","category_name":"公交车站","address":""},{"poiid":"B2094757D06AA7F44792","title":"迅达中国电梯有限公司","lon":"121.456124","lat":"31.293794","category":"263","category_name":"公司","address":"上海汶水路40号"},{"poiid":"B2094654D56CA5F9459A","title":"文华苑(车站北路)","lon":"121.46509","lat":"31.29703","category":"47","category_name":"住宅区","address":"车站北路727弄1-31号"},{"poiid":"B2094654D56CA5FA4399","title":"海虹欣苑","lon":"121.46313","lat":"31.29796","category":"47","category_name":"住宅区","address":"江场路1067,1099弄"},{"poiid":"B2094757D06BA7FB429A","title":"申崇三线汶水路到堡镇","lon":"121.450134","lat":"31.293095","category":"38","category_name":"公交车站","address":"上海汶水路车站"},{"poiid":"B2094757D06FABFE439E","title":"百安居(闸北店)","lon":"121.44958","lat":"31.29525","category":"123","category_name":"家具建材市场","address":"闸北区共和新路3228号(近场中路)"},{"poiid":"B2094757D16EA6FA4192","title":"复旦大学光华楼东辅楼202","lon":"121.4549926","lat":"31.299636299","category":"500","category_name":"未知分类","address":"上海邯郸路220号"},{"poiid":"B2094654D56CA3FD4592","title":"迅达中国","lon":"121.4586","lat":"31.29346","category":"263","category_name":"公司","address":"汶水路40号"},{"poiid":"B2094654D56CA4FE419E","title":"快客联华便利连锁","lon":"121.45305","lat":"31.29875","category":"117","category_name":"便民商店/便利店","address":"江场路1395乙"},{"poiid":"B2094757D06AA7FD439B","title":"韩一拌饭馆","lon":"121.457784843","lat":"31.3021360567","category":"247","category_name":"餐饮美食","address":"上海杨浦区国济路30号(五角场百联又一城附近)"},{"poiid":"B2094655D26AA0FA4898","title":"地铁汶水路站","lon":"121.45013","lat":"31.29309","category":"36","category_name":"地铁站","address":""},{"poiid":"B2094655D26AA4F44098","title":"宾利上海维修中心","lon":"121.46354","lat":"31.29452","category":"247","category_name":"餐饮美食","address":"虹口区汶水东路957号(近广粤路)"},{"poiid":"B2094654D56CA5F44793","title":"上海电气汽车服务有限公司","lon":"121.45703","lat":"31.2946","category":"159","category_name":"汽车维修","address":"上海汶水路51号"},{"poiid":"B2094654DB6AAAFA479A","title":"海虹欣苑(南门)","lon":"121.46281","lat":"31.29682","category":"47","category_name":"住宅区","address":"江场路1067、1099弄"},{"poiid":"B2094757D165A6F44798","title":"海洋大厦对面公园","lon":"121.4579789","lat":"31.302479192","category":"196","category_name":"公园","address":"上海海洋大厦对面"},{"poiid":"B2094757D66DA6FC4399","title":"上海sct赛车队","lon":"121.4565171","lat":"31.29426192","category":"500","category_name":"未知分类","address":"上海市闸北区江场路"},{"poiid":"B2094757D06AA3F5459C","title":"SPR咖啡(共和新路点店)","lon":"121.4535455","lat":"31.302849198","category":"65","category_name":"咖啡厅","address":"闸北区共和新路3703号共和国际商务广场1楼(近彭浦新村地铁站)"},{"poiid":"B2094757D16BAAFD469B","title":"大润发肯德基kfc","lon":"121.45375035","lat":"31.293481408","category":"500","category_name":"未知分类","address":"上海共和新路"},{"poiid":"B2094654D56CA4FD4393","title":"上海天明货运服务有限公司","lon":"121.45387","lat":"31.29848","category":"248","category_name":"生活娱乐","address":"江场路1408号"},{"poiid":"B2094654D56CA4FD449A","title":"上海图书公司储运科","lon":"121.45386","lat":"31.29848","category":"248","category_name":"生活娱乐","address":"江场路1408号"},{"poiid":"B2094655D265A7F94199","title":"闸北青年创业园区","lon":"121.46063","lat":"31.2935","category":"45","category_name":"产业园区","address":""},{"poiid":"B2094654DB69A5F5419D","title":"大娘水饺 共和新路店","lon":"121.448917054","lat":"31.298265793","category":"68","category_name":"快餐厅","address":"闸北区共和新路3318号大润发2楼(近江场西路)"},{"poiid":"B2094655D26DAAFD4892","title":"上海市风华初级中学(南二门)","lon":"121.45835","lat":"31.29115","category":"678","category_name":"学校大门","address":"永和东路417"},{"poiid":"B2094655D265A3FB419F","title":"风行汽车东仪专营店","lon":"121.45724","lat":"31.29409","category":"158","category_name":"汽车销售","address":"汶水路50"},{"poiid":"B2094654D56CA3FD449D","title":"粤彭工业园","lon":"121.46067","lat":"31.29323","category":"45","category_name":"产业园区","address":"汶水支路5号"},{"poiid":"B2094655D26AA1F8489E","title":"众泰汽车销售有限公司","lon":"121.46354","lat":"31.29452","category":"247","category_name":"餐饮美食","address":"虹口区汶水东路957号(汶水东路粤秀路)"},{"poiid":"B2094655D26CA1FD4393","title":"上海东仪汽车贸易有限公司","lon":"121.45685","lat":"31.294","category":"158","category_name":"汽车销售","address":"汶水路40-7号"}]