[{"poiid":"B2094654DA6FAAF84098","title":"外滩中心","lon":"121.494","lat":"31.238","category":"46","category_name":"楼宇","address":"上海黄浦区延安东路222号"},{"poiid":"B2094655D26AA0FD489C","title":"威斯汀大饭店","lon":"121.48682","lat":"31.23242","category":"213","category_name":"五星级宾馆","address":"上海市黄浦区河南中路88号(近广东路)"},{"poiid":"B2094757D06FA5F5429E","title":"自然博物馆","lon":"121.48692063","lat":"31.231605225","category":"182","category_name":"博物馆","address":"上海黄浦区延安东路260号"},{"poiid":"B2094753D76FAAFA449C","title":"上海滩国泰旗舰店","lon":"121.466011","lat":"31.216125","category":"249","category_name":"购物服务","address":"淮海中路868号"},{"poiid":"B209475CD564A7F84292","title":"上海滩新天地店","lon":"121.47463","lat":"31.22164","category":"119","category_name":"商场","address":"\"太仓路181弄新天地北里15号\r\n\""},{"poiid":"B209475CD564A7F84392","title":"上海滩浦东香格里拉店","lon":"121.50058","lat":"31.23634","category":"119","category_name":"商场","address":"浦东富成路33号香格里拉酒店内大堂层"},{"poiid":"B2094654DA6EAAF84098","title":"兰生大厦","lon":"121.48613790537","lat":"31.231558720298","category":"46","category_name":"楼宇","address":"卢湾区淮海中路2-8号"},{"poiid":"B2094654DA6FAAFC499F","title":"黄浦区中心医院","lon":"121.48899","lat":"31.23428","category":"162","category_name":"医院","address":"黄浦区四川中路109号(近广东路)"},{"poiid":"B2094654DA6EAAF8449D","title":"金钟广场","lon":"121.486","lat":"31.2316","category":"46","category_name":"楼宇","address":"卢湾区淮海中路98号(近柳林路)"},{"poiid":"B2094757DA6FA1FC489E","title":"南京路","lon":"121.48612976074219","lat":"31.23181184772342","category":"248","category_name":"生活娱乐","address":"上海 上海市 上海市南京路"},{"poiid":"B2094757D06EAAFD489D","title":"一兆韦德(城市会所店)","lon":"121.48567","lat":"31.23132","category":"221","category_name":"健身中心","address":"黄浦区河南中路1号(近延安东路)"},{"poiid":"B209475CD769A0FC449C","title":"万岛日式料理（外滩店）","lon":"121.489715","lat":"31.23306","category":"247","category_name":"餐饮美食","address":"上海市 四川中路33号1楼"},{"poiid":"B2094757D06EAAFB499F","title":"星巴克(外滩中心店)","lon":"121.486469","lat":"31.231952","category":"260","category_name":"其他","address":"黄浦区延安东路222号1楼(近江西南路)"},{"poiid":"B2094654DB6AA0F5429E","title":"威斯汀舞台餐厅","lon":"121.48682","lat":"31.23242","category":"268","category_name":"自助","address":"黄浦区河南中路88号上海威斯汀大饭店1楼(近广东路)"},{"poiid":"B2094757D06FA6FF4498","title":"老北京前门烤鸭","lon":"121.4867704","lat":"31.2308891","category":"260","category_name":"其他","address":"黄浦区河南南路1号星腾大厦(延安东路口)"},{"poiid":"B2094757D06FA6FE4298","title":"海上阿叔(黄浦店)","lon":"121.48804","lat":"31.23132","category":"76","category_name":"上海菜","address":"黄浦区延安东路222号外滩中心B1楼(近江西中路)"},{"poiid":"B2094757D06FA1FA409D","title":"淮海中华大厦","lon":"121.49016706473","lat":"31.231560906818","category":"46","category_name":"楼宇","address":"朝阳华威桥东北角"},{"poiid":"B2094757D065AAFC459B","title":"赤板亭(名人大厦)","lon":"121.489254138","lat":"31.2339395791","category":"500","category_name":"未知分类","address":"上海南京路步行街"},{"poiid":"B2094654DA6EA6FB429C","title":"恒积大厦","lon":"121.488","lat":"31.2316","category":"46","category_name":"楼宇","address":"行宫位于沈河北站一路41号"},{"poiid":"B2094757D068A3FD459D","title":"永银大厦","lon":"121.487","lat":"31.2303","category":"46","category_name":"楼宇","address":"卫清西路139_149号等"},{"poiid":"B2094757D06FA3FD439C","title":"LAN蘭","lon":"121.48943561","lat":"31.233968149","category":"72","category_name":"广东菜","address":"黄浦区广东路102号(广东路四川中路)"},{"poiid":"B2094757D06AA2FE4698","title":"地铁二号线静安寺站","lon":"121.48722173","lat":"31.231696331","category":"36","category_name":"地铁站","address":"上海静安区南京西路华山路口,轨道交通二号线静安寺站"},{"poiid":"B2094757D06FABFA469E","title":"中汇大厦","lon":"121.48686831","lat":"31.230220304","category":"46","category_name":"楼宇","address":"丰台学城海鹰路1号,3号"},{"poiid":"B2094757D06FAAF84399","title":"申鑫大厦","lon":"121.488143","lat":"31.234771","category":"46","category_name":"楼宇","address":"上海市黄浦区宁海东路200号(北依南京路,南临淮海路)"},{"poiid":"B2094654DA6FABFE4598","title":"联谊大厦","lon":"121.48997","lat":"31.23307","category":"46","category_name":"楼宇","address":"希尔斯联邦位于沈河北站路117号(北站家乐福东北角)"},{"poiid":"B2094655D26EA6FA429E","title":"威斯汀钻石宴会厅","lon":"121.48682","lat":"31.23242","category":"260","category_name":"其他","address":"黄浦区河南中路88号威斯汀大饭店3楼(近广东路)"},{"poiid":"B2094655D26CAAFC419A","title":"如家酒店(外滩中心店)","lon":"121.48662","lat":"31.23375","category":"216","category_name":"经济型连锁酒店","address":"上海市黄浦区江西中路135弄11号(泗泾路26弄内)"},{"poiid":"B2094654DA6FAAF8499E","title":"贡多拉意大利餐厅","lon":"121.48687","lat":"31.23147","category":"94","category_name":"西餐厅","address":"黄浦区河南中路16号(近延安东路)"},{"poiid":"B2094654DA6EA6FA4898","title":"汇通大厦","lon":"121.488","lat":"31.2328","category":"46","category_name":"楼宇","address":"金陵东路369号"},{"poiid":"B2094654DB6BA4F9439A","title":"星腾大厦","lon":"121.48728","lat":"31.23068","category":"46","category_name":"楼宇","address":"长宁路1158号贝多芬广场618室"},{"poiid":"B2094757D06FABF5479F","title":"Dai's  Kitchen","lon":"121.48997","lat":"31.23235","category":"94","category_name":"西餐厅","address":"黄浦区延安东路110号四川大楼1楼门口弄堂(四川路口)"},{"poiid":"B2094654DA6EAAFF439D","title":"柳林大厦","lon":"121.487","lat":"31.2311","category":"46","category_name":"楼宇","address":"上海市闵行区莲花南路1500弄"},{"poiid":"B2094757D069A7FF4599","title":"安藤家","lon":"121.48767843","lat":"31.230165898","category":"95","category_name":"日本料理","address":"金陵东路229号范仕达生活广场2楼(近河南南路)"},{"poiid":"B2094753D76AAAF9429C","title":"鹿港小镇（宏伊店）","lon":"121.489372","lat":"31.231023","category":"500","category_name":"未知分类","address":"上海市 山东路"},{"poiid":"B2094654DB6AA7FF469B","title":"帕戈意大利餐厅 Prego","lon":"121.48738275777","lat":"31.231410271031","category":"94","category_name":"西餐厅","address":"黄浦区河南中路88号威斯汀大饭店2楼(近广东路)"},{"poiid":"B209475CDA68A0FC4492","title":"万岛日本料理铁板烧","lon":"121.489685","lat":"31.233085","category":"500","category_name":"未知分类","address":"上海市 四川中路33号"},{"poiid":"B2094757D069A0FE469D","title":"黄浦区中心医院中医门诊部","lon":"121.48898882","lat":"31.2342839927","category":"162","category_name":"医院","address":"上海黄浦区宁波路109号(近河南中路)"},{"poiid":"B2094655D26DAAFC4798","title":"宜兰贵斯酒店","lon":"121.48826","lat":"31.23394","category":"250","category_name":"公园户外","address":"黄浦区广东路138号(近河南中路)"},{"poiid":"B2094757D068ABFB409C","title":"五芳斋 四川中路店","lon":"121.48965177918","lat":"31.233533830051","category":"68","category_name":"快餐厅","address":"黄浦区四川中路136号(近广东路)"},{"poiid":"B209475CD168A0FC4299","title":"万岛日本料理","lon":"121.489006","lat":"31.233108","category":"500","category_name":"未知分类","address":"上海市 上海市四川中路33号一楼"},{"poiid":"B2094757D46CA7FA419C","title":"SalondeVille","lon":"121.48962","lat":"31.233869","category":"65","category_name":"咖啡厅","address":"中山东一路2号外滩华尔道夫酒店1楼近延安东路"},{"poiid":"B2094757D464A0FF439F","title":"33号餐厅","lon":"121.489499054","lat":"31.232973793","category":"72","category_name":"广东菜","address":"黄浦区四川中路33号1楼北大厅(近延安东路)"},{"poiid":"B2094757D06BA4FC479A","title":"仙芋奇圆","lon":"121.488421738","lat":"31.2310923185","category":"67","category_name":"甜品店","address":"黄浦区金陵东路68号工商联大厦裙楼1楼B-2铺(近江西南路)"},{"poiid":"B2094654DB65A5F4499A","title":"上海维拉斯酒店","lon":"121.48582","lat":"31.23286","category":"214","category_name":"四星级宾馆","address":"黄浦区广东路306号(近外滩)"},{"poiid":"B2094751D36CA5F84792","title":"南洋茶铺","lon":"121.48591","lat":"31.23287","category":"113","category_name":"冷饮店","address":"黄浦区广东路294号(近河南中路)"},{"poiid":"B2094757D069A0FA4792","title":"北京银行上海分行","lon":"121.48679898","lat":"31.230629158","category":"150","category_name":"银行","address":"河南南路16号中汇大厦1,5-6层"},{"poiid":"B2094654DB6AA0F54299","title":"水晶苑 EEST","lon":"121.48738275777","lat":"31.231410271031","category":"47","category_name":"住宅区","address":"河南中路88号上海威斯汀大饭店5楼近广东路外滩"},{"poiid":"B2094757D06AA1FB4199","title":"黄浦区人民政府","lon":"121.48615473","lat":"31.232495348","category":"252","category_name":"楼宇机构","address":"上海黄浦区广东路山东中路"},{"poiid":"B209475CD769A0FC4698","title":"万岛日本料理（外滩店）","lon":"121.489723","lat":"31.233066","category":"500","category_name":"未知分类","address":"上海市 上海市黄浦区四川中路33号1楼"},{"poiid":"B2094654DA6FABFB4499","title":"上海市黄浦区外滩地段医院分院","lon":"121.48816","lat":"31.23337","category":"162","category_name":"医院","address":"黄浦区广东路附近"},{"poiid":"B2094654DA6FAAF84098","title":"外滩中心","lon":"121.494","lat":"31.238","category":"46","category_name":"楼宇","address":"上海黄浦区延安东路222号"},{"poiid":"B2094655D26AA0FD489C","title":"威斯汀大饭店","lon":"121.48682","lat":"31.23242","category":"213","category_name":"五星级宾馆","address":"上海市黄浦区河南中路88号(近广东路)"},{"poiid":"B2094757D06FA5F5429E","title":"自然博物馆","lon":"121.48692063","lat":"31.231605225","category":"182","category_name":"博物馆","address":"上海黄浦区延安东路260号"},{"poiid":"B2094753D76FAAFA449C","title":"上海滩国泰旗舰店","lon":"121.466011","lat":"31.216125","category":"249","category_name":"购物服务","address":"淮海中路868号"},{"poiid":"B209475CD564A7F84292","title":"上海滩新天地店","lon":"121.47463","lat":"31.22164","category":"119","category_name":"商场","address":"\"太仓路181弄新天地北里15号\r\n\""},{"poiid":"B209475CD564A7F84392","title":"上海滩浦东香格里拉店","lon":"121.50058","lat":"31.23634","category":"119","category_name":"商场","address":"浦东富成路33号香格里拉酒店内大堂层"},{"poiid":"B2094654DA6EAAF84098","title":"兰生大厦","lon":"121.48613790537","lat":"31.231558720298","category":"46","category_name":"楼宇","address":"卢湾区淮海中路2-8号"},{"poiid":"B2094654DA6FAAFC499F","title":"黄浦区中心医院","lon":"121.48899","lat":"31.23428","category":"162","category_name":"医院","address":"黄浦区四川中路109号(近广东路)"},{"poiid":"B2094654DA6EAAF8449D","title":"金钟广场","lon":"121.486","lat":"31.2316","category":"46","category_name":"楼宇","address":"卢湾区淮海中路98号(近柳林路)"},{"poiid":"B2094757DA6FA1FC489E","title":"南京路","lon":"121.48612976074219","lat":"31.23181184772342","category":"248","category_name":"生活娱乐","address":"上海 上海市 上海市南京路"},{"poiid":"B2094757D06EAAFD489D","title":"一兆韦德(城市会所店)","lon":"121.48567","lat":"31.23132","category":"221","category_name":"健身中心","address":"黄浦区河南中路1号(近延安东路)"},{"poiid":"B209475CD769A0FC449C","title":"万岛日式料理（外滩店）","lon":"121.489715","lat":"31.23306","category":"247","category_name":"餐饮美食","address":"上海市 四川中路33号1楼"},{"poiid":"B2094757D06EAAFB499F","title":"星巴克(外滩中心店)","lon":"121.486469","lat":"31.231952","category":"260","category_name":"其他","address":"黄浦区延安东路222号1楼(近江西南路)"},{"poiid":"B2094654DB6AA0F5429E","title":"威斯汀舞台餐厅","lon":"121.48682","lat":"31.23242","category":"268","category_name":"自助","address":"黄浦区河南中路88号上海威斯汀大饭店1楼(近广东路)"},{"poiid":"B2094757D06FA6FF4498","title":"老北京前门烤鸭","lon":"121.4867704","lat":"31.2308891","category":"260","category_name":"其他","address":"黄浦区河南南路1号星腾大厦(延安东路口)"},{"poiid":"B2094757D06FA6FE4298","title":"海上阿叔(黄浦店)","lon":"121.48804","lat":"31.23132","category":"76","category_name":"上海菜","address":"黄浦区延安东路222号外滩中心B1楼(近江西中路)"},{"poiid":"B2094757D06FA1FA409D","title":"淮海中华大厦","lon":"121.49016706473","lat":"31.231560906818","category":"46","category_name":"楼宇","address":"朝阳华威桥东北角"},{"poiid":"B2094757D065AAFC459B","title":"赤板亭(名人大厦)","lon":"121.489254138","lat":"31.2339395791","category":"500","category_name":"未知分类","address":"上海南京路步行街"},{"poiid":"B2094654DA6EA6FB429C","title":"恒积大厦","lon":"121.488","lat":"31.2316","category":"46","category_name":"楼宇","address":"行宫位于沈河北站一路41号"},{"poiid":"B2094757D068A3FD459D","title":"永银大厦","lon":"121.487","lat":"31.2303","category":"46","category_name":"楼宇","address":"卫清西路139_149号等"},{"poiid":"B2094757D06FA3FD439C","title":"LAN蘭","lon":"121.48943561","lat":"31.233968149","category":"72","category_name":"广东菜","address":"黄浦区广东路102号(广东路四川中路)"},{"poiid":"B2094757D06AA2FE4698","title":"地铁二号线静安寺站","lon":"121.48722173","lat":"31.231696331","category":"36","category_name":"地铁站","address":"上海静安区南京西路华山路口,轨道交通二号线静安寺站"},{"poiid":"B2094757D06FABFA469E","title":"中汇大厦","lon":"121.48686831","lat":"31.230220304","category":"46","category_name":"楼宇","address":"丰台学城海鹰路1号,3号"},{"poiid":"B2094757D06FAAF84399","title":"申鑫大厦","lon":"121.488143","lat":"31.234771","category":"46","category_name":"楼宇","address":"上海市黄浦区宁海东路200号(北依南京路,南临淮海路)"},{"poiid":"B2094654DA6FABFE4598","title":"联谊大厦","lon":"121.48997","lat":"31.23307","category":"46","category_name":"楼宇","address":"希尔斯联邦位于沈河北站路117号(北站家乐福东北角)"},{"poiid":"B2094655D26EA6FA429E","title":"威斯汀钻石宴会厅","lon":"121.48682","lat":"31.23242","category":"260","category_name":"其他","address":"黄浦区河南中路88号威斯汀大饭店3楼(近广东路)"},{"poiid":"B2094655D26CAAFC419A","title":"如家酒店(外滩中心店)","lon":"121.48662","lat":"31.23375","category":"216","category_name":"经济型连锁酒店","address":"上海市黄浦区江西中路135弄11号(泗泾路26弄内)"},{"poiid":"B2094654DA6FAAF8499E","title":"贡多拉意大利餐厅","lon":"121.48687","lat":"31.23147","category":"94","category_name":"西餐厅","address":"黄浦区河南中路16号(近延安东路)"},{"poiid":"B2094654DA6EA6FA4898","title":"汇通大厦","lon":"121.488","lat":"31.2328","category":"46","category_name":"楼宇","address":"金陵东路369号"},{"poiid":"B2094654DB6BA4F9439A","title":"星腾大厦","lon":"121.48728","lat":"31.23068","category":"46","category_name":"楼宇","address":"长宁路1158号贝多芬广场618室"},{"poiid":"B2094757D06FABF5479F","title":"Dai's  Kitchen","lon":"121.48997","lat":"31.23235","category":"94","category_name":"西餐厅","address":"黄浦区延安东路110号四川大楼1楼门口弄堂(四川路口)"},{"poiid":"B2094654DA6EAAFF439D","title":"柳林大厦","lon":"121.487","lat":"31.2311","category":"46","category_name":"楼宇","address":"上海市闵行区莲花南路1500弄"},{"poiid":"B2094757D069A7FF4599","title":"安藤家","lon":"121.48767843","lat":"31.230165898","category":"95","category_name":"日本料理","address":"金陵东路229号范仕达生活广场2楼(近河南南路)"},{"poiid":"B2094753D76AAAF9429C","title":"鹿港小镇（宏伊店）","lon":"121.489372","lat":"31.231023","category":"500","category_name":"未知分类","address":"上海市 山东路"},{"poiid":"B2094654DB6AA7FF469B","title":"帕戈意大利餐厅 Prego","lon":"121.48738275777","lat":"31.231410271031","category":"94","category_name":"西餐厅","address":"黄浦区河南中路88号威斯汀大饭店2楼(近广东路)"},{"poiid":"B209475CDA68A0FC4492","title":"万岛日本料理铁板烧","lon":"121.489685","lat":"31.233085","category":"500","category_name":"未知分类","address":"上海市 四川中路33号"},{"poiid":"B2094757D069A0FE469D","title":"黄浦区中心医院中医门诊部","lon":"121.48898882","lat":"31.2342839927","category":"162","category_name":"医院","address":"上海黄浦区宁波路109号(近河南中路)"},{"poiid":"B2094655D26DAAFC4798","title":"宜兰贵斯酒店","lon":"121.48826","lat":"31.23394","category":"250","category_name":"公园户外","address":"黄浦区广东路138号(近河南中路)"},{"poiid":"B2094757D068ABFB409C","title":"五芳斋 四川中路店","lon":"121.48965177918","lat":"31.233533830051","category":"68","category_name":"快餐厅","address":"黄浦区四川中路136号(近广东路)"},{"poiid":"B209475CD168A0FC4299","title":"万岛日本料理","lon":"121.489006","lat":"31.233108","category":"500","category_name":"未知分类","address":"上海市 上海市四川中路33号一楼"},{"poiid":"B2094757D46CA7FA419C","title":"SalondeVille","lon":"121.48962","lat":"31.233869","category":"65","category_name":"咖啡厅","address":"中山东一路2号外滩华尔道夫酒店1楼近延安东路"},{"poiid":"B2094757D464A0FF439F","title":"33号餐厅","lon":"121.489499054","lat":"31.232973793","category":"72","category_name":"广东菜","address":"黄浦区四川中路33号1楼北大厅(近延安东路)"},{"poiid":"B2094757D06BA4FC479A","title":"仙芋奇圆","lon":"121.488421738","lat":"31.2310923185","category":"67","category_name":"甜品店","address":"黄浦区金陵东路68号工商联大厦裙楼1楼B-2铺(近江西南路)"},{"poiid":"B2094654DB65A5F4499A","title":"上海维拉斯酒店","lon":"121.48582","lat":"31.23286","category":"214","category_name":"四星级宾馆","address":"黄浦区广东路306号(近外滩)"},{"poiid":"B2094751D36CA5F84792","title":"南洋茶铺","lon":"121.48591","lat":"31.23287","category":"113","category_name":"冷饮店","address":"黄浦区广东路294号(近河南中路)"},{"poiid":"B2094757D069A0FA4792","title":"北京银行上海分行","lon":"121.48679898","lat":"31.230629158","category":"150","category_name":"银行","address":"河南南路16号中汇大厦1,5-6层"},{"poiid":"B2094654DB6AA0F54299","title":"水晶苑 EEST","lon":"121.48738275777","lat":"31.231410271031","category":"47","category_name":"住宅区","address":"河南中路88号上海威斯汀大饭店5楼近广东路外滩"},{"poiid":"B2094757D06AA1FB4199","title":"黄浦区人民政府","lon":"121.48615473","lat":"31.232495348","category":"252","category_name":"楼宇机构","address":"上海黄浦区广东路山东中路"},{"poiid":"B209475CD769A0FC4698","title":"万岛日本料理（外滩店）","lon":"121.489723","lat":"31.233066","category":"500","category_name":"未知分类","address":"上海市 上海市黄浦区四川中路33号1楼"},{"poiid":"B2094654DA6FABFB4499","title":"上海市黄浦区外滩地段医院分院","lon":"121.48816","lat":"31.23337","category":"162","category_name":"医院","address":"黄浦区广东路附近"},{"poiid":"B2094654DA6FAAF84098","title":"外滩中心","lon":"121.494","lat":"31.238","category":"46","category_name":"楼宇","address":"上海黄浦区延安东路222号"},{"poiid":"B2094655D26AA0FD489C","title":"威斯汀大饭店","lon":"121.48682","lat":"31.23242","category":"213","category_name":"五星级宾馆","address":"上海市黄浦区河南中路88号(近广东路)"},{"poiid":"B2094757D06FA5F5429E","title":"自然博物馆","lon":"121.48692063","lat":"31.231605225","category":"182","category_name":"博物馆","address":"上海黄浦区延安东路260号"},{"poiid":"B2094753D76FAAFA449C","title":"上海滩国泰旗舰店","lon":"121.466011","lat":"31.216125","category":"249","category_name":"购物服务","address":"淮海中路868号"},{"poiid":"B209475CD564A7F84292","title":"上海滩新天地店","lon":"121.47463","lat":"31.22164","category":"119","category_name":"商场","address":"\"太仓路181弄新天地北里15号\r\n\""},{"poiid":"B209475CD564A7F84392","title":"上海滩浦东香格里拉店","lon":"121.50058","lat":"31.23634","category":"119","category_name":"商场","address":"浦东富成路33号香格里拉酒店内大堂层"},{"poiid":"B2094654DA6EAAF84098","title":"兰生大厦","lon":"121.48613790537","lat":"31.231558720298","category":"46","category_name":"楼宇","address":"卢湾区淮海中路2-8号"},{"poiid":"B2094654DA6FAAFC499F","title":"黄浦区中心医院","lon":"121.48899","lat":"31.23428","category":"162","category_name":"医院","address":"黄浦区四川中路109号(近广东路)"},{"poiid":"B2094654DA6EAAF8449D","title":"金钟广场","lon":"121.486","lat":"31.2316","category":"46","category_name":"楼宇","address":"卢湾区淮海中路98号(近柳林路)"},{"poiid":"B2094757DA6FA1FC489E","title":"南京路","lon":"121.48612976074219","lat":"31.23181184772342","category":"248","category_name":"生活娱乐","address":"上海 上海市 上海市南京路"},{"poiid":"B2094757D06EAAFD489D","title":"一兆韦德(城市会所店)","lon":"121.48567","lat":"31.23132","category":"221","category_name":"健身中心","address":"黄浦区河南中路1号(近延安东路)"},{"poiid":"B209475CD769A0FC449C","title":"万岛日式料理（外滩店）","lon":"121.489715","lat":"31.23306","category":"247","category_name":"餐饮美食","address":"上海市 四川中路33号1楼"},{"poiid":"B2094757D06EAAFB499F","title":"星巴克(外滩中心店)","lon":"121.486469","lat":"31.231952","category":"260","category_name":"其他","address":"黄浦区延安东路222号1楼(近江西南路)"},{"poiid":"B2094654DB6AA0F5429E","title":"威斯汀舞台餐厅","lon":"121.48682","lat":"31.23242","category":"268","category_name":"自助","address":"黄浦区河南中路88号上海威斯汀大饭店1楼(近广东路)"},{"poiid":"B2094757D06FA6FF4498","title":"老北京前门烤鸭","lon":"121.4867704","lat":"31.2308891","category":"260","category_name":"其他","address":"黄浦区河南南路1号星腾大厦(延安东路口)"},{"poiid":"B2094757D06FA6FE4298","title":"海上阿叔(黄浦店)","lon":"121.48804","lat":"31.23132","category":"76","category_name":"上海菜","address":"黄浦区延安东路222号外滩中心B1楼(近江西中路)"},{"poiid":"B2094757D06FA1FA409D","title":"淮海中华大厦","lon":"121.49016706473","lat":"31.231560906818","category":"46","category_name":"楼宇","address":"朝阳华威桥东北角"},{"poiid":"B2094757D065AAFC459B","title":"赤板亭(名人大厦)","lon":"121.489254138","lat":"31.2339395791","category":"500","category_name":"未知分类","address":"上海南京路步行街"},{"poiid":"B2094654DA6EA6FB429C","title":"恒积大厦","lon":"121.488","lat":"31.2316","category":"46","category_name":"楼宇","address":"行宫位于沈河北站一路41号"},{"poiid":"B2094757D068A3FD459D","title":"永银大厦","lon":"121.487","lat":"31.2303","category":"46","category_name":"楼宇","address":"卫清西路139_149号等"},{"poiid":"B2094757D06FA3FD439C","title":"LAN蘭","lon":"121.48943561","lat":"31.233968149","category":"72","category_name":"广东菜","address":"黄浦区广东路102号(广东路四川中路)"},{"poiid":"B2094757D06AA2FE4698","title":"地铁二号线静安寺站","lon":"121.48722173","lat":"31.231696331","category":"36","category_name":"地铁站","address":"上海静安区南京西路华山路口,轨道交通二号线静安寺站"},{"poiid":"B2094757D06FABFA469E","title":"中汇大厦","lon":"121.48686831","lat":"31.230220304","category":"46","category_name":"楼宇","address":"丰台学城海鹰路1号,3号"},{"poiid":"B2094757D06FAAF84399","title":"申鑫大厦","lon":"121.488143","lat":"31.234771","category":"46","category_name":"楼宇","address":"上海市黄浦区宁海东路200号(北依南京路,南临淮海路)"},{"poiid":"B2094654DA6FABFE4598","title":"联谊大厦","lon":"121.48997","lat":"31.23307","category":"46","category_name":"楼宇","address":"希尔斯联邦位于沈河北站路117号(北站家乐福东北角)"},{"poiid":"B2094655D26EA6FA429E","title":"威斯汀钻石宴会厅","lon":"121.48682","lat":"31.23242","category":"260","category_name":"其他","address":"黄浦区河南中路88号威斯汀大饭店3楼(近广东路)"},{"poiid":"B2094655D26CAAFC419A","title":"如家酒店(外滩中心店)","lon":"121.48662","lat":"31.23375","category":"216","category_name":"经济型连锁酒店","address":"上海市黄浦区江西中路135弄11号(泗泾路26弄内)"},{"poiid":"B2094654DA6FAAF8499E","title":"贡多拉意大利餐厅","lon":"121.48687","lat":"31.23147","category":"94","category_name":"西餐厅","address":"黄浦区河南中路16号(近延安东路)"},{"poiid":"B2094654DA6EA6FA4898","title":"汇通大厦","lon":"121.488","lat":"31.2328","category":"46","category_name":"楼宇","address":"金陵东路369号"},{"poiid":"B2094654DB6BA4F9439A","title":"星腾大厦","lon":"121.48728","lat":"31.23068","category":"46","category_name":"楼宇","address":"长宁路1158号贝多芬广场618室"},{"poiid":"B2094757D06FABF5479F","title":"Dai's  Kitchen","lon":"121.48997","lat":"31.23235","category":"94","category_name":"西餐厅","address":"黄浦区延安东路110号四川大楼1楼门口弄堂(四川路口)"},{"poiid":"B2094654DA6EAAFF439D","title":"柳林大厦","lon":"121.487","lat":"31.2311","category":"46","category_name":"楼宇","address":"上海市闵行区莲花南路1500弄"},{"poiid":"B2094757D069A7FF4599","title":"安藤家","lon":"121.48767843","lat":"31.230165898","category":"95","category_name":"日本料理","address":"金陵东路229号范仕达生活广场2楼(近河南南路)"},{"poiid":"B2094753D76AAAF9429C","title":"鹿港小镇（宏伊店）","lon":"121.489372","lat":"31.231023","category":"500","category_name":"未知分类","address":"上海市 山东路"},{"poiid":"B2094654DB6AA7FF469B","title":"帕戈意大利餐厅 Prego","lon":"121.48738275777","lat":"31.231410271031","category":"94","category_name":"西餐厅","address":"黄浦区河南中路88号威斯汀大饭店2楼(近广东路)"},{"poiid":"B209475CDA68A0FC4492","title":"万岛日本料理铁板烧","lon":"121.489685","lat":"31.233085","category":"500","category_name":"未知分类","address":"上海市 四川中路33号"},{"poiid":"B2094757D069A0FE469D","title":"黄浦区中心医院中医门诊部","lon":"121.48898882","lat":"31.2342839927","category":"162","category_name":"医院","address":"上海黄浦区宁波路109号(近河南中路)"},{"poiid":"B2094655D26DAAFC4798","title":"宜兰贵斯酒店","lon":"121.48826","lat":"31.23394","category":"250","category_name":"公园户外","address":"黄浦区广东路138号(近河南中路)"},{"poiid":"B2094757D068ABFB409C","title":"五芳斋 四川中路店","lon":"121.48965177918","lat":"31.233533830051","category":"68","category_name":"快餐厅","address":"黄浦区四川中路136号(近广东路)"},{"poiid":"B209475CD168A0FC4299","title":"万岛日本料理","lon":"121.489006","lat":"31.233108","category":"500","category_name":"未知分类","address":"上海市 上海市四川中路33号一楼"},{"poiid":"B2094757D46CA7FA419C","title":"SalondeVille","lon":"121.48962","lat":"31.233869","category":"65","category_name":"咖啡厅","address":"中山东一路2号外滩华尔道夫酒店1楼近延安东路"},{"poiid":"B2094757D464A0FF439F","title":"33号餐厅","lon":"121.489499054","lat":"31.232973793","category":"72","category_name":"广东菜","address":"黄浦区四川中路33号1楼北大厅(近延安东路)"},{"poiid":"B2094757D06BA4FC479A","title":"仙芋奇圆","lon":"121.488421738","lat":"31.2310923185","category":"67","category_name":"甜品店","address":"黄浦区金陵东路68号工商联大厦裙楼1楼B-2铺(近江西南路)"},{"poiid":"B2094654DB65A5F4499A","title":"上海维拉斯酒店","lon":"121.48582","lat":"31.23286","category":"214","category_name":"四星级宾馆","address":"黄浦区广东路306号(近外滩)"},{"poiid":"B2094751D36CA5F84792","title":"南洋茶铺","lon":"121.48591","lat":"31.23287","category":"113","category_name":"冷饮店","address":"黄浦区广东路294号(近河南中路)"},{"poiid":"B2094757D069A0FA4792","title":"北京银行上海分行","lon":"121.48679898","lat":"31.230629158","category":"150","category_name":"银行","address":"河南南路16号中汇大厦1,5-6层"},{"poiid":"B2094654DB6AA0F54299","title":"水晶苑 EEST","lon":"121.48738275777","lat":"31.231410271031","category":"47","category_name":"住宅区","address":"河南中路88号上海威斯汀大饭店5楼近广东路外滩"},{"poiid":"B2094757D06AA1FB4199","title":"黄浦区人民政府","lon":"121.48615473","lat":"31.232495348","category":"252","category_name":"楼宇机构","address":"上海黄浦区广东路山东中路"},{"poiid":"B209475CD769A0FC4698","title":"万岛日本料理（外滩店）","lon":"121.489723","lat":"31.233066","category":"500","category_name":"未知分类","address":"上海市 上海市黄浦区四川中路33号1楼"},{"poiid":"B2094654DA6FABFB4499","title":"上海市黄浦区外滩地段医院分院","lon":"121.48816","lat":"31.23337","category":"162","category_name":"医院","address":"黄浦区广东路附近"},{"poiid":"B2094654DA6FAAF84098","title":"外滩中心","lon":"121.494","lat":"31.238","category":"46","category_name":"楼宇","address":"上海黄浦区延安东路222号"},{"poiid":"B2094655D26AA0FD489C","title":"威斯汀大饭店","lon":"121.48682","lat":"31.23242","category":"213","category_name":"五星级宾馆","address":"上海市黄浦区河南中路88号(近广东路)"},{"poiid":"B2094757D06FA5F5429E","title":"自然博物馆","lon":"121.48692063","lat":"31.231605225","category":"182","category_name":"博物馆","address":"上海黄浦区延安东路260号"},{"poiid":"B2094753D76FAAFA449C","title":"上海滩国泰旗舰店","lon":"121.466011","lat":"31.216125","category":"249","category_name":"购物服务","address":"淮海中路868号"},{"poiid":"B209475CD564A7F84292","title":"上海滩新天地店","lon":"121.47463","lat":"31.22164","category":"119","category_name":"商场","address":"\"太仓路181弄新天地北里15号\r\n\""},{"poiid":"B209475CD564A7F84392","title":"上海滩浦东香格里拉店","lon":"121.50058","lat":"31.23634","category":"119","category_name":"商场","address":"浦东富成路33号香格里拉酒店内大堂层"},{"poiid":"B2094654DA6EAAF84098","title":"兰生大厦","lon":"121.48613790537","lat":"31.231558720298","category":"46","category_name":"楼宇","address":"卢湾区淮海中路2-8号"},{"poiid":"B2094654DA6FAAFC499F","title":"黄浦区中心医院","lon":"121.48899","lat":"31.23428","category":"162","category_name":"医院","address":"黄浦区四川中路109号(近广东路)"},{"poiid":"B2094654DA6EAAF8449D","title":"金钟广场","lon":"121.486","lat":"31.2316","category":"46","category_name":"楼宇","address":"卢湾区淮海中路98号(近柳林路)"},{"poiid":"B2094757DA6FA1FC489E","title":"南京路","lon":"121.48612976074219","lat":"31.23181184772342","category":"248","category_name":"生活娱乐","address":"上海 上海市 上海市南京路"},{"poiid":"B2094757D06EAAFD489D","title":"一兆韦德(城市会所店)","lon":"121.48567","lat":"31.23132","category":"221","category_name":"健身中心","address":"黄浦区河南中路1号(近延安东路)"},{"poiid":"B209475CD769A0FC449C","title":"万岛日式料理（外滩店）","lon":"121.489715","lat":"31.23306","category":"247","category_name":"餐饮美食","address":"上海市 四川中路33号1楼"},{"poiid":"B2094757D06EAAFB499F","title":"星巴克(外滩中心店)","lon":"121.486469","lat":"31.231952","category":"260","category_name":"其他","address":"黄浦区延安东路222号1楼(近江西南路)"},{"poiid":"B2094654DB6AA0F5429E","title":"威斯汀舞台餐厅","lon":"121.48682","lat":"31.23242","category":"268","category_name":"自助","address":"黄浦区河南中路88号上海威斯汀大饭店1楼(近广东路)"},{"poiid":"B2094757D06FA6FF4498","title":"老北京前门烤鸭","lon":"121.4867704","lat":"31.2308891","category":"260","category_name":"其他","address":"黄浦区河南南路1号星腾大厦(延安东路口)"},{"poiid":"B2094757D06FA6FE4298","title":"海上阿叔(黄浦店)","lon":"121.48804","lat":"31.23132","category":"76","category_name":"上海菜","address":"黄浦区延安东路222号外滩中心B1楼(近江西中路)"},{"poiid":"B2094757D06FA1FA409D","title":"淮海中华大厦","lon":"121.49016706473","lat":"31.231560906818","category":"46","category_name":"楼宇","address":"朝阳华威桥东北角"},{"poiid":"B2094757D065AAFC459B","title":"赤板亭(名人大厦)","lon":"121.489254138","lat":"31.2339395791","category":"500","category_name":"未知分类","address":"上海南京路步行街"},{"poiid":"B2094654DA6EA6FB429C","title":"恒积大厦","lon":"121.488","lat":"31.2316","category":"46","category_name":"楼宇","address":"行宫位于沈河北站一路41号"},{"poiid":"B2094757D068A3FD459D","title":"永银大厦","lon":"121.487","lat":"31.2303","category":"46","category_name":"楼宇","address":"卫清西路139_149号等"},{"poiid":"B2094757D06FA3FD439C","title":"LAN蘭","lon":"121.48943561","lat":"31.233968149","category":"72","category_name":"广东菜","address":"黄浦区广东路102号(广东路四川中路)"},{"poiid":"B2094757D06AA2FE4698","title":"地铁二号线静安寺站","lon":"121.48722173","lat":"31.231696331","category":"36","category_name":"地铁站","address":"上海静安区南京西路华山路口,轨道交通二号线静安寺站"},{"poiid":"B2094757D06FABFA469E","title":"中汇大厦","lon":"121.48686831","lat":"31.230220304","category":"46","category_name":"楼宇","address":"丰台学城海鹰路1号,3号"},{"poiid":"B2094757D06FAAF84399","title":"申鑫大厦","lon":"121.488143","lat":"31.234771","category":"46","category_name":"楼宇","address":"上海市黄浦区宁海东路200号(北依南京路,南临淮海路)"},{"poiid":"B2094654DA6FABFE4598","title":"联谊大厦","lon":"121.48997","lat":"31.23307","category":"46","category_name":"楼宇","address":"希尔斯联邦位于沈河北站路117号(北站家乐福东北角)"},{"poiid":"B2094655D26EA6FA429E","title":"威斯汀钻石宴会厅","lon":"121.48682","lat":"31.23242","category":"260","category_name":"其他","address":"黄浦区河南中路88号威斯汀大饭店3楼(近广东路)"},{"poiid":"B2094655D26CAAFC419A","title":"如家酒店(外滩中心店)","lon":"121.48662","lat":"31.23375","category":"216","category_name":"经济型连锁酒店","address":"上海市黄浦区江西中路135弄11号(泗泾路26弄内)"},{"poiid":"B2094654DA6FAAF8499E","title":"贡多拉意大利餐厅","lon":"121.48687","lat":"31.23147","category":"94","category_name":"西餐厅","address":"黄浦区河南中路16号(近延安东路)"},{"poiid":"B2094654DA6EA6FA4898","title":"汇通大厦","lon":"121.488","lat":"31.2328","category":"46","category_name":"楼宇","address":"金陵东路369号"},{"poiid":"B2094654DB6BA4F9439A","title":"星腾大厦","lon":"121.48728","lat":"31.23068","category":"46","category_name":"楼宇","address":"长宁路1158号贝多芬广场618室"},{"poiid":"B2094757D06FABF5479F","title":"Dai's  Kitchen","lon":"121.48997","lat":"31.23235","category":"94","category_name":"西餐厅","address":"黄浦区延安东路110号四川大楼1楼门口弄堂(四川路口)"},{"poiid":"B2094654DA6EAAFF439D","title":"柳林大厦","lon":"121.487","lat":"31.2311","category":"46","category_name":"楼宇","address":"上海市闵行区莲花南路1500弄"},{"poiid":"B2094757D069A7FF4599","title":"安藤家","lon":"121.48767843","lat":"31.230165898","category":"95","category_name":"日本料理","address":"金陵东路229号范仕达生活广场2楼(近河南南路)"},{"poiid":"B2094753D76AAAF9429C","title":"鹿港小镇（宏伊店）","lon":"121.489372","lat":"31.231023","category":"500","category_name":"未知分类","address":"上海市 山东路"},{"poiid":"B2094654DB6AA7FF469B","title":"帕戈意大利餐厅 Prego","lon":"121.48738275777","lat":"31.231410271031","category":"94","category_name":"西餐厅","address":"黄浦区河南中路88号威斯汀大饭店2楼(近广东路)"},{"poiid":"B209475CDA68A0FC4492","title":"万岛日本料理铁板烧","lon":"121.489685","lat":"31.233085","category":"500","category_name":"未知分类","address":"上海市 四川中路33号"},{"poiid":"B2094757D069A0FE469D","title":"黄浦区中心医院中医门诊部","lon":"121.48898882","lat":"31.2342839927","category":"162","category_name":"医院","address":"上海黄浦区宁波路109号(近河南中路)"},{"poiid":"B2094655D26DAAFC4798","title":"宜兰贵斯酒店","lon":"121.48826","lat":"31.23394","category":"250","category_name":"公园户外","address":"黄浦区广东路138号(近河南中路)"},{"poiid":"B2094757D068ABFB409C","title":"五芳斋 四川中路店","lon":"121.48965177918","lat":"31.233533830051","category":"68","category_name":"快餐厅","address":"黄浦区四川中路136号(近广东路)"},{"poiid":"B209475CD168A0FC4299","title":"万岛日本料理","lon":"121.489006","lat":"31.233108","category":"500","category_name":"未知分类","address":"上海市 上海市四川中路33号一楼"},{"poiid":"B2094757D46CA7FA419C","title":"SalondeVille","lon":"121.48962","lat":"31.233869","category":"65","category_name":"咖啡厅","address":"中山东一路2号外滩华尔道夫酒店1楼近延安东路"},{"poiid":"B2094757D464A0FF439F","title":"33号餐厅","lon":"121.489499054","lat":"31.232973793","category":"72","category_name":"广东菜","address":"黄浦区四川中路33号1楼北大厅(近延安东路)"},{"poiid":"B2094757D06BA4FC479A","title":"仙芋奇圆","lon":"121.488421738","lat":"31.2310923185","category":"67","category_name":"甜品店","address":"黄浦区金陵东路68号工商联大厦裙楼1楼B-2铺(近江西南路)"},{"poiid":"B2094654DB65A5F4499A","title":"上海维拉斯酒店","lon":"121.48582","lat":"31.23286","category":"214","category_name":"四星级宾馆","address":"黄浦区广东路306号(近外滩)"},{"poiid":"B2094751D36CA5F84792","title":"南洋茶铺","lon":"121.48591","lat":"31.23287","category":"113","category_name":"冷饮店","address":"黄浦区广东路294号(近河南中路)"},{"poiid":"B2094757D069A0FA4792","title":"北京银行上海分行","lon":"121.48679898","lat":"31.230629158","category":"150","category_name":"银行","address":"河南南路16号中汇大厦1,5-6层"},{"poiid":"B2094654DB6AA0F54299","title":"水晶苑 EEST","lon":"121.48738275777","lat":"31.231410271031","category":"47","category_name":"住宅区","address":"河南中路88号上海威斯汀大饭店5楼近广东路外滩"},{"poiid":"B2094757D06AA1FB4199","title":"黄浦区人民政府","lon":"121.48615473","lat":"31.232495348","category":"252","category_name":"楼宇机构","address":"上海黄浦区广东路山东中路"},{"poiid":"B209475CD769A0FC4698","title":"万岛日本料理（外滩店）","lon":"121.489723","lat":"31.233066","category":"500","category_name":"未知分类","address":"上海市 上海市黄浦区四川中路33号1楼"},{"poiid":"B2094654DA6FABFB4499","title":"上海市黄浦区外滩地段医院分院","lon":"121.48816","lat":"31.23337","category":"162","category_name":"医院","address":"黄浦区广东路附近"}]