[{"poiid":"B2094757D06EAAFC4593","title":"阿久","lon":"121.42383","lat":"31.21299","category":"95","category_name":"日本料理","address":"长宁区武夷路351号D1(近定西路)"},{"poiid":"B2094757DA6FA2FC419B","title":"上海市皮肤病医院","lon":"121.426462000001","lat":"31.2133200000002","category":"162","category_name":"医院","address":"长宁区武夷路200号"},{"poiid":"B2094654DB6AA6FF499D","title":"上海绿地豪生全套房酒店","lon":"121.42867","lat":"31.21149","category":"250","category_name":"公园户外","address":"上海长宁区延安西路1155号绿地豪生全套房酒店1楼(近番禺路)"},{"poiid":"B2094757D06FA6FF4298","title":"巴国布衣(定西路店)","lon":"121.42381","lat":"31.21094","category":"71","category_name":"四川菜","address":"长宁区定西路1018号(宁夏宾馆旁)"},{"poiid":"B209475CD46BA6F4449B","title":"Zoo Coffee","lon":"121.423461","lat":"31.211517","category":"500","category_name":"未知分类","address":"上海市 长宁区定西路"},{"poiid":"B2094654D564A7F4479A","title":"万宝国际商务中心","lon":"121.427","lat":"31.2114","category":"46","category_name":"楼宇","address":"朝阳亚运村北炎黄艺术馆旁"},{"poiid":"B2094757D06AA6FE4398","title":"上海质量管理科学研究院","lon":"121.425811458","lat":"31.2132286803","category":"46","category_name":"楼宇","address":"长宁区武夷路258号(近定西路)"},{"poiid":"B2094750DA6CA5F8499A","title":"爱康国宾","lon":"121.423645","lat":"31.21141","category":"162","category_name":"医院","address":"长宁区定西路1018号"},{"poiid":"B2094750D66CA2FA4892","title":"越会山古典上海菜魔术店","lon":"121.423515","lat":"31.212404","category":"76","category_name":"上海菜","address":"长宁区定西路1116号(近武夷路)"},{"poiid":"B2094757D069A2FC4398","title":"冰花饺子城","lon":"121.42437744141","lat":"31.211517333984","category":"247","category_name":"餐饮美食","address":"长宁区昭化路351号(近定西路)"},{"poiid":"B2094757D065A0FE4592","title":"武夷路定西路","lon":"121.42580828","lat":"31.213553304","category":"500","category_name":"未知分类","address":"上海武夷路413号"},{"poiid":"B2094757D069A1F44798","title":"上海利星奔驰","lon":"121.42418038","lat":"31.210038386","category":"500","category_name":"未知分类","address":"上海延安西路"},{"poiid":"B2094757D068A6F94998","title":"迎龙大厦","lon":"121.425102","lat":"31.209648","category":"46","category_name":"楼宇","address":"上海市徐汇区漕东支路218弄"},{"poiid":"B2094757D06AA7FA4798","title":"红叶日本料理","lon":"121.424188586","lat":"31.2131870977","category":"268","category_name":"自助","address":"长宁区武夷路295弄1号"},{"poiid":"B2094757D66EA7F9499B","title":"延安路高架","lon":"121.42820558","lat":"31.210512045","category":"500","category_name":"未知分类","address":"上海市长宁区武夷路"},{"poiid":"B2094654DB6AA7FF419E","title":"烧肉牛家 延安西路店","lon":"121.422883054","lat":"31.209197793","category":"247","category_name":"餐饮美食","address":"长宁区延安西路1303号万众大厦1楼(定西路延安西路)"},{"poiid":"B2094655D26DA4F8439F","title":"如家快捷酒店(上海中山公园店)","lon":"121.42356","lat":"31.21111","category":"216","category_name":"经济型连锁酒店","address":"上海市长宁区定西路1018号(近延安西路口，靠银统大厦旁)"},{"poiid":"B2094654D565A7FE4598","title":"中澳万众商务大厦","lon":"121.42617","lat":"31.21047","category":"46","category_name":"楼宇","address":"上海长宁区延安西路1303号"},{"poiid":"B2094757D16DA4FF499F","title":"新长宁教育培训中心","lon":"121.42405058","lat":"31.212770089","category":"253","category_name":"校园生活","address":"上海市长宁区武夷路238号"},{"poiid":"B2094757D06BA4F4489E","title":"爱吃咖喱","lon":"121.426623153","lat":"31.2135507048","category":"95","category_name":"日本料理","address":"长宁区武夷路269号(安西路口)"},{"poiid":"B2094654D564A7F9449B","title":"华联发展大厦","lon":"121.42427803128","lat":"31.212423426868","category":"46","category_name":"楼宇","address":"上海市四川北路1851号"},{"poiid":"B2094654D565A7F8449C","title":"铭光商务楼","lon":"121.42495","lat":"31.21187","category":"46","category_name":"楼宇","address":"昭化路51,351号"},{"poiid":"B2094750D664A6FA439C","title":"ホルモン酒场(武夷路店)","lon":"121.424","lat":"31.2131","category":"269","category_name":"烧烤","address":"长宁区武夷路304号(近定西路)"},{"poiid":"B2094655D26CABFF409E","title":"好德便利No.845","lon":"121.42568","lat":"31.21181","category":"117","category_name":"便民商店/便利店","address":"昭化路120"},{"poiid":"B2094655D26AA1FA4498","title":"上海新东方学校中山公园校区","lon":"121.42496","lat":"31.21187","category":"247","category_name":"餐饮美食","address":"长宁区昭化路351号1楼(近定西路)"},{"poiid":"B2094654D565A7FE4699","title":"信宏商务楼","lon":"121.42639","lat":"31.21127","category":"46","category_name":"楼宇","address":"延安西路1281弄10号"},{"poiid":"B2094757D66DA4F44299","title":"烧烤","lon":"121.42570358","lat":"31.211457063","category":"247","category_name":"餐饮美食","address":"上海昭化路"},{"poiid":"B2094750D164A6FF489A","title":"如家快捷上海中山公园延安西路店","lon":"121.426042914391","lat":"31.2109295723443","category":"216","category_name":"经济型连锁酒店","address":"上海市长宁区延安西路1303号(近安西路)"},{"poiid":"B2094655D26AA4F44593","title":"吉祥特色馄饨 昭化路店","lon":"121.426828054","lat":"31.212177793","category":"247","category_name":"餐饮美食","address":"长宁区昭化路321号(近安西路)"},{"poiid":"B2094757D069A1FD4099","title":"利星行广场","lon":"121.425079346","lat":"31.2104701996","category":"201","category_name":"城市广场","address":"上海延安西路1319号"},{"poiid":"B2094757D469A7FA479E","title":"草原食府 延安西路店","lon":"121.42614","lat":"31.21053","category":"260","category_name":"其他","address":"长宁区延安西路1303号万众大厦(近安西路)"},{"poiid":"B2094757D569A3FF409B","title":"街尚(安西路)","lon":"121.42642551","lat":"31.21070177","category":"113","category_name":"冷饮店","address":"长宁区安西路(安化路安西路)"},{"poiid":"B2094753D76AA3FA479C","title":"和萌牛肠烧烤(武夷路店)","lon":"121.4244","lat":"31.21312","category":"95","category_name":"日本料理","address":"上海市长宁区武夷路304号(近定西路)"},{"poiid":"B2094654D565A7FF469B","title":"上海东驰汽车维修有限公司-昭化路分公司","lon":"121.42505","lat":"31.21154","category":"159","category_name":"汽车维修","address":"昭化路148号"},{"poiid":"B2094655D26DA4F9459A","title":"协和小区(西门)","lon":"121.42634","lat":"31.2111","category":"47","category_name":"住宅区","address":"延安西路1289弄3-9号"},{"poiid":"B2094654DB6BA6F8429D","title":"阿玛尼护肤造型中心(定西路)","lon":"121.42345","lat":"31.2117","category":"148","category_name":"美容美发店","address":"长宁区定西路1100号辽油大厦101室(昭化路口)"},{"poiid":"B2094757D66FA7FC4692","title":"Masala Art(武夷路店)","lon":"121.42635","lat":"31.21155","category":"500","category_name":"未知分类","address":"上海长宁区武夷路418弄3-5号(近定西路)  "},{"poiid":"B2094654D565A7FE4999","title":"泛太大厦","lon":"121.42828","lat":"31.21082","category":"46","category_name":"楼宇","address":"龙蟠南路33号(龙蟠南路与秦虹路交汇处,秦淮区政府对面)"},{"poiid":"B2094757D16BA2FE4898","title":"开元小学","lon":"121.42668","lat":"31.211","category":"56","category_name":"小学","address":"长宁区延安西路1289弄10号(安西路昭化路)"},{"poiid":"B209475CD76FA5F94093","title":"世纪公园","lon":"121.425193","lat":"31.212156","category":"500","category_name":"未知分类","address":"上海市 世纪公园"},{"poiid":"B2094655D265A6FD4198","title":"博海公寓","lon":"121.427125","lat":"31.211438","category":"47","category_name":"住宅区","address":"上海市长宁区新华路590弄"},{"poiid":"B2094750D76EA5FD4492","title":"JamaicaBlue(利星广场店)","lon":"121.425","lat":"31.211","category":"269","category_name":"烧烤","address":"延安西路1319号利星国际广场101室(近定西路)"},{"poiid":"B2094654D565A7F94598","title":"穆氏特色葱油饼小笼","lon":"121.42524","lat":"31.21341","category":"68","category_name":"快餐厅","address":"长宁区武夷路295号(安西路口)"},{"poiid":"B2094655D26DA7F9489A","title":"耀华小区(北门)","lon":"121.42701","lat":"31.21212","category":"47","category_name":"住宅区","address":"昭化路80-108号"},{"poiid":"B2094757D065A4F9479D","title":"film valley","lon":"121.425118","lat":"31.211915","category":"500","category_name":"未知分类","address":"上海昭化路351号"},{"poiid":"B2094654D565A7FF459E","title":"耀华小区","lon":"121.42715","lat":"31.211483","category":"47","category_name":"住宅区","address":"昭化路80-108号"},{"poiid":"B2094757D16CA3FA409D","title":"长宁区江苏街道社区卫生服务中心","lon":"121.42412258","lat":"31.213105096","category":"162","category_name":"医院","address":"上海市长宁区武夷路320弄4号"},{"poiid":"B2094757D169A0FA479A","title":"Mon.K's W","lon":"121.42549626","lat":"31.211818335","category":"500","category_name":"未知分类","address":null},{"poiid":"B2094655D36CA6F4469E","title":"定西路","lon":"121.42466","lat":"31.20991","category":"38","category_name":"公交车站","address":""},{"poiid":"B2094655D26EA5F9429C","title":"莫奈西餐厅","lon":"121.42866","lat":"31.21149","category":"94","category_name":"西餐厅","address":"长宁区延安西路1155号绿地豪生全套房酒店1楼(近番禺路)"},{"poiid":"B2094757D06EAAFC4593","title":"阿久","lon":"121.42383","lat":"31.21299","category":"95","category_name":"日本料理","address":"长宁区武夷路351号D1(近定西路)"},{"poiid":"B2094757DA6FA2FC419B","title":"上海市皮肤病医院","lon":"121.426462000001","lat":"31.2133200000002","category":"162","category_name":"医院","address":"长宁区武夷路200号"},{"poiid":"B2094654DB6AA6FF499D","title":"上海绿地豪生全套房酒店","lon":"121.42867","lat":"31.21149","category":"250","category_name":"公园户外","address":"上海长宁区延安西路1155号绿地豪生全套房酒店1楼(近番禺路)"},{"poiid":"B2094757D06FA6FF4298","title":"巴国布衣(定西路店)","lon":"121.42381","lat":"31.21094","category":"71","category_name":"四川菜","address":"长宁区定西路1018号(宁夏宾馆旁)"},{"poiid":"B209475CD46BA6F4449B","title":"Zoo Coffee","lon":"121.423461","lat":"31.211517","category":"500","category_name":"未知分类","address":"上海市 长宁区定西路"},{"poiid":"B2094654D564A7F4479A","title":"万宝国际商务中心","lon":"121.427","lat":"31.2114","category":"46","category_name":"楼宇","address":"朝阳亚运村北炎黄艺术馆旁"},{"poiid":"B2094757D06AA6FE4398","title":"上海质量管理科学研究院","lon":"121.425811458","lat":"31.2132286803","category":"46","category_name":"楼宇","address":"长宁区武夷路258号(近定西路)"},{"poiid":"B2094750DA6CA5F8499A","title":"爱康国宾","lon":"121.423645","lat":"31.21141","category":"162","category_name":"医院","address":"长宁区定西路1018号"},{"poiid":"B2094750D66CA2FA4892","title":"越会山古典上海菜魔术店","lon":"121.423515","lat":"31.212404","category":"76","category_name":"上海菜","address":"长宁区定西路1116号(近武夷路)"},{"poiid":"B2094757D069A2FC4398","title":"冰花饺子城","lon":"121.42437744141","lat":"31.211517333984","category":"247","category_name":"餐饮美食","address":"长宁区昭化路351号(近定西路)"},{"poiid":"B2094757D065A0FE4592","title":"武夷路定西路","lon":"121.42580828","lat":"31.213553304","category":"500","category_name":"未知分类","address":"上海武夷路413号"},{"poiid":"B2094757D069A1F44798","title":"上海利星奔驰","lon":"121.42418038","lat":"31.210038386","category":"500","category_name":"未知分类","address":"上海延安西路"},{"poiid":"B2094757D068A6F94998","title":"迎龙大厦","lon":"121.425102","lat":"31.209648","category":"46","category_name":"楼宇","address":"上海市徐汇区漕东支路218弄"},{"poiid":"B2094757D06AA7FA4798","title":"红叶日本料理","lon":"121.424188586","lat":"31.2131870977","category":"268","category_name":"自助","address":"长宁区武夷路295弄1号"},{"poiid":"B2094757D66EA7F9499B","title":"延安路高架","lon":"121.42820558","lat":"31.210512045","category":"500","category_name":"未知分类","address":"上海市长宁区武夷路"},{"poiid":"B2094654DB6AA7FF419E","title":"烧肉牛家 延安西路店","lon":"121.422883054","lat":"31.209197793","category":"247","category_name":"餐饮美食","address":"长宁区延安西路1303号万众大厦1楼(定西路延安西路)"},{"poiid":"B2094655D26DA4F8439F","title":"如家快捷酒店(上海中山公园店)","lon":"121.42356","lat":"31.21111","category":"216","category_name":"经济型连锁酒店","address":"上海市长宁区定西路1018号(近延安西路口，靠银统大厦旁)"},{"poiid":"B2094654D565A7FE4598","title":"中澳万众商务大厦","lon":"121.42617","lat":"31.21047","category":"46","category_name":"楼宇","address":"上海长宁区延安西路1303号"},{"poiid":"B2094757D16DA4FF499F","title":"新长宁教育培训中心","lon":"121.42405058","lat":"31.212770089","category":"253","category_name":"校园生活","address":"上海市长宁区武夷路238号"},{"poiid":"B2094757D06BA4F4489E","title":"爱吃咖喱","lon":"121.426623153","lat":"31.2135507048","category":"95","category_name":"日本料理","address":"长宁区武夷路269号(安西路口)"},{"poiid":"B2094654D564A7F9449B","title":"华联发展大厦","lon":"121.42427803128","lat":"31.212423426868","category":"46","category_name":"楼宇","address":"上海市四川北路1851号"},{"poiid":"B2094654D565A7F8449C","title":"铭光商务楼","lon":"121.42495","lat":"31.21187","category":"46","category_name":"楼宇","address":"昭化路51,351号"},{"poiid":"B2094750D664A6FA439C","title":"ホルモン酒场(武夷路店)","lon":"121.424","lat":"31.2131","category":"269","category_name":"烧烤","address":"长宁区武夷路304号(近定西路)"},{"poiid":"B2094655D26CABFF409E","title":"好德便利No.845","lon":"121.42568","lat":"31.21181","category":"117","category_name":"便民商店/便利店","address":"昭化路120"},{"poiid":"B2094655D26AA1FA4498","title":"上海新东方学校中山公园校区","lon":"121.42496","lat":"31.21187","category":"247","category_name":"餐饮美食","address":"长宁区昭化路351号1楼(近定西路)"},{"poiid":"B2094654D565A7FE4699","title":"信宏商务楼","lon":"121.42639","lat":"31.21127","category":"46","category_name":"楼宇","address":"延安西路1281弄10号"},{"poiid":"B2094757D66DA4F44299","title":"烧烤","lon":"121.42570358","lat":"31.211457063","category":"247","category_name":"餐饮美食","address":"上海昭化路"},{"poiid":"B2094750D164A6FF489A","title":"如家快捷上海中山公园延安西路店","lon":"121.426042914391","lat":"31.2109295723443","category":"216","category_name":"经济型连锁酒店","address":"上海市长宁区延安西路1303号(近安西路)"},{"poiid":"B2094655D26AA4F44593","title":"吉祥特色馄饨 昭化路店","lon":"121.426828054","lat":"31.212177793","category":"247","category_name":"餐饮美食","address":"长宁区昭化路321号(近安西路)"},{"poiid":"B2094757D069A1FD4099","title":"利星行广场","lon":"121.425079346","lat":"31.2104701996","category":"201","category_name":"城市广场","address":"上海延安西路1319号"},{"poiid":"B2094757D469A7FA479E","title":"草原食府 延安西路店","lon":"121.42614","lat":"31.21053","category":"260","category_name":"其他","address":"长宁区延安西路1303号万众大厦(近安西路)"},{"poiid":"B2094757D569A3FF409B","title":"街尚(安西路)","lon":"121.42642551","lat":"31.21070177","category":"113","category_name":"冷饮店","address":"长宁区安西路(安化路安西路)"},{"poiid":"B2094753D76AA3FA479C","title":"和萌牛肠烧烤(武夷路店)","lon":"121.4244","lat":"31.21312","category":"95","category_name":"日本料理","address":"上海市长宁区武夷路304号(近定西路)"},{"poiid":"B2094654D565A7FF469B","title":"上海东驰汽车维修有限公司-昭化路分公司","lon":"121.42505","lat":"31.21154","category":"159","category_name":"汽车维修","address":"昭化路148号"},{"poiid":"B2094655D26DA4F9459A","title":"协和小区(西门)","lon":"121.42634","lat":"31.2111","category":"47","category_name":"住宅区","address":"延安西路1289弄3-9号"},{"poiid":"B2094654DB6BA6F8429D","title":"阿玛尼护肤造型中心(定西路)","lon":"121.42345","lat":"31.2117","category":"148","category_name":"美容美发店","address":"长宁区定西路1100号辽油大厦101室(昭化路口)"},{"poiid":"B2094757D66FA7FC4692","title":"Masala Art(武夷路店)","lon":"121.42635","lat":"31.21155","category":"500","category_name":"未知分类","address":"上海长宁区武夷路418弄3-5号(近定西路)  "},{"poiid":"B2094654D565A7FE4999","title":"泛太大厦","lon":"121.42828","lat":"31.21082","category":"46","category_name":"楼宇","address":"龙蟠南路33号(龙蟠南路与秦虹路交汇处,秦淮区政府对面)"},{"poiid":"B2094757D16BA2FE4898","title":"开元小学","lon":"121.42668","lat":"31.211","category":"56","category_name":"小学","address":"长宁区延安西路1289弄10号(安西路昭化路)"},{"poiid":"B209475CD76FA5F94093","title":"世纪公园","lon":"121.425193","lat":"31.212156","category":"500","category_name":"未知分类","address":"上海市 世纪公园"},{"poiid":"B2094655D265A6FD4198","title":"博海公寓","lon":"121.427125","lat":"31.211438","category":"47","category_name":"住宅区","address":"上海市长宁区新华路590弄"},{"poiid":"B2094750D76EA5FD4492","title":"JamaicaBlue(利星广场店)","lon":"121.425","lat":"31.211","category":"269","category_name":"烧烤","address":"延安西路1319号利星国际广场101室(近定西路)"},{"poiid":"B2094654D565A7F94598","title":"穆氏特色葱油饼小笼","lon":"121.42524","lat":"31.21341","category":"68","category_name":"快餐厅","address":"长宁区武夷路295号(安西路口)"},{"poiid":"B2094655D26DA7F9489A","title":"耀华小区(北门)","lon":"121.42701","lat":"31.21212","category":"47","category_name":"住宅区","address":"昭化路80-108号"},{"poiid":"B2094757D065A4F9479D","title":"film valley","lon":"121.425118","lat":"31.211915","category":"500","category_name":"未知分类","address":"上海昭化路351号"},{"poiid":"B2094654D565A7FF459E","title":"耀华小区","lon":"121.42715","lat":"31.211483","category":"47","category_name":"住宅区","address":"昭化路80-108号"},{"poiid":"B2094757D16CA3FA409D","title":"长宁区江苏街道社区卫生服务中心","lon":"121.42412258","lat":"31.213105096","category":"162","category_name":"医院","address":"上海市长宁区武夷路320弄4号"},{"poiid":"B2094757D169A0FA479A","title":"Mon.K's W","lon":"121.42549626","lat":"31.211818335","category":"500","category_name":"未知分类","address":null},{"poiid":"B2094655D36CA6F4469E","title":"定西路","lon":"121.42466","lat":"31.20991","category":"38","category_name":"公交车站","address":""},{"poiid":"B2094655D26EA5F9429C","title":"莫奈西餐厅","lon":"121.42866","lat":"31.21149","category":"94","category_name":"西餐厅","address":"长宁区延安西路1155号绿地豪生全套房酒店1楼(近番禺路)"},{"poiid":"B2094757D06EAAFC4593","title":"阿久","lon":"121.42383","lat":"31.21299","category":"95","category_name":"日本料理","address":"长宁区武夷路351号D1(近定西路)"},{"poiid":"B2094757DA6FA2FC419B","title":"上海市皮肤病医院","lon":"121.426462000001","lat":"31.2133200000002","category":"162","category_name":"医院","address":"长宁区武夷路200号"},{"poiid":"B2094654DB6AA6FF499D","title":"上海绿地豪生全套房酒店","lon":"121.42867","lat":"31.21149","category":"250","category_name":"公园户外","address":"上海长宁区延安西路1155号绿地豪生全套房酒店1楼(近番禺路)"},{"poiid":"B2094757D06FA6FF4298","title":"巴国布衣(定西路店)","lon":"121.42381","lat":"31.21094","category":"71","category_name":"四川菜","address":"长宁区定西路1018号(宁夏宾馆旁)"},{"poiid":"B209475CD46BA6F4449B","title":"Zoo Coffee","lon":"121.423461","lat":"31.211517","category":"500","category_name":"未知分类","address":"上海市 长宁区定西路"},{"poiid":"B2094654D564A7F4479A","title":"万宝国际商务中心","lon":"121.427","lat":"31.2114","category":"46","category_name":"楼宇","address":"朝阳亚运村北炎黄艺术馆旁"},{"poiid":"B2094757D06AA6FE4398","title":"上海质量管理科学研究院","lon":"121.425811458","lat":"31.2132286803","category":"46","category_name":"楼宇","address":"长宁区武夷路258号(近定西路)"},{"poiid":"B2094750DA6CA5F8499A","title":"爱康国宾","lon":"121.423645","lat":"31.21141","category":"162","category_name":"医院","address":"长宁区定西路1018号"},{"poiid":"B2094750D66CA2FA4892","title":"越会山古典上海菜魔术店","lon":"121.423515","lat":"31.212404","category":"76","category_name":"上海菜","address":"长宁区定西路1116号(近武夷路)"},{"poiid":"B2094757D069A2FC4398","title":"冰花饺子城","lon":"121.42437744141","lat":"31.211517333984","category":"247","category_name":"餐饮美食","address":"长宁区昭化路351号(近定西路)"},{"poiid":"B2094757D065A0FE4592","title":"武夷路定西路","lon":"121.42580828","lat":"31.213553304","category":"500","category_name":"未知分类","address":"上海武夷路413号"},{"poiid":"B2094757D069A1F44798","title":"上海利星奔驰","lon":"121.42418038","lat":"31.210038386","category":"500","category_name":"未知分类","address":"上海延安西路"},{"poiid":"B2094757D068A6F94998","title":"迎龙大厦","lon":"121.425102","lat":"31.209648","category":"46","category_name":"楼宇","address":"上海市徐汇区漕东支路218弄"},{"poiid":"B2094757D06AA7FA4798","title":"红叶日本料理","lon":"121.424188586","lat":"31.2131870977","category":"268","category_name":"自助","address":"长宁区武夷路295弄1号"},{"poiid":"B2094757D66EA7F9499B","title":"延安路高架","lon":"121.42820558","lat":"31.210512045","category":"500","category_name":"未知分类","address":"上海市长宁区武夷路"},{"poiid":"B2094654DB6AA7FF419E","title":"烧肉牛家 延安西路店","lon":"121.422883054","lat":"31.209197793","category":"247","category_name":"餐饮美食","address":"长宁区延安西路1303号万众大厦1楼(定西路延安西路)"},{"poiid":"B2094655D26DA4F8439F","title":"如家快捷酒店(上海中山公园店)","lon":"121.42356","lat":"31.21111","category":"216","category_name":"经济型连锁酒店","address":"上海市长宁区定西路1018号(近延安西路口，靠银统大厦旁)"},{"poiid":"B2094654D565A7FE4598","title":"中澳万众商务大厦","lon":"121.42617","lat":"31.21047","category":"46","category_name":"楼宇","address":"上海长宁区延安西路1303号"},{"poiid":"B2094757D16DA4FF499F","title":"新长宁教育培训中心","lon":"121.42405058","lat":"31.212770089","category":"253","category_name":"校园生活","address":"上海市长宁区武夷路238号"},{"poiid":"B2094757D06BA4F4489E","title":"爱吃咖喱","lon":"121.426623153","lat":"31.2135507048","category":"95","category_name":"日本料理","address":"长宁区武夷路269号(安西路口)"},{"poiid":"B2094654D564A7F9449B","title":"华联发展大厦","lon":"121.42427803128","lat":"31.212423426868","category":"46","category_name":"楼宇","address":"上海市四川北路1851号"},{"poiid":"B2094654D565A7F8449C","title":"铭光商务楼","lon":"121.42495","lat":"31.21187","category":"46","category_name":"楼宇","address":"昭化路51,351号"},{"poiid":"B2094750D664A6FA439C","title":"ホルモン酒场(武夷路店)","lon":"121.424","lat":"31.2131","category":"269","category_name":"烧烤","address":"长宁区武夷路304号(近定西路)"},{"poiid":"B2094655D26CABFF409E","title":"好德便利No.845","lon":"121.42568","lat":"31.21181","category":"117","category_name":"便民商店/便利店","address":"昭化路120"},{"poiid":"B2094655D26AA1FA4498","title":"上海新东方学校中山公园校区","lon":"121.42496","lat":"31.21187","category":"247","category_name":"餐饮美食","address":"长宁区昭化路351号1楼(近定西路)"},{"poiid":"B2094654D565A7FE4699","title":"信宏商务楼","lon":"121.42639","lat":"31.21127","category":"46","category_name":"楼宇","address":"延安西路1281弄10号"},{"poiid":"B2094757D66DA4F44299","title":"烧烤","lon":"121.42570358","lat":"31.211457063","category":"247","category_name":"餐饮美食","address":"上海昭化路"},{"poiid":"B2094750D164A6FF489A","title":"如家快捷上海中山公园延安西路店","lon":"121.426042914391","lat":"31.2109295723443","category":"216","category_name":"经济型连锁酒店","address":"上海市长宁区延安西路1303号(近安西路)"},{"poiid":"B2094655D26AA4F44593","title":"吉祥特色馄饨 昭化路店","lon":"121.426828054","lat":"31.212177793","category":"247","category_name":"餐饮美食","address":"长宁区昭化路321号(近安西路)"},{"poiid":"B2094757D069A1FD4099","title":"利星行广场","lon":"121.425079346","lat":"31.2104701996","category":"201","category_name":"城市广场","address":"上海延安西路1319号"},{"poiid":"B2094757D469A7FA479E","title":"草原食府 延安西路店","lon":"121.42614","lat":"31.21053","category":"260","category_name":"其他","address":"长宁区延安西路1303号万众大厦(近安西路)"},{"poiid":"B2094757D569A3FF409B","title":"街尚(安西路)","lon":"121.42642551","lat":"31.21070177","category":"113","category_name":"冷饮店","address":"长宁区安西路(安化路安西路)"},{"poiid":"B2094753D76AA3FA479C","title":"和萌牛肠烧烤(武夷路店)","lon":"121.4244","lat":"31.21312","category":"95","category_name":"日本料理","address":"上海市长宁区武夷路304号(近定西路)"},{"poiid":"B2094654D565A7FF469B","title":"上海东驰汽车维修有限公司-昭化路分公司","lon":"121.42505","lat":"31.21154","category":"159","category_name":"汽车维修","address":"昭化路148号"},{"poiid":"B2094655D26DA4F9459A","title":"协和小区(西门)","lon":"121.42634","lat":"31.2111","category":"47","category_name":"住宅区","address":"延安西路1289弄3-9号"},{"poiid":"B2094654DB6BA6F8429D","title":"阿玛尼护肤造型中心(定西路)","lon":"121.42345","lat":"31.2117","category":"148","category_name":"美容美发店","address":"长宁区定西路1100号辽油大厦101室(昭化路口)"},{"poiid":"B2094757D66FA7FC4692","title":"Masala Art(武夷路店)","lon":"121.42635","lat":"31.21155","category":"500","category_name":"未知分类","address":"上海长宁区武夷路418弄3-5号(近定西路)  "},{"poiid":"B2094654D565A7FE4999","title":"泛太大厦","lon":"121.42828","lat":"31.21082","category":"46","category_name":"楼宇","address":"龙蟠南路33号(龙蟠南路与秦虹路交汇处,秦淮区政府对面)"},{"poiid":"B2094757D16BA2FE4898","title":"开元小学","lon":"121.42668","lat":"31.211","category":"56","category_name":"小学","address":"长宁区延安西路1289弄10号(安西路昭化路)"},{"poiid":"B209475CD76FA5F94093","title":"世纪公园","lon":"121.425193","lat":"31.212156","category":"500","category_name":"未知分类","address":"上海市 世纪公园"},{"poiid":"B2094655D265A6FD4198","title":"博海公寓","lon":"121.427125","lat":"31.211438","category":"47","category_name":"住宅区","address":"上海市长宁区新华路590弄"},{"poiid":"B2094750D76EA5FD4492","title":"JamaicaBlue(利星广场店)","lon":"121.425","lat":"31.211","category":"269","category_name":"烧烤","address":"延安西路1319号利星国际广场101室(近定西路)"},{"poiid":"B2094654D565A7F94598","title":"穆氏特色葱油饼小笼","lon":"121.42524","lat":"31.21341","category":"68","category_name":"快餐厅","address":"长宁区武夷路295号(安西路口)"},{"poiid":"B2094655D26DA7F9489A","title":"耀华小区(北门)","lon":"121.42701","lat":"31.21212","category":"47","category_name":"住宅区","address":"昭化路80-108号"},{"poiid":"B2094757D065A4F9479D","title":"film valley","lon":"121.425118","lat":"31.211915","category":"500","category_name":"未知分类","address":"上海昭化路351号"},{"poiid":"B2094654D565A7FF459E","title":"耀华小区","lon":"121.42715","lat":"31.211483","category":"47","category_name":"住宅区","address":"昭化路80-108号"},{"poiid":"B2094757D16CA3FA409D","title":"长宁区江苏街道社区卫生服务中心","lon":"121.42412258","lat":"31.213105096","category":"162","category_name":"医院","address":"上海市长宁区武夷路320弄4号"},{"poiid":"B2094757D169A0FA479A","title":"Mon.K's W","lon":"121.42549626","lat":"31.211818335","category":"500","category_name":"未知分类","address":null},{"poiid":"B2094655D36CA6F4469E","title":"定西路","lon":"121.42466","lat":"31.20991","category":"38","category_name":"公交车站","address":""},{"poiid":"B2094655D26EA5F9429C","title":"莫奈西餐厅","lon":"121.42866","lat":"31.21149","category":"94","category_name":"西餐厅","address":"长宁区延安西路1155号绿地豪生全套房酒店1楼(近番禺路)"},{"poiid":"B2094757D06EAAFC4593","title":"阿久","lon":"121.42383","lat":"31.21299","category":"95","category_name":"日本料理","address":"长宁区武夷路351号D1(近定西路)"},{"poiid":"B2094757DA6FA2FC419B","title":"上海市皮肤病医院","lon":"121.426462000001","lat":"31.2133200000002","category":"162","category_name":"医院","address":"长宁区武夷路200号"},{"poiid":"B2094654DB6AA6FF499D","title":"上海绿地豪生全套房酒店","lon":"121.42867","lat":"31.21149","category":"250","category_name":"公园户外","address":"上海长宁区延安西路1155号绿地豪生全套房酒店1楼(近番禺路)"},{"poiid":"B2094757D06FA6FF4298","title":"巴国布衣(定西路店)","lon":"121.42381","lat":"31.21094","category":"71","category_name":"四川菜","address":"长宁区定西路1018号(宁夏宾馆旁)"},{"poiid":"B209475CD46BA6F4449B","title":"Zoo Coffee","lon":"121.423461","lat":"31.211517","category":"500","category_name":"未知分类","address":"上海市 长宁区定西路"},{"poiid":"B2094654D564A7F4479A","title":"万宝国际商务中心","lon":"121.427","lat":"31.2114","category":"46","category_name":"楼宇","address":"朝阳亚运村北炎黄艺术馆旁"},{"poiid":"B2094757D06AA6FE4398","title":"上海质量管理科学研究院","lon":"121.425811458","lat":"31.2132286803","category":"46","category_name":"楼宇","address":"长宁区武夷路258号(近定西路)"},{"poiid":"B2094750DA6CA5F8499A","title":"爱康国宾","lon":"121.423645","lat":"31.21141","category":"162","category_name":"医院","address":"长宁区定西路1018号"},{"poiid":"B2094750D66CA2FA4892","title":"越会山古典上海菜魔术店","lon":"121.423515","lat":"31.212404","category":"76","category_name":"上海菜","address":"长宁区定西路1116号(近武夷路)"},{"poiid":"B2094757D069A2FC4398","title":"冰花饺子城","lon":"121.42437744141","lat":"31.211517333984","category":"247","category_name":"餐饮美食","address":"长宁区昭化路351号(近定西路)"},{"poiid":"B2094757D065A0FE4592","title":"武夷路定西路","lon":"121.42580828","lat":"31.213553304","category":"500","category_name":"未知分类","address":"上海武夷路413号"},{"poiid":"B2094757D069A1F44798","title":"上海利星奔驰","lon":"121.42418038","lat":"31.210038386","category":"500","category_name":"未知分类","address":"上海延安西路"},{"poiid":"B2094757D068A6F94998","title":"迎龙大厦","lon":"121.425102","lat":"31.209648","category":"46","category_name":"楼宇","address":"上海市徐汇区漕东支路218弄"},{"poiid":"B2094757D06AA7FA4798","title":"红叶日本料理","lon":"121.424188586","lat":"31.2131870977","category":"268","category_name":"自助","address":"长宁区武夷路295弄1号"},{"poiid":"B2094757D66EA7F9499B","title":"延安路高架","lon":"121.42820558","lat":"31.210512045","category":"500","category_name":"未知分类","address":"上海市长宁区武夷路"},{"poiid":"B2094654DB6AA7FF419E","title":"烧肉牛家 延安西路店","lon":"121.422883054","lat":"31.209197793","category":"247","category_name":"餐饮美食","address":"长宁区延安西路1303号万众大厦1楼(定西路延安西路)"},{"poiid":"B2094655D26DA4F8439F","title":"如家快捷酒店(上海中山公园店)","lon":"121.42356","lat":"31.21111","category":"216","category_name":"经济型连锁酒店","address":"上海市长宁区定西路1018号(近延安西路口，靠银统大厦旁)"},{"poiid":"B2094654D565A7FE4598","title":"中澳万众商务大厦","lon":"121.42617","lat":"31.21047","category":"46","category_name":"楼宇","address":"上海长宁区延安西路1303号"},{"poiid":"B2094757D16DA4FF499F","title":"新长宁教育培训中心","lon":"121.42405058","lat":"31.212770089","category":"253","category_name":"校园生活","address":"上海市长宁区武夷路238号"},{"poiid":"B2094757D06BA4F4489E","title":"爱吃咖喱","lon":"121.426623153","lat":"31.2135507048","category":"95","category_name":"日本料理","address":"长宁区武夷路269号(安西路口)"},{"poiid":"B2094654D564A7F9449B","title":"华联发展大厦","lon":"121.42427803128","lat":"31.212423426868","category":"46","category_name":"楼宇","address":"上海市四川北路1851号"},{"poiid":"B2094654D565A7F8449C","title":"铭光商务楼","lon":"121.42495","lat":"31.21187","category":"46","category_name":"楼宇","address":"昭化路51,351号"},{"poiid":"B2094750D664A6FA439C","title":"ホルモン酒场(武夷路店)","lon":"121.424","lat":"31.2131","category":"269","category_name":"烧烤","address":"长宁区武夷路304号(近定西路)"},{"poiid":"B2094655D26CABFF409E","title":"好德便利No.845","lon":"121.42568","lat":"31.21181","category":"117","category_name":"便民商店/便利店","address":"昭化路120"},{"poiid":"B2094655D26AA1FA4498","title":"上海新东方学校中山公园校区","lon":"121.42496","lat":"31.21187","category":"247","category_name":"餐饮美食","address":"长宁区昭化路351号1楼(近定西路)"},{"poiid":"B2094654D565A7FE4699","title":"信宏商务楼","lon":"121.42639","lat":"31.21127","category":"46","category_name":"楼宇","address":"延安西路1281弄10号"},{"poiid":"B2094757D66DA4F44299","title":"烧烤","lon":"121.42570358","lat":"31.211457063","category":"247","category_name":"餐饮美食","address":"上海昭化路"},{"poiid":"B2094750D164A6FF489A","title":"如家快捷上海中山公园延安西路店","lon":"121.426042914391","lat":"31.2109295723443","category":"216","category_name":"经济型连锁酒店","address":"上海市长宁区延安西路1303号(近安西路)"},{"poiid":"B2094655D26AA4F44593","title":"吉祥特色馄饨 昭化路店","lon":"121.426828054","lat":"31.212177793","category":"247","category_name":"餐饮美食","address":"长宁区昭化路321号(近安西路)"},{"poiid":"B2094757D069A1FD4099","title":"利星行广场","lon":"121.425079346","lat":"31.2104701996","category":"201","category_name":"城市广场","address":"上海延安西路1319号"},{"poiid":"B2094757D469A7FA479E","title":"草原食府 延安西路店","lon":"121.42614","lat":"31.21053","category":"260","category_name":"其他","address":"长宁区延安西路1303号万众大厦(近安西路)"},{"poiid":"B2094757D569A3FF409B","title":"街尚(安西路)","lon":"121.42642551","lat":"31.21070177","category":"113","category_name":"冷饮店","address":"长宁区安西路(安化路安西路)"},{"poiid":"B2094753D76AA3FA479C","title":"和萌牛肠烧烤(武夷路店)","lon":"121.4244","lat":"31.21312","category":"95","category_name":"日本料理","address":"上海市长宁区武夷路304号(近定西路)"},{"poiid":"B2094654D565A7FF469B","title":"上海东驰汽车维修有限公司-昭化路分公司","lon":"121.42505","lat":"31.21154","category":"159","category_name":"汽车维修","address":"昭化路148号"},{"poiid":"B2094655D26DA4F9459A","title":"协和小区(西门)","lon":"121.42634","lat":"31.2111","category":"47","category_name":"住宅区","address":"延安西路1289弄3-9号"},{"poiid":"B2094654DB6BA6F8429D","title":"阿玛尼护肤造型中心(定西路)","lon":"121.42345","lat":"31.2117","category":"148","category_name":"美容美发店","address":"长宁区定西路1100号辽油大厦101室(昭化路口)"},{"poiid":"B2094757D66FA7FC4692","title":"Masala Art(武夷路店)","lon":"121.42635","lat":"31.21155","category":"500","category_name":"未知分类","address":"上海长宁区武夷路418弄3-5号(近定西路)  "},{"poiid":"B2094654D565A7FE4999","title":"泛太大厦","lon":"121.42828","lat":"31.21082","category":"46","category_name":"楼宇","address":"龙蟠南路33号(龙蟠南路与秦虹路交汇处,秦淮区政府对面)"},{"poiid":"B2094757D16BA2FE4898","title":"开元小学","lon":"121.42668","lat":"31.211","category":"56","category_name":"小学","address":"长宁区延安西路1289弄10号(安西路昭化路)"},{"poiid":"B209475CD76FA5F94093","title":"世纪公园","lon":"121.425193","lat":"31.212156","category":"500","category_name":"未知分类","address":"上海市 世纪公园"},{"poiid":"B2094655D265A6FD4198","title":"博海公寓","lon":"121.427125","lat":"31.211438","category":"47","category_name":"住宅区","address":"上海市长宁区新华路590弄"},{"poiid":"B2094750D76EA5FD4492","title":"JamaicaBlue(利星广场店)","lon":"121.425","lat":"31.211","category":"269","category_name":"烧烤","address":"延安西路1319号利星国际广场101室(近定西路)"},{"poiid":"B2094654D565A7F94598","title":"穆氏特色葱油饼小笼","lon":"121.42524","lat":"31.21341","category":"68","category_name":"快餐厅","address":"长宁区武夷路295号(安西路口)"},{"poiid":"B2094655D26DA7F9489A","title":"耀华小区(北门)","lon":"121.42701","lat":"31.21212","category":"47","category_name":"住宅区","address":"昭化路80-108号"},{"poiid":"B2094757D065A4F9479D","title":"film valley","lon":"121.425118","lat":"31.211915","category":"500","category_name":"未知分类","address":"上海昭化路351号"},{"poiid":"B2094654D565A7FF459E","title":"耀华小区","lon":"121.42715","lat":"31.211483","category":"47","category_name":"住宅区","address":"昭化路80-108号"},{"poiid":"B2094757D16CA3FA409D","title":"长宁区江苏街道社区卫生服务中心","lon":"121.42412258","lat":"31.213105096","category":"162","category_name":"医院","address":"上海市长宁区武夷路320弄4号"},{"poiid":"B2094757D169A0FA479A","title":"Mon.K's W","lon":"121.42549626","lat":"31.211818335","category":"500","category_name":"未知分类","address":null},{"poiid":"B2094655D36CA6F4469E","title":"定西路","lon":"121.42466","lat":"31.20991","category":"38","category_name":"公交车站","address":""},{"poiid":"B2094655D26EA5F9429C","title":"莫奈西餐厅","lon":"121.42866","lat":"31.21149","category":"94","category_name":"西餐厅","address":"长宁区延安西路1155号绿地豪生全套房酒店1楼(近番禺路)"}]