[{"poiid":"B2094654DB6DABFB479C","title":"平高大厦","lon":"121.22939","lat":"31.01024","category":"46","category_name":"楼宇","address":"上海市黄浦区南京西路338号"},{"poiid":"B2094757D06AA1F9409D","title":"老盛昌汤包馆(松江店)","lon":"121.228561367","lat":"31.0104561697","category":"68","category_name":"快餐厅","address":"松江区人民北路175号(近中山二路)"},{"poiid":"B2094757D068A3FB499D","title":"85度C(人民北店)","lon":"121.22847","lat":"31.01101","category":"67","category_name":"甜品店","address":"松江区人民北路100号(近招商银行)"},{"poiid":"B2094752D26BABFD4293","title":"樵村鱼浦","lon":"121.230888","lat":"31.007492","category":"247","category_name":"餐饮美食","address":"松江区松汇中路568号B座乐颂坊202室(近谷阳南路)"},{"poiid":"B2094654DB6DABFB4692","title":"草庐酒家","lon":"121.22834","lat":"31.01036","category":"76","category_name":"上海菜","address":"松江区人民北路58号(近乐都路)"},{"poiid":"B2094757D068A5FC4299","title":"肯德基KFC(中山中路店)","lon":"121.229018","lat":"31.006703","category":"68","category_name":"快餐厅","address":"松江区中山中路99号"},{"poiid":"B2094654DB6DAAFE479C","title":"松江区乐都医院","lon":"121.23174","lat":"31.01341","category":"162","category_name":"医院","address":"乐都路279"},{"poiid":"B2094757D66CA2F5489D","title":"人乐小区","lon":"121.22643246","lat":"31.011346089","category":"47","category_name":"住宅区","address":"上海人民北路"},{"poiid":"B2094655D268A0FE429B","title":"上海市松江区市民服务中心","lon":"121.22818","lat":"31.00796","category":"248","category_name":"生活娱乐","address":"上海松江区人民北路73弄1号"},{"poiid":"B2094757D168A4FA429F","title":"中国工商银行(上海市松江支行)","lon":"121.22924503","lat":"31.009720312","category":"150","category_name":"银行","address":"普陀区中山二路201号近人民路(人民北路中山二路)"},{"poiid":"B2094654DB69A5FD409E","title":"好乐迪(中山中路店)","lon":"121.22967","lat":"31.00662","category":"170","category_name":"KTV","address":"松江区中山中路320-338号3楼"},{"poiid":"B2094654DB6DABFE4398","title":"松石苑","lon":"121.22671","lat":"31.008522","category":"47","category_name":"住宅区","address":"人民北路71弄"},{"poiid":"B2094654DB64A1F4469B","title":"集集小镇 松江总店 Jijitown","lon":"121.22828782635","lat":"31.007343374244","category":"68","category_name":"快餐厅","address":"松江区人民北路23号(近中山中路)"},{"poiid":"B209475DD365A0FD4198","title":"麦希国际影城","lon":"121.229153","lat":"31.010424","category":"178","category_name":"电影院","address":"中山中路71号平高世贸4楼"},{"poiid":"B2094654DB6DABFB489A","title":"平高大厦物业管理处","lon":"121.22939","lat":"31.01023","category":"46","category_name":"楼宇","address":"中山二路216号13层"},{"poiid":"B2094757D06AAAF94298","title":"摸错门牛肚王","lon":"121.22795","lat":"31.01233","category":"86","category_name":"火锅店","address":"松江区人民北路110号"},{"poiid":"B2094757D16AA7FE469A","title":"中国移动松江营业厅","lon":"121.22829603","lat":"31.0095763154","category":"150","category_name":"银行","address":"上海松江区人民北路64号"},{"poiid":"B2094757D064A5FD419F","title":"招商银行(松江支行)","lon":"121.227870313","lat":"31.0121534678","category":"150","category_name":"银行","address":"松江区人民北路92-98号(近乐都路)"},{"poiid":"B2094654DB6DABFB469C","title":"草庐大众点心","lon":"121.2283","lat":"31.0105","category":"112","category_name":"糕饼店","address":""},{"poiid":"B2094750D665A6F4479C","title":"芋贵人甜品店(人民北路店)","lon":"121.229","lat":"31.0078","category":"67","category_name":"甜品店","address":"松江区人民北路93号(近中山中路)"},{"poiid":"B2094757D66CA4FD4492","title":"松江区财会培训中心","lon":"121.228091467","lat":"31.0103100665","category":"253","category_name":"校园生活","address":"上海市松江区秀水新路21号"},{"poiid":"B2094757D169A1F5489A","title":"莉莲蛋挞（人民北路店）","lon":"121.228306267","lat":"31.010516071","category":"247","category_name":"餐饮美食","address":"上海松江区人民北路乐都路"},{"poiid":"B2094654DB6DABFB4893","title":"巾帼园(中山二路)","lon":"121.22963","lat":"31.01018","category":"202","category_name":"公园广场","address":""},{"poiid":"B2094655D26BABFC459E","title":"泰晤士小镇商业","lon":"121.2281","lat":"31.01332","category":"252","category_name":"楼宇机构","address":"乐都路339号"},{"poiid":"B2094654DB6DABFB4998","title":"松江区第六中学(中山二路)","lon":"121.23001","lat":"31.01095","category":"55","category_name":"中学","address":"中山二路200号"},{"poiid":"B2094757D66CA7F5479E","title":"人民北路中山中路公交站","lon":"121.230051067","lat":"31.0097828549","category":"38","category_name":"公交车站","address":"上海松江区人民北路中山中路"},{"poiid":"B2094654DB6DABF54692","title":"良友花艺坊","lon":"121.22857","lat":"31.00948","category":"117","category_name":"便民商店/便利店","address":"人民北路40号"},{"poiid":"B2094753D26FA0FD459E","title":"首尔焖鲜汇","lon":"121.22845","lat":"31.010099","category":"500","category_name":"未知分类","address":"上海市 松江乐颂房"},{"poiid":"B2094654DB6AA3F8429C","title":"彩蝶坊 中山中路店","lon":"121.23058271113","lat":"31.007324460136","category":"76","category_name":"上海菜","address":"松江区松江中山中路328号4楼"},{"poiid":"B2094655D36DA7F8459E","title":"中山二路人民北路","lon":"121.22681","lat":"31.00993","category":"38","category_name":"公交车站","address":""},{"poiid":"B2094654DB6DABFE429C","title":"雷哲发型设计","lon":"121.22608","lat":"31.00695","category":"148","category_name":"美容美发店","address":"中山中路546号2层"},{"poiid":"B2094757D66EA0F4439B","title":"醉时尚","lon":"121.229147467","lat":"31.0100970618","category":"249","category_name":"购物服务","address":"上海文翔路江学路"},{"poiid":"B2094654DB64A1F54192","title":"中国农业发展银行松江支行(松江·人民北路)","lon":"121.22829","lat":"31.01056","category":"150","category_name":"银行","address":"人民北路62号"},{"poiid":"B2094655D26FA2F8419D","title":"上海松江余天成医药药材总店龙潭店","lon":"121.23073","lat":"31.00996","category":"162","category_name":"医院","address":"松江区中山二路188号"},{"poiid":"B2094751DA6CA6FC4999","title":"重庆巴将军火锅","lon":"121.2304319","lat":"31.0090302","category":"247","category_name":"餐饮美食","address":"松汇中路568号"},{"poiid":"B2094655D36CA2F94299","title":"人民北路乐都路","lon":"121.22774","lat":"31.01186","category":"38","category_name":"公交车站","address":""},{"poiid":"B2094757D16DAAF4479B","title":"永乐生活电器(松江店)","lon":"121.2282","lat":"31.01115","category":"138","category_name":"家电电子卖场","address":"上海市松江区人民北路招商市场"},{"poiid":"B2094757D66EA3F9449C","title":"CoCo 都可茶饮","lon":"121.228728867","lat":"31.0108586785","category":"500","category_name":"未知分类","address":"上海松江人民北路66号"},{"poiid":"B2094751DA6AA0F44693","title":"星巴克（乐颂坊店）","lon":"121.2306518","lat":"31.0083361","category":"247","category_name":"餐饮美食","address":null},{"poiid":"B2094654DB6DABF44098","title":"龙潭苑北","lon":"121.23069","lat":"31.01127","category":"47","category_name":"住宅区","address":"松江镇"},{"poiid":"B2094757D16EAAF94792","title":"阿三羊蝎子","lon":"121.230524967","lat":"31.0091544411","category":"500","category_name":"未知分类","address":"上海松江人民南路"},{"poiid":"B2094757D164A6F84498","title":"松江六中","lon":"121.23037","lat":"31.01012","category":"253","category_name":"校园生活","address":"松江区中山二路200号"},{"poiid":"B2094655D268A5F9459B","title":"青松石34号公房(北门)","lon":"121.22746","lat":"31.00937","category":"47","category_name":"住宅区","address":"青松石34号"},{"poiid":"B2094654DB6DABFC459D","title":"新紫霞足浴休闲会所","lon":"121.22773","lat":"31.0109","category":"149","category_name":"洗浴推拿场所","address":"人民北路171弄3"},{"poiid":"B2094757D06BA5FC449E","title":"全家便利店(人民北路)","lon":"121.22813415","lat":"31.009284973","category":"500","category_name":"未知分类","address":"松江区人民北路108号(近招商银行)"},{"poiid":"B2094654DB6DABF54792","title":"农工商超市民NO.55","lon":"121.22873","lat":"31.00861","category":"118","category_name":"超级市场","address":"松江镇"},{"poiid":"B2094655D36CA2F9439B","title":"人民北路中山中路","lon":"121.22863","lat":"31.00816","category":"38","category_name":"公交车站","address":""},{"poiid":"B2094757D46EA4F8439B","title":"重庆鸡公煲 中山中路店","lon":"121.226682054","lat":"31.006929793","category":"71","category_name":"四川菜","address":"松江区中山中路596弄6号"},{"poiid":"B2094655D268A5F9459A","title":"青松石34号公房","lon":"121.22747","lat":"31.00919","category":"47","category_name":"住宅区","address":"青松石34号"},{"poiid":"B2094654DB6DABFB4799","title":"中国人寿保险股份有限公司上海市松江支公司","lon":"121.22858","lat":"31.01011","category":"219","category_name":"其他","address":"人民北路46号"},{"poiid":"B2094654DB6DABFB479C","title":"平高大厦","lon":"121.22939","lat":"31.01024","category":"46","category_name":"楼宇","address":"上海市黄浦区南京西路338号"},{"poiid":"B2094757D06AA1F9409D","title":"老盛昌汤包馆(松江店)","lon":"121.228561367","lat":"31.0104561697","category":"68","category_name":"快餐厅","address":"松江区人民北路175号(近中山二路)"},{"poiid":"B2094757D068A3FB499D","title":"85度C(人民北店)","lon":"121.22847","lat":"31.01101","category":"67","category_name":"甜品店","address":"松江区人民北路100号(近招商银行)"},{"poiid":"B2094752D26BABFD4293","title":"樵村鱼浦","lon":"121.230888","lat":"31.007492","category":"247","category_name":"餐饮美食","address":"松江区松汇中路568号B座乐颂坊202室(近谷阳南路)"},{"poiid":"B2094654DB6DABFB4692","title":"草庐酒家","lon":"121.22834","lat":"31.01036","category":"76","category_name":"上海菜","address":"松江区人民北路58号(近乐都路)"},{"poiid":"B2094757D068A5FC4299","title":"肯德基KFC(中山中路店)","lon":"121.229018","lat":"31.006703","category":"68","category_name":"快餐厅","address":"松江区中山中路99号"},{"poiid":"B2094654DB6DAAFE479C","title":"松江区乐都医院","lon":"121.23174","lat":"31.01341","category":"162","category_name":"医院","address":"乐都路279"},{"poiid":"B2094757D66CA2F5489D","title":"人乐小区","lon":"121.22643246","lat":"31.011346089","category":"47","category_name":"住宅区","address":"上海人民北路"},{"poiid":"B2094655D268A0FE429B","title":"上海市松江区市民服务中心","lon":"121.22818","lat":"31.00796","category":"248","category_name":"生活娱乐","address":"上海松江区人民北路73弄1号"},{"poiid":"B2094757D168A4FA429F","title":"中国工商银行(上海市松江支行)","lon":"121.22924503","lat":"31.009720312","category":"150","category_name":"银行","address":"普陀区中山二路201号近人民路(人民北路中山二路)"},{"poiid":"B2094654DB69A5FD409E","title":"好乐迪(中山中路店)","lon":"121.22967","lat":"31.00662","category":"170","category_name":"KTV","address":"松江区中山中路320-338号3楼"},{"poiid":"B2094654DB6DABFE4398","title":"松石苑","lon":"121.22671","lat":"31.008522","category":"47","category_name":"住宅区","address":"人民北路71弄"},{"poiid":"B2094654DB64A1F4469B","title":"集集小镇 松江总店 Jijitown","lon":"121.22828782635","lat":"31.007343374244","category":"68","category_name":"快餐厅","address":"松江区人民北路23号(近中山中路)"},{"poiid":"B209475DD365A0FD4198","title":"麦希国际影城","lon":"121.229153","lat":"31.010424","category":"178","category_name":"电影院","address":"中山中路71号平高世贸4楼"},{"poiid":"B2094654DB6DABFB489A","title":"平高大厦物业管理处","lon":"121.22939","lat":"31.01023","category":"46","category_name":"楼宇","address":"中山二路216号13层"},{"poiid":"B2094757D06AAAF94298","title":"摸错门牛肚王","lon":"121.22795","lat":"31.01233","category":"86","category_name":"火锅店","address":"松江区人民北路110号"},{"poiid":"B2094757D16AA7FE469A","title":"中国移动松江营业厅","lon":"121.22829603","lat":"31.0095763154","category":"150","category_name":"银行","address":"上海松江区人民北路64号"},{"poiid":"B2094757D064A5FD419F","title":"招商银行(松江支行)","lon":"121.227870313","lat":"31.0121534678","category":"150","category_name":"银行","address":"松江区人民北路92-98号(近乐都路)"},{"poiid":"B2094654DB6DABFB469C","title":"草庐大众点心","lon":"121.2283","lat":"31.0105","category":"112","category_name":"糕饼店","address":""},{"poiid":"B2094750D665A6F4479C","title":"芋贵人甜品店(人民北路店)","lon":"121.229","lat":"31.0078","category":"67","category_name":"甜品店","address":"松江区人民北路93号(近中山中路)"},{"poiid":"B2094757D66CA4FD4492","title":"松江区财会培训中心","lon":"121.228091467","lat":"31.0103100665","category":"253","category_name":"校园生活","address":"上海市松江区秀水新路21号"},{"poiid":"B2094757D169A1F5489A","title":"莉莲蛋挞（人民北路店）","lon":"121.228306267","lat":"31.010516071","category":"247","category_name":"餐饮美食","address":"上海松江区人民北路乐都路"},{"poiid":"B2094654DB6DABFB4893","title":"巾帼园(中山二路)","lon":"121.22963","lat":"31.01018","category":"202","category_name":"公园广场","address":""},{"poiid":"B2094655D26BABFC459E","title":"泰晤士小镇商业","lon":"121.2281","lat":"31.01332","category":"252","category_name":"楼宇机构","address":"乐都路339号"},{"poiid":"B2094654DB6DABFB4998","title":"松江区第六中学(中山二路)","lon":"121.23001","lat":"31.01095","category":"55","category_name":"中学","address":"中山二路200号"},{"poiid":"B2094757D66CA7F5479E","title":"人民北路中山中路公交站","lon":"121.230051067","lat":"31.0097828549","category":"38","category_name":"公交车站","address":"上海松江区人民北路中山中路"},{"poiid":"B2094654DB6DABF54692","title":"良友花艺坊","lon":"121.22857","lat":"31.00948","category":"117","category_name":"便民商店/便利店","address":"人民北路40号"},{"poiid":"B2094753D26FA0FD459E","title":"首尔焖鲜汇","lon":"121.22845","lat":"31.010099","category":"500","category_name":"未知分类","address":"上海市 松江乐颂房"},{"poiid":"B2094654DB6AA3F8429C","title":"彩蝶坊 中山中路店","lon":"121.23058271113","lat":"31.007324460136","category":"76","category_name":"上海菜","address":"松江区松江中山中路328号4楼"},{"poiid":"B2094655D36DA7F8459E","title":"中山二路人民北路","lon":"121.22681","lat":"31.00993","category":"38","category_name":"公交车站","address":""},{"poiid":"B2094654DB6DABFE429C","title":"雷哲发型设计","lon":"121.22608","lat":"31.00695","category":"148","category_name":"美容美发店","address":"中山中路546号2层"},{"poiid":"B2094757D66EA0F4439B","title":"醉时尚","lon":"121.229147467","lat":"31.0100970618","category":"249","category_name":"购物服务","address":"上海文翔路江学路"},{"poiid":"B2094654DB64A1F54192","title":"中国农业发展银行松江支行(松江·人民北路)","lon":"121.22829","lat":"31.01056","category":"150","category_name":"银行","address":"人民北路62号"},{"poiid":"B2094655D26FA2F8419D","title":"上海松江余天成医药药材总店龙潭店","lon":"121.23073","lat":"31.00996","category":"162","category_name":"医院","address":"松江区中山二路188号"},{"poiid":"B2094751DA6CA6FC4999","title":"重庆巴将军火锅","lon":"121.2304319","lat":"31.0090302","category":"247","category_name":"餐饮美食","address":"松汇中路568号"},{"poiid":"B2094655D36CA2F94299","title":"人民北路乐都路","lon":"121.22774","lat":"31.01186","category":"38","category_name":"公交车站","address":""},{"poiid":"B2094757D16DAAF4479B","title":"永乐生活电器(松江店)","lon":"121.2282","lat":"31.01115","category":"138","category_name":"家电电子卖场","address":"上海市松江区人民北路招商市场"},{"poiid":"B2094757D66EA3F9449C","title":"CoCo 都可茶饮","lon":"121.228728867","lat":"31.0108586785","category":"500","category_name":"未知分类","address":"上海松江人民北路66号"},{"poiid":"B2094751DA6AA0F44693","title":"星巴克（乐颂坊店）","lon":"121.2306518","lat":"31.0083361","category":"247","category_name":"餐饮美食","address":null},{"poiid":"B2094654DB6DABF44098","title":"龙潭苑北","lon":"121.23069","lat":"31.01127","category":"47","category_name":"住宅区","address":"松江镇"},{"poiid":"B2094757D16EAAF94792","title":"阿三羊蝎子","lon":"121.230524967","lat":"31.0091544411","category":"500","category_name":"未知分类","address":"上海松江人民南路"},{"poiid":"B2094757D164A6F84498","title":"松江六中","lon":"121.23037","lat":"31.01012","category":"253","category_name":"校园生活","address":"松江区中山二路200号"},{"poiid":"B2094655D268A5F9459B","title":"青松石34号公房(北门)","lon":"121.22746","lat":"31.00937","category":"47","category_name":"住宅区","address":"青松石34号"},{"poiid":"B2094654DB6DABFC459D","title":"新紫霞足浴休闲会所","lon":"121.22773","lat":"31.0109","category":"149","category_name":"洗浴推拿场所","address":"人民北路171弄3"},{"poiid":"B2094757D06BA5FC449E","title":"全家便利店(人民北路)","lon":"121.22813415","lat":"31.009284973","category":"500","category_name":"未知分类","address":"松江区人民北路108号(近招商银行)"},{"poiid":"B2094654DB6DABF54792","title":"农工商超市民NO.55","lon":"121.22873","lat":"31.00861","category":"118","category_name":"超级市场","address":"松江镇"},{"poiid":"B2094655D36CA2F9439B","title":"人民北路中山中路","lon":"121.22863","lat":"31.00816","category":"38","category_name":"公交车站","address":""},{"poiid":"B2094757D46EA4F8439B","title":"重庆鸡公煲 中山中路店","lon":"121.226682054","lat":"31.006929793","category":"71","category_name":"四川菜","address":"松江区中山中路596弄6号"},{"poiid":"B2094655D268A5F9459A","title":"青松石34号公房","lon":"121.22747","lat":"31.00919","category":"47","category_name":"住宅区","address":"青松石34号"},{"poiid":"B2094654DB6DABFB4799","title":"中国人寿保险股份有限公司上海市松江支公司","lon":"121.22858","lat":"31.01011","category":"219","category_name":"其他","address":"人民北路46号"},{"poiid":"B2094654DB6DABFB479C","title":"平高大厦","lon":"121.22939","lat":"31.01024","category":"46","category_name":"楼宇","address":"上海市黄浦区南京西路338号"},{"poiid":"B2094757D06AA1F9409D","title":"老盛昌汤包馆(松江店)","lon":"121.228561367","lat":"31.0104561697","category":"68","category_name":"快餐厅","address":"松江区人民北路175号(近中山二路)"},{"poiid":"B2094757D068A3FB499D","title":"85度C(人民北店)","lon":"121.22847","lat":"31.01101","category":"67","category_name":"甜品店","address":"松江区人民北路100号(近招商银行)"},{"poiid":"B2094752D26BABFD4293","title":"樵村鱼浦","lon":"121.230888","lat":"31.007492","category":"247","category_name":"餐饮美食","address":"松江区松汇中路568号B座乐颂坊202室(近谷阳南路)"},{"poiid":"B2094654DB6DABFB4692","title":"草庐酒家","lon":"121.22834","lat":"31.01036","category":"76","category_name":"上海菜","address":"松江区人民北路58号(近乐都路)"},{"poiid":"B2094757D068A5FC4299","title":"肯德基KFC(中山中路店)","lon":"121.229018","lat":"31.006703","category":"68","category_name":"快餐厅","address":"松江区中山中路99号"},{"poiid":"B2094654DB6DAAFE479C","title":"松江区乐都医院","lon":"121.23174","lat":"31.01341","category":"162","category_name":"医院","address":"乐都路279"},{"poiid":"B2094757D66CA2F5489D","title":"人乐小区","lon":"121.22643246","lat":"31.011346089","category":"47","category_name":"住宅区","address":"上海人民北路"},{"poiid":"B2094655D268A0FE429B","title":"上海市松江区市民服务中心","lon":"121.22818","lat":"31.00796","category":"248","category_name":"生活娱乐","address":"上海松江区人民北路73弄1号"},{"poiid":"B2094757D168A4FA429F","title":"中国工商银行(上海市松江支行)","lon":"121.22924503","lat":"31.009720312","category":"150","category_name":"银行","address":"普陀区中山二路201号近人民路(人民北路中山二路)"},{"poiid":"B2094654DB69A5FD409E","title":"好乐迪(中山中路店)","lon":"121.22967","lat":"31.00662","category":"170","category_name":"KTV","address":"松江区中山中路320-338号3楼"},{"poiid":"B2094654DB6DABFE4398","title":"松石苑","lon":"121.22671","lat":"31.008522","category":"47","category_name":"住宅区","address":"人民北路71弄"},{"poiid":"B2094654DB64A1F4469B","title":"集集小镇 松江总店 Jijitown","lon":"121.22828782635","lat":"31.007343374244","category":"68","category_name":"快餐厅","address":"松江区人民北路23号(近中山中路)"},{"poiid":"B209475DD365A0FD4198","title":"麦希国际影城","lon":"121.229153","lat":"31.010424","category":"178","category_name":"电影院","address":"中山中路71号平高世贸4楼"},{"poiid":"B2094654DB6DABFB489A","title":"平高大厦物业管理处","lon":"121.22939","lat":"31.01023","category":"46","category_name":"楼宇","address":"中山二路216号13层"},{"poiid":"B2094757D06AAAF94298","title":"摸错门牛肚王","lon":"121.22795","lat":"31.01233","category":"86","category_name":"火锅店","address":"松江区人民北路110号"},{"poiid":"B2094757D16AA7FE469A","title":"中国移动松江营业厅","lon":"121.22829603","lat":"31.0095763154","category":"150","category_name":"银行","address":"上海松江区人民北路64号"},{"poiid":"B2094757D064A5FD419F","title":"招商银行(松江支行)","lon":"121.227870313","lat":"31.0121534678","category":"150","category_name":"银行","address":"松江区人民北路92-98号(近乐都路)"},{"poiid":"B2094654DB6DABFB469C","title":"草庐大众点心","lon":"121.2283","lat":"31.0105","category":"112","category_name":"糕饼店","address":""},{"poiid":"B2094750D665A6F4479C","title":"芋贵人甜品店(人民北路店)","lon":"121.229","lat":"31.0078","category":"67","category_name":"甜品店","address":"松江区人民北路93号(近中山中路)"},{"poiid":"B2094757D66CA4FD4492","title":"松江区财会培训中心","lon":"121.228091467","lat":"31.0103100665","category":"253","category_name":"校园生活","address":"上海市松江区秀水新路21号"},{"poiid":"B2094757D169A1F5489A","title":"莉莲蛋挞（人民北路店）","lon":"121.228306267","lat":"31.010516071","category":"247","category_name":"餐饮美食","address":"上海松江区人民北路乐都路"},{"poiid":"B2094654DB6DABFB4893","title":"巾帼园(中山二路)","lon":"121.22963","lat":"31.01018","category":"202","category_name":"公园广场","address":""},{"poiid":"B2094655D26BABFC459E","title":"泰晤士小镇商业","lon":"121.2281","lat":"31.01332","category":"252","category_name":"楼宇机构","address":"乐都路339号"},{"poiid":"B2094654DB6DABFB4998","title":"松江区第六中学(中山二路)","lon":"121.23001","lat":"31.01095","category":"55","category_name":"中学","address":"中山二路200号"},{"poiid":"B2094757D66CA7F5479E","title":"人民北路中山中路公交站","lon":"121.230051067","lat":"31.0097828549","category":"38","category_name":"公交车站","address":"上海松江区人民北路中山中路"},{"poiid":"B2094654DB6DABF54692","title":"良友花艺坊","lon":"121.22857","lat":"31.00948","category":"117","category_name":"便民商店/便利店","address":"人民北路40号"},{"poiid":"B2094753D26FA0FD459E","title":"首尔焖鲜汇","lon":"121.22845","lat":"31.010099","category":"500","category_name":"未知分类","address":"上海市 松江乐颂房"},{"poiid":"B2094654DB6AA3F8429C","title":"彩蝶坊 中山中路店","lon":"121.23058271113","lat":"31.007324460136","category":"76","category_name":"上海菜","address":"松江区松江中山中路328号4楼"},{"poiid":"B2094655D36DA7F8459E","title":"中山二路人民北路","lon":"121.22681","lat":"31.00993","category":"38","category_name":"公交车站","address":""},{"poiid":"B2094654DB6DABFE429C","title":"雷哲发型设计","lon":"121.22608","lat":"31.00695","category":"148","category_name":"美容美发店","address":"中山中路546号2层"},{"poiid":"B2094757D66EA0F4439B","title":"醉时尚","lon":"121.229147467","lat":"31.0100970618","category":"249","category_name":"购物服务","address":"上海文翔路江学路"},{"poiid":"B2094654DB64A1F54192","title":"中国农业发展银行松江支行(松江·人民北路)","lon":"121.22829","lat":"31.01056","category":"150","category_name":"银行","address":"人民北路62号"},{"poiid":"B2094655D26FA2F8419D","title":"上海松江余天成医药药材总店龙潭店","lon":"121.23073","lat":"31.00996","category":"162","category_name":"医院","address":"松江区中山二路188号"},{"poiid":"B2094751DA6CA6FC4999","title":"重庆巴将军火锅","lon":"121.2304319","lat":"31.0090302","category":"247","category_name":"餐饮美食","address":"松汇中路568号"},{"poiid":"B2094655D36CA2F94299","title":"人民北路乐都路","lon":"121.22774","lat":"31.01186","category":"38","category_name":"公交车站","address":""},{"poiid":"B2094757D16DAAF4479B","title":"永乐生活电器(松江店)","lon":"121.2282","lat":"31.01115","category":"138","category_name":"家电电子卖场","address":"上海市松江区人民北路招商市场"},{"poiid":"B2094757D66EA3F9449C","title":"CoCo 都可茶饮","lon":"121.228728867","lat":"31.0108586785","category":"500","category_name":"未知分类","address":"上海松江人民北路66号"},{"poiid":"B2094751DA6AA0F44693","title":"星巴克（乐颂坊店）","lon":"121.2306518","lat":"31.0083361","category":"247","category_name":"餐饮美食","address":null},{"poiid":"B2094654DB6DABF44098","title":"龙潭苑北","lon":"121.23069","lat":"31.01127","category":"47","category_name":"住宅区","address":"松江镇"},{"poiid":"B2094757D16EAAF94792","title":"阿三羊蝎子","lon":"121.230524967","lat":"31.0091544411","category":"500","category_name":"未知分类","address":"上海松江人民南路"},{"poiid":"B2094757D164A6F84498","title":"松江六中","lon":"121.23037","lat":"31.01012","category":"253","category_name":"校园生活","address":"松江区中山二路200号"},{"poiid":"B2094655D268A5F9459B","title":"青松石34号公房(北门)","lon":"121.22746","lat":"31.00937","category":"47","category_name":"住宅区","address":"青松石34号"},{"poiid":"B2094654DB6DABFC459D","title":"新紫霞足浴休闲会所","lon":"121.22773","lat":"31.0109","category":"149","category_name":"洗浴推拿场所","address":"人民北路171弄3"},{"poiid":"B2094757D06BA5FC449E","title":"全家便利店(人民北路)","lon":"121.22813415","lat":"31.009284973","category":"500","category_name":"未知分类","address":"松江区人民北路108号(近招商银行)"},{"poiid":"B2094654DB6DABF54792","title":"农工商超市民NO.55","lon":"121.22873","lat":"31.00861","category":"118","category_name":"超级市场","address":"松江镇"},{"poiid":"B2094655D36CA2F9439B","title":"人民北路中山中路","lon":"121.22863","lat":"31.00816","category":"38","category_name":"公交车站","address":""},{"poiid":"B2094757D46EA4F8439B","title":"重庆鸡公煲 中山中路店","lon":"121.226682054","lat":"31.006929793","category":"71","category_name":"四川菜","address":"松江区中山中路596弄6号"},{"poiid":"B2094655D268A5F9459A","title":"青松石34号公房","lon":"121.22747","lat":"31.00919","category":"47","category_name":"住宅区","address":"青松石34号"},{"poiid":"B2094654DB6DABFB4799","title":"中国人寿保险股份有限公司上海市松江支公司","lon":"121.22858","lat":"31.01011","category":"219","category_name":"其他","address":"人民北路46号"},{"poiid":"B2094654DB6DABFB479C","title":"平高大厦","lon":"121.22939","lat":"31.01024","category":"46","category_name":"楼宇","address":"上海市黄浦区南京西路338号"},{"poiid":"B2094757D06AA1F9409D","title":"老盛昌汤包馆(松江店)","lon":"121.228561367","lat":"31.0104561697","category":"68","category_name":"快餐厅","address":"松江区人民北路175号(近中山二路)"},{"poiid":"B2094757D068A3FB499D","title":"85度C(人民北店)","lon":"121.22847","lat":"31.01101","category":"67","category_name":"甜品店","address":"松江区人民北路100号(近招商银行)"},{"poiid":"B2094752D26BABFD4293","title":"樵村鱼浦","lon":"121.230888","lat":"31.007492","category":"247","category_name":"餐饮美食","address":"松江区松汇中路568号B座乐颂坊202室(近谷阳南路)"},{"poiid":"B2094654DB6DABFB4692","title":"草庐酒家","lon":"121.22834","lat":"31.01036","category":"76","category_name":"上海菜","address":"松江区人民北路58号(近乐都路)"},{"poiid":"B2094757D068A5FC4299","title":"肯德基KFC(中山中路店)","lon":"121.229018","lat":"31.006703","category":"68","category_name":"快餐厅","address":"松江区中山中路99号"},{"poiid":"B2094654DB6DAAFE479C","title":"松江区乐都医院","lon":"121.23174","lat":"31.01341","category":"162","category_name":"医院","address":"乐都路279"},{"poiid":"B2094757D66CA2F5489D","title":"人乐小区","lon":"121.22643246","lat":"31.011346089","category":"47","category_name":"住宅区","address":"上海人民北路"},{"poiid":"B2094655D268A0FE429B","title":"上海市松江区市民服务中心","lon":"121.22818","lat":"31.00796","category":"248","category_name":"生活娱乐","address":"上海松江区人民北路73弄1号"},{"poiid":"B2094757D168A4FA429F","title":"中国工商银行(上海市松江支行)","lon":"121.22924503","lat":"31.009720312","category":"150","category_name":"银行","address":"普陀区中山二路201号近人民路(人民北路中山二路)"},{"poiid":"B2094654DB69A5FD409E","title":"好乐迪(中山中路店)","lon":"121.22967","lat":"31.00662","category":"170","category_name":"KTV","address":"松江区中山中路320-338号3楼"},{"poiid":"B2094654DB6DABFE4398","title":"松石苑","lon":"121.22671","lat":"31.008522","category":"47","category_name":"住宅区","address":"人民北路71弄"},{"poiid":"B2094654DB64A1F4469B","title":"集集小镇 松江总店 Jijitown","lon":"121.22828782635","lat":"31.007343374244","category":"68","category_name":"快餐厅","address":"松江区人民北路23号(近中山中路)"},{"poiid":"B209475DD365A0FD4198","title":"麦希国际影城","lon":"121.229153","lat":"31.010424","category":"178","category_name":"电影院","address":"中山中路71号平高世贸4楼"},{"poiid":"B2094654DB6DABFB489A","title":"平高大厦物业管理处","lon":"121.22939","lat":"31.01023","category":"46","category_name":"楼宇","address":"中山二路216号13层"},{"poiid":"B2094757D06AAAF94298","title":"摸错门牛肚王","lon":"121.22795","lat":"31.01233","category":"86","category_name":"火锅店","address":"松江区人民北路110号"},{"poiid":"B2094757D16AA7FE469A","title":"中国移动松江营业厅","lon":"121.22829603","lat":"31.0095763154","category":"150","category_name":"银行","address":"上海松江区人民北路64号"},{"poiid":"B2094757D064A5FD419F","title":"招商银行(松江支行)","lon":"121.227870313","lat":"31.0121534678","category":"150","category_name":"银行","address":"松江区人民北路92-98号(近乐都路)"},{"poiid":"B2094654DB6DABFB469C","title":"草庐大众点心","lon":"121.2283","lat":"31.0105","category":"112","category_name":"糕饼店","address":""},{"poiid":"B2094750D665A6F4479C","title":"芋贵人甜品店(人民北路店)","lon":"121.229","lat":"31.0078","category":"67","category_name":"甜品店","address":"松江区人民北路93号(近中山中路)"},{"poiid":"B2094757D66CA4FD4492","title":"松江区财会培训中心","lon":"121.228091467","lat":"31.0103100665","category":"253","category_name":"校园生活","address":"上海市松江区秀水新路21号"},{"poiid":"B2094757D169A1F5489A","title":"莉莲蛋挞（人民北路店）","lon":"121.228306267","lat":"31.010516071","category":"247","category_name":"餐饮美食","address":"上海松江区人民北路乐都路"},{"poiid":"B2094654DB6DABFB4893","title":"巾帼园(中山二路)","lon":"121.22963","lat":"31.01018","category":"202","category_name":"公园广场","address":""},{"poiid":"B2094655D26BABFC459E","title":"泰晤士小镇商业","lon":"121.2281","lat":"31.01332","category":"252","category_name":"楼宇机构","address":"乐都路339号"},{"poiid":"B2094654DB6DABFB4998","title":"松江区第六中学(中山二路)","lon":"121.23001","lat":"31.01095","category":"55","category_name":"中学","address":"中山二路200号"},{"poiid":"B2094757D66CA7F5479E","title":"人民北路中山中路公交站","lon":"121.230051067","lat":"31.0097828549","category":"38","category_name":"公交车站","address":"上海松江区人民北路中山中路"},{"poiid":"B2094654DB6DABF54692","title":"良友花艺坊","lon":"121.22857","lat":"31.00948","category":"117","category_name":"便民商店/便利店","address":"人民北路40号"},{"poiid":"B2094753D26FA0FD459E","title":"首尔焖鲜汇","lon":"121.22845","lat":"31.010099","category":"500","category_name":"未知分类","address":"上海市 松江乐颂房"},{"poiid":"B2094654DB6AA3F8429C","title":"彩蝶坊 中山中路店","lon":"121.23058271113","lat":"31.007324460136","category":"76","category_name":"上海菜","address":"松江区松江中山中路328号4楼"},{"poiid":"B2094655D36DA7F8459E","title":"中山二路人民北路","lon":"121.22681","lat":"31.00993","category":"38","category_name":"公交车站","address":""},{"poiid":"B2094654DB6DABFE429C","title":"雷哲发型设计","lon":"121.22608","lat":"31.00695","category":"148","category_name":"美容美发店","address":"中山中路546号2层"},{"poiid":"B2094757D66EA0F4439B","title":"醉时尚","lon":"121.229147467","lat":"31.0100970618","category":"249","category_name":"购物服务","address":"上海文翔路江学路"},{"poiid":"B2094654DB64A1F54192","title":"中国农业发展银行松江支行(松江·人民北路)","lon":"121.22829","lat":"31.01056","category":"150","category_name":"银行","address":"人民北路62号"},{"poiid":"B2094655D26FA2F8419D","title":"上海松江余天成医药药材总店龙潭店","lon":"121.23073","lat":"31.00996","category":"162","category_name":"医院","address":"松江区中山二路188号"},{"poiid":"B2094751DA6CA6FC4999","title":"重庆巴将军火锅","lon":"121.2304319","lat":"31.0090302","category":"247","category_name":"餐饮美食","address":"松汇中路568号"},{"poiid":"B2094655D36CA2F94299","title":"人民北路乐都路","lon":"121.22774","lat":"31.01186","category":"38","category_name":"公交车站","address":""},{"poiid":"B2094757D16DAAF4479B","title":"永乐生活电器(松江店)","lon":"121.2282","lat":"31.01115","category":"138","category_name":"家电电子卖场","address":"上海市松江区人民北路招商市场"},{"poiid":"B2094757D66EA3F9449C","title":"CoCo 都可茶饮","lon":"121.228728867","lat":"31.0108586785","category":"500","category_name":"未知分类","address":"上海松江人民北路66号"},{"poiid":"B2094751DA6AA0F44693","title":"星巴克（乐颂坊店）","lon":"121.2306518","lat":"31.0083361","category":"247","category_name":"餐饮美食","address":null},{"poiid":"B2094654DB6DABF44098","title":"龙潭苑北","lon":"121.23069","lat":"31.01127","category":"47","category_name":"住宅区","address":"松江镇"},{"poiid":"B2094757D16EAAF94792","title":"阿三羊蝎子","lon":"121.230524967","lat":"31.0091544411","category":"500","category_name":"未知分类","address":"上海松江人民南路"},{"poiid":"B2094757D164A6F84498","title":"松江六中","lon":"121.23037","lat":"31.01012","category":"253","category_name":"校园生活","address":"松江区中山二路200号"},{"poiid":"B2094655D268A5F9459B","title":"青松石34号公房(北门)","lon":"121.22746","lat":"31.00937","category":"47","category_name":"住宅区","address":"青松石34号"},{"poiid":"B2094654DB6DABFC459D","title":"新紫霞足浴休闲会所","lon":"121.22773","lat":"31.0109","category":"149","category_name":"洗浴推拿场所","address":"人民北路171弄3"},{"poiid":"B2094757D06BA5FC449E","title":"全家便利店(人民北路)","lon":"121.22813415","lat":"31.009284973","category":"500","category_name":"未知分类","address":"松江区人民北路108号(近招商银行)"},{"poiid":"B2094654DB6DABF54792","title":"农工商超市民NO.55","lon":"121.22873","lat":"31.00861","category":"118","category_name":"超级市场","address":"松江镇"},{"poiid":"B2094655D36CA2F9439B","title":"人民北路中山中路","lon":"121.22863","lat":"31.00816","category":"38","category_name":"公交车站","address":""},{"poiid":"B2094757D46EA4F8439B","title":"重庆鸡公煲 中山中路店","lon":"121.226682054","lat":"31.006929793","category":"71","category_name":"四川菜","address":"松江区中山中路596弄6号"},{"poiid":"B2094655D268A5F9459A","title":"青松石34号公房","lon":"121.22747","lat":"31.00919","category":"47","category_name":"住宅区","address":"青松石34号"},{"poiid":"B2094654DB6DABFB4799","title":"中国人寿保险股份有限公司上海市松江支公司","lon":"121.22858","lat":"31.01011","category":"219","category_name":"其他","address":"人民北路46号"}]