[{"poiid":"B2094654DB68A1FA489D","title":"枫泾古镇旅游区","lon":"121.01859","lat":"30.89056","category":"250","category_name":"公园户外","address":"金山区枫泾镇区和中洪村"},{"poiid":"B2094757D06FA3FA429A","title":"G60沪昆高速枫泾服务区","lon":"121.040802","lat":"30.889434814","category":"260","category_name":"其他","address":"上海G60沪昆高速枫泾服务区"},{"poiid":"B2094655D268ABFF459C","title":"枫泾收费站","lon":"121.03628","lat":"30.89162","category":"267","category_name":"收费站","address":""},{"poiid":"B2094757D06FA3FC429E","title":"G60沪昆高速枫泾收费站","lon":"121.04409145","lat":"30.89955336","category":"267","category_name":"收费站","address":"上海G60沪昆高速枫泾收费站"},{"poiid":"B2094757D069A6F44393","title":"新长岭大酒店","lon":"121.013876913","lat":"30.8982504983","category":"76","category_name":"上海菜","address":"上海近郊金山区枫泾镇枫湾路798号"},{"poiid":"B2094757D069AAF54098","title":"唔呶喔哩酒家(生产街店)","lon":"121.01715","lat":"30.88747","category":"76","category_name":"上海菜","address":"近郊金山区枫泾镇生产街65号(枫丽路枫泾新泾路)"},{"poiid":"B2094757D568A4F8499F","title":"G60沪昆高速枫泾收费站","lon":"121.036288","lat":"30.891621","category":"267","category_name":"收费站","address":"中国上海市金山区A8"},{"poiid":"B2094654DB68A1FA499B","title":"上海市金山区中心医院枫泾分院","lon":"121.02247","lat":"30.89181","category":"162","category_name":"医院","address":"近郊金山区白牛路219号(近枫杰路)"},{"poiid":"B2094654DB68A1F9419C","title":"枫泾汽车站","lon":"121.02232","lat":"30.8931","category":"35","category_name":"长途汽车站","address":"新车站路181号"},{"poiid":"B2094757D168A7F94693","title":"古镇印象","lon":"121.016436664","lat":"30.887484951","category":"76","category_name":"上海菜","address":"近郊金山枫泾镇中大街238号"},{"poiid":"B2094655D26FA5FD499E","title":"枫岸华庭","lon":"121.0295","lat":"30.896118","category":"47","category_name":"住宅区","address":"金山区枫泾镇青风路500弄"},{"poiid":"B2094654DB68A1FB479B","title":"(枫泾服务区)五芳斋","lon":"121.03575","lat":"30.89271","category":"257","category_name":"中餐厅","address":""},{"poiid":"B2094654DB64A0F5499A","title":"枫泾服务区(枫泾·万枫西路)","lon":"121.03548","lat":"30.88982","category":"250","category_name":"公园户外","address":""},{"poiid":"B2094654DB68A1FF409B","title":"枫泾站","lon":"121.02947","lat":"30.89247","category":"22","category_name":"火车站","address":"枫阳路1号"},{"poiid":"B2094654DB64A5FD439A","title":"吉利海鲜楼","lon":"121.02653","lat":"30.89246","category":"76","category_name":"上海菜","address":"近郊金山区枫泾枫阳路180号"},{"poiid":"B2094655D264A0F94392","title":"桥英花苑","lon":"121.02461","lat":"30.8943","category":"47","category_name":"住宅区","address":"上海市金山区枫泾镇白牛路338弄30号"},{"poiid":"B2094654DB68A1FA449F","title":"性觉禅寺","lon":"121.0241","lat":"30.89614","category":"244","category_name":"寺庙道观","address":"枫泾镇北"},{"poiid":"B2094654DB68A1FB479F","title":"(枫泾服务区)沪杭高速公路枫泾服务区汽车维修站","lon":"121.03531","lat":"30.89244","category":"159","category_name":"汽车维修","address":""},{"poiid":"B2094757D16AA6FD4092","title":"枫泾中学","lon":"121.02272","lat":"30.88978","category":"55","category_name":"中学","address":"近郊金山区枫泾镇白牛路188号(近枫泾汽车站)"},{"poiid":"B2094654DB68A1FA449D","title":"农兴苑","lon":"121.02611","lat":"30.890118","category":"47","category_name":"住宅区","address":"环城东路100弄"},{"poiid":"B2094655D264A0F5499D","title":"创欣名苑","lon":"121.02644","lat":"30.891483","category":"47","category_name":"住宅区","address":"上海市金山区泾宾路535弄等"},{"poiid":"B2094654DB64A0F54893","title":"枫泾服务区(枫泾·环西一路)","lon":"121.03696","lat":"30.89338","category":"250","category_name":"公园户外","address":"枫泾镇"},{"poiid":"B2094655D36CA4FD4298","title":"白牛新村","lon":"121.025","lat":"30.8913","category":"38","category_name":"公交车站","address":"白牛新村"},{"poiid":"B2094654DB68A1FB489B","title":"(枫泾服务区)风味小吃","lon":"121.03738","lat":"30.89056","category":"68","category_name":"快餐厅","address":""},{"poiid":"B2094654DB68A1FB4899","title":"(枫泾服务区)乡土乡情","lon":"121.03759","lat":"30.89067","category":"257","category_name":"中餐厅","address":""},{"poiid":"B2094654DB68A1F9419E","title":"川府火锅","lon":"121.02265","lat":"30.89314","category":"86","category_name":"火锅店","address":"近郊金山区枫阳路155号(近白牛路)"},{"poiid":"B2094654DB68A1FB489A","title":"(枫泾服务区)江南水乡","lon":"121.03733","lat":"30.89053","category":"117","category_name":"便民商店/便利店","address":""},{"poiid":"B2094655D26BA3F5419C","title":"好又多(枫泾店)","lon":"121.02366","lat":"30.89329","category":"118","category_name":"超级市场","address":""},{"poiid":"B2094757D569A1F8479E","title":"G60枫泾服务区","lon":"121.036955","lat":"30.893238","category":"251","category_name":"出行住宿","address":"中国上海市金山区A8"},{"poiid":"B209475CD365A7FF4392","title":"肯德基 枫泾店","lon":"121.0234","lat":"30.89294","category":"68","category_name":"快餐厅","address":"枫泾镇白牛路280号(枫阳路口)"},{"poiid":"B2094654DB68A1FB489C","title":"(枫泾服务区)土菜馆","lon":"121.03855","lat":"30.89219","category":"257","category_name":"中餐厅","address":""},{"poiid":"B2094654DB68A1F94193","title":"百乐酒店","lon":"121.02369","lat":"30.89293","category":"257","category_name":"中餐厅","address":"枫泾镇"},{"poiid":"B2094654DB68A1FA499A","title":"快客No.6629","lon":"121.02253","lat":"30.89196","category":"117","category_name":"便民商店/便利店","address":"白牛路255"},{"poiid":"B2094757D468A4F94492","title":"引宝农家饭店","lon":"121.0198385","lat":"30.8913565","category":"87","category_name":"特色／地方风味餐厅","address":"近郊金山区枫泾镇北大街"},{"poiid":"B2094654DB68A1FA4999","title":"白牛小区","lon":"121.02102","lat":"30.88918","category":"47","category_name":"住宅区","address":""},{"poiid":"B2094757D66CA3FB4798","title":"长廊饭店","lon":"121.01947115","lat":"30.8872914761","category":"247","category_name":"餐饮美食","address":"近郊金山区枫泾镇生产街54号(小桥流水古街)"},{"poiid":"B2094654DB68A1F84893","title":"枫阳新村","lon":"121.01883","lat":"30.89371","category":"47","category_name":"住宅区","address":"上海市金山区枫泾镇"},{"poiid":"B2094654DB68A1F9429D","title":"上海金山众仁护理院","lon":"121.02246","lat":"30.89386","category":"265","category_name":"知名企业","address":"金山区枫泾镇枫阳路258号"},{"poiid":"B2094654DB68A1FB4193","title":"白牛二村","lon":"121.02132","lat":"30.8887","category":"47","category_name":"住宅区","address":"枫阳路242弄"},{"poiid":"B2094655D36CA6F84293","title":"枫泾牌楼","lon":"121.01543","lat":"30.88391","category":"38","category_name":"公交车站","address":""},{"poiid":"B2094757D16CAAF44299","title":"金皇朝大酒店","lon":"121.014549","lat":"30.891193","category":"217","category_name":"旅馆招待所","address":"近郊金山区枫泾镇泾波路128号"},{"poiid":"B2094654DB68A1FE489B","title":"上海华普汽车有限公司","lon":"121.04297","lat":"30.89405","category":"263","category_name":"公司","address":""},{"poiid":"B2094654DB68A1FA4492","title":"皇驾咖啡","lon":"121.02036","lat":"30.89323","category":"65","category_name":"咖啡厅","address":"北大街617"},{"poiid":"B2094654DB68A1FE489D","title":"枫泾小学","lon":"121.01874","lat":"30.89066","category":"56","category_name":"小学","address":""},{"poiid":"B2094757D168A3FE479B","title":"人民公社旧址","lon":"121.017094","lat":"30.887033","category":"500","category_name":"未知分类","address":"上海枫泾古镇"},{"poiid":"B2094757D66CABFE4192","title":"延安东路中山东一路","lon":"121.02117015","lat":"30.8911904665","category":"500","category_name":"未知分类","address":"上海延安东路58号"},{"poiid":"B2094654DB68A1F8499C","title":"尚典咖啡","lon":"121.01963","lat":"30.89381","category":"65","category_name":"咖啡厅","address":"枫泾镇"},{"poiid":"B2094757D168A3FD4399","title":"阿六烧卖店","lon":"121.01745745","lat":"30.8819679528","category":"257","category_name":"中餐厅","address":"上海近郊金山区枫泾镇文中路52号  "},{"poiid":"B2094654DB68A1FA4493","title":"金中中学","lon":"121.01834","lat":"30.89181","category":"55","category_name":"中学","address":""},{"poiid":"B2094654DB68A1FE499C","title":"枫溪公园","lon":"121.01783","lat":"30.88629","category":"196","category_name":"公园","address":"近郊金山区枫泾镇新枫路45号(枫丽路新枫路)"},{"poiid":"B2094655D264A4FA439E","title":"枫泾烧麦店","lon":"121.0171","lat":"30.88704","category":"257","category_name":"中餐厅","address":"枫泾古镇枫溪长廊1号"},{"poiid":"B2094655D26FA3F54598","title":"施王庙","lon":"121.01753","lat":"30.89027","category":"244","category_name":"寺庙道观","address":"近郊金山区枫泾镇北大街409号"},{"poiid":"B2094654DB68A1FA429C","title":"枫泾状元糕","lon":"121.01596","lat":"30.88634","category":"112","category_name":"糕饼店","address":"近郊金山枫泾镇芙蓉村5幢502号"},{"poiid":"B2094654DB68A1FF4993","title":"迪卡咖啡","lon":"121.01445","lat":"30.89161","category":"65","category_name":"咖啡厅","address":"枫泾镇"},{"poiid":"B2094654DB64A0F5469F","title":"中国移动枫泾营业厅","lon":"121.01724","lat":"30.88701","category":"151","category_name":"电讯营业厅","address":"枫泾镇新泾路92号"},{"poiid":"B2094655D36DA3F9489D","title":"秋泾桥","lon":"121.03161","lat":"30.87895","category":"250","category_name":"公园户外","address":""},{"poiid":"B2094654DB68A1FF4493","title":"凯乐(枫泾·新泾路)","lon":"121.01753","lat":"30.88687","category":"112","category_name":"糕饼店","address":"近郊金山区枫泾镇新泾路68号"},{"poiid":"B2094654DB68A1FF4492","title":"五芳斋嘉兴粽子","lon":"121.01761","lat":"30.88684","category":"257","category_name":"中餐厅","address":""},{"poiid":"B2094654DB68A1FA4992","title":"重庆烧鸡公(枫丽路)","lon":"121.01727","lat":"30.88717","category":"71","category_name":"四川菜","address":""},{"poiid":"B2094757D569A1FF449D","title":"金山谷国际社区","lon":"121.0183528","lat":"30.88543194","category":"47","category_name":"住宅区","address":"钟村飞鹅岭(金山大道祈福新村附近)"},{"poiid":"B2094655D36DA0FE439D","title":"新泾路","lon":"121.01786","lat":"30.88458","category":"38","category_name":"公交车站","address":""},{"poiid":"B2094654DB68A1FF429F","title":"乐平熟食专卖店","lon":"121.01739","lat":"30.8865","category":"247","category_name":"餐饮美食","address":""},{"poiid":"B2094655D26EA1FC469F","title":"施王庙(东南门)","lon":"121.01789","lat":"30.8901","category":"679","category_name":"楼宇机构","address":"北大街393"},{"poiid":"B2094654DB68A1FA4092","title":"枫泾天纯小吃世界","lon":"121.01473","lat":"30.88802","category":"257","category_name":"中餐厅","address":"近郊金山区新泾路207号(近联华超市)"},{"poiid":"B2094757D169A6FC469D","title":"清风阁茶楼","lon":"121.01669245","lat":"30.8886461075","category":"260","category_name":"其他","address":"近郊金山区枫泾三桥附近(近清风桥)"},{"poiid":"B209475CD668A1FF409F","title":"枫泾古镇","lon":"121.017333","lat":"30.888137","category":"500","category_name":"未知分类","address":"上海市 金山区"},{"poiid":"B2094654DB68A1FA4499","title":"云枫苑","lon":"121.01559","lat":"30.89598","category":"47","category_name":"住宅区","address":"上海市金山区枫泾镇泾波路376弄"},{"poiid":"B2094654DB64A0F5469B","title":"工商行政管理(枫泾·新泾路)","lon":"121.01745","lat":"30.88691","category":"250","category_name":"公园户外","address":""},{"poiid":"B2094654DB68A1FA4592","title":"新华书店(枫溪公园西北)","lon":"121.01699","lat":"30.88737","category":"125","category_name":"书店","address":""},{"poiid":"B2094654DB68A1FB4098","title":"朱学范生平陈列馆","lon":"121.01521","lat":"30.88823","category":"183","category_name":"展览馆","address":""},{"poiid":"B2094654DB68A1FF469A","title":"锅仔王","lon":"121.01573","lat":"30.8879","category":"257","category_name":"中餐厅","address":""},{"poiid":"B2094654DB68A1FA4698","title":"上海市金山区枫泾镇中心幼儿园","lon":"121.01637","lat":"30.88577","category":"57","category_name":"幼儿园","address":"近郊金山区枫泾镇枫溪路64号(枫丽路新枫路)"},{"poiid":"B2094654DB68A1F84493","title":"老庙小笼(泾波路)","lon":"121.0155","lat":"30.89431","category":"257","category_name":"中餐厅","address":"商城路146号"},{"poiid":"B2094654DB68A1FA429A","title":"来伊份NO.267","lon":"121.01602","lat":"30.88726","category":"117","category_name":"便民商店/便利店","address":""},{"poiid":"B2094655D36DA0FA409A","title":"野朱泾","lon":"121.03578","lat":"30.87635","category":"38","category_name":"公交车站","address":""},{"poiid":"B2094757D66FA2F94298","title":"新枫路150号税务所","lon":"121.01645845","lat":"30.89178518","category":"500","category_name":"未知分类","address":"上海市金山区225 Provincial Rd"},{"poiid":"B2094655D36DA1FA4398","title":"东方国贸批发城","lon":"121.01526","lat":"30.88821","category":"47","category_name":"住宅区","address":"沪太路3999号92幢"},{"poiid":"B2094654DB68A1FF4099","title":"梅园酒家","lon":"121.01542","lat":"30.88528","category":"257","category_name":"中餐厅","address":""},{"poiid":"B2094757D66CAAF8419E","title":"五芳斋枫泾店","lon":"121.01712045","lat":"30.8867499636","category":"500","category_name":"未知分类","address":"上海新泾路64号"},{"poiid":"B2094654DB68A1FA4099","title":"枫泾商品交易市场","lon":"121.01415","lat":"30.88824","category":"120","category_name":"小商品市场","address":""},{"poiid":"B2094654DB68A1FF429A","title":"中国工商银行上海市枫泾支行","lon":"121.01704","lat":"30.88667","category":"150","category_name":"银行","address":"近郊枫泾镇新泾路95号近枫丽路(枫思路枫泾新泾路)"},{"poiid":"B2094655D36CA6F8439A","title":"枫泾牌楼(下客站)","lon":"121.01567","lat":"30.88407","category":"38","category_name":"公交车站","address":""},{"poiid":"B2094654DB68A1FF4999","title":"庄源春药房","lon":"121.01404","lat":"30.89052","category":"162","category_name":"医院","address":""},{"poiid":"B2094654DB69A7F94998","title":"金山枫泾税务所","lon":"121.01429","lat":"30.88594","category":"250","category_name":"公园户外","address":"金山区枫泾镇新枫路62号"},{"poiid":"B2094654DB68A1F8419C","title":"枫泾便利店","lon":"121.01478","lat":"30.89247","category":"117","category_name":"便民商店/便利店","address":""},{"poiid":"B2094654DB68A1FF4792","title":"新泾路小吃店","lon":"121.0141","lat":"30.88864","category":"68","category_name":"快餐厅","address":""},{"poiid":"B2094654DB68A1FA439F","title":"齐心阁川味馆","lon":"121.01492","lat":"30.88514","category":"71","category_name":"四川菜","address":"枫泾镇"},{"poiid":"B2094654DB68A1F9479F","title":"鎏园商业城","lon":"121.01232","lat":"30.88893","category":"248","category_name":"生活娱乐","address":"金山区枫泾镇新迳路300号"},{"poiid":"B2094654DB68A1FA469F","title":"上海汉钟精机股份有限公司","lon":"121.03179","lat":"30.87762","category":"263","category_name":"公司","address":"金山区亭枫公路8289号"},{"poiid":"B2094654DB68A1F9499D","title":"品客休闲小站","lon":"121.0133","lat":"30.88858","category":"111","category_name":"休闲餐饮场所","address":"枫泾镇"},{"poiid":"B2094654DB68A1FF489D","title":"小商品市场(泾波路)","lon":"121.01342","lat":"30.88903","category":"120","category_name":"小商品市场","address":""},{"poiid":"B2094654DB68A1FA489C","title":"上海市地方税务局金山区分局第四税务所","lon":"121.01437","lat":"30.88609","category":"250","category_name":"公园户外","address":"新枫路64"},{"poiid":"B2094654DB68A1FA419C","title":"枫泾镇社区文化活动中心","lon":"121.01564","lat":"30.88725","category":"248","category_name":"生活娱乐","address":""},{"poiid":"B2094757D16AA2F84793","title":"三百园","lon":"121.01714","lat":"30.88727","category":"260","category_name":"其他","address":"近郊金山区枫泾镇和平街49号(枫丽路枫泾新泾路)"},{"poiid":"B2094654DB68A1FA439D","title":"枫泾古镇旅游售票处","lon":"121.01492","lat":"30.88496","category":"33","category_name":"公园景点售票处","address":"枫丽路95"},{"poiid":"B2094654DB68A1F94893","title":"新华芳酒楼","lon":"121.01293","lat":"30.88871","category":"70","category_name":"综合酒楼","address":"新泾路291号"},{"poiid":"B2094757DA6EA0F54292","title":"佳华南杂店","lon":"121.015963999998","lat":"30.8870179999998","category":"249","category_name":"购物服务","address":"金山区南大街75号"},{"poiid":"B2094654DB68A1F94892","title":"苏州羊肉店(枫泾·新泾路)","lon":"121.0129","lat":"30.88872","category":"257","category_name":"中餐厅","address":""},{"poiid":"B2094655D36CA0F4489A","title":"环枫东路","lon":"121.04593","lat":"30.87902","category":"38","category_name":"公交车站","address":""},{"poiid":"B2094655D36DA0F94993","title":"野米泾","lon":"121.03815","lat":"30.87391","category":"38","category_name":"公交车站","address":""},{"poiid":"B2094654DB65A6F8429E","title":"上海金山农民画村乡村高尔夫球场","lon":"121.01293","lat":"30.88981","category":"206","category_name":"高尔夫相关","address":"金山区枫泾镇农民画村"},{"poiid":"B2094654DB68A1FE4898","title":"方大科技园","lon":"121.05041","lat":"30.89411","category":"45","category_name":"产业园区","address":""},{"poiid":"B2094654DB68A1FE4398","title":"上海枫围服装辅料有限公司","lon":"121.03432","lat":"30.87702","category":"263","category_name":"公司","address":""},{"poiid":"B2094654DB68A1FE4892","title":"枫泾派出所","lon":"121.01455","lat":"30.88593","category":"609","category_name":"警察局","address":"金山区新枫路30号"},{"poiid":"B2094757D66FA7F84499","title":"金山朱泾镇社区文化中心","lon":"121.01467745","lat":"30.8865860598","category":"500","category_name":"未知分类","address":"上海人民路360号"},{"poiid":"B2094654DB68A1FB4699","title":"枫泾派出所户口受理室","lon":"121.01455","lat":"30.88593","category":"248","category_name":"生活娱乐","address":""},{"poiid":"B2094655D26BA2FE419B","title":"网埭港(南)","lon":"121.03607","lat":"30.87147","category":"38","category_name":"公交车站","address":""},{"poiid":"B2094757DA6FA3FB4098","title":"纤寻造型","lon":"121.014435000002","lat":"30.8863050000002","category":"248","category_name":"生活娱乐","address":"金山区枫泾镇中大街269号"},{"poiid":"B2094752D06EA5FC4492","title":"性觉寺","lon":"121.019501","lat":"30.901075","category":"627","category_name":"一般地点标志","address":"枫湾路白牛路"}]