[{"poiid":"B2094757D068A1F44793","title":"松江平高世贸中心","lon":"121.23529618071325","lat":"31.00663743923123","category":"119","category_name":"商场","address":"松江中山中路71号"},{"poiid":"B2094654DB64A6FE4999","title":"避风塘松江店","lon":"121.23462","lat":"31.00723","category":"66","category_name":"茶艺馆","address":"松江区中山中路150号2、3楼"},{"poiid":"B2094757D06BA5FB4499","title":"小南国(松江店)","lon":"121.236183219","lat":"31.0092310628","category":"500","category_name":"未知分类","address":"上海市松江区松江长桥街平高"},{"poiid":"B2094654DB6EA3F54292","title":"樟馨家园","lon":"121.23857","lat":"31.011311","category":"47","category_name":"住宅区","address":"上海市松江区松乐路88弄"},{"poiid":"B2094757D069AAFA4098","title":"健康煮 中山中路店","lon":"121.2317063","lat":"31.0066983","category":"86","category_name":"火锅店","address":"松江区中山中路73号平高国际世贸中心4楼"},{"poiid":"B2094655D264A2F54698","title":"月夏香樟林","lon":"121.23857","lat":"31.01131","category":"47","category_name":"住宅区","address":"上海市松江区松乐路88弄"},{"poiid":"B2094750DA6EA2FC449F","title":"炫音KTV上海平高店","lon":"121.235061","lat":"31.008541","category":"500","category_name":"未知分类","address":"松江区中山中路71号平高世贸中心4楼A号座(近沃尔玛购物广场)"},{"poiid":"B2094757D66FA6FE439B","title":"DQ&lt;松江平高店&gt;","lon":"121.235201467","lat":"31.0084459256","category":"113","category_name":"冷饮店","address":"上海松江平高贸易中心"},{"poiid":"B2094757D069A4FD4092","title":"凤凰小区","lon":"121.23508","lat":"31.012119","category":"47","category_name":"住宅区","address":"上海松江区谷阳北路"},{"poiid":"B2094757D464A0F9499C","title":"鲁山人","lon":"121.23868008277","lat":"31.007122656877","category":"95","category_name":"日本料理","address":"松江区普照路71号(中山东路中山中路)"},{"poiid":"B2094757D165AAFF4693","title":"乐都路","lon":"121.23887486","lat":"31.013645639","category":"500","category_name":"未知分类","address":"上海乐都路"},{"poiid":"B2094654DB69A6FC4899","title":"月夏新天地","lon":"121.23793","lat":"31.01029","category":"47","category_name":"住宅区","address":"松江区松乐路128号"},{"poiid":"B2094654DB6EA3F54293","title":"良友金伴(樟馨家园东)","lon":"121.23915","lat":"31.01027","category":"117","category_name":"便民商店/便利店","address":"松乐路60"},{"poiid":"B2094655D268A2F4439E","title":"菜花泾绿地","lon":"121.23661","lat":"31.01033","category":"196","category_name":"公园","address":""},{"poiid":"B2094750D56DA3FB4793","title":"小杨生煎松江店","lon":"121.234092","lat":"31.008314","category":"247","category_name":"餐饮美食","address":null},{"poiid":"B2094655D26FABF5499F","title":"小忠羊肉庄","lon":"121.23796","lat":"31.01413","category":"86","category_name":"火锅店","address":"松江区乐都路102弄13号"},{"poiid":"B2094753D36EA1F44592","title":"首尔焖鲜汇(乐颂坊店)","lon":"121.239766","lat":"31.006933","category":"86","category_name":"火锅店","address":"松汇中路568号乐颂坊B座303单元(近普照路)"},{"poiid":"B2094655D268A6F9469A","title":"烤友社","lon":"121.236150054","lat":"31.007009793","category":"96","category_name":"韩国料理","address":"松江区谷阳南路52号(近中山中路)"},{"poiid":"B2094750D56EA4FF429F","title":"精悦蓉香锅牛蛙","lon":"121.235794","lat":"31.006372","category":"247","category_name":"餐饮美食","address":null},{"poiid":"B2094654DB6EA3F54593","title":"上海市松江区机关幼儿园","lon":"121.23872","lat":"31.00952","category":"57","category_name":"幼儿园","address":"景德路40"},{"poiid":"B2094757D66BA5FE4492","title":"元祖 中山中路店 Ganso","lon":"121.236446054","lat":"31.008000793","category":"67","category_name":"甜品店","address":"松江区中山中路99号肯德基附近"},{"poiid":"B2094654DB6EA3F54099","title":"谷北小区","lon":"121.23733","lat":"31.012812","category":"47","category_name":"住宅区","address":"谷阳北路98号"},{"poiid":"B2094655D36DA7F84599","title":"中山二路谷阳北路","lon":"121.23492","lat":"31.01008","category":"38","category_name":"公交车站","address":""},{"poiid":"B2094655D36CA7F54999","title":"谷阳北路中山二路","lon":"121.23629","lat":"31.00971","category":"38","category_name":"公交车站","address":""},{"poiid":"B2094654DB6EA3F54093","title":"福建沙县特色小吃(谷阳北路)","lon":"121.23649","lat":"31.01133","category":"68","category_name":"快餐厅","address":""},{"poiid":"B2094654DB6DAAFF479E","title":"康惠饮食店","lon":"121.23609","lat":"31.00981","category":"68","category_name":"快餐厅","address":"松江区谷阳北路155号(近中山二路)"},{"poiid":"B2094757D168A7FE499E","title":"味千拉面(平高世贸店)","lon":"121.23533046","lat":"31.006783989","category":"247","category_name":"餐饮美食","address":"松江区上海平高世贸中心B1"},{"poiid":"B2094654DB6EA2FC429F","title":"松荣 松江店","lon":"121.23871060014","lat":"31.006320293222","category":"95","category_name":"日本料理","address":"松江区普照路81号(中山东路中山中路)"},{"poiid":"B2094655D36CA1F4419C","title":"乐都路","lon":"121.23626","lat":"31.01238","category":"38","category_name":"公交车站","address":""},{"poiid":"B2094654DB6DABF44998","title":"好德NO.447","lon":"121.23596","lat":"31.00989","category":"117","category_name":"便民商店/便利店","address":"谷阳北路169号"},{"poiid":"B2094654DB6EA3F5419F","title":"岳阳派出所","lon":"121.23651","lat":"31.01086","category":"609","category_name":"警察局","address":"谷阳北路42号"},{"poiid":"B2094751D56CA0FF4992","title":"竹筷子农家菜(乐都路店)","lon":"121.24085","lat":"31.01372","category":"87","category_name":"特色／地方风味餐厅","address":"松江区乐都路9弄(近袜子弄)"},{"poiid":"B2094757D168A3FC4299","title":"松临日本料理·铁板烧","lon":"121.239858467","lat":"31.0066479861","category":"247","category_name":"餐饮美食","address":"上海松江中山中路77号平高世贸中心7F"},{"poiid":"B2094655D26FAAFD409E","title":"快客(乐都路)","lon":"121.23764","lat":"31.01321","category":"117","category_name":"便民商店/便利店","address":"乐都路143弄9"},{"poiid":"B2094654DB6EA3F4439F","title":"阿平形象公社·松江店","lon":"121.23788","lat":"31.01391","category":"148","category_name":"美容美发店","address":""},{"poiid":"B2094655D36CA1F84092","title":"龙潭苑","lon":"121.239","lat":"31.0157","category":"38","category_name":"公交车站","address":"中山二路182弄"},{"poiid":"B2094655D26FABFB479C","title":"快客No.5233","lon":"121.24032","lat":"31.01315","category":"117","category_name":"便民商店/便利店","address":""},{"poiid":"B2094654DB6EA2FC4899","title":"松江剧场","lon":"121.2387","lat":"31.00584","category":"180","category_name":"剧场","address":"松江区中山中路37号"},{"poiid":"B2094757D16CA7F9489D","title":"松江区政府第二行政中心","lon":"121.23971557","lat":"31.007217407","category":"500","category_name":"未知分类","address":"上海中山中路38号"},{"poiid":"B2094655D268A5F94799","title":"菜花泾25弄小区(西门)","lon":"121.24052","lat":"31.01268","category":"47","category_name":"住宅区","address":"菜花泾25弄"},{"poiid":"B2094655D268A5F94798","title":"菜花泾25弄小区","lon":"121.2409","lat":"31.01264","category":"47","category_name":"住宅区","address":"菜花泾25弄"},{"poiid":"B2094654DB6DAAFC4993","title":"克莉丝汀 中山中路店","lon":"121.23703","lat":"31.00706","category":"112","category_name":"糕饼店","address":"松江区中山中路88号(谷阳北路谷阳南路)"},{"poiid":"B2094655D268A7FA4499","title":"黑鱼弄小区(东大门)","lon":"121.23586","lat":"31.00946","category":"47","category_name":"住宅区","address":""},{"poiid":"B2094757D16AA0F4479A","title":"黑鱼弄小区","lon":"121.23428","lat":"31.009602","category":"47","category_name":"住宅区","address":"上海松江区中山二路51弄"},{"poiid":"B2094655D26FA3FF4693","title":"巴比馒头(乐都路店)","lon":"121.23781","lat":"31.01352","category":"87","category_name":"特色／地方风味餐厅","address":"松江区乐都路127号"},{"poiid":"B2094654DB6EA3F4499D","title":"张泽羊肉庄(乐都路)","lon":"121.23781","lat":"31.01353","category":"257","category_name":"中餐厅","address":"乐都路127号"},{"poiid":"B2094757D164A7F44993","title":"海宁煲","lon":"121.23768646","lat":"31.009173041","category":"500","category_name":"未知分类","address":"上海市松江区松江中山中路庙前街"},{"poiid":"B2094655D26FAAFC4893","title":"樟馨家园(南门)","lon":"121.23862","lat":"31.01027","category":"656","category_name":"大门","address":"松乐路88弄"},{"poiid":"B2094757D16BA1FA419F","title":"霞逸桌球风暴","lon":"121.240913","lat":"31.010432","category":"171","category_name":"台球厅","address":"上海松江区松汇路鹿都国际购物广场4楼"},{"poiid":"B2094757D66FA0F94898","title":"荣景苑","lon":"121.241","lat":"31.0103","category":"252","category_name":"楼宇机构","address":"上海松江松汇西路"},{"poiid":"B2094655D268A6F9489C","title":"北内路绿地","lon":"121.24162","lat":"31.01296","category":"196","category_name":"公园","address":""},{"poiid":"B2094654DB64A0FC4498","title":"好德","lon":"121.23767","lat":"31.0139","category":"117","category_name":"便民商店/便利店","address":"乐都路126"},{"poiid":"B209475CD76FA1F5429D","title":"麦希国际影城","lon":"121.235984","lat":"31.00679","category":"178","category_name":"电影院","address":"上海市 松江区中山中路"},{"poiid":"B2094757D165A0F4449C","title":"爱茜茜里","lon":"121.23869956","lat":"31.006904091","category":"247","category_name":"餐饮美食","address":"上海松江沃尔玛店"},{"poiid":"B2094654DB6DAAFC499F","title":"上海第一百货松江店","lon":"121.23544","lat":"31.00699","category":"119","category_name":"商场","address":"松江区松江新城区中山中路98-116号"},{"poiid":"B2094757D16AA6FD4598","title":"藤家鯛鱼烧","lon":"121.23816246","lat":"31.00773801","category":"247","category_name":"餐饮美食","address":"上海松江区平高世贸中心B1楼"},{"poiid":"B2094757D66DA6FD439C","title":"三湘四季幼儿园","lon":"121.23613039","lat":"31.010905804","category":"253","category_name":"校园生活","address":"上海松江区广富林路1599弄19号"},{"poiid":"B2094750D26DA4FE429A","title":"小南国 松江城中店","lon":"121.234938","lat":"31.006993","category":"76","category_name":"上海菜","address":"松江区中山中路77号平高世贸中心6、8楼"},{"poiid":"B2094757D16BA3FE4193","title":"喵","lon":"121.240541467","lat":"31.0125531157","category":"500","category_name":"未知分类","address":"上海我爱猫咪"},{"poiid":"B2094655D26FA4FB4299","title":"凤凰新村西苑(南门)","lon":"121.23461","lat":"31.01019","category":"47","category_name":"住宅区","address":"中山二路86"},{"poiid":"B2094655D264A1F44392","title":"松江第二办公中心","lon":"121.23925","lat":"31.00712","category":"46","category_name":"楼宇","address":"中山中路38号"},{"poiid":"B209475CD46DA5F5409A","title":"佘山国家度假区","lon":"121.235572","lat":"31.011156","category":"500","category_name":"未知分类","address":"上海市 上海市松江区佘山镇"},{"poiid":"B2094654DB6DABF4459A","title":"凤凰新村西苑(中山二路)","lon":"121.2343","lat":"31.01102","category":"47","category_name":"住宅区","address":"中山二路86"},{"poiid":"B2094757D168A0F54099","title":"月夏407","lon":"121.237514","lat":"31.010418","category":"260","category_name":"其他","address":"上海松乐路"},{"poiid":"B2094757D66CAAFB419D","title":"Michelle 's home","lon":"121.23602908","lat":"31.010868418","category":"500","category_name":"未知分类","address":null},{"poiid":"B2094757D164ABF9439A","title":"艾尼国际时尚养生会所","lon":"121.238309067","lat":"31.0077102094","category":"500","category_name":"未知分类","address":"上海市松江区谷阳北路"},{"poiid":"B2094654DB6EA3F5469E","title":"东茸花店(谷阳北路)","lon":"121.23657","lat":"31.00835","category":"117","category_name":"便民商店/便利店","address":""},{"poiid":"B2094655D264A4FC409C","title":"独一处","lon":"121.23586","lat":"31.00704","category":"96","category_name":"韩国料理","address":"上海近郊松江区中山中路98号第一百货附近(近薇薇新娘)  "},{"poiid":"B2094655D26FABF54999","title":"乐都路118弄小区(南门)","lon":"121.2378","lat":"31.01391","category":"47","category_name":"住宅区","address":"乐都路118弄"},{"poiid":"B2094655D36CA7F5499A","title":"谷阳南路","lon":"121.23647","lat":"31.00747","category":"38","category_name":"公交车站","address":""},{"poiid":"B2094757D66DA1FE449A","title":"中山街邮政所","lon":"121.2361","lat":"31.00986","category":"500","category_name":"未知分类","address":"上海松江区谷阳北路155号"},{"poiid":"B2094752D46AA2F8489A","title":"中国农业银行松江支行营业室","lon":"121.235618","lat":"31.013012","category":"150","category_name":"银行","address":"上海市松江区人民北路2-8号"},{"poiid":"B2094655D26FABF54098","title":"松江宾馆商务楼","lon":"121.24143","lat":"31.0072","category":"46","category_name":"楼宇","address":""},{"poiid":"B2094655D36CA6FE4898","title":"妇保医院","lon":"121.23468","lat":"31.01365","category":"162","category_name":"医院","address":""},{"poiid":"B2094654DB6EA3F4439E","title":"乐都路118弄小区","lon":"121.2378","lat":"31.0143","category":"47","category_name":"住宅区","address":"乐都路118弄"},{"poiid":"B2094655D26FAAFC4892","title":"通波小区(南门)","lon":"121.23829","lat":"31.01469","category":"47","category_name":"住宅区","address":""},{"poiid":"B2094757D064A4FC4899","title":"Fulltown'coffee","lon":"121.23690346","lat":"31.006958993","category":"65","category_name":"咖啡厅","address":"上海市松江区平高世茂B1层"},{"poiid":"B2094757D16DA6FA449F","title":"民生银行(松江支行)","lon":"121.235957","lat":"31.014068","category":"150","category_name":"银行","address":"上海市松江区谷阳北路277号"},{"poiid":"B2094757D069A2FF489D","title":"乐都路汽车站","lon":"121.23444","lat":"31.01368","category":"35","category_name":"长途汽车站","address":"上海近郊松江区乐都路210号(近松江体育馆)  "},{"poiid":"B2094757D66EA3FB429D","title":"全家便利店(松江世贸平高店)","lon":"121.238662467","lat":"31.0077480103","category":"500","category_name":"未知分类","address":"上海松江区中山中路平高世贸中心1楼"},{"poiid":"B2094757D66DA7F8449A","title":"來伊份(松江樂都路店)","lon":"121.238992467","lat":"31.0136191391","category":"500","category_name":"未知分类","address":"上海樂都路 谷陽路口"},{"poiid":"B2094655D268A1FE479B","title":"馨与歆足浴乐都分部","lon":"121.23869","lat":"31.01396","category":"149","category_name":"洗浴推拿场所","address":""},{"poiid":"B2094655D36CA7FE459A","title":"沪松公路","lon":"121.24245","lat":"31.01373","category":"38","category_name":"公交车站","address":""},{"poiid":"B2094654DB6EA2FC4092","title":"好德(普照路)","lon":"121.23999","lat":"31.00667","category":"117","category_name":"便民商店/便利店","address":"普照路112-114"},{"poiid":"B2094757D66DA7FB4698","title":"彌敦道","lon":"121.23583846","lat":"31.01275712","category":"500","category_name":"未知分类","address":"香港彌敦道"},{"poiid":"B2094655D26BA1FC419C","title":"普照路","lon":"121.23982","lat":"31.00617","category":"38","category_name":"公交车站","address":""},{"poiid":"B2094757D169A4F94093","title":"斗牛士(松江店)","lon":"121.23460846","lat":"31.011771098","category":"500","category_name":"未知分类","address":"上海近郊松江区中山中路265号-283号3楼  "},{"poiid":"B2094655D268A6F9469B","title":"老田坊","lon":"121.23683","lat":"31.00628","category":"257","category_name":"中餐厅","address":""},{"poiid":"B2094757D16FA5F94299","title":"美嘉动漫乐园","lon":"121.236419467","lat":"31.0074435036","category":"500","category_name":"未知分类","address":"上海松江平高大厦"},{"poiid":"B2094757D168A2FF4593","title":"松江宾馆国泰君安","lon":"121.240320467","lat":"31.0078910134","category":"217","category_name":"旅馆招待所","address":"上海市松江区松江中山二路"},{"poiid":"B2094655D26EA4FC4692","title":"雅玛海鲜城","lon":"121.24161","lat":"31.00719","category":"88","category_name":"海鲜酒楼","address":"松江区中山东路298号3楼(近白云路)"},{"poiid":"B2094655D268A6FA469A","title":"松江二中游泳馆","lon":"121.24337","lat":"31.00927","category":"231","category_name":"游泳馆","address":"松江区中山东路250号松江二中"},{"poiid":"B2094757D06BA1FE469B","title":"松江公安分局","lon":"121.242585","lat":"31.007785","category":"500","category_name":"未知分类","address":"上海松江·中山东路290号"},{"poiid":"B2094654DB6EA3F5469C","title":"上海松江区欧洋培训学校(谷阳北路)","lon":"121.23668","lat":"31.00769","category":"190","category_name":"培训机构","address":""},{"poiid":"B2094654DB6DAAFC4899","title":"人民电影院","lon":"121.2351","lat":"31.00721","category":"178","category_name":"电影院","address":"中山中路150号3F"},{"poiid":"B2094757D16AA3FC4392","title":"哈里欧咖啡 松江店 Hecto Coffee","lon":"121.24080009389","lat":"31.013781300341","category":"260","category_name":"其他","address":"松江区乐都路北门街1号(乐都路松江环城路)"},{"poiid":"B2094655D268A3F54199","title":"佛字桥小区","lon":"121.23761","lat":"31.00643","category":"47","category_name":"住宅区","address":""},{"poiid":"B2094655D26FAAFA479B","title":"普照路104弄小区(西门)","lon":"121.23999","lat":"31.00658","category":"47","category_name":"住宅区","address":"普照路104弄"},{"poiid":"B2094757D064AAFE4399","title":"竹筷子农家菜","lon":"121.241284967","lat":"31.0136631401","category":"260","category_name":"其他","address":"上海近郊松江区仓汇路591号(玉乐小区东门南侧)  "},{"poiid":"B2094757D16BA2F8459A","title":"松江3路　谷阳北路乐都路站","lon":"121.24159936","lat":"31.013420434","category":"500","category_name":"未知分类","address":"上海松江区谷阳北路乐都路"},{"poiid":"B2094655D26FAAFA4798","title":"普照路104弄小区","lon":"121.24023","lat":"31.00657","category":"47","category_name":"住宅区","address":"普照路104弄"},{"poiid":"B2094654DB6EA2FC4798","title":"好德便利NO.581","lon":"121.23688","lat":"31.00584","category":"117","category_name":"便民商店/便利店","address":"松江镇"},{"poiid":"B2094654DB6EA0FE479B","title":"虹祥火锅","lon":"121.23416","lat":"31.00797","category":"86","category_name":"火锅店","address":""},{"poiid":"B2094655D268A6F94799","title":"普照路75弄小区","lon":"121.23933","lat":"31.00567","category":"47","category_name":"住宅区","address":"普照路75弄"},{"poiid":"B2094654DB64A0FC459F","title":"流金岁月","lon":"121.24254","lat":"31.01412","category":"170","category_name":"KTV","address":""},{"poiid":"B2094655D26FABF8499F","title":"凤凰小区(东一门)","lon":"121.236","lat":"31.01158","category":"656","category_name":"大门","address":""},{"poiid":"B2094654DB6EA2FC479B","title":"云间餐厅","lon":"121.23691","lat":"31.00567","category":"257","category_name":"中餐厅","address":""},{"poiid":"B2094654DB6DAAFF469A","title":"中国民生银行上海松江支行","lon":"121.23598","lat":"31.01409","category":"150","category_name":"银行","address":"松江镇"},{"poiid":"B2094757D064A7F44499","title":"菜花泾农贸市场","lon":"121.238536","lat":"31.013955","category":"260","category_name":"其他","address":"松江区乐都路94号"},{"poiid":"B2094753D46CA7F9449E","title":"泰晤士小镇","lon":"121.237182","lat":"31.006561","category":"500","category_name":"未知分类","address":"上海市 泰晤士小镇"},{"poiid":"B2094655D268A7FA4498","title":"谷阳北路315弄小区","lon":"121.23516","lat":"31.0148","category":"47","category_name":"住宅区","address":"谷阳北路315弄"},{"poiid":"B2094655D26FABF5499C","title":"谷北小区(西门)","lon":"121.23645","lat":"31.01243","category":"656","category_name":"大门","address":""},{"poiid":"B2094655D268A2F8459D","title":"谷阳北路315弄小区(东门)","lon":"121.23545","lat":"31.0148","category":"47","category_name":"住宅区","address":"谷阳北路315弄"},{"poiid":"B2094654DB6DAAFE4492","title":"舒健足浴坊","lon":"121.23527","lat":"31.01387","category":"149","category_name":"洗浴推拿场所","address":""},{"poiid":"B2094757D164A0F94498","title":"上海市松江公证处","lon":"121.23598","lat":"31.014493","category":"500","category_name":"未知分类","address":"上海松江3路松江七中站"},{"poiid":"B2094655D268A2FF479D","title":"松江皇冠假日酒店","lon":"121.23538","lat":"31.00655","category":"250","category_name":"公园户外","address":""},{"poiid":"B2094655D268A6F94798","title":"普照路75弄小区(东门)","lon":"121.23965","lat":"31.0057","category":"47","category_name":"住宅区","address":"普照路75弄"},{"poiid":"B2094757D168A0FA4193","title":"青春驿站","lon":"121.24237823","lat":"31.013765335","category":"500","category_name":"未知分类","address":"上海九新公路沪松公路口"},{"poiid":"B2094655D26FABFB4792","title":"谷北小区(北门)","lon":"121.23665","lat":"31.01349","category":"656","category_name":"大门","address":"松江镇"},{"poiid":"B209475DD26CA5F5479A","title":"costa coffee","lon":"121.235168","lat":"31.006725","category":"500","category_name":"未知分类","address":"上海市 上海市松江区中山二路"},{"poiid":"B2094654DB6EA2FE499A","title":"上海市公安局松江分局","lon":"121.24258","lat":"31.00779","category":"248","category_name":"生活娱乐","address":"中山东路290"},{"poiid":"B2094757D568A0FF489B","title":"上海尼奥neo珠宝有限公司","lon":"121.2416155","lat":"31.00719666","category":"131","category_name":"珠宝首饰工艺品","address":"中山东路298号松江宾馆商务大厦7层704室"},{"poiid":"B2094757D16BA4F5479D","title":"屈臣氏(平高店)","lon":"121.23582096","lat":"31.006530283","category":"500","category_name":"未知分类","address":"松江区松江中山中路71号平高世贸中心(近谷阳南路)"},{"poiid":"B2094757D06FA7FD469A","title":"家裡","lon":"121.238805","lat":"31.015634","category":"500","category_name":"未知分类","address":"上海通波小區"},{"poiid":"B2094654DB6DAAFF4699","title":"凤凰小区(东门)","lon":"121.23602","lat":"31.01327","category":"656","category_name":"大门","address":""},{"poiid":"B2094757D66CA1FB469F","title":"paraderm","lon":"121.235330467","lat":"31.0067839891","category":"500","category_name":"未知分类","address":"上海市松江区松江中山中路71号平高世贸中心一层"},{"poiid":"B2094655D268A1FE4699","title":"佛字桥小区(北三门)","lon":"121.23885","lat":"31.00675","category":"656","category_name":"大门","address":""},{"poiid":"B2094655D268A5FD409C","title":"黑鱼弄小区(西门)","lon":"121.23394","lat":"31.00962","category":"656","category_name":"大门","address":""},{"poiid":"B2094655D268A1FE4698","title":"佛字桥小区(北二门)","lon":"121.23825","lat":"31.00674","category":"656","category_name":"大门","address":""},{"poiid":"B2094655D268A5FD4093","title":"黑鱼弄小区(南门)","lon":"121.23441","lat":"31.00859","category":"656","category_name":"大门","address":""},{"poiid":"B2094655D268A3F54198","title":"佛字桥小区(北一门)","lon":"121.23733","lat":"31.00671","category":"656","category_name":"大门","address":""}]