[{"poiid":"B2094654DA6AA7FA479F","title":"碧云国际社区","lon":"121.58177","lat":"31.23798","category":"47","category_name":"住宅区","address":"上海碧云路580弄"},{"poiid":"B2094655D26FA6FA459A","title":"星巴克(金桥店)","lon":"121.58177","lat":"31.23798","category":"260","category_name":"其他","address":"浦东新区碧云路633号碧云国际社区(近云山路)"},{"poiid":"B2094757D06FA3FF4498","title":"蓝蛙(金桥店)","lon":"121.581875563","lat":"31.2410843252","category":"260","category_name":"其他","address":"浦东新区碧云路633号体育休闲中心1楼R3号(近云山路)"},{"poiid":"B2094654DB64A3F84992","title":"家乐福","lon":"121.58126","lat":"31.23879","category":"118","category_name":"超级市场","address":"蓝天路555"},{"poiid":"B2094757D06FAAFB4593","title":"蓝枪鱼西餐酒吧(金桥碧云店)","lon":"121.582955","lat":"31.242116","category":"172","category_name":"酒吧","address":"浦东新区金桥碧云国际社区蓝天路689号"},{"poiid":"B2094654DA6AA1F94292","title":"必胜客金桥家乐福店","lon":"121.5818","lat":"31.23899","category":"94","category_name":"西餐厅","address":"浦东新区碧云路555号家乐福商场1-2楼(近云山路)"},{"poiid":"B2094757D06FA3FE4492","title":"迪卡侬(金桥店)","lon":"121.58216","lat":"31.24079","category":"140","category_name":"体育用品店","address":"上海浦东新区蓝天路600号(碧云体育休闲中心)"},{"poiid":"B2094757D068A3FA4399","title":"碧云国际社区金桥家乐福","lon":"121.581776","lat":"31.237989","category":"500","category_name":"未知分类","address":"上海浦东新区碧云国际社区碧云路555号"},{"poiid":"B2094757D06BA3FB4098","title":"碧云体育公园","lon":"121.582674975","lat":"31.2426723519","category":"196","category_name":"公园","address":"上海市浦东新区蓝天路"},{"poiid":"B2094757D06FA5FF409E","title":"苔圣园(金桥店)","lon":"121.58834","lat":"31.24144","category":"76","category_name":"上海菜","address":"浦东新区碧云路1112号(华美达酒店斜对面)"},{"poiid":"B2094757D069A3FB439D","title":"cameo意大利餐厅","lon":"121.58291127","lat":"31.23987337","category":"98","category_name":"意式菜品餐厅","address":"浦东新区碧云路633号碧云体育休闲中心A2楼(近云山路)"},{"poiid":"B2094654DA6AA1F8479A","title":"家乐福(云山路)","lon":"121.57907","lat":"31.23983","category":"118","category_name":"超级市场","address":"云山路1675号"},{"poiid":"B2094757D06FA5F94999","title":"呀咪咖喱屋(碧云路店)","lon":"121.58207","lat":"31.23872","category":"94","category_name":"西餐厅","address":"浦东新区碧云路555号金桥家乐福1楼(近云山路)"},{"poiid":"B2094750D26BA1FE469D","title":"黔香阁 碧云店","lon":"121.581854","lat":"31.238917","category":"83","category_name":"云贵菜","address":"浦东新区碧云路633号碧云体育休闲中心(近云山路)"},{"poiid":"B2094757D068A1FF4498","title":"simply thai 金桥","lon":"121.58222961","lat":"31.241254806","category":"500","category_name":"未知分类","address":"上海金桥碧云休闲中心 蓝天路600号"},{"poiid":"B2094757D06FA7F44399","title":"碧云体育休闲中心","lon":"121.5831","lat":"31.2391","category":"260","category_name":"其他","address":"浦东新区碧云路633号碧云体育休闲中心内(近云山路)"},{"poiid":"B2094757D06FABFF419D","title":"食之秘(金桥家乐福店)","lon":"121.58013773","lat":"31.239119023","category":"67","category_name":"甜品店","address":"浦东新区金桥碧云路555号金桥家乐福1楼(近云山路)"},{"poiid":"B2094757D06FAAFA409C","title":"斗香园(蓝天路店)","lon":"121.57967","lat":"31.23954","category":"68","category_name":"快餐厅","address":"浦东新区金桥蓝天路518号(近云山路)"},{"poiid":"B2094757D069A0FD489B","title":"平和双语学校","lon":"121.5895","lat":"31.23944","category":"253","category_name":"校园生活","address":"浦东新区黄杨路261号"},{"poiid":"B2094655D26FA4F54392","title":"争鲜回转寿司 碧云路店","lon":"121.580889054","lat":"31.238819793","category":"95","category_name":"日本料理","address":"浦东新区碧云路555号家乐福1楼(近云山路)"},{"poiid":"B2094757D06AA3F54398","title":"Hard day's night","lon":"121.58265637","lat":"31.241711619","category":"500","category_name":"未知分类","address":"上海市浦东新区蓝天路629号"},{"poiid":"B2094655D26EA5F5439E","title":"天泰餐厅(金桥店)","lon":"121.58267","lat":"31.24144","category":"99","category_name":"泰国／越南菜品餐厅","address":"浦东新区蓝天路600号碧云体育休闲中心A6(近碧云路)"},{"poiid":"B2094757D66BA3F94699","title":"Pistolera 碧云路店","lon":"121.58551","lat":"31.24061","category":"94","category_name":"西餐厅","address":"浦东新区碧云路855号(近黄杨路)"},{"poiid":"B2094654DA6AA1FA4498","title":"华越楼","lon":"121.58283","lat":"31.23937","category":"99","category_name":"泰国／越南菜品餐厅","address":"浦东新区碧云路633号碧云体育休闲中心1楼(近云山路)"},{"poiid":"B2094757D065A1F5439F","title":"Blue Marlin","lon":"121.58337797","lat":"31.242663351","category":"500","category_name":"未知分类","address":"上海市浦东新区蓝天路689号"},{"poiid":"B2094750D269A1FA469D","title":"碧云拉丁 碧云店 Latina","lon":"121.58217430115","lat":"31.239389247764","category":"268","category_name":"自助","address":"浦东新区碧云路633号碧云体育休闲中心1-2楼(近云山路)"},{"poiid":"B2094655D36CA5F44398","title":"碧云路红枫路","lon":"121.58817","lat":"31.24221","category":"38","category_name":"公交车站","address":""},{"poiid":"B2094757D068A5FE4093","title":"The Coffee Beanery(金桥碧云花园店)","lon":"121.58629","lat":"31.23974","category":"65","category_name":"咖啡厅","address":"浦东新区碧云路875号(近黄杨路)"},{"poiid":"B2094654DA6AA1FA4799","title":"兰日本料理 碧云店","lon":"121.58645216197","lat":"31.241410626941","category":"95","category_name":"日本料理","address":"浦东新区碧云路777号(近蓝桉路)"},{"poiid":"B2094654DB69A4FE4993","title":"味千拉面 金桥店","lon":"121.579007054","lat":"31.240124793","category":"95","category_name":"日本料理","address":"浦东新区金桥蓝天路518号(近百安居)"},{"poiid":"B2094757D465A0F5429C","title":"隆","lon":"121.580995054","lat":"31.240091793","category":"95","category_name":"日本料理","address":"浦东新区碧云路633号碧云体育休闲中心B25-26(近云山路)"},{"poiid":"B2094654DA6AA1FA4592","title":"上海德威英国国际学校","lon":"121.5854","lat":"31.23737","category":"52","category_name":"高等院校","address":"浦东新区蓝桉路222号(近碧云路)"},{"poiid":"B2094757DB6DA3FD429E","title":"The Fat Olive","lon":"121.58029836","lat":"31.23690468","category":"247","category_name":"餐饮美食","address":"浦东新区碧云路688号(近蓝桉路)"},{"poiid":"B2094757D069A0FC409C","title":"大食代金桥店","lon":"121.58241272","lat":"31.239255905","category":"68","category_name":"快餐厅","address":"浦东新区碧云路535号金桥家乐福1楼(近云山路)"},{"poiid":"B2094757D068A3FF4698","title":"美格菲健身中心(金桥店)","lon":"121.58005","lat":"31.24069","category":"221","category_name":"健身中心","address":"浦东新区蓝天路600号碧云体育休闲中心内(近云山路)"},{"poiid":"B2094757D069ABF9419D","title":"漂亮石头火锅(金桥家乐福店)","lon":"121.58161597","lat":"31.238594256","category":"86","category_name":"火锅店","address":"浦东新区碧云路555号金桥家乐福1楼(碧云国际社区对面)"},{"poiid":"B2094757D065A7FF489C","title":"苏拿港式餐厅","lon":"121.582473","lat":"31.241956","category":"247","category_name":"餐饮美食","address":"上海蓝天路659号"},{"poiid":"B2094757D16FA7FA479D","title":"blue frog","lon":"121.588220975","lat":"31.2395112779","category":"500","category_name":"未知分类","address":"上海市浦东新区碧云路633号碧云休闲广场1楼"},{"poiid":"B2094751D56CA6FB499C","title":"Haiku by Hatsune(蓝天路店)","lon":"121.58215","lat":"31.24176","category":"95","category_name":"日本料理","address":"浦东新区蓝天路601号(迪卡龙对面)"},{"poiid":"B2094757D069AAFE459A","title":"LA PALMA","lon":"121.582839966","lat":"31.2393741608","category":"94","category_name":"西餐厅","address":"浦东新区碧云路633号碧云体育休闲中心B23-24号"},{"poiid":"B2094750D768A5F54792","title":"牛比羊大(碧云路店)","lon":"121.581","lat":"31.2387","category":"68","category_name":"快餐厅","address":"浦东新区碧云路555号家乐福1楼大时代(近云山路)"},{"poiid":"B2094654DA6AA1FA469B","title":"碧云别墅(明月路)","lon":"121.58837","lat":"31.23612","category":"47","category_name":"住宅区","address":"明月路888弄"},{"poiid":"B2094757D065A7FF439B","title":"维诗凯亚休闲俱乐部","lon":"121.58228","lat":"31.23295","category":"94","category_name":"西餐厅","address":"浦东新区云山路1988号(近明月路)查看地图"},{"poiid":"B2094654DB69A0F5429A","title":"赛百味 碧云店 Subway","lon":"121.580889054","lat":"31.238819793","category":"94","category_name":"西餐厅","address":"浦东新区碧云路555号家乐福1楼5号商铺(近云山路)"},{"poiid":"B2094757D469A1FF4293","title":"爱茜茜里 碧云店 ICEASON","lon":"121.580683054","lat":"31.239090793","category":"67","category_name":"甜品店","address":"浦东新区碧云路633号碧云体育休闲中心1楼11-12(近云山路)"},{"poiid":"B2094654DB64A3F9409D","title":"永和大王 碧云路店","lon":"121.580889054","lat":"31.238819793","category":"68","category_name":"快餐厅","address":"上海浦东新区碧云路555号家乐福底楼(近云山路)  "},{"poiid":"B2094757D068A0F44193","title":"Vizcaya Club Lounge","lon":"121.582017","lat":"31.233228","category":"67","category_name":"甜品店","address":"上海浦东新区云山路1988号(近明月路)"},{"poiid":"B2094654DB65A6FD409E","title":"德真会齿科诊所(金桥店)","lon":"121.58537","lat":"31.23832","category":"162","category_name":"医院","address":"浦东新区蓝桉路160号(近碧云路)"},{"poiid":"B2094654DB69A6F44798","title":"吉野家 金桥店","lon":"121.580889054","lat":"31.238819793","category":"95","category_name":"日本料理","address":"碧云路279号金桥家乐福大食代美食广场内"},{"poiid":"B2094751D56CA2FC449F","title":"米爱线(碧云路店)","lon":"121.5818","lat":"31.23899","category":"68","category_name":"快餐厅","address":"浦东新区碧云路555号家乐福"},{"poiid":"B2094654DA6AA7FA479F","title":"碧云国际社区","lon":"121.58177","lat":"31.23798","category":"47","category_name":"住宅区","address":"上海碧云路580弄"},{"poiid":"B2094655D26FA6FA459A","title":"星巴克(金桥店)","lon":"121.58177","lat":"31.23798","category":"260","category_name":"其他","address":"浦东新区碧云路633号碧云国际社区(近云山路)"},{"poiid":"B2094757D06FA3FF4498","title":"蓝蛙(金桥店)","lon":"121.581875563","lat":"31.2410843252","category":"260","category_name":"其他","address":"浦东新区碧云路633号体育休闲中心1楼R3号(近云山路)"},{"poiid":"B2094654DB64A3F84992","title":"家乐福","lon":"121.58126","lat":"31.23879","category":"118","category_name":"超级市场","address":"蓝天路555"},{"poiid":"B2094757D06FAAFB4593","title":"蓝枪鱼西餐酒吧(金桥碧云店)","lon":"121.582955","lat":"31.242116","category":"172","category_name":"酒吧","address":"浦东新区金桥碧云国际社区蓝天路689号"},{"poiid":"B2094654DA6AA1F94292","title":"必胜客金桥家乐福店","lon":"121.5818","lat":"31.23899","category":"94","category_name":"西餐厅","address":"浦东新区碧云路555号家乐福商场1-2楼(近云山路)"},{"poiid":"B2094757D06FA3FE4492","title":"迪卡侬(金桥店)","lon":"121.58216","lat":"31.24079","category":"140","category_name":"体育用品店","address":"上海浦东新区蓝天路600号(碧云体育休闲中心)"},{"poiid":"B2094757D068A3FA4399","title":"碧云国际社区金桥家乐福","lon":"121.581776","lat":"31.237989","category":"500","category_name":"未知分类","address":"上海浦东新区碧云国际社区碧云路555号"},{"poiid":"B2094757D06BA3FB4098","title":"碧云体育公园","lon":"121.582674975","lat":"31.2426723519","category":"196","category_name":"公园","address":"上海市浦东新区蓝天路"},{"poiid":"B2094757D06FA5FF409E","title":"苔圣园(金桥店)","lon":"121.58834","lat":"31.24144","category":"76","category_name":"上海菜","address":"浦东新区碧云路1112号(华美达酒店斜对面)"},{"poiid":"B2094757D069A3FB439D","title":"cameo意大利餐厅","lon":"121.58291127","lat":"31.23987337","category":"98","category_name":"意式菜品餐厅","address":"浦东新区碧云路633号碧云体育休闲中心A2楼(近云山路)"},{"poiid":"B2094654DA6AA1F8479A","title":"家乐福(云山路)","lon":"121.57907","lat":"31.23983","category":"118","category_name":"超级市场","address":"云山路1675号"},{"poiid":"B2094757D06FA5F94999","title":"呀咪咖喱屋(碧云路店)","lon":"121.58207","lat":"31.23872","category":"94","category_name":"西餐厅","address":"浦东新区碧云路555号金桥家乐福1楼(近云山路)"},{"poiid":"B2094750D26BA1FE469D","title":"黔香阁 碧云店","lon":"121.581854","lat":"31.238917","category":"83","category_name":"云贵菜","address":"浦东新区碧云路633号碧云体育休闲中心(近云山路)"},{"poiid":"B2094757D068A1FF4498","title":"simply thai 金桥","lon":"121.58222961","lat":"31.241254806","category":"500","category_name":"未知分类","address":"上海金桥碧云休闲中心 蓝天路600号"},{"poiid":"B2094757D06FA7F44399","title":"碧云体育休闲中心","lon":"121.5831","lat":"31.2391","category":"260","category_name":"其他","address":"浦东新区碧云路633号碧云体育休闲中心内(近云山路)"},{"poiid":"B2094757D06FABFF419D","title":"食之秘(金桥家乐福店)","lon":"121.58013773","lat":"31.239119023","category":"67","category_name":"甜品店","address":"浦东新区金桥碧云路555号金桥家乐福1楼(近云山路)"},{"poiid":"B2094757D06FAAFA409C","title":"斗香园(蓝天路店)","lon":"121.57967","lat":"31.23954","category":"68","category_name":"快餐厅","address":"浦东新区金桥蓝天路518号(近云山路)"},{"poiid":"B2094757D069A0FD489B","title":"平和双语学校","lon":"121.5895","lat":"31.23944","category":"253","category_name":"校园生活","address":"浦东新区黄杨路261号"},{"poiid":"B2094655D26FA4F54392","title":"争鲜回转寿司 碧云路店","lon":"121.580889054","lat":"31.238819793","category":"95","category_name":"日本料理","address":"浦东新区碧云路555号家乐福1楼(近云山路)"},{"poiid":"B2094757D06AA3F54398","title":"Hard day's night","lon":"121.58265637","lat":"31.241711619","category":"500","category_name":"未知分类","address":"上海市浦东新区蓝天路629号"},{"poiid":"B2094655D26EA5F5439E","title":"天泰餐厅(金桥店)","lon":"121.58267","lat":"31.24144","category":"99","category_name":"泰国／越南菜品餐厅","address":"浦东新区蓝天路600号碧云体育休闲中心A6(近碧云路)"},{"poiid":"B2094757D66BA3F94699","title":"Pistolera 碧云路店","lon":"121.58551","lat":"31.24061","category":"94","category_name":"西餐厅","address":"浦东新区碧云路855号(近黄杨路)"},{"poiid":"B2094654DA6AA1FA4498","title":"华越楼","lon":"121.58283","lat":"31.23937","category":"99","category_name":"泰国／越南菜品餐厅","address":"浦东新区碧云路633号碧云体育休闲中心1楼(近云山路)"},{"poiid":"B2094757D065A1F5439F","title":"Blue Marlin","lon":"121.58337797","lat":"31.242663351","category":"500","category_name":"未知分类","address":"上海市浦东新区蓝天路689号"},{"poiid":"B2094750D269A1FA469D","title":"碧云拉丁 碧云店 Latina","lon":"121.58217430115","lat":"31.239389247764","category":"268","category_name":"自助","address":"浦东新区碧云路633号碧云体育休闲中心1-2楼(近云山路)"},{"poiid":"B2094655D36CA5F44398","title":"碧云路红枫路","lon":"121.58817","lat":"31.24221","category":"38","category_name":"公交车站","address":""},{"poiid":"B2094757D068A5FE4093","title":"The Coffee Beanery(金桥碧云花园店)","lon":"121.58629","lat":"31.23974","category":"65","category_name":"咖啡厅","address":"浦东新区碧云路875号(近黄杨路)"},{"poiid":"B2094654DA6AA1FA4799","title":"兰日本料理 碧云店","lon":"121.58645216197","lat":"31.241410626941","category":"95","category_name":"日本料理","address":"浦东新区碧云路777号(近蓝桉路)"},{"poiid":"B2094654DB69A4FE4993","title":"味千拉面 金桥店","lon":"121.579007054","lat":"31.240124793","category":"95","category_name":"日本料理","address":"浦东新区金桥蓝天路518号(近百安居)"},{"poiid":"B2094757D465A0F5429C","title":"隆","lon":"121.580995054","lat":"31.240091793","category":"95","category_name":"日本料理","address":"浦东新区碧云路633号碧云体育休闲中心B25-26(近云山路)"},{"poiid":"B2094654DA6AA1FA4592","title":"上海德威英国国际学校","lon":"121.5854","lat":"31.23737","category":"52","category_name":"高等院校","address":"浦东新区蓝桉路222号(近碧云路)"},{"poiid":"B2094757DB6DA3FD429E","title":"The Fat Olive","lon":"121.58029836","lat":"31.23690468","category":"247","category_name":"餐饮美食","address":"浦东新区碧云路688号(近蓝桉路)"},{"poiid":"B2094757D069A0FC409C","title":"大食代金桥店","lon":"121.58241272","lat":"31.239255905","category":"68","category_name":"快餐厅","address":"浦东新区碧云路535号金桥家乐福1楼(近云山路)"},{"poiid":"B2094757D068A3FF4698","title":"美格菲健身中心(金桥店)","lon":"121.58005","lat":"31.24069","category":"221","category_name":"健身中心","address":"浦东新区蓝天路600号碧云体育休闲中心内(近云山路)"},{"poiid":"B2094757D069ABF9419D","title":"漂亮石头火锅(金桥家乐福店)","lon":"121.58161597","lat":"31.238594256","category":"86","category_name":"火锅店","address":"浦东新区碧云路555号金桥家乐福1楼(碧云国际社区对面)"},{"poiid":"B2094757D065A7FF489C","title":"苏拿港式餐厅","lon":"121.582473","lat":"31.241956","category":"247","category_name":"餐饮美食","address":"上海蓝天路659号"},{"poiid":"B2094757D16FA7FA479D","title":"blue frog","lon":"121.588220975","lat":"31.2395112779","category":"500","category_name":"未知分类","address":"上海市浦东新区碧云路633号碧云休闲广场1楼"},{"poiid":"B2094751D56CA6FB499C","title":"Haiku by Hatsune(蓝天路店)","lon":"121.58215","lat":"31.24176","category":"95","category_name":"日本料理","address":"浦东新区蓝天路601号(迪卡龙对面)"},{"poiid":"B2094757D069AAFE459A","title":"LA PALMA","lon":"121.582839966","lat":"31.2393741608","category":"94","category_name":"西餐厅","address":"浦东新区碧云路633号碧云体育休闲中心B23-24号"},{"poiid":"B2094750D768A5F54792","title":"牛比羊大(碧云路店)","lon":"121.581","lat":"31.2387","category":"68","category_name":"快餐厅","address":"浦东新区碧云路555号家乐福1楼大时代(近云山路)"},{"poiid":"B2094654DA6AA1FA469B","title":"碧云别墅(明月路)","lon":"121.58837","lat":"31.23612","category":"47","category_name":"住宅区","address":"明月路888弄"},{"poiid":"B2094757D065A7FF439B","title":"维诗凯亚休闲俱乐部","lon":"121.58228","lat":"31.23295","category":"94","category_name":"西餐厅","address":"浦东新区云山路1988号(近明月路)查看地图"},{"poiid":"B2094654DB69A0F5429A","title":"赛百味 碧云店 Subway","lon":"121.580889054","lat":"31.238819793","category":"94","category_name":"西餐厅","address":"浦东新区碧云路555号家乐福1楼5号商铺(近云山路)"},{"poiid":"B2094757D469A1FF4293","title":"爱茜茜里 碧云店 ICEASON","lon":"121.580683054","lat":"31.239090793","category":"67","category_name":"甜品店","address":"浦东新区碧云路633号碧云体育休闲中心1楼11-12(近云山路)"},{"poiid":"B2094654DB64A3F9409D","title":"永和大王 碧云路店","lon":"121.580889054","lat":"31.238819793","category":"68","category_name":"快餐厅","address":"上海浦东新区碧云路555号家乐福底楼(近云山路)  "},{"poiid":"B2094757D068A0F44193","title":"Vizcaya Club Lounge","lon":"121.582017","lat":"31.233228","category":"67","category_name":"甜品店","address":"上海浦东新区云山路1988号(近明月路)"},{"poiid":"B2094654DB65A6FD409E","title":"德真会齿科诊所(金桥店)","lon":"121.58537","lat":"31.23832","category":"162","category_name":"医院","address":"浦东新区蓝桉路160号(近碧云路)"},{"poiid":"B2094654DB69A6F44798","title":"吉野家 金桥店","lon":"121.580889054","lat":"31.238819793","category":"95","category_name":"日本料理","address":"碧云路279号金桥家乐福大食代美食广场内"},{"poiid":"B2094751D56CA2FC449F","title":"米爱线(碧云路店)","lon":"121.5818","lat":"31.23899","category":"68","category_name":"快餐厅","address":"浦东新区碧云路555号家乐福"},{"poiid":"B2094654DA6AA7FA479F","title":"碧云国际社区","lon":"121.58177","lat":"31.23798","category":"47","category_name":"住宅区","address":"上海碧云路580弄"},{"poiid":"B2094655D26FA6FA459A","title":"星巴克(金桥店)","lon":"121.58177","lat":"31.23798","category":"260","category_name":"其他","address":"浦东新区碧云路633号碧云国际社区(近云山路)"},{"poiid":"B2094757D06FA3FF4498","title":"蓝蛙(金桥店)","lon":"121.581875563","lat":"31.2410843252","category":"260","category_name":"其他","address":"浦东新区碧云路633号体育休闲中心1楼R3号(近云山路)"},{"poiid":"B2094654DB64A3F84992","title":"家乐福","lon":"121.58126","lat":"31.23879","category":"118","category_name":"超级市场","address":"蓝天路555"},{"poiid":"B2094757D06FAAFB4593","title":"蓝枪鱼西餐酒吧(金桥碧云店)","lon":"121.582955","lat":"31.242116","category":"172","category_name":"酒吧","address":"浦东新区金桥碧云国际社区蓝天路689号"},{"poiid":"B2094654DA6AA1F94292","title":"必胜客金桥家乐福店","lon":"121.5818","lat":"31.23899","category":"94","category_name":"西餐厅","address":"浦东新区碧云路555号家乐福商场1-2楼(近云山路)"},{"poiid":"B2094757D06FA3FE4492","title":"迪卡侬(金桥店)","lon":"121.58216","lat":"31.24079","category":"140","category_name":"体育用品店","address":"上海浦东新区蓝天路600号(碧云体育休闲中心)"},{"poiid":"B2094757D068A3FA4399","title":"碧云国际社区金桥家乐福","lon":"121.581776","lat":"31.237989","category":"500","category_name":"未知分类","address":"上海浦东新区碧云国际社区碧云路555号"},{"poiid":"B2094757D06BA3FB4098","title":"碧云体育公园","lon":"121.582674975","lat":"31.2426723519","category":"196","category_name":"公园","address":"上海市浦东新区蓝天路"},{"poiid":"B2094757D06FA5FF409E","title":"苔圣园(金桥店)","lon":"121.58834","lat":"31.24144","category":"76","category_name":"上海菜","address":"浦东新区碧云路1112号(华美达酒店斜对面)"},{"poiid":"B2094757D069A3FB439D","title":"cameo意大利餐厅","lon":"121.58291127","lat":"31.23987337","category":"98","category_name":"意式菜品餐厅","address":"浦东新区碧云路633号碧云体育休闲中心A2楼(近云山路)"},{"poiid":"B2094654DA6AA1F8479A","title":"家乐福(云山路)","lon":"121.57907","lat":"31.23983","category":"118","category_name":"超级市场","address":"云山路1675号"},{"poiid":"B2094757D06FA5F94999","title":"呀咪咖喱屋(碧云路店)","lon":"121.58207","lat":"31.23872","category":"94","category_name":"西餐厅","address":"浦东新区碧云路555号金桥家乐福1楼(近云山路)"},{"poiid":"B2094750D26BA1FE469D","title":"黔香阁 碧云店","lon":"121.581854","lat":"31.238917","category":"83","category_name":"云贵菜","address":"浦东新区碧云路633号碧云体育休闲中心(近云山路)"},{"poiid":"B2094757D068A1FF4498","title":"simply thai 金桥","lon":"121.58222961","lat":"31.241254806","category":"500","category_name":"未知分类","address":"上海金桥碧云休闲中心 蓝天路600号"},{"poiid":"B2094757D06FA7F44399","title":"碧云体育休闲中心","lon":"121.5831","lat":"31.2391","category":"260","category_name":"其他","address":"浦东新区碧云路633号碧云体育休闲中心内(近云山路)"},{"poiid":"B2094757D06FABFF419D","title":"食之秘(金桥家乐福店)","lon":"121.58013773","lat":"31.239119023","category":"67","category_name":"甜品店","address":"浦东新区金桥碧云路555号金桥家乐福1楼(近云山路)"},{"poiid":"B2094757D06FAAFA409C","title":"斗香园(蓝天路店)","lon":"121.57967","lat":"31.23954","category":"68","category_name":"快餐厅","address":"浦东新区金桥蓝天路518号(近云山路)"},{"poiid":"B2094757D069A0FD489B","title":"平和双语学校","lon":"121.5895","lat":"31.23944","category":"253","category_name":"校园生活","address":"浦东新区黄杨路261号"},{"poiid":"B2094655D26FA4F54392","title":"争鲜回转寿司 碧云路店","lon":"121.580889054","lat":"31.238819793","category":"95","category_name":"日本料理","address":"浦东新区碧云路555号家乐福1楼(近云山路)"},{"poiid":"B2094757D06AA3F54398","title":"Hard day's night","lon":"121.58265637","lat":"31.241711619","category":"500","category_name":"未知分类","address":"上海市浦东新区蓝天路629号"},{"poiid":"B2094655D26EA5F5439E","title":"天泰餐厅(金桥店)","lon":"121.58267","lat":"31.24144","category":"99","category_name":"泰国／越南菜品餐厅","address":"浦东新区蓝天路600号碧云体育休闲中心A6(近碧云路)"},{"poiid":"B2094757D66BA3F94699","title":"Pistolera 碧云路店","lon":"121.58551","lat":"31.24061","category":"94","category_name":"西餐厅","address":"浦东新区碧云路855号(近黄杨路)"},{"poiid":"B2094654DA6AA1FA4498","title":"华越楼","lon":"121.58283","lat":"31.23937","category":"99","category_name":"泰国／越南菜品餐厅","address":"浦东新区碧云路633号碧云体育休闲中心1楼(近云山路)"},{"poiid":"B2094757D065A1F5439F","title":"Blue Marlin","lon":"121.58337797","lat":"31.242663351","category":"500","category_name":"未知分类","address":"上海市浦东新区蓝天路689号"},{"poiid":"B2094750D269A1FA469D","title":"碧云拉丁 碧云店 Latina","lon":"121.58217430115","lat":"31.239389247764","category":"268","category_name":"自助","address":"浦东新区碧云路633号碧云体育休闲中心1-2楼(近云山路)"},{"poiid":"B2094655D36CA5F44398","title":"碧云路红枫路","lon":"121.58817","lat":"31.24221","category":"38","category_name":"公交车站","address":""},{"poiid":"B2094757D068A5FE4093","title":"The Coffee Beanery(金桥碧云花园店)","lon":"121.58629","lat":"31.23974","category":"65","category_name":"咖啡厅","address":"浦东新区碧云路875号(近黄杨路)"},{"poiid":"B2094654DA6AA1FA4799","title":"兰日本料理 碧云店","lon":"121.58645216197","lat":"31.241410626941","category":"95","category_name":"日本料理","address":"浦东新区碧云路777号(近蓝桉路)"},{"poiid":"B2094654DB69A4FE4993","title":"味千拉面 金桥店","lon":"121.579007054","lat":"31.240124793","category":"95","category_name":"日本料理","address":"浦东新区金桥蓝天路518号(近百安居)"},{"poiid":"B2094757D465A0F5429C","title":"隆","lon":"121.580995054","lat":"31.240091793","category":"95","category_name":"日本料理","address":"浦东新区碧云路633号碧云体育休闲中心B25-26(近云山路)"},{"poiid":"B2094654DA6AA1FA4592","title":"上海德威英国国际学校","lon":"121.5854","lat":"31.23737","category":"52","category_name":"高等院校","address":"浦东新区蓝桉路222号(近碧云路)"},{"poiid":"B2094757DB6DA3FD429E","title":"The Fat Olive","lon":"121.58029836","lat":"31.23690468","category":"247","category_name":"餐饮美食","address":"浦东新区碧云路688号(近蓝桉路)"},{"poiid":"B2094757D069A0FC409C","title":"大食代金桥店","lon":"121.58241272","lat":"31.239255905","category":"68","category_name":"快餐厅","address":"浦东新区碧云路535号金桥家乐福1楼(近云山路)"},{"poiid":"B2094757D068A3FF4698","title":"美格菲健身中心(金桥店)","lon":"121.58005","lat":"31.24069","category":"221","category_name":"健身中心","address":"浦东新区蓝天路600号碧云体育休闲中心内(近云山路)"},{"poiid":"B2094757D069ABF9419D","title":"漂亮石头火锅(金桥家乐福店)","lon":"121.58161597","lat":"31.238594256","category":"86","category_name":"火锅店","address":"浦东新区碧云路555号金桥家乐福1楼(碧云国际社区对面)"},{"poiid":"B2094757D065A7FF489C","title":"苏拿港式餐厅","lon":"121.582473","lat":"31.241956","category":"247","category_name":"餐饮美食","address":"上海蓝天路659号"},{"poiid":"B2094757D16FA7FA479D","title":"blue frog","lon":"121.588220975","lat":"31.2395112779","category":"500","category_name":"未知分类","address":"上海市浦东新区碧云路633号碧云休闲广场1楼"},{"poiid":"B2094751D56CA6FB499C","title":"Haiku by Hatsune(蓝天路店)","lon":"121.58215","lat":"31.24176","category":"95","category_name":"日本料理","address":"浦东新区蓝天路601号(迪卡龙对面)"},{"poiid":"B2094757D069AAFE459A","title":"LA PALMA","lon":"121.582839966","lat":"31.2393741608","category":"94","category_name":"西餐厅","address":"浦东新区碧云路633号碧云体育休闲中心B23-24号"},{"poiid":"B2094750D768A5F54792","title":"牛比羊大(碧云路店)","lon":"121.581","lat":"31.2387","category":"68","category_name":"快餐厅","address":"浦东新区碧云路555号家乐福1楼大时代(近云山路)"},{"poiid":"B2094654DA6AA1FA469B","title":"碧云别墅(明月路)","lon":"121.58837","lat":"31.23612","category":"47","category_name":"住宅区","address":"明月路888弄"},{"poiid":"B2094757D065A7FF439B","title":"维诗凯亚休闲俱乐部","lon":"121.58228","lat":"31.23295","category":"94","category_name":"西餐厅","address":"浦东新区云山路1988号(近明月路)查看地图"},{"poiid":"B2094654DB69A0F5429A","title":"赛百味 碧云店 Subway","lon":"121.580889054","lat":"31.238819793","category":"94","category_name":"西餐厅","address":"浦东新区碧云路555号家乐福1楼5号商铺(近云山路)"},{"poiid":"B2094757D469A1FF4293","title":"爱茜茜里 碧云店 ICEASON","lon":"121.580683054","lat":"31.239090793","category":"67","category_name":"甜品店","address":"浦东新区碧云路633号碧云体育休闲中心1楼11-12(近云山路)"},{"poiid":"B2094654DB64A3F9409D","title":"永和大王 碧云路店","lon":"121.580889054","lat":"31.238819793","category":"68","category_name":"快餐厅","address":"上海浦东新区碧云路555号家乐福底楼(近云山路)  "},{"poiid":"B2094757D068A0F44193","title":"Vizcaya Club Lounge","lon":"121.582017","lat":"31.233228","category":"67","category_name":"甜品店","address":"上海浦东新区云山路1988号(近明月路)"},{"poiid":"B2094654DB65A6FD409E","title":"德真会齿科诊所(金桥店)","lon":"121.58537","lat":"31.23832","category":"162","category_name":"医院","address":"浦东新区蓝桉路160号(近碧云路)"},{"poiid":"B2094654DB69A6F44798","title":"吉野家 金桥店","lon":"121.580889054","lat":"31.238819793","category":"95","category_name":"日本料理","address":"碧云路279号金桥家乐福大食代美食广场内"},{"poiid":"B2094751D56CA2FC449F","title":"米爱线(碧云路店)","lon":"121.5818","lat":"31.23899","category":"68","category_name":"快餐厅","address":"浦东新区碧云路555号家乐福"},{"poiid":"B2094654DA6AA7FA479F","title":"碧云国际社区","lon":"121.58177","lat":"31.23798","category":"47","category_name":"住宅区","address":"上海碧云路580弄"},{"poiid":"B2094655D26FA6FA459A","title":"星巴克(金桥店)","lon":"121.58177","lat":"31.23798","category":"260","category_name":"其他","address":"浦东新区碧云路633号碧云国际社区(近云山路)"},{"poiid":"B2094757D06FA3FF4498","title":"蓝蛙(金桥店)","lon":"121.581875563","lat":"31.2410843252","category":"260","category_name":"其他","address":"浦东新区碧云路633号体育休闲中心1楼R3号(近云山路)"},{"poiid":"B2094654DB64A3F84992","title":"家乐福","lon":"121.58126","lat":"31.23879","category":"118","category_name":"超级市场","address":"蓝天路555"},{"poiid":"B2094757D06FAAFB4593","title":"蓝枪鱼西餐酒吧(金桥碧云店)","lon":"121.582955","lat":"31.242116","category":"172","category_name":"酒吧","address":"浦东新区金桥碧云国际社区蓝天路689号"},{"poiid":"B2094654DA6AA1F94292","title":"必胜客金桥家乐福店","lon":"121.5818","lat":"31.23899","category":"94","category_name":"西餐厅","address":"浦东新区碧云路555号家乐福商场1-2楼(近云山路)"},{"poiid":"B2094757D06FA3FE4492","title":"迪卡侬(金桥店)","lon":"121.58216","lat":"31.24079","category":"140","category_name":"体育用品店","address":"上海浦东新区蓝天路600号(碧云体育休闲中心)"},{"poiid":"B2094757D068A3FA4399","title":"碧云国际社区金桥家乐福","lon":"121.581776","lat":"31.237989","category":"500","category_name":"未知分类","address":"上海浦东新区碧云国际社区碧云路555号"},{"poiid":"B2094757D06BA3FB4098","title":"碧云体育公园","lon":"121.582674975","lat":"31.2426723519","category":"196","category_name":"公园","address":"上海市浦东新区蓝天路"},{"poiid":"B2094757D06FA5FF409E","title":"苔圣园(金桥店)","lon":"121.58834","lat":"31.24144","category":"76","category_name":"上海菜","address":"浦东新区碧云路1112号(华美达酒店斜对面)"},{"poiid":"B2094757D069A3FB439D","title":"cameo意大利餐厅","lon":"121.58291127","lat":"31.23987337","category":"98","category_name":"意式菜品餐厅","address":"浦东新区碧云路633号碧云体育休闲中心A2楼(近云山路)"},{"poiid":"B2094654DA6AA1F8479A","title":"家乐福(云山路)","lon":"121.57907","lat":"31.23983","category":"118","category_name":"超级市场","address":"云山路1675号"},{"poiid":"B2094757D06FA5F94999","title":"呀咪咖喱屋(碧云路店)","lon":"121.58207","lat":"31.23872","category":"94","category_name":"西餐厅","address":"浦东新区碧云路555号金桥家乐福1楼(近云山路)"},{"poiid":"B2094750D26BA1FE469D","title":"黔香阁 碧云店","lon":"121.581854","lat":"31.238917","category":"83","category_name":"云贵菜","address":"浦东新区碧云路633号碧云体育休闲中心(近云山路)"},{"poiid":"B2094757D068A1FF4498","title":"simply thai 金桥","lon":"121.58222961","lat":"31.241254806","category":"500","category_name":"未知分类","address":"上海金桥碧云休闲中心 蓝天路600号"},{"poiid":"B2094757D06FA7F44399","title":"碧云体育休闲中心","lon":"121.5831","lat":"31.2391","category":"260","category_name":"其他","address":"浦东新区碧云路633号碧云体育休闲中心内(近云山路)"},{"poiid":"B2094757D06FABFF419D","title":"食之秘(金桥家乐福店)","lon":"121.58013773","lat":"31.239119023","category":"67","category_name":"甜品店","address":"浦东新区金桥碧云路555号金桥家乐福1楼(近云山路)"},{"poiid":"B2094757D06FAAFA409C","title":"斗香园(蓝天路店)","lon":"121.57967","lat":"31.23954","category":"68","category_name":"快餐厅","address":"浦东新区金桥蓝天路518号(近云山路)"},{"poiid":"B2094757D069A0FD489B","title":"平和双语学校","lon":"121.5895","lat":"31.23944","category":"253","category_name":"校园生活","address":"浦东新区黄杨路261号"},{"poiid":"B2094655D26FA4F54392","title":"争鲜回转寿司 碧云路店","lon":"121.580889054","lat":"31.238819793","category":"95","category_name":"日本料理","address":"浦东新区碧云路555号家乐福1楼(近云山路)"},{"poiid":"B2094757D06AA3F54398","title":"Hard day's night","lon":"121.58265637","lat":"31.241711619","category":"500","category_name":"未知分类","address":"上海市浦东新区蓝天路629号"},{"poiid":"B2094655D26EA5F5439E","title":"天泰餐厅(金桥店)","lon":"121.58267","lat":"31.24144","category":"99","category_name":"泰国／越南菜品餐厅","address":"浦东新区蓝天路600号碧云体育休闲中心A6(近碧云路)"},{"poiid":"B2094757D66BA3F94699","title":"Pistolera 碧云路店","lon":"121.58551","lat":"31.24061","category":"94","category_name":"西餐厅","address":"浦东新区碧云路855号(近黄杨路)"},{"poiid":"B2094654DA6AA1FA4498","title":"华越楼","lon":"121.58283","lat":"31.23937","category":"99","category_name":"泰国／越南菜品餐厅","address":"浦东新区碧云路633号碧云体育休闲中心1楼(近云山路)"},{"poiid":"B2094757D065A1F5439F","title":"Blue Marlin","lon":"121.58337797","lat":"31.242663351","category":"500","category_name":"未知分类","address":"上海市浦东新区蓝天路689号"},{"poiid":"B2094750D269A1FA469D","title":"碧云拉丁 碧云店 Latina","lon":"121.58217430115","lat":"31.239389247764","category":"268","category_name":"自助","address":"浦东新区碧云路633号碧云体育休闲中心1-2楼(近云山路)"},{"poiid":"B2094655D36CA5F44398","title":"碧云路红枫路","lon":"121.58817","lat":"31.24221","category":"38","category_name":"公交车站","address":""},{"poiid":"B2094757D068A5FE4093","title":"The Coffee Beanery(金桥碧云花园店)","lon":"121.58629","lat":"31.23974","category":"65","category_name":"咖啡厅","address":"浦东新区碧云路875号(近黄杨路)"},{"poiid":"B2094654DA6AA1FA4799","title":"兰日本料理 碧云店","lon":"121.58645216197","lat":"31.241410626941","category":"95","category_name":"日本料理","address":"浦东新区碧云路777号(近蓝桉路)"},{"poiid":"B2094654DB69A4FE4993","title":"味千拉面 金桥店","lon":"121.579007054","lat":"31.240124793","category":"95","category_name":"日本料理","address":"浦东新区金桥蓝天路518号(近百安居)"},{"poiid":"B2094757D465A0F5429C","title":"隆","lon":"121.580995054","lat":"31.240091793","category":"95","category_name":"日本料理","address":"浦东新区碧云路633号碧云体育休闲中心B25-26(近云山路)"},{"poiid":"B2094654DA6AA1FA4592","title":"上海德威英国国际学校","lon":"121.5854","lat":"31.23737","category":"52","category_name":"高等院校","address":"浦东新区蓝桉路222号(近碧云路)"},{"poiid":"B2094757DB6DA3FD429E","title":"The Fat Olive","lon":"121.58029836","lat":"31.23690468","category":"247","category_name":"餐饮美食","address":"浦东新区碧云路688号(近蓝桉路)"},{"poiid":"B2094757D069A0FC409C","title":"大食代金桥店","lon":"121.58241272","lat":"31.239255905","category":"68","category_name":"快餐厅","address":"浦东新区碧云路535号金桥家乐福1楼(近云山路)"},{"poiid":"B2094757D068A3FF4698","title":"美格菲健身中心(金桥店)","lon":"121.58005","lat":"31.24069","category":"221","category_name":"健身中心","address":"浦东新区蓝天路600号碧云体育休闲中心内(近云山路)"},{"poiid":"B2094757D069ABF9419D","title":"漂亮石头火锅(金桥家乐福店)","lon":"121.58161597","lat":"31.238594256","category":"86","category_name":"火锅店","address":"浦东新区碧云路555号金桥家乐福1楼(碧云国际社区对面)"},{"poiid":"B2094757D065A7FF489C","title":"苏拿港式餐厅","lon":"121.582473","lat":"31.241956","category":"247","category_name":"餐饮美食","address":"上海蓝天路659号"},{"poiid":"B2094757D16FA7FA479D","title":"blue frog","lon":"121.588220975","lat":"31.2395112779","category":"500","category_name":"未知分类","address":"上海市浦东新区碧云路633号碧云休闲广场1楼"},{"poiid":"B2094751D56CA6FB499C","title":"Haiku by Hatsune(蓝天路店)","lon":"121.58215","lat":"31.24176","category":"95","category_name":"日本料理","address":"浦东新区蓝天路601号(迪卡龙对面)"},{"poiid":"B2094757D069AAFE459A","title":"LA PALMA","lon":"121.582839966","lat":"31.2393741608","category":"94","category_name":"西餐厅","address":"浦东新区碧云路633号碧云体育休闲中心B23-24号"},{"poiid":"B2094750D768A5F54792","title":"牛比羊大(碧云路店)","lon":"121.581","lat":"31.2387","category":"68","category_name":"快餐厅","address":"浦东新区碧云路555号家乐福1楼大时代(近云山路)"},{"poiid":"B2094654DA6AA1FA469B","title":"碧云别墅(明月路)","lon":"121.58837","lat":"31.23612","category":"47","category_name":"住宅区","address":"明月路888弄"},{"poiid":"B2094757D065A7FF439B","title":"维诗凯亚休闲俱乐部","lon":"121.58228","lat":"31.23295","category":"94","category_name":"西餐厅","address":"浦东新区云山路1988号(近明月路)查看地图"},{"poiid":"B2094654DB69A0F5429A","title":"赛百味 碧云店 Subway","lon":"121.580889054","lat":"31.238819793","category":"94","category_name":"西餐厅","address":"浦东新区碧云路555号家乐福1楼5号商铺(近云山路)"},{"poiid":"B2094757D469A1FF4293","title":"爱茜茜里 碧云店 ICEASON","lon":"121.580683054","lat":"31.239090793","category":"67","category_name":"甜品店","address":"浦东新区碧云路633号碧云体育休闲中心1楼11-12(近云山路)"},{"poiid":"B2094654DB64A3F9409D","title":"永和大王 碧云路店","lon":"121.580889054","lat":"31.238819793","category":"68","category_name":"快餐厅","address":"上海浦东新区碧云路555号家乐福底楼(近云山路)  "},{"poiid":"B2094757D068A0F44193","title":"Vizcaya Club Lounge","lon":"121.582017","lat":"31.233228","category":"67","category_name":"甜品店","address":"上海浦东新区云山路1988号(近明月路)"},{"poiid":"B2094654DB65A6FD409E","title":"德真会齿科诊所(金桥店)","lon":"121.58537","lat":"31.23832","category":"162","category_name":"医院","address":"浦东新区蓝桉路160号(近碧云路)"},{"poiid":"B2094654DB69A6F44798","title":"吉野家 金桥店","lon":"121.580889054","lat":"31.238819793","category":"95","category_name":"日本料理","address":"碧云路279号金桥家乐福大食代美食广场内"},{"poiid":"B2094751D56CA2FC449F","title":"米爱线(碧云路店)","lon":"121.5818","lat":"31.23899","category":"68","category_name":"快餐厅","address":"浦东新区碧云路555号家乐福"}]