[{"poiid":"B2094757D068A3FD439C","title":"宜川路","lon":"121.438645","lat":"31.260913","category":"500","category_name":"未知分类","address":"上海普陀区宜川路新村路"},{"poiid":"B2094757D06FA4FA409F","title":"烧品(甘泉店)","lon":"121.43625","lat":"31.26416","category":"76","category_name":"上海菜","address":"普陀区宜川路424号(近甘泉路)"},{"poiid":"B2094655D265A3F4449D","title":"香溢花城","lon":"121.43961958287","lat":"31.262893373345","category":"47","category_name":"住宅区","address":"普陀区石泉东路168弄19号"},{"poiid":"B2094655D26AAAFD479F","title":"向天歌烧鹅老铺 宜川路店","lon":"121.437554054","lat":"31.262404793","category":"72","category_name":"广东菜","address":"普陀区宜川路305号(近延长西路)"},{"poiid":"B2094757D06FA1F44892","title":"85度C(宜川店)","lon":"121.43786","lat":"31.26206","category":"112","category_name":"糕饼店","address":"普陀区宜川路310号美华商城1楼(近延长西路)"},{"poiid":"B2094757D068A6F9469A","title":"宜川公园","lon":"121.44082769","lat":"31.260018618","category":"196","category_name":"公园","address":"普陀区宜川路99号(近洛川路)"},{"poiid":"B2094757D66FA6FA479C","title":"JEANS潮人店(京世宜川店)","lon":"121.43708706","lat":"31.263524998","category":"148","category_name":"美容美发店","address":"上海普陀区宜川路326号(近延长西路)"},{"poiid":"B2094654D464ABF8419D","title":"上海市甘泉外国语中学","lon":"121.43596","lat":"31.26354","category":"55","category_name":"中学","address":"普陀区宜川路400号(近甘泉路)"},{"poiid":"B2094750D76EA1F94398","title":"陈记鸡蛋仔","lon":"121.44","lat":"31.2592","category":"68","category_name":"快餐厅","address":"普陀区宜川路81号(近华阴路)"},{"poiid":"B2094757D06FA5F8419F","title":"新上海影都","lon":"121.437626","lat":"31.262073","category":"178","category_name":"电影院","address":"普陀区宜川路300号新上海影都内(近延长西路)"},{"poiid":"B2094750D26CA7FD469B","title":"大胡子烧烤","lon":"121.43812","lat":"31.26188","category":"68","category_name":"快餐厅","address":"普陀区宜川路(延长西路口)"},{"poiid":"B2094757D068A2FD4099","title":"传奇台球(普陀店)","lon":"121.43834695","lat":"31.262748921","category":"171","category_name":"台球厅","address":"普陀区宜川路305号2楼(近延长西路)"},{"poiid":"B2094757D06FA4FD4998","title":"和晟桌球","lon":"121.43774","lat":"31.26372","category":"171","category_name":"台球厅","address":"普陀区宜川路310号美华商城内(近延长西路)"},{"poiid":"B2094655D26AA6F54793","title":"溢湘轩","lon":"121.438038054","lat":"31.261862793","category":"77","category_name":"湖南菜","address":"普陀区宜川路291号(近延长西路)"},{"poiid":"B2094757D069A1FF479E","title":"宜川二村","lon":"121.437716","lat":"31.260315","category":"252","category_name":"楼宇机构","address":"上海延长西路泾惠路"},{"poiid":"B2094654D464A4FE4798","title":"合阳小区","lon":"121.43895","lat":"31.263123","category":"47","category_name":"住宅区","address":"延长西路150弄"},{"poiid":"B2094655D36DA0F84392","title":"延长西路宜川路","lon":"121.4394","lat":"31.26256","category":"38","category_name":"公交车站","address":"上海市普陀区延长西路宜川路"},{"poiid":"B2094654D465A1FE4993","title":"新上海体育广场","lon":"121.435","lat":"31.2629","category":"224","category_name":"综合体育馆","address":"普陀区华池路58弄"},{"poiid":"B2094757D068A5FB4092","title":"振鑫火锅(宜川北店)","lon":"121.4352","lat":"31.26452","category":"86","category_name":"火锅店","address":"普陀区宜川路348号(近宜川路步行街)"},{"poiid":"B2094654D464A4FF419E","title":"天音酒家","lon":"121.43852089865","lat":"31.261720763837","category":"76","category_name":"上海菜","address":"普陀区延长西路250号(近宜川路)"},{"poiid":"B2094654DB65A7FE459E","title":"元祖 宜川店 Ganso","lon":"121.437655054","lat":"31.261832793","category":"67","category_name":"甜品店","address":"普陀区宜川路291号(延长中路口)"},{"poiid":"B2094654D464ABF84399","title":"凤中凰","lon":"121.43706056357","lat":"31.26334975322","category":"257","category_name":"中餐厅","address":"普陀区宜川路328号(近延长西路)"},{"poiid":"B2094757D16CA1F9419F","title":"来必堡 宜川店 Reboo Short order","lon":"121.43758","lat":"31.2626","category":"68","category_name":"快餐厅","address":"普陀区宜川路310号美华商城内(近延长西路)"},{"poiid":"B2094757D069A5F9429B","title":"子长小区","lon":"121.43523","lat":"31.262568","category":"47","category_name":"住宅区","address":"子长路77弄1-61号(单)"},{"poiid":"B2094655D26AA5F94499","title":"甘泉步行街","lon":"121.43768","lat":"31.26193","category":"247","category_name":"餐饮美食","address":"普陀区宜川路300号(近延长西路)"},{"poiid":"B2094757D16BA6FF4292","title":"巴弟鸡排(宜川店)","lon":"121.438238751","lat":"31.2616816281","category":"68","category_name":"快餐厅","address":"普陀区宜川路218号(近延长西路)"},{"poiid":"B2094757D465A5F44798","title":"延长西路正宗兰州牛肉拉面","lon":"121.438179054","lat":"31.261932793","category":"247","category_name":"餐饮美食","address":"普陀区延长西路86号(近骊山路)"},{"poiid":"B2094750D664A0FB439A","title":"老盛昌苏州汤包馆(宜川路店)","lon":"121.44","lat":"31.2593","category":"111","category_name":"休闲餐饮场所","address":"普陀区宜川路(近华阴路)"},{"poiid":"B2094757D765A0F44593","title":"沙县小吃 宜川路","lon":"121.43815","lat":"31.26201","category":"68","category_name":"快餐厅","address":"普陀区宜川路(近延长西路)"},{"poiid":"B2094757D069A3FC4698","title":"原力健(宜川路店)","lon":"121.43805","lat":"31.26194","category":"148","category_name":"美容美发店","address":"普陀区宜川路299号(近延长西路)"},{"poiid":"B2094757D06BA0F84999","title":"永琪美容美发(延长店)","lon":"121.43698","lat":"31.26292","category":"148","category_name":"美容美发店","address":"上海普陀区宜川路318号(近延长西路)  "},{"poiid":"B2094750D76CA3FD4992","title":"好乐邻","lon":"121.438","lat":"31.2616","category":"68","category_name":"快餐厅","address":"普陀区宜川路218号(近延长西路)"},{"poiid":"B2094757D06FA7F54099","title":"宜川一村","lon":"121.437305","lat":"31.263651","category":"47","category_name":"住宅区","address":"上海延长西路宜川路"},{"poiid":"B2094654D464A4FF429F","title":"快客(上海市甘泉外国语中学分部西北)","lon":"121.43814","lat":"31.26229","category":"117","category_name":"便民商店/便利店","address":"宜川路297"},{"poiid":"B2094757D465A4FE479A","title":"城隍庙小吃世界 宜川路店","lon":"121.439009054","lat":"31.260977793","category":"87","category_name":"特色／地方风味餐厅","address":"普陀区宜川路187号(近甘泉路)"},{"poiid":"B2094655D26BA5FE4392","title":"好莱喔涮涮煲宜川路店","lon":"121.4384","lat":"31.26147","category":"86","category_name":"火锅店","address":"普陀区宜川路214号(近延长西路)"},{"poiid":"B2094655D265A2F9429B","title":"绝味鸭脖 宜川路店","lon":"121.438015054","lat":"31.262156793","category":"68","category_name":"快餐厅","address":"普陀区宜川路209号(近延长西路)"},{"poiid":"B2094757D068A7FA499D","title":"优客NewCore","lon":"121.43744978","lat":"31.262638687","category":"117","category_name":"便民商店/便利店","address":"上海市普陀区宜川路310号"},{"poiid":"B2094757D168A0FF4298","title":"意诺餐厅酒吧","lon":"121.43840699","lat":"31.262011605","category":"260","category_name":"其他","address":"普陀区延长西路256号(近宜川路)"},{"poiid":"B2094654D464A4FE4998","title":"川湘阁(合阳小区西南)","lon":"121.43981","lat":"31.26307","category":"71","category_name":"四川菜","address":"普陀区延长西路(近宜川二村车站)"},{"poiid":"B2094655D26CA0FB4998","title":"美华商城","lon":"121.43755","lat":"31.26243","category":"119","category_name":"商场","address":"普陀区宜川路310号(近延长西路)"},{"poiid":"B2094757D068A2F5409E","title":"肯德基 KFC (宜川店)","lon":"121.440266","lat":"31.259595","category":"68","category_name":"快餐厅","address":"普陀区宜川路93号(近华阴路)"},{"poiid":"B2094757D16BA2FF479A","title":"78路宜川路延长西路站","lon":"121.43765495","lat":"31.262918924","category":"38","category_name":"公交车站","address":"上海宜川路(近延长西路)"},{"poiid":"B2094757D16AA5F44293","title":"上海市普陀区延长西路220弄","lon":"121.4392332","lat":"31.2624555","category":"47","category_name":"住宅区","address":"上海市普陀区延长西路220弄"},{"poiid":"B2094757D66CA2F8469A","title":"呀咪咖喱屋","lon":"121.43767595","lat":"31.26215991","category":"247","category_name":"餐饮美食","address":"上海市上南路"},{"poiid":"B2094655D26CA7F84499","title":"上海市普陀区甘泉进修学校","lon":"121.4387","lat":"31.2625","category":"53","category_name":"成人教育","address":"延长西路240"},{"poiid":"B209475CD16DA2F54592","title":"上海大饭堂 宜川路店","lon":"121.43737","lat":"31.26272","category":"76","category_name":"上海菜","address":"宜川路310号美华商城2楼"},{"poiid":"B2094757D16DA5FC419A","title":"阳光娃娃早教中心","lon":"121.44001295","lat":"31.261960906","category":"500","category_name":"未知分类","address":"上海普陀区延长西路240号"},{"poiid":"B2094757D169A3FE439B","title":"老上海葱油饼","lon":"121.43965","lat":"31.2607","category":"68","category_name":"快餐厅","address":"普陀区延长西路新影都电影院附近(近宜川路)"},{"poiid":"B2094654D464A4FF469C","title":"新宜小区","lon":"121.43704","lat":"31.265944","category":"47","category_name":"住宅区","address":"上海宜川路413弄"},{"poiid":"B2094757D068A3FD439C","title":"宜川路","lon":"121.438645","lat":"31.260913","category":"500","category_name":"未知分类","address":"上海普陀区宜川路新村路"},{"poiid":"B2094757D06FA4FA409F","title":"烧品(甘泉店)","lon":"121.43625","lat":"31.26416","category":"76","category_name":"上海菜","address":"普陀区宜川路424号(近甘泉路)"},{"poiid":"B2094655D265A3F4449D","title":"香溢花城","lon":"121.43961958287","lat":"31.262893373345","category":"47","category_name":"住宅区","address":"普陀区石泉东路168弄19号"},{"poiid":"B2094655D26AAAFD479F","title":"向天歌烧鹅老铺 宜川路店","lon":"121.437554054","lat":"31.262404793","category":"72","category_name":"广东菜","address":"普陀区宜川路305号(近延长西路)"},{"poiid":"B2094757D06FA1F44892","title":"85度C(宜川店)","lon":"121.43786","lat":"31.26206","category":"112","category_name":"糕饼店","address":"普陀区宜川路310号美华商城1楼(近延长西路)"},{"poiid":"B2094757D068A6F9469A","title":"宜川公园","lon":"121.44082769","lat":"31.260018618","category":"196","category_name":"公园","address":"普陀区宜川路99号(近洛川路)"},{"poiid":"B2094757D66FA6FA479C","title":"JEANS潮人店(京世宜川店)","lon":"121.43708706","lat":"31.263524998","category":"148","category_name":"美容美发店","address":"上海普陀区宜川路326号(近延长西路)"},{"poiid":"B2094654D464ABF8419D","title":"上海市甘泉外国语中学","lon":"121.43596","lat":"31.26354","category":"55","category_name":"中学","address":"普陀区宜川路400号(近甘泉路)"},{"poiid":"B2094750D76EA1F94398","title":"陈记鸡蛋仔","lon":"121.44","lat":"31.2592","category":"68","category_name":"快餐厅","address":"普陀区宜川路81号(近华阴路)"},{"poiid":"B2094757D06FA5F8419F","title":"新上海影都","lon":"121.437626","lat":"31.262073","category":"178","category_name":"电影院","address":"普陀区宜川路300号新上海影都内(近延长西路)"},{"poiid":"B2094750D26CA7FD469B","title":"大胡子烧烤","lon":"121.43812","lat":"31.26188","category":"68","category_name":"快餐厅","address":"普陀区宜川路(延长西路口)"},{"poiid":"B2094757D068A2FD4099","title":"传奇台球(普陀店)","lon":"121.43834695","lat":"31.262748921","category":"171","category_name":"台球厅","address":"普陀区宜川路305号2楼(近延长西路)"},{"poiid":"B2094757D06FA4FD4998","title":"和晟桌球","lon":"121.43774","lat":"31.26372","category":"171","category_name":"台球厅","address":"普陀区宜川路310号美华商城内(近延长西路)"},{"poiid":"B2094655D26AA6F54793","title":"溢湘轩","lon":"121.438038054","lat":"31.261862793","category":"77","category_name":"湖南菜","address":"普陀区宜川路291号(近延长西路)"},{"poiid":"B2094757D069A1FF479E","title":"宜川二村","lon":"121.437716","lat":"31.260315","category":"252","category_name":"楼宇机构","address":"上海延长西路泾惠路"},{"poiid":"B2094654D464A4FE4798","title":"合阳小区","lon":"121.43895","lat":"31.263123","category":"47","category_name":"住宅区","address":"延长西路150弄"},{"poiid":"B2094655D36DA0F84392","title":"延长西路宜川路","lon":"121.4394","lat":"31.26256","category":"38","category_name":"公交车站","address":"上海市普陀区延长西路宜川路"},{"poiid":"B2094654D465A1FE4993","title":"新上海体育广场","lon":"121.435","lat":"31.2629","category":"224","category_name":"综合体育馆","address":"普陀区华池路58弄"},{"poiid":"B2094757D068A5FB4092","title":"振鑫火锅(宜川北店)","lon":"121.4352","lat":"31.26452","category":"86","category_name":"火锅店","address":"普陀区宜川路348号(近宜川路步行街)"},{"poiid":"B2094654D464A4FF419E","title":"天音酒家","lon":"121.43852089865","lat":"31.261720763837","category":"76","category_name":"上海菜","address":"普陀区延长西路250号(近宜川路)"},{"poiid":"B2094654DB65A7FE459E","title":"元祖 宜川店 Ganso","lon":"121.437655054","lat":"31.261832793","category":"67","category_name":"甜品店","address":"普陀区宜川路291号(延长中路口)"},{"poiid":"B2094654D464ABF84399","title":"凤中凰","lon":"121.43706056357","lat":"31.26334975322","category":"257","category_name":"中餐厅","address":"普陀区宜川路328号(近延长西路)"},{"poiid":"B2094757D16CA1F9419F","title":"来必堡 宜川店 Reboo Short order","lon":"121.43758","lat":"31.2626","category":"68","category_name":"快餐厅","address":"普陀区宜川路310号美华商城内(近延长西路)"},{"poiid":"B2094757D069A5F9429B","title":"子长小区","lon":"121.43523","lat":"31.262568","category":"47","category_name":"住宅区","address":"子长路77弄1-61号(单)"},{"poiid":"B2094655D26AA5F94499","title":"甘泉步行街","lon":"121.43768","lat":"31.26193","category":"247","category_name":"餐饮美食","address":"普陀区宜川路300号(近延长西路)"},{"poiid":"B2094757D16BA6FF4292","title":"巴弟鸡排(宜川店)","lon":"121.438238751","lat":"31.2616816281","category":"68","category_name":"快餐厅","address":"普陀区宜川路218号(近延长西路)"},{"poiid":"B2094757D465A5F44798","title":"延长西路正宗兰州牛肉拉面","lon":"121.438179054","lat":"31.261932793","category":"247","category_name":"餐饮美食","address":"普陀区延长西路86号(近骊山路)"},{"poiid":"B2094750D664A0FB439A","title":"老盛昌苏州汤包馆(宜川路店)","lon":"121.44","lat":"31.2593","category":"111","category_name":"休闲餐饮场所","address":"普陀区宜川路(近华阴路)"},{"poiid":"B2094757D765A0F44593","title":"沙县小吃 宜川路","lon":"121.43815","lat":"31.26201","category":"68","category_name":"快餐厅","address":"普陀区宜川路(近延长西路)"},{"poiid":"B2094757D069A3FC4698","title":"原力健(宜川路店)","lon":"121.43805","lat":"31.26194","category":"148","category_name":"美容美发店","address":"普陀区宜川路299号(近延长西路)"},{"poiid":"B2094757D06BA0F84999","title":"永琪美容美发(延长店)","lon":"121.43698","lat":"31.26292","category":"148","category_name":"美容美发店","address":"上海普陀区宜川路318号(近延长西路)  "},{"poiid":"B2094750D76CA3FD4992","title":"好乐邻","lon":"121.438","lat":"31.2616","category":"68","category_name":"快餐厅","address":"普陀区宜川路218号(近延长西路)"},{"poiid":"B2094757D06FA7F54099","title":"宜川一村","lon":"121.437305","lat":"31.263651","category":"47","category_name":"住宅区","address":"上海延长西路宜川路"},{"poiid":"B2094654D464A4FF429F","title":"快客(上海市甘泉外国语中学分部西北)","lon":"121.43814","lat":"31.26229","category":"117","category_name":"便民商店/便利店","address":"宜川路297"},{"poiid":"B2094757D465A4FE479A","title":"城隍庙小吃世界 宜川路店","lon":"121.439009054","lat":"31.260977793","category":"87","category_name":"特色／地方风味餐厅","address":"普陀区宜川路187号(近甘泉路)"},{"poiid":"B2094655D26BA5FE4392","title":"好莱喔涮涮煲宜川路店","lon":"121.4384","lat":"31.26147","category":"86","category_name":"火锅店","address":"普陀区宜川路214号(近延长西路)"},{"poiid":"B2094655D265A2F9429B","title":"绝味鸭脖 宜川路店","lon":"121.438015054","lat":"31.262156793","category":"68","category_name":"快餐厅","address":"普陀区宜川路209号(近延长西路)"},{"poiid":"B2094757D068A7FA499D","title":"优客NewCore","lon":"121.43744978","lat":"31.262638687","category":"117","category_name":"便民商店/便利店","address":"上海市普陀区宜川路310号"},{"poiid":"B2094757D168A0FF4298","title":"意诺餐厅酒吧","lon":"121.43840699","lat":"31.262011605","category":"260","category_name":"其他","address":"普陀区延长西路256号(近宜川路)"},{"poiid":"B2094654D464A4FE4998","title":"川湘阁(合阳小区西南)","lon":"121.43981","lat":"31.26307","category":"71","category_name":"四川菜","address":"普陀区延长西路(近宜川二村车站)"},{"poiid":"B2094655D26CA0FB4998","title":"美华商城","lon":"121.43755","lat":"31.26243","category":"119","category_name":"商场","address":"普陀区宜川路310号(近延长西路)"},{"poiid":"B2094757D068A2F5409E","title":"肯德基 KFC (宜川店)","lon":"121.440266","lat":"31.259595","category":"68","category_name":"快餐厅","address":"普陀区宜川路93号(近华阴路)"},{"poiid":"B2094757D16BA2FF479A","title":"78路宜川路延长西路站","lon":"121.43765495","lat":"31.262918924","category":"38","category_name":"公交车站","address":"上海宜川路(近延长西路)"},{"poiid":"B2094757D16AA5F44293","title":"上海市普陀区延长西路220弄","lon":"121.4392332","lat":"31.2624555","category":"47","category_name":"住宅区","address":"上海市普陀区延长西路220弄"},{"poiid":"B2094757D66CA2F8469A","title":"呀咪咖喱屋","lon":"121.43767595","lat":"31.26215991","category":"247","category_name":"餐饮美食","address":"上海市上南路"},{"poiid":"B2094655D26CA7F84499","title":"上海市普陀区甘泉进修学校","lon":"121.4387","lat":"31.2625","category":"53","category_name":"成人教育","address":"延长西路240"},{"poiid":"B209475CD16DA2F54592","title":"上海大饭堂 宜川路店","lon":"121.43737","lat":"31.26272","category":"76","category_name":"上海菜","address":"宜川路310号美华商城2楼"},{"poiid":"B2094757D16DA5FC419A","title":"阳光娃娃早教中心","lon":"121.44001295","lat":"31.261960906","category":"500","category_name":"未知分类","address":"上海普陀区延长西路240号"},{"poiid":"B2094757D169A3FE439B","title":"老上海葱油饼","lon":"121.43965","lat":"31.2607","category":"68","category_name":"快餐厅","address":"普陀区延长西路新影都电影院附近(近宜川路)"},{"poiid":"B2094654D464A4FF469C","title":"新宜小区","lon":"121.43704","lat":"31.265944","category":"47","category_name":"住宅区","address":"上海宜川路413弄"},{"poiid":"B2094757D068A3FD439C","title":"宜川路","lon":"121.438645","lat":"31.260913","category":"500","category_name":"未知分类","address":"上海普陀区宜川路新村路"},{"poiid":"B2094757D06FA4FA409F","title":"烧品(甘泉店)","lon":"121.43625","lat":"31.26416","category":"76","category_name":"上海菜","address":"普陀区宜川路424号(近甘泉路)"},{"poiid":"B2094655D265A3F4449D","title":"香溢花城","lon":"121.43961958287","lat":"31.262893373345","category":"47","category_name":"住宅区","address":"普陀区石泉东路168弄19号"},{"poiid":"B2094655D26AAAFD479F","title":"向天歌烧鹅老铺 宜川路店","lon":"121.437554054","lat":"31.262404793","category":"72","category_name":"广东菜","address":"普陀区宜川路305号(近延长西路)"},{"poiid":"B2094757D06FA1F44892","title":"85度C(宜川店)","lon":"121.43786","lat":"31.26206","category":"112","category_name":"糕饼店","address":"普陀区宜川路310号美华商城1楼(近延长西路)"},{"poiid":"B2094757D068A6F9469A","title":"宜川公园","lon":"121.44082769","lat":"31.260018618","category":"196","category_name":"公园","address":"普陀区宜川路99号(近洛川路)"},{"poiid":"B2094757D66FA6FA479C","title":"JEANS潮人店(京世宜川店)","lon":"121.43708706","lat":"31.263524998","category":"148","category_name":"美容美发店","address":"上海普陀区宜川路326号(近延长西路)"},{"poiid":"B2094654D464ABF8419D","title":"上海市甘泉外国语中学","lon":"121.43596","lat":"31.26354","category":"55","category_name":"中学","address":"普陀区宜川路400号(近甘泉路)"},{"poiid":"B2094750D76EA1F94398","title":"陈记鸡蛋仔","lon":"121.44","lat":"31.2592","category":"68","category_name":"快餐厅","address":"普陀区宜川路81号(近华阴路)"},{"poiid":"B2094757D06FA5F8419F","title":"新上海影都","lon":"121.437626","lat":"31.262073","category":"178","category_name":"电影院","address":"普陀区宜川路300号新上海影都内(近延长西路)"},{"poiid":"B2094750D26CA7FD469B","title":"大胡子烧烤","lon":"121.43812","lat":"31.26188","category":"68","category_name":"快餐厅","address":"普陀区宜川路(延长西路口)"},{"poiid":"B2094757D068A2FD4099","title":"传奇台球(普陀店)","lon":"121.43834695","lat":"31.262748921","category":"171","category_name":"台球厅","address":"普陀区宜川路305号2楼(近延长西路)"},{"poiid":"B2094757D06FA4FD4998","title":"和晟桌球","lon":"121.43774","lat":"31.26372","category":"171","category_name":"台球厅","address":"普陀区宜川路310号美华商城内(近延长西路)"},{"poiid":"B2094655D26AA6F54793","title":"溢湘轩","lon":"121.438038054","lat":"31.261862793","category":"77","category_name":"湖南菜","address":"普陀区宜川路291号(近延长西路)"},{"poiid":"B2094757D069A1FF479E","title":"宜川二村","lon":"121.437716","lat":"31.260315","category":"252","category_name":"楼宇机构","address":"上海延长西路泾惠路"},{"poiid":"B2094654D464A4FE4798","title":"合阳小区","lon":"121.43895","lat":"31.263123","category":"47","category_name":"住宅区","address":"延长西路150弄"},{"poiid":"B2094655D36DA0F84392","title":"延长西路宜川路","lon":"121.4394","lat":"31.26256","category":"38","category_name":"公交车站","address":"上海市普陀区延长西路宜川路"},{"poiid":"B2094654D465A1FE4993","title":"新上海体育广场","lon":"121.435","lat":"31.2629","category":"224","category_name":"综合体育馆","address":"普陀区华池路58弄"},{"poiid":"B2094757D068A5FB4092","title":"振鑫火锅(宜川北店)","lon":"121.4352","lat":"31.26452","category":"86","category_name":"火锅店","address":"普陀区宜川路348号(近宜川路步行街)"},{"poiid":"B2094654D464A4FF419E","title":"天音酒家","lon":"121.43852089865","lat":"31.261720763837","category":"76","category_name":"上海菜","address":"普陀区延长西路250号(近宜川路)"},{"poiid":"B2094654DB65A7FE459E","title":"元祖 宜川店 Ganso","lon":"121.437655054","lat":"31.261832793","category":"67","category_name":"甜品店","address":"普陀区宜川路291号(延长中路口)"},{"poiid":"B2094654D464ABF84399","title":"凤中凰","lon":"121.43706056357","lat":"31.26334975322","category":"257","category_name":"中餐厅","address":"普陀区宜川路328号(近延长西路)"},{"poiid":"B2094757D16CA1F9419F","title":"来必堡 宜川店 Reboo Short order","lon":"121.43758","lat":"31.2626","category":"68","category_name":"快餐厅","address":"普陀区宜川路310号美华商城内(近延长西路)"},{"poiid":"B2094757D069A5F9429B","title":"子长小区","lon":"121.43523","lat":"31.262568","category":"47","category_name":"住宅区","address":"子长路77弄1-61号(单)"},{"poiid":"B2094655D26AA5F94499","title":"甘泉步行街","lon":"121.43768","lat":"31.26193","category":"247","category_name":"餐饮美食","address":"普陀区宜川路300号(近延长西路)"},{"poiid":"B2094757D16BA6FF4292","title":"巴弟鸡排(宜川店)","lon":"121.438238751","lat":"31.2616816281","category":"68","category_name":"快餐厅","address":"普陀区宜川路218号(近延长西路)"},{"poiid":"B2094757D465A5F44798","title":"延长西路正宗兰州牛肉拉面","lon":"121.438179054","lat":"31.261932793","category":"247","category_name":"餐饮美食","address":"普陀区延长西路86号(近骊山路)"},{"poiid":"B2094750D664A0FB439A","title":"老盛昌苏州汤包馆(宜川路店)","lon":"121.44","lat":"31.2593","category":"111","category_name":"休闲餐饮场所","address":"普陀区宜川路(近华阴路)"},{"poiid":"B2094757D765A0F44593","title":"沙县小吃 宜川路","lon":"121.43815","lat":"31.26201","category":"68","category_name":"快餐厅","address":"普陀区宜川路(近延长西路)"},{"poiid":"B2094757D069A3FC4698","title":"原力健(宜川路店)","lon":"121.43805","lat":"31.26194","category":"148","category_name":"美容美发店","address":"普陀区宜川路299号(近延长西路)"},{"poiid":"B2094757D06BA0F84999","title":"永琪美容美发(延长店)","lon":"121.43698","lat":"31.26292","category":"148","category_name":"美容美发店","address":"上海普陀区宜川路318号(近延长西路)  "},{"poiid":"B2094750D76CA3FD4992","title":"好乐邻","lon":"121.438","lat":"31.2616","category":"68","category_name":"快餐厅","address":"普陀区宜川路218号(近延长西路)"},{"poiid":"B2094757D06FA7F54099","title":"宜川一村","lon":"121.437305","lat":"31.263651","category":"47","category_name":"住宅区","address":"上海延长西路宜川路"},{"poiid":"B2094654D464A4FF429F","title":"快客(上海市甘泉外国语中学分部西北)","lon":"121.43814","lat":"31.26229","category":"117","category_name":"便民商店/便利店","address":"宜川路297"},{"poiid":"B2094757D465A4FE479A","title":"城隍庙小吃世界 宜川路店","lon":"121.439009054","lat":"31.260977793","category":"87","category_name":"特色／地方风味餐厅","address":"普陀区宜川路187号(近甘泉路)"},{"poiid":"B2094655D26BA5FE4392","title":"好莱喔涮涮煲宜川路店","lon":"121.4384","lat":"31.26147","category":"86","category_name":"火锅店","address":"普陀区宜川路214号(近延长西路)"},{"poiid":"B2094655D265A2F9429B","title":"绝味鸭脖 宜川路店","lon":"121.438015054","lat":"31.262156793","category":"68","category_name":"快餐厅","address":"普陀区宜川路209号(近延长西路)"},{"poiid":"B2094757D068A7FA499D","title":"优客NewCore","lon":"121.43744978","lat":"31.262638687","category":"117","category_name":"便民商店/便利店","address":"上海市普陀区宜川路310号"},{"poiid":"B2094757D168A0FF4298","title":"意诺餐厅酒吧","lon":"121.43840699","lat":"31.262011605","category":"260","category_name":"其他","address":"普陀区延长西路256号(近宜川路)"},{"poiid":"B2094654D464A4FE4998","title":"川湘阁(合阳小区西南)","lon":"121.43981","lat":"31.26307","category":"71","category_name":"四川菜","address":"普陀区延长西路(近宜川二村车站)"},{"poiid":"B2094655D26CA0FB4998","title":"美华商城","lon":"121.43755","lat":"31.26243","category":"119","category_name":"商场","address":"普陀区宜川路310号(近延长西路)"},{"poiid":"B2094757D068A2F5409E","title":"肯德基 KFC (宜川店)","lon":"121.440266","lat":"31.259595","category":"68","category_name":"快餐厅","address":"普陀区宜川路93号(近华阴路)"},{"poiid":"B2094757D16BA2FF479A","title":"78路宜川路延长西路站","lon":"121.43765495","lat":"31.262918924","category":"38","category_name":"公交车站","address":"上海宜川路(近延长西路)"},{"poiid":"B2094757D16AA5F44293","title":"上海市普陀区延长西路220弄","lon":"121.4392332","lat":"31.2624555","category":"47","category_name":"住宅区","address":"上海市普陀区延长西路220弄"},{"poiid":"B2094757D66CA2F8469A","title":"呀咪咖喱屋","lon":"121.43767595","lat":"31.26215991","category":"247","category_name":"餐饮美食","address":"上海市上南路"},{"poiid":"B2094655D26CA7F84499","title":"上海市普陀区甘泉进修学校","lon":"121.4387","lat":"31.2625","category":"53","category_name":"成人教育","address":"延长西路240"},{"poiid":"B209475CD16DA2F54592","title":"上海大饭堂 宜川路店","lon":"121.43737","lat":"31.26272","category":"76","category_name":"上海菜","address":"宜川路310号美华商城2楼"},{"poiid":"B2094757D16DA5FC419A","title":"阳光娃娃早教中心","lon":"121.44001295","lat":"31.261960906","category":"500","category_name":"未知分类","address":"上海普陀区延长西路240号"},{"poiid":"B2094757D169A3FE439B","title":"老上海葱油饼","lon":"121.43965","lat":"31.2607","category":"68","category_name":"快餐厅","address":"普陀区延长西路新影都电影院附近(近宜川路)"},{"poiid":"B2094654D464A4FF469C","title":"新宜小区","lon":"121.43704","lat":"31.265944","category":"47","category_name":"住宅区","address":"上海宜川路413弄"},{"poiid":"B2094757D068A3FD439C","title":"宜川路","lon":"121.438645","lat":"31.260913","category":"500","category_name":"未知分类","address":"上海普陀区宜川路新村路"},{"poiid":"B2094757D06FA4FA409F","title":"烧品(甘泉店)","lon":"121.43625","lat":"31.26416","category":"76","category_name":"上海菜","address":"普陀区宜川路424号(近甘泉路)"},{"poiid":"B2094655D265A3F4449D","title":"香溢花城","lon":"121.43961958287","lat":"31.262893373345","category":"47","category_name":"住宅区","address":"普陀区石泉东路168弄19号"},{"poiid":"B2094655D26AAAFD479F","title":"向天歌烧鹅老铺 宜川路店","lon":"121.437554054","lat":"31.262404793","category":"72","category_name":"广东菜","address":"普陀区宜川路305号(近延长西路)"},{"poiid":"B2094757D06FA1F44892","title":"85度C(宜川店)","lon":"121.43786","lat":"31.26206","category":"112","category_name":"糕饼店","address":"普陀区宜川路310号美华商城1楼(近延长西路)"},{"poiid":"B2094757D068A6F9469A","title":"宜川公园","lon":"121.44082769","lat":"31.260018618","category":"196","category_name":"公园","address":"普陀区宜川路99号(近洛川路)"},{"poiid":"B2094757D66FA6FA479C","title":"JEANS潮人店(京世宜川店)","lon":"121.43708706","lat":"31.263524998","category":"148","category_name":"美容美发店","address":"上海普陀区宜川路326号(近延长西路)"},{"poiid":"B2094654D464ABF8419D","title":"上海市甘泉外国语中学","lon":"121.43596","lat":"31.26354","category":"55","category_name":"中学","address":"普陀区宜川路400号(近甘泉路)"},{"poiid":"B2094750D76EA1F94398","title":"陈记鸡蛋仔","lon":"121.44","lat":"31.2592","category":"68","category_name":"快餐厅","address":"普陀区宜川路81号(近华阴路)"},{"poiid":"B2094757D06FA5F8419F","title":"新上海影都","lon":"121.437626","lat":"31.262073","category":"178","category_name":"电影院","address":"普陀区宜川路300号新上海影都内(近延长西路)"},{"poiid":"B2094750D26CA7FD469B","title":"大胡子烧烤","lon":"121.43812","lat":"31.26188","category":"68","category_name":"快餐厅","address":"普陀区宜川路(延长西路口)"},{"poiid":"B2094757D068A2FD4099","title":"传奇台球(普陀店)","lon":"121.43834695","lat":"31.262748921","category":"171","category_name":"台球厅","address":"普陀区宜川路305号2楼(近延长西路)"},{"poiid":"B2094757D06FA4FD4998","title":"和晟桌球","lon":"121.43774","lat":"31.26372","category":"171","category_name":"台球厅","address":"普陀区宜川路310号美华商城内(近延长西路)"},{"poiid":"B2094655D26AA6F54793","title":"溢湘轩","lon":"121.438038054","lat":"31.261862793","category":"77","category_name":"湖南菜","address":"普陀区宜川路291号(近延长西路)"},{"poiid":"B2094757D069A1FF479E","title":"宜川二村","lon":"121.437716","lat":"31.260315","category":"252","category_name":"楼宇机构","address":"上海延长西路泾惠路"},{"poiid":"B2094654D464A4FE4798","title":"合阳小区","lon":"121.43895","lat":"31.263123","category":"47","category_name":"住宅区","address":"延长西路150弄"},{"poiid":"B2094655D36DA0F84392","title":"延长西路宜川路","lon":"121.4394","lat":"31.26256","category":"38","category_name":"公交车站","address":"上海市普陀区延长西路宜川路"},{"poiid":"B2094654D465A1FE4993","title":"新上海体育广场","lon":"121.435","lat":"31.2629","category":"224","category_name":"综合体育馆","address":"普陀区华池路58弄"},{"poiid":"B2094757D068A5FB4092","title":"振鑫火锅(宜川北店)","lon":"121.4352","lat":"31.26452","category":"86","category_name":"火锅店","address":"普陀区宜川路348号(近宜川路步行街)"},{"poiid":"B2094654D464A4FF419E","title":"天音酒家","lon":"121.43852089865","lat":"31.261720763837","category":"76","category_name":"上海菜","address":"普陀区延长西路250号(近宜川路)"},{"poiid":"B2094654DB65A7FE459E","title":"元祖 宜川店 Ganso","lon":"121.437655054","lat":"31.261832793","category":"67","category_name":"甜品店","address":"普陀区宜川路291号(延长中路口)"},{"poiid":"B2094654D464ABF84399","title":"凤中凰","lon":"121.43706056357","lat":"31.26334975322","category":"257","category_name":"中餐厅","address":"普陀区宜川路328号(近延长西路)"},{"poiid":"B2094757D16CA1F9419F","title":"来必堡 宜川店 Reboo Short order","lon":"121.43758","lat":"31.2626","category":"68","category_name":"快餐厅","address":"普陀区宜川路310号美华商城内(近延长西路)"},{"poiid":"B2094757D069A5F9429B","title":"子长小区","lon":"121.43523","lat":"31.262568","category":"47","category_name":"住宅区","address":"子长路77弄1-61号(单)"},{"poiid":"B2094655D26AA5F94499","title":"甘泉步行街","lon":"121.43768","lat":"31.26193","category":"247","category_name":"餐饮美食","address":"普陀区宜川路300号(近延长西路)"},{"poiid":"B2094757D16BA6FF4292","title":"巴弟鸡排(宜川店)","lon":"121.438238751","lat":"31.2616816281","category":"68","category_name":"快餐厅","address":"普陀区宜川路218号(近延长西路)"},{"poiid":"B2094757D465A5F44798","title":"延长西路正宗兰州牛肉拉面","lon":"121.438179054","lat":"31.261932793","category":"247","category_name":"餐饮美食","address":"普陀区延长西路86号(近骊山路)"},{"poiid":"B2094750D664A0FB439A","title":"老盛昌苏州汤包馆(宜川路店)","lon":"121.44","lat":"31.2593","category":"111","category_name":"休闲餐饮场所","address":"普陀区宜川路(近华阴路)"},{"poiid":"B2094757D765A0F44593","title":"沙县小吃 宜川路","lon":"121.43815","lat":"31.26201","category":"68","category_name":"快餐厅","address":"普陀区宜川路(近延长西路)"},{"poiid":"B2094757D069A3FC4698","title":"原力健(宜川路店)","lon":"121.43805","lat":"31.26194","category":"148","category_name":"美容美发店","address":"普陀区宜川路299号(近延长西路)"},{"poiid":"B2094757D06BA0F84999","title":"永琪美容美发(延长店)","lon":"121.43698","lat":"31.26292","category":"148","category_name":"美容美发店","address":"上海普陀区宜川路318号(近延长西路)  "},{"poiid":"B2094750D76CA3FD4992","title":"好乐邻","lon":"121.438","lat":"31.2616","category":"68","category_name":"快餐厅","address":"普陀区宜川路218号(近延长西路)"},{"poiid":"B2094757D06FA7F54099","title":"宜川一村","lon":"121.437305","lat":"31.263651","category":"47","category_name":"住宅区","address":"上海延长西路宜川路"},{"poiid":"B2094654D464A4FF429F","title":"快客(上海市甘泉外国语中学分部西北)","lon":"121.43814","lat":"31.26229","category":"117","category_name":"便民商店/便利店","address":"宜川路297"},{"poiid":"B2094757D465A4FE479A","title":"城隍庙小吃世界 宜川路店","lon":"121.439009054","lat":"31.260977793","category":"87","category_name":"特色／地方风味餐厅","address":"普陀区宜川路187号(近甘泉路)"},{"poiid":"B2094655D26BA5FE4392","title":"好莱喔涮涮煲宜川路店","lon":"121.4384","lat":"31.26147","category":"86","category_name":"火锅店","address":"普陀区宜川路214号(近延长西路)"},{"poiid":"B2094655D265A2F9429B","title":"绝味鸭脖 宜川路店","lon":"121.438015054","lat":"31.262156793","category":"68","category_name":"快餐厅","address":"普陀区宜川路209号(近延长西路)"},{"poiid":"B2094757D068A7FA499D","title":"优客NewCore","lon":"121.43744978","lat":"31.262638687","category":"117","category_name":"便民商店/便利店","address":"上海市普陀区宜川路310号"},{"poiid":"B2094757D168A0FF4298","title":"意诺餐厅酒吧","lon":"121.43840699","lat":"31.262011605","category":"260","category_name":"其他","address":"普陀区延长西路256号(近宜川路)"},{"poiid":"B2094654D464A4FE4998","title":"川湘阁(合阳小区西南)","lon":"121.43981","lat":"31.26307","category":"71","category_name":"四川菜","address":"普陀区延长西路(近宜川二村车站)"},{"poiid":"B2094655D26CA0FB4998","title":"美华商城","lon":"121.43755","lat":"31.26243","category":"119","category_name":"商场","address":"普陀区宜川路310号(近延长西路)"},{"poiid":"B2094757D068A2F5409E","title":"肯德基 KFC (宜川店)","lon":"121.440266","lat":"31.259595","category":"68","category_name":"快餐厅","address":"普陀区宜川路93号(近华阴路)"},{"poiid":"B2094757D16BA2FF479A","title":"78路宜川路延长西路站","lon":"121.43765495","lat":"31.262918924","category":"38","category_name":"公交车站","address":"上海宜川路(近延长西路)"},{"poiid":"B2094757D16AA5F44293","title":"上海市普陀区延长西路220弄","lon":"121.4392332","lat":"31.2624555","category":"47","category_name":"住宅区","address":"上海市普陀区延长西路220弄"},{"poiid":"B2094757D66CA2F8469A","title":"呀咪咖喱屋","lon":"121.43767595","lat":"31.26215991","category":"247","category_name":"餐饮美食","address":"上海市上南路"},{"poiid":"B2094655D26CA7F84499","title":"上海市普陀区甘泉进修学校","lon":"121.4387","lat":"31.2625","category":"53","category_name":"成人教育","address":"延长西路240"},{"poiid":"B209475CD16DA2F54592","title":"上海大饭堂 宜川路店","lon":"121.43737","lat":"31.26272","category":"76","category_name":"上海菜","address":"宜川路310号美华商城2楼"},{"poiid":"B2094757D16DA5FC419A","title":"阳光娃娃早教中心","lon":"121.44001295","lat":"31.261960906","category":"500","category_name":"未知分类","address":"上海普陀区延长西路240号"},{"poiid":"B2094757D169A3FE439B","title":"老上海葱油饼","lon":"121.43965","lat":"31.2607","category":"68","category_name":"快餐厅","address":"普陀区延长西路新影都电影院附近(近宜川路)"},{"poiid":"B2094654D464A4FF469C","title":"新宜小区","lon":"121.43704","lat":"31.265944","category":"47","category_name":"住宅区","address":"上海宜川路413弄"}]