[{"poiid":"B2094757D06FA2F4439C","title":"上海市出入境管理局徐汇分局","lon":"121.428715562","lat":"31.1973608269","category":"252","category_name":"楼宇机构","address":"上海番禺路865号"},{"poiid":"B2094655D26CA4F9419A","title":"上海市胸科医院","lon":"121.42588","lat":"31.1974","category":"162","category_name":"医院","address":"长宁区淮海西路241号(近番禺路)"},{"poiid":"B2094654DA6DA3FA489A","title":"上海交通大学徐汇校区(西门)","lon":"121.42955","lat":"31.1994","category":"52","category_name":"高等院校","address":"番禺路655"},{"poiid":"B2094654DB6BA5FF429A","title":"宁波汉通海鲜大酒店(淮海西路)","lon":"121.42853","lat":"31.19932","category":"75","category_name":"浙江菜","address":"长宁区淮海西路215号(近番禺路)"},{"poiid":"B2094757D069AAFC4893","title":"老刘野生大鱼坊(番禺路店)","lon":"121.42839","lat":"31.19603","category":"82","category_name":"东北菜","address":"徐汇区番禺路888号2楼(近虹桥路)"},{"poiid":"B2094655D26EAAFD449C","title":"上海市昂立学院(番禺路)","lon":"121.42809","lat":"31.19708","category":"52","category_name":"高等院校","address":"徐汇区番禺路868"},{"poiid":"B2094757D06FA7FA439E","title":"淮海西路番禺路","lon":"121.42873958","lat":"31.199468829","category":"260","category_name":"其他","address":"上海淮海西路番禺路"},{"poiid":"B2094757D068AAFA4692","title":"东方射击射箭馆","lon":"121.42682","lat":"31.19442","category":"220","category_name":"运动场所","address":"上海虹桥路663号(近番禺绿地)  "},{"poiid":"B2094757D06FA2FD469A","title":"乐山新村","lon":"121.43004623","lat":"31.195086057","category":"47","category_name":"住宅区","address":"上海秀山路乐山新村"},{"poiid":"B2094757D068A6F5479B","title":"とりくら","lon":"121.42876633","lat":"31.197705595","category":"95","category_name":"日本料理","address":"徐汇区番禺路828号(近交通大学)"},{"poiid":"B2094757D06FA4F54693","title":"东北四季饺子王(番禺路店)","lon":"121.428130321","lat":"31.1959206491","category":"82","category_name":"东北菜","address":"徐汇区番禺路888号(近秀山路)"},{"poiid":"B2094757D06FAAFB4498","title":"上海新东方学校(番禺路校区)","lon":"121.42843","lat":"31.19542","category":"253","category_name":"校园生活","address":"徐汇区番禺路900号1楼(近虹桥路)"},{"poiid":"B2094654DA6DA2FF489B","title":"国峰科技大厦","lon":"121.427","lat":"31.1983","category":"46","category_name":"楼宇","address":"闸北区江场西路395号"},{"poiid":"B2094757D06BA5FA4599","title":"港汇广场stella luna","lon":"121.42873382","lat":"31.197780609","category":"500","category_name":"未知分类","address":"上海华山路"},{"poiid":"B2094750D568A3F5419B","title":"肯德基(番禺路店)","lon":"121.428","lat":"31.1976","category":"68","category_name":"快餐厅","address":"徐汇区番禺路868号(近虹桥路)"},{"poiid":"B2094757D06FA6FB459C","title":"7-ELEVEN(新番禺店)","lon":"121.428344727","lat":"31.1967391968","category":"117","category_name":"便民商店/便利店","address":"徐汇区番禺路878号(番禺路秀山路)"},{"poiid":"B2094750DB6BA2FB4999","title":"星巴克新淮海坊","lon":"121.427413","lat":"31.19465","category":"500","category_name":"未知分类","address":null},{"poiid":"B2094757D068A5F94399","title":"红辣椒湘菜馆(番禺店)","lon":"121.4292","lat":"31.19863","category":"77","category_name":"湖南菜","address":"徐汇区番禺路754号(近淮海西路)"},{"poiid":"B2094655D26EA6FF439D","title":"汉庭快捷酒店(上海交大店)","lon":"121.42843","lat":"31.19504","category":"216","category_name":"经济型连锁酒店","address":"徐汇区番禺路955号(近虹桥路)"},{"poiid":"B2094757D06FA7FC4992","title":"昂立进修学院(番禺路分校)","lon":"121.42851","lat":"31.19654","category":"260","category_name":"其他","address":"上海徐汇区番禺路868号(近交通大学)"},{"poiid":"B2094757D468A3FD489E","title":"紫都雅宴","lon":"121.428357","lat":"31.196826","category":"91","category_name":"台湾菜","address":"徐汇区番禺路878号(近虹桥路)"},{"poiid":"B2094757D065A4F8429F","title":"成妈功夫面馆","lon":"121.428373414","lat":"31.1966294045","category":"68","category_name":"快餐厅","address":"徐汇区番禺路784号(近乐山路)"},{"poiid":"B2094757D06AA1F84793","title":"海螺大厦","lon":"121.426","lat":"31.1985","category":"46","category_name":"楼宇","address":"徐汇区中山西路1277号"},{"poiid":"B2094654DA6DA3FA409B","title":"八五八商务楼","lon":"121.42844","lat":"31.1974","category":"46","category_name":"楼宇","address":"沈河北中街123号"},{"poiid":"B2094757D465A4F8449F","title":"赤阪拉面","lon":"121.428357","lat":"31.196826","category":"247","category_name":"餐饮美食","address":"番禺路878号近虹桥路"},{"poiid":"B2094654DA6DA3FA4592","title":"上海市西南高级中学","lon":"121.42774","lat":"31.19774","category":"55","category_name":"中学","address":"徐汇区番禹路800弄22号(近上海交通大学)"},{"poiid":"B2094757D068AAF8489B","title":"小乐惠","lon":"121.42948","lat":"31.19917","category":"68","category_name":"快餐厅","address":"长宁区番禺路667号交大3号门旁(近淮海西路)"},{"poiid":"B2094654DA6DA3F9499F","title":"上海电视大学交大昂立分校","lon":"121.4281","lat":"31.19709","category":"52","category_name":"高等院校","address":"番禺路868"},{"poiid":"B2094654DA6DA3F9489C","title":"交大昂立职业教育","lon":"121.42811","lat":"31.1968","category":"54","category_name":"职业技术学校","address":"番禺路880"},{"poiid":"B2094751D26AA2FD409F","title":"溪边海鲜火锅","lon":"121.427581","lat":"31.197963","category":"86","category_name":"火锅店","address":"徐汇区番禺路878号(近虹桥路)"},{"poiid":"B2094655D265A4FE429B","title":"徐汇公安分局出入境接待大厅","lon":"121.42872","lat":"31.19722","category":"248","category_name":"生活娱乐","address":"番禺路865"},{"poiid":"B2094655D26EAAFC429C","title":"农工商超市番禺店","lon":"121.42807","lat":"31.19659","category":"117","category_name":"便民商店/便利店","address":"番禺路882号"},{"poiid":"B2094757D06AA0FE4099","title":"东骏海鲜大酒楼","lon":"121.42922973","lat":"31.196931839","category":"247","category_name":"餐饮美食","address":"上海淮海西路518号"},{"poiid":"B2094654DA6DA3F9429C","title":"爱情公寓","lon":"121.42775","lat":"31.19459","category":"263","category_name":"公司","address":"番禺路1028号上海数娱大厦1108"},{"poiid":"B2094655D26FA5FE439A","title":"番禺小区","lon":"121.42775","lat":"31.19775","category":"47","category_name":"住宅区","address":"番禺路800弄1-26号"},{"poiid":"B2094757D06BABFC429E","title":"美心港式茶餐厅","lon":"121.428722586","lat":"31.1994978301","category":"72","category_name":"广东菜","address":"长宁区淮海西路338号(近安顺路)"},{"poiid":"B2094655D268A3FE4598","title":"上海市昂立学院(东门)","lon":"121.42842","lat":"31.19719","category":"52","category_name":"高等院校","address":"番禺路868"},{"poiid":"B2094655D268A3F4449D","title":"昂立教育学生公寓","lon":"121.4281","lat":"31.19679","category":"47","category_name":"住宅区","address":"番禺路880"},{"poiid":"B2094654DA6DA3F9499D","title":"快客(八五八商务楼南)","lon":"121.42843","lat":"31.19726","category":"117","category_name":"便民商店/便利店","address":"番禺路870"},{"poiid":"B2094757D068AAF9429B","title":"湘轩酒楼(番禺路店)","lon":"121.42898","lat":"31.19807","category":"77","category_name":"湖南菜","address":"徐汇区番禺路752号(近淮海西路)"},{"poiid":"B2094753D36CA6F9479F","title":"鸟藏","lon":"121.42847","lat":"31.19751","category":"95","category_name":"日本料理","address":"番禺路828号"},{"poiid":"B2094757D569A2FD469B","title":"宜必思上海徐家汇酒店","lon":"121.42846191","lat":"31.19749539","category":"216","category_name":"经济型连锁酒店","address":"番禺路858"},{"poiid":"B2094655D268A3F44492","title":"昂立教育学生公寓(东门)","lon":"121.42833","lat":"31.19669","category":"47","category_name":"住宅区","address":"番禺路880"},{"poiid":"B2094757D06BA1FE479B","title":"千橡上海","lon":"121.42771148","lat":"31.19641304","category":"46","category_name":"楼宇","address":"上海淮海西路570号G座202"},{"poiid":"B2094654DA6DA3FB4292","title":"徐家汇派出所(番禺路)","lon":"121.42869","lat":"31.1972","category":"248","category_name":"生活娱乐","address":"番禺路865"},{"poiid":"B2094654D564A6F84593","title":"凯利大厦","lon":"121.42693","lat":"31.19923","category":"46","category_name":"楼宇","address":"上海市奉贤区南奉公路8515,8519号"},{"poiid":"B2094757D66FA6FB419E","title":"The Kro's Nest 乌巢比萨主义主题餐厅(霄云路店)","lon":"121.42875058","lat":"31.19746979","category":"94","category_name":"西餐厅","address":"北京朝阳区霄云路35号(现代汽车大厦对面,吉野家旁)"},{"poiid":"B2094757D16CA0FF4393","title":"沪上客苏式汤包馆","lon":"121.428811586","lat":"31.1982838063","category":"68","category_name":"快餐厅","address":"徐汇区番禺路818号(近秀山路)"},{"poiid":"B2094757D068A1F44599","title":"番禺绿地","lon":"121.42766","lat":"31.19429","category":"196","category_name":"公园","address":"徐汇区虹桥路637号(番禺路口)"},{"poiid":"B2094757DB6CAAFC4499","title":"徐汇中学","lon":"121.42910426","lat":"31.19816821","category":"55","category_name":"中学","address":"虹桥路"},{"poiid":"B2094757D06FA2F4439C","title":"上海市出入境管理局徐汇分局","lon":"121.428715562","lat":"31.1973608269","category":"252","category_name":"楼宇机构","address":"上海番禺路865号"},{"poiid":"B2094655D26CA4F9419A","title":"上海市胸科医院","lon":"121.42588","lat":"31.1974","category":"162","category_name":"医院","address":"长宁区淮海西路241号(近番禺路)"},{"poiid":"B2094654DA6DA3FA489A","title":"上海交通大学徐汇校区(西门)","lon":"121.42955","lat":"31.1994","category":"52","category_name":"高等院校","address":"番禺路655"},{"poiid":"B2094654DB6BA5FF429A","title":"宁波汉通海鲜大酒店(淮海西路)","lon":"121.42853","lat":"31.19932","category":"75","category_name":"浙江菜","address":"长宁区淮海西路215号(近番禺路)"},{"poiid":"B2094757D069AAFC4893","title":"老刘野生大鱼坊(番禺路店)","lon":"121.42839","lat":"31.19603","category":"82","category_name":"东北菜","address":"徐汇区番禺路888号2楼(近虹桥路)"},{"poiid":"B2094655D26EAAFD449C","title":"上海市昂立学院(番禺路)","lon":"121.42809","lat":"31.19708","category":"52","category_name":"高等院校","address":"徐汇区番禺路868"},{"poiid":"B2094757D06FA7FA439E","title":"淮海西路番禺路","lon":"121.42873958","lat":"31.199468829","category":"260","category_name":"其他","address":"上海淮海西路番禺路"},{"poiid":"B2094757D068AAFA4692","title":"东方射击射箭馆","lon":"121.42682","lat":"31.19442","category":"220","category_name":"运动场所","address":"上海虹桥路663号(近番禺绿地)  "},{"poiid":"B2094757D06FA2FD469A","title":"乐山新村","lon":"121.43004623","lat":"31.195086057","category":"47","category_name":"住宅区","address":"上海秀山路乐山新村"},{"poiid":"B2094757D068A6F5479B","title":"とりくら","lon":"121.42876633","lat":"31.197705595","category":"95","category_name":"日本料理","address":"徐汇区番禺路828号(近交通大学)"},{"poiid":"B2094757D06FA4F54693","title":"东北四季饺子王(番禺路店)","lon":"121.428130321","lat":"31.1959206491","category":"82","category_name":"东北菜","address":"徐汇区番禺路888号(近秀山路)"},{"poiid":"B2094757D06FAAFB4498","title":"上海新东方学校(番禺路校区)","lon":"121.42843","lat":"31.19542","category":"253","category_name":"校园生活","address":"徐汇区番禺路900号1楼(近虹桥路)"},{"poiid":"B2094654DA6DA2FF489B","title":"国峰科技大厦","lon":"121.427","lat":"31.1983","category":"46","category_name":"楼宇","address":"闸北区江场西路395号"},{"poiid":"B2094757D06BA5FA4599","title":"港汇广场stella luna","lon":"121.42873382","lat":"31.197780609","category":"500","category_name":"未知分类","address":"上海华山路"},{"poiid":"B2094750D568A3F5419B","title":"肯德基(番禺路店)","lon":"121.428","lat":"31.1976","category":"68","category_name":"快餐厅","address":"徐汇区番禺路868号(近虹桥路)"},{"poiid":"B2094757D06FA6FB459C","title":"7-ELEVEN(新番禺店)","lon":"121.428344727","lat":"31.1967391968","category":"117","category_name":"便民商店/便利店","address":"徐汇区番禺路878号(番禺路秀山路)"},{"poiid":"B2094750DB6BA2FB4999","title":"星巴克新淮海坊","lon":"121.427413","lat":"31.19465","category":"500","category_name":"未知分类","address":null},{"poiid":"B2094757D068A5F94399","title":"红辣椒湘菜馆(番禺店)","lon":"121.4292","lat":"31.19863","category":"77","category_name":"湖南菜","address":"徐汇区番禺路754号(近淮海西路)"},{"poiid":"B2094655D26EA6FF439D","title":"汉庭快捷酒店(上海交大店)","lon":"121.42843","lat":"31.19504","category":"216","category_name":"经济型连锁酒店","address":"徐汇区番禺路955号(近虹桥路)"},{"poiid":"B2094757D06FA7FC4992","title":"昂立进修学院(番禺路分校)","lon":"121.42851","lat":"31.19654","category":"260","category_name":"其他","address":"上海徐汇区番禺路868号(近交通大学)"},{"poiid":"B2094757D468A3FD489E","title":"紫都雅宴","lon":"121.428357","lat":"31.196826","category":"91","category_name":"台湾菜","address":"徐汇区番禺路878号(近虹桥路)"},{"poiid":"B2094757D065A4F8429F","title":"成妈功夫面馆","lon":"121.428373414","lat":"31.1966294045","category":"68","category_name":"快餐厅","address":"徐汇区番禺路784号(近乐山路)"},{"poiid":"B2094757D06AA1F84793","title":"海螺大厦","lon":"121.426","lat":"31.1985","category":"46","category_name":"楼宇","address":"徐汇区中山西路1277号"},{"poiid":"B2094654DA6DA3FA409B","title":"八五八商务楼","lon":"121.42844","lat":"31.1974","category":"46","category_name":"楼宇","address":"沈河北中街123号"},{"poiid":"B2094757D465A4F8449F","title":"赤阪拉面","lon":"121.428357","lat":"31.196826","category":"247","category_name":"餐饮美食","address":"番禺路878号近虹桥路"},{"poiid":"B2094654DA6DA3FA4592","title":"上海市西南高级中学","lon":"121.42774","lat":"31.19774","category":"55","category_name":"中学","address":"徐汇区番禹路800弄22号(近上海交通大学)"},{"poiid":"B2094757D068AAF8489B","title":"小乐惠","lon":"121.42948","lat":"31.19917","category":"68","category_name":"快餐厅","address":"长宁区番禺路667号交大3号门旁(近淮海西路)"},{"poiid":"B2094654DA6DA3F9499F","title":"上海电视大学交大昂立分校","lon":"121.4281","lat":"31.19709","category":"52","category_name":"高等院校","address":"番禺路868"},{"poiid":"B2094654DA6DA3F9489C","title":"交大昂立职业教育","lon":"121.42811","lat":"31.1968","category":"54","category_name":"职业技术学校","address":"番禺路880"},{"poiid":"B2094751D26AA2FD409F","title":"溪边海鲜火锅","lon":"121.427581","lat":"31.197963","category":"86","category_name":"火锅店","address":"徐汇区番禺路878号(近虹桥路)"},{"poiid":"B2094655D265A4FE429B","title":"徐汇公安分局出入境接待大厅","lon":"121.42872","lat":"31.19722","category":"248","category_name":"生活娱乐","address":"番禺路865"},{"poiid":"B2094655D26EAAFC429C","title":"农工商超市番禺店","lon":"121.42807","lat":"31.19659","category":"117","category_name":"便民商店/便利店","address":"番禺路882号"},{"poiid":"B2094757D06AA0FE4099","title":"东骏海鲜大酒楼","lon":"121.42922973","lat":"31.196931839","category":"247","category_name":"餐饮美食","address":"上海淮海西路518号"},{"poiid":"B2094654DA6DA3F9429C","title":"爱情公寓","lon":"121.42775","lat":"31.19459","category":"263","category_name":"公司","address":"番禺路1028号上海数娱大厦1108"},{"poiid":"B2094655D26FA5FE439A","title":"番禺小区","lon":"121.42775","lat":"31.19775","category":"47","category_name":"住宅区","address":"番禺路800弄1-26号"},{"poiid":"B2094757D06BABFC429E","title":"美心港式茶餐厅","lon":"121.428722586","lat":"31.1994978301","category":"72","category_name":"广东菜","address":"长宁区淮海西路338号(近安顺路)"},{"poiid":"B2094655D268A3FE4598","title":"上海市昂立学院(东门)","lon":"121.42842","lat":"31.19719","category":"52","category_name":"高等院校","address":"番禺路868"},{"poiid":"B2094655D268A3F4449D","title":"昂立教育学生公寓","lon":"121.4281","lat":"31.19679","category":"47","category_name":"住宅区","address":"番禺路880"},{"poiid":"B2094654DA6DA3F9499D","title":"快客(八五八商务楼南)","lon":"121.42843","lat":"31.19726","category":"117","category_name":"便民商店/便利店","address":"番禺路870"},{"poiid":"B2094757D068AAF9429B","title":"湘轩酒楼(番禺路店)","lon":"121.42898","lat":"31.19807","category":"77","category_name":"湖南菜","address":"徐汇区番禺路752号(近淮海西路)"},{"poiid":"B2094753D36CA6F9479F","title":"鸟藏","lon":"121.42847","lat":"31.19751","category":"95","category_name":"日本料理","address":"番禺路828号"},{"poiid":"B2094757D569A2FD469B","title":"宜必思上海徐家汇酒店","lon":"121.42846191","lat":"31.19749539","category":"216","category_name":"经济型连锁酒店","address":"番禺路858"},{"poiid":"B2094655D268A3F44492","title":"昂立教育学生公寓(东门)","lon":"121.42833","lat":"31.19669","category":"47","category_name":"住宅区","address":"番禺路880"},{"poiid":"B2094757D06BA1FE479B","title":"千橡上海","lon":"121.42771148","lat":"31.19641304","category":"46","category_name":"楼宇","address":"上海淮海西路570号G座202"},{"poiid":"B2094654DA6DA3FB4292","title":"徐家汇派出所(番禺路)","lon":"121.42869","lat":"31.1972","category":"248","category_name":"生活娱乐","address":"番禺路865"},{"poiid":"B2094654D564A6F84593","title":"凯利大厦","lon":"121.42693","lat":"31.19923","category":"46","category_name":"楼宇","address":"上海市奉贤区南奉公路8515,8519号"},{"poiid":"B2094757D66FA6FB419E","title":"The Kro's Nest 乌巢比萨主义主题餐厅(霄云路店)","lon":"121.42875058","lat":"31.19746979","category":"94","category_name":"西餐厅","address":"北京朝阳区霄云路35号(现代汽车大厦对面,吉野家旁)"},{"poiid":"B2094757D16CA0FF4393","title":"沪上客苏式汤包馆","lon":"121.428811586","lat":"31.1982838063","category":"68","category_name":"快餐厅","address":"徐汇区番禺路818号(近秀山路)"},{"poiid":"B2094757D068A1F44599","title":"番禺绿地","lon":"121.42766","lat":"31.19429","category":"196","category_name":"公园","address":"徐汇区虹桥路637号(番禺路口)"},{"poiid":"B2094757DB6CAAFC4499","title":"徐汇中学","lon":"121.42910426","lat":"31.19816821","category":"55","category_name":"中学","address":"虹桥路"},{"poiid":"B2094757D06FA2F4439C","title":"上海市出入境管理局徐汇分局","lon":"121.428715562","lat":"31.1973608269","category":"252","category_name":"楼宇机构","address":"上海番禺路865号"},{"poiid":"B2094655D26CA4F9419A","title":"上海市胸科医院","lon":"121.42588","lat":"31.1974","category":"162","category_name":"医院","address":"长宁区淮海西路241号(近番禺路)"},{"poiid":"B2094654DA6DA3FA489A","title":"上海交通大学徐汇校区(西门)","lon":"121.42955","lat":"31.1994","category":"52","category_name":"高等院校","address":"番禺路655"},{"poiid":"B2094654DB6BA5FF429A","title":"宁波汉通海鲜大酒店(淮海西路)","lon":"121.42853","lat":"31.19932","category":"75","category_name":"浙江菜","address":"长宁区淮海西路215号(近番禺路)"},{"poiid":"B2094757D069AAFC4893","title":"老刘野生大鱼坊(番禺路店)","lon":"121.42839","lat":"31.19603","category":"82","category_name":"东北菜","address":"徐汇区番禺路888号2楼(近虹桥路)"},{"poiid":"B2094655D26EAAFD449C","title":"上海市昂立学院(番禺路)","lon":"121.42809","lat":"31.19708","category":"52","category_name":"高等院校","address":"徐汇区番禺路868"},{"poiid":"B2094757D06FA7FA439E","title":"淮海西路番禺路","lon":"121.42873958","lat":"31.199468829","category":"260","category_name":"其他","address":"上海淮海西路番禺路"},{"poiid":"B2094757D068AAFA4692","title":"东方射击射箭馆","lon":"121.42682","lat":"31.19442","category":"220","category_name":"运动场所","address":"上海虹桥路663号(近番禺绿地)  "},{"poiid":"B2094757D06FA2FD469A","title":"乐山新村","lon":"121.43004623","lat":"31.195086057","category":"47","category_name":"住宅区","address":"上海秀山路乐山新村"},{"poiid":"B2094757D068A6F5479B","title":"とりくら","lon":"121.42876633","lat":"31.197705595","category":"95","category_name":"日本料理","address":"徐汇区番禺路828号(近交通大学)"},{"poiid":"B2094757D06FA4F54693","title":"东北四季饺子王(番禺路店)","lon":"121.428130321","lat":"31.1959206491","category":"82","category_name":"东北菜","address":"徐汇区番禺路888号(近秀山路)"},{"poiid":"B2094757D06FAAFB4498","title":"上海新东方学校(番禺路校区)","lon":"121.42843","lat":"31.19542","category":"253","category_name":"校园生活","address":"徐汇区番禺路900号1楼(近虹桥路)"},{"poiid":"B2094654DA6DA2FF489B","title":"国峰科技大厦","lon":"121.427","lat":"31.1983","category":"46","category_name":"楼宇","address":"闸北区江场西路395号"},{"poiid":"B2094757D06BA5FA4599","title":"港汇广场stella luna","lon":"121.42873382","lat":"31.197780609","category":"500","category_name":"未知分类","address":"上海华山路"},{"poiid":"B2094750D568A3F5419B","title":"肯德基(番禺路店)","lon":"121.428","lat":"31.1976","category":"68","category_name":"快餐厅","address":"徐汇区番禺路868号(近虹桥路)"},{"poiid":"B2094757D06FA6FB459C","title":"7-ELEVEN(新番禺店)","lon":"121.428344727","lat":"31.1967391968","category":"117","category_name":"便民商店/便利店","address":"徐汇区番禺路878号(番禺路秀山路)"},{"poiid":"B2094750DB6BA2FB4999","title":"星巴克新淮海坊","lon":"121.427413","lat":"31.19465","category":"500","category_name":"未知分类","address":null},{"poiid":"B2094757D068A5F94399","title":"红辣椒湘菜馆(番禺店)","lon":"121.4292","lat":"31.19863","category":"77","category_name":"湖南菜","address":"徐汇区番禺路754号(近淮海西路)"},{"poiid":"B2094655D26EA6FF439D","title":"汉庭快捷酒店(上海交大店)","lon":"121.42843","lat":"31.19504","category":"216","category_name":"经济型连锁酒店","address":"徐汇区番禺路955号(近虹桥路)"},{"poiid":"B2094757D06FA7FC4992","title":"昂立进修学院(番禺路分校)","lon":"121.42851","lat":"31.19654","category":"260","category_name":"其他","address":"上海徐汇区番禺路868号(近交通大学)"},{"poiid":"B2094757D468A3FD489E","title":"紫都雅宴","lon":"121.428357","lat":"31.196826","category":"91","category_name":"台湾菜","address":"徐汇区番禺路878号(近虹桥路)"},{"poiid":"B2094757D065A4F8429F","title":"成妈功夫面馆","lon":"121.428373414","lat":"31.1966294045","category":"68","category_name":"快餐厅","address":"徐汇区番禺路784号(近乐山路)"},{"poiid":"B2094757D06AA1F84793","title":"海螺大厦","lon":"121.426","lat":"31.1985","category":"46","category_name":"楼宇","address":"徐汇区中山西路1277号"},{"poiid":"B2094654DA6DA3FA409B","title":"八五八商务楼","lon":"121.42844","lat":"31.1974","category":"46","category_name":"楼宇","address":"沈河北中街123号"},{"poiid":"B2094757D465A4F8449F","title":"赤阪拉面","lon":"121.428357","lat":"31.196826","category":"247","category_name":"餐饮美食","address":"番禺路878号近虹桥路"},{"poiid":"B2094654DA6DA3FA4592","title":"上海市西南高级中学","lon":"121.42774","lat":"31.19774","category":"55","category_name":"中学","address":"徐汇区番禹路800弄22号(近上海交通大学)"},{"poiid":"B2094757D068AAF8489B","title":"小乐惠","lon":"121.42948","lat":"31.19917","category":"68","category_name":"快餐厅","address":"长宁区番禺路667号交大3号门旁(近淮海西路)"},{"poiid":"B2094654DA6DA3F9499F","title":"上海电视大学交大昂立分校","lon":"121.4281","lat":"31.19709","category":"52","category_name":"高等院校","address":"番禺路868"},{"poiid":"B2094654DA6DA3F9489C","title":"交大昂立职业教育","lon":"121.42811","lat":"31.1968","category":"54","category_name":"职业技术学校","address":"番禺路880"},{"poiid":"B2094751D26AA2FD409F","title":"溪边海鲜火锅","lon":"121.427581","lat":"31.197963","category":"86","category_name":"火锅店","address":"徐汇区番禺路878号(近虹桥路)"},{"poiid":"B2094655D265A4FE429B","title":"徐汇公安分局出入境接待大厅","lon":"121.42872","lat":"31.19722","category":"248","category_name":"生活娱乐","address":"番禺路865"},{"poiid":"B2094655D26EAAFC429C","title":"农工商超市番禺店","lon":"121.42807","lat":"31.19659","category":"117","category_name":"便民商店/便利店","address":"番禺路882号"},{"poiid":"B2094757D06AA0FE4099","title":"东骏海鲜大酒楼","lon":"121.42922973","lat":"31.196931839","category":"247","category_name":"餐饮美食","address":"上海淮海西路518号"},{"poiid":"B2094654DA6DA3F9429C","title":"爱情公寓","lon":"121.42775","lat":"31.19459","category":"263","category_name":"公司","address":"番禺路1028号上海数娱大厦1108"},{"poiid":"B2094655D26FA5FE439A","title":"番禺小区","lon":"121.42775","lat":"31.19775","category":"47","category_name":"住宅区","address":"番禺路800弄1-26号"},{"poiid":"B2094757D06BABFC429E","title":"美心港式茶餐厅","lon":"121.428722586","lat":"31.1994978301","category":"72","category_name":"广东菜","address":"长宁区淮海西路338号(近安顺路)"},{"poiid":"B2094655D268A3FE4598","title":"上海市昂立学院(东门)","lon":"121.42842","lat":"31.19719","category":"52","category_name":"高等院校","address":"番禺路868"},{"poiid":"B2094655D268A3F4449D","title":"昂立教育学生公寓","lon":"121.4281","lat":"31.19679","category":"47","category_name":"住宅区","address":"番禺路880"},{"poiid":"B2094654DA6DA3F9499D","title":"快客(八五八商务楼南)","lon":"121.42843","lat":"31.19726","category":"117","category_name":"便民商店/便利店","address":"番禺路870"},{"poiid":"B2094757D068AAF9429B","title":"湘轩酒楼(番禺路店)","lon":"121.42898","lat":"31.19807","category":"77","category_name":"湖南菜","address":"徐汇区番禺路752号(近淮海西路)"},{"poiid":"B2094753D36CA6F9479F","title":"鸟藏","lon":"121.42847","lat":"31.19751","category":"95","category_name":"日本料理","address":"番禺路828号"},{"poiid":"B2094757D569A2FD469B","title":"宜必思上海徐家汇酒店","lon":"121.42846191","lat":"31.19749539","category":"216","category_name":"经济型连锁酒店","address":"番禺路858"},{"poiid":"B2094655D268A3F44492","title":"昂立教育学生公寓(东门)","lon":"121.42833","lat":"31.19669","category":"47","category_name":"住宅区","address":"番禺路880"},{"poiid":"B2094757D06BA1FE479B","title":"千橡上海","lon":"121.42771148","lat":"31.19641304","category":"46","category_name":"楼宇","address":"上海淮海西路570号G座202"},{"poiid":"B2094654DA6DA3FB4292","title":"徐家汇派出所(番禺路)","lon":"121.42869","lat":"31.1972","category":"248","category_name":"生活娱乐","address":"番禺路865"},{"poiid":"B2094654D564A6F84593","title":"凯利大厦","lon":"121.42693","lat":"31.19923","category":"46","category_name":"楼宇","address":"上海市奉贤区南奉公路8515,8519号"},{"poiid":"B2094757D66FA6FB419E","title":"The Kro's Nest 乌巢比萨主义主题餐厅(霄云路店)","lon":"121.42875058","lat":"31.19746979","category":"94","category_name":"西餐厅","address":"北京朝阳区霄云路35号(现代汽车大厦对面,吉野家旁)"},{"poiid":"B2094757D16CA0FF4393","title":"沪上客苏式汤包馆","lon":"121.428811586","lat":"31.1982838063","category":"68","category_name":"快餐厅","address":"徐汇区番禺路818号(近秀山路)"},{"poiid":"B2094757D068A1F44599","title":"番禺绿地","lon":"121.42766","lat":"31.19429","category":"196","category_name":"公园","address":"徐汇区虹桥路637号(番禺路口)"},{"poiid":"B2094757DB6CAAFC4499","title":"徐汇中学","lon":"121.42910426","lat":"31.19816821","category":"55","category_name":"中学","address":"虹桥路"},{"poiid":"B2094757D06FA2F4439C","title":"上海市出入境管理局徐汇分局","lon":"121.428715562","lat":"31.1973608269","category":"252","category_name":"楼宇机构","address":"上海番禺路865号"},{"poiid":"B2094655D26CA4F9419A","title":"上海市胸科医院","lon":"121.42588","lat":"31.1974","category":"162","category_name":"医院","address":"长宁区淮海西路241号(近番禺路)"},{"poiid":"B2094654DA6DA3FA489A","title":"上海交通大学徐汇校区(西门)","lon":"121.42955","lat":"31.1994","category":"52","category_name":"高等院校","address":"番禺路655"},{"poiid":"B2094654DB6BA5FF429A","title":"宁波汉通海鲜大酒店(淮海西路)","lon":"121.42853","lat":"31.19932","category":"75","category_name":"浙江菜","address":"长宁区淮海西路215号(近番禺路)"},{"poiid":"B2094757D069AAFC4893","title":"老刘野生大鱼坊(番禺路店)","lon":"121.42839","lat":"31.19603","category":"82","category_name":"东北菜","address":"徐汇区番禺路888号2楼(近虹桥路)"},{"poiid":"B2094655D26EAAFD449C","title":"上海市昂立学院(番禺路)","lon":"121.42809","lat":"31.19708","category":"52","category_name":"高等院校","address":"徐汇区番禺路868"},{"poiid":"B2094757D06FA7FA439E","title":"淮海西路番禺路","lon":"121.42873958","lat":"31.199468829","category":"260","category_name":"其他","address":"上海淮海西路番禺路"},{"poiid":"B2094757D068AAFA4692","title":"东方射击射箭馆","lon":"121.42682","lat":"31.19442","category":"220","category_name":"运动场所","address":"上海虹桥路663号(近番禺绿地)  "},{"poiid":"B2094757D06FA2FD469A","title":"乐山新村","lon":"121.43004623","lat":"31.195086057","category":"47","category_name":"住宅区","address":"上海秀山路乐山新村"},{"poiid":"B2094757D068A6F5479B","title":"とりくら","lon":"121.42876633","lat":"31.197705595","category":"95","category_name":"日本料理","address":"徐汇区番禺路828号(近交通大学)"},{"poiid":"B2094757D06FA4F54693","title":"东北四季饺子王(番禺路店)","lon":"121.428130321","lat":"31.1959206491","category":"82","category_name":"东北菜","address":"徐汇区番禺路888号(近秀山路)"},{"poiid":"B2094757D06FAAFB4498","title":"上海新东方学校(番禺路校区)","lon":"121.42843","lat":"31.19542","category":"253","category_name":"校园生活","address":"徐汇区番禺路900号1楼(近虹桥路)"},{"poiid":"B2094654DA6DA2FF489B","title":"国峰科技大厦","lon":"121.427","lat":"31.1983","category":"46","category_name":"楼宇","address":"闸北区江场西路395号"},{"poiid":"B2094757D06BA5FA4599","title":"港汇广场stella luna","lon":"121.42873382","lat":"31.197780609","category":"500","category_name":"未知分类","address":"上海华山路"},{"poiid":"B2094750D568A3F5419B","title":"肯德基(番禺路店)","lon":"121.428","lat":"31.1976","category":"68","category_name":"快餐厅","address":"徐汇区番禺路868号(近虹桥路)"},{"poiid":"B2094757D06FA6FB459C","title":"7-ELEVEN(新番禺店)","lon":"121.428344727","lat":"31.1967391968","category":"117","category_name":"便民商店/便利店","address":"徐汇区番禺路878号(番禺路秀山路)"},{"poiid":"B2094750DB6BA2FB4999","title":"星巴克新淮海坊","lon":"121.427413","lat":"31.19465","category":"500","category_name":"未知分类","address":null},{"poiid":"B2094757D068A5F94399","title":"红辣椒湘菜馆(番禺店)","lon":"121.4292","lat":"31.19863","category":"77","category_name":"湖南菜","address":"徐汇区番禺路754号(近淮海西路)"},{"poiid":"B2094655D26EA6FF439D","title":"汉庭快捷酒店(上海交大店)","lon":"121.42843","lat":"31.19504","category":"216","category_name":"经济型连锁酒店","address":"徐汇区番禺路955号(近虹桥路)"},{"poiid":"B2094757D06FA7FC4992","title":"昂立进修学院(番禺路分校)","lon":"121.42851","lat":"31.19654","category":"260","category_name":"其他","address":"上海徐汇区番禺路868号(近交通大学)"},{"poiid":"B2094757D468A3FD489E","title":"紫都雅宴","lon":"121.428357","lat":"31.196826","category":"91","category_name":"台湾菜","address":"徐汇区番禺路878号(近虹桥路)"},{"poiid":"B2094757D065A4F8429F","title":"成妈功夫面馆","lon":"121.428373414","lat":"31.1966294045","category":"68","category_name":"快餐厅","address":"徐汇区番禺路784号(近乐山路)"},{"poiid":"B2094757D06AA1F84793","title":"海螺大厦","lon":"121.426","lat":"31.1985","category":"46","category_name":"楼宇","address":"徐汇区中山西路1277号"},{"poiid":"B2094654DA6DA3FA409B","title":"八五八商务楼","lon":"121.42844","lat":"31.1974","category":"46","category_name":"楼宇","address":"沈河北中街123号"},{"poiid":"B2094757D465A4F8449F","title":"赤阪拉面","lon":"121.428357","lat":"31.196826","category":"247","category_name":"餐饮美食","address":"番禺路878号近虹桥路"},{"poiid":"B2094654DA6DA3FA4592","title":"上海市西南高级中学","lon":"121.42774","lat":"31.19774","category":"55","category_name":"中学","address":"徐汇区番禹路800弄22号(近上海交通大学)"},{"poiid":"B2094757D068AAF8489B","title":"小乐惠","lon":"121.42948","lat":"31.19917","category":"68","category_name":"快餐厅","address":"长宁区番禺路667号交大3号门旁(近淮海西路)"},{"poiid":"B2094654DA6DA3F9499F","title":"上海电视大学交大昂立分校","lon":"121.4281","lat":"31.19709","category":"52","category_name":"高等院校","address":"番禺路868"},{"poiid":"B2094654DA6DA3F9489C","title":"交大昂立职业教育","lon":"121.42811","lat":"31.1968","category":"54","category_name":"职业技术学校","address":"番禺路880"},{"poiid":"B2094751D26AA2FD409F","title":"溪边海鲜火锅","lon":"121.427581","lat":"31.197963","category":"86","category_name":"火锅店","address":"徐汇区番禺路878号(近虹桥路)"},{"poiid":"B2094655D265A4FE429B","title":"徐汇公安分局出入境接待大厅","lon":"121.42872","lat":"31.19722","category":"248","category_name":"生活娱乐","address":"番禺路865"},{"poiid":"B2094655D26EAAFC429C","title":"农工商超市番禺店","lon":"121.42807","lat":"31.19659","category":"117","category_name":"便民商店/便利店","address":"番禺路882号"},{"poiid":"B2094757D06AA0FE4099","title":"东骏海鲜大酒楼","lon":"121.42922973","lat":"31.196931839","category":"247","category_name":"餐饮美食","address":"上海淮海西路518号"},{"poiid":"B2094654DA6DA3F9429C","title":"爱情公寓","lon":"121.42775","lat":"31.19459","category":"263","category_name":"公司","address":"番禺路1028号上海数娱大厦1108"},{"poiid":"B2094655D26FA5FE439A","title":"番禺小区","lon":"121.42775","lat":"31.19775","category":"47","category_name":"住宅区","address":"番禺路800弄1-26号"},{"poiid":"B2094757D06BABFC429E","title":"美心港式茶餐厅","lon":"121.428722586","lat":"31.1994978301","category":"72","category_name":"广东菜","address":"长宁区淮海西路338号(近安顺路)"},{"poiid":"B2094655D268A3FE4598","title":"上海市昂立学院(东门)","lon":"121.42842","lat":"31.19719","category":"52","category_name":"高等院校","address":"番禺路868"},{"poiid":"B2094655D268A3F4449D","title":"昂立教育学生公寓","lon":"121.4281","lat":"31.19679","category":"47","category_name":"住宅区","address":"番禺路880"},{"poiid":"B2094654DA6DA3F9499D","title":"快客(八五八商务楼南)","lon":"121.42843","lat":"31.19726","category":"117","category_name":"便民商店/便利店","address":"番禺路870"},{"poiid":"B2094757D068AAF9429B","title":"湘轩酒楼(番禺路店)","lon":"121.42898","lat":"31.19807","category":"77","category_name":"湖南菜","address":"徐汇区番禺路752号(近淮海西路)"},{"poiid":"B2094753D36CA6F9479F","title":"鸟藏","lon":"121.42847","lat":"31.19751","category":"95","category_name":"日本料理","address":"番禺路828号"},{"poiid":"B2094757D569A2FD469B","title":"宜必思上海徐家汇酒店","lon":"121.42846191","lat":"31.19749539","category":"216","category_name":"经济型连锁酒店","address":"番禺路858"},{"poiid":"B2094655D268A3F44492","title":"昂立教育学生公寓(东门)","lon":"121.42833","lat":"31.19669","category":"47","category_name":"住宅区","address":"番禺路880"},{"poiid":"B2094757D06BA1FE479B","title":"千橡上海","lon":"121.42771148","lat":"31.19641304","category":"46","category_name":"楼宇","address":"上海淮海西路570号G座202"},{"poiid":"B2094654DA6DA3FB4292","title":"徐家汇派出所(番禺路)","lon":"121.42869","lat":"31.1972","category":"248","category_name":"生活娱乐","address":"番禺路865"},{"poiid":"B2094654D564A6F84593","title":"凯利大厦","lon":"121.42693","lat":"31.19923","category":"46","category_name":"楼宇","address":"上海市奉贤区南奉公路8515,8519号"},{"poiid":"B2094757D66FA6FB419E","title":"The Kro's Nest 乌巢比萨主义主题餐厅(霄云路店)","lon":"121.42875058","lat":"31.19746979","category":"94","category_name":"西餐厅","address":"北京朝阳区霄云路35号(现代汽车大厦对面,吉野家旁)"},{"poiid":"B2094757D16CA0FF4393","title":"沪上客苏式汤包馆","lon":"121.428811586","lat":"31.1982838063","category":"68","category_name":"快餐厅","address":"徐汇区番禺路818号(近秀山路)"},{"poiid":"B2094757D068A1F44599","title":"番禺绿地","lon":"121.42766","lat":"31.19429","category":"196","category_name":"公园","address":"徐汇区虹桥路637号(番禺路口)"},{"poiid":"B2094757DB6CAAFC4499","title":"徐汇中学","lon":"121.42910426","lat":"31.19816821","category":"55","category_name":"中学","address":"虹桥路"}]