[{"poiid":"B2094654DB6AA6F8419A","title":"上海银星皇冠假日酒店","lon":"121.42992","lat":"31.2031","category":"214","category_name":"四星级宾馆","address":"长宁区番禺路400号(近法华镇路)"},{"poiid":"B2094757D068A2FA419F","title":"幸福路","lon":"121.431038586","lat":"31.2040639193","category":"260","category_name":"其他","address":"上海市长宁区幸福路"},{"poiid":"B2094757D06EAAF4469F","title":"交通大学地铁站","lon":"121.434637","lat":"31.201981","category":"36","category_name":"地铁站","address":"上海轨道交通 十号线 轨交交通大学站 10"},{"poiid":"B2094757D06FA0F54899","title":"华山绿地","lon":"121.43312","lat":"31.2059","category":"196","category_name":"公园","address":"长宁区华山路平武路(近幸福路)"},{"poiid":"B2094757D068AAFB439A","title":"上海交通大学工程馆","lon":"121.43378196","lat":"31.2005447742","category":"253","category_name":"校园生活","address":"上海市徐汇区华山路1954号"},{"poiid":"B2094654D564A6FC409F","title":"复旦中学","lon":"121.43437","lat":"31.20306","category":"55","category_name":"中学","address":"徐汇区华山路1626号(近淮海西路)"},{"poiid":"B2094757D06FA2FB439D","title":"星巴克(华山国际店)","lon":"121.433629","lat":"31.205356","category":"260","category_name":"其他","address":"徐汇区华山路1568号华山国际大厦102座(近华山绿地)"},{"poiid":"B2094757D469A3F9469E","title":"素人素食","lon":"121.434384","lat":"31.203704","category":"89","category_name":"中式素餐馆","address":"徐汇区华山路1585号(泰安路淮海西路)"},{"poiid":"B2094757D06FAAF4429B","title":"中村发型设计中心(华山路店)","lon":"121.43522","lat":"31.20261","category":"260","category_name":"其他","address":"上海徐汇区华山路1591号(淮海西路口)  "},{"poiid":"B2094757D66AA6F4499F","title":"霖霖小馆","lon":"121.431010054","lat":"31.204837793","category":"86","category_name":"火锅店","address":"长宁区幸福路115号(近法华镇路)"},{"poiid":"B2094757D06AAAF5409D","title":"酷芝PIZZA COOLZEY","lon":"121.43455421439","lat":"31.20311280591","category":"94","category_name":"西餐厅","address":"徐汇区华山路1589号3号(近淮海中路)"},{"poiid":"B2094757D068A0FD4092","title":"金萨岛伊斯兰风情餐吧(新华路店)","lon":"121.43161","lat":"31.20135","category":"90","category_name":"清真餐馆","address":"长宁区新华路60号(近淮海西路)"},{"poiid":"B2094757D16BA4FD449C","title":"法华镇路番禺路","lon":"121.43102358","lat":"31.203950917","category":"500","category_name":"未知分类","address":"上海法华镇路番禺路"},{"poiid":"B2094757DA6EABF94799","title":"DADA BAR","lon":"121.431254999998","lat":"31.205202","category":"260","category_name":"其他","address":"长宁区幸福路115号(近华山路)"},{"poiid":"B2094757D06AA2FC409F","title":"复旦中学羽毛球馆","lon":"121.433770759","lat":"31.2032934808","category":"253","category_name":"校园生活","address":"上海徐汇区华山路1626号复旦中学体育馆内(近淮海西路)"},{"poiid":"B2094750D26DA4FE419D","title":"海世轩","lon":"121.4307937","lat":"31.2031788","category":"247","category_name":"餐饮美食","address":"长宁区法华镇路218号(近番禹路)"},{"poiid":"B2094757D065A6F4489D","title":"1号线人民广场站","lon":"121.433984586","lat":"31.2019978789","category":"500","category_name":"未知分类","address":"上海人民广场"},{"poiid":"B2094757D06BAAFF479D","title":"香奈造型(上海影城店)","lon":"121.43309858","lat":"31.202635891","category":"148","category_name":"美容美发店","address":"上海市长宁区法华镇路59号近淮海西路华山路(预约电话"},{"poiid":"B2094750D26AABFC499B","title":"澄园","lon":"121.434806","lat":"31.204935","category":"260","category_name":"其他","address":"徐汇区泰安路115弄1号楼101室(近华山路)"},{"poiid":"B2094654DB65A1FD439C","title":"威尔士健身(番禺路)","lon":"121.43029","lat":"31.20404","category":"221","category_name":"健身中心","address":"上海长宁区番禺路387号(近法华镇路)"},{"poiid":"B2094654DA6DA3FF4292","title":"上海西华酒店公寓","lon":"121.43513","lat":"31.2018","category":"214","category_name":"四星级宾馆","address":"上海市徐汇区淮海西路1号(华山路口)"},{"poiid":"B2094750D66AA6F94793","title":"谈面馆","lon":"121.430213","lat":"31.204071","category":"68","category_name":"快餐厅","address":"长宁区番禺路390号-7时代大厦1楼(近法华镇路)"},{"poiid":"B2094757D06FAAFD4492","title":"淡水老街","lon":"121.43032264","lat":"31.202482669","category":"91","category_name":"台湾菜","address":"长宁区番禺路495号(上海影城对面)"},{"poiid":"B2094752D66FA1FF469F","title":"70后饭吧","lon":"121.432258","lat":"31.203279","category":"247","category_name":"餐饮美食","address":"汇金百货"},{"poiid":"B2094654D564A6FF469D","title":"兴圆苑","lon":"121.43041","lat":"31.20355","category":"76","category_name":"上海菜","address":"长宁区番禺路405号甲(近法华镇路)"},{"poiid":"B2094757D469A2FC409A","title":"地平线 skyline","lon":"121.431913","lat":"31.203082","category":"172","category_name":"酒吧","address":"法华镇路455-4号近番愚路"},{"poiid":"B2094654DB69A7FB449D","title":"华山国际","lon":"121.43312","lat":"31.20492","category":"47","category_name":"住宅区","address":"上海市长宁区华山路1568号"},{"poiid":"B2094757D16AAAF94398","title":"华山路","lon":"121.43305858","lat":"31.206015957","category":"500","category_name":"未知分类","address":"上海市华山路淮海西路"},{"poiid":"B2094654D564A6FF4698","title":"组合发型顾问(番禺路)","lon":"121.43041","lat":"31.20378","category":"148","category_name":"美容美发店","address":"番禺路395乙"},{"poiid":"B2094757D068A7F44199","title":"赛百味(上海影城店)","lon":"121.43019258","lat":"31.202642891","category":"94","category_name":"西餐厅","address":"长宁区新华路160号上海影城内(近番愚路)"},{"poiid":"B2094654D564A6FC419D","title":"时尚造型(法华镇路)","lon":"121.43318","lat":"31.20273","category":"148","category_name":"美容美发店","address":"长宁区法华镇路65号(淮海路口)"},{"poiid":"B2094757D168AAF8409A","title":"永和豆浆","lon":"121.434330586","lat":"31.2038849158","category":"68","category_name":"快餐厅","address":"徐汇区华山路1603号(华山路淮海西路)"},{"poiid":"B2094654D564A6FC429C","title":"快客(法华苑东)","lon":"121.43267","lat":"31.20286","category":"117","category_name":"便民商店/便利店","address":"法华镇路91"},{"poiid":"B2094757DB6DA3FE4698","title":"康平路余庆路","lon":"121.432394","lat":"31.203086","category":"500","category_name":"未知分类","address":"康平路余庆路"},{"poiid":"B2094654DA6DA3F8489E","title":"良友别墅","lon":"121.431","lat":"31.2038","category":"47","category_name":"住宅区","address":"淮海西路345弄1-5号"},{"poiid":"B2094757D16CA3FB4293","title":"淮海西路","lon":"121.434335","lat":"31.204117","category":"500","category_name":"未知分类","address":"上海淮海西路"},{"poiid":"B2094753D369A0F84793","title":"型格沙廊STYLESALON(法华镇路店)","lon":"121.43306","lat":"31.20276","category":"148","category_name":"美容美发店","address":"长宁区法华镇路75号(近幸福路)"},{"poiid":"B2094654D564A6FC429A","title":"千丝专业美发","lon":"121.43306","lat":"31.20276","category":"148","category_name":"美容美发店","address":"法华镇路75临"},{"poiid":"B2094655D26FA6FA4799","title":"法华苑","lon":"121.43188","lat":"31.203333","category":"47","category_name":"住宅区","address":"法华镇路123弄"},{"poiid":"B2094750DB6CA0FC449E","title":"愛寿司","lon":"121.43","lat":"31.20391","category":"247","category_name":"餐饮美食","address":"长宁区番禺路390号(近法华镇路)"},{"poiid":"B2094654D564A6FE469C","title":"科达公寓","lon":"121.43223","lat":"31.20393","category":"47","category_name":"住宅区","address":"华山路1520弄65号"},{"poiid":"B2094757D06AA5F54292","title":"蒲记","lon":"121.43498","lat":"31.20357","category":"72","category_name":"广东菜","address":"徐汇区华山路1597号(近淮海中路)"},{"poiid":"B2094655D26EA1FF469D","title":"金凤凰酒家","lon":"121.43513","lat":"31.2018","category":"247","category_name":"餐饮美食","address":"长宁区淮海西路1号西华酒店公寓4-5楼(华山路口)"},{"poiid":"B2094654DA6DA3F8419D","title":"上海交通大学徐汇校区(北门)","lon":"121.43278","lat":"31.20102","category":"52","category_name":"高等院校","address":""},{"poiid":"B2094655D268A7F9429B","title":"振新小区(北门)","lon":"121.43243","lat":"31.20269","category":"47","category_name":"住宅区","address":"法华镇路150弄1-19号"},{"poiid":"B2094757D16DA7FE499E","title":"星尚造型","lon":"121.43306","lat":"31.20255","category":"148","category_name":"美容美发店","address":"长宁区法华镇路85号(淮海西路番禺路间)"},{"poiid":"B2094757D064A5FC439D","title":"红庄小区","lon":"121.433757","lat":"31.20223","category":"47","category_name":"住宅区","address":"新华路73弄35-47号"},{"poiid":"B2094757D06AA5FB4599","title":"财瑞大厦","lon":"121.433553","lat":"31.205167","category":"46","category_name":"楼宇","address":"上海市长宁区华山路1568号"},{"poiid":"B2094751D564A3F9429B","title":"华山医院","lon":"121.434353","lat":"31.201086","category":"162","category_name":"医院","address":null},{"poiid":"B2094655D36CA7FC4393","title":"华山路淮海西路","lon":"121.4345","lat":"31.20352","category":"38","category_name":"公交车站","address":""},{"poiid":"B2094654DB6AA6F8419A","title":"上海银星皇冠假日酒店","lon":"121.42992","lat":"31.2031","category":"214","category_name":"四星级宾馆","address":"长宁区番禺路400号(近法华镇路)"},{"poiid":"B2094757D068A2FA419F","title":"幸福路","lon":"121.431038586","lat":"31.2040639193","category":"260","category_name":"其他","address":"上海市长宁区幸福路"},{"poiid":"B2094757D06EAAF4469F","title":"交通大学地铁站","lon":"121.434637","lat":"31.201981","category":"36","category_name":"地铁站","address":"上海轨道交通 十号线 轨交交通大学站 10"},{"poiid":"B2094757D06FA0F54899","title":"华山绿地","lon":"121.43312","lat":"31.2059","category":"196","category_name":"公园","address":"长宁区华山路平武路(近幸福路)"},{"poiid":"B2094757D068AAFB439A","title":"上海交通大学工程馆","lon":"121.43378196","lat":"31.2005447742","category":"253","category_name":"校园生活","address":"上海市徐汇区华山路1954号"},{"poiid":"B2094654D564A6FC409F","title":"复旦中学","lon":"121.43437","lat":"31.20306","category":"55","category_name":"中学","address":"徐汇区华山路1626号(近淮海西路)"},{"poiid":"B2094757D06FA2FB439D","title":"星巴克(华山国际店)","lon":"121.433629","lat":"31.205356","category":"260","category_name":"其他","address":"徐汇区华山路1568号华山国际大厦102座(近华山绿地)"},{"poiid":"B2094757D469A3F9469E","title":"素人素食","lon":"121.434384","lat":"31.203704","category":"89","category_name":"中式素餐馆","address":"徐汇区华山路1585号(泰安路淮海西路)"},{"poiid":"B2094757D06FAAF4429B","title":"中村发型设计中心(华山路店)","lon":"121.43522","lat":"31.20261","category":"260","category_name":"其他","address":"上海徐汇区华山路1591号(淮海西路口)  "},{"poiid":"B2094757D66AA6F4499F","title":"霖霖小馆","lon":"121.431010054","lat":"31.204837793","category":"86","category_name":"火锅店","address":"长宁区幸福路115号(近法华镇路)"},{"poiid":"B2094757D06AAAF5409D","title":"酷芝PIZZA COOLZEY","lon":"121.43455421439","lat":"31.20311280591","category":"94","category_name":"西餐厅","address":"徐汇区华山路1589号3号(近淮海中路)"},{"poiid":"B2094757D068A0FD4092","title":"金萨岛伊斯兰风情餐吧(新华路店)","lon":"121.43161","lat":"31.20135","category":"90","category_name":"清真餐馆","address":"长宁区新华路60号(近淮海西路)"},{"poiid":"B2094757D16BA4FD449C","title":"法华镇路番禺路","lon":"121.43102358","lat":"31.203950917","category":"500","category_name":"未知分类","address":"上海法华镇路番禺路"},{"poiid":"B2094757DA6EABF94799","title":"DADA BAR","lon":"121.431254999998","lat":"31.205202","category":"260","category_name":"其他","address":"长宁区幸福路115号(近华山路)"},{"poiid":"B2094757D06AA2FC409F","title":"复旦中学羽毛球馆","lon":"121.433770759","lat":"31.2032934808","category":"253","category_name":"校园生活","address":"上海徐汇区华山路1626号复旦中学体育馆内(近淮海西路)"},{"poiid":"B2094750D26DA4FE419D","title":"海世轩","lon":"121.4307937","lat":"31.2031788","category":"247","category_name":"餐饮美食","address":"长宁区法华镇路218号(近番禹路)"},{"poiid":"B2094757D065A6F4489D","title":"1号线人民广场站","lon":"121.433984586","lat":"31.2019978789","category":"500","category_name":"未知分类","address":"上海人民广场"},{"poiid":"B2094757D06BAAFF479D","title":"香奈造型(上海影城店)","lon":"121.43309858","lat":"31.202635891","category":"148","category_name":"美容美发店","address":"上海市长宁区法华镇路59号近淮海西路华山路(预约电话"},{"poiid":"B2094750D26AABFC499B","title":"澄园","lon":"121.434806","lat":"31.204935","category":"260","category_name":"其他","address":"徐汇区泰安路115弄1号楼101室(近华山路)"},{"poiid":"B2094654DB65A1FD439C","title":"威尔士健身(番禺路)","lon":"121.43029","lat":"31.20404","category":"221","category_name":"健身中心","address":"上海长宁区番禺路387号(近法华镇路)"},{"poiid":"B2094654DA6DA3FF4292","title":"上海西华酒店公寓","lon":"121.43513","lat":"31.2018","category":"214","category_name":"四星级宾馆","address":"上海市徐汇区淮海西路1号(华山路口)"},{"poiid":"B2094750D66AA6F94793","title":"谈面馆","lon":"121.430213","lat":"31.204071","category":"68","category_name":"快餐厅","address":"长宁区番禺路390号-7时代大厦1楼(近法华镇路)"},{"poiid":"B2094757D06FAAFD4492","title":"淡水老街","lon":"121.43032264","lat":"31.202482669","category":"91","category_name":"台湾菜","address":"长宁区番禺路495号(上海影城对面)"},{"poiid":"B2094752D66FA1FF469F","title":"70后饭吧","lon":"121.432258","lat":"31.203279","category":"247","category_name":"餐饮美食","address":"汇金百货"},{"poiid":"B2094654D564A6FF469D","title":"兴圆苑","lon":"121.43041","lat":"31.20355","category":"76","category_name":"上海菜","address":"长宁区番禺路405号甲(近法华镇路)"},{"poiid":"B2094757D469A2FC409A","title":"地平线 skyline","lon":"121.431913","lat":"31.203082","category":"172","category_name":"酒吧","address":"法华镇路455-4号近番愚路"},{"poiid":"B2094654DB69A7FB449D","title":"华山国际","lon":"121.43312","lat":"31.20492","category":"47","category_name":"住宅区","address":"上海市长宁区华山路1568号"},{"poiid":"B2094757D16AAAF94398","title":"华山路","lon":"121.43305858","lat":"31.206015957","category":"500","category_name":"未知分类","address":"上海市华山路淮海西路"},{"poiid":"B2094654D564A6FF4698","title":"组合发型顾问(番禺路)","lon":"121.43041","lat":"31.20378","category":"148","category_name":"美容美发店","address":"番禺路395乙"},{"poiid":"B2094757D068A7F44199","title":"赛百味(上海影城店)","lon":"121.43019258","lat":"31.202642891","category":"94","category_name":"西餐厅","address":"长宁区新华路160号上海影城内(近番愚路)"},{"poiid":"B2094654D564A6FC419D","title":"时尚造型(法华镇路)","lon":"121.43318","lat":"31.20273","category":"148","category_name":"美容美发店","address":"长宁区法华镇路65号(淮海路口)"},{"poiid":"B2094757D168AAF8409A","title":"永和豆浆","lon":"121.434330586","lat":"31.2038849158","category":"68","category_name":"快餐厅","address":"徐汇区华山路1603号(华山路淮海西路)"},{"poiid":"B2094654D564A6FC429C","title":"快客(法华苑东)","lon":"121.43267","lat":"31.20286","category":"117","category_name":"便民商店/便利店","address":"法华镇路91"},{"poiid":"B2094757DB6DA3FE4698","title":"康平路余庆路","lon":"121.432394","lat":"31.203086","category":"500","category_name":"未知分类","address":"康平路余庆路"},{"poiid":"B2094654DA6DA3F8489E","title":"良友别墅","lon":"121.431","lat":"31.2038","category":"47","category_name":"住宅区","address":"淮海西路345弄1-5号"},{"poiid":"B2094757D16CA3FB4293","title":"淮海西路","lon":"121.434335","lat":"31.204117","category":"500","category_name":"未知分类","address":"上海淮海西路"},{"poiid":"B2094753D369A0F84793","title":"型格沙廊STYLESALON(法华镇路店)","lon":"121.43306","lat":"31.20276","category":"148","category_name":"美容美发店","address":"长宁区法华镇路75号(近幸福路)"},{"poiid":"B2094654D564A6FC429A","title":"千丝专业美发","lon":"121.43306","lat":"31.20276","category":"148","category_name":"美容美发店","address":"法华镇路75临"},{"poiid":"B2094655D26FA6FA4799","title":"法华苑","lon":"121.43188","lat":"31.203333","category":"47","category_name":"住宅区","address":"法华镇路123弄"},{"poiid":"B2094750DB6CA0FC449E","title":"愛寿司","lon":"121.43","lat":"31.20391","category":"247","category_name":"餐饮美食","address":"长宁区番禺路390号(近法华镇路)"},{"poiid":"B2094654D564A6FE469C","title":"科达公寓","lon":"121.43223","lat":"31.20393","category":"47","category_name":"住宅区","address":"华山路1520弄65号"},{"poiid":"B2094757D06AA5F54292","title":"蒲记","lon":"121.43498","lat":"31.20357","category":"72","category_name":"广东菜","address":"徐汇区华山路1597号(近淮海中路)"},{"poiid":"B2094655D26EA1FF469D","title":"金凤凰酒家","lon":"121.43513","lat":"31.2018","category":"247","category_name":"餐饮美食","address":"长宁区淮海西路1号西华酒店公寓4-5楼(华山路口)"},{"poiid":"B2094654DA6DA3F8419D","title":"上海交通大学徐汇校区(北门)","lon":"121.43278","lat":"31.20102","category":"52","category_name":"高等院校","address":""},{"poiid":"B2094655D268A7F9429B","title":"振新小区(北门)","lon":"121.43243","lat":"31.20269","category":"47","category_name":"住宅区","address":"法华镇路150弄1-19号"},{"poiid":"B2094757D16DA7FE499E","title":"星尚造型","lon":"121.43306","lat":"31.20255","category":"148","category_name":"美容美发店","address":"长宁区法华镇路85号(淮海西路番禺路间)"},{"poiid":"B2094757D064A5FC439D","title":"红庄小区","lon":"121.433757","lat":"31.20223","category":"47","category_name":"住宅区","address":"新华路73弄35-47号"},{"poiid":"B2094757D06AA5FB4599","title":"财瑞大厦","lon":"121.433553","lat":"31.205167","category":"46","category_name":"楼宇","address":"上海市长宁区华山路1568号"},{"poiid":"B2094751D564A3F9429B","title":"华山医院","lon":"121.434353","lat":"31.201086","category":"162","category_name":"医院","address":null},{"poiid":"B2094655D36CA7FC4393","title":"华山路淮海西路","lon":"121.4345","lat":"31.20352","category":"38","category_name":"公交车站","address":""},{"poiid":"B2094654DB6AA6F8419A","title":"上海银星皇冠假日酒店","lon":"121.42992","lat":"31.2031","category":"214","category_name":"四星级宾馆","address":"长宁区番禺路400号(近法华镇路)"},{"poiid":"B2094757D068A2FA419F","title":"幸福路","lon":"121.431038586","lat":"31.2040639193","category":"260","category_name":"其他","address":"上海市长宁区幸福路"},{"poiid":"B2094757D06EAAF4469F","title":"交通大学地铁站","lon":"121.434637","lat":"31.201981","category":"36","category_name":"地铁站","address":"上海轨道交通 十号线 轨交交通大学站 10"},{"poiid":"B2094757D06FA0F54899","title":"华山绿地","lon":"121.43312","lat":"31.2059","category":"196","category_name":"公园","address":"长宁区华山路平武路(近幸福路)"},{"poiid":"B2094757D068AAFB439A","title":"上海交通大学工程馆","lon":"121.43378196","lat":"31.2005447742","category":"253","category_name":"校园生活","address":"上海市徐汇区华山路1954号"},{"poiid":"B2094654D564A6FC409F","title":"复旦中学","lon":"121.43437","lat":"31.20306","category":"55","category_name":"中学","address":"徐汇区华山路1626号(近淮海西路)"},{"poiid":"B2094757D06FA2FB439D","title":"星巴克(华山国际店)","lon":"121.433629","lat":"31.205356","category":"260","category_name":"其他","address":"徐汇区华山路1568号华山国际大厦102座(近华山绿地)"},{"poiid":"B2094757D469A3F9469E","title":"素人素食","lon":"121.434384","lat":"31.203704","category":"89","category_name":"中式素餐馆","address":"徐汇区华山路1585号(泰安路淮海西路)"},{"poiid":"B2094757D06FAAF4429B","title":"中村发型设计中心(华山路店)","lon":"121.43522","lat":"31.20261","category":"260","category_name":"其他","address":"上海徐汇区华山路1591号(淮海西路口)  "},{"poiid":"B2094757D66AA6F4499F","title":"霖霖小馆","lon":"121.431010054","lat":"31.204837793","category":"86","category_name":"火锅店","address":"长宁区幸福路115号(近法华镇路)"},{"poiid":"B2094757D06AAAF5409D","title":"酷芝PIZZA COOLZEY","lon":"121.43455421439","lat":"31.20311280591","category":"94","category_name":"西餐厅","address":"徐汇区华山路1589号3号(近淮海中路)"},{"poiid":"B2094757D068A0FD4092","title":"金萨岛伊斯兰风情餐吧(新华路店)","lon":"121.43161","lat":"31.20135","category":"90","category_name":"清真餐馆","address":"长宁区新华路60号(近淮海西路)"},{"poiid":"B2094757D16BA4FD449C","title":"法华镇路番禺路","lon":"121.43102358","lat":"31.203950917","category":"500","category_name":"未知分类","address":"上海法华镇路番禺路"},{"poiid":"B2094757DA6EABF94799","title":"DADA BAR","lon":"121.431254999998","lat":"31.205202","category":"260","category_name":"其他","address":"长宁区幸福路115号(近华山路)"},{"poiid":"B2094757D06AA2FC409F","title":"复旦中学羽毛球馆","lon":"121.433770759","lat":"31.2032934808","category":"253","category_name":"校园生活","address":"上海徐汇区华山路1626号复旦中学体育馆内(近淮海西路)"},{"poiid":"B2094750D26DA4FE419D","title":"海世轩","lon":"121.4307937","lat":"31.2031788","category":"247","category_name":"餐饮美食","address":"长宁区法华镇路218号(近番禹路)"},{"poiid":"B2094757D065A6F4489D","title":"1号线人民广场站","lon":"121.433984586","lat":"31.2019978789","category":"500","category_name":"未知分类","address":"上海人民广场"},{"poiid":"B2094757D06BAAFF479D","title":"香奈造型(上海影城店)","lon":"121.43309858","lat":"31.202635891","category":"148","category_name":"美容美发店","address":"上海市长宁区法华镇路59号近淮海西路华山路(预约电话"},{"poiid":"B2094750D26AABFC499B","title":"澄园","lon":"121.434806","lat":"31.204935","category":"260","category_name":"其他","address":"徐汇区泰安路115弄1号楼101室(近华山路)"},{"poiid":"B2094654DB65A1FD439C","title":"威尔士健身(番禺路)","lon":"121.43029","lat":"31.20404","category":"221","category_name":"健身中心","address":"上海长宁区番禺路387号(近法华镇路)"},{"poiid":"B2094654DA6DA3FF4292","title":"上海西华酒店公寓","lon":"121.43513","lat":"31.2018","category":"214","category_name":"四星级宾馆","address":"上海市徐汇区淮海西路1号(华山路口)"},{"poiid":"B2094750D66AA6F94793","title":"谈面馆","lon":"121.430213","lat":"31.204071","category":"68","category_name":"快餐厅","address":"长宁区番禺路390号-7时代大厦1楼(近法华镇路)"},{"poiid":"B2094757D06FAAFD4492","title":"淡水老街","lon":"121.43032264","lat":"31.202482669","category":"91","category_name":"台湾菜","address":"长宁区番禺路495号(上海影城对面)"},{"poiid":"B2094752D66FA1FF469F","title":"70后饭吧","lon":"121.432258","lat":"31.203279","category":"247","category_name":"餐饮美食","address":"汇金百货"},{"poiid":"B2094654D564A6FF469D","title":"兴圆苑","lon":"121.43041","lat":"31.20355","category":"76","category_name":"上海菜","address":"长宁区番禺路405号甲(近法华镇路)"},{"poiid":"B2094757D469A2FC409A","title":"地平线 skyline","lon":"121.431913","lat":"31.203082","category":"172","category_name":"酒吧","address":"法华镇路455-4号近番愚路"},{"poiid":"B2094654DB69A7FB449D","title":"华山国际","lon":"121.43312","lat":"31.20492","category":"47","category_name":"住宅区","address":"上海市长宁区华山路1568号"},{"poiid":"B2094757D16AAAF94398","title":"华山路","lon":"121.43305858","lat":"31.206015957","category":"500","category_name":"未知分类","address":"上海市华山路淮海西路"},{"poiid":"B2094654D564A6FF4698","title":"组合发型顾问(番禺路)","lon":"121.43041","lat":"31.20378","category":"148","category_name":"美容美发店","address":"番禺路395乙"},{"poiid":"B2094757D068A7F44199","title":"赛百味(上海影城店)","lon":"121.43019258","lat":"31.202642891","category":"94","category_name":"西餐厅","address":"长宁区新华路160号上海影城内(近番愚路)"},{"poiid":"B2094654D564A6FC419D","title":"时尚造型(法华镇路)","lon":"121.43318","lat":"31.20273","category":"148","category_name":"美容美发店","address":"长宁区法华镇路65号(淮海路口)"},{"poiid":"B2094757D168AAF8409A","title":"永和豆浆","lon":"121.434330586","lat":"31.2038849158","category":"68","category_name":"快餐厅","address":"徐汇区华山路1603号(华山路淮海西路)"},{"poiid":"B2094654D564A6FC429C","title":"快客(法华苑东)","lon":"121.43267","lat":"31.20286","category":"117","category_name":"便民商店/便利店","address":"法华镇路91"},{"poiid":"B2094757DB6DA3FE4698","title":"康平路余庆路","lon":"121.432394","lat":"31.203086","category":"500","category_name":"未知分类","address":"康平路余庆路"},{"poiid":"B2094654DA6DA3F8489E","title":"良友别墅","lon":"121.431","lat":"31.2038","category":"47","category_name":"住宅区","address":"淮海西路345弄1-5号"},{"poiid":"B2094757D16CA3FB4293","title":"淮海西路","lon":"121.434335","lat":"31.204117","category":"500","category_name":"未知分类","address":"上海淮海西路"},{"poiid":"B2094753D369A0F84793","title":"型格沙廊STYLESALON(法华镇路店)","lon":"121.43306","lat":"31.20276","category":"148","category_name":"美容美发店","address":"长宁区法华镇路75号(近幸福路)"},{"poiid":"B2094654D564A6FC429A","title":"千丝专业美发","lon":"121.43306","lat":"31.20276","category":"148","category_name":"美容美发店","address":"法华镇路75临"},{"poiid":"B2094655D26FA6FA4799","title":"法华苑","lon":"121.43188","lat":"31.203333","category":"47","category_name":"住宅区","address":"法华镇路123弄"},{"poiid":"B2094750DB6CA0FC449E","title":"愛寿司","lon":"121.43","lat":"31.20391","category":"247","category_name":"餐饮美食","address":"长宁区番禺路390号(近法华镇路)"},{"poiid":"B2094654D564A6FE469C","title":"科达公寓","lon":"121.43223","lat":"31.20393","category":"47","category_name":"住宅区","address":"华山路1520弄65号"},{"poiid":"B2094757D06AA5F54292","title":"蒲记","lon":"121.43498","lat":"31.20357","category":"72","category_name":"广东菜","address":"徐汇区华山路1597号(近淮海中路)"},{"poiid":"B2094655D26EA1FF469D","title":"金凤凰酒家","lon":"121.43513","lat":"31.2018","category":"247","category_name":"餐饮美食","address":"长宁区淮海西路1号西华酒店公寓4-5楼(华山路口)"},{"poiid":"B2094654DA6DA3F8419D","title":"上海交通大学徐汇校区(北门)","lon":"121.43278","lat":"31.20102","category":"52","category_name":"高等院校","address":""},{"poiid":"B2094655D268A7F9429B","title":"振新小区(北门)","lon":"121.43243","lat":"31.20269","category":"47","category_name":"住宅区","address":"法华镇路150弄1-19号"},{"poiid":"B2094757D16DA7FE499E","title":"星尚造型","lon":"121.43306","lat":"31.20255","category":"148","category_name":"美容美发店","address":"长宁区法华镇路85号(淮海西路番禺路间)"},{"poiid":"B2094757D064A5FC439D","title":"红庄小区","lon":"121.433757","lat":"31.20223","category":"47","category_name":"住宅区","address":"新华路73弄35-47号"},{"poiid":"B2094757D06AA5FB4599","title":"财瑞大厦","lon":"121.433553","lat":"31.205167","category":"46","category_name":"楼宇","address":"上海市长宁区华山路1568号"},{"poiid":"B2094751D564A3F9429B","title":"华山医院","lon":"121.434353","lat":"31.201086","category":"162","category_name":"医院","address":null},{"poiid":"B2094655D36CA7FC4393","title":"华山路淮海西路","lon":"121.4345","lat":"31.20352","category":"38","category_name":"公交车站","address":""},{"poiid":"B2094654DB6AA6F8419A","title":"上海银星皇冠假日酒店","lon":"121.42992","lat":"31.2031","category":"214","category_name":"四星级宾馆","address":"长宁区番禺路400号(近法华镇路)"},{"poiid":"B2094757D068A2FA419F","title":"幸福路","lon":"121.431038586","lat":"31.2040639193","category":"260","category_name":"其他","address":"上海市长宁区幸福路"},{"poiid":"B2094757D06EAAF4469F","title":"交通大学地铁站","lon":"121.434637","lat":"31.201981","category":"36","category_name":"地铁站","address":"上海轨道交通 十号线 轨交交通大学站 10"},{"poiid":"B2094757D06FA0F54899","title":"华山绿地","lon":"121.43312","lat":"31.2059","category":"196","category_name":"公园","address":"长宁区华山路平武路(近幸福路)"},{"poiid":"B2094757D068AAFB439A","title":"上海交通大学工程馆","lon":"121.43378196","lat":"31.2005447742","category":"253","category_name":"校园生活","address":"上海市徐汇区华山路1954号"},{"poiid":"B2094654D564A6FC409F","title":"复旦中学","lon":"121.43437","lat":"31.20306","category":"55","category_name":"中学","address":"徐汇区华山路1626号(近淮海西路)"},{"poiid":"B2094757D06FA2FB439D","title":"星巴克(华山国际店)","lon":"121.433629","lat":"31.205356","category":"260","category_name":"其他","address":"徐汇区华山路1568号华山国际大厦102座(近华山绿地)"},{"poiid":"B2094757D469A3F9469E","title":"素人素食","lon":"121.434384","lat":"31.203704","category":"89","category_name":"中式素餐馆","address":"徐汇区华山路1585号(泰安路淮海西路)"},{"poiid":"B2094757D06FAAF4429B","title":"中村发型设计中心(华山路店)","lon":"121.43522","lat":"31.20261","category":"260","category_name":"其他","address":"上海徐汇区华山路1591号(淮海西路口)  "},{"poiid":"B2094757D66AA6F4499F","title":"霖霖小馆","lon":"121.431010054","lat":"31.204837793","category":"86","category_name":"火锅店","address":"长宁区幸福路115号(近法华镇路)"},{"poiid":"B2094757D06AAAF5409D","title":"酷芝PIZZA COOLZEY","lon":"121.43455421439","lat":"31.20311280591","category":"94","category_name":"西餐厅","address":"徐汇区华山路1589号3号(近淮海中路)"},{"poiid":"B2094757D068A0FD4092","title":"金萨岛伊斯兰风情餐吧(新华路店)","lon":"121.43161","lat":"31.20135","category":"90","category_name":"清真餐馆","address":"长宁区新华路60号(近淮海西路)"},{"poiid":"B2094757D16BA4FD449C","title":"法华镇路番禺路","lon":"121.43102358","lat":"31.203950917","category":"500","category_name":"未知分类","address":"上海法华镇路番禺路"},{"poiid":"B2094757DA6EABF94799","title":"DADA BAR","lon":"121.431254999998","lat":"31.205202","category":"260","category_name":"其他","address":"长宁区幸福路115号(近华山路)"},{"poiid":"B2094757D06AA2FC409F","title":"复旦中学羽毛球馆","lon":"121.433770759","lat":"31.2032934808","category":"253","category_name":"校园生活","address":"上海徐汇区华山路1626号复旦中学体育馆内(近淮海西路)"},{"poiid":"B2094750D26DA4FE419D","title":"海世轩","lon":"121.4307937","lat":"31.2031788","category":"247","category_name":"餐饮美食","address":"长宁区法华镇路218号(近番禹路)"},{"poiid":"B2094757D065A6F4489D","title":"1号线人民广场站","lon":"121.433984586","lat":"31.2019978789","category":"500","category_name":"未知分类","address":"上海人民广场"},{"poiid":"B2094757D06BAAFF479D","title":"香奈造型(上海影城店)","lon":"121.43309858","lat":"31.202635891","category":"148","category_name":"美容美发店","address":"上海市长宁区法华镇路59号近淮海西路华山路(预约电话"},{"poiid":"B2094750D26AABFC499B","title":"澄园","lon":"121.434806","lat":"31.204935","category":"260","category_name":"其他","address":"徐汇区泰安路115弄1号楼101室(近华山路)"},{"poiid":"B2094654DB65A1FD439C","title":"威尔士健身(番禺路)","lon":"121.43029","lat":"31.20404","category":"221","category_name":"健身中心","address":"上海长宁区番禺路387号(近法华镇路)"},{"poiid":"B2094654DA6DA3FF4292","title":"上海西华酒店公寓","lon":"121.43513","lat":"31.2018","category":"214","category_name":"四星级宾馆","address":"上海市徐汇区淮海西路1号(华山路口)"},{"poiid":"B2094750D66AA6F94793","title":"谈面馆","lon":"121.430213","lat":"31.204071","category":"68","category_name":"快餐厅","address":"长宁区番禺路390号-7时代大厦1楼(近法华镇路)"},{"poiid":"B2094757D06FAAFD4492","title":"淡水老街","lon":"121.43032264","lat":"31.202482669","category":"91","category_name":"台湾菜","address":"长宁区番禺路495号(上海影城对面)"},{"poiid":"B2094752D66FA1FF469F","title":"70后饭吧","lon":"121.432258","lat":"31.203279","category":"247","category_name":"餐饮美食","address":"汇金百货"},{"poiid":"B2094654D564A6FF469D","title":"兴圆苑","lon":"121.43041","lat":"31.20355","category":"76","category_name":"上海菜","address":"长宁区番禺路405号甲(近法华镇路)"},{"poiid":"B2094757D469A2FC409A","title":"地平线 skyline","lon":"121.431913","lat":"31.203082","category":"172","category_name":"酒吧","address":"法华镇路455-4号近番愚路"},{"poiid":"B2094654DB69A7FB449D","title":"华山国际","lon":"121.43312","lat":"31.20492","category":"47","category_name":"住宅区","address":"上海市长宁区华山路1568号"},{"poiid":"B2094757D16AAAF94398","title":"华山路","lon":"121.43305858","lat":"31.206015957","category":"500","category_name":"未知分类","address":"上海市华山路淮海西路"},{"poiid":"B2094654D564A6FF4698","title":"组合发型顾问(番禺路)","lon":"121.43041","lat":"31.20378","category":"148","category_name":"美容美发店","address":"番禺路395乙"},{"poiid":"B2094757D068A7F44199","title":"赛百味(上海影城店)","lon":"121.43019258","lat":"31.202642891","category":"94","category_name":"西餐厅","address":"长宁区新华路160号上海影城内(近番愚路)"},{"poiid":"B2094654D564A6FC419D","title":"时尚造型(法华镇路)","lon":"121.43318","lat":"31.20273","category":"148","category_name":"美容美发店","address":"长宁区法华镇路65号(淮海路口)"},{"poiid":"B2094757D168AAF8409A","title":"永和豆浆","lon":"121.434330586","lat":"31.2038849158","category":"68","category_name":"快餐厅","address":"徐汇区华山路1603号(华山路淮海西路)"},{"poiid":"B2094654D564A6FC429C","title":"快客(法华苑东)","lon":"121.43267","lat":"31.20286","category":"117","category_name":"便民商店/便利店","address":"法华镇路91"},{"poiid":"B2094757DB6DA3FE4698","title":"康平路余庆路","lon":"121.432394","lat":"31.203086","category":"500","category_name":"未知分类","address":"康平路余庆路"},{"poiid":"B2094654DA6DA3F8489E","title":"良友别墅","lon":"121.431","lat":"31.2038","category":"47","category_name":"住宅区","address":"淮海西路345弄1-5号"},{"poiid":"B2094757D16CA3FB4293","title":"淮海西路","lon":"121.434335","lat":"31.204117","category":"500","category_name":"未知分类","address":"上海淮海西路"},{"poiid":"B2094753D369A0F84793","title":"型格沙廊STYLESALON(法华镇路店)","lon":"121.43306","lat":"31.20276","category":"148","category_name":"美容美发店","address":"长宁区法华镇路75号(近幸福路)"},{"poiid":"B2094654D564A6FC429A","title":"千丝专业美发","lon":"121.43306","lat":"31.20276","category":"148","category_name":"美容美发店","address":"法华镇路75临"},{"poiid":"B2094655D26FA6FA4799","title":"法华苑","lon":"121.43188","lat":"31.203333","category":"47","category_name":"住宅区","address":"法华镇路123弄"},{"poiid":"B2094750DB6CA0FC449E","title":"愛寿司","lon":"121.43","lat":"31.20391","category":"247","category_name":"餐饮美食","address":"长宁区番禺路390号(近法华镇路)"},{"poiid":"B2094654D564A6FE469C","title":"科达公寓","lon":"121.43223","lat":"31.20393","category":"47","category_name":"住宅区","address":"华山路1520弄65号"},{"poiid":"B2094757D06AA5F54292","title":"蒲记","lon":"121.43498","lat":"31.20357","category":"72","category_name":"广东菜","address":"徐汇区华山路1597号(近淮海中路)"},{"poiid":"B2094655D26EA1FF469D","title":"金凤凰酒家","lon":"121.43513","lat":"31.2018","category":"247","category_name":"餐饮美食","address":"长宁区淮海西路1号西华酒店公寓4-5楼(华山路口)"},{"poiid":"B2094654DA6DA3F8419D","title":"上海交通大学徐汇校区(北门)","lon":"121.43278","lat":"31.20102","category":"52","category_name":"高等院校","address":""},{"poiid":"B2094655D268A7F9429B","title":"振新小区(北门)","lon":"121.43243","lat":"31.20269","category":"47","category_name":"住宅区","address":"法华镇路150弄1-19号"},{"poiid":"B2094757D16DA7FE499E","title":"星尚造型","lon":"121.43306","lat":"31.20255","category":"148","category_name":"美容美发店","address":"长宁区法华镇路85号(淮海西路番禺路间)"},{"poiid":"B2094757D064A5FC439D","title":"红庄小区","lon":"121.433757","lat":"31.20223","category":"47","category_name":"住宅区","address":"新华路73弄35-47号"},{"poiid":"B2094757D06AA5FB4599","title":"财瑞大厦","lon":"121.433553","lat":"31.205167","category":"46","category_name":"楼宇","address":"上海市长宁区华山路1568号"},{"poiid":"B2094751D564A3F9429B","title":"华山医院","lon":"121.434353","lat":"31.201086","category":"162","category_name":"医院","address":null},{"poiid":"B2094655D36CA7FC4393","title":"华山路淮海西路","lon":"121.4345","lat":"31.20352","category":"38","category_name":"公交车站","address":""}]