[{"poiid":"B2094655D36CA0F84799","title":"江月路地铁站","lon":"121.50868","lat":"31.08322","category":"36","category_name":"地铁站","address":""},{"poiid":"B2094757D06FA3F44093","title":"浦江镇世博家园","lon":"121.49930548","lat":"31.080541459","category":"47","category_name":"住宅区","address":"上海市闵行区江月路近浦星公路"},{"poiid":"B2094757D06FA2F44692","title":"联航路地铁站","lon":"121.51017417","lat":"31.074450102","category":"36","category_name":"地铁站","address":"上海轨道交通 八号线 轨交联航路站 8"},{"poiid":"B2094757D568A0FB439E","title":"绿地沃尔玛广场","lon":"121.4975028","lat":"31.07546278","category":"47","category_name":"住宅区","address":"浦锦路309弄(近江园路)"},{"poiid":"B2094751DA6EA6FC449A","title":"仁济医院南院","lon":"121.503441","lat":"31.08107","category":"627","category_name":"一般地点标志","address":"闵行区浦江镇浦驰路世博家园内(近江月路)"},{"poiid":"B2094757D06FA4F84793","title":"卜蜂莲花(浦江店)","lon":"121.506566","lat":"31.082902","category":"118","category_name":"超级市场","address":"闵行区江月路1800号(浦星路口)"},{"poiid":"B2094757D06FA5FA489C","title":"浦江镇","lon":"121.501756","lat":"31.09062","category":"500","category_name":"未知分类","address":"上海闵行区浦江镇"},{"poiid":"B2094757D06FA6FE449C","title":"大富贵酒楼(浦江店)","lon":"121.507067246","lat":"31.0817084791","category":"76","category_name":"上海菜","address":"闵行区江月路1777号(浦星公路)"},{"poiid":"B2094655D26AA0FA4098","title":"地铁江月路站","lon":"121.50858","lat":"31.08375","category":"36","category_name":"地铁站","address":""},{"poiid":"B2094757D068A4FA419B","title":"新奇士国际酒店","lon":"121.519719","lat":"31.085429","category":"217","category_name":"旅馆招待所","address":"闵行区浦江镇三鲁路3585号"},{"poiid":"B2094757D168A2FA4193","title":"好宴世家(浦江店)","lon":"121.497049059","lat":"31.077068655","category":"76","category_name":"上海菜","address":"闵行区浦锦路377号(近南江燕路)"},{"poiid":"B2094757D16DA3FB4293","title":"欢歌量贩","lon":"121.496897009","lat":"31.0781032275","category":"249","category_name":"购物服务","address":"上海浦锦路309弄6号沃尔玛三楼"},{"poiid":"B2094757D068A4FA4192","title":"世博家园十一街坊","lon":"121.512","lat":"31.0848","category":"47","category_name":"住宅区","address":"上海闵行区浦驰路188弄"},{"poiid":"B2094757D068A7FC479B","title":"浦江镇863软件园","lon":"121.51739502","lat":"31.0768756866","category":"46","category_name":"楼宇","address":"上海闵行区浦江镇联航路1588号"},{"poiid":"B2094757D569A3FA4893","title":"浦江智汇园","lon":"121.52042","lat":"31.076653","category":"47","category_name":"住宅区","address":"普陀区大渡河路588号"},{"poiid":"B2094757D06FA6FB439D","title":"沃尔玛(浦江店)","lon":"121.50775708","lat":"31.069308512","category":"118","category_name":"超级市场","address":"闵行区浦江镇浦锦路309号(近江园路)"},{"poiid":"B2094757D76AA6FD4199","title":"巴顿火锅","lon":"121.501406","lat":"31.06974","category":"86","category_name":"火锅店","address":"闵行区浦锦路309弄绿地沃尔玛广场309弄1幢6号2002-2018号铺(近江园路)"},{"poiid":"B2094757D468A4FB449B","title":"浦星苑","lon":"121.500546054","lat":"31.081557793","category":"76","category_name":"上海菜","address":"闵行区浦江镇浦驰路533号(近江月路)"},{"poiid":"B2094757D06FA4FB489E","title":"浦江世博家园七街坊","lon":"121.511812","lat":"31.083384","category":"500","category_name":"未知分类","address":"上海闵行 浦江镇 南江燕路69弄"},{"poiid":"B2094757D069ABFF459D","title":"联慧大酒店","lon":"121.512506","lat":"31.070648135","category":"76","category_name":"上海菜","address":"闵行区浦江镇竹园路618号(杜行路竹园路)"},{"poiid":"B2094757D569A2F54692","title":"浦江世博家园十二街坊","lon":"121.509","lat":"31.0808","category":"47","category_name":"住宅区","address":"上海市闵行区浦驰路235弄1-4号等"},{"poiid":"B2094757D16BA2FA469D","title":"味之都 江月路店","lon":"121.507937054","lat":"31.083800793","category":"68","category_name":"快餐厅","address":"闵行区江月路1800号卜蜂莲花1楼(浦星路口)"},{"poiid":"B2094655D26EA7F4409D","title":"世博家园五街坊","lon":"121.5023","lat":"31.08024","category":"47","category_name":"住宅区","address":"北江燕路228弄1-95"},{"poiid":"B2094757D065AAFD469D","title":"沈佳大酒店","lon":"121.49855","lat":"31.07811","category":"76","category_name":"上海菜","address":"闵行区南江燕路279号(近江月路)"},{"poiid":"B2094654DB64A5F94199","title":"十街坊","lon":"121.50715","lat":"31.07564","category":"47","category_name":"住宅区","address":"浦申路200弄1-60号"},{"poiid":"B2094654DB64AAF9479A","title":"新淞园","lon":"121.50769","lat":"31.0799","category":"201","category_name":"城市广场","address":""},{"poiid":"B2094757D068A2FF419B","title":"浦江世博家园十街坊","lon":"121.51285149573","lat":"31.08091972082","category":"252","category_name":"楼宇机构","address":"上海浦申路200弄"},{"poiid":"B2094757D568A6FF459E","title":"易捷便利店","lon":"121.50908502","lat":"31.07697781","category":"117","category_name":"便民商店/便利店","address":"中国上海市闵行区"},{"poiid":"B209475CD169A2FE4298","title":"火车栈","lon":"121.506332","lat":"31.080814","category":"247","category_name":"餐饮美食","address":"上海市 江月路1500号"},{"poiid":"B2094655D26AA0FA409B","title":"地铁联航路站","lon":"121.51015","lat":"31.07442","category":"36","category_name":"地铁站","address":""},{"poiid":"B2094750DA6BA6FF479A","title":"芦恒路地铁站","lon":"121.509605","lat":"31.081678","category":"36","category_name":"地铁站","address":null},{"poiid":"B2094654DB64ABF9419D","title":"上海闵行区金色阳光世博幼儿园","lon":"121.50809","lat":"31.07513","category":"57","category_name":"幼儿园","address":"闵行区浦晓南路155号(南江燕路浦晓南路)"},{"poiid":"B2094655D26BA1FC409A","title":"浦驰路江园路","lon":"121.5024","lat":"31.07547","category":"38","category_name":"公交车站","address":""},{"poiid":"B2094757D064A7FD4799","title":"浦江镇镇政府","lon":"121.516196","lat":"31.075753","category":"500","category_name":"未知分类","address":"上海联航路1515号"},{"poiid":"B2094757D169ABFC4693","title":"重庆鸡公煲","lon":"121.4994","lat":"31.08417","category":"86","category_name":"火锅店","address":"闵行区浦驰路"},{"poiid":"B2094757D16BA1FB419D","title":"金色阳光幼儿园","lon":"121.508094788","lat":"31.0751399994","category":"57","category_name":"幼儿园","address":"上海闵行区浦江镇浦晓南路金色阳光幼儿园"},{"poiid":"B2094655D26BA2F4489E","title":"浦晓路江月路","lon":"121.50711","lat":"31.0819","category":"38","category_name":"公交车站","address":""},{"poiid":"B2094654DB64A1F84698","title":"易初莲花(江月路)","lon":"121.50584","lat":"31.08292","category":"118","category_name":"超级市场","address":"闵行区江月路1800号"},{"poiid":"B2094757D66EA1FE4792","title":"世博五街坊","lon":"121.504238009","lat":"31.0794855576","category":"47","category_name":"住宅区","address":"上海市闵行区江月路"},{"poiid":"B2094654DB64A4FD499C","title":"十三街坊","lon":"121.50768","lat":"31.07333","category":"47","category_name":"住宅区","address":"浦晓南路59弄1-31号"},{"poiid":"B2094750D76EA4F4419C","title":"明江茶人","lon":"121.497","lat":"31.0754","category":"66","category_name":"茶艺馆","address":"闵行区浦江镇浦锦路309弄绿地沃尔玛3楼(近浦江一中)"},{"poiid":"B2094655D26BA2F4489A","title":"浦申路联航路","lon":"121.50628","lat":"31.07436","category":"38","category_name":"公交车站","address":""},{"poiid":"B2094654DB6EAAFF459A","title":"黄浦一中心世博小学","lon":"121.50256","lat":"31.07441","category":"56","category_name":"小学","address":"闵行区浦驰路177号(近地铁八号线联航路站)"},{"poiid":"B2094757D568AAF5459D","title":"浦江·世博家园四街坊(西门)","lon":"121.50434326","lat":"31.08063612","category":"47","category_name":"住宅区","address":"北江燕路68弄"},{"poiid":"B2094750D36FA2F4439C","title":"凌兆新村地铁站","lon":"121.510017","lat":"31.083953","category":"36","category_name":"地铁站","address":"地铁8号线"},{"poiid":"B209475CD465AAFE4493","title":"火车栈TheTrainInn","lon":"121.511106","lat":"31.084427","category":"257","category_name":"中餐厅","address":"上海市 浦江镇江月路1500号(近浦星公路)"},{"poiid":"B2094757D66BA3FF469C","title":"乐乐人家","lon":"121.50204","lat":"31.07692","category":"76","category_name":"上海菜","address":"闵行区浦江镇世博家园浦驰路(近江园路)"},{"poiid":"B2094655D265AAFF4098","title":"世博家园六街坊","lon":"121.507","lat":"31.0849","category":"47","category_name":"住宅区","address":"上海市闵行区浦江镇北江燕路338弄1号等"},{"poiid":"B2094655D36CA1FB459E","title":"联航路浦驰路","lon":"121.50496","lat":"31.07348","category":"38","category_name":"公交车站","address":""},{"poiid":"B2094757D569A3FF469F","title":"川渝风情","lon":"121.50184543","lat":"31.07631565","category":"71","category_name":"四川菜","address":"闵行区浦江镇浦驰路"},{"poiid":"B2094655D36CA0F84799","title":"江月路地铁站","lon":"121.50868","lat":"31.08322","category":"36","category_name":"地铁站","address":""},{"poiid":"B2094757D06FA3F44093","title":"浦江镇世博家园","lon":"121.49930548","lat":"31.080541459","category":"47","category_name":"住宅区","address":"上海市闵行区江月路近浦星公路"},{"poiid":"B2094757D06FA2F44692","title":"联航路地铁站","lon":"121.51017417","lat":"31.074450102","category":"36","category_name":"地铁站","address":"上海轨道交通 八号线 轨交联航路站 8"},{"poiid":"B2094757D568A0FB439E","title":"绿地沃尔玛广场","lon":"121.4975028","lat":"31.07546278","category":"47","category_name":"住宅区","address":"浦锦路309弄(近江园路)"},{"poiid":"B2094751DA6EA6FC449A","title":"仁济医院南院","lon":"121.503441","lat":"31.08107","category":"627","category_name":"一般地点标志","address":"闵行区浦江镇浦驰路世博家园内(近江月路)"},{"poiid":"B2094757D06FA4F84793","title":"卜蜂莲花(浦江店)","lon":"121.506566","lat":"31.082902","category":"118","category_name":"超级市场","address":"闵行区江月路1800号(浦星路口)"},{"poiid":"B2094757D06FA5FA489C","title":"浦江镇","lon":"121.501756","lat":"31.09062","category":"500","category_name":"未知分类","address":"上海闵行区浦江镇"},{"poiid":"B2094757D06FA6FE449C","title":"大富贵酒楼(浦江店)","lon":"121.507067246","lat":"31.0817084791","category":"76","category_name":"上海菜","address":"闵行区江月路1777号(浦星公路)"},{"poiid":"B2094655D26AA0FA4098","title":"地铁江月路站","lon":"121.50858","lat":"31.08375","category":"36","category_name":"地铁站","address":""},{"poiid":"B2094757D068A4FA419B","title":"新奇士国际酒店","lon":"121.519719","lat":"31.085429","category":"217","category_name":"旅馆招待所","address":"闵行区浦江镇三鲁路3585号"},{"poiid":"B2094757D168A2FA4193","title":"好宴世家(浦江店)","lon":"121.497049059","lat":"31.077068655","category":"76","category_name":"上海菜","address":"闵行区浦锦路377号(近南江燕路)"},{"poiid":"B2094757D16DA3FB4293","title":"欢歌量贩","lon":"121.496897009","lat":"31.0781032275","category":"249","category_name":"购物服务","address":"上海浦锦路309弄6号沃尔玛三楼"},{"poiid":"B2094757D068A4FA4192","title":"世博家园十一街坊","lon":"121.512","lat":"31.0848","category":"47","category_name":"住宅区","address":"上海闵行区浦驰路188弄"},{"poiid":"B2094757D068A7FC479B","title":"浦江镇863软件园","lon":"121.51739502","lat":"31.0768756866","category":"46","category_name":"楼宇","address":"上海闵行区浦江镇联航路1588号"},{"poiid":"B2094757D569A3FA4893","title":"浦江智汇园","lon":"121.52042","lat":"31.076653","category":"47","category_name":"住宅区","address":"普陀区大渡河路588号"},{"poiid":"B2094757D06FA6FB439D","title":"沃尔玛(浦江店)","lon":"121.50775708","lat":"31.069308512","category":"118","category_name":"超级市场","address":"闵行区浦江镇浦锦路309号(近江园路)"},{"poiid":"B2094757D76AA6FD4199","title":"巴顿火锅","lon":"121.501406","lat":"31.06974","category":"86","category_name":"火锅店","address":"闵行区浦锦路309弄绿地沃尔玛广场309弄1幢6号2002-2018号铺(近江园路)"},{"poiid":"B2094757D468A4FB449B","title":"浦星苑","lon":"121.500546054","lat":"31.081557793","category":"76","category_name":"上海菜","address":"闵行区浦江镇浦驰路533号(近江月路)"},{"poiid":"B2094757D06FA4FB489E","title":"浦江世博家园七街坊","lon":"121.511812","lat":"31.083384","category":"500","category_name":"未知分类","address":"上海闵行 浦江镇 南江燕路69弄"},{"poiid":"B2094757D069ABFF459D","title":"联慧大酒店","lon":"121.512506","lat":"31.070648135","category":"76","category_name":"上海菜","address":"闵行区浦江镇竹园路618号(杜行路竹园路)"},{"poiid":"B2094757D569A2F54692","title":"浦江世博家园十二街坊","lon":"121.509","lat":"31.0808","category":"47","category_name":"住宅区","address":"上海市闵行区浦驰路235弄1-4号等"},{"poiid":"B2094757D16BA2FA469D","title":"味之都 江月路店","lon":"121.507937054","lat":"31.083800793","category":"68","category_name":"快餐厅","address":"闵行区江月路1800号卜蜂莲花1楼(浦星路口)"},{"poiid":"B2094655D26EA7F4409D","title":"世博家园五街坊","lon":"121.5023","lat":"31.08024","category":"47","category_name":"住宅区","address":"北江燕路228弄1-95"},{"poiid":"B2094757D065AAFD469D","title":"沈佳大酒店","lon":"121.49855","lat":"31.07811","category":"76","category_name":"上海菜","address":"闵行区南江燕路279号(近江月路)"},{"poiid":"B2094654DB64A5F94199","title":"十街坊","lon":"121.50715","lat":"31.07564","category":"47","category_name":"住宅区","address":"浦申路200弄1-60号"},{"poiid":"B2094654DB64AAF9479A","title":"新淞园","lon":"121.50769","lat":"31.0799","category":"201","category_name":"城市广场","address":""},{"poiid":"B2094757D068A2FF419B","title":"浦江世博家园十街坊","lon":"121.51285149573","lat":"31.08091972082","category":"252","category_name":"楼宇机构","address":"上海浦申路200弄"},{"poiid":"B2094757D568A6FF459E","title":"易捷便利店","lon":"121.50908502","lat":"31.07697781","category":"117","category_name":"便民商店/便利店","address":"中国上海市闵行区"},{"poiid":"B209475CD169A2FE4298","title":"火车栈","lon":"121.506332","lat":"31.080814","category":"247","category_name":"餐饮美食","address":"上海市 江月路1500号"},{"poiid":"B2094655D26AA0FA409B","title":"地铁联航路站","lon":"121.51015","lat":"31.07442","category":"36","category_name":"地铁站","address":""},{"poiid":"B2094750DA6BA6FF479A","title":"芦恒路地铁站","lon":"121.509605","lat":"31.081678","category":"36","category_name":"地铁站","address":null},{"poiid":"B2094654DB64ABF9419D","title":"上海闵行区金色阳光世博幼儿园","lon":"121.50809","lat":"31.07513","category":"57","category_name":"幼儿园","address":"闵行区浦晓南路155号(南江燕路浦晓南路)"},{"poiid":"B2094655D26BA1FC409A","title":"浦驰路江园路","lon":"121.5024","lat":"31.07547","category":"38","category_name":"公交车站","address":""},{"poiid":"B2094757D064A7FD4799","title":"浦江镇镇政府","lon":"121.516196","lat":"31.075753","category":"500","category_name":"未知分类","address":"上海联航路1515号"},{"poiid":"B2094757D169ABFC4693","title":"重庆鸡公煲","lon":"121.4994","lat":"31.08417","category":"86","category_name":"火锅店","address":"闵行区浦驰路"},{"poiid":"B2094757D16BA1FB419D","title":"金色阳光幼儿园","lon":"121.508094788","lat":"31.0751399994","category":"57","category_name":"幼儿园","address":"上海闵行区浦江镇浦晓南路金色阳光幼儿园"},{"poiid":"B2094655D26BA2F4489E","title":"浦晓路江月路","lon":"121.50711","lat":"31.0819","category":"38","category_name":"公交车站","address":""},{"poiid":"B2094654DB64A1F84698","title":"易初莲花(江月路)","lon":"121.50584","lat":"31.08292","category":"118","category_name":"超级市场","address":"闵行区江月路1800号"},{"poiid":"B2094757D66EA1FE4792","title":"世博五街坊","lon":"121.504238009","lat":"31.0794855576","category":"47","category_name":"住宅区","address":"上海市闵行区江月路"},{"poiid":"B2094654DB64A4FD499C","title":"十三街坊","lon":"121.50768","lat":"31.07333","category":"47","category_name":"住宅区","address":"浦晓南路59弄1-31号"},{"poiid":"B2094750D76EA4F4419C","title":"明江茶人","lon":"121.497","lat":"31.0754","category":"66","category_name":"茶艺馆","address":"闵行区浦江镇浦锦路309弄绿地沃尔玛3楼(近浦江一中)"},{"poiid":"B2094655D26BA2F4489A","title":"浦申路联航路","lon":"121.50628","lat":"31.07436","category":"38","category_name":"公交车站","address":""},{"poiid":"B2094654DB6EAAFF459A","title":"黄浦一中心世博小学","lon":"121.50256","lat":"31.07441","category":"56","category_name":"小学","address":"闵行区浦驰路177号(近地铁八号线联航路站)"},{"poiid":"B2094757D568AAF5459D","title":"浦江·世博家园四街坊(西门)","lon":"121.50434326","lat":"31.08063612","category":"47","category_name":"住宅区","address":"北江燕路68弄"},{"poiid":"B2094750D36FA2F4439C","title":"凌兆新村地铁站","lon":"121.510017","lat":"31.083953","category":"36","category_name":"地铁站","address":"地铁8号线"},{"poiid":"B209475CD465AAFE4493","title":"火车栈TheTrainInn","lon":"121.511106","lat":"31.084427","category":"257","category_name":"中餐厅","address":"上海市 浦江镇江月路1500号(近浦星公路)"},{"poiid":"B2094757D66BA3FF469C","title":"乐乐人家","lon":"121.50204","lat":"31.07692","category":"76","category_name":"上海菜","address":"闵行区浦江镇世博家园浦驰路(近江园路)"},{"poiid":"B2094655D265AAFF4098","title":"世博家园六街坊","lon":"121.507","lat":"31.0849","category":"47","category_name":"住宅区","address":"上海市闵行区浦江镇北江燕路338弄1号等"},{"poiid":"B2094655D36CA1FB459E","title":"联航路浦驰路","lon":"121.50496","lat":"31.07348","category":"38","category_name":"公交车站","address":""},{"poiid":"B2094757D569A3FF469F","title":"川渝风情","lon":"121.50184543","lat":"31.07631565","category":"71","category_name":"四川菜","address":"闵行区浦江镇浦驰路"},{"poiid":"B2094655D36CA0F84799","title":"江月路地铁站","lon":"121.50868","lat":"31.08322","category":"36","category_name":"地铁站","address":""},{"poiid":"B2094757D06FA3F44093","title":"浦江镇世博家园","lon":"121.49930548","lat":"31.080541459","category":"47","category_name":"住宅区","address":"上海市闵行区江月路近浦星公路"},{"poiid":"B2094757D06FA2F44692","title":"联航路地铁站","lon":"121.51017417","lat":"31.074450102","category":"36","category_name":"地铁站","address":"上海轨道交通 八号线 轨交联航路站 8"},{"poiid":"B2094757D568A0FB439E","title":"绿地沃尔玛广场","lon":"121.4975028","lat":"31.07546278","category":"47","category_name":"住宅区","address":"浦锦路309弄(近江园路)"},{"poiid":"B2094751DA6EA6FC449A","title":"仁济医院南院","lon":"121.503441","lat":"31.08107","category":"627","category_name":"一般地点标志","address":"闵行区浦江镇浦驰路世博家园内(近江月路)"},{"poiid":"B2094757D06FA4F84793","title":"卜蜂莲花(浦江店)","lon":"121.506566","lat":"31.082902","category":"118","category_name":"超级市场","address":"闵行区江月路1800号(浦星路口)"},{"poiid":"B2094757D06FA5FA489C","title":"浦江镇","lon":"121.501756","lat":"31.09062","category":"500","category_name":"未知分类","address":"上海闵行区浦江镇"},{"poiid":"B2094757D06FA6FE449C","title":"大富贵酒楼(浦江店)","lon":"121.507067246","lat":"31.0817084791","category":"76","category_name":"上海菜","address":"闵行区江月路1777号(浦星公路)"},{"poiid":"B2094655D26AA0FA4098","title":"地铁江月路站","lon":"121.50858","lat":"31.08375","category":"36","category_name":"地铁站","address":""},{"poiid":"B2094757D068A4FA419B","title":"新奇士国际酒店","lon":"121.519719","lat":"31.085429","category":"217","category_name":"旅馆招待所","address":"闵行区浦江镇三鲁路3585号"},{"poiid":"B2094757D168A2FA4193","title":"好宴世家(浦江店)","lon":"121.497049059","lat":"31.077068655","category":"76","category_name":"上海菜","address":"闵行区浦锦路377号(近南江燕路)"},{"poiid":"B2094757D16DA3FB4293","title":"欢歌量贩","lon":"121.496897009","lat":"31.0781032275","category":"249","category_name":"购物服务","address":"上海浦锦路309弄6号沃尔玛三楼"},{"poiid":"B2094757D068A4FA4192","title":"世博家园十一街坊","lon":"121.512","lat":"31.0848","category":"47","category_name":"住宅区","address":"上海闵行区浦驰路188弄"},{"poiid":"B2094757D068A7FC479B","title":"浦江镇863软件园","lon":"121.51739502","lat":"31.0768756866","category":"46","category_name":"楼宇","address":"上海闵行区浦江镇联航路1588号"},{"poiid":"B2094757D569A3FA4893","title":"浦江智汇园","lon":"121.52042","lat":"31.076653","category":"47","category_name":"住宅区","address":"普陀区大渡河路588号"},{"poiid":"B2094757D06FA6FB439D","title":"沃尔玛(浦江店)","lon":"121.50775708","lat":"31.069308512","category":"118","category_name":"超级市场","address":"闵行区浦江镇浦锦路309号(近江园路)"},{"poiid":"B2094757D76AA6FD4199","title":"巴顿火锅","lon":"121.501406","lat":"31.06974","category":"86","category_name":"火锅店","address":"闵行区浦锦路309弄绿地沃尔玛广场309弄1幢6号2002-2018号铺(近江园路)"},{"poiid":"B2094757D468A4FB449B","title":"浦星苑","lon":"121.500546054","lat":"31.081557793","category":"76","category_name":"上海菜","address":"闵行区浦江镇浦驰路533号(近江月路)"},{"poiid":"B2094757D06FA4FB489E","title":"浦江世博家园七街坊","lon":"121.511812","lat":"31.083384","category":"500","category_name":"未知分类","address":"上海闵行 浦江镇 南江燕路69弄"},{"poiid":"B2094757D069ABFF459D","title":"联慧大酒店","lon":"121.512506","lat":"31.070648135","category":"76","category_name":"上海菜","address":"闵行区浦江镇竹园路618号(杜行路竹园路)"},{"poiid":"B2094757D569A2F54692","title":"浦江世博家园十二街坊","lon":"121.509","lat":"31.0808","category":"47","category_name":"住宅区","address":"上海市闵行区浦驰路235弄1-4号等"},{"poiid":"B2094757D16BA2FA469D","title":"味之都 江月路店","lon":"121.507937054","lat":"31.083800793","category":"68","category_name":"快餐厅","address":"闵行区江月路1800号卜蜂莲花1楼(浦星路口)"},{"poiid":"B2094655D26EA7F4409D","title":"世博家园五街坊","lon":"121.5023","lat":"31.08024","category":"47","category_name":"住宅区","address":"北江燕路228弄1-95"},{"poiid":"B2094757D065AAFD469D","title":"沈佳大酒店","lon":"121.49855","lat":"31.07811","category":"76","category_name":"上海菜","address":"闵行区南江燕路279号(近江月路)"},{"poiid":"B2094654DB64A5F94199","title":"十街坊","lon":"121.50715","lat":"31.07564","category":"47","category_name":"住宅区","address":"浦申路200弄1-60号"},{"poiid":"B2094654DB64AAF9479A","title":"新淞园","lon":"121.50769","lat":"31.0799","category":"201","category_name":"城市广场","address":""},{"poiid":"B2094757D068A2FF419B","title":"浦江世博家园十街坊","lon":"121.51285149573","lat":"31.08091972082","category":"252","category_name":"楼宇机构","address":"上海浦申路200弄"},{"poiid":"B2094757D568A6FF459E","title":"易捷便利店","lon":"121.50908502","lat":"31.07697781","category":"117","category_name":"便民商店/便利店","address":"中国上海市闵行区"},{"poiid":"B209475CD169A2FE4298","title":"火车栈","lon":"121.506332","lat":"31.080814","category":"247","category_name":"餐饮美食","address":"上海市 江月路1500号"},{"poiid":"B2094655D26AA0FA409B","title":"地铁联航路站","lon":"121.51015","lat":"31.07442","category":"36","category_name":"地铁站","address":""},{"poiid":"B2094750DA6BA6FF479A","title":"芦恒路地铁站","lon":"121.509605","lat":"31.081678","category":"36","category_name":"地铁站","address":null},{"poiid":"B2094654DB64ABF9419D","title":"上海闵行区金色阳光世博幼儿园","lon":"121.50809","lat":"31.07513","category":"57","category_name":"幼儿园","address":"闵行区浦晓南路155号(南江燕路浦晓南路)"},{"poiid":"B2094655D26BA1FC409A","title":"浦驰路江园路","lon":"121.5024","lat":"31.07547","category":"38","category_name":"公交车站","address":""},{"poiid":"B2094757D064A7FD4799","title":"浦江镇镇政府","lon":"121.516196","lat":"31.075753","category":"500","category_name":"未知分类","address":"上海联航路1515号"},{"poiid":"B2094757D169ABFC4693","title":"重庆鸡公煲","lon":"121.4994","lat":"31.08417","category":"86","category_name":"火锅店","address":"闵行区浦驰路"},{"poiid":"B2094757D16BA1FB419D","title":"金色阳光幼儿园","lon":"121.508094788","lat":"31.0751399994","category":"57","category_name":"幼儿园","address":"上海闵行区浦江镇浦晓南路金色阳光幼儿园"},{"poiid":"B2094655D26BA2F4489E","title":"浦晓路江月路","lon":"121.50711","lat":"31.0819","category":"38","category_name":"公交车站","address":""},{"poiid":"B2094654DB64A1F84698","title":"易初莲花(江月路)","lon":"121.50584","lat":"31.08292","category":"118","category_name":"超级市场","address":"闵行区江月路1800号"},{"poiid":"B2094757D66EA1FE4792","title":"世博五街坊","lon":"121.504238009","lat":"31.0794855576","category":"47","category_name":"住宅区","address":"上海市闵行区江月路"},{"poiid":"B2094654DB64A4FD499C","title":"十三街坊","lon":"121.50768","lat":"31.07333","category":"47","category_name":"住宅区","address":"浦晓南路59弄1-31号"},{"poiid":"B2094750D76EA4F4419C","title":"明江茶人","lon":"121.497","lat":"31.0754","category":"66","category_name":"茶艺馆","address":"闵行区浦江镇浦锦路309弄绿地沃尔玛3楼(近浦江一中)"},{"poiid":"B2094655D26BA2F4489A","title":"浦申路联航路","lon":"121.50628","lat":"31.07436","category":"38","category_name":"公交车站","address":""},{"poiid":"B2094654DB6EAAFF459A","title":"黄浦一中心世博小学","lon":"121.50256","lat":"31.07441","category":"56","category_name":"小学","address":"闵行区浦驰路177号(近地铁八号线联航路站)"},{"poiid":"B2094757D568AAF5459D","title":"浦江·世博家园四街坊(西门)","lon":"121.50434326","lat":"31.08063612","category":"47","category_name":"住宅区","address":"北江燕路68弄"},{"poiid":"B2094750D36FA2F4439C","title":"凌兆新村地铁站","lon":"121.510017","lat":"31.083953","category":"36","category_name":"地铁站","address":"地铁8号线"},{"poiid":"B209475CD465AAFE4493","title":"火车栈TheTrainInn","lon":"121.511106","lat":"31.084427","category":"257","category_name":"中餐厅","address":"上海市 浦江镇江月路1500号(近浦星公路)"},{"poiid":"B2094757D66BA3FF469C","title":"乐乐人家","lon":"121.50204","lat":"31.07692","category":"76","category_name":"上海菜","address":"闵行区浦江镇世博家园浦驰路(近江园路)"},{"poiid":"B2094655D265AAFF4098","title":"世博家园六街坊","lon":"121.507","lat":"31.0849","category":"47","category_name":"住宅区","address":"上海市闵行区浦江镇北江燕路338弄1号等"},{"poiid":"B2094655D36CA1FB459E","title":"联航路浦驰路","lon":"121.50496","lat":"31.07348","category":"38","category_name":"公交车站","address":""},{"poiid":"B2094757D569A3FF469F","title":"川渝风情","lon":"121.50184543","lat":"31.07631565","category":"71","category_name":"四川菜","address":"闵行区浦江镇浦驰路"},{"poiid":"B2094655D36CA0F84799","title":"江月路地铁站","lon":"121.50868","lat":"31.08322","category":"36","category_name":"地铁站","address":""},{"poiid":"B2094757D06FA3F44093","title":"浦江镇世博家园","lon":"121.49930548","lat":"31.080541459","category":"47","category_name":"住宅区","address":"上海市闵行区江月路近浦星公路"},{"poiid":"B2094757D06FA2F44692","title":"联航路地铁站","lon":"121.51017417","lat":"31.074450102","category":"36","category_name":"地铁站","address":"上海轨道交通 八号线 轨交联航路站 8"},{"poiid":"B2094757D568A0FB439E","title":"绿地沃尔玛广场","lon":"121.4975028","lat":"31.07546278","category":"47","category_name":"住宅区","address":"浦锦路309弄(近江园路)"},{"poiid":"B2094751DA6EA6FC449A","title":"仁济医院南院","lon":"121.503441","lat":"31.08107","category":"627","category_name":"一般地点标志","address":"闵行区浦江镇浦驰路世博家园内(近江月路)"},{"poiid":"B2094757D06FA4F84793","title":"卜蜂莲花(浦江店)","lon":"121.506566","lat":"31.082902","category":"118","category_name":"超级市场","address":"闵行区江月路1800号(浦星路口)"},{"poiid":"B2094757D06FA5FA489C","title":"浦江镇","lon":"121.501756","lat":"31.09062","category":"500","category_name":"未知分类","address":"上海闵行区浦江镇"},{"poiid":"B2094757D06FA6FE449C","title":"大富贵酒楼(浦江店)","lon":"121.507067246","lat":"31.0817084791","category":"76","category_name":"上海菜","address":"闵行区江月路1777号(浦星公路)"},{"poiid":"B2094655D26AA0FA4098","title":"地铁江月路站","lon":"121.50858","lat":"31.08375","category":"36","category_name":"地铁站","address":""},{"poiid":"B2094757D068A4FA419B","title":"新奇士国际酒店","lon":"121.519719","lat":"31.085429","category":"217","category_name":"旅馆招待所","address":"闵行区浦江镇三鲁路3585号"},{"poiid":"B2094757D168A2FA4193","title":"好宴世家(浦江店)","lon":"121.497049059","lat":"31.077068655","category":"76","category_name":"上海菜","address":"闵行区浦锦路377号(近南江燕路)"},{"poiid":"B2094757D16DA3FB4293","title":"欢歌量贩","lon":"121.496897009","lat":"31.0781032275","category":"249","category_name":"购物服务","address":"上海浦锦路309弄6号沃尔玛三楼"},{"poiid":"B2094757D068A4FA4192","title":"世博家园十一街坊","lon":"121.512","lat":"31.0848","category":"47","category_name":"住宅区","address":"上海闵行区浦驰路188弄"},{"poiid":"B2094757D068A7FC479B","title":"浦江镇863软件园","lon":"121.51739502","lat":"31.0768756866","category":"46","category_name":"楼宇","address":"上海闵行区浦江镇联航路1588号"},{"poiid":"B2094757D569A3FA4893","title":"浦江智汇园","lon":"121.52042","lat":"31.076653","category":"47","category_name":"住宅区","address":"普陀区大渡河路588号"},{"poiid":"B2094757D06FA6FB439D","title":"沃尔玛(浦江店)","lon":"121.50775708","lat":"31.069308512","category":"118","category_name":"超级市场","address":"闵行区浦江镇浦锦路309号(近江园路)"},{"poiid":"B2094757D76AA6FD4199","title":"巴顿火锅","lon":"121.501406","lat":"31.06974","category":"86","category_name":"火锅店","address":"闵行区浦锦路309弄绿地沃尔玛广场309弄1幢6号2002-2018号铺(近江园路)"},{"poiid":"B2094757D468A4FB449B","title":"浦星苑","lon":"121.500546054","lat":"31.081557793","category":"76","category_name":"上海菜","address":"闵行区浦江镇浦驰路533号(近江月路)"},{"poiid":"B2094757D06FA4FB489E","title":"浦江世博家园七街坊","lon":"121.511812","lat":"31.083384","category":"500","category_name":"未知分类","address":"上海闵行 浦江镇 南江燕路69弄"},{"poiid":"B2094757D069ABFF459D","title":"联慧大酒店","lon":"121.512506","lat":"31.070648135","category":"76","category_name":"上海菜","address":"闵行区浦江镇竹园路618号(杜行路竹园路)"},{"poiid":"B2094757D569A2F54692","title":"浦江世博家园十二街坊","lon":"121.509","lat":"31.0808","category":"47","category_name":"住宅区","address":"上海市闵行区浦驰路235弄1-4号等"},{"poiid":"B2094757D16BA2FA469D","title":"味之都 江月路店","lon":"121.507937054","lat":"31.083800793","category":"68","category_name":"快餐厅","address":"闵行区江月路1800号卜蜂莲花1楼(浦星路口)"},{"poiid":"B2094655D26EA7F4409D","title":"世博家园五街坊","lon":"121.5023","lat":"31.08024","category":"47","category_name":"住宅区","address":"北江燕路228弄1-95"},{"poiid":"B2094757D065AAFD469D","title":"沈佳大酒店","lon":"121.49855","lat":"31.07811","category":"76","category_name":"上海菜","address":"闵行区南江燕路279号(近江月路)"},{"poiid":"B2094654DB64A5F94199","title":"十街坊","lon":"121.50715","lat":"31.07564","category":"47","category_name":"住宅区","address":"浦申路200弄1-60号"},{"poiid":"B2094654DB64AAF9479A","title":"新淞园","lon":"121.50769","lat":"31.0799","category":"201","category_name":"城市广场","address":""},{"poiid":"B2094757D068A2FF419B","title":"浦江世博家园十街坊","lon":"121.51285149573","lat":"31.08091972082","category":"252","category_name":"楼宇机构","address":"上海浦申路200弄"},{"poiid":"B2094757D568A6FF459E","title":"易捷便利店","lon":"121.50908502","lat":"31.07697781","category":"117","category_name":"便民商店/便利店","address":"中国上海市闵行区"},{"poiid":"B209475CD169A2FE4298","title":"火车栈","lon":"121.506332","lat":"31.080814","category":"247","category_name":"餐饮美食","address":"上海市 江月路1500号"},{"poiid":"B2094655D26AA0FA409B","title":"地铁联航路站","lon":"121.51015","lat":"31.07442","category":"36","category_name":"地铁站","address":""},{"poiid":"B2094750DA6BA6FF479A","title":"芦恒路地铁站","lon":"121.509605","lat":"31.081678","category":"36","category_name":"地铁站","address":null},{"poiid":"B2094654DB64ABF9419D","title":"上海闵行区金色阳光世博幼儿园","lon":"121.50809","lat":"31.07513","category":"57","category_name":"幼儿园","address":"闵行区浦晓南路155号(南江燕路浦晓南路)"},{"poiid":"B2094655D26BA1FC409A","title":"浦驰路江园路","lon":"121.5024","lat":"31.07547","category":"38","category_name":"公交车站","address":""},{"poiid":"B2094757D064A7FD4799","title":"浦江镇镇政府","lon":"121.516196","lat":"31.075753","category":"500","category_name":"未知分类","address":"上海联航路1515号"},{"poiid":"B2094757D169ABFC4693","title":"重庆鸡公煲","lon":"121.4994","lat":"31.08417","category":"86","category_name":"火锅店","address":"闵行区浦驰路"},{"poiid":"B2094757D16BA1FB419D","title":"金色阳光幼儿园","lon":"121.508094788","lat":"31.0751399994","category":"57","category_name":"幼儿园","address":"上海闵行区浦江镇浦晓南路金色阳光幼儿园"},{"poiid":"B2094655D26BA2F4489E","title":"浦晓路江月路","lon":"121.50711","lat":"31.0819","category":"38","category_name":"公交车站","address":""},{"poiid":"B2094654DB64A1F84698","title":"易初莲花(江月路)","lon":"121.50584","lat":"31.08292","category":"118","category_name":"超级市场","address":"闵行区江月路1800号"},{"poiid":"B2094757D66EA1FE4792","title":"世博五街坊","lon":"121.504238009","lat":"31.0794855576","category":"47","category_name":"住宅区","address":"上海市闵行区江月路"},{"poiid":"B2094654DB64A4FD499C","title":"十三街坊","lon":"121.50768","lat":"31.07333","category":"47","category_name":"住宅区","address":"浦晓南路59弄1-31号"},{"poiid":"B2094750D76EA4F4419C","title":"明江茶人","lon":"121.497","lat":"31.0754","category":"66","category_name":"茶艺馆","address":"闵行区浦江镇浦锦路309弄绿地沃尔玛3楼(近浦江一中)"},{"poiid":"B2094655D26BA2F4489A","title":"浦申路联航路","lon":"121.50628","lat":"31.07436","category":"38","category_name":"公交车站","address":""},{"poiid":"B2094654DB6EAAFF459A","title":"黄浦一中心世博小学","lon":"121.50256","lat":"31.07441","category":"56","category_name":"小学","address":"闵行区浦驰路177号(近地铁八号线联航路站)"},{"poiid":"B2094757D568AAF5459D","title":"浦江·世博家园四街坊(西门)","lon":"121.50434326","lat":"31.08063612","category":"47","category_name":"住宅区","address":"北江燕路68弄"},{"poiid":"B2094750D36FA2F4439C","title":"凌兆新村地铁站","lon":"121.510017","lat":"31.083953","category":"36","category_name":"地铁站","address":"地铁8号线"},{"poiid":"B209475CD465AAFE4493","title":"火车栈TheTrainInn","lon":"121.511106","lat":"31.084427","category":"257","category_name":"中餐厅","address":"上海市 浦江镇江月路1500号(近浦星公路)"},{"poiid":"B2094757D66BA3FF469C","title":"乐乐人家","lon":"121.50204","lat":"31.07692","category":"76","category_name":"上海菜","address":"闵行区浦江镇世博家园浦驰路(近江园路)"},{"poiid":"B2094655D265AAFF4098","title":"世博家园六街坊","lon":"121.507","lat":"31.0849","category":"47","category_name":"住宅区","address":"上海市闵行区浦江镇北江燕路338弄1号等"},{"poiid":"B2094655D36CA1FB459E","title":"联航路浦驰路","lon":"121.50496","lat":"31.07348","category":"38","category_name":"公交车站","address":""},{"poiid":"B2094757D569A3FF469F","title":"川渝风情","lon":"121.50184543","lat":"31.07631565","category":"71","category_name":"四川菜","address":"闵行区浦江镇浦驰路"}]