[{"poiid":"B2094757D16CA2F44898","title":"上海市第三劳动教养管理所","lon":"121.146984864","lat":"31.1233796078","category":"500","category_name":"未知分类","address":"上海青浦区庆丰路1号"},{"poiid":"B2094757D165AAFA489D","title":"康定路江宁路公交站","lon":"121.152213371","lat":"31.1373365099","category":"38","category_name":"公交车站","address":"上海康定路(近江宁路)"},{"poiid":"B2094757D06BA1FA419F","title":"琵琶园农家乐","lon":"121.134522671","lat":"31.1320980049","category":"75","category_name":"浙江菜","address":"上海外青松公路7166号"},{"poiid":"B2094655D268ABF94393","title":"油墩港桥","lon":"121.16451","lat":"31.13545","category":"250","category_name":"公园户外","address":""},{"poiid":"B2094654DA6BA4FF499E","title":"崧泽古文化遗址","lon":"121.16787","lat":"31.139","category":"250","category_name":"公园户外","address":""},{"poiid":"B2094757D169ABF5469E","title":"中泽路","lon":"121.166775196","lat":"31.1402950207","category":"500","category_name":"未知分类","address":"上海青浦崧泽"},{"poiid":"B2094654DA6BA4FF439E","title":"杭州华联(上海兆泰环保实业有限公司北)","lon":"121.14338","lat":"31.12007","category":"118","category_name":"超级市场","address":"青东农场"},{"poiid":"B2094655D36CA2F8409C","title":"青东农场","lon":"121.14918","lat":"31.11405","category":"38","category_name":"公交车站","address":""},{"poiid":"B2094752D665A2FE499F","title":"青浦区实验中学（东校区）","lon":"121.137035","lat":"31.138983","category":"55","category_name":"中学","address":"青浦区华青南路九十八弄28号"},{"poiid":"B2094753D26AA6F8409A","title":"上海政法学院","lon":"121.167479","lat":"31.123739","category":"500","category_name":"未知分类","address":"上海市 外青松公路7989号"},{"poiid":"B2094750D66AA4F8409F","title":"上海市青浦监狱","lon":"121.138511","lat":"31.121097","category":"608","category_name":"法院","address":"青浦区外青松公路7405号"},{"poiid":"B2094757D66CA7F8489D","title":"天鲜酒家","lon":"121.1521","lat":"31.14686","category":"247","category_name":"餐饮美食","address":"上海近郊朱家角沪青平公路6666号  "},{"poiid":"B2094757D16DA1F44699","title":"莱欧发型","lon":"121.138438521","lat":"31.1401526464","category":"148","category_name":"美容美发店","address":"闵行区青浦区公园路351号(欧洲路口)"},{"poiid":"B2094654DA6BA4FF429F","title":"上海瑞大学校","lon":"121.15367","lat":"31.11323","category":"55","category_name":"中学","address":""},{"poiid":"B2094751D264A2FC499D","title":"中泽苑","lon":"121.166473","lat":"31.140671","category":"252","category_name":"楼宇机构","address":null},{"poiid":"B2094654DA6BA4FB459F","title":"上海教科院豫英实验学校","lon":"121.14059","lat":"31.14549","category":"55","category_name":"中学","address":"青湖路459号"},{"poiid":"B2094655D36CA1FB4893","title":"里浜","lon":"121.15489","lat":"31.15071","category":"38","category_name":"公交车站","address":""},{"poiid":"B2094654DA6BA4F4439C","title":"福乐佳超市(王仙村路)","lon":"121.14749","lat":"31.11409","category":"118","category_name":"超级市场","address":""},{"poiid":"B2094654DA6BA4F84198","title":"上海青浦区赵巷镇崧泽工贸实业公司","lon":"121.16613","lat":"31.14195","category":"263","category_name":"公司","address":""},{"poiid":"B2094654DA6BABFB4698","title":"六安超市","lon":"121.15015","lat":"31.15032","category":"118","category_name":"超级市场","address":""}]