[{"poiid":"B2094757D06FA4FD4692","title":"上海震旦学院","lon":"121.35632","lat":"31.41797","category":"500","category_name":"未知分类","address":"上海宝山区罗店镇市一路88号(近月罗路)  "},{"poiid":"B2094757D068A5F8429B","title":"宝罗瞑园","lon":"121.37416","lat":"31.42456","category":"500","category_name":"未知分类","address":"宝山区罗店苗圃路350号"},{"poiid":"B2094654D469A7FA469D","title":"美兰湖别墅","lon":"121.36365672951","lat":"31.402259302461","category":"47","category_name":"住宅区","address":"上海市宝山区罗迎路558弄"},{"poiid":"B2094757D06AA7FD4099","title":"罗店医院","lon":"121.34698","lat":"31.41517","category":"162","category_name":"医院","address":"宝山区罗溪路121号(罗溪路市一路)"},{"poiid":"B2094757D06BABFB459E","title":"美兰湖中华园","lon":"121.36041","lat":"31.409433","category":"500","category_name":"未知分类","address":"上海市宝山区抚远路1288弄"},{"poiid":"B2094654D468A4F4429E","title":"震旦学院(市一路)","lon":"121.35604","lat":"31.41824","category":"52","category_name":"高等院校","address":"宝山区市一路88"},{"poiid":"B2094757D065AAFB429B","title":"闻道园","lon":"121.36612","lat":"31.42092","category":"500","category_name":"未知分类","address":"宝山区潘泾路2888号(潘泾路市一东路)"},{"poiid":"B2094655D264A0F9449B","title":"上置香岛原墅","lon":"121.35855","lat":"31.41063","category":"47","category_name":"住宅区","address":"宝山美兰湖美丰路88号(抚远路口)"},{"poiid":"B2094654D468A4FB4892","title":"金星绿苑","lon":"121.35493","lat":"31.423529","category":"47","category_name":"住宅区","address":"集贤路500弄501弄"},{"poiid":"B2094655D36DA7FC449F","title":"月罗公路潘泾路","lon":"121.36669","lat":"31.41587","category":"38","category_name":"公交车站","address":""},{"poiid":"B2094757D16AA4FC4299","title":"月罗路2101号","lon":"121.35679067","lat":"31.420241402","category":"47","category_name":"住宅区","address":"上海市宝山区月罗路2101号"},{"poiid":"B2094757D568A5FA479C","title":"意大利餐厅","lon":"121.3654","lat":"31.4263","category":"98","category_name":"意式菜品餐厅","address":"莘朱路168号"},{"poiid":"B2094757D16BA4F9419B","title":"震旦图书馆","lon":"121.35590277","lat":"31.423116256","category":"181","category_name":"图书馆","address":"上海震旦学院"},{"poiid":"B2094757D065A4FE4392","title":"罗溪公园","lon":"121.35075","lat":"31.416","category":"196","category_name":"公园","address":"宝山区罗店市一路150号"},{"poiid":"B2094654D468A4F4419C","title":"欧罗吧娱乐城","lon":"121.36553","lat":"31.42128","category":"248","category_name":"生活娱乐","address":"罗店镇"},{"poiid":"B2094655D26BA1FB439D","title":"罗溪路市一路","lon":"121.347","lat":"31.41561","category":"38","category_name":"公交车站","address":""},{"poiid":"B2094654D469A0FB4498","title":"都是客酒店","lon":"121.350095054","lat":"31.409544793","category":"76","category_name":"上海菜","address":"宝山区罗溪路5号(近月罗公路)"},{"poiid":"B2094655D264A0F8429F","title":"金星绿园二期","lon":"121.35949","lat":"31.41623","category":"47","category_name":"住宅区","address":"上海市宝山区东至抚远路,南至练祁河,西至集贤路,北至祁北路"},{"poiid":"B2094655D26BA4F8419E","title":"罗新苑","lon":"121.34994","lat":"31.424318","category":"47","category_name":"住宅区","address":"集贤路800弄"},{"poiid":"B2094654D468A4F54099","title":"东方文化学院(市一路)","lon":"121.3562","lat":"31.41835","category":"52","category_name":"高等院校","address":""},{"poiid":"B2094757D66FA3F4499B","title":"震旦学院三号楼","lon":"121.356224679","lat":"31.4247084865","category":"500","category_name":"未知分类","address":"上海市一路88号"},{"poiid":"B2094654D468A4F4449E","title":"上海冰峰金属材料有限公司","lon":"121.35897","lat":"31.42024","category":"263","category_name":"公司","address":"苗圃路888"},{"poiid":"B2094655D36CA0FB4492","title":"集贤路祁北路","lon":"121.35331","lat":"31.42274","category":"38","category_name":"公交车站","address":""},{"poiid":"B2094757D06BA6FD4498","title":"万科琥珀臻园","lon":"121.366708","lat":"31.411943","category":"500","category_name":"未知分类","address":"上海市宝山区美兰湖新镇美艾路与抚远路交汇处"},{"poiid":"B2094757D66BABF9469E","title":"麦可茶饮 震旦店 Teamac","lon":"121.353465","lat":"31.417553","category":"111","category_name":"休闲餐饮场所","address":"宝山区市一路88号震旦学院内(集贤路市一路)"},{"poiid":"B2094655D26BA1FB4398","title":"罗新路抚远路","lon":"121.35511","lat":"31.42703","category":"38","category_name":"公交车站","address":""},{"poiid":"B2094655D36DA7FC4498","title":"月罗公路抚远路","lon":"121.35931","lat":"31.41389","category":"38","category_name":"公交车站","address":""},{"poiid":"B2094654D469A0FB4899","title":"顺驰美兰湖","lon":"121.35601","lat":"31.405182","category":"47","category_name":"住宅区","address":"宝山区罗店北欧新镇扶远路美丹路路口"},{"poiid":"B2094757D16FA1FA469A","title":"上海市宝山区看守所","lon":"121.35733787","lat":"31.41223785","category":"500","category_name":"未知分类","address":"上海月罗路2099号"},{"poiid":"B2094757D06BA4FE409F","title":"祁南二村","lon":"121.37101371307","lat":"31.427084704165","category":"252","category_name":"楼宇机构","address":"上海市宝山区市一路"},{"poiid":"B2094654D468A4F54193","title":"罗溪花苑","lon":"121.34593","lat":"31.419167","category":"47","category_name":"住宅区","address":"罗溪路671弄"},{"poiid":"B2094655D36CA2FE499C","title":"祁北路抚远路","lon":"121.35189","lat":"31.42275","category":"38","category_name":"公交车站","address":""},{"poiid":"B2094757D16BA0FB479C","title":"震旦409","lon":"121.35604","lat":"31.418247","category":"500","category_name":"未知分类","address":"上海震旦学院"},{"poiid":"B2094757D66DABF8409E","title":"上海震旦职业学院","lon":"121.361549679","lat":"31.4120992483","category":"671","category_name":"高校中心点","address":"宝山区罗店镇市一路88号(近月罗路)"},{"poiid":"B2094654D468A4F84299","title":"上海中集宝伟工业有限公司","lon":"121.3594","lat":"31.41625","category":"263","category_name":"公司","address":"抚远路1771"},{"poiid":"B2094654D468A4F44599","title":"上海宝翼制罐有限公司","lon":"121.36486","lat":"31.41518","category":"263","category_name":"公司","address":"月罗公路1888号"},{"poiid":"B2094757D168A4F54798","title":"上海老盛昌汤包馆(仓场店)","lon":"121.37037617","lat":"31.416197625","category":"247","category_name":"餐饮美食","address":"上海嘉定仓场路424号"},{"poiid":"B2094654D468A4F4429F","title":"上海罗店经济发展公司","lon":"121.35499","lat":"31.41791","category":"263","category_name":"公司","address":"市一路102"},{"poiid":"B2094750DB6DA5FC409F","title":"罗店中学","lon":"121.343872","lat":"31.422937","category":"55","category_name":"中学","address":"罗新路707号"},{"poiid":"B2094757D164ABF94392","title":"宝山区刑事审判法庭","lon":"121.35954667","lat":"31.414126286","category":"500","category_name":"未知分类","address":"上海市宝山区月罗公路2099号"},{"poiid":"B2094757D16AA2FA4193","title":"全世爱婚礼策划中心","lon":"121.35352975","lat":"31.419455898","category":"263","category_name":"公司","address":"宝山区祁北东路225号(近美兰湖罗店新镇)查看地图"},{"poiid":"B2094757D16DABFB429F","title":"上海宝通赢(起亚)汽车服务有限公司","lon":"121.37071137","lat":"31.416332128","category":"500","category_name":"未知分类","address":"宝山区罗店镇束里桥月罗公路1563号(近潘泾路)"},{"poiid":"B2094654D468A4F5409A","title":"光明村","lon":"121.37454","lat":"31.42803","category":"47","category_name":"住宅区","address":"南昌路278弄"},{"poiid":"B2094654D469A0FB439B","title":"中国弹簧厂冷拉分厂","lon":"121.36138","lat":"31.41411","category":"263","category_name":"公司","address":""},{"poiid":"B2094757D469A0FC499D","title":"客来多","lon":"121.351097","lat":"31.416477","category":"68","category_name":"快餐厅","address":"宝山区罗店镇祁北路(近市一路)"},{"poiid":"B2094757D06BA5F4469C","title":"震旦学院南校区","lon":"121.359177","lat":"31.413554","category":"253","category_name":"校园生活","address":"上海市宝山区月罗公路2106号"},{"poiid":"B2094655D36CA2FE499D","title":"祁北路集贤路","lon":"121.34838","lat":"31.42164","category":"38","category_name":"公交车站","address":""},{"poiid":"B2094654D468A4F8429D","title":"上海宝冶建设有限公司钢构一厂","lon":"121.35436","lat":"31.42803","category":"263","category_name":"公司","address":""},{"poiid":"B2094654D468A4F5409D","title":"罗溪花园(祁北路)","lon":"121.34674","lat":"31.42082","category":"47","category_name":"住宅区","address":""},{"poiid":"B2094654D468A4F4429C","title":"上海市宝山区罗店中心校","lon":"121.34926","lat":"31.41607","category":"55","category_name":"中学","address":"宝山区罗店镇市一路162号(近罗溪公园)"},{"poiid":"B2094757D06FA4FD4692","title":"上海震旦学院","lon":"121.35632","lat":"31.41797","category":"500","category_name":"未知分类","address":"上海宝山区罗店镇市一路88号(近月罗路)  "},{"poiid":"B2094757D068A5F8429B","title":"宝罗瞑园","lon":"121.37416","lat":"31.42456","category":"500","category_name":"未知分类","address":"宝山区罗店苗圃路350号"},{"poiid":"B2094654D469A7FA469D","title":"美兰湖别墅","lon":"121.36365672951","lat":"31.402259302461","category":"47","category_name":"住宅区","address":"上海市宝山区罗迎路558弄"},{"poiid":"B2094757D06AA7FD4099","title":"罗店医院","lon":"121.34698","lat":"31.41517","category":"162","category_name":"医院","address":"宝山区罗溪路121号(罗溪路市一路)"},{"poiid":"B2094757D06BABFB459E","title":"美兰湖中华园","lon":"121.36041","lat":"31.409433","category":"500","category_name":"未知分类","address":"上海市宝山区抚远路1288弄"},{"poiid":"B2094654D468A4F4429E","title":"震旦学院(市一路)","lon":"121.35604","lat":"31.41824","category":"52","category_name":"高等院校","address":"宝山区市一路88"},{"poiid":"B2094757D065AAFB429B","title":"闻道园","lon":"121.36612","lat":"31.42092","category":"500","category_name":"未知分类","address":"宝山区潘泾路2888号(潘泾路市一东路)"},{"poiid":"B2094655D264A0F9449B","title":"上置香岛原墅","lon":"121.35855","lat":"31.41063","category":"47","category_name":"住宅区","address":"宝山美兰湖美丰路88号(抚远路口)"},{"poiid":"B2094654D468A4FB4892","title":"金星绿苑","lon":"121.35493","lat":"31.423529","category":"47","category_name":"住宅区","address":"集贤路500弄501弄"},{"poiid":"B2094655D36DA7FC449F","title":"月罗公路潘泾路","lon":"121.36669","lat":"31.41587","category":"38","category_name":"公交车站","address":""},{"poiid":"B2094757D16AA4FC4299","title":"月罗路2101号","lon":"121.35679067","lat":"31.420241402","category":"47","category_name":"住宅区","address":"上海市宝山区月罗路2101号"},{"poiid":"B2094757D568A5FA479C","title":"意大利餐厅","lon":"121.3654","lat":"31.4263","category":"98","category_name":"意式菜品餐厅","address":"莘朱路168号"},{"poiid":"B2094757D16BA4F9419B","title":"震旦图书馆","lon":"121.35590277","lat":"31.423116256","category":"181","category_name":"图书馆","address":"上海震旦学院"},{"poiid":"B2094757D065A4FE4392","title":"罗溪公园","lon":"121.35075","lat":"31.416","category":"196","category_name":"公园","address":"宝山区罗店市一路150号"},{"poiid":"B2094654D468A4F4419C","title":"欧罗吧娱乐城","lon":"121.36553","lat":"31.42128","category":"248","category_name":"生活娱乐","address":"罗店镇"},{"poiid":"B2094655D26BA1FB439D","title":"罗溪路市一路","lon":"121.347","lat":"31.41561","category":"38","category_name":"公交车站","address":""},{"poiid":"B2094654D469A0FB4498","title":"都是客酒店","lon":"121.350095054","lat":"31.409544793","category":"76","category_name":"上海菜","address":"宝山区罗溪路5号(近月罗公路)"},{"poiid":"B2094655D264A0F8429F","title":"金星绿园二期","lon":"121.35949","lat":"31.41623","category":"47","category_name":"住宅区","address":"上海市宝山区东至抚远路,南至练祁河,西至集贤路,北至祁北路"},{"poiid":"B2094655D26BA4F8419E","title":"罗新苑","lon":"121.34994","lat":"31.424318","category":"47","category_name":"住宅区","address":"集贤路800弄"},{"poiid":"B2094654D468A4F54099","title":"东方文化学院(市一路)","lon":"121.3562","lat":"31.41835","category":"52","category_name":"高等院校","address":""},{"poiid":"B2094757D66FA3F4499B","title":"震旦学院三号楼","lon":"121.356224679","lat":"31.4247084865","category":"500","category_name":"未知分类","address":"上海市一路88号"},{"poiid":"B2094654D468A4F4449E","title":"上海冰峰金属材料有限公司","lon":"121.35897","lat":"31.42024","category":"263","category_name":"公司","address":"苗圃路888"},{"poiid":"B2094655D36CA0FB4492","title":"集贤路祁北路","lon":"121.35331","lat":"31.42274","category":"38","category_name":"公交车站","address":""},{"poiid":"B2094757D06BA6FD4498","title":"万科琥珀臻园","lon":"121.366708","lat":"31.411943","category":"500","category_name":"未知分类","address":"上海市宝山区美兰湖新镇美艾路与抚远路交汇处"},{"poiid":"B2094757D66BABF9469E","title":"麦可茶饮 震旦店 Teamac","lon":"121.353465","lat":"31.417553","category":"111","category_name":"休闲餐饮场所","address":"宝山区市一路88号震旦学院内(集贤路市一路)"},{"poiid":"B2094655D26BA1FB4398","title":"罗新路抚远路","lon":"121.35511","lat":"31.42703","category":"38","category_name":"公交车站","address":""},{"poiid":"B2094655D36DA7FC4498","title":"月罗公路抚远路","lon":"121.35931","lat":"31.41389","category":"38","category_name":"公交车站","address":""},{"poiid":"B2094654D469A0FB4899","title":"顺驰美兰湖","lon":"121.35601","lat":"31.405182","category":"47","category_name":"住宅区","address":"宝山区罗店北欧新镇扶远路美丹路路口"},{"poiid":"B2094757D16FA1FA469A","title":"上海市宝山区看守所","lon":"121.35733787","lat":"31.41223785","category":"500","category_name":"未知分类","address":"上海月罗路2099号"},{"poiid":"B2094757D06BA4FE409F","title":"祁南二村","lon":"121.37101371307","lat":"31.427084704165","category":"252","category_name":"楼宇机构","address":"上海市宝山区市一路"},{"poiid":"B2094654D468A4F54193","title":"罗溪花苑","lon":"121.34593","lat":"31.419167","category":"47","category_name":"住宅区","address":"罗溪路671弄"},{"poiid":"B2094655D36CA2FE499C","title":"祁北路抚远路","lon":"121.35189","lat":"31.42275","category":"38","category_name":"公交车站","address":""},{"poiid":"B2094757D16BA0FB479C","title":"震旦409","lon":"121.35604","lat":"31.418247","category":"500","category_name":"未知分类","address":"上海震旦学院"},{"poiid":"B2094757D66DABF8409E","title":"上海震旦职业学院","lon":"121.361549679","lat":"31.4120992483","category":"671","category_name":"高校中心点","address":"宝山区罗店镇市一路88号(近月罗路)"},{"poiid":"B2094654D468A4F84299","title":"上海中集宝伟工业有限公司","lon":"121.3594","lat":"31.41625","category":"263","category_name":"公司","address":"抚远路1771"},{"poiid":"B2094654D468A4F44599","title":"上海宝翼制罐有限公司","lon":"121.36486","lat":"31.41518","category":"263","category_name":"公司","address":"月罗公路1888号"},{"poiid":"B2094757D168A4F54798","title":"上海老盛昌汤包馆(仓场店)","lon":"121.37037617","lat":"31.416197625","category":"247","category_name":"餐饮美食","address":"上海嘉定仓场路424号"},{"poiid":"B2094654D468A4F4429F","title":"上海罗店经济发展公司","lon":"121.35499","lat":"31.41791","category":"263","category_name":"公司","address":"市一路102"},{"poiid":"B2094750DB6DA5FC409F","title":"罗店中学","lon":"121.343872","lat":"31.422937","category":"55","category_name":"中学","address":"罗新路707号"},{"poiid":"B2094757D164ABF94392","title":"宝山区刑事审判法庭","lon":"121.35954667","lat":"31.414126286","category":"500","category_name":"未知分类","address":"上海市宝山区月罗公路2099号"},{"poiid":"B2094757D16AA2FA4193","title":"全世爱婚礼策划中心","lon":"121.35352975","lat":"31.419455898","category":"263","category_name":"公司","address":"宝山区祁北东路225号(近美兰湖罗店新镇)查看地图"},{"poiid":"B2094757D16DABFB429F","title":"上海宝通赢(起亚)汽车服务有限公司","lon":"121.37071137","lat":"31.416332128","category":"500","category_name":"未知分类","address":"宝山区罗店镇束里桥月罗公路1563号(近潘泾路)"},{"poiid":"B2094654D468A4F5409A","title":"光明村","lon":"121.37454","lat":"31.42803","category":"47","category_name":"住宅区","address":"南昌路278弄"},{"poiid":"B2094654D469A0FB439B","title":"中国弹簧厂冷拉分厂","lon":"121.36138","lat":"31.41411","category":"263","category_name":"公司","address":""},{"poiid":"B2094757D469A0FC499D","title":"客来多","lon":"121.351097","lat":"31.416477","category":"68","category_name":"快餐厅","address":"宝山区罗店镇祁北路(近市一路)"},{"poiid":"B2094757D06BA5F4469C","title":"震旦学院南校区","lon":"121.359177","lat":"31.413554","category":"253","category_name":"校园生活","address":"上海市宝山区月罗公路2106号"},{"poiid":"B2094655D36CA2FE499D","title":"祁北路集贤路","lon":"121.34838","lat":"31.42164","category":"38","category_name":"公交车站","address":""},{"poiid":"B2094654D468A4F8429D","title":"上海宝冶建设有限公司钢构一厂","lon":"121.35436","lat":"31.42803","category":"263","category_name":"公司","address":""},{"poiid":"B2094654D468A4F5409D","title":"罗溪花园(祁北路)","lon":"121.34674","lat":"31.42082","category":"47","category_name":"住宅区","address":""},{"poiid":"B2094654D468A4F4429C","title":"上海市宝山区罗店中心校","lon":"121.34926","lat":"31.41607","category":"55","category_name":"中学","address":"宝山区罗店镇市一路162号(近罗溪公园)"}]