[{"poiid":"B2094654DB69A0F5489A","title":"港丽餐厅 来福士店 Charme Restaurant","lon":"121.476518054","lat":"31.232010793","category":"247","category_name":"餐饮美食","address":"黄浦区西藏中路268号来福士广场6楼(近福州路)"},{"poiid":"B2094654DA6FABF5409D","title":"避风塘 西藏中路店","lon":"121.476926","lat":"31.23122","category":"257","category_name":"中餐厅","address":"黄浦区西藏中路180号高盛大厦3楼(汕头路西藏中路)"},{"poiid":"B2094757D06FA3FB4792","title":"上海天蟾逸夫舞台","lon":"121.47752052644876","lat":"31.2319475704317","category":"179","category_name":"音乐厅","address":"上海黄浦区福州路701号(近云南中路)"},{"poiid":"B2094753D76FAAFA449C","title":"上海滩国泰旗舰店","lon":"121.466011","lat":"31.216125","category":"249","category_name":"购物服务","address":"淮海中路868号"},{"poiid":"B209475CD564A7F84292","title":"上海滩新天地店","lon":"121.47463","lat":"31.22164","category":"119","category_name":"商场","address":"\"太仓路181弄新天地北里15号\r\n\""},{"poiid":"B209475CD564A7F8439E","title":"上海滩中信泰富店","lon":"121.45602","lat":"31.22851","category":"119","category_name":"商场","address":"\"南京西路1168号中信泰富广场，店铺号221.\r\n\""},{"poiid":"B209475CD564A7F84392","title":"上海滩浦东香格里拉店","lon":"121.50058","lat":"31.23634","category":"119","category_name":"商场","address":"浦东富成路33号香格里拉酒店内大堂层"},{"poiid":"B2094757D06EAAFB449D","title":"PANKOO釜山料理(来福士店)","lon":"121.47708","lat":"31.23167","category":"96","category_name":"韩国料理","address":"上海黄浦区西藏中路268号来福士广场6楼(近福州路)  "},{"poiid":"B2094757D06AA3F5449E","title":"望湘园(人民广场店)","lon":"121.477115","lat":"31.231177","category":"77","category_name":"湖南菜","address":"黄浦区西藏中路180号高盛商厦6楼(近福州路)"},{"poiid":"B2094654DB6BA4F5479D","title":"盛贺美(黄浦店)","lon":"121.47801","lat":"31.23244","category":"95","category_name":"日本料理","address":"上海黄浦区福州路666号金陵海欣大厦1楼(近云南中路)"},{"poiid":"B2094757D06FA7FA499B","title":"Hollister(来福士店)","lon":"121.476501755","lat":"31.2318755549","category":"141","category_name":"服装鞋帽皮具店","address":"黄浦区西藏中路268号来福士广场3楼(近福州路)"},{"poiid":"B2094750D364A3FB449A","title":"煲宫","lon":"121.47697418785","lat":"31.231121211065","category":"95","category_name":"日本料理","address":"黄浦区汕头路60号(近西藏中路)"},{"poiid":"B2094757D06FA0F8449B","title":"STAYREAL(来福士店)","lon":"121.476795695","lat":"31.2313505699","category":"637","category_name":"房地产类公司","address":"黄浦区西藏中路268号来福士4楼4-21号(近福州路)"},{"poiid":"B2094654DB69AAFE449A","title":"香啡缤(福州店)","lon":"121.47786","lat":"31.23237","category":"260","category_name":"其他","address":"黄浦区福州路666号金陵海欣大厦1楼B座(近云南中路)"},{"poiid":"B2094757D06FA2F94599","title":"棒约翰比萨(来福士店)","lon":"121.47697","lat":"31.23178","category":"94","category_name":"西餐厅","address":"黄浦区西藏中路268号来福士广场B1楼(近福州路)"},{"poiid":"B2094757D06FA2FE449C","title":"巴贝拉(人民广场店)","lon":"121.47746","lat":"31.23099","category":"94","category_name":"西餐厅","address":"黄浦区西藏中路180号高盛大厦5楼(近汕头路)"},{"poiid":"B2094757D06FA0F84998","title":"上海市工人文化宫","lon":"121.47783","lat":"31.2302","category":"179","category_name":"音乐厅","address":"黄浦区西藏中路120号市工人文化宫内(近北海路)"},{"poiid":"B2094757D06FA3FF439E","title":"大食代(来福士店)","lon":"121.47716","lat":"31.23173","category":"68","category_name":"快餐厅","address":"黄浦区西藏中路268号来福士广场6楼(近福州路)"},{"poiid":"B2094757D06FA1F94092","title":"禾绿回转寿司(福州路店)","lon":"121.47806","lat":"31.23211","category":"95","category_name":"日本料理","address":"黄浦区福州路666号金陵海欣大厦2楼AB12号铺(近云南中路)"},{"poiid":"B2094752D06CA5F44492","title":"Awfully Chocolate","lon":"121.476559","lat":"31.232134","category":"500","category_name":"未知分类","address":"来福士B1"},{"poiid":"B2094654DA6FABFB479C","title":"茉莉花小剧场","lon":"121.47766","lat":"31.23051","category":"180","category_name":"剧场","address":"西藏中路120号上海市工人文化宫"},{"poiid":"B2094654DB65A5FD489A","title":"789新概念火锅料理(人民广场店)","lon":"121.4771","lat":"31.23129","category":"86","category_name":"火锅店","address":"黄浦区西藏中路180号高盛商厦4楼(近汕头路)"},{"poiid":"B2094757D06EAAFC499D","title":"拉面玩家(来福士店)","lon":"121.47701069","lat":"31.231697569","category":"68","category_name":"快餐厅","address":"黄浦区西藏中路268号来福士广场6楼(近福州路)"},{"poiid":"B2094750D268A6FC449A","title":"MUSE","lon":"121.477836","lat":"31.231679","category":"248","category_name":"生活娱乐","address":"北京东路圆明园路"},{"poiid":"B2094757D76DAAFE409C","title":"漂亮石头火锅 来福士店","lon":"121.476494054","lat":"31.232041793","category":"86","category_name":"火锅店","address":"黄浦区西藏中路218号来福士广场6楼大食代内(近福州路)"},{"poiid":"B2094753D26BAAF8429A","title":"茉莉花小剧场","lon":"121.478252","lat":"31.230385","category":"500","category_name":"未知分类","address":"上海市 黄浦区北海路251号"},{"poiid":"B2094750D36BA2FA429A","title":"3Q脆皮鸡排","lon":"121.47808","lat":"31.23214","category":"68","category_name":"快餐厅","address":"黄浦区福州路675号(近云南路)"},{"poiid":"B2094757D06FABF9429D","title":"冰期时代(来福士店)","lon":"121.476578288","lat":"31.232111959","category":"113","category_name":"冷饮店","address":"黄浦区西藏中路268号来福士广场6楼(近福州路)"},{"poiid":"B2094750DB6EA5FF4893","title":"来福士广场写字楼","lon":"121.476534","lat":"31.232041","category":"46","category_name":"楼宇","address":"黄浦西藏中路268号"},{"poiid":"B2094654DA6FA0F9479B","title":"王磊形象公社(西藏中路)","lon":"121.47662","lat":"31.23209","category":"248","category_name":"生活娱乐","address":"黄浦区西藏中路268号来福士广场604-605号铺(近福州路)"},{"poiid":"B2094751D56CA2F94493","title":"星巴克(来福士一店)","lon":"121.47652","lat":"31.23204","category":"247","category_name":"餐饮美食","address":"黄浦区西藏中路268号来福士广场1楼01-12室(近福州路)"},{"poiid":"B2094753D76AA2F5479B","title":"重庆小天鹅(人民广场店)","lon":"121.47719","lat":"31.23134","category":"86","category_name":"火锅店","address":"上海市黄浦区西藏中路180号高盛大厦4楼(近汕头路)"},{"poiid":"B2094752D06DAAF8479F","title":"茶香书香（来福士店）","lon":"121.476582","lat":"31.232166","category":"247","category_name":"餐饮美食","address":"人民广场来福士B1层"},{"poiid":"B2094757D06FA3FD419C","title":"土豆风暴","lon":"121.476788696","lat":"31.2317445699","category":"94","category_name":"西餐厅","address":"黄浦区西藏中路268号来福士广场B1楼(福州路口)"},{"poiid":"B2094757D06FA1FA459F","title":"NOVO(来福士店)","lon":"121.477062331","lat":"31.232104587","category":"141","category_name":"服装鞋帽皮具店","address":"黄浦区西藏中路268号来福士广场1-01/2-01(近福州路)"},{"poiid":"B2094757D16EA0FA4398","title":"蒂凡尼","lon":"121.476462738","lat":"31.2312053209","category":"500","category_name":"未知分类","address":"上海来福士"},{"poiid":"B2094757D06FA4FC449B","title":"每日新鲜水果吧(来福士店)","lon":"121.47687","lat":"31.23182","category":"113","category_name":"冷饮店","address":"黄浦区西藏中路268号来福士广场B1楼(近福州路)"},{"poiid":"B2094750DB68A6F9439A","title":"宜芝多 Ichido ICAFE","lon":"121.478561","lat":"31.231027","category":"247","category_name":"餐饮美食","address":"黄浦区人民广场地铁站内大三角2楼"},{"poiid":"B2094757D16FA5FF4398","title":"上海一家香巴岛小龙虾","lon":"121.47642933","lat":"31.230913814","category":"247","category_name":"餐饮美食","address":"上海寿宁路6号"},{"poiid":"B2094654DA6FABF9429E","title":"中国建设银行上海福州路支行","lon":"121.47721","lat":"31.23181","category":"150","category_name":"银行","address":"福州路725"},{"poiid":"B2094655D26AA0FE4098","title":"ZARA(西藏中路店)","lon":"121.47719","lat":"31.23126","category":"141","category_name":"服装鞋帽皮具店","address":"黄浦区西藏中路180号高盛大厦1-2楼(近汕头路)"},{"poiid":"B2094757D06AA2F54192","title":"C'est la vie Cafe","lon":"121.47859","lat":"31.23101","category":"65","category_name":"咖啡厅","address":"黄浦区广东路689号海通证券大厦1楼(广东路云南中路)"},{"poiid":"B2094757D66EA3F44193","title":"食之密","lon":"121.47664373","lat":"31.232200342","category":"500","category_name":"未知分类","address":"上海市来福士B1"},{"poiid":"B2094757D06FA3F9429D","title":"快乐柠檬(来福士店)","lon":"121.47667369","lat":"31.23169257","category":"113","category_name":"冷饮店","address":"黄浦区西藏中路268号来福士广场B1楼(近福州路)"},{"poiid":"B2094757D068A0F4459A","title":"梦园餐厅","lon":"121.47804","lat":"31.23007","category":"76","category_name":"上海菜","address":"黄浦区北海路277号(近西藏中路)"},{"poiid":"B209475CD26EA1FB449B","title":"Mr.Pizza","lon":"121.477928","lat":"31.232315","category":"500","category_name":"未知分类","address":"上海市 福州路"},{"poiid":"B2094757D06FA5F8459F","title":"金太子形象设计(福州路店)","lon":"121.47812","lat":"31.23199","category":"149","category_name":"洗浴推拿场所","address":"黄浦区福州路737号(近西藏中路)"},{"poiid":"B2094757D068A0F8459C","title":"舒蔡记 云南中路店","lon":"121.47790785213","lat":"31.231293066672","category":"68","category_name":"快餐厅","address":"黄浦区云南中路142-146号(福州路广东路之间)"},{"poiid":"B2094757D56CA4FE469F","title":"CHOCOCOO巧克力 来福士广场店","lon":"121.476575054","lat":"31.232022793","category":"67","category_name":"甜品店","address":"黄浦区西藏中路268号来福士广场B1楼(近福州路)"},{"poiid":"B2094757D06FA4FC469F","title":"面包新语(来福士店)","lon":"121.47713","lat":"31.23157","category":"112","category_name":"糕饼店","address":"黄浦区西藏中路268号来福士广场B1楼(卡乐星对面)"},{"poiid":"B2094654DB69A0F5489A","title":"港丽餐厅 来福士店 Charme Restaurant","lon":"121.476518054","lat":"31.232010793","category":"247","category_name":"餐饮美食","address":"黄浦区西藏中路268号来福士广场6楼(近福州路)"},{"poiid":"B2094654DA6FABF5409D","title":"避风塘 西藏中路店","lon":"121.476926","lat":"31.23122","category":"257","category_name":"中餐厅","address":"黄浦区西藏中路180号高盛大厦3楼(汕头路西藏中路)"},{"poiid":"B2094757D06FA3FB4792","title":"上海天蟾逸夫舞台","lon":"121.47752052644876","lat":"31.2319475704317","category":"179","category_name":"音乐厅","address":"上海黄浦区福州路701号(近云南中路)"},{"poiid":"B2094753D76FAAFA449C","title":"上海滩国泰旗舰店","lon":"121.466011","lat":"31.216125","category":"249","category_name":"购物服务","address":"淮海中路868号"},{"poiid":"B209475CD564A7F84292","title":"上海滩新天地店","lon":"121.47463","lat":"31.22164","category":"119","category_name":"商场","address":"\"太仓路181弄新天地北里15号\r\n\""},{"poiid":"B209475CD564A7F8439E","title":"上海滩中信泰富店","lon":"121.45602","lat":"31.22851","category":"119","category_name":"商场","address":"\"南京西路1168号中信泰富广场，店铺号221.\r\n\""},{"poiid":"B209475CD564A7F84392","title":"上海滩浦东香格里拉店","lon":"121.50058","lat":"31.23634","category":"119","category_name":"商场","address":"浦东富成路33号香格里拉酒店内大堂层"},{"poiid":"B2094757D06EAAFB449D","title":"PANKOO釜山料理(来福士店)","lon":"121.47708","lat":"31.23167","category":"96","category_name":"韩国料理","address":"上海黄浦区西藏中路268号来福士广场6楼(近福州路)  "},{"poiid":"B2094757D06AA3F5449E","title":"望湘园(人民广场店)","lon":"121.477115","lat":"31.231177","category":"77","category_name":"湖南菜","address":"黄浦区西藏中路180号高盛商厦6楼(近福州路)"},{"poiid":"B2094654DB6BA4F5479D","title":"盛贺美(黄浦店)","lon":"121.47801","lat":"31.23244","category":"95","category_name":"日本料理","address":"上海黄浦区福州路666号金陵海欣大厦1楼(近云南中路)"},{"poiid":"B2094757D06FA7FA499B","title":"Hollister(来福士店)","lon":"121.476501755","lat":"31.2318755549","category":"141","category_name":"服装鞋帽皮具店","address":"黄浦区西藏中路268号来福士广场3楼(近福州路)"},{"poiid":"B2094750D364A3FB449A","title":"煲宫","lon":"121.47697418785","lat":"31.231121211065","category":"95","category_name":"日本料理","address":"黄浦区汕头路60号(近西藏中路)"},{"poiid":"B2094757D06FA0F8449B","title":"STAYREAL(来福士店)","lon":"121.476795695","lat":"31.2313505699","category":"637","category_name":"房地产类公司","address":"黄浦区西藏中路268号来福士4楼4-21号(近福州路)"},{"poiid":"B2094654DB69AAFE449A","title":"香啡缤(福州店)","lon":"121.47786","lat":"31.23237","category":"260","category_name":"其他","address":"黄浦区福州路666号金陵海欣大厦1楼B座(近云南中路)"},{"poiid":"B2094757D06FA2F94599","title":"棒约翰比萨(来福士店)","lon":"121.47697","lat":"31.23178","category":"94","category_name":"西餐厅","address":"黄浦区西藏中路268号来福士广场B1楼(近福州路)"},{"poiid":"B2094757D06FA2FE449C","title":"巴贝拉(人民广场店)","lon":"121.47746","lat":"31.23099","category":"94","category_name":"西餐厅","address":"黄浦区西藏中路180号高盛大厦5楼(近汕头路)"},{"poiid":"B2094757D06FA0F84998","title":"上海市工人文化宫","lon":"121.47783","lat":"31.2302","category":"179","category_name":"音乐厅","address":"黄浦区西藏中路120号市工人文化宫内(近北海路)"},{"poiid":"B2094757D06FA3FF439E","title":"大食代(来福士店)","lon":"121.47716","lat":"31.23173","category":"68","category_name":"快餐厅","address":"黄浦区西藏中路268号来福士广场6楼(近福州路)"},{"poiid":"B2094757D06FA1F94092","title":"禾绿回转寿司(福州路店)","lon":"121.47806","lat":"31.23211","category":"95","category_name":"日本料理","address":"黄浦区福州路666号金陵海欣大厦2楼AB12号铺(近云南中路)"},{"poiid":"B2094752D06CA5F44492","title":"Awfully Chocolate","lon":"121.476559","lat":"31.232134","category":"500","category_name":"未知分类","address":"来福士B1"},{"poiid":"B2094654DA6FABFB479C","title":"茉莉花小剧场","lon":"121.47766","lat":"31.23051","category":"180","category_name":"剧场","address":"西藏中路120号上海市工人文化宫"},{"poiid":"B2094654DB65A5FD489A","title":"789新概念火锅料理(人民广场店)","lon":"121.4771","lat":"31.23129","category":"86","category_name":"火锅店","address":"黄浦区西藏中路180号高盛商厦4楼(近汕头路)"},{"poiid":"B2094757D06EAAFC499D","title":"拉面玩家(来福士店)","lon":"121.47701069","lat":"31.231697569","category":"68","category_name":"快餐厅","address":"黄浦区西藏中路268号来福士广场6楼(近福州路)"},{"poiid":"B2094750D268A6FC449A","title":"MUSE","lon":"121.477836","lat":"31.231679","category":"248","category_name":"生活娱乐","address":"北京东路圆明园路"},{"poiid":"B2094757D76DAAFE409C","title":"漂亮石头火锅 来福士店","lon":"121.476494054","lat":"31.232041793","category":"86","category_name":"火锅店","address":"黄浦区西藏中路218号来福士广场6楼大食代内(近福州路)"},{"poiid":"B2094753D26BAAF8429A","title":"茉莉花小剧场","lon":"121.478252","lat":"31.230385","category":"500","category_name":"未知分类","address":"上海市 黄浦区北海路251号"},{"poiid":"B2094750D36BA2FA429A","title":"3Q脆皮鸡排","lon":"121.47808","lat":"31.23214","category":"68","category_name":"快餐厅","address":"黄浦区福州路675号(近云南路)"},{"poiid":"B2094757D06FABF9429D","title":"冰期时代(来福士店)","lon":"121.476578288","lat":"31.232111959","category":"113","category_name":"冷饮店","address":"黄浦区西藏中路268号来福士广场6楼(近福州路)"},{"poiid":"B2094750DB6EA5FF4893","title":"来福士广场写字楼","lon":"121.476534","lat":"31.232041","category":"46","category_name":"楼宇","address":"黄浦西藏中路268号"},{"poiid":"B2094654DA6FA0F9479B","title":"王磊形象公社(西藏中路)","lon":"121.47662","lat":"31.23209","category":"248","category_name":"生活娱乐","address":"黄浦区西藏中路268号来福士广场604-605号铺(近福州路)"},{"poiid":"B2094751D56CA2F94493","title":"星巴克(来福士一店)","lon":"121.47652","lat":"31.23204","category":"247","category_name":"餐饮美食","address":"黄浦区西藏中路268号来福士广场1楼01-12室(近福州路)"},{"poiid":"B2094753D76AA2F5479B","title":"重庆小天鹅(人民广场店)","lon":"121.47719","lat":"31.23134","category":"86","category_name":"火锅店","address":"上海市黄浦区西藏中路180号高盛大厦4楼(近汕头路)"},{"poiid":"B2094752D06DAAF8479F","title":"茶香书香（来福士店）","lon":"121.476582","lat":"31.232166","category":"247","category_name":"餐饮美食","address":"人民广场来福士B1层"},{"poiid":"B2094757D06FA3FD419C","title":"土豆风暴","lon":"121.476788696","lat":"31.2317445699","category":"94","category_name":"西餐厅","address":"黄浦区西藏中路268号来福士广场B1楼(福州路口)"},{"poiid":"B2094757D06FA1FA459F","title":"NOVO(来福士店)","lon":"121.477062331","lat":"31.232104587","category":"141","category_name":"服装鞋帽皮具店","address":"黄浦区西藏中路268号来福士广场1-01/2-01(近福州路)"},{"poiid":"B2094757D16EA0FA4398","title":"蒂凡尼","lon":"121.476462738","lat":"31.2312053209","category":"500","category_name":"未知分类","address":"上海来福士"},{"poiid":"B2094757D06FA4FC449B","title":"每日新鲜水果吧(来福士店)","lon":"121.47687","lat":"31.23182","category":"113","category_name":"冷饮店","address":"黄浦区西藏中路268号来福士广场B1楼(近福州路)"},{"poiid":"B2094750DB68A6F9439A","title":"宜芝多 Ichido ICAFE","lon":"121.478561","lat":"31.231027","category":"247","category_name":"餐饮美食","address":"黄浦区人民广场地铁站内大三角2楼"},{"poiid":"B2094757D16FA5FF4398","title":"上海一家香巴岛小龙虾","lon":"121.47642933","lat":"31.230913814","category":"247","category_name":"餐饮美食","address":"上海寿宁路6号"},{"poiid":"B2094654DA6FABF9429E","title":"中国建设银行上海福州路支行","lon":"121.47721","lat":"31.23181","category":"150","category_name":"银行","address":"福州路725"},{"poiid":"B2094655D26AA0FE4098","title":"ZARA(西藏中路店)","lon":"121.47719","lat":"31.23126","category":"141","category_name":"服装鞋帽皮具店","address":"黄浦区西藏中路180号高盛大厦1-2楼(近汕头路)"},{"poiid":"B2094757D06AA2F54192","title":"C'est la vie Cafe","lon":"121.47859","lat":"31.23101","category":"65","category_name":"咖啡厅","address":"黄浦区广东路689号海通证券大厦1楼(广东路云南中路)"},{"poiid":"B2094757D66EA3F44193","title":"食之密","lon":"121.47664373","lat":"31.232200342","category":"500","category_name":"未知分类","address":"上海市来福士B1"},{"poiid":"B2094757D06FA3F9429D","title":"快乐柠檬(来福士店)","lon":"121.47667369","lat":"31.23169257","category":"113","category_name":"冷饮店","address":"黄浦区西藏中路268号来福士广场B1楼(近福州路)"},{"poiid":"B2094757D068A0F4459A","title":"梦园餐厅","lon":"121.47804","lat":"31.23007","category":"76","category_name":"上海菜","address":"黄浦区北海路277号(近西藏中路)"},{"poiid":"B209475CD26EA1FB449B","title":"Mr.Pizza","lon":"121.477928","lat":"31.232315","category":"500","category_name":"未知分类","address":"上海市 福州路"},{"poiid":"B2094757D06FA5F8459F","title":"金太子形象设计(福州路店)","lon":"121.47812","lat":"31.23199","category":"149","category_name":"洗浴推拿场所","address":"黄浦区福州路737号(近西藏中路)"},{"poiid":"B2094757D068A0F8459C","title":"舒蔡记 云南中路店","lon":"121.47790785213","lat":"31.231293066672","category":"68","category_name":"快餐厅","address":"黄浦区云南中路142-146号(福州路广东路之间)"},{"poiid":"B2094757D56CA4FE469F","title":"CHOCOCOO巧克力 来福士广场店","lon":"121.476575054","lat":"31.232022793","category":"67","category_name":"甜品店","address":"黄浦区西藏中路268号来福士广场B1楼(近福州路)"},{"poiid":"B2094757D06FA4FC469F","title":"面包新语(来福士店)","lon":"121.47713","lat":"31.23157","category":"112","category_name":"糕饼店","address":"黄浦区西藏中路268号来福士广场B1楼(卡乐星对面)"},{"poiid":"B2094654DB69A0F5489A","title":"港丽餐厅 来福士店 Charme Restaurant","lon":"121.476518054","lat":"31.232010793","category":"247","category_name":"餐饮美食","address":"黄浦区西藏中路268号来福士广场6楼(近福州路)"},{"poiid":"B2094654DA6FABF5409D","title":"避风塘 西藏中路店","lon":"121.476926","lat":"31.23122","category":"257","category_name":"中餐厅","address":"黄浦区西藏中路180号高盛大厦3楼(汕头路西藏中路)"},{"poiid":"B2094757D06FA3FB4792","title":"上海天蟾逸夫舞台","lon":"121.47752052644876","lat":"31.2319475704317","category":"179","category_name":"音乐厅","address":"上海黄浦区福州路701号(近云南中路)"},{"poiid":"B2094753D76FAAFA449C","title":"上海滩国泰旗舰店","lon":"121.466011","lat":"31.216125","category":"249","category_name":"购物服务","address":"淮海中路868号"},{"poiid":"B209475CD564A7F84292","title":"上海滩新天地店","lon":"121.47463","lat":"31.22164","category":"119","category_name":"商场","address":"\"太仓路181弄新天地北里15号\r\n\""},{"poiid":"B209475CD564A7F8439E","title":"上海滩中信泰富店","lon":"121.45602","lat":"31.22851","category":"119","category_name":"商场","address":"\"南京西路1168号中信泰富广场，店铺号221.\r\n\""},{"poiid":"B209475CD564A7F84392","title":"上海滩浦东香格里拉店","lon":"121.50058","lat":"31.23634","category":"119","category_name":"商场","address":"浦东富成路33号香格里拉酒店内大堂层"},{"poiid":"B2094757D06EAAFB449D","title":"PANKOO釜山料理(来福士店)","lon":"121.47708","lat":"31.23167","category":"96","category_name":"韩国料理","address":"上海黄浦区西藏中路268号来福士广场6楼(近福州路)  "},{"poiid":"B2094757D06AA3F5449E","title":"望湘园(人民广场店)","lon":"121.477115","lat":"31.231177","category":"77","category_name":"湖南菜","address":"黄浦区西藏中路180号高盛商厦6楼(近福州路)"},{"poiid":"B2094654DB6BA4F5479D","title":"盛贺美(黄浦店)","lon":"121.47801","lat":"31.23244","category":"95","category_name":"日本料理","address":"上海黄浦区福州路666号金陵海欣大厦1楼(近云南中路)"},{"poiid":"B2094757D06FA7FA499B","title":"Hollister(来福士店)","lon":"121.476501755","lat":"31.2318755549","category":"141","category_name":"服装鞋帽皮具店","address":"黄浦区西藏中路268号来福士广场3楼(近福州路)"},{"poiid":"B2094750D364A3FB449A","title":"煲宫","lon":"121.47697418785","lat":"31.231121211065","category":"95","category_name":"日本料理","address":"黄浦区汕头路60号(近西藏中路)"},{"poiid":"B2094757D06FA0F8449B","title":"STAYREAL(来福士店)","lon":"121.476795695","lat":"31.2313505699","category":"637","category_name":"房地产类公司","address":"黄浦区西藏中路268号来福士4楼4-21号(近福州路)"},{"poiid":"B2094654DB69AAFE449A","title":"香啡缤(福州店)","lon":"121.47786","lat":"31.23237","category":"260","category_name":"其他","address":"黄浦区福州路666号金陵海欣大厦1楼B座(近云南中路)"},{"poiid":"B2094757D06FA2F94599","title":"棒约翰比萨(来福士店)","lon":"121.47697","lat":"31.23178","category":"94","category_name":"西餐厅","address":"黄浦区西藏中路268号来福士广场B1楼(近福州路)"},{"poiid":"B2094757D06FA2FE449C","title":"巴贝拉(人民广场店)","lon":"121.47746","lat":"31.23099","category":"94","category_name":"西餐厅","address":"黄浦区西藏中路180号高盛大厦5楼(近汕头路)"},{"poiid":"B2094757D06FA0F84998","title":"上海市工人文化宫","lon":"121.47783","lat":"31.2302","category":"179","category_name":"音乐厅","address":"黄浦区西藏中路120号市工人文化宫内(近北海路)"},{"poiid":"B2094757D06FA3FF439E","title":"大食代(来福士店)","lon":"121.47716","lat":"31.23173","category":"68","category_name":"快餐厅","address":"黄浦区西藏中路268号来福士广场6楼(近福州路)"},{"poiid":"B2094757D06FA1F94092","title":"禾绿回转寿司(福州路店)","lon":"121.47806","lat":"31.23211","category":"95","category_name":"日本料理","address":"黄浦区福州路666号金陵海欣大厦2楼AB12号铺(近云南中路)"},{"poiid":"B2094752D06CA5F44492","title":"Awfully Chocolate","lon":"121.476559","lat":"31.232134","category":"500","category_name":"未知分类","address":"来福士B1"},{"poiid":"B2094654DA6FABFB479C","title":"茉莉花小剧场","lon":"121.47766","lat":"31.23051","category":"180","category_name":"剧场","address":"西藏中路120号上海市工人文化宫"},{"poiid":"B2094654DB65A5FD489A","title":"789新概念火锅料理(人民广场店)","lon":"121.4771","lat":"31.23129","category":"86","category_name":"火锅店","address":"黄浦区西藏中路180号高盛商厦4楼(近汕头路)"},{"poiid":"B2094757D06EAAFC499D","title":"拉面玩家(来福士店)","lon":"121.47701069","lat":"31.231697569","category":"68","category_name":"快餐厅","address":"黄浦区西藏中路268号来福士广场6楼(近福州路)"},{"poiid":"B2094750D268A6FC449A","title":"MUSE","lon":"121.477836","lat":"31.231679","category":"248","category_name":"生活娱乐","address":"北京东路圆明园路"},{"poiid":"B2094757D76DAAFE409C","title":"漂亮石头火锅 来福士店","lon":"121.476494054","lat":"31.232041793","category":"86","category_name":"火锅店","address":"黄浦区西藏中路218号来福士广场6楼大食代内(近福州路)"},{"poiid":"B2094753D26BAAF8429A","title":"茉莉花小剧场","lon":"121.478252","lat":"31.230385","category":"500","category_name":"未知分类","address":"上海市 黄浦区北海路251号"},{"poiid":"B2094750D36BA2FA429A","title":"3Q脆皮鸡排","lon":"121.47808","lat":"31.23214","category":"68","category_name":"快餐厅","address":"黄浦区福州路675号(近云南路)"},{"poiid":"B2094757D06FABF9429D","title":"冰期时代(来福士店)","lon":"121.476578288","lat":"31.232111959","category":"113","category_name":"冷饮店","address":"黄浦区西藏中路268号来福士广场6楼(近福州路)"},{"poiid":"B2094750DB6EA5FF4893","title":"来福士广场写字楼","lon":"121.476534","lat":"31.232041","category":"46","category_name":"楼宇","address":"黄浦西藏中路268号"},{"poiid":"B2094654DA6FA0F9479B","title":"王磊形象公社(西藏中路)","lon":"121.47662","lat":"31.23209","category":"248","category_name":"生活娱乐","address":"黄浦区西藏中路268号来福士广场604-605号铺(近福州路)"},{"poiid":"B2094751D56CA2F94493","title":"星巴克(来福士一店)","lon":"121.47652","lat":"31.23204","category":"247","category_name":"餐饮美食","address":"黄浦区西藏中路268号来福士广场1楼01-12室(近福州路)"},{"poiid":"B2094753D76AA2F5479B","title":"重庆小天鹅(人民广场店)","lon":"121.47719","lat":"31.23134","category":"86","category_name":"火锅店","address":"上海市黄浦区西藏中路180号高盛大厦4楼(近汕头路)"},{"poiid":"B2094752D06DAAF8479F","title":"茶香书香（来福士店）","lon":"121.476582","lat":"31.232166","category":"247","category_name":"餐饮美食","address":"人民广场来福士B1层"},{"poiid":"B2094757D06FA3FD419C","title":"土豆风暴","lon":"121.476788696","lat":"31.2317445699","category":"94","category_name":"西餐厅","address":"黄浦区西藏中路268号来福士广场B1楼(福州路口)"},{"poiid":"B2094757D06FA1FA459F","title":"NOVO(来福士店)","lon":"121.477062331","lat":"31.232104587","category":"141","category_name":"服装鞋帽皮具店","address":"黄浦区西藏中路268号来福士广场1-01/2-01(近福州路)"},{"poiid":"B2094757D16EA0FA4398","title":"蒂凡尼","lon":"121.476462738","lat":"31.2312053209","category":"500","category_name":"未知分类","address":"上海来福士"},{"poiid":"B2094757D06FA4FC449B","title":"每日新鲜水果吧(来福士店)","lon":"121.47687","lat":"31.23182","category":"113","category_name":"冷饮店","address":"黄浦区西藏中路268号来福士广场B1楼(近福州路)"},{"poiid":"B2094750DB68A6F9439A","title":"宜芝多 Ichido ICAFE","lon":"121.478561","lat":"31.231027","category":"247","category_name":"餐饮美食","address":"黄浦区人民广场地铁站内大三角2楼"},{"poiid":"B2094757D16FA5FF4398","title":"上海一家香巴岛小龙虾","lon":"121.47642933","lat":"31.230913814","category":"247","category_name":"餐饮美食","address":"上海寿宁路6号"},{"poiid":"B2094654DA6FABF9429E","title":"中国建设银行上海福州路支行","lon":"121.47721","lat":"31.23181","category":"150","category_name":"银行","address":"福州路725"},{"poiid":"B2094655D26AA0FE4098","title":"ZARA(西藏中路店)","lon":"121.47719","lat":"31.23126","category":"141","category_name":"服装鞋帽皮具店","address":"黄浦区西藏中路180号高盛大厦1-2楼(近汕头路)"},{"poiid":"B2094757D06AA2F54192","title":"C'est la vie Cafe","lon":"121.47859","lat":"31.23101","category":"65","category_name":"咖啡厅","address":"黄浦区广东路689号海通证券大厦1楼(广东路云南中路)"},{"poiid":"B2094757D66EA3F44193","title":"食之密","lon":"121.47664373","lat":"31.232200342","category":"500","category_name":"未知分类","address":"上海市来福士B1"},{"poiid":"B2094757D06FA3F9429D","title":"快乐柠檬(来福士店)","lon":"121.47667369","lat":"31.23169257","category":"113","category_name":"冷饮店","address":"黄浦区西藏中路268号来福士广场B1楼(近福州路)"},{"poiid":"B2094757D068A0F4459A","title":"梦园餐厅","lon":"121.47804","lat":"31.23007","category":"76","category_name":"上海菜","address":"黄浦区北海路277号(近西藏中路)"},{"poiid":"B209475CD26EA1FB449B","title":"Mr.Pizza","lon":"121.477928","lat":"31.232315","category":"500","category_name":"未知分类","address":"上海市 福州路"},{"poiid":"B2094757D06FA5F8459F","title":"金太子形象设计(福州路店)","lon":"121.47812","lat":"31.23199","category":"149","category_name":"洗浴推拿场所","address":"黄浦区福州路737号(近西藏中路)"},{"poiid":"B2094757D068A0F8459C","title":"舒蔡记 云南中路店","lon":"121.47790785213","lat":"31.231293066672","category":"68","category_name":"快餐厅","address":"黄浦区云南中路142-146号(福州路广东路之间)"},{"poiid":"B2094757D56CA4FE469F","title":"CHOCOCOO巧克力 来福士广场店","lon":"121.476575054","lat":"31.232022793","category":"67","category_name":"甜品店","address":"黄浦区西藏中路268号来福士广场B1楼(近福州路)"},{"poiid":"B2094757D06FA4FC469F","title":"面包新语(来福士店)","lon":"121.47713","lat":"31.23157","category":"112","category_name":"糕饼店","address":"黄浦区西藏中路268号来福士广场B1楼(卡乐星对面)"},{"poiid":"B2094654DB69A0F5489A","title":"港丽餐厅 来福士店 Charme Restaurant","lon":"121.476518054","lat":"31.232010793","category":"247","category_name":"餐饮美食","address":"黄浦区西藏中路268号来福士广场6楼(近福州路)"},{"poiid":"B2094654DA6FABF5409D","title":"避风塘 西藏中路店","lon":"121.476926","lat":"31.23122","category":"257","category_name":"中餐厅","address":"黄浦区西藏中路180号高盛大厦3楼(汕头路西藏中路)"},{"poiid":"B2094757D06FA3FB4792","title":"上海天蟾逸夫舞台","lon":"121.47752052644876","lat":"31.2319475704317","category":"179","category_name":"音乐厅","address":"上海黄浦区福州路701号(近云南中路)"},{"poiid":"B2094753D76FAAFA449C","title":"上海滩国泰旗舰店","lon":"121.466011","lat":"31.216125","category":"249","category_name":"购物服务","address":"淮海中路868号"},{"poiid":"B209475CD564A7F84292","title":"上海滩新天地店","lon":"121.47463","lat":"31.22164","category":"119","category_name":"商场","address":"\"太仓路181弄新天地北里15号\r\n\""},{"poiid":"B209475CD564A7F8439E","title":"上海滩中信泰富店","lon":"121.45602","lat":"31.22851","category":"119","category_name":"商场","address":"\"南京西路1168号中信泰富广场，店铺号221.\r\n\""},{"poiid":"B209475CD564A7F84392","title":"上海滩浦东香格里拉店","lon":"121.50058","lat":"31.23634","category":"119","category_name":"商场","address":"浦东富成路33号香格里拉酒店内大堂层"},{"poiid":"B2094757D06EAAFB449D","title":"PANKOO釜山料理(来福士店)","lon":"121.47708","lat":"31.23167","category":"96","category_name":"韩国料理","address":"上海黄浦区西藏中路268号来福士广场6楼(近福州路)  "},{"poiid":"B2094757D06AA3F5449E","title":"望湘园(人民广场店)","lon":"121.477115","lat":"31.231177","category":"77","category_name":"湖南菜","address":"黄浦区西藏中路180号高盛商厦6楼(近福州路)"},{"poiid":"B2094654DB6BA4F5479D","title":"盛贺美(黄浦店)","lon":"121.47801","lat":"31.23244","category":"95","category_name":"日本料理","address":"上海黄浦区福州路666号金陵海欣大厦1楼(近云南中路)"},{"poiid":"B2094757D06FA7FA499B","title":"Hollister(来福士店)","lon":"121.476501755","lat":"31.2318755549","category":"141","category_name":"服装鞋帽皮具店","address":"黄浦区西藏中路268号来福士广场3楼(近福州路)"},{"poiid":"B2094750D364A3FB449A","title":"煲宫","lon":"121.47697418785","lat":"31.231121211065","category":"95","category_name":"日本料理","address":"黄浦区汕头路60号(近西藏中路)"},{"poiid":"B2094757D06FA0F8449B","title":"STAYREAL(来福士店)","lon":"121.476795695","lat":"31.2313505699","category":"637","category_name":"房地产类公司","address":"黄浦区西藏中路268号来福士4楼4-21号(近福州路)"},{"poiid":"B2094654DB69AAFE449A","title":"香啡缤(福州店)","lon":"121.47786","lat":"31.23237","category":"260","category_name":"其他","address":"黄浦区福州路666号金陵海欣大厦1楼B座(近云南中路)"},{"poiid":"B2094757D06FA2F94599","title":"棒约翰比萨(来福士店)","lon":"121.47697","lat":"31.23178","category":"94","category_name":"西餐厅","address":"黄浦区西藏中路268号来福士广场B1楼(近福州路)"},{"poiid":"B2094757D06FA2FE449C","title":"巴贝拉(人民广场店)","lon":"121.47746","lat":"31.23099","category":"94","category_name":"西餐厅","address":"黄浦区西藏中路180号高盛大厦5楼(近汕头路)"},{"poiid":"B2094757D06FA0F84998","title":"上海市工人文化宫","lon":"121.47783","lat":"31.2302","category":"179","category_name":"音乐厅","address":"黄浦区西藏中路120号市工人文化宫内(近北海路)"},{"poiid":"B2094757D06FA3FF439E","title":"大食代(来福士店)","lon":"121.47716","lat":"31.23173","category":"68","category_name":"快餐厅","address":"黄浦区西藏中路268号来福士广场6楼(近福州路)"},{"poiid":"B2094757D06FA1F94092","title":"禾绿回转寿司(福州路店)","lon":"121.47806","lat":"31.23211","category":"95","category_name":"日本料理","address":"黄浦区福州路666号金陵海欣大厦2楼AB12号铺(近云南中路)"},{"poiid":"B2094752D06CA5F44492","title":"Awfully Chocolate","lon":"121.476559","lat":"31.232134","category":"500","category_name":"未知分类","address":"来福士B1"},{"poiid":"B2094654DA6FABFB479C","title":"茉莉花小剧场","lon":"121.47766","lat":"31.23051","category":"180","category_name":"剧场","address":"西藏中路120号上海市工人文化宫"},{"poiid":"B2094654DB65A5FD489A","title":"789新概念火锅料理(人民广场店)","lon":"121.4771","lat":"31.23129","category":"86","category_name":"火锅店","address":"黄浦区西藏中路180号高盛商厦4楼(近汕头路)"},{"poiid":"B2094757D06EAAFC499D","title":"拉面玩家(来福士店)","lon":"121.47701069","lat":"31.231697569","category":"68","category_name":"快餐厅","address":"黄浦区西藏中路268号来福士广场6楼(近福州路)"},{"poiid":"B2094750D268A6FC449A","title":"MUSE","lon":"121.477836","lat":"31.231679","category":"248","category_name":"生活娱乐","address":"北京东路圆明园路"},{"poiid":"B2094757D76DAAFE409C","title":"漂亮石头火锅 来福士店","lon":"121.476494054","lat":"31.232041793","category":"86","category_name":"火锅店","address":"黄浦区西藏中路218号来福士广场6楼大食代内(近福州路)"},{"poiid":"B2094753D26BAAF8429A","title":"茉莉花小剧场","lon":"121.478252","lat":"31.230385","category":"500","category_name":"未知分类","address":"上海市 黄浦区北海路251号"},{"poiid":"B2094750D36BA2FA429A","title":"3Q脆皮鸡排","lon":"121.47808","lat":"31.23214","category":"68","category_name":"快餐厅","address":"黄浦区福州路675号(近云南路)"},{"poiid":"B2094757D06FABF9429D","title":"冰期时代(来福士店)","lon":"121.476578288","lat":"31.232111959","category":"113","category_name":"冷饮店","address":"黄浦区西藏中路268号来福士广场6楼(近福州路)"},{"poiid":"B2094750DB6EA5FF4893","title":"来福士广场写字楼","lon":"121.476534","lat":"31.232041","category":"46","category_name":"楼宇","address":"黄浦西藏中路268号"},{"poiid":"B2094654DA6FA0F9479B","title":"王磊形象公社(西藏中路)","lon":"121.47662","lat":"31.23209","category":"248","category_name":"生活娱乐","address":"黄浦区西藏中路268号来福士广场604-605号铺(近福州路)"},{"poiid":"B2094751D56CA2F94493","title":"星巴克(来福士一店)","lon":"121.47652","lat":"31.23204","category":"247","category_name":"餐饮美食","address":"黄浦区西藏中路268号来福士广场1楼01-12室(近福州路)"},{"poiid":"B2094753D76AA2F5479B","title":"重庆小天鹅(人民广场店)","lon":"121.47719","lat":"31.23134","category":"86","category_name":"火锅店","address":"上海市黄浦区西藏中路180号高盛大厦4楼(近汕头路)"},{"poiid":"B2094752D06DAAF8479F","title":"茶香书香（来福士店）","lon":"121.476582","lat":"31.232166","category":"247","category_name":"餐饮美食","address":"人民广场来福士B1层"},{"poiid":"B2094757D06FA3FD419C","title":"土豆风暴","lon":"121.476788696","lat":"31.2317445699","category":"94","category_name":"西餐厅","address":"黄浦区西藏中路268号来福士广场B1楼(福州路口)"},{"poiid":"B2094757D06FA1FA459F","title":"NOVO(来福士店)","lon":"121.477062331","lat":"31.232104587","category":"141","category_name":"服装鞋帽皮具店","address":"黄浦区西藏中路268号来福士广场1-01/2-01(近福州路)"},{"poiid":"B2094757D16EA0FA4398","title":"蒂凡尼","lon":"121.476462738","lat":"31.2312053209","category":"500","category_name":"未知分类","address":"上海来福士"},{"poiid":"B2094757D06FA4FC449B","title":"每日新鲜水果吧(来福士店)","lon":"121.47687","lat":"31.23182","category":"113","category_name":"冷饮店","address":"黄浦区西藏中路268号来福士广场B1楼(近福州路)"},{"poiid":"B2094750DB68A6F9439A","title":"宜芝多 Ichido ICAFE","lon":"121.478561","lat":"31.231027","category":"247","category_name":"餐饮美食","address":"黄浦区人民广场地铁站内大三角2楼"},{"poiid":"B2094757D16FA5FF4398","title":"上海一家香巴岛小龙虾","lon":"121.47642933","lat":"31.230913814","category":"247","category_name":"餐饮美食","address":"上海寿宁路6号"},{"poiid":"B2094654DA6FABF9429E","title":"中国建设银行上海福州路支行","lon":"121.47721","lat":"31.23181","category":"150","category_name":"银行","address":"福州路725"},{"poiid":"B2094655D26AA0FE4098","title":"ZARA(西藏中路店)","lon":"121.47719","lat":"31.23126","category":"141","category_name":"服装鞋帽皮具店","address":"黄浦区西藏中路180号高盛大厦1-2楼(近汕头路)"},{"poiid":"B2094757D06AA2F54192","title":"C'est la vie Cafe","lon":"121.47859","lat":"31.23101","category":"65","category_name":"咖啡厅","address":"黄浦区广东路689号海通证券大厦1楼(广东路云南中路)"},{"poiid":"B2094757D66EA3F44193","title":"食之密","lon":"121.47664373","lat":"31.232200342","category":"500","category_name":"未知分类","address":"上海市来福士B1"},{"poiid":"B2094757D06FA3F9429D","title":"快乐柠檬(来福士店)","lon":"121.47667369","lat":"31.23169257","category":"113","category_name":"冷饮店","address":"黄浦区西藏中路268号来福士广场B1楼(近福州路)"},{"poiid":"B2094757D068A0F4459A","title":"梦园餐厅","lon":"121.47804","lat":"31.23007","category":"76","category_name":"上海菜","address":"黄浦区北海路277号(近西藏中路)"},{"poiid":"B209475CD26EA1FB449B","title":"Mr.Pizza","lon":"121.477928","lat":"31.232315","category":"500","category_name":"未知分类","address":"上海市 福州路"},{"poiid":"B2094757D06FA5F8459F","title":"金太子形象设计(福州路店)","lon":"121.47812","lat":"31.23199","category":"149","category_name":"洗浴推拿场所","address":"黄浦区福州路737号(近西藏中路)"},{"poiid":"B2094757D068A0F8459C","title":"舒蔡记 云南中路店","lon":"121.47790785213","lat":"31.231293066672","category":"68","category_name":"快餐厅","address":"黄浦区云南中路142-146号(福州路广东路之间)"},{"poiid":"B2094757D56CA4FE469F","title":"CHOCOCOO巧克力 来福士广场店","lon":"121.476575054","lat":"31.232022793","category":"67","category_name":"甜品店","address":"黄浦区西藏中路268号来福士广场B1楼(近福州路)"},{"poiid":"B2094757D06FA4FC469F","title":"面包新语(来福士店)","lon":"121.47713","lat":"31.23157","category":"112","category_name":"糕饼店","address":"黄浦区西藏中路268号来福士广场B1楼(卡乐星对面)"},{"poiid":"B2094654DB69A0F5489A","title":"港丽餐厅 来福士店 Charme Restaurant","lon":"121.476518054","lat":"31.232010793","category":"247","category_name":"餐饮美食","address":"黄浦区西藏中路268号来福士广场6楼(近福州路)"},{"poiid":"B2094654DA6FABF5409D","title":"避风塘 西藏中路店","lon":"121.476926","lat":"31.23122","category":"257","category_name":"中餐厅","address":"黄浦区西藏中路180号高盛大厦3楼(汕头路西藏中路)"},{"poiid":"B2094757D06FA3FB4792","title":"上海天蟾逸夫舞台","lon":"121.47752052644876","lat":"31.2319475704317","category":"179","category_name":"音乐厅","address":"上海黄浦区福州路701号(近云南中路)"},{"poiid":"B2094753D76FAAFA449C","title":"上海滩国泰旗舰店","lon":"121.466011","lat":"31.216125","category":"249","category_name":"购物服务","address":"淮海中路868号"},{"poiid":"B209475CD564A7F84292","title":"上海滩新天地店","lon":"121.47463","lat":"31.22164","category":"119","category_name":"商场","address":"\"太仓路181弄新天地北里15号\r\n\""},{"poiid":"B209475CD564A7F8439E","title":"上海滩中信泰富店","lon":"121.45602","lat":"31.22851","category":"119","category_name":"商场","address":"\"南京西路1168号中信泰富广场，店铺号221.\r\n\""},{"poiid":"B209475CD564A7F84392","title":"上海滩浦东香格里拉店","lon":"121.50058","lat":"31.23634","category":"119","category_name":"商场","address":"浦东富成路33号香格里拉酒店内大堂层"},{"poiid":"B2094757D06EAAFB449D","title":"PANKOO釜山料理(来福士店)","lon":"121.47708","lat":"31.23167","category":"96","category_name":"韩国料理","address":"上海黄浦区西藏中路268号来福士广场6楼(近福州路)  "},{"poiid":"B2094757D06AA3F5449E","title":"望湘园(人民广场店)","lon":"121.477115","lat":"31.231177","category":"77","category_name":"湖南菜","address":"黄浦区西藏中路180号高盛商厦6楼(近福州路)"},{"poiid":"B2094654DB6BA4F5479D","title":"盛贺美(黄浦店)","lon":"121.47801","lat":"31.23244","category":"95","category_name":"日本料理","address":"上海黄浦区福州路666号金陵海欣大厦1楼(近云南中路)"},{"poiid":"B2094757D06FA7FA499B","title":"Hollister(来福士店)","lon":"121.476501755","lat":"31.2318755549","category":"141","category_name":"服装鞋帽皮具店","address":"黄浦区西藏中路268号来福士广场3楼(近福州路)"},{"poiid":"B2094750D364A3FB449A","title":"煲宫","lon":"121.47697418785","lat":"31.231121211065","category":"95","category_name":"日本料理","address":"黄浦区汕头路60号(近西藏中路)"},{"poiid":"B2094757D06FA0F8449B","title":"STAYREAL(来福士店)","lon":"121.476795695","lat":"31.2313505699","category":"637","category_name":"房地产类公司","address":"黄浦区西藏中路268号来福士4楼4-21号(近福州路)"},{"poiid":"B2094654DB69AAFE449A","title":"香啡缤(福州店)","lon":"121.47786","lat":"31.23237","category":"260","category_name":"其他","address":"黄浦区福州路666号金陵海欣大厦1楼B座(近云南中路)"},{"poiid":"B2094757D06FA2F94599","title":"棒约翰比萨(来福士店)","lon":"121.47697","lat":"31.23178","category":"94","category_name":"西餐厅","address":"黄浦区西藏中路268号来福士广场B1楼(近福州路)"},{"poiid":"B2094757D06FA2FE449C","title":"巴贝拉(人民广场店)","lon":"121.47746","lat":"31.23099","category":"94","category_name":"西餐厅","address":"黄浦区西藏中路180号高盛大厦5楼(近汕头路)"},{"poiid":"B2094757D06FA0F84998","title":"上海市工人文化宫","lon":"121.47783","lat":"31.2302","category":"179","category_name":"音乐厅","address":"黄浦区西藏中路120号市工人文化宫内(近北海路)"},{"poiid":"B2094757D06FA3FF439E","title":"大食代(来福士店)","lon":"121.47716","lat":"31.23173","category":"68","category_name":"快餐厅","address":"黄浦区西藏中路268号来福士广场6楼(近福州路)"},{"poiid":"B2094757D06FA1F94092","title":"禾绿回转寿司(福州路店)","lon":"121.47806","lat":"31.23211","category":"95","category_name":"日本料理","address":"黄浦区福州路666号金陵海欣大厦2楼AB12号铺(近云南中路)"},{"poiid":"B2094752D06CA5F44492","title":"Awfully Chocolate","lon":"121.476559","lat":"31.232134","category":"500","category_name":"未知分类","address":"来福士B1"},{"poiid":"B2094654DA6FABFB479C","title":"茉莉花小剧场","lon":"121.47766","lat":"31.23051","category":"180","category_name":"剧场","address":"西藏中路120号上海市工人文化宫"},{"poiid":"B2094654DB65A5FD489A","title":"789新概念火锅料理(人民广场店)","lon":"121.4771","lat":"31.23129","category":"86","category_name":"火锅店","address":"黄浦区西藏中路180号高盛商厦4楼(近汕头路)"},{"poiid":"B2094757D06EAAFC499D","title":"拉面玩家(来福士店)","lon":"121.47701069","lat":"31.231697569","category":"68","category_name":"快餐厅","address":"黄浦区西藏中路268号来福士广场6楼(近福州路)"},{"poiid":"B2094750D268A6FC449A","title":"MUSE","lon":"121.477836","lat":"31.231679","category":"248","category_name":"生活娱乐","address":"北京东路圆明园路"},{"poiid":"B2094757D76DAAFE409C","title":"漂亮石头火锅 来福士店","lon":"121.476494054","lat":"31.232041793","category":"86","category_name":"火锅店","address":"黄浦区西藏中路218号来福士广场6楼大食代内(近福州路)"},{"poiid":"B2094753D26BAAF8429A","title":"茉莉花小剧场","lon":"121.478252","lat":"31.230385","category":"500","category_name":"未知分类","address":"上海市 黄浦区北海路251号"},{"poiid":"B2094750D36BA2FA429A","title":"3Q脆皮鸡排","lon":"121.47808","lat":"31.23214","category":"68","category_name":"快餐厅","address":"黄浦区福州路675号(近云南路)"},{"poiid":"B2094757D06FABF9429D","title":"冰期时代(来福士店)","lon":"121.476578288","lat":"31.232111959","category":"113","category_name":"冷饮店","address":"黄浦区西藏中路268号来福士广场6楼(近福州路)"},{"poiid":"B2094750DB6EA5FF4893","title":"来福士广场写字楼","lon":"121.476534","lat":"31.232041","category":"46","category_name":"楼宇","address":"黄浦西藏中路268号"},{"poiid":"B2094654DA6FA0F9479B","title":"王磊形象公社(西藏中路)","lon":"121.47662","lat":"31.23209","category":"248","category_name":"生活娱乐","address":"黄浦区西藏中路268号来福士广场604-605号铺(近福州路)"},{"poiid":"B2094751D56CA2F94493","title":"星巴克(来福士一店)","lon":"121.47652","lat":"31.23204","category":"247","category_name":"餐饮美食","address":"黄浦区西藏中路268号来福士广场1楼01-12室(近福州路)"},{"poiid":"B2094753D76AA2F5479B","title":"重庆小天鹅(人民广场店)","lon":"121.47719","lat":"31.23134","category":"86","category_name":"火锅店","address":"上海市黄浦区西藏中路180号高盛大厦4楼(近汕头路)"},{"poiid":"B2094752D06DAAF8479F","title":"茶香书香（来福士店）","lon":"121.476582","lat":"31.232166","category":"247","category_name":"餐饮美食","address":"人民广场来福士B1层"},{"poiid":"B2094757D06FA3FD419C","title":"土豆风暴","lon":"121.476788696","lat":"31.2317445699","category":"94","category_name":"西餐厅","address":"黄浦区西藏中路268号来福士广场B1楼(福州路口)"},{"poiid":"B2094757D06FA1FA459F","title":"NOVO(来福士店)","lon":"121.477062331","lat":"31.232104587","category":"141","category_name":"服装鞋帽皮具店","address":"黄浦区西藏中路268号来福士广场1-01/2-01(近福州路)"},{"poiid":"B2094757D16EA0FA4398","title":"蒂凡尼","lon":"121.476462738","lat":"31.2312053209","category":"500","category_name":"未知分类","address":"上海来福士"},{"poiid":"B2094757D06FA4FC449B","title":"每日新鲜水果吧(来福士店)","lon":"121.47687","lat":"31.23182","category":"113","category_name":"冷饮店","address":"黄浦区西藏中路268号来福士广场B1楼(近福州路)"},{"poiid":"B2094750DB68A6F9439A","title":"宜芝多 Ichido ICAFE","lon":"121.478561","lat":"31.231027","category":"247","category_name":"餐饮美食","address":"黄浦区人民广场地铁站内大三角2楼"},{"poiid":"B2094757D16FA5FF4398","title":"上海一家香巴岛小龙虾","lon":"121.47642933","lat":"31.230913814","category":"247","category_name":"餐饮美食","address":"上海寿宁路6号"},{"poiid":"B2094654DA6FABF9429E","title":"中国建设银行上海福州路支行","lon":"121.47721","lat":"31.23181","category":"150","category_name":"银行","address":"福州路725"},{"poiid":"B2094655D26AA0FE4098","title":"ZARA(西藏中路店)","lon":"121.47719","lat":"31.23126","category":"141","category_name":"服装鞋帽皮具店","address":"黄浦区西藏中路180号高盛大厦1-2楼(近汕头路)"},{"poiid":"B2094757D06AA2F54192","title":"C'est la vie Cafe","lon":"121.47859","lat":"31.23101","category":"65","category_name":"咖啡厅","address":"黄浦区广东路689号海通证券大厦1楼(广东路云南中路)"},{"poiid":"B2094757D66EA3F44193","title":"食之密","lon":"121.47664373","lat":"31.232200342","category":"500","category_name":"未知分类","address":"上海市来福士B1"},{"poiid":"B2094757D06FA3F9429D","title":"快乐柠檬(来福士店)","lon":"121.47667369","lat":"31.23169257","category":"113","category_name":"冷饮店","address":"黄浦区西藏中路268号来福士广场B1楼(近福州路)"},{"poiid":"B2094757D068A0F4459A","title":"梦园餐厅","lon":"121.47804","lat":"31.23007","category":"76","category_name":"上海菜","address":"黄浦区北海路277号(近西藏中路)"},{"poiid":"B209475CD26EA1FB449B","title":"Mr.Pizza","lon":"121.477928","lat":"31.232315","category":"500","category_name":"未知分类","address":"上海市 福州路"},{"poiid":"B2094757D06FA5F8459F","title":"金太子形象设计(福州路店)","lon":"121.47812","lat":"31.23199","category":"149","category_name":"洗浴推拿场所","address":"黄浦区福州路737号(近西藏中路)"},{"poiid":"B2094757D068A0F8459C","title":"舒蔡记 云南中路店","lon":"121.47790785213","lat":"31.231293066672","category":"68","category_name":"快餐厅","address":"黄浦区云南中路142-146号(福州路广东路之间)"},{"poiid":"B2094757D56CA4FE469F","title":"CHOCOCOO巧克力 来福士广场店","lon":"121.476575054","lat":"31.232022793","category":"67","category_name":"甜品店","address":"黄浦区西藏中路268号来福士广场B1楼(近福州路)"},{"poiid":"B2094757D06FA4FC469F","title":"面包新语(来福士店)","lon":"121.47713","lat":"31.23157","category":"112","category_name":"糕饼店","address":"黄浦区西藏中路268号来福士广场B1楼(卡乐星对面)"}]