[{"poiid":"B2094654DA6EA2FA459D","title":"博多新记 复兴店","lon":"121.4576526721","lat":"31.21277515026","category":"72","category_name":"广东菜","address":"徐汇区复兴中路1252弄15号2楼(近襄阳南路)"},{"poiid":"B2094757D06EAAFB4093","title":"陕西南路地铁站","lon":"121.45824382","lat":"31.215062494","category":"36","category_name":"地铁站","address":"上海轨道交通 一号线 十号线 轨交陕西南路站 1 10"},{"poiid":"B2094654DB6BA4FE439F","title":"上海文化广场(北门)","lon":"121.46134","lat":"31.21353","category":"202","category_name":"公园广场","address":"复兴中路597"},{"poiid":"B2094753D76FAAFA449C","title":"上海滩国泰旗舰店","lon":"121.466011","lat":"31.216125","category":"249","category_name":"购物服务","address":"淮海中路868号"},{"poiid":"B209475CD564A7F84292","title":"上海滩新天地店","lon":"121.47463","lat":"31.22164","category":"119","category_name":"商场","address":"\"太仓路181弄新天地北里15号\r\n\""},{"poiid":"B209475CD564A7F8439E","title":"上海滩中信泰富店","lon":"121.45602","lat":"31.22851","category":"119","category_name":"商场","address":"\"南京西路1168号中信泰富广场，店铺号221.\r\n\""},{"poiid":"B2094757D464A7F44199","title":"博多新记 襄阳南路店","lon":"121.456851054","lat":"31.213952793","category":"72","category_name":"广东菜","address":"徐汇区襄阳南路150号(近南昌路)"},{"poiid":"B2094757D06FAAFA459D","title":"上海市口腔病防治院(复兴中路分院)","lon":"121.4582","lat":"31.2126","category":"162","category_name":"医院","address":"徐汇区复兴中路1258号(近襄阳南路)"},{"poiid":"B2094751DA6CA1FB4298","title":"Baker One","lon":"121.45824","lat":"31.21444","category":"67","category_name":"甜品店","address":"卢湾区南昌路559号1楼(近襄阳南路)"},{"poiid":"B2094654DA6EA1FE499F","title":"竹屋川菜","lon":"121.46006400887","lat":"31.214710755142","category":"71","category_name":"四川菜","address":"卢湾区陕西南路145-3号(南昌路口)"},{"poiid":"B2094751D26AA3F5449D","title":"掌上韩品","lon":"121.459297","lat":"31.215394","category":"96","category_name":"韩国料理","address":"卢湾区陕西南路145号(近南昌路)"},{"poiid":"B2094750D76FA3FB4698","title":"滩悦(淮海路店)","lon":"121.457","lat":"31.2143","category":"76","category_name":"上海菜","address":"卢湾区襄阳南路102号3楼(近南昌路)"},{"poiid":"B2094757D06FA5FE4898","title":"老地方面馆","lon":"121.45791","lat":"31.21153","category":"68","category_name":"快餐厅","address":"徐汇区襄阳南路233号(近永康路)"},{"poiid":"B2094757D069A5FC499A","title":"太原别墅","lon":"121.461","lat":"31.2126","category":"47","category_name":"住宅区","address":"上海市徐汇区太原路160号"},{"poiid":"B2094757D06AA3FC4693","title":"Geisha艺","lon":"121.460734698","lat":"31.2131813248","category":"172","category_name":"酒吧","address":"上海陕西南路390号，靠近复兴中路"},{"poiid":"B2094757D068A3F8499B","title":"園烧肉酒场","lon":"121.46081","lat":"31.21307","category":"269","category_name":"烧烤","address":"徐汇区陕西南路400号(近复兴中路)"},{"poiid":"B2094757D068A3FD4793","title":"华检体检中心(徐汇分院)","lon":"121.459014996","lat":"31.211539631","category":"162","category_name":"医院","address":"徐汇区嘉善路118号明园B座3楼(近永康路)"},{"poiid":"B2094750D768A6FA4899","title":"林记小馆(襄阳南路店)","lon":"121.457","lat":"31.2143","category":"72","category_name":"广东菜","address":"徐汇区襄阳南路102号(近淮海路)"},{"poiid":"B2094757D065A3F84698","title":"虹桥火车站A16检票口","lon":"121.45851925","lat":"31.214354796","category":"22","category_name":"火车站","address":"上海虹桥火车站"},{"poiid":"B2094757D06FA7FB4199","title":"振鼎鸡(复兴店)","lon":"121.46082","lat":"31.21297","category":"68","category_name":"快餐厅","address":"徐汇区复兴中路1195号上海理工大学旁(上海电影院斜对面)"},{"poiid":"B2094752D269A5FA4293","title":"半岛小厨","lon":"121.457703","lat":"31.212662","category":"247","category_name":"餐饮美食","address":"徐汇区复兴中路1251号2楼(襄阳南路口)"},{"poiid":"B2094757D664A1F8479D","title":"维园悦谱","lon":"121.46077","lat":"31.21282","category":"72","category_name":"广东菜","address":"徐汇区陕西南路396-1号(近复兴中路)"},{"poiid":"B2094757D065A2FB4699","title":"Muses Cafe","lon":"121.459490738","lat":"31.2115059012","category":"500","category_name":"未知分类","address":"卢湾区陕西南路438-2号(上海文化广场对面)"},{"poiid":"B2094655D36DA6FE439B","title":"陕西南路","lon":"121.45822","lat":"31.2151","category":"38","category_name":"公交车站","address":""},{"poiid":"B2094757D06FA2F54798","title":"陕西南路复兴中路口","lon":"121.459220886","lat":"31.2131328583","category":"260","category_name":"其他","address":"上海陕西南路复兴中路口"},{"poiid":"B2094757DB69A7FB4199","title":"爱乐阿米奇 ELLO AMICI'S","lon":"121.456828","lat":"31.214321","category":"94","category_name":"西餐厅","address":"徐汇区襄阳南路102号(南昌路口)"},{"poiid":"B2094757D06FA3F5419B","title":"店里咖啡馆 Green Room","lon":"121.4578085","lat":"31.212752","category":"65","category_name":"咖啡厅","address":"上海市复兴中路1262弄2号(近襄阳南路)"},{"poiid":"B2094753D26AAAF44893","title":"大咀茶餐厅","lon":"121.45771","lat":"31.214161","category":"500","category_name":"未知分类","address":"上海市 陕西南路117号5楼"},{"poiid":"B2094655D26FA4F44198","title":"Newyork Pizza","lon":"121.459","lat":"31.2112","category":"94","category_name":"西餐厅","address":"徐汇区永康路52号(近嘉善路)"},{"poiid":"B2094753D768A3FE4199","title":"上海市徐汇区中心医院","lon":"121.461021","lat":"31.213911","category":"162","category_name":"医院","address":"上海市 淮海路陕西南路"},{"poiid":"B2094750DA6BA1F9409B","title":"上海理工大学中英国际学院","lon":"121.460227","lat":"31.21158","category":"500","category_name":"未知分类","address":"复兴中路1195号"},{"poiid":"B2094757D069A5FD4492","title":"京世造型复兴店","lon":"121.46034773","lat":"31.212293917","category":"148","category_name":"美容美发店","address":"上海市徐汇区复兴中路1195号"},{"poiid":"B2094753DA65ABF44892","title":"无印良品环贸iapm旗舰店","lon":"121.458007","lat":"31.21507","category":"500","category_name":"未知分类","address":"上海市 上海市徐汇区淮海中路999号上海环贸广场 3F"},{"poiid":"B2094757D06FA5FA479A","title":"吉野家(陕西南路店)","lon":"121.46013","lat":"31.2152","category":"95","category_name":"日本料理","address":"卢湾区陕西南路141号(近南昌路)"},{"poiid":"B209475CD76FA1FD489B","title":"STAGE 上海iapm","lon":"121.457992","lat":"31.214294","category":"500","category_name":"未知分类","address":"上海市 上海市淮海中路環貿廣場IAPM LG2-273~275"},{"poiid":"B2094654DA6DA6FD459F","title":"花子","lon":"121.45753735595","lat":"31.211939687057","category":"95","category_name":"日本料理","address":"徐汇区襄阳南路207-3号(近复兴中路)"},{"poiid":"B2094757D769A4F8479B","title":"奥芙莉 襄阳南路店 Awfully Chocolate","lon":"121.456886054","lat":"31.212959793","category":"67","category_name":"甜品店","address":"徐汇区襄阳南路174号(近复兴中路)"},{"poiid":"B2094757D468ABFC419C","title":"吴越人家面馆 陕西南路店","lon":"121.459669","lat":"31.215655","category":"68","category_name":"快餐厅","address":"卢湾区陕西南路141号2楼(近南昌路)"},{"poiid":"B2094751DA6DA0FF4293","title":"Quinn\\'s cafe 晴咖啡","lon":"121.460342","lat":"31.213989","category":"247","category_name":"餐饮美食","address":"上海市陕西南路165号"},{"poiid":"B2094757D06AA0F94492","title":"新吉柯德土菜馆","lon":"121.460006","lat":"31.214986","category":"247","category_name":"餐饮美食","address":"上海陕西南路145号"},{"poiid":"B2094654DA6DA6FF469A","title":"明园世纪城","lon":"121.45858","lat":"31.211952","category":"47","category_name":"住宅区","address":"上海市徐汇区复兴中路1199号"},{"poiid":"B2094750D465A2F54899","title":"寿司屋","lon":"121.459007","lat":"31.211322","category":"95","category_name":"日本料理","address":"徐汇区永康路21号(近嘉善路)"},{"poiid":"B2094750D76DA4F9449E","title":"阿斯曼新疆风味餐厅(复兴中路店)","lon":"121.458","lat":"31.2126","category":"90","category_name":"清真餐馆","address":"徐汇区复兴中路1251号"},{"poiid":"B2094757D06AA1FB479C","title":"陋室汤包","lon":"121.45783","lat":"31.21405","category":"68","category_name":"快餐厅","address":"卢湾区南昌路601号(近襄阳南路)"},{"poiid":"B2094655D26EA6F94498","title":"台园圆圆香云吞 徐汇店","lon":"121.456165054","lat":"31.212394793","category":"68","category_name":"快餐厅","address":"徐汇区复兴中路1268号(近襄阳南路)"},{"poiid":"B2094655D26AA2FD419C","title":"田仓米粉 南昌路店","lon":"121.457200054","lat":"31.214274793","category":"87","category_name":"特色／地方风味餐厅","address":"徐汇区南昌路621号(襄阳路口)"},{"poiid":"B2094757D06FA2FD409B","title":"香港糖朝","lon":"121.459704","lat":"31.215751","category":"67","category_name":"甜品店","address":"黄浦区陕西南路141号1楼(近淮海中路)"},{"poiid":"B209475CD664A2FB4598","title":"Stayreal Cafe","lon":"121.457832","lat":"31.21512","category":"500","category_name":"未知分类","address":"上海市 淮海中路1000号环贸广场"},{"poiid":"B2094757D465A3F9499B","title":"新吉诃德土菜馆","lon":"121.46006400887","lat":"31.214710755142","category":"76","category_name":"上海菜","address":"卢湾区陕西南路145号(近南昌路)"},{"poiid":"B2094654DA6DA6FD499E","title":"明园商务中心B座","lon":"121.45896","lat":"31.21154","category":"46","category_name":"楼宇","address":"嘉善路98、118"},{"poiid":"B2094654DA6EA2FA459D","title":"博多新记 复兴店","lon":"121.4576526721","lat":"31.21277515026","category":"72","category_name":"广东菜","address":"徐汇区复兴中路1252弄15号2楼(近襄阳南路)"},{"poiid":"B2094757D06EAAFB4093","title":"陕西南路地铁站","lon":"121.45824382","lat":"31.215062494","category":"36","category_name":"地铁站","address":"上海轨道交通 一号线 十号线 轨交陕西南路站 1 10"},{"poiid":"B2094654DB6BA4FE439F","title":"上海文化广场(北门)","lon":"121.46134","lat":"31.21353","category":"202","category_name":"公园广场","address":"复兴中路597"},{"poiid":"B2094753D76FAAFA449C","title":"上海滩国泰旗舰店","lon":"121.466011","lat":"31.216125","category":"249","category_name":"购物服务","address":"淮海中路868号"},{"poiid":"B209475CD564A7F84292","title":"上海滩新天地店","lon":"121.47463","lat":"31.22164","category":"119","category_name":"商场","address":"\"太仓路181弄新天地北里15号\r\n\""},{"poiid":"B209475CD564A7F8439E","title":"上海滩中信泰富店","lon":"121.45602","lat":"31.22851","category":"119","category_name":"商场","address":"\"南京西路1168号中信泰富广场，店铺号221.\r\n\""},{"poiid":"B2094757D464A7F44199","title":"博多新记 襄阳南路店","lon":"121.456851054","lat":"31.213952793","category":"72","category_name":"广东菜","address":"徐汇区襄阳南路150号(近南昌路)"},{"poiid":"B2094757D06FAAFA459D","title":"上海市口腔病防治院(复兴中路分院)","lon":"121.4582","lat":"31.2126","category":"162","category_name":"医院","address":"徐汇区复兴中路1258号(近襄阳南路)"},{"poiid":"B2094751DA6CA1FB4298","title":"Baker One","lon":"121.45824","lat":"31.21444","category":"67","category_name":"甜品店","address":"卢湾区南昌路559号1楼(近襄阳南路)"},{"poiid":"B2094654DA6EA1FE499F","title":"竹屋川菜","lon":"121.46006400887","lat":"31.214710755142","category":"71","category_name":"四川菜","address":"卢湾区陕西南路145-3号(南昌路口)"},{"poiid":"B2094751D26AA3F5449D","title":"掌上韩品","lon":"121.459297","lat":"31.215394","category":"96","category_name":"韩国料理","address":"卢湾区陕西南路145号(近南昌路)"},{"poiid":"B2094750D76FA3FB4698","title":"滩悦(淮海路店)","lon":"121.457","lat":"31.2143","category":"76","category_name":"上海菜","address":"卢湾区襄阳南路102号3楼(近南昌路)"},{"poiid":"B2094757D06FA5FE4898","title":"老地方面馆","lon":"121.45791","lat":"31.21153","category":"68","category_name":"快餐厅","address":"徐汇区襄阳南路233号(近永康路)"},{"poiid":"B2094757D069A5FC499A","title":"太原别墅","lon":"121.461","lat":"31.2126","category":"47","category_name":"住宅区","address":"上海市徐汇区太原路160号"},{"poiid":"B2094757D06AA3FC4693","title":"Geisha艺","lon":"121.460734698","lat":"31.2131813248","category":"172","category_name":"酒吧","address":"上海陕西南路390号，靠近复兴中路"},{"poiid":"B2094757D068A3F8499B","title":"園烧肉酒场","lon":"121.46081","lat":"31.21307","category":"269","category_name":"烧烤","address":"徐汇区陕西南路400号(近复兴中路)"},{"poiid":"B2094757D068A3FD4793","title":"华检体检中心(徐汇分院)","lon":"121.459014996","lat":"31.211539631","category":"162","category_name":"医院","address":"徐汇区嘉善路118号明园B座3楼(近永康路)"},{"poiid":"B2094750D768A6FA4899","title":"林记小馆(襄阳南路店)","lon":"121.457","lat":"31.2143","category":"72","category_name":"广东菜","address":"徐汇区襄阳南路102号(近淮海路)"},{"poiid":"B2094757D065A3F84698","title":"虹桥火车站A16检票口","lon":"121.45851925","lat":"31.214354796","category":"22","category_name":"火车站","address":"上海虹桥火车站"},{"poiid":"B2094757D06FA7FB4199","title":"振鼎鸡(复兴店)","lon":"121.46082","lat":"31.21297","category":"68","category_name":"快餐厅","address":"徐汇区复兴中路1195号上海理工大学旁(上海电影院斜对面)"},{"poiid":"B2094752D269A5FA4293","title":"半岛小厨","lon":"121.457703","lat":"31.212662","category":"247","category_name":"餐饮美食","address":"徐汇区复兴中路1251号2楼(襄阳南路口)"},{"poiid":"B2094757D664A1F8479D","title":"维园悦谱","lon":"121.46077","lat":"31.21282","category":"72","category_name":"广东菜","address":"徐汇区陕西南路396-1号(近复兴中路)"},{"poiid":"B2094757D065A2FB4699","title":"Muses Cafe","lon":"121.459490738","lat":"31.2115059012","category":"500","category_name":"未知分类","address":"卢湾区陕西南路438-2号(上海文化广场对面)"},{"poiid":"B2094655D36DA6FE439B","title":"陕西南路","lon":"121.45822","lat":"31.2151","category":"38","category_name":"公交车站","address":""},{"poiid":"B2094757D06FA2F54798","title":"陕西南路复兴中路口","lon":"121.459220886","lat":"31.2131328583","category":"260","category_name":"其他","address":"上海陕西南路复兴中路口"},{"poiid":"B2094757DB69A7FB4199","title":"爱乐阿米奇 ELLO AMICI'S","lon":"121.456828","lat":"31.214321","category":"94","category_name":"西餐厅","address":"徐汇区襄阳南路102号(南昌路口)"},{"poiid":"B2094757D06FA3F5419B","title":"店里咖啡馆 Green Room","lon":"121.4578085","lat":"31.212752","category":"65","category_name":"咖啡厅","address":"上海市复兴中路1262弄2号(近襄阳南路)"},{"poiid":"B2094753D26AAAF44893","title":"大咀茶餐厅","lon":"121.45771","lat":"31.214161","category":"500","category_name":"未知分类","address":"上海市 陕西南路117号5楼"},{"poiid":"B2094655D26FA4F44198","title":"Newyork Pizza","lon":"121.459","lat":"31.2112","category":"94","category_name":"西餐厅","address":"徐汇区永康路52号(近嘉善路)"},{"poiid":"B2094753D768A3FE4199","title":"上海市徐汇区中心医院","lon":"121.461021","lat":"31.213911","category":"162","category_name":"医院","address":"上海市 淮海路陕西南路"},{"poiid":"B2094750DA6BA1F9409B","title":"上海理工大学中英国际学院","lon":"121.460227","lat":"31.21158","category":"500","category_name":"未知分类","address":"复兴中路1195号"},{"poiid":"B2094757D069A5FD4492","title":"京世造型复兴店","lon":"121.46034773","lat":"31.212293917","category":"148","category_name":"美容美发店","address":"上海市徐汇区复兴中路1195号"},{"poiid":"B2094753DA65ABF44892","title":"无印良品环贸iapm旗舰店","lon":"121.458007","lat":"31.21507","category":"500","category_name":"未知分类","address":"上海市 上海市徐汇区淮海中路999号上海环贸广场 3F"},{"poiid":"B2094757D06FA5FA479A","title":"吉野家(陕西南路店)","lon":"121.46013","lat":"31.2152","category":"95","category_name":"日本料理","address":"卢湾区陕西南路141号(近南昌路)"},{"poiid":"B209475CD76FA1FD489B","title":"STAGE 上海iapm","lon":"121.457992","lat":"31.214294","category":"500","category_name":"未知分类","address":"上海市 上海市淮海中路環貿廣場IAPM LG2-273~275"},{"poiid":"B2094654DA6DA6FD459F","title":"花子","lon":"121.45753735595","lat":"31.211939687057","category":"95","category_name":"日本料理","address":"徐汇区襄阳南路207-3号(近复兴中路)"},{"poiid":"B2094757D769A4F8479B","title":"奥芙莉 襄阳南路店 Awfully Chocolate","lon":"121.456886054","lat":"31.212959793","category":"67","category_name":"甜品店","address":"徐汇区襄阳南路174号(近复兴中路)"},{"poiid":"B2094757D468ABFC419C","title":"吴越人家面馆 陕西南路店","lon":"121.459669","lat":"31.215655","category":"68","category_name":"快餐厅","address":"卢湾区陕西南路141号2楼(近南昌路)"},{"poiid":"B2094751DA6DA0FF4293","title":"Quinn\\'s cafe 晴咖啡","lon":"121.460342","lat":"31.213989","category":"247","category_name":"餐饮美食","address":"上海市陕西南路165号"},{"poiid":"B2094757D06AA0F94492","title":"新吉柯德土菜馆","lon":"121.460006","lat":"31.214986","category":"247","category_name":"餐饮美食","address":"上海陕西南路145号"},{"poiid":"B2094654DA6DA6FF469A","title":"明园世纪城","lon":"121.45858","lat":"31.211952","category":"47","category_name":"住宅区","address":"上海市徐汇区复兴中路1199号"},{"poiid":"B2094750D465A2F54899","title":"寿司屋","lon":"121.459007","lat":"31.211322","category":"95","category_name":"日本料理","address":"徐汇区永康路21号(近嘉善路)"},{"poiid":"B2094750D76DA4F9449E","title":"阿斯曼新疆风味餐厅(复兴中路店)","lon":"121.458","lat":"31.2126","category":"90","category_name":"清真餐馆","address":"徐汇区复兴中路1251号"},{"poiid":"B2094757D06AA1FB479C","title":"陋室汤包","lon":"121.45783","lat":"31.21405","category":"68","category_name":"快餐厅","address":"卢湾区南昌路601号(近襄阳南路)"},{"poiid":"B2094655D26EA6F94498","title":"台园圆圆香云吞 徐汇店","lon":"121.456165054","lat":"31.212394793","category":"68","category_name":"快餐厅","address":"徐汇区复兴中路1268号(近襄阳南路)"},{"poiid":"B2094655D26AA2FD419C","title":"田仓米粉 南昌路店","lon":"121.457200054","lat":"31.214274793","category":"87","category_name":"特色／地方风味餐厅","address":"徐汇区南昌路621号(襄阳路口)"},{"poiid":"B2094757D06FA2FD409B","title":"香港糖朝","lon":"121.459704","lat":"31.215751","category":"67","category_name":"甜品店","address":"黄浦区陕西南路141号1楼(近淮海中路)"},{"poiid":"B209475CD664A2FB4598","title":"Stayreal Cafe","lon":"121.457832","lat":"31.21512","category":"500","category_name":"未知分类","address":"上海市 淮海中路1000号环贸广场"},{"poiid":"B2094757D465A3F9499B","title":"新吉诃德土菜馆","lon":"121.46006400887","lat":"31.214710755142","category":"76","category_name":"上海菜","address":"卢湾区陕西南路145号(近南昌路)"},{"poiid":"B2094654DA6DA6FD499E","title":"明园商务中心B座","lon":"121.45896","lat":"31.21154","category":"46","category_name":"楼宇","address":"嘉善路98、118"},{"poiid":"B2094654DA6EA2FA459D","title":"博多新记 复兴店","lon":"121.4576526721","lat":"31.21277515026","category":"72","category_name":"广东菜","address":"徐汇区复兴中路1252弄15号2楼(近襄阳南路)"},{"poiid":"B2094757D06EAAFB4093","title":"陕西南路地铁站","lon":"121.45824382","lat":"31.215062494","category":"36","category_name":"地铁站","address":"上海轨道交通 一号线 十号线 轨交陕西南路站 1 10"},{"poiid":"B2094654DB6BA4FE439F","title":"上海文化广场(北门)","lon":"121.46134","lat":"31.21353","category":"202","category_name":"公园广场","address":"复兴中路597"},{"poiid":"B2094753D76FAAFA449C","title":"上海滩国泰旗舰店","lon":"121.466011","lat":"31.216125","category":"249","category_name":"购物服务","address":"淮海中路868号"},{"poiid":"B209475CD564A7F84292","title":"上海滩新天地店","lon":"121.47463","lat":"31.22164","category":"119","category_name":"商场","address":"\"太仓路181弄新天地北里15号\r\n\""},{"poiid":"B209475CD564A7F8439E","title":"上海滩中信泰富店","lon":"121.45602","lat":"31.22851","category":"119","category_name":"商场","address":"\"南京西路1168号中信泰富广场，店铺号221.\r\n\""},{"poiid":"B2094757D464A7F44199","title":"博多新记 襄阳南路店","lon":"121.456851054","lat":"31.213952793","category":"72","category_name":"广东菜","address":"徐汇区襄阳南路150号(近南昌路)"},{"poiid":"B2094757D06FAAFA459D","title":"上海市口腔病防治院(复兴中路分院)","lon":"121.4582","lat":"31.2126","category":"162","category_name":"医院","address":"徐汇区复兴中路1258号(近襄阳南路)"},{"poiid":"B2094751DA6CA1FB4298","title":"Baker One","lon":"121.45824","lat":"31.21444","category":"67","category_name":"甜品店","address":"卢湾区南昌路559号1楼(近襄阳南路)"},{"poiid":"B2094654DA6EA1FE499F","title":"竹屋川菜","lon":"121.46006400887","lat":"31.214710755142","category":"71","category_name":"四川菜","address":"卢湾区陕西南路145-3号(南昌路口)"},{"poiid":"B2094751D26AA3F5449D","title":"掌上韩品","lon":"121.459297","lat":"31.215394","category":"96","category_name":"韩国料理","address":"卢湾区陕西南路145号(近南昌路)"},{"poiid":"B2094750D76FA3FB4698","title":"滩悦(淮海路店)","lon":"121.457","lat":"31.2143","category":"76","category_name":"上海菜","address":"卢湾区襄阳南路102号3楼(近南昌路)"},{"poiid":"B2094757D06FA5FE4898","title":"老地方面馆","lon":"121.45791","lat":"31.21153","category":"68","category_name":"快餐厅","address":"徐汇区襄阳南路233号(近永康路)"},{"poiid":"B2094757D069A5FC499A","title":"太原别墅","lon":"121.461","lat":"31.2126","category":"47","category_name":"住宅区","address":"上海市徐汇区太原路160号"},{"poiid":"B2094757D06AA3FC4693","title":"Geisha艺","lon":"121.460734698","lat":"31.2131813248","category":"172","category_name":"酒吧","address":"上海陕西南路390号，靠近复兴中路"},{"poiid":"B2094757D068A3F8499B","title":"園烧肉酒场","lon":"121.46081","lat":"31.21307","category":"269","category_name":"烧烤","address":"徐汇区陕西南路400号(近复兴中路)"},{"poiid":"B2094757D068A3FD4793","title":"华检体检中心(徐汇分院)","lon":"121.459014996","lat":"31.211539631","category":"162","category_name":"医院","address":"徐汇区嘉善路118号明园B座3楼(近永康路)"},{"poiid":"B2094750D768A6FA4899","title":"林记小馆(襄阳南路店)","lon":"121.457","lat":"31.2143","category":"72","category_name":"广东菜","address":"徐汇区襄阳南路102号(近淮海路)"},{"poiid":"B2094757D065A3F84698","title":"虹桥火车站A16检票口","lon":"121.45851925","lat":"31.214354796","category":"22","category_name":"火车站","address":"上海虹桥火车站"},{"poiid":"B2094757D06FA7FB4199","title":"振鼎鸡(复兴店)","lon":"121.46082","lat":"31.21297","category":"68","category_name":"快餐厅","address":"徐汇区复兴中路1195号上海理工大学旁(上海电影院斜对面)"},{"poiid":"B2094752D269A5FA4293","title":"半岛小厨","lon":"121.457703","lat":"31.212662","category":"247","category_name":"餐饮美食","address":"徐汇区复兴中路1251号2楼(襄阳南路口)"},{"poiid":"B2094757D664A1F8479D","title":"维园悦谱","lon":"121.46077","lat":"31.21282","category":"72","category_name":"广东菜","address":"徐汇区陕西南路396-1号(近复兴中路)"},{"poiid":"B2094757D065A2FB4699","title":"Muses Cafe","lon":"121.459490738","lat":"31.2115059012","category":"500","category_name":"未知分类","address":"卢湾区陕西南路438-2号(上海文化广场对面)"},{"poiid":"B2094655D36DA6FE439B","title":"陕西南路","lon":"121.45822","lat":"31.2151","category":"38","category_name":"公交车站","address":""},{"poiid":"B2094757D06FA2F54798","title":"陕西南路复兴中路口","lon":"121.459220886","lat":"31.2131328583","category":"260","category_name":"其他","address":"上海陕西南路复兴中路口"},{"poiid":"B2094757DB69A7FB4199","title":"爱乐阿米奇 ELLO AMICI'S","lon":"121.456828","lat":"31.214321","category":"94","category_name":"西餐厅","address":"徐汇区襄阳南路102号(南昌路口)"},{"poiid":"B2094757D06FA3F5419B","title":"店里咖啡馆 Green Room","lon":"121.4578085","lat":"31.212752","category":"65","category_name":"咖啡厅","address":"上海市复兴中路1262弄2号(近襄阳南路)"},{"poiid":"B2094753D26AAAF44893","title":"大咀茶餐厅","lon":"121.45771","lat":"31.214161","category":"500","category_name":"未知分类","address":"上海市 陕西南路117号5楼"},{"poiid":"B2094655D26FA4F44198","title":"Newyork Pizza","lon":"121.459","lat":"31.2112","category":"94","category_name":"西餐厅","address":"徐汇区永康路52号(近嘉善路)"},{"poiid":"B2094753D768A3FE4199","title":"上海市徐汇区中心医院","lon":"121.461021","lat":"31.213911","category":"162","category_name":"医院","address":"上海市 淮海路陕西南路"},{"poiid":"B2094750DA6BA1F9409B","title":"上海理工大学中英国际学院","lon":"121.460227","lat":"31.21158","category":"500","category_name":"未知分类","address":"复兴中路1195号"},{"poiid":"B2094757D069A5FD4492","title":"京世造型复兴店","lon":"121.46034773","lat":"31.212293917","category":"148","category_name":"美容美发店","address":"上海市徐汇区复兴中路1195号"},{"poiid":"B2094753DA65ABF44892","title":"无印良品环贸iapm旗舰店","lon":"121.458007","lat":"31.21507","category":"500","category_name":"未知分类","address":"上海市 上海市徐汇区淮海中路999号上海环贸广场 3F"},{"poiid":"B2094757D06FA5FA479A","title":"吉野家(陕西南路店)","lon":"121.46013","lat":"31.2152","category":"95","category_name":"日本料理","address":"卢湾区陕西南路141号(近南昌路)"},{"poiid":"B209475CD76FA1FD489B","title":"STAGE 上海iapm","lon":"121.457992","lat":"31.214294","category":"500","category_name":"未知分类","address":"上海市 上海市淮海中路環貿廣場IAPM LG2-273~275"},{"poiid":"B2094654DA6DA6FD459F","title":"花子","lon":"121.45753735595","lat":"31.211939687057","category":"95","category_name":"日本料理","address":"徐汇区襄阳南路207-3号(近复兴中路)"},{"poiid":"B2094757D769A4F8479B","title":"奥芙莉 襄阳南路店 Awfully Chocolate","lon":"121.456886054","lat":"31.212959793","category":"67","category_name":"甜品店","address":"徐汇区襄阳南路174号(近复兴中路)"},{"poiid":"B2094757D468ABFC419C","title":"吴越人家面馆 陕西南路店","lon":"121.459669","lat":"31.215655","category":"68","category_name":"快餐厅","address":"卢湾区陕西南路141号2楼(近南昌路)"},{"poiid":"B2094751DA6DA0FF4293","title":"Quinn\\'s cafe 晴咖啡","lon":"121.460342","lat":"31.213989","category":"247","category_name":"餐饮美食","address":"上海市陕西南路165号"},{"poiid":"B2094757D06AA0F94492","title":"新吉柯德土菜馆","lon":"121.460006","lat":"31.214986","category":"247","category_name":"餐饮美食","address":"上海陕西南路145号"},{"poiid":"B2094654DA6DA6FF469A","title":"明园世纪城","lon":"121.45858","lat":"31.211952","category":"47","category_name":"住宅区","address":"上海市徐汇区复兴中路1199号"},{"poiid":"B2094750D465A2F54899","title":"寿司屋","lon":"121.459007","lat":"31.211322","category":"95","category_name":"日本料理","address":"徐汇区永康路21号(近嘉善路)"},{"poiid":"B2094750D76DA4F9449E","title":"阿斯曼新疆风味餐厅(复兴中路店)","lon":"121.458","lat":"31.2126","category":"90","category_name":"清真餐馆","address":"徐汇区复兴中路1251号"},{"poiid":"B2094757D06AA1FB479C","title":"陋室汤包","lon":"121.45783","lat":"31.21405","category":"68","category_name":"快餐厅","address":"卢湾区南昌路601号(近襄阳南路)"},{"poiid":"B2094655D26EA6F94498","title":"台园圆圆香云吞 徐汇店","lon":"121.456165054","lat":"31.212394793","category":"68","category_name":"快餐厅","address":"徐汇区复兴中路1268号(近襄阳南路)"},{"poiid":"B2094655D26AA2FD419C","title":"田仓米粉 南昌路店","lon":"121.457200054","lat":"31.214274793","category":"87","category_name":"特色／地方风味餐厅","address":"徐汇区南昌路621号(襄阳路口)"},{"poiid":"B2094757D06FA2FD409B","title":"香港糖朝","lon":"121.459704","lat":"31.215751","category":"67","category_name":"甜品店","address":"黄浦区陕西南路141号1楼(近淮海中路)"},{"poiid":"B209475CD664A2FB4598","title":"Stayreal Cafe","lon":"121.457832","lat":"31.21512","category":"500","category_name":"未知分类","address":"上海市 淮海中路1000号环贸广场"},{"poiid":"B2094757D465A3F9499B","title":"新吉诃德土菜馆","lon":"121.46006400887","lat":"31.214710755142","category":"76","category_name":"上海菜","address":"卢湾区陕西南路145号(近南昌路)"},{"poiid":"B2094654DA6DA6FD499E","title":"明园商务中心B座","lon":"121.45896","lat":"31.21154","category":"46","category_name":"楼宇","address":"嘉善路98、118"},{"poiid":"B2094654DA6EA2FA459D","title":"博多新记 复兴店","lon":"121.4576526721","lat":"31.21277515026","category":"72","category_name":"广东菜","address":"徐汇区复兴中路1252弄15号2楼(近襄阳南路)"},{"poiid":"B2094757D06EAAFB4093","title":"陕西南路地铁站","lon":"121.45824382","lat":"31.215062494","category":"36","category_name":"地铁站","address":"上海轨道交通 一号线 十号线 轨交陕西南路站 1 10"},{"poiid":"B2094654DB6BA4FE439F","title":"上海文化广场(北门)","lon":"121.46134","lat":"31.21353","category":"202","category_name":"公园广场","address":"复兴中路597"},{"poiid":"B2094753D76FAAFA449C","title":"上海滩国泰旗舰店","lon":"121.466011","lat":"31.216125","category":"249","category_name":"购物服务","address":"淮海中路868号"},{"poiid":"B209475CD564A7F84292","title":"上海滩新天地店","lon":"121.47463","lat":"31.22164","category":"119","category_name":"商场","address":"\"太仓路181弄新天地北里15号\r\n\""},{"poiid":"B209475CD564A7F8439E","title":"上海滩中信泰富店","lon":"121.45602","lat":"31.22851","category":"119","category_name":"商场","address":"\"南京西路1168号中信泰富广场，店铺号221.\r\n\""},{"poiid":"B2094757D464A7F44199","title":"博多新记 襄阳南路店","lon":"121.456851054","lat":"31.213952793","category":"72","category_name":"广东菜","address":"徐汇区襄阳南路150号(近南昌路)"},{"poiid":"B2094757D06FAAFA459D","title":"上海市口腔病防治院(复兴中路分院)","lon":"121.4582","lat":"31.2126","category":"162","category_name":"医院","address":"徐汇区复兴中路1258号(近襄阳南路)"},{"poiid":"B2094751DA6CA1FB4298","title":"Baker One","lon":"121.45824","lat":"31.21444","category":"67","category_name":"甜品店","address":"卢湾区南昌路559号1楼(近襄阳南路)"},{"poiid":"B2094654DA6EA1FE499F","title":"竹屋川菜","lon":"121.46006400887","lat":"31.214710755142","category":"71","category_name":"四川菜","address":"卢湾区陕西南路145-3号(南昌路口)"},{"poiid":"B2094751D26AA3F5449D","title":"掌上韩品","lon":"121.459297","lat":"31.215394","category":"96","category_name":"韩国料理","address":"卢湾区陕西南路145号(近南昌路)"},{"poiid":"B2094750D76FA3FB4698","title":"滩悦(淮海路店)","lon":"121.457","lat":"31.2143","category":"76","category_name":"上海菜","address":"卢湾区襄阳南路102号3楼(近南昌路)"},{"poiid":"B2094757D06FA5FE4898","title":"老地方面馆","lon":"121.45791","lat":"31.21153","category":"68","category_name":"快餐厅","address":"徐汇区襄阳南路233号(近永康路)"},{"poiid":"B2094757D069A5FC499A","title":"太原别墅","lon":"121.461","lat":"31.2126","category":"47","category_name":"住宅区","address":"上海市徐汇区太原路160号"},{"poiid":"B2094757D06AA3FC4693","title":"Geisha艺","lon":"121.460734698","lat":"31.2131813248","category":"172","category_name":"酒吧","address":"上海陕西南路390号，靠近复兴中路"},{"poiid":"B2094757D068A3F8499B","title":"園烧肉酒场","lon":"121.46081","lat":"31.21307","category":"269","category_name":"烧烤","address":"徐汇区陕西南路400号(近复兴中路)"},{"poiid":"B2094757D068A3FD4793","title":"华检体检中心(徐汇分院)","lon":"121.459014996","lat":"31.211539631","category":"162","category_name":"医院","address":"徐汇区嘉善路118号明园B座3楼(近永康路)"},{"poiid":"B2094750D768A6FA4899","title":"林记小馆(襄阳南路店)","lon":"121.457","lat":"31.2143","category":"72","category_name":"广东菜","address":"徐汇区襄阳南路102号(近淮海路)"},{"poiid":"B2094757D065A3F84698","title":"虹桥火车站A16检票口","lon":"121.45851925","lat":"31.214354796","category":"22","category_name":"火车站","address":"上海虹桥火车站"},{"poiid":"B2094757D06FA7FB4199","title":"振鼎鸡(复兴店)","lon":"121.46082","lat":"31.21297","category":"68","category_name":"快餐厅","address":"徐汇区复兴中路1195号上海理工大学旁(上海电影院斜对面)"},{"poiid":"B2094752D269A5FA4293","title":"半岛小厨","lon":"121.457703","lat":"31.212662","category":"247","category_name":"餐饮美食","address":"徐汇区复兴中路1251号2楼(襄阳南路口)"},{"poiid":"B2094757D664A1F8479D","title":"维园悦谱","lon":"121.46077","lat":"31.21282","category":"72","category_name":"广东菜","address":"徐汇区陕西南路396-1号(近复兴中路)"},{"poiid":"B2094757D065A2FB4699","title":"Muses Cafe","lon":"121.459490738","lat":"31.2115059012","category":"500","category_name":"未知分类","address":"卢湾区陕西南路438-2号(上海文化广场对面)"},{"poiid":"B2094655D36DA6FE439B","title":"陕西南路","lon":"121.45822","lat":"31.2151","category":"38","category_name":"公交车站","address":""},{"poiid":"B2094757D06FA2F54798","title":"陕西南路复兴中路口","lon":"121.459220886","lat":"31.2131328583","category":"260","category_name":"其他","address":"上海陕西南路复兴中路口"},{"poiid":"B2094757DB69A7FB4199","title":"爱乐阿米奇 ELLO AMICI'S","lon":"121.456828","lat":"31.214321","category":"94","category_name":"西餐厅","address":"徐汇区襄阳南路102号(南昌路口)"},{"poiid":"B2094757D06FA3F5419B","title":"店里咖啡馆 Green Room","lon":"121.4578085","lat":"31.212752","category":"65","category_name":"咖啡厅","address":"上海市复兴中路1262弄2号(近襄阳南路)"},{"poiid":"B2094753D26AAAF44893","title":"大咀茶餐厅","lon":"121.45771","lat":"31.214161","category":"500","category_name":"未知分类","address":"上海市 陕西南路117号5楼"},{"poiid":"B2094655D26FA4F44198","title":"Newyork Pizza","lon":"121.459","lat":"31.2112","category":"94","category_name":"西餐厅","address":"徐汇区永康路52号(近嘉善路)"},{"poiid":"B2094753D768A3FE4199","title":"上海市徐汇区中心医院","lon":"121.461021","lat":"31.213911","category":"162","category_name":"医院","address":"上海市 淮海路陕西南路"},{"poiid":"B2094750DA6BA1F9409B","title":"上海理工大学中英国际学院","lon":"121.460227","lat":"31.21158","category":"500","category_name":"未知分类","address":"复兴中路1195号"},{"poiid":"B2094757D069A5FD4492","title":"京世造型复兴店","lon":"121.46034773","lat":"31.212293917","category":"148","category_name":"美容美发店","address":"上海市徐汇区复兴中路1195号"},{"poiid":"B2094753DA65ABF44892","title":"无印良品环贸iapm旗舰店","lon":"121.458007","lat":"31.21507","category":"500","category_name":"未知分类","address":"上海市 上海市徐汇区淮海中路999号上海环贸广场 3F"},{"poiid":"B2094757D06FA5FA479A","title":"吉野家(陕西南路店)","lon":"121.46013","lat":"31.2152","category":"95","category_name":"日本料理","address":"卢湾区陕西南路141号(近南昌路)"},{"poiid":"B209475CD76FA1FD489B","title":"STAGE 上海iapm","lon":"121.457992","lat":"31.214294","category":"500","category_name":"未知分类","address":"上海市 上海市淮海中路環貿廣場IAPM LG2-273~275"},{"poiid":"B2094654DA6DA6FD459F","title":"花子","lon":"121.45753735595","lat":"31.211939687057","category":"95","category_name":"日本料理","address":"徐汇区襄阳南路207-3号(近复兴中路)"},{"poiid":"B2094757D769A4F8479B","title":"奥芙莉 襄阳南路店 Awfully Chocolate","lon":"121.456886054","lat":"31.212959793","category":"67","category_name":"甜品店","address":"徐汇区襄阳南路174号(近复兴中路)"},{"poiid":"B2094757D468ABFC419C","title":"吴越人家面馆 陕西南路店","lon":"121.459669","lat":"31.215655","category":"68","category_name":"快餐厅","address":"卢湾区陕西南路141号2楼(近南昌路)"},{"poiid":"B2094751DA6DA0FF4293","title":"Quinn\\'s cafe 晴咖啡","lon":"121.460342","lat":"31.213989","category":"247","category_name":"餐饮美食","address":"上海市陕西南路165号"},{"poiid":"B2094757D06AA0F94492","title":"新吉柯德土菜馆","lon":"121.460006","lat":"31.214986","category":"247","category_name":"餐饮美食","address":"上海陕西南路145号"},{"poiid":"B2094654DA6DA6FF469A","title":"明园世纪城","lon":"121.45858","lat":"31.211952","category":"47","category_name":"住宅区","address":"上海市徐汇区复兴中路1199号"},{"poiid":"B2094750D465A2F54899","title":"寿司屋","lon":"121.459007","lat":"31.211322","category":"95","category_name":"日本料理","address":"徐汇区永康路21号(近嘉善路)"},{"poiid":"B2094750D76DA4F9449E","title":"阿斯曼新疆风味餐厅(复兴中路店)","lon":"121.458","lat":"31.2126","category":"90","category_name":"清真餐馆","address":"徐汇区复兴中路1251号"},{"poiid":"B2094757D06AA1FB479C","title":"陋室汤包","lon":"121.45783","lat":"31.21405","category":"68","category_name":"快餐厅","address":"卢湾区南昌路601号(近襄阳南路)"},{"poiid":"B2094655D26EA6F94498","title":"台园圆圆香云吞 徐汇店","lon":"121.456165054","lat":"31.212394793","category":"68","category_name":"快餐厅","address":"徐汇区复兴中路1268号(近襄阳南路)"},{"poiid":"B2094655D26AA2FD419C","title":"田仓米粉 南昌路店","lon":"121.457200054","lat":"31.214274793","category":"87","category_name":"特色／地方风味餐厅","address":"徐汇区南昌路621号(襄阳路口)"},{"poiid":"B2094757D06FA2FD409B","title":"香港糖朝","lon":"121.459704","lat":"31.215751","category":"67","category_name":"甜品店","address":"黄浦区陕西南路141号1楼(近淮海中路)"},{"poiid":"B209475CD664A2FB4598","title":"Stayreal Cafe","lon":"121.457832","lat":"31.21512","category":"500","category_name":"未知分类","address":"上海市 淮海中路1000号环贸广场"},{"poiid":"B2094757D465A3F9499B","title":"新吉诃德土菜馆","lon":"121.46006400887","lat":"31.214710755142","category":"76","category_name":"上海菜","address":"卢湾区陕西南路145号(近南昌路)"},{"poiid":"B2094654DA6DA6FD499E","title":"明园商务中心B座","lon":"121.45896","lat":"31.21154","category":"46","category_name":"楼宇","address":"嘉善路98、118"},{"poiid":"B2094654DA6EA2FA459D","title":"博多新记 复兴店","lon":"121.4576526721","lat":"31.21277515026","category":"72","category_name":"广东菜","address":"徐汇区复兴中路1252弄15号2楼(近襄阳南路)"},{"poiid":"B2094757D06EAAFB4093","title":"陕西南路地铁站","lon":"121.45824382","lat":"31.215062494","category":"36","category_name":"地铁站","address":"上海轨道交通 一号线 十号线 轨交陕西南路站 1 10"},{"poiid":"B2094654DB6BA4FE439F","title":"上海文化广场(北门)","lon":"121.46134","lat":"31.21353","category":"202","category_name":"公园广场","address":"复兴中路597"},{"poiid":"B2094753D76FAAFA449C","title":"上海滩国泰旗舰店","lon":"121.466011","lat":"31.216125","category":"249","category_name":"购物服务","address":"淮海中路868号"},{"poiid":"B209475CD564A7F84292","title":"上海滩新天地店","lon":"121.47463","lat":"31.22164","category":"119","category_name":"商场","address":"\"太仓路181弄新天地北里15号\r\n\""},{"poiid":"B209475CD564A7F8439E","title":"上海滩中信泰富店","lon":"121.45602","lat":"31.22851","category":"119","category_name":"商场","address":"\"南京西路1168号中信泰富广场，店铺号221.\r\n\""},{"poiid":"B2094757D464A7F44199","title":"博多新记 襄阳南路店","lon":"121.456851054","lat":"31.213952793","category":"72","category_name":"广东菜","address":"徐汇区襄阳南路150号(近南昌路)"},{"poiid":"B2094757D06FAAFA459D","title":"上海市口腔病防治院(复兴中路分院)","lon":"121.4582","lat":"31.2126","category":"162","category_name":"医院","address":"徐汇区复兴中路1258号(近襄阳南路)"},{"poiid":"B2094751DA6CA1FB4298","title":"Baker One","lon":"121.45824","lat":"31.21444","category":"67","category_name":"甜品店","address":"卢湾区南昌路559号1楼(近襄阳南路)"},{"poiid":"B2094654DA6EA1FE499F","title":"竹屋川菜","lon":"121.46006400887","lat":"31.214710755142","category":"71","category_name":"四川菜","address":"卢湾区陕西南路145-3号(南昌路口)"},{"poiid":"B2094751D26AA3F5449D","title":"掌上韩品","lon":"121.459297","lat":"31.215394","category":"96","category_name":"韩国料理","address":"卢湾区陕西南路145号(近南昌路)"},{"poiid":"B2094750D76FA3FB4698","title":"滩悦(淮海路店)","lon":"121.457","lat":"31.2143","category":"76","category_name":"上海菜","address":"卢湾区襄阳南路102号3楼(近南昌路)"},{"poiid":"B2094757D06FA5FE4898","title":"老地方面馆","lon":"121.45791","lat":"31.21153","category":"68","category_name":"快餐厅","address":"徐汇区襄阳南路233号(近永康路)"},{"poiid":"B2094757D069A5FC499A","title":"太原别墅","lon":"121.461","lat":"31.2126","category":"47","category_name":"住宅区","address":"上海市徐汇区太原路160号"},{"poiid":"B2094757D06AA3FC4693","title":"Geisha艺","lon":"121.460734698","lat":"31.2131813248","category":"172","category_name":"酒吧","address":"上海陕西南路390号，靠近复兴中路"},{"poiid":"B2094757D068A3F8499B","title":"園烧肉酒场","lon":"121.46081","lat":"31.21307","category":"269","category_name":"烧烤","address":"徐汇区陕西南路400号(近复兴中路)"},{"poiid":"B2094757D068A3FD4793","title":"华检体检中心(徐汇分院)","lon":"121.459014996","lat":"31.211539631","category":"162","category_name":"医院","address":"徐汇区嘉善路118号明园B座3楼(近永康路)"},{"poiid":"B2094750D768A6FA4899","title":"林记小馆(襄阳南路店)","lon":"121.457","lat":"31.2143","category":"72","category_name":"广东菜","address":"徐汇区襄阳南路102号(近淮海路)"},{"poiid":"B2094757D065A3F84698","title":"虹桥火车站A16检票口","lon":"121.45851925","lat":"31.214354796","category":"22","category_name":"火车站","address":"上海虹桥火车站"},{"poiid":"B2094757D06FA7FB4199","title":"振鼎鸡(复兴店)","lon":"121.46082","lat":"31.21297","category":"68","category_name":"快餐厅","address":"徐汇区复兴中路1195号上海理工大学旁(上海电影院斜对面)"},{"poiid":"B2094752D269A5FA4293","title":"半岛小厨","lon":"121.457703","lat":"31.212662","category":"247","category_name":"餐饮美食","address":"徐汇区复兴中路1251号2楼(襄阳南路口)"},{"poiid":"B2094757D664A1F8479D","title":"维园悦谱","lon":"121.46077","lat":"31.21282","category":"72","category_name":"广东菜","address":"徐汇区陕西南路396-1号(近复兴中路)"},{"poiid":"B2094757D065A2FB4699","title":"Muses Cafe","lon":"121.459490738","lat":"31.2115059012","category":"500","category_name":"未知分类","address":"卢湾区陕西南路438-2号(上海文化广场对面)"},{"poiid":"B2094655D36DA6FE439B","title":"陕西南路","lon":"121.45822","lat":"31.2151","category":"38","category_name":"公交车站","address":""},{"poiid":"B2094757D06FA2F54798","title":"陕西南路复兴中路口","lon":"121.459220886","lat":"31.2131328583","category":"260","category_name":"其他","address":"上海陕西南路复兴中路口"},{"poiid":"B2094757DB69A7FB4199","title":"爱乐阿米奇 ELLO AMICI'S","lon":"121.456828","lat":"31.214321","category":"94","category_name":"西餐厅","address":"徐汇区襄阳南路102号(南昌路口)"},{"poiid":"B2094757D06FA3F5419B","title":"店里咖啡馆 Green Room","lon":"121.4578085","lat":"31.212752","category":"65","category_name":"咖啡厅","address":"上海市复兴中路1262弄2号(近襄阳南路)"},{"poiid":"B2094753D26AAAF44893","title":"大咀茶餐厅","lon":"121.45771","lat":"31.214161","category":"500","category_name":"未知分类","address":"上海市 陕西南路117号5楼"},{"poiid":"B2094655D26FA4F44198","title":"Newyork Pizza","lon":"121.459","lat":"31.2112","category":"94","category_name":"西餐厅","address":"徐汇区永康路52号(近嘉善路)"},{"poiid":"B2094753D768A3FE4199","title":"上海市徐汇区中心医院","lon":"121.461021","lat":"31.213911","category":"162","category_name":"医院","address":"上海市 淮海路陕西南路"},{"poiid":"B2094750DA6BA1F9409B","title":"上海理工大学中英国际学院","lon":"121.460227","lat":"31.21158","category":"500","category_name":"未知分类","address":"复兴中路1195号"},{"poiid":"B2094757D069A5FD4492","title":"京世造型复兴店","lon":"121.46034773","lat":"31.212293917","category":"148","category_name":"美容美发店","address":"上海市徐汇区复兴中路1195号"},{"poiid":"B2094753DA65ABF44892","title":"无印良品环贸iapm旗舰店","lon":"121.458007","lat":"31.21507","category":"500","category_name":"未知分类","address":"上海市 上海市徐汇区淮海中路999号上海环贸广场 3F"},{"poiid":"B2094757D06FA5FA479A","title":"吉野家(陕西南路店)","lon":"121.46013","lat":"31.2152","category":"95","category_name":"日本料理","address":"卢湾区陕西南路141号(近南昌路)"},{"poiid":"B209475CD76FA1FD489B","title":"STAGE 上海iapm","lon":"121.457992","lat":"31.214294","category":"500","category_name":"未知分类","address":"上海市 上海市淮海中路環貿廣場IAPM LG2-273~275"},{"poiid":"B2094654DA6DA6FD459F","title":"花子","lon":"121.45753735595","lat":"31.211939687057","category":"95","category_name":"日本料理","address":"徐汇区襄阳南路207-3号(近复兴中路)"},{"poiid":"B2094757D769A4F8479B","title":"奥芙莉 襄阳南路店 Awfully Chocolate","lon":"121.456886054","lat":"31.212959793","category":"67","category_name":"甜品店","address":"徐汇区襄阳南路174号(近复兴中路)"},{"poiid":"B2094757D468ABFC419C","title":"吴越人家面馆 陕西南路店","lon":"121.459669","lat":"31.215655","category":"68","category_name":"快餐厅","address":"卢湾区陕西南路141号2楼(近南昌路)"},{"poiid":"B2094751DA6DA0FF4293","title":"Quinn\\'s cafe 晴咖啡","lon":"121.460342","lat":"31.213989","category":"247","category_name":"餐饮美食","address":"上海市陕西南路165号"},{"poiid":"B2094757D06AA0F94492","title":"新吉柯德土菜馆","lon":"121.460006","lat":"31.214986","category":"247","category_name":"餐饮美食","address":"上海陕西南路145号"},{"poiid":"B2094654DA6DA6FF469A","title":"明园世纪城","lon":"121.45858","lat":"31.211952","category":"47","category_name":"住宅区","address":"上海市徐汇区复兴中路1199号"},{"poiid":"B2094750D465A2F54899","title":"寿司屋","lon":"121.459007","lat":"31.211322","category":"95","category_name":"日本料理","address":"徐汇区永康路21号(近嘉善路)"},{"poiid":"B2094750D76DA4F9449E","title":"阿斯曼新疆风味餐厅(复兴中路店)","lon":"121.458","lat":"31.2126","category":"90","category_name":"清真餐馆","address":"徐汇区复兴中路1251号"},{"poiid":"B2094757D06AA1FB479C","title":"陋室汤包","lon":"121.45783","lat":"31.21405","category":"68","category_name":"快餐厅","address":"卢湾区南昌路601号(近襄阳南路)"},{"poiid":"B2094655D26EA6F94498","title":"台园圆圆香云吞 徐汇店","lon":"121.456165054","lat":"31.212394793","category":"68","category_name":"快餐厅","address":"徐汇区复兴中路1268号(近襄阳南路)"},{"poiid":"B2094655D26AA2FD419C","title":"田仓米粉 南昌路店","lon":"121.457200054","lat":"31.214274793","category":"87","category_name":"特色／地方风味餐厅","address":"徐汇区南昌路621号(襄阳路口)"},{"poiid":"B2094757D06FA2FD409B","title":"香港糖朝","lon":"121.459704","lat":"31.215751","category":"67","category_name":"甜品店","address":"黄浦区陕西南路141号1楼(近淮海中路)"},{"poiid":"B209475CD664A2FB4598","title":"Stayreal Cafe","lon":"121.457832","lat":"31.21512","category":"500","category_name":"未知分类","address":"上海市 淮海中路1000号环贸广场"},{"poiid":"B2094757D465A3F9499B","title":"新吉诃德土菜馆","lon":"121.46006400887","lat":"31.214710755142","category":"76","category_name":"上海菜","address":"卢湾区陕西南路145号(近南昌路)"},{"poiid":"B2094654DA6DA6FD499E","title":"明园商务中心B座","lon":"121.45896","lat":"31.21154","category":"46","category_name":"楼宇","address":"嘉善路98、118"}]