[{"poiid":"B2094757D06FA2FB469B","title":"龙泉驾校","lon":"121.24061","lat":"31.26704","category":"190","category_name":"培训机构","address":"嘉定区联群路88号(近博园路)"},{"poiid":"B2094655D36CA5FD429E","title":"春浓路春归路","lon":"121.2456","lat":"31.28364","category":"38","category_name":"公交车站","address":""},{"poiid":"B2094655D265A5F8499A","title":"同济大学图书馆嘉定校区","lon":"121.25483","lat":"31.27586","category":"181","category_name":"图书馆","address":"曹安公路4800号内"},{"poiid":"B2094757D064AAFC429D","title":"嘉定龙泉基地","lon":"121.239865289","lat":"31.2699254072","category":"500","category_name":"未知分类","address":"上海嘉定区联群路88号近曹安路"},{"poiid":"B2094757D66CA5FB409D","title":"春雨路","lon":"121.239529","lat":"31.281649","category":"500","category_name":"未知分类","address":"上海春雨路"},{"poiid":"B2094757D065A6FF429D","title":"G15沈海高速曹安公路收费站","lon":"121.24169181","lat":"31.269745275","category":"267","category_name":"收费站","address":"上海G15沈海高速曹安公路收费站"},{"poiid":"B2094757D068A1F9479D","title":"嘉宝•同济新天地","lon":"121.22280078","lat":"31.287134581","category":"260","category_name":"其他","address":"上海嘉定区曹安公路4800号同济大学内"},{"poiid":"B2094655D36CA5FA499F","title":"曹安路联群路","lon":"121.24234","lat":"31.27462","category":"38","category_name":"公交车站","address":""},{"poiid":"B2094655D36CA5FA4898","title":"曹安路星塔路","lon":"121.23676","lat":"31.27404","category":"38","category_name":"公交车站","address":""},{"poiid":"B2094753D468A2F8449E","title":"浦东路家嘴","lon":"121.241508","lat":"31.272983","category":"500","category_name":"未知分类","address":"上海市 浦东外滩"},{"poiid":"B2094654D46BA1FA4692","title":"西村联民花园","lon":"121.257","lat":"31.2736","category":"47","category_name":"住宅区","address":"上海市上海嘉定区联民路"},{"poiid":"B2094654DB6AA5F54892","title":"上海灿坤实业有限公司","lon":"121.23892","lat":"31.27473","category":"263","category_name":"公司","address":"曹安公路4408"},{"poiid":"B2094654D46BA0FF4198","title":"上海久久石业有限公司","lon":"121.24098","lat":"31.27429","category":"263","category_name":"公司","address":""},{"poiid":"B2094654D46BA0FF429F","title":"金纬机械第一二厂区","lon":"121.24516","lat":"31.2747","category":"263","category_name":"公司","address":"曹安公路4315"},{"poiid":"B2094757D069ABF44192","title":"67路","lon":"121.2334801","lat":"31.284095865","category":"500","category_name":"未知分类","address":"上海中山公园地铁站--建德花园"},{"poiid":"B2094654D46BA2FF4499","title":"美国梦幻乐园(黄渡镇)","lon":"121.23035","lat":"31.27593","category":"250","category_name":"公园户外","address":"黄渡镇"},{"poiid":"B2094654D46BA1FB409B","title":"上海龙泉机动车驾驶员培训基地有限公司","lon":"121.24024","lat":"31.26768","category":"192","category_name":"驾校","address":"联西路88号"},{"poiid":"B2094654D46BA0FF429C","title":"联群花苑","lon":"121.24706","lat":"31.271955","category":"47","category_name":"住宅区","address":"联群花苑"},{"poiid":"B2094655D36CA5FB4198","title":"曹安路宝园七路","lon":"121.25637","lat":"31.27611","category":"38","category_name":"公交车站","address":""},{"poiid":"B2094655D26BA5FE469E","title":"新一佳","lon":"121.25483","lat":"31.27586","category":"257","category_name":"中餐厅","address":"嘉定区曹安公路4800号同济大学新天地商业街(近嘉松北路)"},{"poiid":"B2094757D164A5FB419A","title":"上海凯泉泵业(集团)有限公司","lon":"121.250208289","lat":"31.2741235935","category":"263","category_name":"公司","address":"上海曹安公路4255号"},{"poiid":"B2094654D46BA0FF419A","title":"兴总食品企业(上海)有限公司","lon":"121.23515","lat":"31.2737","category":"263","category_name":"公司","address":""},{"poiid":"B2094655D264A4FB4192","title":"G15曹安公路收费站","lon":"121.24138","lat":"31.27043","category":"267","category_name":"收费站","address":""},{"poiid":"B2094655D26BAAFE4099","title":"润渡佳苑","lon":"121.22655","lat":"31.26806","category":"47","category_name":"住宅区","address":"上海市嘉定区春荣路800弄"},{"poiid":"B2094655D265A1F5489A","title":"同济大学中德工程学院","lon":"121.25483","lat":"31.27586","category":"52","category_name":"高等院校","address":"曹安公路4800号"},{"poiid":"B2094655D268ABF94599","title":"Ａ５曹安公路收费站","lon":"121.24137","lat":"31.27048","category":"267","category_name":"收费站","address":""},{"poiid":"B2094757D169A3FF499E","title":"上海凯泉泵业(集团)有限公司","lon":"121.2293165","lat":"31.2733141","category":"46","category_name":"楼宇","address":"上海曹安公路4255号"},{"poiid":"B2094750D264A3F94698","title":"广汽本田汽车有限公司上海商务中心","lon":"121.250373","lat":"31.287324","category":"500","category_name":"未知分类","address":"上海市嘉定区春浓路955号"},{"poiid":"B2094654D46BA1FA489E","title":"上海凯泉泵业(集团)有限公司(联西路)","lon":"121.25017","lat":"31.27429","category":"263","category_name":"公司","address":""},{"poiid":"B2094654D46BA1FA4593","title":"上海凯泉泵业有限公司宿舍楼","lon":"121.24952","lat":"31.26999","category":"47","category_name":"住宅区","address":""},{"poiid":"B2094654D46BA6F5439C","title":"上海协通众盛汽车服务有限公司","lon":"121.25588","lat":"31.27635","category":"159","category_name":"汽车维修","address":"曹安路4188号"},{"poiid":"B2094654D46BA0FF4292","title":"上海凯泉工业园","lon":"121.25201","lat":"31.27538","category":"263","category_name":"公司","address":""},{"poiid":"B2094655D26BA0FA499F","title":"好又多","lon":"121.22666","lat":"31.28651","category":"118","category_name":"超级市场","address":""},{"poiid":"B2094654D46BA1FA4993","title":"联民花园","lon":"121.24911","lat":"31.264097","category":"47","category_name":"住宅区","address":"联民花园"},{"poiid":"B2094655D36DA0FF459B","title":"许家东街村","lon":"121.22708","lat":"31.27332","category":"38","category_name":"公交车站","address":""},{"poiid":"B2094757D169AAFD469F","title":"同济大学嘉定校区F楼202","lon":"121.227067389","lat":"31.2820382562","category":"500","category_name":"未知分类","address":"上海嘉定区曹安公路4800号"},{"poiid":"B2094655D26BA5FD4892","title":"上海启耀","lon":"121.22627","lat":"31.28703","category":"46","category_name":"楼宇","address":""},{"poiid":"B2094655D265A6FD479A","title":"上海明嘉电梯配套有限公司","lon":"121.23014","lat":"31.28677","category":"263","category_name":"公司","address":""},{"poiid":"B2094757D168A6FE4998","title":"ROXY(奥特莱斯店)","lon":"121.227739889","lat":"31.2731905743","category":"141","category_name":"服装鞋帽皮具店","address":"上海近郊青浦区沪青平公路2888号澳特莱斯广场B113(近嘉松中路)  "},{"poiid":"B2094654D46BA1FA4592","title":"史密斯(中国)有限公司","lon":"121.2535","lat":"31.27127","category":"263","category_name":"公司","address":"曹联路36"},{"poiid":"B2094757D16EABFF4893","title":"黄渡镇东街村","lon":"121.229943","lat":"31.270246","category":"500","category_name":"未知分类","address":"上海黄渡镇东街村"},{"poiid":"B2094757D06FA4FA469C","title":"同济嘉定校区食堂","lon":"121.22471631","lat":"31.287652063","category":"68","category_name":"快餐厅","address":"嘉定区曹安公路4800号同济大学内(近嘉松北路)"},{"poiid":"B2094757D164AAFB4099","title":"汇佳桌游","lon":"121.240918639","lat":"31.267581309","category":"248","category_name":"生活娱乐","address":"上海福州路524号"},{"poiid":"B2094753DB68A6FB419C","title":"上海火车站","lon":"121.259574","lat":"31.286489","category":"500","category_name":"未知分类","address":"上海市 上海火车站"},{"poiid":"B2094757D66FA0F4429C","title":"曹安仓库","lon":"121.258238","lat":"31.276239","category":"263","category_name":"公司","address":"上海曹安公路4158号"},{"poiid":"B2094655D36DA7F9469B","title":"众百南路方园路","lon":"121.24603","lat":"31.29928","category":"38","category_name":"公交车站","address":""},{"poiid":"B2094655D36DA1FF479E","title":"盐铁塘桥","lon":"121.22854","lat":"31.26694","category":"250","category_name":"公园户外","address":""},{"poiid":"B2094654D46BA2F84599","title":"丰田汽车技术研发(上海)有限公司","lon":"121.22313","lat":"31.28391","category":"263","category_name":"公司","address":"嘉松北路6333号"},{"poiid":"B2094757D66EA2FE449E","title":"上海沪工汽车电器有限公司","lon":"121.22557313","lat":"31.290432228","category":"263","category_name":"公司","address":"上海谢春路1288号"},{"poiid":"B2094757D16AABF8489C","title":"嘉松北路收费站","lon":"121.22260498","lat":"31.286371145","category":"267","category_name":"收费站","address":"上海G1501"},{"poiid":"B2094757D06FA2FB469B","title":"龙泉驾校","lon":"121.24061","lat":"31.26704","category":"190","category_name":"培训机构","address":"嘉定区联群路88号(近博园路)"},{"poiid":"B2094655D36CA5FD429E","title":"春浓路春归路","lon":"121.2456","lat":"31.28364","category":"38","category_name":"公交车站","address":""},{"poiid":"B2094655D265A5F8499A","title":"同济大学图书馆嘉定校区","lon":"121.25483","lat":"31.27586","category":"181","category_name":"图书馆","address":"曹安公路4800号内"},{"poiid":"B2094757D064AAFC429D","title":"嘉定龙泉基地","lon":"121.239865289","lat":"31.2699254072","category":"500","category_name":"未知分类","address":"上海嘉定区联群路88号近曹安路"},{"poiid":"B2094757D66CA5FB409D","title":"春雨路","lon":"121.239529","lat":"31.281649","category":"500","category_name":"未知分类","address":"上海春雨路"},{"poiid":"B2094757D065A6FF429D","title":"G15沈海高速曹安公路收费站","lon":"121.24169181","lat":"31.269745275","category":"267","category_name":"收费站","address":"上海G15沈海高速曹安公路收费站"},{"poiid":"B2094757D068A1F9479D","title":"嘉宝•同济新天地","lon":"121.22280078","lat":"31.287134581","category":"260","category_name":"其他","address":"上海嘉定区曹安公路4800号同济大学内"},{"poiid":"B2094655D36CA5FA499F","title":"曹安路联群路","lon":"121.24234","lat":"31.27462","category":"38","category_name":"公交车站","address":""},{"poiid":"B2094655D36CA5FA4898","title":"曹安路星塔路","lon":"121.23676","lat":"31.27404","category":"38","category_name":"公交车站","address":""},{"poiid":"B2094753D468A2F8449E","title":"浦东路家嘴","lon":"121.241508","lat":"31.272983","category":"500","category_name":"未知分类","address":"上海市 浦东外滩"},{"poiid":"B2094654D46BA1FA4692","title":"西村联民花园","lon":"121.257","lat":"31.2736","category":"47","category_name":"住宅区","address":"上海市上海嘉定区联民路"},{"poiid":"B2094654DB6AA5F54892","title":"上海灿坤实业有限公司","lon":"121.23892","lat":"31.27473","category":"263","category_name":"公司","address":"曹安公路4408"},{"poiid":"B2094654D46BA0FF4198","title":"上海久久石业有限公司","lon":"121.24098","lat":"31.27429","category":"263","category_name":"公司","address":""},{"poiid":"B2094654D46BA0FF429F","title":"金纬机械第一二厂区","lon":"121.24516","lat":"31.2747","category":"263","category_name":"公司","address":"曹安公路4315"},{"poiid":"B2094757D069ABF44192","title":"67路","lon":"121.2334801","lat":"31.284095865","category":"500","category_name":"未知分类","address":"上海中山公园地铁站--建德花园"},{"poiid":"B2094654D46BA2FF4499","title":"美国梦幻乐园(黄渡镇)","lon":"121.23035","lat":"31.27593","category":"250","category_name":"公园户外","address":"黄渡镇"},{"poiid":"B2094654D46BA1FB409B","title":"上海龙泉机动车驾驶员培训基地有限公司","lon":"121.24024","lat":"31.26768","category":"192","category_name":"驾校","address":"联西路88号"},{"poiid":"B2094654D46BA0FF429C","title":"联群花苑","lon":"121.24706","lat":"31.271955","category":"47","category_name":"住宅区","address":"联群花苑"},{"poiid":"B2094655D36CA5FB4198","title":"曹安路宝园七路","lon":"121.25637","lat":"31.27611","category":"38","category_name":"公交车站","address":""},{"poiid":"B2094655D26BA5FE469E","title":"新一佳","lon":"121.25483","lat":"31.27586","category":"257","category_name":"中餐厅","address":"嘉定区曹安公路4800号同济大学新天地商业街(近嘉松北路)"},{"poiid":"B2094757D164A5FB419A","title":"上海凯泉泵业(集团)有限公司","lon":"121.250208289","lat":"31.2741235935","category":"263","category_name":"公司","address":"上海曹安公路4255号"},{"poiid":"B2094654D46BA0FF419A","title":"兴总食品企业(上海)有限公司","lon":"121.23515","lat":"31.2737","category":"263","category_name":"公司","address":""},{"poiid":"B2094655D264A4FB4192","title":"G15曹安公路收费站","lon":"121.24138","lat":"31.27043","category":"267","category_name":"收费站","address":""},{"poiid":"B2094655D26BAAFE4099","title":"润渡佳苑","lon":"121.22655","lat":"31.26806","category":"47","category_name":"住宅区","address":"上海市嘉定区春荣路800弄"},{"poiid":"B2094655D265A1F5489A","title":"同济大学中德工程学院","lon":"121.25483","lat":"31.27586","category":"52","category_name":"高等院校","address":"曹安公路4800号"},{"poiid":"B2094655D268ABF94599","title":"Ａ５曹安公路收费站","lon":"121.24137","lat":"31.27048","category":"267","category_name":"收费站","address":""},{"poiid":"B2094757D169A3FF499E","title":"上海凯泉泵业(集团)有限公司","lon":"121.2293165","lat":"31.2733141","category":"46","category_name":"楼宇","address":"上海曹安公路4255号"},{"poiid":"B2094750D264A3F94698","title":"广汽本田汽车有限公司上海商务中心","lon":"121.250373","lat":"31.287324","category":"500","category_name":"未知分类","address":"上海市嘉定区春浓路955号"},{"poiid":"B2094654D46BA1FA489E","title":"上海凯泉泵业(集团)有限公司(联西路)","lon":"121.25017","lat":"31.27429","category":"263","category_name":"公司","address":""},{"poiid":"B2094654D46BA1FA4593","title":"上海凯泉泵业有限公司宿舍楼","lon":"121.24952","lat":"31.26999","category":"47","category_name":"住宅区","address":""},{"poiid":"B2094654D46BA6F5439C","title":"上海协通众盛汽车服务有限公司","lon":"121.25588","lat":"31.27635","category":"159","category_name":"汽车维修","address":"曹安路4188号"},{"poiid":"B2094654D46BA0FF4292","title":"上海凯泉工业园","lon":"121.25201","lat":"31.27538","category":"263","category_name":"公司","address":""},{"poiid":"B2094655D26BA0FA499F","title":"好又多","lon":"121.22666","lat":"31.28651","category":"118","category_name":"超级市场","address":""},{"poiid":"B2094654D46BA1FA4993","title":"联民花园","lon":"121.24911","lat":"31.264097","category":"47","category_name":"住宅区","address":"联民花园"},{"poiid":"B2094655D36DA0FF459B","title":"许家东街村","lon":"121.22708","lat":"31.27332","category":"38","category_name":"公交车站","address":""},{"poiid":"B2094757D169AAFD469F","title":"同济大学嘉定校区F楼202","lon":"121.227067389","lat":"31.2820382562","category":"500","category_name":"未知分类","address":"上海嘉定区曹安公路4800号"},{"poiid":"B2094655D26BA5FD4892","title":"上海启耀","lon":"121.22627","lat":"31.28703","category":"46","category_name":"楼宇","address":""},{"poiid":"B2094655D265A6FD479A","title":"上海明嘉电梯配套有限公司","lon":"121.23014","lat":"31.28677","category":"263","category_name":"公司","address":""},{"poiid":"B2094757D168A6FE4998","title":"ROXY(奥特莱斯店)","lon":"121.227739889","lat":"31.2731905743","category":"141","category_name":"服装鞋帽皮具店","address":"上海近郊青浦区沪青平公路2888号澳特莱斯广场B113(近嘉松中路)  "},{"poiid":"B2094654D46BA1FA4592","title":"史密斯(中国)有限公司","lon":"121.2535","lat":"31.27127","category":"263","category_name":"公司","address":"曹联路36"},{"poiid":"B2094757D16EABFF4893","title":"黄渡镇东街村","lon":"121.229943","lat":"31.270246","category":"500","category_name":"未知分类","address":"上海黄渡镇东街村"},{"poiid":"B2094757D06FA4FA469C","title":"同济嘉定校区食堂","lon":"121.22471631","lat":"31.287652063","category":"68","category_name":"快餐厅","address":"嘉定区曹安公路4800号同济大学内(近嘉松北路)"},{"poiid":"B2094757D164AAFB4099","title":"汇佳桌游","lon":"121.240918639","lat":"31.267581309","category":"248","category_name":"生活娱乐","address":"上海福州路524号"},{"poiid":"B2094753DB68A6FB419C","title":"上海火车站","lon":"121.259574","lat":"31.286489","category":"500","category_name":"未知分类","address":"上海市 上海火车站"},{"poiid":"B2094757D66FA0F4429C","title":"曹安仓库","lon":"121.258238","lat":"31.276239","category":"263","category_name":"公司","address":"上海曹安公路4158号"},{"poiid":"B2094655D36DA7F9469B","title":"众百南路方园路","lon":"121.24603","lat":"31.29928","category":"38","category_name":"公交车站","address":""},{"poiid":"B2094655D36DA1FF479E","title":"盐铁塘桥","lon":"121.22854","lat":"31.26694","category":"250","category_name":"公园户外","address":""},{"poiid":"B2094654D46BA2F84599","title":"丰田汽车技术研发(上海)有限公司","lon":"121.22313","lat":"31.28391","category":"263","category_name":"公司","address":"嘉松北路6333号"},{"poiid":"B2094757D66EA2FE449E","title":"上海沪工汽车电器有限公司","lon":"121.22557313","lat":"31.290432228","category":"263","category_name":"公司","address":"上海谢春路1288号"},{"poiid":"B2094757D16AABF8489C","title":"嘉松北路收费站","lon":"121.22260498","lat":"31.286371145","category":"267","category_name":"收费站","address":"上海G1501"}]