[{"poiid":"B2094757D06FA7FB4798","title":"美兰湖高尔夫俱乐部","lon":"121.3651","lat":"31.40198","category":"220","category_name":"运动场所","address":"海市宝山区沪太路6655号(内美兰湖路9号)"},{"poiid":"B2094654D469ABFE409D","title":"美兰湖皇冠假日酒店","lon":"121.36484","lat":"31.40225","category":"217","category_name":"旅馆招待所","address":"宝山区沪太路6655号(近北欧新镇)"},{"poiid":"B2094757D06EAAF44792","title":"美兰湖","lon":"121.3539524","lat":"31.399131614","category":"234","category_name":"海滨浴场","address":"宝山区罗芬路888号"},{"poiid":"B2094654D469A0F8499E","title":"美兰湖国际会议中心","lon":"121.35453","lat":"31.40151","category":"65","category_name":"咖啡厅","address":"宝山区罗店新镇罗芬路888号"},{"poiid":"B2094654D469A7FA469D","title":"美兰湖别墅","lon":"121.36365672951","lat":"31.402259302461","category":"47","category_name":"住宅区","address":"上海市宝山区罗迎路558弄"},{"poiid":"B2094757D069ABF8409F","title":"美兰湖岭域","lon":"121.358414","lat":"31.396351","category":"47","category_name":"住宅区","address":"上海宝山区罗芬路98弄"},{"poiid":"B2094757D16CAAF9409C","title":"美兰湖琥珀郡园","lon":"121.36056559","lat":"31.391858606","category":"47","category_name":"住宅区","address":"上海美艾路177弄"},{"poiid":"B2094757D06BABFB459E","title":"美兰湖中华园","lon":"121.36041","lat":"31.409433","category":"500","category_name":"未知分类","address":"上海市宝山区抚远路1288弄"},{"poiid":"B2094654D469A0FB489E","title":"美兰沪高尔夫生活园","lon":"121.37506","lat":"31.40601","category":"206","category_name":"高尔夫相关","address":"宝山区沪太路6655号(内美兰湖路9号)"},{"poiid":"B2094757D069ABFE4692","title":"鼎中鼎澳门豆捞(罗芬路店)","lon":"121.35685","lat":"31.39889","category":"86","category_name":"火锅店","address":"宝山区罗芬路55号(近美艾路)"},{"poiid":"B2094757D06AA0F5439C","title":"美兰湖颐景园","lon":"121.3582","lat":"31.398161","category":"47","category_name":"住宅区","address":"上海市宝山区美艾路198弄"},{"poiid":"B2094750D56BA0F5419A","title":"远洋博堡","lon":"121.374352","lat":"31.401399","category":"47","category_name":"住宅区","address":"上海市宝山区美兰湖路333弄115号"},{"poiid":"B2094655D264A0F9449B","title":"上置香岛原墅","lon":"121.35855","lat":"31.41063","category":"47","category_name":"住宅区","address":"宝山美兰湖美丰路88号(抚远路口)"},{"poiid":"B2094750D56AA2FE459C","title":"万科琥珀郡园","lon":"121.36923","lat":"31.398615","category":"47","category_name":"住宅区","address":"宝山美艾路177弄(近罗芬路)"},{"poiid":"B2094655D26BA1FB459A","title":"罗南二村","lon":"121.374","lat":"31.3925","category":"38","category_name":"公交车站","address":"上海市宝山区东太路80弄"},{"poiid":"B2094757D568A1FD4098","title":"美兰金邸","lon":"121.365","lat":"31.4039","category":"47","category_name":"住宅区","address":"上海市宝山区美兰湖路333弄"},{"poiid":"B2094757D06AA3FD4992","title":"伊诺咖啡 美兰湖店","lon":"121.356827054","lat":"31.401091793","category":"65","category_name":"咖啡厅","address":"宝山区沪太路6655号罗店北欧新镇内罗芬路789号"},{"poiid":"B2094654D469A0FB4899","title":"顺驰美兰湖","lon":"121.35601","lat":"31.405182","category":"47","category_name":"住宅区","address":"宝山区罗店北欧新镇扶远路美丹路路口"},{"poiid":"B2094757D664A2F8459B","title":"品膳房酒楼","lon":"121.35601","lat":"31.40112","category":"76","category_name":"上海菜","address":"宝山区美兰湖罗芬路C区689弄13-14号"},{"poiid":"B2094655D36CA6FF409E","title":"富锦路潘泾路","lon":"121.38518","lat":"31.38945","category":"38","category_name":"公交车站","address":""},{"poiid":"B2094654D469A0F8489E","title":"富丽苑","lon":"121.36516","lat":"31.388815","category":"47","category_name":"住宅区","address":"富南路199弄"},{"poiid":"B2094757D068A5F84793","title":"美兰湖奥特莱斯","lon":"121.355615709","lat":"31.3961190725","category":"119","category_name":"商场","address":"宝山区沪太路6655号(美兰湖口)"},{"poiid":"B2094757D465A3F9489F","title":"董大师金牌稻香蛙 美兰湖店","lon":"121.35815","lat":"31.39774","category":"71","category_name":"四川菜","address":"宝山区美兰湖大道罗芬路689弄北欧风情街16号(近沪太路)"},{"poiid":"B2094757D66DA6F54293","title":"万科臻园","lon":"121.366179689","lat":"31.3958907523","category":"47","category_name":"住宅区","address":"上海抚远路"},{"poiid":"B2094757D06BA6FD4498","title":"万科琥珀臻园","lon":"121.366708","lat":"31.411943","category":"500","category_name":"未知分类","address":"上海市宝山区美兰湖新镇美艾路与抚远路交汇处"},{"poiid":"B2094655D36DA1F8439E","title":"锦南路桥","lon":"121.38448","lat":"31.40016","category":"250","category_name":"公园户外","address":""},{"poiid":"B2094654D469A7FA469F","title":"诺贝尔科技公园","lon":"121.3602","lat":"31.4016","category":"196","category_name":"公园","address":""},{"poiid":"B2094654DB69A6FE499E","title":"金兰雅别墅","lon":"121.35919","lat":"31.40274","category":"47","category_name":"住宅区","address":"宝山区美兰湖路98弄68号"},{"poiid":"B2094750D364A7F94893","title":"上置名人天地","lon":"121.36483","lat":"31.40226","category":"637","category_name":"房地产类公司","address":"美兰湖路"},{"poiid":"B2094654D469A7FA4692","title":"美兰湖艺术博物馆","lon":"121.35875","lat":"31.39942","category":"182","category_name":"博物馆","address":"罗南镇"},{"poiid":"B2094654D469A0F4439F","title":"上海申视汽车新技术有限公司","lon":"121.37158","lat":"31.39173","category":"263","category_name":"公司","address":"杨南路1558弄50"},{"poiid":"B2094757D16EA6FB4999","title":"美兰湖金兰雅墅","lon":"121.36069922","lat":"31.397229677","category":"500","category_name":"未知分类","address":"上海美兰湖路"},{"poiid":"B2094757D66FA7FB4993","title":"美兰湖畔雅苑","lon":"121.359508679","lat":"31.4047561096","category":"47","category_name":"住宅区","address":"上海罗迎路美丹路"},{"poiid":"B2094654D469A0F8429D","title":"上海市罗南中学","lon":"121.36489","lat":"31.38799","category":"55","category_name":"中学","address":"上海市宝山区罗南镇东太路31号"},{"poiid":"B2094655D265A0FD499C","title":"美兰湖皇冠假日酒店西餐厅","lon":"121.35575","lat":"31.39544","category":"94","category_name":"西餐厅","address":"宝山区沪太路6655号皇冠假日酒店(美兰湖路口)"},{"poiid":"B2094750D56BA5FC4393","title":"远洋7号","lon":"121.3597401665","lat":"31.408080904354","category":"47","category_name":"住宅区","address":"美兰湖板块罗芬路1288弄"},{"poiid":"B2094757D065AAF4469E","title":"美兰湖朗诗绿岛科技住宅","lon":"121.35753966","lat":"31.403614333","category":"500","category_name":"未知分类","address":"上海市宝山区罗芬路1199弄"},{"poiid":"B2094655D36DA7FC449F","title":"月罗公路潘泾路","lon":"121.36669","lat":"31.41587","category":"38","category_name":"公交车站","address":""},{"poiid":"B2094750D46BAAF5479B","title":"富长苑","lon":"121.366","lat":"31.3939","category":"627","category_name":"一般地点标志","address":"宝山区罗店镇南东路89弄"},{"poiid":"B2094655D26BA1FB459B","title":"罗南新村","lon":"121.36467","lat":"31.38929","category":"38","category_name":"公交车站","address":""},{"poiid":"B2094757D66DA5FA449C","title":"周家新","lon":"121.383466679","lat":"31.3927578831","category":"500","category_name":"未知分类","address":null},{"poiid":"B2094655D26AA0F9449F","title":"地铁美兰湖站","lon":"121.35472","lat":"31.3953","category":"36","category_name":"地铁站","address":""},{"poiid":"B2094454D365A6F44193","title":"星巴克美蘭湖店","lon":"121.355567","lat":"31.400953","category":"247","category_name":"餐饮美食","address":"上海市 上海市寶山區羅芬路1088號世紀聯華1樓"},{"poiid":"B2094757D16DA0FF4293","title":"董大师稻香蛙","lon":"121.36029042","lat":"31.393452446","category":"247","category_name":"餐饮美食","address":"上海美兰湖大道"},{"poiid":"B2094757D66DABF8409E","title":"上海震旦职业学院","lon":"121.361549679","lat":"31.4120992483","category":"671","category_name":"高校中心点","address":"宝山区罗店镇市一路88号(近月罗路)"},{"poiid":"B2094654D469A0F84899","title":"富秀苑","lon":"121.36433","lat":"31.389488","category":"47","category_name":"住宅区","address":"富南路256弄"},{"poiid":"B2094655D36CA1FE429A","title":"束里桥","lon":"121.38313","lat":"31.41724","category":"38","category_name":"公交车站","address":"上海月罗公路罗东路"},{"poiid":"B2094757D66EA5FE4492","title":"金仕堡健身会所(美兰湖店)","lon":"121.363401679","lat":"31.3894778212","category":"220","category_name":"运动场所","address":"宝山区罗芬路888号美兰湖国际会议中心1楼(近美兰湖地铁站)"},{"poiid":"B2094757D165A0FC409E","title":"小天鹅幼儿园","lon":"121.3607906","lat":"31.387698657","category":"57","category_name":"幼儿园","address":"上海南东路"},{"poiid":"B2094654D469A7FA489B","title":"味之都管理学院","lon":"121.35693","lat":"31.39942","category":"52","category_name":"高等院校","address":""},{"poiid":"B2094757D06FA7FB4798","title":"美兰湖高尔夫俱乐部","lon":"121.3651","lat":"31.40198","category":"220","category_name":"运动场所","address":"海市宝山区沪太路6655号(内美兰湖路9号)"},{"poiid":"B2094654D469ABFE409D","title":"美兰湖皇冠假日酒店","lon":"121.36484","lat":"31.40225","category":"217","category_name":"旅馆招待所","address":"宝山区沪太路6655号(近北欧新镇)"},{"poiid":"B2094757D06EAAF44792","title":"美兰湖","lon":"121.3539524","lat":"31.399131614","category":"234","category_name":"海滨浴场","address":"宝山区罗芬路888号"},{"poiid":"B2094654D469A0F8499E","title":"美兰湖国际会议中心","lon":"121.35453","lat":"31.40151","category":"65","category_name":"咖啡厅","address":"宝山区罗店新镇罗芬路888号"},{"poiid":"B2094654D469A7FA469D","title":"美兰湖别墅","lon":"121.36365672951","lat":"31.402259302461","category":"47","category_name":"住宅区","address":"上海市宝山区罗迎路558弄"},{"poiid":"B2094757D069ABF8409F","title":"美兰湖岭域","lon":"121.358414","lat":"31.396351","category":"47","category_name":"住宅区","address":"上海宝山区罗芬路98弄"},{"poiid":"B2094757D16CAAF9409C","title":"美兰湖琥珀郡园","lon":"121.36056559","lat":"31.391858606","category":"47","category_name":"住宅区","address":"上海美艾路177弄"},{"poiid":"B2094757D06BABFB459E","title":"美兰湖中华园","lon":"121.36041","lat":"31.409433","category":"500","category_name":"未知分类","address":"上海市宝山区抚远路1288弄"},{"poiid":"B2094654D469A0FB489E","title":"美兰沪高尔夫生活园","lon":"121.37506","lat":"31.40601","category":"206","category_name":"高尔夫相关","address":"宝山区沪太路6655号(内美兰湖路9号)"},{"poiid":"B2094757D069ABFE4692","title":"鼎中鼎澳门豆捞(罗芬路店)","lon":"121.35685","lat":"31.39889","category":"86","category_name":"火锅店","address":"宝山区罗芬路55号(近美艾路)"},{"poiid":"B2094757D06AA0F5439C","title":"美兰湖颐景园","lon":"121.3582","lat":"31.398161","category":"47","category_name":"住宅区","address":"上海市宝山区美艾路198弄"},{"poiid":"B2094750D56BA0F5419A","title":"远洋博堡","lon":"121.374352","lat":"31.401399","category":"47","category_name":"住宅区","address":"上海市宝山区美兰湖路333弄115号"},{"poiid":"B2094655D264A0F9449B","title":"上置香岛原墅","lon":"121.35855","lat":"31.41063","category":"47","category_name":"住宅区","address":"宝山美兰湖美丰路88号(抚远路口)"},{"poiid":"B2094750D56AA2FE459C","title":"万科琥珀郡园","lon":"121.36923","lat":"31.398615","category":"47","category_name":"住宅区","address":"宝山美艾路177弄(近罗芬路)"},{"poiid":"B2094655D26BA1FB459A","title":"罗南二村","lon":"121.374","lat":"31.3925","category":"38","category_name":"公交车站","address":"上海市宝山区东太路80弄"},{"poiid":"B2094757D568A1FD4098","title":"美兰金邸","lon":"121.365","lat":"31.4039","category":"47","category_name":"住宅区","address":"上海市宝山区美兰湖路333弄"},{"poiid":"B2094757D06AA3FD4992","title":"伊诺咖啡 美兰湖店","lon":"121.356827054","lat":"31.401091793","category":"65","category_name":"咖啡厅","address":"宝山区沪太路6655号罗店北欧新镇内罗芬路789号"},{"poiid":"B2094654D469A0FB4899","title":"顺驰美兰湖","lon":"121.35601","lat":"31.405182","category":"47","category_name":"住宅区","address":"宝山区罗店北欧新镇扶远路美丹路路口"},{"poiid":"B2094757D664A2F8459B","title":"品膳房酒楼","lon":"121.35601","lat":"31.40112","category":"76","category_name":"上海菜","address":"宝山区美兰湖罗芬路C区689弄13-14号"},{"poiid":"B2094655D36CA6FF409E","title":"富锦路潘泾路","lon":"121.38518","lat":"31.38945","category":"38","category_name":"公交车站","address":""},{"poiid":"B2094654D469A0F8489E","title":"富丽苑","lon":"121.36516","lat":"31.388815","category":"47","category_name":"住宅区","address":"富南路199弄"},{"poiid":"B2094757D068A5F84793","title":"美兰湖奥特莱斯","lon":"121.355615709","lat":"31.3961190725","category":"119","category_name":"商场","address":"宝山区沪太路6655号(美兰湖口)"},{"poiid":"B2094757D465A3F9489F","title":"董大师金牌稻香蛙 美兰湖店","lon":"121.35815","lat":"31.39774","category":"71","category_name":"四川菜","address":"宝山区美兰湖大道罗芬路689弄北欧风情街16号(近沪太路)"},{"poiid":"B2094757D66DA6F54293","title":"万科臻园","lon":"121.366179689","lat":"31.3958907523","category":"47","category_name":"住宅区","address":"上海抚远路"},{"poiid":"B2094757D06BA6FD4498","title":"万科琥珀臻园","lon":"121.366708","lat":"31.411943","category":"500","category_name":"未知分类","address":"上海市宝山区美兰湖新镇美艾路与抚远路交汇处"},{"poiid":"B2094655D36DA1F8439E","title":"锦南路桥","lon":"121.38448","lat":"31.40016","category":"250","category_name":"公园户外","address":""},{"poiid":"B2094654D469A7FA469F","title":"诺贝尔科技公园","lon":"121.3602","lat":"31.4016","category":"196","category_name":"公园","address":""},{"poiid":"B2094654DB69A6FE499E","title":"金兰雅别墅","lon":"121.35919","lat":"31.40274","category":"47","category_name":"住宅区","address":"宝山区美兰湖路98弄68号"},{"poiid":"B2094750D364A7F94893","title":"上置名人天地","lon":"121.36483","lat":"31.40226","category":"637","category_name":"房地产类公司","address":"美兰湖路"},{"poiid":"B2094654D469A7FA4692","title":"美兰湖艺术博物馆","lon":"121.35875","lat":"31.39942","category":"182","category_name":"博物馆","address":"罗南镇"},{"poiid":"B2094654D469A0F4439F","title":"上海申视汽车新技术有限公司","lon":"121.37158","lat":"31.39173","category":"263","category_name":"公司","address":"杨南路1558弄50"},{"poiid":"B2094757D16EA6FB4999","title":"美兰湖金兰雅墅","lon":"121.36069922","lat":"31.397229677","category":"500","category_name":"未知分类","address":"上海美兰湖路"},{"poiid":"B2094757D66FA7FB4993","title":"美兰湖畔雅苑","lon":"121.359508679","lat":"31.4047561096","category":"47","category_name":"住宅区","address":"上海罗迎路美丹路"},{"poiid":"B2094654D469A0F8429D","title":"上海市罗南中学","lon":"121.36489","lat":"31.38799","category":"55","category_name":"中学","address":"上海市宝山区罗南镇东太路31号"},{"poiid":"B2094655D265A0FD499C","title":"美兰湖皇冠假日酒店西餐厅","lon":"121.35575","lat":"31.39544","category":"94","category_name":"西餐厅","address":"宝山区沪太路6655号皇冠假日酒店(美兰湖路口)"},{"poiid":"B2094750D56BA5FC4393","title":"远洋7号","lon":"121.3597401665","lat":"31.408080904354","category":"47","category_name":"住宅区","address":"美兰湖板块罗芬路1288弄"},{"poiid":"B2094757D065AAF4469E","title":"美兰湖朗诗绿岛科技住宅","lon":"121.35753966","lat":"31.403614333","category":"500","category_name":"未知分类","address":"上海市宝山区罗芬路1199弄"},{"poiid":"B2094655D36DA7FC449F","title":"月罗公路潘泾路","lon":"121.36669","lat":"31.41587","category":"38","category_name":"公交车站","address":""},{"poiid":"B2094750D46BAAF5479B","title":"富长苑","lon":"121.366","lat":"31.3939","category":"627","category_name":"一般地点标志","address":"宝山区罗店镇南东路89弄"},{"poiid":"B2094655D26BA1FB459B","title":"罗南新村","lon":"121.36467","lat":"31.38929","category":"38","category_name":"公交车站","address":""},{"poiid":"B2094757D66DA5FA449C","title":"周家新","lon":"121.383466679","lat":"31.3927578831","category":"500","category_name":"未知分类","address":null},{"poiid":"B2094655D26AA0F9449F","title":"地铁美兰湖站","lon":"121.35472","lat":"31.3953","category":"36","category_name":"地铁站","address":""},{"poiid":"B2094454D365A6F44193","title":"星巴克美蘭湖店","lon":"121.355567","lat":"31.400953","category":"247","category_name":"餐饮美食","address":"上海市 上海市寶山區羅芬路1088號世紀聯華1樓"},{"poiid":"B2094757D16DA0FF4293","title":"董大师稻香蛙","lon":"121.36029042","lat":"31.393452446","category":"247","category_name":"餐饮美食","address":"上海美兰湖大道"},{"poiid":"B2094757D66DABF8409E","title":"上海震旦职业学院","lon":"121.361549679","lat":"31.4120992483","category":"671","category_name":"高校中心点","address":"宝山区罗店镇市一路88号(近月罗路)"},{"poiid":"B2094654D469A0F84899","title":"富秀苑","lon":"121.36433","lat":"31.389488","category":"47","category_name":"住宅区","address":"富南路256弄"},{"poiid":"B2094655D36CA1FE429A","title":"束里桥","lon":"121.38313","lat":"31.41724","category":"38","category_name":"公交车站","address":"上海月罗公路罗东路"},{"poiid":"B2094757D66EA5FE4492","title":"金仕堡健身会所(美兰湖店)","lon":"121.363401679","lat":"31.3894778212","category":"220","category_name":"运动场所","address":"宝山区罗芬路888号美兰湖国际会议中心1楼(近美兰湖地铁站)"},{"poiid":"B2094757D165A0FC409E","title":"小天鹅幼儿园","lon":"121.3607906","lat":"31.387698657","category":"57","category_name":"幼儿园","address":"上海南东路"},{"poiid":"B2094654D469A7FA489B","title":"味之都管理学院","lon":"121.35693","lat":"31.39942","category":"52","category_name":"高等院校","address":""}]