[{"poiid":"B2094654DA6FAAF5479E","title":"上海长征医院","lon":"121.46721","lat":"31.23279","category":"162","category_name":"医院","address":"黄浦区凤阳路415号(近成都北路)"},{"poiid":"B2094757D06FA2F54492","title":"沪上一家辣肉面馆(成都北路店)","lon":"121.46618","lat":"31.23239","category":"68","category_name":"快餐厅","address":"黄浦区凤阳路535号(近成都北路)"},{"poiid":"B2094751DA69A6FB499A","title":"王品  仙乐斯广场","lon":"121.465452","lat":"31.233329","category":"247","category_name":"餐饮美食","address":"南京西路338号"},{"poiid":"B2094753D76FAAFA449C","title":"上海滩国泰旗舰店","lon":"121.466011","lat":"31.216125","category":"249","category_name":"购物服务","address":"淮海中路868号"},{"poiid":"B209475CD564A7F84292","title":"上海滩新天地店","lon":"121.47463","lat":"31.22164","category":"119","category_name":"商场","address":"\"太仓路181弄新天地北里15号\r\n\""},{"poiid":"B209475CD564A7F8439E","title":"上海滩中信泰富店","lon":"121.45602","lat":"31.22851","category":"119","category_name":"商场","address":"\"南京西路1168号中信泰富广场，店铺号221.\r\n\""},{"poiid":"B2094757D16EA2FB419D","title":"长征医院门诊部","lon":"121.466702738","lat":"31.2317713329","category":"162","category_name":"医院","address":"上海成都北路480号"},{"poiid":"B2094750DB6CA1F8439B","title":"人民公园","lon":"121.466559","lat":"31.233402","category":"196","category_name":"公园","address":"黄浦区南京西路75号人民公园内(近黄陂北路)"},{"poiid":"B2094757D06FA3FE469D","title":"旺旺大厦","lon":"121.469","lat":"31.234","category":"46","category_name":"楼宇","address":"丰台学城海鹰路1号,3号"},{"poiid":"B2094757D06FA6FF4598","title":"晶采世纪大厦","lon":"121.468","lat":"31.2329","category":"46","category_name":"楼宇","address":"珠江新城华穗路与华利路交汇处"},{"poiid":"B2094757DB68A5FF449C","title":"上海 来福士","lon":"121.4678278181757","lat":"31.23394058782101","category":"247","category_name":"餐饮美食","address":"人民广场"},{"poiid":"B2094757DA6EAAFD429A","title":"御景轩凯宾斯基酒店","lon":"121.465211999998","lat":"31.2323450000001","category":"251","category_name":"出行住宿","address":"静安区凤阳路601号"},{"poiid":"B2094757DB6DA3F4449D","title":"三人行","lon":"121.469367","lat":"31.233615","category":"247","category_name":"餐饮美食","address":"世贸百联店"},{"poiid":"B2094751D56FA4F4419B","title":"木有鸭梨餐吧","lon":"121.4664323","lat":"31.2333259","category":"247","category_name":"餐饮美食","address":"南京西路456号4楼"},{"poiid":"B2094757D06FA0FA4992","title":"上海壹街区","lon":"121.465136","lat":"31.232562","category":"47","category_name":"住宅区","address":"静安区凤阳路588弄"},{"poiid":"B2094757D16FAAFA429B","title":"长征医院住院部","lon":"121.466941738","lat":"31.2327763544","category":"162","category_name":"医院","address":"上海凤阳路415号"},{"poiid":"B2094757D065A7F44593","title":"日月光中心 OLIVE DES OLIVE","lon":"121.46757623","lat":"31.232956358","category":"500","category_name":"未知分类","address":"上海打浦桥"},{"poiid":"B2094752D069A5FA4393","title":"上海国际时尚中心","lon":"121.465475","lat":"31.233833","category":"249","category_name":"购物服务","address":"上海市杨树浦路2866号"},{"poiid":"B2094752DA65A2FD439E","title":"上海明天广场JW万豪酒店","lon":"121.46729","lat":"31.233113","category":"500","category_name":"未知分类","address":"上海市 南京西路399号"},{"poiid":"B2094654DA6FAAF5489C","title":"中华保险华盛大厦","lon":"121.46685","lat":"31.23415","category":"46","category_name":"楼宇","address":"成都北路600"},{"poiid":"B2094757D06AA7F8439F","title":"上海科勒设计中心","lon":"121.46708813","lat":"31.231715631","category":"260","category_name":"其他","address":"静安区南京西路456号(近仙乐斯广场)"},{"poiid":"B2094752D06FA4FA499D","title":"MOCA ON THE PARK","lon":"121.465445","lat":"31.233023","category":"247","category_name":"餐饮美食","address":"南京西路231号人民公园内上海当代艺术馆3楼"},{"poiid":"B2094757DA68A1F84099","title":"Starbucks","lon":"121.4661986","lat":"31.2337571","category":"247","category_name":"餐饮美食","address":"People square"},{"poiid":"B2094757D068A6FD469D","title":"盛贺美 三五广场店","lon":"121.465672054","lat":"31.230538793","category":"95","category_name":"日本料理","address":"静安区南京西路555号三五大厦B1楼(近成都北路)"},{"poiid":"B2094757DB6EA5FE459B","title":"好乐迪","lon":"121.469367","lat":"31.233615","category":"248","category_name":"生活娱乐","address":"南京路"},{"poiid":"B2094757D464A0F44192","title":"清梅居","lon":"121.46937633246","lat":"31.233360397111","category":"86","category_name":"火锅店","address":"黄浦区凤阳路313号(近新昌路)"},{"poiid":"B2094757D068A0F4469E","title":"韩膳宫","lon":"121.4661986","lat":"31.2337571","category":"46","category_name":"楼宇","address":"上海静安区成都北路333号"},{"poiid":"B2094750D164ABFC419E","title":"凯宾斯基御锦轩(The One Shanghai)","lon":"121.46516923247","lat":"31.232415869772","category":"215","category_name":"三星级宾馆","address":"上海市静安区凤阳路601号"},{"poiid":"B2094757D66DA7F9469E","title":"先乐施广场","lon":"121.46722173","lat":"31.232177341","category":"500","category_name":"未知分类","address":"上海南京西路388号"},{"poiid":"B2094757D06FA4FC4298","title":"华盛大公馆","lon":"121.46709","lat":"31.234617","category":"47","category_name":"住宅区","address":"上海黄浦区北京西路355弄1-2号"},{"poiid":"B2094752D36DA6F5489E","title":"老丰阁品珍轩酒店","lon":"121.466232","lat":"31.232044","category":"247","category_name":"餐饮美食","address":"黄浦区南京西路388号仙乐斯广场"},{"poiid":"B2094757D06AA0F44793","title":"庄氏隆兴小龙虾面馆(凤阳路店)","lon":"121.46873","lat":"31.23286","category":"68","category_name":"快餐厅","address":"黄浦区凤阳路409号(近成都北路)"},{"poiid":"B2094757D164A7F94899","title":"上海理工大学停尸房","lon":"121.46705813","lat":"31.231867635","category":"500","category_name":"未知分类","address":"上海杨浦区军工路516号，毛像北"},{"poiid":"B2094654DA68A3FC4792","title":"新亚大包 凤阳路店","lon":"121.469741054","lat":"31.233360793","category":"68","category_name":"快餐厅","address":"黄浦区凤阳路321号(近新昌路)"},{"poiid":"B2094654DA6FAAF5479A","title":"峻岭广场一期","lon":"121.46722","lat":"31.23218","category":"46","category_name":"楼宇","address":"成都北路500"},{"poiid":"B2094757D56CABF84399","title":"久久丫鸭颈王 凤阳路店","lon":"121.469267","lat":"31.233354","category":"68","category_name":"快餐厅","address":"黄浦区凤阳路369号(近人民广场)"},{"poiid":"B2094655D26AA4FB4593","title":"吉祥馄饨 北京西路店 Gll Wonton","lon":"121.46798","lat":"31.23527","category":"68","category_name":"快餐厅","address":"黄浦区南京西路302号(近西藏中路)"},{"poiid":"B2094752D76FAAFE4192","title":"Lingo餐厅","lon":"121.466171","lat":"31.234406","category":"247","category_name":"餐饮美食","address":"南京西路仙乐斯"},{"poiid":"B2094752D169A6FF489D","title":"上海大光明影院","lon":"121.467849","lat":"31.234863","category":"248","category_name":"生活娱乐","address":"上海市南京西路216号"},{"poiid":"B2094757D068AAF4429D","title":"峻岭大厦","lon":"121.467391968","lat":"31.232170105","category":"46","category_name":"楼宇","address":"上海成都北路500号"},{"poiid":"B2094751D565A7F4479A","title":"佳家湯包","lon":"121.466453","lat":"31.234724","category":"247","category_name":"餐饮美食","address":"黄河路店"},{"poiid":"B2094757D169A0F94499","title":"雅珠粥店","lon":"121.465196","lat":"31.234423","category":"68","category_name":"快餐厅","address":"静安区北京西路370号(成都路口)"},{"poiid":"B2094655D36CA5F54198","title":"北京西路成都北路","lon":"121.4677","lat":"31.23521","category":"38","category_name":"公交车站","address":""},{"poiid":"B2094757D66DA5FB429B","title":"八七七双皮汤包","lon":"121.467168","lat":"31.233185","category":"68","category_name":"快餐厅","address":"黄浦区凤阳路470号(近成都北路)"},{"poiid":"B2094757D06FA6F5489F","title":"雅力留学专家","lon":"121.46727123","lat":"31.232208642","category":"46","category_name":"楼宇","address":"上海市虹口区西江湾路388号虹口龙之梦广场A座20层"},{"poiid":"B2094757D46AA4F84893","title":"豪大大台湾大鸡排 新昌路店","lon":"121.46932","lat":"31.23307","category":"68","category_name":"快餐厅","address":"黄浦区新昌路94号"},{"poiid":"B2094654DA68A3FC4693","title":"可欣食品 凤阳路店","lon":"121.469153054","lat":"31.233466793","category":"112","category_name":"糕饼店","address":"黄浦区凤阳路369号(近新昌路)"},{"poiid":"B2094753D765A7F44899","title":"木鸭梨露天餐厅","lon":"121.466018","lat":"31.234704","category":"500","category_name":"未知分类","address":"上海市 南京西路456号科勒设计中心4楼(近仙乐斯广场)"},{"poiid":"B2094655D26AAAFA419F","title":"可颂坊 人民广场店 Croissants de France","lon":"121.469906054","lat":"31.233442793","category":"112","category_name":"糕饼店","address":"凤阳路369号近黄河路"},{"poiid":"B2094654DA6CA2F9429B","title":"静安华庭","lon":"121.46486","lat":"31.2334","category":"47","category_name":"住宅区","address":"大田路158"},{"poiid":"B2094654DA6FAAF5479E","title":"上海长征医院","lon":"121.46721","lat":"31.23279","category":"162","category_name":"医院","address":"黄浦区凤阳路415号(近成都北路)"},{"poiid":"B2094757D06FA2F54492","title":"沪上一家辣肉面馆(成都北路店)","lon":"121.46618","lat":"31.23239","category":"68","category_name":"快餐厅","address":"黄浦区凤阳路535号(近成都北路)"},{"poiid":"B2094751DA69A6FB499A","title":"王品  仙乐斯广场","lon":"121.465452","lat":"31.233329","category":"247","category_name":"餐饮美食","address":"南京西路338号"},{"poiid":"B2094753D76FAAFA449C","title":"上海滩国泰旗舰店","lon":"121.466011","lat":"31.216125","category":"249","category_name":"购物服务","address":"淮海中路868号"},{"poiid":"B209475CD564A7F84292","title":"上海滩新天地店","lon":"121.47463","lat":"31.22164","category":"119","category_name":"商场","address":"\"太仓路181弄新天地北里15号\r\n\""},{"poiid":"B209475CD564A7F8439E","title":"上海滩中信泰富店","lon":"121.45602","lat":"31.22851","category":"119","category_name":"商场","address":"\"南京西路1168号中信泰富广场，店铺号221.\r\n\""},{"poiid":"B2094757D16EA2FB419D","title":"长征医院门诊部","lon":"121.466702738","lat":"31.2317713329","category":"162","category_name":"医院","address":"上海成都北路480号"},{"poiid":"B2094750DB6CA1F8439B","title":"人民公园","lon":"121.466559","lat":"31.233402","category":"196","category_name":"公园","address":"黄浦区南京西路75号人民公园内(近黄陂北路)"},{"poiid":"B2094757D06FA3FE469D","title":"旺旺大厦","lon":"121.469","lat":"31.234","category":"46","category_name":"楼宇","address":"丰台学城海鹰路1号,3号"},{"poiid":"B2094757D06FA6FF4598","title":"晶采世纪大厦","lon":"121.468","lat":"31.2329","category":"46","category_name":"楼宇","address":"珠江新城华穗路与华利路交汇处"},{"poiid":"B2094757DB68A5FF449C","title":"上海 来福士","lon":"121.4678278181757","lat":"31.23394058782101","category":"247","category_name":"餐饮美食","address":"人民广场"},{"poiid":"B2094757DA6EAAFD429A","title":"御景轩凯宾斯基酒店","lon":"121.465211999998","lat":"31.2323450000001","category":"251","category_name":"出行住宿","address":"静安区凤阳路601号"},{"poiid":"B2094757DB6DA3F4449D","title":"三人行","lon":"121.469367","lat":"31.233615","category":"247","category_name":"餐饮美食","address":"世贸百联店"},{"poiid":"B2094751D56FA4F4419B","title":"木有鸭梨餐吧","lon":"121.4664323","lat":"31.2333259","category":"247","category_name":"餐饮美食","address":"南京西路456号4楼"},{"poiid":"B2094757D06FA0FA4992","title":"上海壹街区","lon":"121.465136","lat":"31.232562","category":"47","category_name":"住宅区","address":"静安区凤阳路588弄"},{"poiid":"B2094757D16FAAFA429B","title":"长征医院住院部","lon":"121.466941738","lat":"31.2327763544","category":"162","category_name":"医院","address":"上海凤阳路415号"},{"poiid":"B2094757D065A7F44593","title":"日月光中心 OLIVE DES OLIVE","lon":"121.46757623","lat":"31.232956358","category":"500","category_name":"未知分类","address":"上海打浦桥"},{"poiid":"B2094752D069A5FA4393","title":"上海国际时尚中心","lon":"121.465475","lat":"31.233833","category":"249","category_name":"购物服务","address":"上海市杨树浦路2866号"},{"poiid":"B2094752DA65A2FD439E","title":"上海明天广场JW万豪酒店","lon":"121.46729","lat":"31.233113","category":"500","category_name":"未知分类","address":"上海市 南京西路399号"},{"poiid":"B2094654DA6FAAF5489C","title":"中华保险华盛大厦","lon":"121.46685","lat":"31.23415","category":"46","category_name":"楼宇","address":"成都北路600"},{"poiid":"B2094757D06AA7F8439F","title":"上海科勒设计中心","lon":"121.46708813","lat":"31.231715631","category":"260","category_name":"其他","address":"静安区南京西路456号(近仙乐斯广场)"},{"poiid":"B2094752D06FA4FA499D","title":"MOCA ON THE PARK","lon":"121.465445","lat":"31.233023","category":"247","category_name":"餐饮美食","address":"南京西路231号人民公园内上海当代艺术馆3楼"},{"poiid":"B2094757DA68A1F84099","title":"Starbucks","lon":"121.4661986","lat":"31.2337571","category":"247","category_name":"餐饮美食","address":"People square"},{"poiid":"B2094757D068A6FD469D","title":"盛贺美 三五广场店","lon":"121.465672054","lat":"31.230538793","category":"95","category_name":"日本料理","address":"静安区南京西路555号三五大厦B1楼(近成都北路)"},{"poiid":"B2094757DB6EA5FE459B","title":"好乐迪","lon":"121.469367","lat":"31.233615","category":"248","category_name":"生活娱乐","address":"南京路"},{"poiid":"B2094757D464A0F44192","title":"清梅居","lon":"121.46937633246","lat":"31.233360397111","category":"86","category_name":"火锅店","address":"黄浦区凤阳路313号(近新昌路)"},{"poiid":"B2094757D068A0F4469E","title":"韩膳宫","lon":"121.4661986","lat":"31.2337571","category":"46","category_name":"楼宇","address":"上海静安区成都北路333号"},{"poiid":"B2094750D164ABFC419E","title":"凯宾斯基御锦轩(The One Shanghai)","lon":"121.46516923247","lat":"31.232415869772","category":"215","category_name":"三星级宾馆","address":"上海市静安区凤阳路601号"},{"poiid":"B2094757D66DA7F9469E","title":"先乐施广场","lon":"121.46722173","lat":"31.232177341","category":"500","category_name":"未知分类","address":"上海南京西路388号"},{"poiid":"B2094757D06FA4FC4298","title":"华盛大公馆","lon":"121.46709","lat":"31.234617","category":"47","category_name":"住宅区","address":"上海黄浦区北京西路355弄1-2号"},{"poiid":"B2094752D36DA6F5489E","title":"老丰阁品珍轩酒店","lon":"121.466232","lat":"31.232044","category":"247","category_name":"餐饮美食","address":"黄浦区南京西路388号仙乐斯广场"},{"poiid":"B2094757D06AA0F44793","title":"庄氏隆兴小龙虾面馆(凤阳路店)","lon":"121.46873","lat":"31.23286","category":"68","category_name":"快餐厅","address":"黄浦区凤阳路409号(近成都北路)"},{"poiid":"B2094757D164A7F94899","title":"上海理工大学停尸房","lon":"121.46705813","lat":"31.231867635","category":"500","category_name":"未知分类","address":"上海杨浦区军工路516号，毛像北"},{"poiid":"B2094654DA68A3FC4792","title":"新亚大包 凤阳路店","lon":"121.469741054","lat":"31.233360793","category":"68","category_name":"快餐厅","address":"黄浦区凤阳路321号(近新昌路)"},{"poiid":"B2094654DA6FAAF5479A","title":"峻岭广场一期","lon":"121.46722","lat":"31.23218","category":"46","category_name":"楼宇","address":"成都北路500"},{"poiid":"B2094757D56CABF84399","title":"久久丫鸭颈王 凤阳路店","lon":"121.469267","lat":"31.233354","category":"68","category_name":"快餐厅","address":"黄浦区凤阳路369号(近人民广场)"},{"poiid":"B2094655D26AA4FB4593","title":"吉祥馄饨 北京西路店 Gll Wonton","lon":"121.46798","lat":"31.23527","category":"68","category_name":"快餐厅","address":"黄浦区南京西路302号(近西藏中路)"},{"poiid":"B2094752D76FAAFE4192","title":"Lingo餐厅","lon":"121.466171","lat":"31.234406","category":"247","category_name":"餐饮美食","address":"南京西路仙乐斯"},{"poiid":"B2094752D169A6FF489D","title":"上海大光明影院","lon":"121.467849","lat":"31.234863","category":"248","category_name":"生活娱乐","address":"上海市南京西路216号"},{"poiid":"B2094757D068AAF4429D","title":"峻岭大厦","lon":"121.467391968","lat":"31.232170105","category":"46","category_name":"楼宇","address":"上海成都北路500号"},{"poiid":"B2094751D565A7F4479A","title":"佳家湯包","lon":"121.466453","lat":"31.234724","category":"247","category_name":"餐饮美食","address":"黄河路店"},{"poiid":"B2094757D169A0F94499","title":"雅珠粥店","lon":"121.465196","lat":"31.234423","category":"68","category_name":"快餐厅","address":"静安区北京西路370号(成都路口)"},{"poiid":"B2094655D36CA5F54198","title":"北京西路成都北路","lon":"121.4677","lat":"31.23521","category":"38","category_name":"公交车站","address":""},{"poiid":"B2094757D66DA5FB429B","title":"八七七双皮汤包","lon":"121.467168","lat":"31.233185","category":"68","category_name":"快餐厅","address":"黄浦区凤阳路470号(近成都北路)"},{"poiid":"B2094757D06FA6F5489F","title":"雅力留学专家","lon":"121.46727123","lat":"31.232208642","category":"46","category_name":"楼宇","address":"上海市虹口区西江湾路388号虹口龙之梦广场A座20层"},{"poiid":"B2094757D46AA4F84893","title":"豪大大台湾大鸡排 新昌路店","lon":"121.46932","lat":"31.23307","category":"68","category_name":"快餐厅","address":"黄浦区新昌路94号"},{"poiid":"B2094654DA68A3FC4693","title":"可欣食品 凤阳路店","lon":"121.469153054","lat":"31.233466793","category":"112","category_name":"糕饼店","address":"黄浦区凤阳路369号(近新昌路)"},{"poiid":"B2094753D765A7F44899","title":"木鸭梨露天餐厅","lon":"121.466018","lat":"31.234704","category":"500","category_name":"未知分类","address":"上海市 南京西路456号科勒设计中心4楼(近仙乐斯广场)"},{"poiid":"B2094655D26AAAFA419F","title":"可颂坊 人民广场店 Croissants de France","lon":"121.469906054","lat":"31.233442793","category":"112","category_name":"糕饼店","address":"凤阳路369号近黄河路"},{"poiid":"B2094654DA6CA2F9429B","title":"静安华庭","lon":"121.46486","lat":"31.2334","category":"47","category_name":"住宅区","address":"大田路158"},{"poiid":"B2094654DA6FAAF5479E","title":"上海长征医院","lon":"121.46721","lat":"31.23279","category":"162","category_name":"医院","address":"黄浦区凤阳路415号(近成都北路)"},{"poiid":"B2094757D06FA2F54492","title":"沪上一家辣肉面馆(成都北路店)","lon":"121.46618","lat":"31.23239","category":"68","category_name":"快餐厅","address":"黄浦区凤阳路535号(近成都北路)"},{"poiid":"B2094751DA69A6FB499A","title":"王品  仙乐斯广场","lon":"121.465452","lat":"31.233329","category":"247","category_name":"餐饮美食","address":"南京西路338号"},{"poiid":"B2094753D76FAAFA449C","title":"上海滩国泰旗舰店","lon":"121.466011","lat":"31.216125","category":"249","category_name":"购物服务","address":"淮海中路868号"},{"poiid":"B209475CD564A7F84292","title":"上海滩新天地店","lon":"121.47463","lat":"31.22164","category":"119","category_name":"商场","address":"\"太仓路181弄新天地北里15号\r\n\""},{"poiid":"B209475CD564A7F8439E","title":"上海滩中信泰富店","lon":"121.45602","lat":"31.22851","category":"119","category_name":"商场","address":"\"南京西路1168号中信泰富广场，店铺号221.\r\n\""},{"poiid":"B2094757D16EA2FB419D","title":"长征医院门诊部","lon":"121.466702738","lat":"31.2317713329","category":"162","category_name":"医院","address":"上海成都北路480号"},{"poiid":"B2094750DB6CA1F8439B","title":"人民公园","lon":"121.466559","lat":"31.233402","category":"196","category_name":"公园","address":"黄浦区南京西路75号人民公园内(近黄陂北路)"},{"poiid":"B2094757D06FA3FE469D","title":"旺旺大厦","lon":"121.469","lat":"31.234","category":"46","category_name":"楼宇","address":"丰台学城海鹰路1号,3号"},{"poiid":"B2094757D06FA6FF4598","title":"晶采世纪大厦","lon":"121.468","lat":"31.2329","category":"46","category_name":"楼宇","address":"珠江新城华穗路与华利路交汇处"},{"poiid":"B2094757DB68A5FF449C","title":"上海 来福士","lon":"121.4678278181757","lat":"31.23394058782101","category":"247","category_name":"餐饮美食","address":"人民广场"},{"poiid":"B2094757DA6EAAFD429A","title":"御景轩凯宾斯基酒店","lon":"121.465211999998","lat":"31.2323450000001","category":"251","category_name":"出行住宿","address":"静安区凤阳路601号"},{"poiid":"B2094757DB6DA3F4449D","title":"三人行","lon":"121.469367","lat":"31.233615","category":"247","category_name":"餐饮美食","address":"世贸百联店"},{"poiid":"B2094751D56FA4F4419B","title":"木有鸭梨餐吧","lon":"121.4664323","lat":"31.2333259","category":"247","category_name":"餐饮美食","address":"南京西路456号4楼"},{"poiid":"B2094757D06FA0FA4992","title":"上海壹街区","lon":"121.465136","lat":"31.232562","category":"47","category_name":"住宅区","address":"静安区凤阳路588弄"},{"poiid":"B2094757D16FAAFA429B","title":"长征医院住院部","lon":"121.466941738","lat":"31.2327763544","category":"162","category_name":"医院","address":"上海凤阳路415号"},{"poiid":"B2094757D065A7F44593","title":"日月光中心 OLIVE DES OLIVE","lon":"121.46757623","lat":"31.232956358","category":"500","category_name":"未知分类","address":"上海打浦桥"},{"poiid":"B2094752D069A5FA4393","title":"上海国际时尚中心","lon":"121.465475","lat":"31.233833","category":"249","category_name":"购物服务","address":"上海市杨树浦路2866号"},{"poiid":"B2094752DA65A2FD439E","title":"上海明天广场JW万豪酒店","lon":"121.46729","lat":"31.233113","category":"500","category_name":"未知分类","address":"上海市 南京西路399号"},{"poiid":"B2094654DA6FAAF5489C","title":"中华保险华盛大厦","lon":"121.46685","lat":"31.23415","category":"46","category_name":"楼宇","address":"成都北路600"},{"poiid":"B2094757D06AA7F8439F","title":"上海科勒设计中心","lon":"121.46708813","lat":"31.231715631","category":"260","category_name":"其他","address":"静安区南京西路456号(近仙乐斯广场)"},{"poiid":"B2094752D06FA4FA499D","title":"MOCA ON THE PARK","lon":"121.465445","lat":"31.233023","category":"247","category_name":"餐饮美食","address":"南京西路231号人民公园内上海当代艺术馆3楼"},{"poiid":"B2094757DA68A1F84099","title":"Starbucks","lon":"121.4661986","lat":"31.2337571","category":"247","category_name":"餐饮美食","address":"People square"},{"poiid":"B2094757D068A6FD469D","title":"盛贺美 三五广场店","lon":"121.465672054","lat":"31.230538793","category":"95","category_name":"日本料理","address":"静安区南京西路555号三五大厦B1楼(近成都北路)"},{"poiid":"B2094757DB6EA5FE459B","title":"好乐迪","lon":"121.469367","lat":"31.233615","category":"248","category_name":"生活娱乐","address":"南京路"},{"poiid":"B2094757D464A0F44192","title":"清梅居","lon":"121.46937633246","lat":"31.233360397111","category":"86","category_name":"火锅店","address":"黄浦区凤阳路313号(近新昌路)"},{"poiid":"B2094757D068A0F4469E","title":"韩膳宫","lon":"121.4661986","lat":"31.2337571","category":"46","category_name":"楼宇","address":"上海静安区成都北路333号"},{"poiid":"B2094750D164ABFC419E","title":"凯宾斯基御锦轩(The One Shanghai)","lon":"121.46516923247","lat":"31.232415869772","category":"215","category_name":"三星级宾馆","address":"上海市静安区凤阳路601号"},{"poiid":"B2094757D66DA7F9469E","title":"先乐施广场","lon":"121.46722173","lat":"31.232177341","category":"500","category_name":"未知分类","address":"上海南京西路388号"},{"poiid":"B2094757D06FA4FC4298","title":"华盛大公馆","lon":"121.46709","lat":"31.234617","category":"47","category_name":"住宅区","address":"上海黄浦区北京西路355弄1-2号"},{"poiid":"B2094752D36DA6F5489E","title":"老丰阁品珍轩酒店","lon":"121.466232","lat":"31.232044","category":"247","category_name":"餐饮美食","address":"黄浦区南京西路388号仙乐斯广场"},{"poiid":"B2094757D06AA0F44793","title":"庄氏隆兴小龙虾面馆(凤阳路店)","lon":"121.46873","lat":"31.23286","category":"68","category_name":"快餐厅","address":"黄浦区凤阳路409号(近成都北路)"},{"poiid":"B2094757D164A7F94899","title":"上海理工大学停尸房","lon":"121.46705813","lat":"31.231867635","category":"500","category_name":"未知分类","address":"上海杨浦区军工路516号，毛像北"},{"poiid":"B2094654DA68A3FC4792","title":"新亚大包 凤阳路店","lon":"121.469741054","lat":"31.233360793","category":"68","category_name":"快餐厅","address":"黄浦区凤阳路321号(近新昌路)"},{"poiid":"B2094654DA6FAAF5479A","title":"峻岭广场一期","lon":"121.46722","lat":"31.23218","category":"46","category_name":"楼宇","address":"成都北路500"},{"poiid":"B2094757D56CABF84399","title":"久久丫鸭颈王 凤阳路店","lon":"121.469267","lat":"31.233354","category":"68","category_name":"快餐厅","address":"黄浦区凤阳路369号(近人民广场)"},{"poiid":"B2094655D26AA4FB4593","title":"吉祥馄饨 北京西路店 Gll Wonton","lon":"121.46798","lat":"31.23527","category":"68","category_name":"快餐厅","address":"黄浦区南京西路302号(近西藏中路)"},{"poiid":"B2094752D76FAAFE4192","title":"Lingo餐厅","lon":"121.466171","lat":"31.234406","category":"247","category_name":"餐饮美食","address":"南京西路仙乐斯"},{"poiid":"B2094752D169A6FF489D","title":"上海大光明影院","lon":"121.467849","lat":"31.234863","category":"248","category_name":"生活娱乐","address":"上海市南京西路216号"},{"poiid":"B2094757D068AAF4429D","title":"峻岭大厦","lon":"121.467391968","lat":"31.232170105","category":"46","category_name":"楼宇","address":"上海成都北路500号"},{"poiid":"B2094751D565A7F4479A","title":"佳家湯包","lon":"121.466453","lat":"31.234724","category":"247","category_name":"餐饮美食","address":"黄河路店"},{"poiid":"B2094757D169A0F94499","title":"雅珠粥店","lon":"121.465196","lat":"31.234423","category":"68","category_name":"快餐厅","address":"静安区北京西路370号(成都路口)"},{"poiid":"B2094655D36CA5F54198","title":"北京西路成都北路","lon":"121.4677","lat":"31.23521","category":"38","category_name":"公交车站","address":""},{"poiid":"B2094757D66DA5FB429B","title":"八七七双皮汤包","lon":"121.467168","lat":"31.233185","category":"68","category_name":"快餐厅","address":"黄浦区凤阳路470号(近成都北路)"},{"poiid":"B2094757D06FA6F5489F","title":"雅力留学专家","lon":"121.46727123","lat":"31.232208642","category":"46","category_name":"楼宇","address":"上海市虹口区西江湾路388号虹口龙之梦广场A座20层"},{"poiid":"B2094757D46AA4F84893","title":"豪大大台湾大鸡排 新昌路店","lon":"121.46932","lat":"31.23307","category":"68","category_name":"快餐厅","address":"黄浦区新昌路94号"},{"poiid":"B2094654DA68A3FC4693","title":"可欣食品 凤阳路店","lon":"121.469153054","lat":"31.233466793","category":"112","category_name":"糕饼店","address":"黄浦区凤阳路369号(近新昌路)"},{"poiid":"B2094753D765A7F44899","title":"木鸭梨露天餐厅","lon":"121.466018","lat":"31.234704","category":"500","category_name":"未知分类","address":"上海市 南京西路456号科勒设计中心4楼(近仙乐斯广场)"},{"poiid":"B2094655D26AAAFA419F","title":"可颂坊 人民广场店 Croissants de France","lon":"121.469906054","lat":"31.233442793","category":"112","category_name":"糕饼店","address":"凤阳路369号近黄河路"},{"poiid":"B2094654DA6CA2F9429B","title":"静安华庭","lon":"121.46486","lat":"31.2334","category":"47","category_name":"住宅区","address":"大田路158"}]