[{"poiid":"B2094654DA6CAAFE459B","title":"徐家汇天主教堂","lon":"121.43605","lat":"31.19117","category":"245","category_name":"教堂","address":"上海市徐汇区蒲西路158号"},{"poiid":"B2094757D06FA3FF439D","title":"建国宾馆","lon":"121.43825","lat":"31.18946","category":"214","category_name":"四星级宾馆","address":"徐汇区漕溪北路439号(南丹路口)"},{"poiid":"B2094757D06FA2F84392","title":"斯波特大酒店","lon":"121.43583","lat":"31.18869","category":"214","category_name":"四星级宾馆","address":"徐汇区南丹路15号(近漕溪北路)"},{"poiid":"B2094757D16FA1F44298","title":"百脑汇二期","lon":"121.438075986","lat":"31.1907753596","category":"47","category_name":"住宅区","address":"上海徐汇区漕溪北路339号"},{"poiid":"B2094757D569A2F54899","title":"王品台塑牛排(徐家汇店)","lon":"121.43779351","lat":"31.19176025","category":"94","category_name":"西餐厅","address":"徐汇区漕溪北路86号4楼(近徐家汇天主教堂)"},{"poiid":"B2094655D268A3F4459D","title":"西藏大厦万怡酒店","lon":"121.4347","lat":"31.19214","category":"250","category_name":"公园户外","address":"徐汇区虹桥路100号(恭城路虹桥路)"},{"poiid":"B2094757D06FABFC489F","title":"徐家匯天主堂","lon":"121.43679046","lat":"31.191080093","category":"500","category_name":"未知分类","address":"中国上海市徐匯區蒲西路158号"},{"poiid":"B2094757D069AAFF449A","title":"一号线徐家汇站","lon":"121.437045586","lat":"31.1880640066","category":"500","category_name":"未知分类","address":"上海徐家汇"},{"poiid":"B2094655D268A1F84193","title":"中金国际广场","lon":"121.4387","lat":"31.19066","category":"46","category_name":"楼宇","address":"崇文区夕照寺大街"},{"poiid":"B2094757D06FA4FE4592","title":"COSTA COFFEE(百脑汇店)","lon":"121.43794","lat":"31.19023","category":"65","category_name":"咖啡厅","address":"徐汇区漕溪北路8号东方商厦2楼B03-F02-1-047铺(近虹桥路)"},{"poiid":"B2094757D06FA4FF449D","title":"圆苑酒家(徐家汇店)","lon":"121.43453","lat":"31.19214","category":"76","category_name":"上海菜","address":"徐汇区虹桥路100号西藏大厦万怡酒店裙房2楼(虹桥路文定路)"},{"poiid":"B2094757D065A3FB409F","title":"国妇婴","lon":"121.43831458","lat":"31.191663677","category":"249","category_name":"购物服务","address":"上海市徐汇区虹桥路"},{"poiid":"B2094757D068A7FC419D","title":"徐汇区人民政府","lon":"121.43708249","lat":"31.188646284","category":"500","category_name":"未知分类","address":"上海漕溪北路336号"},{"poiid":"B2094753D56AA6FD479F","title":"鱼酷活鱼现烤","lon":"121.437927","lat":"31.189521","category":"247","category_name":"餐饮美食","address":"上海市 百脑汇二期三楼"},{"poiid":"B2094655D26EABFD4292","title":"建国宾馆九州厅","lon":"121.43804629194","lat":"31.189785273911","category":"247","category_name":"餐饮美食","address":"徐汇区漕溪北路439号建国宾馆查看地图"},{"poiid":"B2094757D16EA2FB499D","title":"新东亚酒店","lon":"121.43825018","lat":"31.18978414","category":"217","category_name":"旅馆招待所","address":"徐汇区南丹东路238号"},{"poiid":"B2094752D26EA1FA4393","title":"掌上韩品","lon":"121.435135","lat":"31.190304","category":"247","category_name":"餐饮美食","address":"星游城"},{"poiid":"B2094757D068A7FA4193","title":"光启公园","lon":"121.43457277","lat":"31.1895627398","category":"196","category_name":"公园","address":"徐汇区南丹路17号(近汇站路)"},{"poiid":"B2094757D464A7FE469D","title":"箸味三样菜 漕溪北路店","lon":"121.43695218209","lat":"31.188963779422","category":"71","category_name":"四川菜","address":"徐汇区漕溪北路451号(近南丹路)"},{"poiid":"B2094757D66DABF9409B","title":"上海建国宾馆(葵园)","lon":"121.437653586","lat":"31.1898036406","category":"217","category_name":"旅馆招待所","address":"上海市徐汇区漕溪北路439号(徐家汇地区 近南丹东路)"},{"poiid":"B2094751D364A6FB4993","title":"东来顺","lon":"121.4370822","lat":"31.1895184","category":"500","category_name":"未知分类","address":"徐汇区天钥桥路333号腾飞大厦二楼"},{"poiid":"B2094757D465A1F8469B","title":"MoMo Cafe 虹桥店","lon":"121.435599054","lat":"31.192727793","category":"94","category_name":"西餐厅","address":"卢湾区长乐路190号都市风情街B02店(近成都南路)"},{"poiid":"B2094757D06FA3FE4692","title":"徐家汇百老汇二期","lon":"121.43871964","lat":"31.190653006","category":"138","category_name":"家电电子卖场","address":"上海漕溪北路339号"},{"poiid":"B2094751D56CA7FD4299","title":"平壤玉流酒家","lon":"121.43799","lat":"31.18973","category":"96","category_name":"韩国料理","address":"徐汇区漕溪北路439号建国宾馆3楼(南丹路口)"},{"poiid":"B2094757D06FAAFB439F","title":"肯德基 KFC (中金店)","lon":"121.43775484","lat":"31.190009297","category":"68","category_name":"快餐厅","address":"徐汇区漕溪北路339号百脑汇B1楼(近虹桥路)"},{"poiid":"B2094750D769A3FA4292","title":"鲜缘GOFRESH","lon":"121.437","lat":"31.1913","category":"74","category_name":"江苏菜","address":"徐汇区漕溪北路88号圣爱大厦2-3楼(近徐家汇教堂)"},{"poiid":"B2094753D46BA3FE449E","title":"水蜜儿创意甜品店","lon":"121.438652","lat":"31.191101","category":"500","category_name":"未知分类","address":"上海市 上海市漕溪北路339号百脑汇二期B1"},{"poiid":"B2094757D66EA3F54992","title":"平壤玉流馆","lon":"121.43451558","lat":"31.191598675","category":"500","category_name":"未知分类","address":"上海市徐汇区虹桥路"},{"poiid":"B2094757D065A2FC489E","title":"风尚*秀","lon":"121.437647","lat":"31.189299","category":"148","category_name":"美容美发店","address":"上海徐汇区南丹东路386号(近漕溪北路)"},{"poiid":"B2094757D16CA6F54193","title":"はなまる","lon":"121.43872576","lat":"31.191208138","category":"500","category_name":"未知分类","address":"上海美罗城五番街"},{"poiid":"B2094752DB6CA5F4439B","title":"糖品","lon":"121.43608","lat":"31.192248","category":"500","category_name":"未知分类","address":"上海市 徐汇区天钥桥路133号"},{"poiid":"B2094752D368A7FC409D","title":"台塑王品","lon":"121.438644","lat":"31.189725","category":"247","category_name":"餐饮美食","address":null},{"poiid":"B2094654DB6AA7FA4998","title":"伊藤家(建国店)","lon":"121.43812","lat":"31.18977","category":"95","category_name":"日本料理","address":"徐汇区漕溪北路439号建国宾馆3楼(南丹路口)"},{"poiid":"B2094752D768ABFB4793","title":"上海虹桥机场T2航站楼","lon":"121.436425","lat":"31.189399","category":"500","category_name":"未知分类","address":null},{"poiid":"B209475CD36CA3F4449B","title":"上海老站","lon":"121.43811693897","lat":"31.191452542366","category":"76","category_name":"上海菜","address":"漕溪北路201号(近南丹路)"},{"poiid":"B2094757D068A3F4439F","title":"上海图书馆徐家汇藏书楼","lon":"121.437481517","lat":"31.1905439206","category":"181","category_name":"图书馆","address":"徐汇区漕溪北路80号(近蒲西路)"},{"poiid":"B2094757D169A6F9449E","title":"气象宾馆","lon":"121.436887586","lat":"31.1898273411","category":"36","category_name":"地铁站","address":"徐汇区蒲西路166号(近漕溪北路)"},{"poiid":"B209475CD769A0FF449F","title":"Pasta Inn","lon":"121.43845470101928","lat":"31.190811237399725","category":"247","category_name":"餐饮美食","address":"上海市徐汇区漕溪北路399号百脑汇二期台北东区B1"},{"poiid":"B2094757D16DA0F4429B","title":"康道推拿足道","lon":"121.43842658","lat":"31.190704658","category":"148","category_name":"美容美发店","address":"上海市南丹东路205号"},{"poiid":"B2094757D06FABFD4692","title":"快乐柠檬(飞洲国际店)","lon":"121.43687","lat":"31.18839","category":"113","category_name":"冷饮店","address":"徐汇区零陵路899号飞洲国际广场B1楼"},{"poiid":"B2094757D16FA3F5449A","title":"品纱礼服高级定制(徐汇店)","lon":"121.43818678","lat":"31.191693677","category":"249","category_name":"购物服务","address":"徐汇区漕溪北路41号汇嘉大厦21楼查看地图"},{"poiid":"B2094757D06FA6FF429D","title":"上海市气象局","lon":"121.43695531","lat":"31.189891106","category":"253","category_name":"校园生活","address":"上海市徐汇区蒲西路166号"},{"poiid":"B2094655D26BA3FA4993","title":"圣爱681会所徐汇店","lon":"121.43705","lat":"31.19203","category":"74","category_name":"江苏菜","address":"徐汇区漕溪北路88号圣爱大厦2楼(近南丹路)"},{"poiid":"B2094757D065A2FA469D","title":"10號線陝西南路站","lon":"121.434292386","lat":"31.1892307294","category":"36","category_name":"地铁站","address":"上海10號線陝西南路站"},{"poiid":"B209475CD76CA5FF4198","title":"港汇恒隆广场","lon":"121.437339","lat":"31.188234","category":"500","category_name":"未知分类","address":"上海市 徐家汇"},{"poiid":"B2094654DA6DA0FF4292","title":"小上海餐厅","lon":"121.43804629194","lat":"31.189785273911","category":"76","category_name":"上海菜","address":"徐汇区漕溪北路439号建国宾馆1楼(南丹路口)"},{"poiid":"B2094757D06AA0F8479D","title":"春福饺子馆","lon":"121.43846","lat":"31.18932","category":"82","category_name":"东北菜","address":"徐汇区南丹东路275号(近漕溪北路)"},{"poiid":"B2094757D76BABF5489C","title":"晴美餐厅 南丹东路店","lon":"121.43791","lat":"31.18881","category":"68","category_name":"快餐厅","address":"徐汇区南丹东路300号亚都商务楼9号1楼(近漕溪北路)"},{"poiid":"B2094757D16FA3FB489D","title":"徐光启纪念馆","lon":"121.437608586","lat":"31.1898276411","category":"179","category_name":"音乐厅","address":"徐汇区南丹路17号(南丹路文定路)"},{"poiid":"B2094752D764ABFF499C","title":"巫山烤鱼","lon":"121.437035","lat":"31.191667","category":"247","category_name":"餐饮美食","address":"上海徐汇区南丹路157号"},{"poiid":"B2094654DA6CAAFE459B","title":"徐家汇天主教堂","lon":"121.43605","lat":"31.19117","category":"245","category_name":"教堂","address":"上海市徐汇区蒲西路158号"},{"poiid":"B2094757D06FA3FF439D","title":"建国宾馆","lon":"121.43825","lat":"31.18946","category":"214","category_name":"四星级宾馆","address":"徐汇区漕溪北路439号(南丹路口)"},{"poiid":"B2094757D06FA2F84392","title":"斯波特大酒店","lon":"121.43583","lat":"31.18869","category":"214","category_name":"四星级宾馆","address":"徐汇区南丹路15号(近漕溪北路)"},{"poiid":"B2094757D16FA1F44298","title":"百脑汇二期","lon":"121.438075986","lat":"31.1907753596","category":"47","category_name":"住宅区","address":"上海徐汇区漕溪北路339号"},{"poiid":"B2094757D569A2F54899","title":"王品台塑牛排(徐家汇店)","lon":"121.43779351","lat":"31.19176025","category":"94","category_name":"西餐厅","address":"徐汇区漕溪北路86号4楼(近徐家汇天主教堂)"},{"poiid":"B2094655D268A3F4459D","title":"西藏大厦万怡酒店","lon":"121.4347","lat":"31.19214","category":"250","category_name":"公园户外","address":"徐汇区虹桥路100号(恭城路虹桥路)"},{"poiid":"B2094757D06FABFC489F","title":"徐家匯天主堂","lon":"121.43679046","lat":"31.191080093","category":"500","category_name":"未知分类","address":"中国上海市徐匯區蒲西路158号"},{"poiid":"B2094757D069AAFF449A","title":"一号线徐家汇站","lon":"121.437045586","lat":"31.1880640066","category":"500","category_name":"未知分类","address":"上海徐家汇"},{"poiid":"B2094655D268A1F84193","title":"中金国际广场","lon":"121.4387","lat":"31.19066","category":"46","category_name":"楼宇","address":"崇文区夕照寺大街"},{"poiid":"B2094757D06FA4FE4592","title":"COSTA COFFEE(百脑汇店)","lon":"121.43794","lat":"31.19023","category":"65","category_name":"咖啡厅","address":"徐汇区漕溪北路8号东方商厦2楼B03-F02-1-047铺(近虹桥路)"},{"poiid":"B2094757D06FA4FF449D","title":"圆苑酒家(徐家汇店)","lon":"121.43453","lat":"31.19214","category":"76","category_name":"上海菜","address":"徐汇区虹桥路100号西藏大厦万怡酒店裙房2楼(虹桥路文定路)"},{"poiid":"B2094757D065A3FB409F","title":"国妇婴","lon":"121.43831458","lat":"31.191663677","category":"249","category_name":"购物服务","address":"上海市徐汇区虹桥路"},{"poiid":"B2094757D068A7FC419D","title":"徐汇区人民政府","lon":"121.43708249","lat":"31.188646284","category":"500","category_name":"未知分类","address":"上海漕溪北路336号"},{"poiid":"B2094753D56AA6FD479F","title":"鱼酷活鱼现烤","lon":"121.437927","lat":"31.189521","category":"247","category_name":"餐饮美食","address":"上海市 百脑汇二期三楼"},{"poiid":"B2094655D26EABFD4292","title":"建国宾馆九州厅","lon":"121.43804629194","lat":"31.189785273911","category":"247","category_name":"餐饮美食","address":"徐汇区漕溪北路439号建国宾馆查看地图"},{"poiid":"B2094757D16EA2FB499D","title":"新东亚酒店","lon":"121.43825018","lat":"31.18978414","category":"217","category_name":"旅馆招待所","address":"徐汇区南丹东路238号"},{"poiid":"B2094752D26EA1FA4393","title":"掌上韩品","lon":"121.435135","lat":"31.190304","category":"247","category_name":"餐饮美食","address":"星游城"},{"poiid":"B2094757D068A7FA4193","title":"光启公园","lon":"121.43457277","lat":"31.1895627398","category":"196","category_name":"公园","address":"徐汇区南丹路17号(近汇站路)"},{"poiid":"B2094757D464A7FE469D","title":"箸味三样菜 漕溪北路店","lon":"121.43695218209","lat":"31.188963779422","category":"71","category_name":"四川菜","address":"徐汇区漕溪北路451号(近南丹路)"},{"poiid":"B2094757D66DABF9409B","title":"上海建国宾馆(葵园)","lon":"121.437653586","lat":"31.1898036406","category":"217","category_name":"旅馆招待所","address":"上海市徐汇区漕溪北路439号(徐家汇地区 近南丹东路)"},{"poiid":"B2094751D364A6FB4993","title":"东来顺","lon":"121.4370822","lat":"31.1895184","category":"500","category_name":"未知分类","address":"徐汇区天钥桥路333号腾飞大厦二楼"},{"poiid":"B2094757D465A1F8469B","title":"MoMo Cafe 虹桥店","lon":"121.435599054","lat":"31.192727793","category":"94","category_name":"西餐厅","address":"卢湾区长乐路190号都市风情街B02店(近成都南路)"},{"poiid":"B2094757D06FA3FE4692","title":"徐家汇百老汇二期","lon":"121.43871964","lat":"31.190653006","category":"138","category_name":"家电电子卖场","address":"上海漕溪北路339号"},{"poiid":"B2094751D56CA7FD4299","title":"平壤玉流酒家","lon":"121.43799","lat":"31.18973","category":"96","category_name":"韩国料理","address":"徐汇区漕溪北路439号建国宾馆3楼(南丹路口)"},{"poiid":"B2094757D06FAAFB439F","title":"肯德基 KFC (中金店)","lon":"121.43775484","lat":"31.190009297","category":"68","category_name":"快餐厅","address":"徐汇区漕溪北路339号百脑汇B1楼(近虹桥路)"},{"poiid":"B2094750D769A3FA4292","title":"鲜缘GOFRESH","lon":"121.437","lat":"31.1913","category":"74","category_name":"江苏菜","address":"徐汇区漕溪北路88号圣爱大厦2-3楼(近徐家汇教堂)"},{"poiid":"B2094753D46BA3FE449E","title":"水蜜儿创意甜品店","lon":"121.438652","lat":"31.191101","category":"500","category_name":"未知分类","address":"上海市 上海市漕溪北路339号百脑汇二期B1"},{"poiid":"B2094757D66EA3F54992","title":"平壤玉流馆","lon":"121.43451558","lat":"31.191598675","category":"500","category_name":"未知分类","address":"上海市徐汇区虹桥路"},{"poiid":"B2094757D065A2FC489E","title":"风尚*秀","lon":"121.437647","lat":"31.189299","category":"148","category_name":"美容美发店","address":"上海徐汇区南丹东路386号(近漕溪北路)"},{"poiid":"B2094757D16CA6F54193","title":"はなまる","lon":"121.43872576","lat":"31.191208138","category":"500","category_name":"未知分类","address":"上海美罗城五番街"},{"poiid":"B2094752DB6CA5F4439B","title":"糖品","lon":"121.43608","lat":"31.192248","category":"500","category_name":"未知分类","address":"上海市 徐汇区天钥桥路133号"},{"poiid":"B2094752D368A7FC409D","title":"台塑王品","lon":"121.438644","lat":"31.189725","category":"247","category_name":"餐饮美食","address":null},{"poiid":"B2094654DB6AA7FA4998","title":"伊藤家(建国店)","lon":"121.43812","lat":"31.18977","category":"95","category_name":"日本料理","address":"徐汇区漕溪北路439号建国宾馆3楼(南丹路口)"},{"poiid":"B2094752D768ABFB4793","title":"上海虹桥机场T2航站楼","lon":"121.436425","lat":"31.189399","category":"500","category_name":"未知分类","address":null},{"poiid":"B209475CD36CA3F4449B","title":"上海老站","lon":"121.43811693897","lat":"31.191452542366","category":"76","category_name":"上海菜","address":"漕溪北路201号(近南丹路)"},{"poiid":"B2094757D068A3F4439F","title":"上海图书馆徐家汇藏书楼","lon":"121.437481517","lat":"31.1905439206","category":"181","category_name":"图书馆","address":"徐汇区漕溪北路80号(近蒲西路)"},{"poiid":"B2094757D169A6F9449E","title":"气象宾馆","lon":"121.436887586","lat":"31.1898273411","category":"36","category_name":"地铁站","address":"徐汇区蒲西路166号(近漕溪北路)"},{"poiid":"B209475CD769A0FF449F","title":"Pasta Inn","lon":"121.43845470101928","lat":"31.190811237399725","category":"247","category_name":"餐饮美食","address":"上海市徐汇区漕溪北路399号百脑汇二期台北东区B1"},{"poiid":"B2094757D16DA0F4429B","title":"康道推拿足道","lon":"121.43842658","lat":"31.190704658","category":"148","category_name":"美容美发店","address":"上海市南丹东路205号"},{"poiid":"B2094757D06FABFD4692","title":"快乐柠檬(飞洲国际店)","lon":"121.43687","lat":"31.18839","category":"113","category_name":"冷饮店","address":"徐汇区零陵路899号飞洲国际广场B1楼"},{"poiid":"B2094757D16FA3F5449A","title":"品纱礼服高级定制(徐汇店)","lon":"121.43818678","lat":"31.191693677","category":"249","category_name":"购物服务","address":"徐汇区漕溪北路41号汇嘉大厦21楼查看地图"},{"poiid":"B2094757D06FA6FF429D","title":"上海市气象局","lon":"121.43695531","lat":"31.189891106","category":"253","category_name":"校园生活","address":"上海市徐汇区蒲西路166号"},{"poiid":"B2094655D26BA3FA4993","title":"圣爱681会所徐汇店","lon":"121.43705","lat":"31.19203","category":"74","category_name":"江苏菜","address":"徐汇区漕溪北路88号圣爱大厦2楼(近南丹路)"},{"poiid":"B2094757D065A2FA469D","title":"10號線陝西南路站","lon":"121.434292386","lat":"31.1892307294","category":"36","category_name":"地铁站","address":"上海10號線陝西南路站"},{"poiid":"B209475CD76CA5FF4198","title":"港汇恒隆广场","lon":"121.437339","lat":"31.188234","category":"500","category_name":"未知分类","address":"上海市 徐家汇"},{"poiid":"B2094654DA6DA0FF4292","title":"小上海餐厅","lon":"121.43804629194","lat":"31.189785273911","category":"76","category_name":"上海菜","address":"徐汇区漕溪北路439号建国宾馆1楼(南丹路口)"},{"poiid":"B2094757D06AA0F8479D","title":"春福饺子馆","lon":"121.43846","lat":"31.18932","category":"82","category_name":"东北菜","address":"徐汇区南丹东路275号(近漕溪北路)"},{"poiid":"B2094757D76BABF5489C","title":"晴美餐厅 南丹东路店","lon":"121.43791","lat":"31.18881","category":"68","category_name":"快餐厅","address":"徐汇区南丹东路300号亚都商务楼9号1楼(近漕溪北路)"},{"poiid":"B2094757D16FA3FB489D","title":"徐光启纪念馆","lon":"121.437608586","lat":"31.1898276411","category":"179","category_name":"音乐厅","address":"徐汇区南丹路17号(南丹路文定路)"},{"poiid":"B2094752D764ABFF499C","title":"巫山烤鱼","lon":"121.437035","lat":"31.191667","category":"247","category_name":"餐饮美食","address":"上海徐汇区南丹路157号"},{"poiid":"B2094654DA6CAAFE459B","title":"徐家汇天主教堂","lon":"121.43605","lat":"31.19117","category":"245","category_name":"教堂","address":"上海市徐汇区蒲西路158号"},{"poiid":"B2094757D06FA3FF439D","title":"建国宾馆","lon":"121.43825","lat":"31.18946","category":"214","category_name":"四星级宾馆","address":"徐汇区漕溪北路439号(南丹路口)"},{"poiid":"B2094757D06FA2F84392","title":"斯波特大酒店","lon":"121.43583","lat":"31.18869","category":"214","category_name":"四星级宾馆","address":"徐汇区南丹路15号(近漕溪北路)"},{"poiid":"B2094757D16FA1F44298","title":"百脑汇二期","lon":"121.438075986","lat":"31.1907753596","category":"47","category_name":"住宅区","address":"上海徐汇区漕溪北路339号"},{"poiid":"B2094757D569A2F54899","title":"王品台塑牛排(徐家汇店)","lon":"121.43779351","lat":"31.19176025","category":"94","category_name":"西餐厅","address":"徐汇区漕溪北路86号4楼(近徐家汇天主教堂)"},{"poiid":"B2094655D268A3F4459D","title":"西藏大厦万怡酒店","lon":"121.4347","lat":"31.19214","category":"250","category_name":"公园户外","address":"徐汇区虹桥路100号(恭城路虹桥路)"},{"poiid":"B2094757D06FABFC489F","title":"徐家匯天主堂","lon":"121.43679046","lat":"31.191080093","category":"500","category_name":"未知分类","address":"中国上海市徐匯區蒲西路158号"},{"poiid":"B2094757D069AAFF449A","title":"一号线徐家汇站","lon":"121.437045586","lat":"31.1880640066","category":"500","category_name":"未知分类","address":"上海徐家汇"},{"poiid":"B2094655D268A1F84193","title":"中金国际广场","lon":"121.4387","lat":"31.19066","category":"46","category_name":"楼宇","address":"崇文区夕照寺大街"},{"poiid":"B2094757D06FA4FE4592","title":"COSTA COFFEE(百脑汇店)","lon":"121.43794","lat":"31.19023","category":"65","category_name":"咖啡厅","address":"徐汇区漕溪北路8号东方商厦2楼B03-F02-1-047铺(近虹桥路)"},{"poiid":"B2094757D06FA4FF449D","title":"圆苑酒家(徐家汇店)","lon":"121.43453","lat":"31.19214","category":"76","category_name":"上海菜","address":"徐汇区虹桥路100号西藏大厦万怡酒店裙房2楼(虹桥路文定路)"},{"poiid":"B2094757D065A3FB409F","title":"国妇婴","lon":"121.43831458","lat":"31.191663677","category":"249","category_name":"购物服务","address":"上海市徐汇区虹桥路"},{"poiid":"B2094757D068A7FC419D","title":"徐汇区人民政府","lon":"121.43708249","lat":"31.188646284","category":"500","category_name":"未知分类","address":"上海漕溪北路336号"},{"poiid":"B2094753D56AA6FD479F","title":"鱼酷活鱼现烤","lon":"121.437927","lat":"31.189521","category":"247","category_name":"餐饮美食","address":"上海市 百脑汇二期三楼"},{"poiid":"B2094655D26EABFD4292","title":"建国宾馆九州厅","lon":"121.43804629194","lat":"31.189785273911","category":"247","category_name":"餐饮美食","address":"徐汇区漕溪北路439号建国宾馆查看地图"},{"poiid":"B2094757D16EA2FB499D","title":"新东亚酒店","lon":"121.43825018","lat":"31.18978414","category":"217","category_name":"旅馆招待所","address":"徐汇区南丹东路238号"},{"poiid":"B2094752D26EA1FA4393","title":"掌上韩品","lon":"121.435135","lat":"31.190304","category":"247","category_name":"餐饮美食","address":"星游城"},{"poiid":"B2094757D068A7FA4193","title":"光启公园","lon":"121.43457277","lat":"31.1895627398","category":"196","category_name":"公园","address":"徐汇区南丹路17号(近汇站路)"},{"poiid":"B2094757D464A7FE469D","title":"箸味三样菜 漕溪北路店","lon":"121.43695218209","lat":"31.188963779422","category":"71","category_name":"四川菜","address":"徐汇区漕溪北路451号(近南丹路)"},{"poiid":"B2094757D66DABF9409B","title":"上海建国宾馆(葵园)","lon":"121.437653586","lat":"31.1898036406","category":"217","category_name":"旅馆招待所","address":"上海市徐汇区漕溪北路439号(徐家汇地区 近南丹东路)"},{"poiid":"B2094751D364A6FB4993","title":"东来顺","lon":"121.4370822","lat":"31.1895184","category":"500","category_name":"未知分类","address":"徐汇区天钥桥路333号腾飞大厦二楼"},{"poiid":"B2094757D465A1F8469B","title":"MoMo Cafe 虹桥店","lon":"121.435599054","lat":"31.192727793","category":"94","category_name":"西餐厅","address":"卢湾区长乐路190号都市风情街B02店(近成都南路)"},{"poiid":"B2094757D06FA3FE4692","title":"徐家汇百老汇二期","lon":"121.43871964","lat":"31.190653006","category":"138","category_name":"家电电子卖场","address":"上海漕溪北路339号"},{"poiid":"B2094751D56CA7FD4299","title":"平壤玉流酒家","lon":"121.43799","lat":"31.18973","category":"96","category_name":"韩国料理","address":"徐汇区漕溪北路439号建国宾馆3楼(南丹路口)"},{"poiid":"B2094757D06FAAFB439F","title":"肯德基 KFC (中金店)","lon":"121.43775484","lat":"31.190009297","category":"68","category_name":"快餐厅","address":"徐汇区漕溪北路339号百脑汇B1楼(近虹桥路)"},{"poiid":"B2094750D769A3FA4292","title":"鲜缘GOFRESH","lon":"121.437","lat":"31.1913","category":"74","category_name":"江苏菜","address":"徐汇区漕溪北路88号圣爱大厦2-3楼(近徐家汇教堂)"},{"poiid":"B2094753D46BA3FE449E","title":"水蜜儿创意甜品店","lon":"121.438652","lat":"31.191101","category":"500","category_name":"未知分类","address":"上海市 上海市漕溪北路339号百脑汇二期B1"},{"poiid":"B2094757D66EA3F54992","title":"平壤玉流馆","lon":"121.43451558","lat":"31.191598675","category":"500","category_name":"未知分类","address":"上海市徐汇区虹桥路"},{"poiid":"B2094757D065A2FC489E","title":"风尚*秀","lon":"121.437647","lat":"31.189299","category":"148","category_name":"美容美发店","address":"上海徐汇区南丹东路386号(近漕溪北路)"},{"poiid":"B2094757D16CA6F54193","title":"はなまる","lon":"121.43872576","lat":"31.191208138","category":"500","category_name":"未知分类","address":"上海美罗城五番街"},{"poiid":"B2094752DB6CA5F4439B","title":"糖品","lon":"121.43608","lat":"31.192248","category":"500","category_name":"未知分类","address":"上海市 徐汇区天钥桥路133号"},{"poiid":"B2094752D368A7FC409D","title":"台塑王品","lon":"121.438644","lat":"31.189725","category":"247","category_name":"餐饮美食","address":null},{"poiid":"B2094654DB6AA7FA4998","title":"伊藤家(建国店)","lon":"121.43812","lat":"31.18977","category":"95","category_name":"日本料理","address":"徐汇区漕溪北路439号建国宾馆3楼(南丹路口)"},{"poiid":"B2094752D768ABFB4793","title":"上海虹桥机场T2航站楼","lon":"121.436425","lat":"31.189399","category":"500","category_name":"未知分类","address":null},{"poiid":"B209475CD36CA3F4449B","title":"上海老站","lon":"121.43811693897","lat":"31.191452542366","category":"76","category_name":"上海菜","address":"漕溪北路201号(近南丹路)"},{"poiid":"B2094757D068A3F4439F","title":"上海图书馆徐家汇藏书楼","lon":"121.437481517","lat":"31.1905439206","category":"181","category_name":"图书馆","address":"徐汇区漕溪北路80号(近蒲西路)"},{"poiid":"B2094757D169A6F9449E","title":"气象宾馆","lon":"121.436887586","lat":"31.1898273411","category":"36","category_name":"地铁站","address":"徐汇区蒲西路166号(近漕溪北路)"},{"poiid":"B209475CD769A0FF449F","title":"Pasta Inn","lon":"121.43845470101928","lat":"31.190811237399725","category":"247","category_name":"餐饮美食","address":"上海市徐汇区漕溪北路399号百脑汇二期台北东区B1"},{"poiid":"B2094757D16DA0F4429B","title":"康道推拿足道","lon":"121.43842658","lat":"31.190704658","category":"148","category_name":"美容美发店","address":"上海市南丹东路205号"},{"poiid":"B2094757D06FABFD4692","title":"快乐柠檬(飞洲国际店)","lon":"121.43687","lat":"31.18839","category":"113","category_name":"冷饮店","address":"徐汇区零陵路899号飞洲国际广场B1楼"},{"poiid":"B2094757D16FA3F5449A","title":"品纱礼服高级定制(徐汇店)","lon":"121.43818678","lat":"31.191693677","category":"249","category_name":"购物服务","address":"徐汇区漕溪北路41号汇嘉大厦21楼查看地图"},{"poiid":"B2094757D06FA6FF429D","title":"上海市气象局","lon":"121.43695531","lat":"31.189891106","category":"253","category_name":"校园生活","address":"上海市徐汇区蒲西路166号"},{"poiid":"B2094655D26BA3FA4993","title":"圣爱681会所徐汇店","lon":"121.43705","lat":"31.19203","category":"74","category_name":"江苏菜","address":"徐汇区漕溪北路88号圣爱大厦2楼(近南丹路)"},{"poiid":"B2094757D065A2FA469D","title":"10號線陝西南路站","lon":"121.434292386","lat":"31.1892307294","category":"36","category_name":"地铁站","address":"上海10號線陝西南路站"},{"poiid":"B209475CD76CA5FF4198","title":"港汇恒隆广场","lon":"121.437339","lat":"31.188234","category":"500","category_name":"未知分类","address":"上海市 徐家汇"},{"poiid":"B2094654DA6DA0FF4292","title":"小上海餐厅","lon":"121.43804629194","lat":"31.189785273911","category":"76","category_name":"上海菜","address":"徐汇区漕溪北路439号建国宾馆1楼(南丹路口)"},{"poiid":"B2094757D06AA0F8479D","title":"春福饺子馆","lon":"121.43846","lat":"31.18932","category":"82","category_name":"东北菜","address":"徐汇区南丹东路275号(近漕溪北路)"},{"poiid":"B2094757D76BABF5489C","title":"晴美餐厅 南丹东路店","lon":"121.43791","lat":"31.18881","category":"68","category_name":"快餐厅","address":"徐汇区南丹东路300号亚都商务楼9号1楼(近漕溪北路)"},{"poiid":"B2094757D16FA3FB489D","title":"徐光启纪念馆","lon":"121.437608586","lat":"31.1898276411","category":"179","category_name":"音乐厅","address":"徐汇区南丹路17号(南丹路文定路)"},{"poiid":"B2094752D764ABFF499C","title":"巫山烤鱼","lon":"121.437035","lat":"31.191667","category":"247","category_name":"餐饮美食","address":"上海徐汇区南丹路157号"},{"poiid":"B2094654DA6CAAFE459B","title":"徐家汇天主教堂","lon":"121.43605","lat":"31.19117","category":"245","category_name":"教堂","address":"上海市徐汇区蒲西路158号"},{"poiid":"B2094757D06FA3FF439D","title":"建国宾馆","lon":"121.43825","lat":"31.18946","category":"214","category_name":"四星级宾馆","address":"徐汇区漕溪北路439号(南丹路口)"},{"poiid":"B2094757D06FA2F84392","title":"斯波特大酒店","lon":"121.43583","lat":"31.18869","category":"214","category_name":"四星级宾馆","address":"徐汇区南丹路15号(近漕溪北路)"},{"poiid":"B2094757D16FA1F44298","title":"百脑汇二期","lon":"121.438075986","lat":"31.1907753596","category":"47","category_name":"住宅区","address":"上海徐汇区漕溪北路339号"},{"poiid":"B2094757D569A2F54899","title":"王品台塑牛排(徐家汇店)","lon":"121.43779351","lat":"31.19176025","category":"94","category_name":"西餐厅","address":"徐汇区漕溪北路86号4楼(近徐家汇天主教堂)"},{"poiid":"B2094655D268A3F4459D","title":"西藏大厦万怡酒店","lon":"121.4347","lat":"31.19214","category":"250","category_name":"公园户外","address":"徐汇区虹桥路100号(恭城路虹桥路)"},{"poiid":"B2094757D06FABFC489F","title":"徐家匯天主堂","lon":"121.43679046","lat":"31.191080093","category":"500","category_name":"未知分类","address":"中国上海市徐匯區蒲西路158号"},{"poiid":"B2094757D069AAFF449A","title":"一号线徐家汇站","lon":"121.437045586","lat":"31.1880640066","category":"500","category_name":"未知分类","address":"上海徐家汇"},{"poiid":"B2094655D268A1F84193","title":"中金国际广场","lon":"121.4387","lat":"31.19066","category":"46","category_name":"楼宇","address":"崇文区夕照寺大街"},{"poiid":"B2094757D06FA4FE4592","title":"COSTA COFFEE(百脑汇店)","lon":"121.43794","lat":"31.19023","category":"65","category_name":"咖啡厅","address":"徐汇区漕溪北路8号东方商厦2楼B03-F02-1-047铺(近虹桥路)"},{"poiid":"B2094757D06FA4FF449D","title":"圆苑酒家(徐家汇店)","lon":"121.43453","lat":"31.19214","category":"76","category_name":"上海菜","address":"徐汇区虹桥路100号西藏大厦万怡酒店裙房2楼(虹桥路文定路)"},{"poiid":"B2094757D065A3FB409F","title":"国妇婴","lon":"121.43831458","lat":"31.191663677","category":"249","category_name":"购物服务","address":"上海市徐汇区虹桥路"},{"poiid":"B2094757D068A7FC419D","title":"徐汇区人民政府","lon":"121.43708249","lat":"31.188646284","category":"500","category_name":"未知分类","address":"上海漕溪北路336号"},{"poiid":"B2094753D56AA6FD479F","title":"鱼酷活鱼现烤","lon":"121.437927","lat":"31.189521","category":"247","category_name":"餐饮美食","address":"上海市 百脑汇二期三楼"},{"poiid":"B2094655D26EABFD4292","title":"建国宾馆九州厅","lon":"121.43804629194","lat":"31.189785273911","category":"247","category_name":"餐饮美食","address":"徐汇区漕溪北路439号建国宾馆查看地图"},{"poiid":"B2094757D16EA2FB499D","title":"新东亚酒店","lon":"121.43825018","lat":"31.18978414","category":"217","category_name":"旅馆招待所","address":"徐汇区南丹东路238号"},{"poiid":"B2094752D26EA1FA4393","title":"掌上韩品","lon":"121.435135","lat":"31.190304","category":"247","category_name":"餐饮美食","address":"星游城"},{"poiid":"B2094757D068A7FA4193","title":"光启公园","lon":"121.43457277","lat":"31.1895627398","category":"196","category_name":"公园","address":"徐汇区南丹路17号(近汇站路)"},{"poiid":"B2094757D464A7FE469D","title":"箸味三样菜 漕溪北路店","lon":"121.43695218209","lat":"31.188963779422","category":"71","category_name":"四川菜","address":"徐汇区漕溪北路451号(近南丹路)"},{"poiid":"B2094757D66DABF9409B","title":"上海建国宾馆(葵园)","lon":"121.437653586","lat":"31.1898036406","category":"217","category_name":"旅馆招待所","address":"上海市徐汇区漕溪北路439号(徐家汇地区 近南丹东路)"},{"poiid":"B2094751D364A6FB4993","title":"东来顺","lon":"121.4370822","lat":"31.1895184","category":"500","category_name":"未知分类","address":"徐汇区天钥桥路333号腾飞大厦二楼"},{"poiid":"B2094757D465A1F8469B","title":"MoMo Cafe 虹桥店","lon":"121.435599054","lat":"31.192727793","category":"94","category_name":"西餐厅","address":"卢湾区长乐路190号都市风情街B02店(近成都南路)"},{"poiid":"B2094757D06FA3FE4692","title":"徐家汇百老汇二期","lon":"121.43871964","lat":"31.190653006","category":"138","category_name":"家电电子卖场","address":"上海漕溪北路339号"},{"poiid":"B2094751D56CA7FD4299","title":"平壤玉流酒家","lon":"121.43799","lat":"31.18973","category":"96","category_name":"韩国料理","address":"徐汇区漕溪北路439号建国宾馆3楼(南丹路口)"},{"poiid":"B2094757D06FAAFB439F","title":"肯德基 KFC (中金店)","lon":"121.43775484","lat":"31.190009297","category":"68","category_name":"快餐厅","address":"徐汇区漕溪北路339号百脑汇B1楼(近虹桥路)"},{"poiid":"B2094750D769A3FA4292","title":"鲜缘GOFRESH","lon":"121.437","lat":"31.1913","category":"74","category_name":"江苏菜","address":"徐汇区漕溪北路88号圣爱大厦2-3楼(近徐家汇教堂)"},{"poiid":"B2094753D46BA3FE449E","title":"水蜜儿创意甜品店","lon":"121.438652","lat":"31.191101","category":"500","category_name":"未知分类","address":"上海市 上海市漕溪北路339号百脑汇二期B1"},{"poiid":"B2094757D66EA3F54992","title":"平壤玉流馆","lon":"121.43451558","lat":"31.191598675","category":"500","category_name":"未知分类","address":"上海市徐汇区虹桥路"},{"poiid":"B2094757D065A2FC489E","title":"风尚*秀","lon":"121.437647","lat":"31.189299","category":"148","category_name":"美容美发店","address":"上海徐汇区南丹东路386号(近漕溪北路)"},{"poiid":"B2094757D16CA6F54193","title":"はなまる","lon":"121.43872576","lat":"31.191208138","category":"500","category_name":"未知分类","address":"上海美罗城五番街"},{"poiid":"B2094752DB6CA5F4439B","title":"糖品","lon":"121.43608","lat":"31.192248","category":"500","category_name":"未知分类","address":"上海市 徐汇区天钥桥路133号"},{"poiid":"B2094752D368A7FC409D","title":"台塑王品","lon":"121.438644","lat":"31.189725","category":"247","category_name":"餐饮美食","address":null},{"poiid":"B2094654DB6AA7FA4998","title":"伊藤家(建国店)","lon":"121.43812","lat":"31.18977","category":"95","category_name":"日本料理","address":"徐汇区漕溪北路439号建国宾馆3楼(南丹路口)"},{"poiid":"B2094752D768ABFB4793","title":"上海虹桥机场T2航站楼","lon":"121.436425","lat":"31.189399","category":"500","category_name":"未知分类","address":null},{"poiid":"B209475CD36CA3F4449B","title":"上海老站","lon":"121.43811693897","lat":"31.191452542366","category":"76","category_name":"上海菜","address":"漕溪北路201号(近南丹路)"},{"poiid":"B2094757D068A3F4439F","title":"上海图书馆徐家汇藏书楼","lon":"121.437481517","lat":"31.1905439206","category":"181","category_name":"图书馆","address":"徐汇区漕溪北路80号(近蒲西路)"},{"poiid":"B2094757D169A6F9449E","title":"气象宾馆","lon":"121.436887586","lat":"31.1898273411","category":"36","category_name":"地铁站","address":"徐汇区蒲西路166号(近漕溪北路)"},{"poiid":"B209475CD769A0FF449F","title":"Pasta Inn","lon":"121.43845470101928","lat":"31.190811237399725","category":"247","category_name":"餐饮美食","address":"上海市徐汇区漕溪北路399号百脑汇二期台北东区B1"},{"poiid":"B2094757D16DA0F4429B","title":"康道推拿足道","lon":"121.43842658","lat":"31.190704658","category":"148","category_name":"美容美发店","address":"上海市南丹东路205号"},{"poiid":"B2094757D06FABFD4692","title":"快乐柠檬(飞洲国际店)","lon":"121.43687","lat":"31.18839","category":"113","category_name":"冷饮店","address":"徐汇区零陵路899号飞洲国际广场B1楼"},{"poiid":"B2094757D16FA3F5449A","title":"品纱礼服高级定制(徐汇店)","lon":"121.43818678","lat":"31.191693677","category":"249","category_name":"购物服务","address":"徐汇区漕溪北路41号汇嘉大厦21楼查看地图"},{"poiid":"B2094757D06FA6FF429D","title":"上海市气象局","lon":"121.43695531","lat":"31.189891106","category":"253","category_name":"校园生活","address":"上海市徐汇区蒲西路166号"},{"poiid":"B2094655D26BA3FA4993","title":"圣爱681会所徐汇店","lon":"121.43705","lat":"31.19203","category":"74","category_name":"江苏菜","address":"徐汇区漕溪北路88号圣爱大厦2楼(近南丹路)"},{"poiid":"B2094757D065A2FA469D","title":"10號線陝西南路站","lon":"121.434292386","lat":"31.1892307294","category":"36","category_name":"地铁站","address":"上海10號線陝西南路站"},{"poiid":"B209475CD76CA5FF4198","title":"港汇恒隆广场","lon":"121.437339","lat":"31.188234","category":"500","category_name":"未知分类","address":"上海市 徐家汇"},{"poiid":"B2094654DA6DA0FF4292","title":"小上海餐厅","lon":"121.43804629194","lat":"31.189785273911","category":"76","category_name":"上海菜","address":"徐汇区漕溪北路439号建国宾馆1楼(南丹路口)"},{"poiid":"B2094757D06AA0F8479D","title":"春福饺子馆","lon":"121.43846","lat":"31.18932","category":"82","category_name":"东北菜","address":"徐汇区南丹东路275号(近漕溪北路)"},{"poiid":"B2094757D76BABF5489C","title":"晴美餐厅 南丹东路店","lon":"121.43791","lat":"31.18881","category":"68","category_name":"快餐厅","address":"徐汇区南丹东路300号亚都商务楼9号1楼(近漕溪北路)"},{"poiid":"B2094757D16FA3FB489D","title":"徐光启纪念馆","lon":"121.437608586","lat":"31.1898276411","category":"179","category_name":"音乐厅","address":"徐汇区南丹路17号(南丹路文定路)"},{"poiid":"B2094752D764ABFF499C","title":"巫山烤鱼","lon":"121.437035","lat":"31.191667","category":"247","category_name":"餐饮美食","address":"上海徐汇区南丹路157号"}]