[{"poiid":"B2094750D565A7FA479F","title":"上海虹桥站","lon":"121.300277","lat":"31.243017","category":"500","category_name":"未知分类","address":null},{"poiid":"B2094757D06AA1FC4493","title":"金沙江高尔夫俱乐部","lon":"121.28961119","lat":"31.244364338","category":"500","category_name":"未知分类","address":"嘉定区金沙江西路6号(近博园路)"},{"poiid":"B2094655D264A0F94393","title":"绿地新江桥城","lon":"121.31257","lat":"31.236773","category":"47","category_name":"住宅区","address":"东至金园一路,西临嘉闵高架路,南至爱特路,北至鹤旋路"},{"poiid":"B2094757D464A7FF4198","title":"翠云馆","lon":"121.283983","lat":"31.239999","category":"76","category_name":"上海菜","address":"长宁区华漕镇纪友路298号(近纪王镇)"},{"poiid":"B2094757D068A6FA429D","title":"水岸秀苑","lon":"121.30912","lat":"31.239601","category":"47","category_name":"住宅区","address":"上海嘉定区鹤旋路500弄"},{"poiid":"B2094757D06FA4F44992","title":"中房公寓","lon":"121.31023","lat":"31.243568","category":"500","category_name":"未知分类","address":"上海金耀路333弄"},{"poiid":"B2094655D36CA5FB4793","title":"博园路金沙江西路","lon":"121.2905","lat":"31.24325","category":"38","category_name":"公交车站","address":""},{"poiid":"B2094757D068A2FA4898","title":"城杰苑","lon":"121.30789856","lat":"31.244244944","category":"252","category_name":"楼宇机构","address":"上海鹤霞路600弄"},{"poiid":"B2094655D264A4FB459D","title":"沪杭铁路立交桥","lon":"121.29045","lat":"31.25269","category":"250","category_name":"公园户外","address":""},{"poiid":"B2094757D168A1FE4693","title":"绿地•江桥新城","lon":"121.311217833","lat":"31.237062543","category":"47","category_name":"住宅区","address":"上海市嘉定区江桥金耀南路299弄"},{"poiid":"B2094752D069A2FD459D","title":"上海虹桥机场","lon":"121.290588","lat":"31.242896","category":"500","category_name":"未知分类","address":null},{"poiid":"B2094654DB6BA0FA479F","title":"华漕镇纪东村高家浜小区","lon":"121.28398","lat":"31.23999","category":"47","category_name":"住宅区","address":""},{"poiid":"B2094654D56AA4FC4098","title":"华漕镇杨家巷村","lon":"121.301","lat":"31.2297","category":"47","category_name":"住宅区","address":"华翔路3759号"},{"poiid":"B2094757D16DA1F8439D","title":"金沙新城社区卫生服务中心","lon":"121.31200556","lat":"31.24077987","category":"500","category_name":"未知分类","address":"上海市嘉定区金沙江西路金耀路"},{"poiid":"B2094757D16FA4FB4098","title":"REYN Warehouse","lon":"121.27989856","lat":"31.2353687565","category":"46","category_name":"楼宇","address":"上海閔行區紀翟路1525弄"},{"poiid":"B2094654D56AA4F44392","title":"银峰饭店","lon":"121.28202","lat":"31.24086","category":"257","category_name":"中餐厅","address":""},{"poiid":"B2094757D168A4F8489B","title":"华漕镇红卫村","lon":"121.28562027","lat":"31.233325213","category":"500","category_name":"未知分类","address":"上海闵行区红卫路"},{"poiid":"B2094757D66DA2FD4698","title":"coco奶茶","lon":"121.30616956","lat":"31.245150963","category":"247","category_name":"餐饮美食","address":"上海coco奶茶"},{"poiid":"B2094757D16EA2FB479A","title":"呷哺呷哺(长江西路店)","lon":"121.29178032","lat":"31.252329287","category":"247","category_name":"餐饮美食","address":"上海长江西路2211号"},{"poiid":"B2094655D36CA0FE409E","title":"金耀路鹤霞路","lon":"121.31066","lat":"31.2459","category":"38","category_name":"公交车站","address":""},{"poiid":"B2094757D165AAF9479F","title":"苏宁电器(纪友路店)","lon":"121.28484056","lat":"31.232825702","category":"138","category_name":"家电电子卖场","address":"上海市闵行区纪友路"},{"poiid":"B2094757D16EABFB449A","title":"上海市嘉定区星华公路","lon":"121.30736756","lat":"31.246244986","category":"500","category_name":"未知分类","address":"上海市嘉定区星华公路"},{"poiid":"B2094655D36CA0FE469F","title":"金沙江西路金耀路","lon":"121.31125","lat":"31.24113","category":"38","category_name":"公交车站","address":""},{"poiid":"B2094753D66AA6FB499A","title":"虹桥火车站","lon":"121.307746","lat":"31.241403","category":"500","category_name":"未知分类","address":"上海市 虹桥火车站"},{"poiid":"B2094654D56AA4F44398","title":"纪东村","lon":"121.27749","lat":"31.246082","category":"47","category_name":"住宅区","address":"纪中路58号"},{"poiid":"B2094757D16BA0F8439B","title":"继王敬老院","lon":"121.30362877","lat":"31.235252114","category":"615","category_name":"敬老院","address":"上海闵行区纪翟路2780号"},{"poiid":"B2094757D169A4F9449C","title":"江桥新绿地成","lon":"121.31331056","lat":"31.236429778","category":"500","category_name":"未知分类","address":"上海嘉定区金耀南路300弄"},{"poiid":"B2094757D16CA7FC409D","title":"赤峰路","lon":"121.28003984","lat":"31.242103173","category":"47","category_name":"住宅区","address":"上海曲阳新村"},{"poiid":"B2094654D56AA4F4409C","title":"华新中心邨","lon":"121.293","lat":"31.2252","category":"47","category_name":"住宅区","address":"纪翟路1135弄58支弄"},{"poiid":"B2094757D164A6F5479A","title":"江桥派出所","lon":"121.30950756","lat":"31.240913873","category":"609","category_name":"警察局","address":"上海市嘉定区星华公路"},{"poiid":"B2094654D56AA7FB4499","title":"祝家角居住小区","lon":"121.30775","lat":"31.235149","category":"47","category_name":"住宅区","address":"张家村星华路69号"},{"poiid":"B2094752D26AA1F9439E","title":"十三号线金运路站","lon":"121.301544","lat":"31.24765","category":"251","category_name":"出行住宿","address":"地铁十三号线金运路站"},{"poiid":"B2094654D56AA7FB469B","title":"张家村民之家","lon":"121.30917","lat":"31.237951","category":"47","category_name":"住宅区","address":"新华公路567号"},{"poiid":"B2094757D068A5F9409B","title":"丽晶阳光大厦","lon":"121.307744851","lat":"31.2321124756","category":"46","category_name":"楼宇","address":"上海武宁路19号"},{"poiid":"B2094654D56AABF44199","title":"春聚圆","lon":"121.27988","lat":"31.23461","category":"257","category_name":"中餐厅","address":""},{"poiid":"B2094654D56AA7FB4399","title":"上海超群有色金属有限公司","lon":"121.3041","lat":"31.24749","category":"263","category_name":"公司","address":"星华公路579"},{"poiid":"B2094757D065A0F54598","title":"诸瞿大润发","lon":"121.27836336","lat":"31.23083496","category":"500","category_name":"未知分类","address":"上海闵行区诸瞿保乐路"},{"poiid":"B2094655D36CA0FE4099","title":"金耀路","lon":"121.31072","lat":"31.24575","category":"38","category_name":"公交车站","address":""},{"poiid":"B2094654DB64A5F5479F","title":"金鹤小学","lon":"121.31319","lat":"31.23856","category":"56","category_name":"小学","address":"嘉定区鹤旋路386号(鹤旋路金耀路)"},{"poiid":"B2094757D068A6FD4799","title":"金耀新城","lon":"121.310664","lat":"31.245901","category":"47","category_name":"住宅区","address":"上海金耀路鹤霞路"},{"poiid":"B2094750DA6CA4FA469A","title":"封浜高级中学","lon":"121.311416","lat":"31.241239","category":"253","category_name":"校园生活","address":null},{"poiid":"B2094654DB6AA4FA409D","title":"上海先锋电声器材有限公司","lon":"121.30581","lat":"31.24979","category":"263","category_name":"公司","address":"上海市嘉定区星华公路642号(金沙江西路)"},{"poiid":"B2094753D665A0FC4999","title":"嘉定区封浜高级中学","lon":"121.311073","lat":"31.241207","category":"500","category_name":"未知分类","address":"上海市 金耀路255号"},{"poiid":"B2094757D164A7FB469B","title":"金鹤中学","lon":"121.3127824","lat":"31.2456937","category":"55","category_name":"中学","address":"嘉定区江桥镇鹤霞路136号(近金园一路)"},{"poiid":"B2094654D56AABF4429A","title":"良友便利NO.68","lon":"121.2765","lat":"31.2343","category":"117","category_name":"便民商店/便利店","address":""},{"poiid":"B2094757D66EA4F5489D","title":"金耀路烧烤摊","lon":"121.31175056","lat":"31.245696974","category":"247","category_name":"餐饮美食","address":"上海市嘉定区星华公路"},{"poiid":"B2094757D66BA7FD429C","title":"冰火岛 靖远店","lon":"121.299633054","lat":"31.255461793","category":"247","category_name":"餐饮美食","address":"嘉定区江桥镇靖远路1099弄1号(近榆中路)"},{"poiid":"B2094757D06AA2F8439C","title":"158终点站","lon":"121.311421","lat":"31.243388","category":"500","category_name":"未知分类","address":"上海金耀路"},{"poiid":"B2094654D56AA7FB469F","title":"快客No.6922","lon":"121.31324","lat":"31.23856","category":"117","category_name":"便民商店/便利店","address":"封浜镇"},{"poiid":"B2094654D56AA5FA4198","title":"明星饭店","lon":"121.27583","lat":"31.24391","category":"70","category_name":"综合酒楼","address":"纪中路"},{"poiid":"B2094750D565A7FA479F","title":"上海虹桥站","lon":"121.300277","lat":"31.243017","category":"500","category_name":"未知分类","address":null},{"poiid":"B2094757D06AA1FC4493","title":"金沙江高尔夫俱乐部","lon":"121.28961119","lat":"31.244364338","category":"500","category_name":"未知分类","address":"嘉定区金沙江西路6号(近博园路)"},{"poiid":"B2094655D264A0F94393","title":"绿地新江桥城","lon":"121.31257","lat":"31.236773","category":"47","category_name":"住宅区","address":"东至金园一路,西临嘉闵高架路,南至爱特路,北至鹤旋路"},{"poiid":"B2094757D464A7FF4198","title":"翠云馆","lon":"121.283983","lat":"31.239999","category":"76","category_name":"上海菜","address":"长宁区华漕镇纪友路298号(近纪王镇)"},{"poiid":"B2094757D068A6FA429D","title":"水岸秀苑","lon":"121.30912","lat":"31.239601","category":"47","category_name":"住宅区","address":"上海嘉定区鹤旋路500弄"},{"poiid":"B2094757D06FA4F44992","title":"中房公寓","lon":"121.31023","lat":"31.243568","category":"500","category_name":"未知分类","address":"上海金耀路333弄"},{"poiid":"B2094655D36CA5FB4793","title":"博园路金沙江西路","lon":"121.2905","lat":"31.24325","category":"38","category_name":"公交车站","address":""},{"poiid":"B2094757D068A2FA4898","title":"城杰苑","lon":"121.30789856","lat":"31.244244944","category":"252","category_name":"楼宇机构","address":"上海鹤霞路600弄"},{"poiid":"B2094655D264A4FB459D","title":"沪杭铁路立交桥","lon":"121.29045","lat":"31.25269","category":"250","category_name":"公园户外","address":""},{"poiid":"B2094757D168A1FE4693","title":"绿地•江桥新城","lon":"121.311217833","lat":"31.237062543","category":"47","category_name":"住宅区","address":"上海市嘉定区江桥金耀南路299弄"},{"poiid":"B2094752D069A2FD459D","title":"上海虹桥机场","lon":"121.290588","lat":"31.242896","category":"500","category_name":"未知分类","address":null},{"poiid":"B2094654DB6BA0FA479F","title":"华漕镇纪东村高家浜小区","lon":"121.28398","lat":"31.23999","category":"47","category_name":"住宅区","address":""},{"poiid":"B2094654D56AA4FC4098","title":"华漕镇杨家巷村","lon":"121.301","lat":"31.2297","category":"47","category_name":"住宅区","address":"华翔路3759号"},{"poiid":"B2094757D16DA1F8439D","title":"金沙新城社区卫生服务中心","lon":"121.31200556","lat":"31.24077987","category":"500","category_name":"未知分类","address":"上海市嘉定区金沙江西路金耀路"},{"poiid":"B2094757D16FA4FB4098","title":"REYN Warehouse","lon":"121.27989856","lat":"31.2353687565","category":"46","category_name":"楼宇","address":"上海閔行區紀翟路1525弄"},{"poiid":"B2094654D56AA4F44392","title":"银峰饭店","lon":"121.28202","lat":"31.24086","category":"257","category_name":"中餐厅","address":""},{"poiid":"B2094757D168A4F8489B","title":"华漕镇红卫村","lon":"121.28562027","lat":"31.233325213","category":"500","category_name":"未知分类","address":"上海闵行区红卫路"},{"poiid":"B2094757D66DA2FD4698","title":"coco奶茶","lon":"121.30616956","lat":"31.245150963","category":"247","category_name":"餐饮美食","address":"上海coco奶茶"},{"poiid":"B2094757D16EA2FB479A","title":"呷哺呷哺(长江西路店)","lon":"121.29178032","lat":"31.252329287","category":"247","category_name":"餐饮美食","address":"上海长江西路2211号"},{"poiid":"B2094655D36CA0FE409E","title":"金耀路鹤霞路","lon":"121.31066","lat":"31.2459","category":"38","category_name":"公交车站","address":""},{"poiid":"B2094757D165AAF9479F","title":"苏宁电器(纪友路店)","lon":"121.28484056","lat":"31.232825702","category":"138","category_name":"家电电子卖场","address":"上海市闵行区纪友路"},{"poiid":"B2094757D16EABFB449A","title":"上海市嘉定区星华公路","lon":"121.30736756","lat":"31.246244986","category":"500","category_name":"未知分类","address":"上海市嘉定区星华公路"},{"poiid":"B2094655D36CA0FE469F","title":"金沙江西路金耀路","lon":"121.31125","lat":"31.24113","category":"38","category_name":"公交车站","address":""},{"poiid":"B2094753D66AA6FB499A","title":"虹桥火车站","lon":"121.307746","lat":"31.241403","category":"500","category_name":"未知分类","address":"上海市 虹桥火车站"},{"poiid":"B2094654D56AA4F44398","title":"纪东村","lon":"121.27749","lat":"31.246082","category":"47","category_name":"住宅区","address":"纪中路58号"},{"poiid":"B2094757D16BA0F8439B","title":"继王敬老院","lon":"121.30362877","lat":"31.235252114","category":"615","category_name":"敬老院","address":"上海闵行区纪翟路2780号"},{"poiid":"B2094757D169A4F9449C","title":"江桥新绿地成","lon":"121.31331056","lat":"31.236429778","category":"500","category_name":"未知分类","address":"上海嘉定区金耀南路300弄"},{"poiid":"B2094757D16CA7FC409D","title":"赤峰路","lon":"121.28003984","lat":"31.242103173","category":"47","category_name":"住宅区","address":"上海曲阳新村"},{"poiid":"B2094654D56AA4F4409C","title":"华新中心邨","lon":"121.293","lat":"31.2252","category":"47","category_name":"住宅区","address":"纪翟路1135弄58支弄"},{"poiid":"B2094757D164A6F5479A","title":"江桥派出所","lon":"121.30950756","lat":"31.240913873","category":"609","category_name":"警察局","address":"上海市嘉定区星华公路"},{"poiid":"B2094654D56AA7FB4499","title":"祝家角居住小区","lon":"121.30775","lat":"31.235149","category":"47","category_name":"住宅区","address":"张家村星华路69号"},{"poiid":"B2094752D26AA1F9439E","title":"十三号线金运路站","lon":"121.301544","lat":"31.24765","category":"251","category_name":"出行住宿","address":"地铁十三号线金运路站"},{"poiid":"B2094654D56AA7FB469B","title":"张家村民之家","lon":"121.30917","lat":"31.237951","category":"47","category_name":"住宅区","address":"新华公路567号"},{"poiid":"B2094757D068A5F9409B","title":"丽晶阳光大厦","lon":"121.307744851","lat":"31.2321124756","category":"46","category_name":"楼宇","address":"上海武宁路19号"},{"poiid":"B2094654D56AABF44199","title":"春聚圆","lon":"121.27988","lat":"31.23461","category":"257","category_name":"中餐厅","address":""},{"poiid":"B2094654D56AA7FB4399","title":"上海超群有色金属有限公司","lon":"121.3041","lat":"31.24749","category":"263","category_name":"公司","address":"星华公路579"},{"poiid":"B2094757D065A0F54598","title":"诸瞿大润发","lon":"121.27836336","lat":"31.23083496","category":"500","category_name":"未知分类","address":"上海闵行区诸瞿保乐路"},{"poiid":"B2094655D36CA0FE4099","title":"金耀路","lon":"121.31072","lat":"31.24575","category":"38","category_name":"公交车站","address":""},{"poiid":"B2094654DB64A5F5479F","title":"金鹤小学","lon":"121.31319","lat":"31.23856","category":"56","category_name":"小学","address":"嘉定区鹤旋路386号(鹤旋路金耀路)"},{"poiid":"B2094757D068A6FD4799","title":"金耀新城","lon":"121.310664","lat":"31.245901","category":"47","category_name":"住宅区","address":"上海金耀路鹤霞路"},{"poiid":"B2094750DA6CA4FA469A","title":"封浜高级中学","lon":"121.311416","lat":"31.241239","category":"253","category_name":"校园生活","address":null},{"poiid":"B2094654DB6AA4FA409D","title":"上海先锋电声器材有限公司","lon":"121.30581","lat":"31.24979","category":"263","category_name":"公司","address":"上海市嘉定区星华公路642号(金沙江西路)"},{"poiid":"B2094753D665A0FC4999","title":"嘉定区封浜高级中学","lon":"121.311073","lat":"31.241207","category":"500","category_name":"未知分类","address":"上海市 金耀路255号"},{"poiid":"B2094757D164A7FB469B","title":"金鹤中学","lon":"121.3127824","lat":"31.2456937","category":"55","category_name":"中学","address":"嘉定区江桥镇鹤霞路136号(近金园一路)"},{"poiid":"B2094654D56AABF4429A","title":"良友便利NO.68","lon":"121.2765","lat":"31.2343","category":"117","category_name":"便民商店/便利店","address":""},{"poiid":"B2094757D66EA4F5489D","title":"金耀路烧烤摊","lon":"121.31175056","lat":"31.245696974","category":"247","category_name":"餐饮美食","address":"上海市嘉定区星华公路"},{"poiid":"B2094757D66BA7FD429C","title":"冰火岛 靖远店","lon":"121.299633054","lat":"31.255461793","category":"247","category_name":"餐饮美食","address":"嘉定区江桥镇靖远路1099弄1号(近榆中路)"},{"poiid":"B2094757D06AA2F8439C","title":"158终点站","lon":"121.311421","lat":"31.243388","category":"500","category_name":"未知分类","address":"上海金耀路"},{"poiid":"B2094654D56AA7FB469F","title":"快客No.6922","lon":"121.31324","lat":"31.23856","category":"117","category_name":"便民商店/便利店","address":"封浜镇"},{"poiid":"B2094654D56AA5FA4198","title":"明星饭店","lon":"121.27583","lat":"31.24391","category":"70","category_name":"综合酒楼","address":"纪中路"}]