[{"poiid":"B2094655D268A1F94593","title":"黄金城道步行街","lon":"121.3995","lat":"31.19536","category":"116","category_name":"特色商业街","address":""},{"poiid":"B2094654DB64AAFA4992","title":"东银中心A楼","lon":"121.39951","lat":"31.19861","category":"46","category_name":"楼宇","address":"红宝石路500号"},{"poiid":"B2094751D46BABFF499D","title":"鼎王无老养生锅","lon":"121.40132","lat":"31.1951","category":"86","category_name":"火锅店","address":"长宁区黄金城道677号(近银珠路)"},{"poiid":"B2094757D16CAAF8409C","title":"平壤高丽餐厅","lon":"121.397864586","lat":"31.19540175","category":"96","category_name":"韩国料理","address":"长宁区古北路1088号2楼(近中信银行)"},{"poiid":"B2094757D068A1FF419B","title":"鹿港老镇","lon":"121.39703258","lat":"31.195483751","category":"500","category_name":"未知分类","address":"上海市长宁区黄金城道778号(古北路)"},{"poiid":"B2094757D068AAFE4492","title":"星巴克(东银中心店)","lon":"121.399228","lat":"31.197697","category":"65","category_name":"咖啡厅","address":"长宁区红宝石路500号东银中心后(近金珠路)"},{"poiid":"B2094654DB64AAFA459E","title":"东银中心B楼","lon":"121.39952","lat":"31.19861","category":"46","category_name":"楼宇","address":"红宝石路500号"},{"poiid":"B2094655D268A1FC499D","title":"彩色盘","lon":"121.4002","lat":"31.1977","category":"65","category_name":"咖啡厅","address":""},{"poiid":"B2094757D069A2F8459E","title":"上海民航医院","lon":"121.40160399","lat":"31.19858697","category":"162","category_name":"医院","address":"上海虹桥路1448号"},{"poiid":"B2094757D66BA6F9489D","title":"早安巴黎 黄金城道店 Bon Matin","lon":"121.398810054","lat":"31.195088793","category":"112","category_name":"糕饼店","address":"长宁区黄金城道506号(近伊犁南路)"},{"poiid":"B2094757D068A5F4439D","title":"建青实验学校","lon":"121.4015","lat":"31.19208","category":"55","category_name":"中学","address":"上海长宁区古羊路900号  "},{"poiid":"B2094654DB64AAF4419A","title":"华越楼No.1","lon":"121.39712","lat":"31.19486","category":"99","category_name":"泰国／越南菜品餐厅","address":"长宁区黄金城道781号(近古北路)"},{"poiid":"B2094655D268A1F9469B","title":"巴黎贝甜 黄金城道店 Paris Baguette","lon":"121.399289054","lat":"31.195061793","category":"67","category_name":"甜品店","address":"长宁区黄金城道604号(近银珠路)"},{"poiid":"B2094757D06AABFF469D","title":"凯司令西点房(古北店)","lon":"121.39919","lat":"31.19504","category":"67","category_name":"甜品店","address":"长宁区黄金城道727号(近古北路)"},{"poiid":"B2094655D268A1F94592","title":"御翠豪庭(银珠路)","lon":"121.39987","lat":"31.19627","category":"47","category_name":"住宅区","address":"长宁区黄金城道688号"},{"poiid":"B2094753D36FA2F8419D","title":"70后饭吧","lon":"121.400135","lat":"31.196805","category":"247","category_name":"餐饮美食","address":"上海市 天山路900号汇金百货B1 F"},{"poiid":"B2094654DB64AAFB479F","title":"古北国际花园","lon":"121.40244","lat":"31.195948","category":"47","category_name":"住宅区","address":"上海市长宁区黄金城道600弄"},{"poiid":"B2094753D265A1FC489A","title":"鼎王无老锅(黄金城道店)","lon":"121.401106","lat":"31.195058","category":"86","category_name":"火锅店","address":"黄金城道677号(近银珠路)"},{"poiid":"B2094757D06AA1F44799","title":"强生古北花园","lon":"121.3999","lat":"31.194601","category":"47","category_name":"住宅区","address":"上海市长宁区黄金城道717弄"},{"poiid":"B2094757D069A1FD4998","title":"东银中心 Cisco System","lon":"121.399237","lat":"31.198137","category":"46","category_name":"楼宇","address":"上海长宁区红宝石路500号"},{"poiid":"B2094757D06BA3FB4893","title":"Munich Beer Garden(黄金城道店)","lon":"121.4008","lat":"31.195","category":"500","category_name":"未知分类","address":"上海长宁区黄金城道步行街中央大木屋  "},{"poiid":"B2094752D26AAAF54698","title":"糖朝","lon":"121.400162","lat":"31.196747","category":"247","category_name":"餐饮美食","address":"高岛屋百货"},{"poiid":"B2094757D068ABFC429E","title":"卡布拉蛋糕专卖店(古北店)","lon":"121.39712","lat":"31.19483","category":"67","category_name":"甜品店","address":"长宁区黄金城道818号(近古北路)"},{"poiid":"B2094757D06AA5FD4992","title":"里の水","lon":"121.39682","lat":"31.19424","category":"95","category_name":"日本料理","address":"长宁区荣华东道57弄1号102(近古北路)"},{"poiid":"B2094757D068A1FE4792","title":"CAT&amp;JAZZ","lon":"121.3972","lat":"31.1955","category":"260","category_name":"其他","address":"上海长宁区荣华东道79弄马赛花园3号301室(近古北路)"},{"poiid":"B2094751DA6EA7FD4599","title":"高岛屋","lon":"121.402434","lat":"31.197546","category":"249","category_name":"购物服务","address":"古北"},{"poiid":"B2094757D664A1F9459F","title":"万寿亭 古北店","lon":"121.3963","lat":"31.19385","category":"96","category_name":"韩国料理","address":"长宁区荣华东道19弄2号(近水城南路)"},{"poiid":"B2094757D069A7F9419C","title":"油画雕塑院美术馆","lon":"121.4004092","lat":"31.1987331","category":"184","category_name":"美术馆","address":"长宁区金珠路111号(近延安西路)"},{"poiid":"B2094757D665A1F54599","title":"纹兵卫 古北店","lon":"121.396817","lat":"31.193989","category":"95","category_name":"日本料理","address":"长宁区荣华东道57号里昂花园1号2号(近古北路)"},{"poiid":"B2094654D564A2F9409E","title":"函极博","lon":"121.39636","lat":"31.19426","category":"96","category_name":"韩国料理","address":"长宁区荣华东道60弄1号里昂花园内(近水城南路)"},{"poiid":"B2094757D068ABFF469A","title":"古北汤馆","lon":"121.39990096","lat":"31.193331359","category":"96","category_name":"韩国料理","address":"上海古北路1088号2楼"},{"poiid":"B2094757D06AA5FC4198","title":"DOLCEVITA(古北店)","lon":"121.40151","lat":"31.19493","category":"67","category_name":"甜品店","address":"长宁区黄金城道620号(银珠路口)"},{"poiid":"B2094753DB6FAAF4499B","title":"The TERRACE","lon":"121.401088","lat":"31.195306","category":"247","category_name":"餐饮美食","address":"上海长宁区黄金城道693号（靠近银珠路）"},{"poiid":"B2094654DB65A1FA4692","title":"康乃馨食府","lon":"121.39944","lat":"31.1981","category":"76","category_name":"上海菜","address":"长宁区虹桥路1446号古北湾大酒店2楼(近古北路)"},{"poiid":"B2094757D16CA6FB469A","title":"金色贝拉维","lon":"121.40192","lat":"31.194048","category":"247","category_name":"餐饮美食","address":"上海市长宁区黄金城道路699弄"},{"poiid":"B2094757D065A7F8499A","title":"康友四季保健会所(黄金城道店)","lon":"121.39956","lat":"31.19507","category":"149","category_name":"洗浴推拿场所","address":"长宁区黄金城道735号201室(近银珠路)"},{"poiid":"B2094750D665ABF84099","title":"上海咖啡馆","lon":"121.4","lat":"31.1954","category":"260","category_name":"其他","address":"长宁区黄金城道690号"},{"poiid":"B2094757D064AAF5429F","title":"安宫越南餐厅","lon":"121.40034269","lat":"31.194266097","category":"247","category_name":"餐饮美食","address":"上海古羊路姚虹路"},{"poiid":"B2094655D268A3FB449D","title":"马来西亚总领事馆(红宝石路)","lon":"121.39944","lat":"31.19811","category":"252","category_name":"楼宇机构","address":"红宝石路500号东银中心9层01"},{"poiid":"B2094757D06AA1FA489A","title":"泰勒瓦品质红酒(古北黄金城店)","lon":"121.40218","lat":"31.19471","category":"500","category_name":"未知分类","address":"长宁区黄金城道598号(近玛瑙路)"},{"poiid":"B2094757D568A6FE499E","title":"华氏大药房(步行街)","lon":"121.39890055","lat":"31.19520779","category":"162","category_name":"医院","address":"黄金城道743"},{"poiid":"B2094757D664A3F8449E","title":"猫与爵士 CAT&JAZZ","lon":"121.397601054","lat":"31.194368793","category":"260","category_name":"其他","address":"长宁区荣华东道79弄马赛花园3号301室(近古北路)"},{"poiid":"B2094757D16FA3F54099","title":"coco壹番屋","lon":"121.39866638","lat":"31.19517517","category":"247","category_name":"餐饮美食","address":"上海古北家乐福店"},{"poiid":"B2094757D56CA0FA439C","title":"必胜客 Pizza Hut","lon":"121.397638","lat":"31.19517","category":"247","category_name":"餐饮美食","address":"古北路1088号1楼3楼近黄金城道"},{"poiid":"B2094757D16BA7F8469F","title":"我家小菜","lon":"121.40091858","lat":"31.195772757","category":"247","category_name":"餐饮美食","address":"上海市虹口区广中路，中山北路"},{"poiid":"B2094654D56BABFF4293","title":"强生古北花园(1号门)","lon":"121.40021","lat":"31.19384","category":"47","category_name":"住宅区","address":"银珠路95"},{"poiid":"B2094757D065A5F54893","title":"韩艺咖啡 neighborhood grinds","lon":"121.407416","lat":"31.193611","category":"260","category_name":"其他","address":"长宁区黄金城道572号(近玛瑙路)"},{"poiid":"B2094757D568A5FB419C","title":"诗泥SPA","lon":"121.40113715","lat":"31.19497423","category":"148","category_name":"美容美发店","address":"黄金城道631"},{"poiid":"B2094757D06AA0FD459D","title":"康骏保健中心(古北一店)","lon":"121.39804","lat":"31.19492","category":"149","category_name":"洗浴推拿场所","address":"上海长宁区古北路1078号黄金豪园2楼2F座(黄金城道口)"},{"poiid":"B2094654D564A2F84999","title":"南海活鱼","lon":"121.397218","lat":"31.194359","category":"96","category_name":"韩国料理","address":"上海长宁区荣华东道60弄里昂花园2号(近古北路)  "},{"poiid":"B2094655D268A1F94593","title":"黄金城道步行街","lon":"121.3995","lat":"31.19536","category":"116","category_name":"特色商业街","address":""},{"poiid":"B2094654DB64AAFA4992","title":"东银中心A楼","lon":"121.39951","lat":"31.19861","category":"46","category_name":"楼宇","address":"红宝石路500号"},{"poiid":"B2094751D46BABFF499D","title":"鼎王无老养生锅","lon":"121.40132","lat":"31.1951","category":"86","category_name":"火锅店","address":"长宁区黄金城道677号(近银珠路)"},{"poiid":"B2094757D16CAAF8409C","title":"平壤高丽餐厅","lon":"121.397864586","lat":"31.19540175","category":"96","category_name":"韩国料理","address":"长宁区古北路1088号2楼(近中信银行)"},{"poiid":"B2094757D068A1FF419B","title":"鹿港老镇","lon":"121.39703258","lat":"31.195483751","category":"500","category_name":"未知分类","address":"上海市长宁区黄金城道778号(古北路)"},{"poiid":"B2094757D068AAFE4492","title":"星巴克(东银中心店)","lon":"121.399228","lat":"31.197697","category":"65","category_name":"咖啡厅","address":"长宁区红宝石路500号东银中心后(近金珠路)"},{"poiid":"B2094654DB64AAFA459E","title":"东银中心B楼","lon":"121.39952","lat":"31.19861","category":"46","category_name":"楼宇","address":"红宝石路500号"},{"poiid":"B2094655D268A1FC499D","title":"彩色盘","lon":"121.4002","lat":"31.1977","category":"65","category_name":"咖啡厅","address":""},{"poiid":"B2094757D069A2F8459E","title":"上海民航医院","lon":"121.40160399","lat":"31.19858697","category":"162","category_name":"医院","address":"上海虹桥路1448号"},{"poiid":"B2094757D66BA6F9489D","title":"早安巴黎 黄金城道店 Bon Matin","lon":"121.398810054","lat":"31.195088793","category":"112","category_name":"糕饼店","address":"长宁区黄金城道506号(近伊犁南路)"},{"poiid":"B2094757D068A5F4439D","title":"建青实验学校","lon":"121.4015","lat":"31.19208","category":"55","category_name":"中学","address":"上海长宁区古羊路900号  "},{"poiid":"B2094654DB64AAF4419A","title":"华越楼No.1","lon":"121.39712","lat":"31.19486","category":"99","category_name":"泰国／越南菜品餐厅","address":"长宁区黄金城道781号(近古北路)"},{"poiid":"B2094655D268A1F9469B","title":"巴黎贝甜 黄金城道店 Paris Baguette","lon":"121.399289054","lat":"31.195061793","category":"67","category_name":"甜品店","address":"长宁区黄金城道604号(近银珠路)"},{"poiid":"B2094757D06AABFF469D","title":"凯司令西点房(古北店)","lon":"121.39919","lat":"31.19504","category":"67","category_name":"甜品店","address":"长宁区黄金城道727号(近古北路)"},{"poiid":"B2094655D268A1F94592","title":"御翠豪庭(银珠路)","lon":"121.39987","lat":"31.19627","category":"47","category_name":"住宅区","address":"长宁区黄金城道688号"},{"poiid":"B2094753D36FA2F8419D","title":"70后饭吧","lon":"121.400135","lat":"31.196805","category":"247","category_name":"餐饮美食","address":"上海市 天山路900号汇金百货B1 F"},{"poiid":"B2094654DB64AAFB479F","title":"古北国际花园","lon":"121.40244","lat":"31.195948","category":"47","category_name":"住宅区","address":"上海市长宁区黄金城道600弄"},{"poiid":"B2094753D265A1FC489A","title":"鼎王无老锅(黄金城道店)","lon":"121.401106","lat":"31.195058","category":"86","category_name":"火锅店","address":"黄金城道677号(近银珠路)"},{"poiid":"B2094757D06AA1F44799","title":"强生古北花园","lon":"121.3999","lat":"31.194601","category":"47","category_name":"住宅区","address":"上海市长宁区黄金城道717弄"},{"poiid":"B2094757D069A1FD4998","title":"东银中心 Cisco System","lon":"121.399237","lat":"31.198137","category":"46","category_name":"楼宇","address":"上海长宁区红宝石路500号"},{"poiid":"B2094757D06BA3FB4893","title":"Munich Beer Garden(黄金城道店)","lon":"121.4008","lat":"31.195","category":"500","category_name":"未知分类","address":"上海长宁区黄金城道步行街中央大木屋  "},{"poiid":"B2094752D26AAAF54698","title":"糖朝","lon":"121.400162","lat":"31.196747","category":"247","category_name":"餐饮美食","address":"高岛屋百货"},{"poiid":"B2094757D068ABFC429E","title":"卡布拉蛋糕专卖店(古北店)","lon":"121.39712","lat":"31.19483","category":"67","category_name":"甜品店","address":"长宁区黄金城道818号(近古北路)"},{"poiid":"B2094757D06AA5FD4992","title":"里の水","lon":"121.39682","lat":"31.19424","category":"95","category_name":"日本料理","address":"长宁区荣华东道57弄1号102(近古北路)"},{"poiid":"B2094757D068A1FE4792","title":"CAT&amp;JAZZ","lon":"121.3972","lat":"31.1955","category":"260","category_name":"其他","address":"上海长宁区荣华东道79弄马赛花园3号301室(近古北路)"},{"poiid":"B2094751DA6EA7FD4599","title":"高岛屋","lon":"121.402434","lat":"31.197546","category":"249","category_name":"购物服务","address":"古北"},{"poiid":"B2094757D664A1F9459F","title":"万寿亭 古北店","lon":"121.3963","lat":"31.19385","category":"96","category_name":"韩国料理","address":"长宁区荣华东道19弄2号(近水城南路)"},{"poiid":"B2094757D069A7F9419C","title":"油画雕塑院美术馆","lon":"121.4004092","lat":"31.1987331","category":"184","category_name":"美术馆","address":"长宁区金珠路111号(近延安西路)"},{"poiid":"B2094757D665A1F54599","title":"纹兵卫 古北店","lon":"121.396817","lat":"31.193989","category":"95","category_name":"日本料理","address":"长宁区荣华东道57号里昂花园1号2号(近古北路)"},{"poiid":"B2094654D564A2F9409E","title":"函极博","lon":"121.39636","lat":"31.19426","category":"96","category_name":"韩国料理","address":"长宁区荣华东道60弄1号里昂花园内(近水城南路)"},{"poiid":"B2094757D068ABFF469A","title":"古北汤馆","lon":"121.39990096","lat":"31.193331359","category":"96","category_name":"韩国料理","address":"上海古北路1088号2楼"},{"poiid":"B2094757D06AA5FC4198","title":"DOLCEVITA(古北店)","lon":"121.40151","lat":"31.19493","category":"67","category_name":"甜品店","address":"长宁区黄金城道620号(银珠路口)"},{"poiid":"B2094753DB6FAAF4499B","title":"The TERRACE","lon":"121.401088","lat":"31.195306","category":"247","category_name":"餐饮美食","address":"上海长宁区黄金城道693号（靠近银珠路）"},{"poiid":"B2094654DB65A1FA4692","title":"康乃馨食府","lon":"121.39944","lat":"31.1981","category":"76","category_name":"上海菜","address":"长宁区虹桥路1446号古北湾大酒店2楼(近古北路)"},{"poiid":"B2094757D16CA6FB469A","title":"金色贝拉维","lon":"121.40192","lat":"31.194048","category":"247","category_name":"餐饮美食","address":"上海市长宁区黄金城道路699弄"},{"poiid":"B2094757D065A7F8499A","title":"康友四季保健会所(黄金城道店)","lon":"121.39956","lat":"31.19507","category":"149","category_name":"洗浴推拿场所","address":"长宁区黄金城道735号201室(近银珠路)"},{"poiid":"B2094750D665ABF84099","title":"上海咖啡馆","lon":"121.4","lat":"31.1954","category":"260","category_name":"其他","address":"长宁区黄金城道690号"},{"poiid":"B2094757D064AAF5429F","title":"安宫越南餐厅","lon":"121.40034269","lat":"31.194266097","category":"247","category_name":"餐饮美食","address":"上海古羊路姚虹路"},{"poiid":"B2094655D268A3FB449D","title":"马来西亚总领事馆(红宝石路)","lon":"121.39944","lat":"31.19811","category":"252","category_name":"楼宇机构","address":"红宝石路500号东银中心9层01"},{"poiid":"B2094757D06AA1FA489A","title":"泰勒瓦品质红酒(古北黄金城店)","lon":"121.40218","lat":"31.19471","category":"500","category_name":"未知分类","address":"长宁区黄金城道598号(近玛瑙路)"},{"poiid":"B2094757D568A6FE499E","title":"华氏大药房(步行街)","lon":"121.39890055","lat":"31.19520779","category":"162","category_name":"医院","address":"黄金城道743"},{"poiid":"B2094757D664A3F8449E","title":"猫与爵士 CAT&JAZZ","lon":"121.397601054","lat":"31.194368793","category":"260","category_name":"其他","address":"长宁区荣华东道79弄马赛花园3号301室(近古北路)"},{"poiid":"B2094757D16FA3F54099","title":"coco壹番屋","lon":"121.39866638","lat":"31.19517517","category":"247","category_name":"餐饮美食","address":"上海古北家乐福店"},{"poiid":"B2094757D56CA0FA439C","title":"必胜客 Pizza Hut","lon":"121.397638","lat":"31.19517","category":"247","category_name":"餐饮美食","address":"古北路1088号1楼3楼近黄金城道"},{"poiid":"B2094757D16BA7F8469F","title":"我家小菜","lon":"121.40091858","lat":"31.195772757","category":"247","category_name":"餐饮美食","address":"上海市虹口区广中路，中山北路"},{"poiid":"B2094654D56BABFF4293","title":"强生古北花园(1号门)","lon":"121.40021","lat":"31.19384","category":"47","category_name":"住宅区","address":"银珠路95"},{"poiid":"B2094757D065A5F54893","title":"韩艺咖啡 neighborhood grinds","lon":"121.407416","lat":"31.193611","category":"260","category_name":"其他","address":"长宁区黄金城道572号(近玛瑙路)"},{"poiid":"B2094757D568A5FB419C","title":"诗泥SPA","lon":"121.40113715","lat":"31.19497423","category":"148","category_name":"美容美发店","address":"黄金城道631"},{"poiid":"B2094757D06AA0FD459D","title":"康骏保健中心(古北一店)","lon":"121.39804","lat":"31.19492","category":"149","category_name":"洗浴推拿场所","address":"上海长宁区古北路1078号黄金豪园2楼2F座(黄金城道口)"},{"poiid":"B2094654D564A2F84999","title":"南海活鱼","lon":"121.397218","lat":"31.194359","category":"96","category_name":"韩国料理","address":"上海长宁区荣华东道60弄里昂花园2号(近古北路)  "},{"poiid":"B2094655D268A1F94593","title":"黄金城道步行街","lon":"121.3995","lat":"31.19536","category":"116","category_name":"特色商业街","address":""},{"poiid":"B2094654DB64AAFA4992","title":"东银中心A楼","lon":"121.39951","lat":"31.19861","category":"46","category_name":"楼宇","address":"红宝石路500号"},{"poiid":"B2094751D46BABFF499D","title":"鼎王无老养生锅","lon":"121.40132","lat":"31.1951","category":"86","category_name":"火锅店","address":"长宁区黄金城道677号(近银珠路)"},{"poiid":"B2094757D16CAAF8409C","title":"平壤高丽餐厅","lon":"121.397864586","lat":"31.19540175","category":"96","category_name":"韩国料理","address":"长宁区古北路1088号2楼(近中信银行)"},{"poiid":"B2094757D068A1FF419B","title":"鹿港老镇","lon":"121.39703258","lat":"31.195483751","category":"500","category_name":"未知分类","address":"上海市长宁区黄金城道778号(古北路)"},{"poiid":"B2094757D068AAFE4492","title":"星巴克(东银中心店)","lon":"121.399228","lat":"31.197697","category":"65","category_name":"咖啡厅","address":"长宁区红宝石路500号东银中心后(近金珠路)"},{"poiid":"B2094654DB64AAFA459E","title":"东银中心B楼","lon":"121.39952","lat":"31.19861","category":"46","category_name":"楼宇","address":"红宝石路500号"},{"poiid":"B2094655D268A1FC499D","title":"彩色盘","lon":"121.4002","lat":"31.1977","category":"65","category_name":"咖啡厅","address":""},{"poiid":"B2094757D069A2F8459E","title":"上海民航医院","lon":"121.40160399","lat":"31.19858697","category":"162","category_name":"医院","address":"上海虹桥路1448号"},{"poiid":"B2094757D66BA6F9489D","title":"早安巴黎 黄金城道店 Bon Matin","lon":"121.398810054","lat":"31.195088793","category":"112","category_name":"糕饼店","address":"长宁区黄金城道506号(近伊犁南路)"},{"poiid":"B2094757D068A5F4439D","title":"建青实验学校","lon":"121.4015","lat":"31.19208","category":"55","category_name":"中学","address":"上海长宁区古羊路900号  "},{"poiid":"B2094654DB64AAF4419A","title":"华越楼No.1","lon":"121.39712","lat":"31.19486","category":"99","category_name":"泰国／越南菜品餐厅","address":"长宁区黄金城道781号(近古北路)"},{"poiid":"B2094655D268A1F9469B","title":"巴黎贝甜 黄金城道店 Paris Baguette","lon":"121.399289054","lat":"31.195061793","category":"67","category_name":"甜品店","address":"长宁区黄金城道604号(近银珠路)"},{"poiid":"B2094757D06AABFF469D","title":"凯司令西点房(古北店)","lon":"121.39919","lat":"31.19504","category":"67","category_name":"甜品店","address":"长宁区黄金城道727号(近古北路)"},{"poiid":"B2094655D268A1F94592","title":"御翠豪庭(银珠路)","lon":"121.39987","lat":"31.19627","category":"47","category_name":"住宅区","address":"长宁区黄金城道688号"},{"poiid":"B2094753D36FA2F8419D","title":"70后饭吧","lon":"121.400135","lat":"31.196805","category":"247","category_name":"餐饮美食","address":"上海市 天山路900号汇金百货B1 F"},{"poiid":"B2094654DB64AAFB479F","title":"古北国际花园","lon":"121.40244","lat":"31.195948","category":"47","category_name":"住宅区","address":"上海市长宁区黄金城道600弄"},{"poiid":"B2094753D265A1FC489A","title":"鼎王无老锅(黄金城道店)","lon":"121.401106","lat":"31.195058","category":"86","category_name":"火锅店","address":"黄金城道677号(近银珠路)"},{"poiid":"B2094757D06AA1F44799","title":"强生古北花园","lon":"121.3999","lat":"31.194601","category":"47","category_name":"住宅区","address":"上海市长宁区黄金城道717弄"},{"poiid":"B2094757D069A1FD4998","title":"东银中心 Cisco System","lon":"121.399237","lat":"31.198137","category":"46","category_name":"楼宇","address":"上海长宁区红宝石路500号"},{"poiid":"B2094757D06BA3FB4893","title":"Munich Beer Garden(黄金城道店)","lon":"121.4008","lat":"31.195","category":"500","category_name":"未知分类","address":"上海长宁区黄金城道步行街中央大木屋  "},{"poiid":"B2094752D26AAAF54698","title":"糖朝","lon":"121.400162","lat":"31.196747","category":"247","category_name":"餐饮美食","address":"高岛屋百货"},{"poiid":"B2094757D068ABFC429E","title":"卡布拉蛋糕专卖店(古北店)","lon":"121.39712","lat":"31.19483","category":"67","category_name":"甜品店","address":"长宁区黄金城道818号(近古北路)"},{"poiid":"B2094757D06AA5FD4992","title":"里の水","lon":"121.39682","lat":"31.19424","category":"95","category_name":"日本料理","address":"长宁区荣华东道57弄1号102(近古北路)"},{"poiid":"B2094757D068A1FE4792","title":"CAT&amp;JAZZ","lon":"121.3972","lat":"31.1955","category":"260","category_name":"其他","address":"上海长宁区荣华东道79弄马赛花园3号301室(近古北路)"},{"poiid":"B2094751DA6EA7FD4599","title":"高岛屋","lon":"121.402434","lat":"31.197546","category":"249","category_name":"购物服务","address":"古北"},{"poiid":"B2094757D664A1F9459F","title":"万寿亭 古北店","lon":"121.3963","lat":"31.19385","category":"96","category_name":"韩国料理","address":"长宁区荣华东道19弄2号(近水城南路)"},{"poiid":"B2094757D069A7F9419C","title":"油画雕塑院美术馆","lon":"121.4004092","lat":"31.1987331","category":"184","category_name":"美术馆","address":"长宁区金珠路111号(近延安西路)"},{"poiid":"B2094757D665A1F54599","title":"纹兵卫 古北店","lon":"121.396817","lat":"31.193989","category":"95","category_name":"日本料理","address":"长宁区荣华东道57号里昂花园1号2号(近古北路)"},{"poiid":"B2094654D564A2F9409E","title":"函极博","lon":"121.39636","lat":"31.19426","category":"96","category_name":"韩国料理","address":"长宁区荣华东道60弄1号里昂花园内(近水城南路)"},{"poiid":"B2094757D068ABFF469A","title":"古北汤馆","lon":"121.39990096","lat":"31.193331359","category":"96","category_name":"韩国料理","address":"上海古北路1088号2楼"},{"poiid":"B2094757D06AA5FC4198","title":"DOLCEVITA(古北店)","lon":"121.40151","lat":"31.19493","category":"67","category_name":"甜品店","address":"长宁区黄金城道620号(银珠路口)"},{"poiid":"B2094753DB6FAAF4499B","title":"The TERRACE","lon":"121.401088","lat":"31.195306","category":"247","category_name":"餐饮美食","address":"上海长宁区黄金城道693号（靠近银珠路）"},{"poiid":"B2094654DB65A1FA4692","title":"康乃馨食府","lon":"121.39944","lat":"31.1981","category":"76","category_name":"上海菜","address":"长宁区虹桥路1446号古北湾大酒店2楼(近古北路)"},{"poiid":"B2094757D16CA6FB469A","title":"金色贝拉维","lon":"121.40192","lat":"31.194048","category":"247","category_name":"餐饮美食","address":"上海市长宁区黄金城道路699弄"},{"poiid":"B2094757D065A7F8499A","title":"康友四季保健会所(黄金城道店)","lon":"121.39956","lat":"31.19507","category":"149","category_name":"洗浴推拿场所","address":"长宁区黄金城道735号201室(近银珠路)"},{"poiid":"B2094750D665ABF84099","title":"上海咖啡馆","lon":"121.4","lat":"31.1954","category":"260","category_name":"其他","address":"长宁区黄金城道690号"},{"poiid":"B2094757D064AAF5429F","title":"安宫越南餐厅","lon":"121.40034269","lat":"31.194266097","category":"247","category_name":"餐饮美食","address":"上海古羊路姚虹路"},{"poiid":"B2094655D268A3FB449D","title":"马来西亚总领事馆(红宝石路)","lon":"121.39944","lat":"31.19811","category":"252","category_name":"楼宇机构","address":"红宝石路500号东银中心9层01"},{"poiid":"B2094757D06AA1FA489A","title":"泰勒瓦品质红酒(古北黄金城店)","lon":"121.40218","lat":"31.19471","category":"500","category_name":"未知分类","address":"长宁区黄金城道598号(近玛瑙路)"},{"poiid":"B2094757D568A6FE499E","title":"华氏大药房(步行街)","lon":"121.39890055","lat":"31.19520779","category":"162","category_name":"医院","address":"黄金城道743"},{"poiid":"B2094757D664A3F8449E","title":"猫与爵士 CAT&JAZZ","lon":"121.397601054","lat":"31.194368793","category":"260","category_name":"其他","address":"长宁区荣华东道79弄马赛花园3号301室(近古北路)"},{"poiid":"B2094757D16FA3F54099","title":"coco壹番屋","lon":"121.39866638","lat":"31.19517517","category":"247","category_name":"餐饮美食","address":"上海古北家乐福店"},{"poiid":"B2094757D56CA0FA439C","title":"必胜客 Pizza Hut","lon":"121.397638","lat":"31.19517","category":"247","category_name":"餐饮美食","address":"古北路1088号1楼3楼近黄金城道"},{"poiid":"B2094757D16BA7F8469F","title":"我家小菜","lon":"121.40091858","lat":"31.195772757","category":"247","category_name":"餐饮美食","address":"上海市虹口区广中路，中山北路"},{"poiid":"B2094654D56BABFF4293","title":"强生古北花园(1号门)","lon":"121.40021","lat":"31.19384","category":"47","category_name":"住宅区","address":"银珠路95"},{"poiid":"B2094757D065A5F54893","title":"韩艺咖啡 neighborhood grinds","lon":"121.407416","lat":"31.193611","category":"260","category_name":"其他","address":"长宁区黄金城道572号(近玛瑙路)"},{"poiid":"B2094757D568A5FB419C","title":"诗泥SPA","lon":"121.40113715","lat":"31.19497423","category":"148","category_name":"美容美发店","address":"黄金城道631"},{"poiid":"B2094757D06AA0FD459D","title":"康骏保健中心(古北一店)","lon":"121.39804","lat":"31.19492","category":"149","category_name":"洗浴推拿场所","address":"上海长宁区古北路1078号黄金豪园2楼2F座(黄金城道口)"},{"poiid":"B2094654D564A2F84999","title":"南海活鱼","lon":"121.397218","lat":"31.194359","category":"96","category_name":"韩国料理","address":"上海长宁区荣华东道60弄里昂花园2号(近古北路)  "},{"poiid":"B2094655D268A1F94593","title":"黄金城道步行街","lon":"121.3995","lat":"31.19536","category":"116","category_name":"特色商业街","address":""},{"poiid":"B2094654DB64AAFA4992","title":"东银中心A楼","lon":"121.39951","lat":"31.19861","category":"46","category_name":"楼宇","address":"红宝石路500号"},{"poiid":"B2094751D46BABFF499D","title":"鼎王无老养生锅","lon":"121.40132","lat":"31.1951","category":"86","category_name":"火锅店","address":"长宁区黄金城道677号(近银珠路)"},{"poiid":"B2094757D16CAAF8409C","title":"平壤高丽餐厅","lon":"121.397864586","lat":"31.19540175","category":"96","category_name":"韩国料理","address":"长宁区古北路1088号2楼(近中信银行)"},{"poiid":"B2094757D068A1FF419B","title":"鹿港老镇","lon":"121.39703258","lat":"31.195483751","category":"500","category_name":"未知分类","address":"上海市长宁区黄金城道778号(古北路)"},{"poiid":"B2094757D068AAFE4492","title":"星巴克(东银中心店)","lon":"121.399228","lat":"31.197697","category":"65","category_name":"咖啡厅","address":"长宁区红宝石路500号东银中心后(近金珠路)"},{"poiid":"B2094654DB64AAFA459E","title":"东银中心B楼","lon":"121.39952","lat":"31.19861","category":"46","category_name":"楼宇","address":"红宝石路500号"},{"poiid":"B2094655D268A1FC499D","title":"彩色盘","lon":"121.4002","lat":"31.1977","category":"65","category_name":"咖啡厅","address":""},{"poiid":"B2094757D069A2F8459E","title":"上海民航医院","lon":"121.40160399","lat":"31.19858697","category":"162","category_name":"医院","address":"上海虹桥路1448号"},{"poiid":"B2094757D66BA6F9489D","title":"早安巴黎 黄金城道店 Bon Matin","lon":"121.398810054","lat":"31.195088793","category":"112","category_name":"糕饼店","address":"长宁区黄金城道506号(近伊犁南路)"},{"poiid":"B2094757D068A5F4439D","title":"建青实验学校","lon":"121.4015","lat":"31.19208","category":"55","category_name":"中学","address":"上海长宁区古羊路900号  "},{"poiid":"B2094654DB64AAF4419A","title":"华越楼No.1","lon":"121.39712","lat":"31.19486","category":"99","category_name":"泰国／越南菜品餐厅","address":"长宁区黄金城道781号(近古北路)"},{"poiid":"B2094655D268A1F9469B","title":"巴黎贝甜 黄金城道店 Paris Baguette","lon":"121.399289054","lat":"31.195061793","category":"67","category_name":"甜品店","address":"长宁区黄金城道604号(近银珠路)"},{"poiid":"B2094757D06AABFF469D","title":"凯司令西点房(古北店)","lon":"121.39919","lat":"31.19504","category":"67","category_name":"甜品店","address":"长宁区黄金城道727号(近古北路)"},{"poiid":"B2094655D268A1F94592","title":"御翠豪庭(银珠路)","lon":"121.39987","lat":"31.19627","category":"47","category_name":"住宅区","address":"长宁区黄金城道688号"},{"poiid":"B2094753D36FA2F8419D","title":"70后饭吧","lon":"121.400135","lat":"31.196805","category":"247","category_name":"餐饮美食","address":"上海市 天山路900号汇金百货B1 F"},{"poiid":"B2094654DB64AAFB479F","title":"古北国际花园","lon":"121.40244","lat":"31.195948","category":"47","category_name":"住宅区","address":"上海市长宁区黄金城道600弄"},{"poiid":"B2094753D265A1FC489A","title":"鼎王无老锅(黄金城道店)","lon":"121.401106","lat":"31.195058","category":"86","category_name":"火锅店","address":"黄金城道677号(近银珠路)"},{"poiid":"B2094757D06AA1F44799","title":"强生古北花园","lon":"121.3999","lat":"31.194601","category":"47","category_name":"住宅区","address":"上海市长宁区黄金城道717弄"},{"poiid":"B2094757D069A1FD4998","title":"东银中心 Cisco System","lon":"121.399237","lat":"31.198137","category":"46","category_name":"楼宇","address":"上海长宁区红宝石路500号"},{"poiid":"B2094757D06BA3FB4893","title":"Munich Beer Garden(黄金城道店)","lon":"121.4008","lat":"31.195","category":"500","category_name":"未知分类","address":"上海长宁区黄金城道步行街中央大木屋  "},{"poiid":"B2094752D26AAAF54698","title":"糖朝","lon":"121.400162","lat":"31.196747","category":"247","category_name":"餐饮美食","address":"高岛屋百货"},{"poiid":"B2094757D068ABFC429E","title":"卡布拉蛋糕专卖店(古北店)","lon":"121.39712","lat":"31.19483","category":"67","category_name":"甜品店","address":"长宁区黄金城道818号(近古北路)"},{"poiid":"B2094757D06AA5FD4992","title":"里の水","lon":"121.39682","lat":"31.19424","category":"95","category_name":"日本料理","address":"长宁区荣华东道57弄1号102(近古北路)"},{"poiid":"B2094757D068A1FE4792","title":"CAT&amp;JAZZ","lon":"121.3972","lat":"31.1955","category":"260","category_name":"其他","address":"上海长宁区荣华东道79弄马赛花园3号301室(近古北路)"},{"poiid":"B2094751DA6EA7FD4599","title":"高岛屋","lon":"121.402434","lat":"31.197546","category":"249","category_name":"购物服务","address":"古北"},{"poiid":"B2094757D664A1F9459F","title":"万寿亭 古北店","lon":"121.3963","lat":"31.19385","category":"96","category_name":"韩国料理","address":"长宁区荣华东道19弄2号(近水城南路)"},{"poiid":"B2094757D069A7F9419C","title":"油画雕塑院美术馆","lon":"121.4004092","lat":"31.1987331","category":"184","category_name":"美术馆","address":"长宁区金珠路111号(近延安西路)"},{"poiid":"B2094757D665A1F54599","title":"纹兵卫 古北店","lon":"121.396817","lat":"31.193989","category":"95","category_name":"日本料理","address":"长宁区荣华东道57号里昂花园1号2号(近古北路)"},{"poiid":"B2094654D564A2F9409E","title":"函极博","lon":"121.39636","lat":"31.19426","category":"96","category_name":"韩国料理","address":"长宁区荣华东道60弄1号里昂花园内(近水城南路)"},{"poiid":"B2094757D068ABFF469A","title":"古北汤馆","lon":"121.39990096","lat":"31.193331359","category":"96","category_name":"韩国料理","address":"上海古北路1088号2楼"},{"poiid":"B2094757D06AA5FC4198","title":"DOLCEVITA(古北店)","lon":"121.40151","lat":"31.19493","category":"67","category_name":"甜品店","address":"长宁区黄金城道620号(银珠路口)"},{"poiid":"B2094753DB6FAAF4499B","title":"The TERRACE","lon":"121.401088","lat":"31.195306","category":"247","category_name":"餐饮美食","address":"上海长宁区黄金城道693号（靠近银珠路）"},{"poiid":"B2094654DB65A1FA4692","title":"康乃馨食府","lon":"121.39944","lat":"31.1981","category":"76","category_name":"上海菜","address":"长宁区虹桥路1446号古北湾大酒店2楼(近古北路)"},{"poiid":"B2094757D16CA6FB469A","title":"金色贝拉维","lon":"121.40192","lat":"31.194048","category":"247","category_name":"餐饮美食","address":"上海市长宁区黄金城道路699弄"},{"poiid":"B2094757D065A7F8499A","title":"康友四季保健会所(黄金城道店)","lon":"121.39956","lat":"31.19507","category":"149","category_name":"洗浴推拿场所","address":"长宁区黄金城道735号201室(近银珠路)"},{"poiid":"B2094750D665ABF84099","title":"上海咖啡馆","lon":"121.4","lat":"31.1954","category":"260","category_name":"其他","address":"长宁区黄金城道690号"},{"poiid":"B2094757D064AAF5429F","title":"安宫越南餐厅","lon":"121.40034269","lat":"31.194266097","category":"247","category_name":"餐饮美食","address":"上海古羊路姚虹路"},{"poiid":"B2094655D268A3FB449D","title":"马来西亚总领事馆(红宝石路)","lon":"121.39944","lat":"31.19811","category":"252","category_name":"楼宇机构","address":"红宝石路500号东银中心9层01"},{"poiid":"B2094757D06AA1FA489A","title":"泰勒瓦品质红酒(古北黄金城店)","lon":"121.40218","lat":"31.19471","category":"500","category_name":"未知分类","address":"长宁区黄金城道598号(近玛瑙路)"},{"poiid":"B2094757D568A6FE499E","title":"华氏大药房(步行街)","lon":"121.39890055","lat":"31.19520779","category":"162","category_name":"医院","address":"黄金城道743"},{"poiid":"B2094757D664A3F8449E","title":"猫与爵士 CAT&JAZZ","lon":"121.397601054","lat":"31.194368793","category":"260","category_name":"其他","address":"长宁区荣华东道79弄马赛花园3号301室(近古北路)"},{"poiid":"B2094757D16FA3F54099","title":"coco壹番屋","lon":"121.39866638","lat":"31.19517517","category":"247","category_name":"餐饮美食","address":"上海古北家乐福店"},{"poiid":"B2094757D56CA0FA439C","title":"必胜客 Pizza Hut","lon":"121.397638","lat":"31.19517","category":"247","category_name":"餐饮美食","address":"古北路1088号1楼3楼近黄金城道"},{"poiid":"B2094757D16BA7F8469F","title":"我家小菜","lon":"121.40091858","lat":"31.195772757","category":"247","category_name":"餐饮美食","address":"上海市虹口区广中路，中山北路"},{"poiid":"B2094654D56BABFF4293","title":"强生古北花园(1号门)","lon":"121.40021","lat":"31.19384","category":"47","category_name":"住宅区","address":"银珠路95"},{"poiid":"B2094757D065A5F54893","title":"韩艺咖啡 neighborhood grinds","lon":"121.407416","lat":"31.193611","category":"260","category_name":"其他","address":"长宁区黄金城道572号(近玛瑙路)"},{"poiid":"B2094757D568A5FB419C","title":"诗泥SPA","lon":"121.40113715","lat":"31.19497423","category":"148","category_name":"美容美发店","address":"黄金城道631"},{"poiid":"B2094757D06AA0FD459D","title":"康骏保健中心(古北一店)","lon":"121.39804","lat":"31.19492","category":"149","category_name":"洗浴推拿场所","address":"上海长宁区古北路1078号黄金豪园2楼2F座(黄金城道口)"},{"poiid":"B2094654D564A2F84999","title":"南海活鱼","lon":"121.397218","lat":"31.194359","category":"96","category_name":"韩国料理","address":"上海长宁区荣华东道60弄里昂花园2号(近古北路)  "}]