[{"poiid":"B2094757D06EAAFE409F","title":"虹桥元一希尔顿酒店","lon":"121.395549","lat":"31.187601","category":"217","category_name":"旅馆招待所","address":"闵行区红松东路1116号(近虹许路)"},{"poiid":"B2094654D564A1FD479A","title":"虹梅休闲街","lon":"121.38869","lat":"31.19128","category":"116","category_name":"特色商业街","address":""},{"poiid":"B2094757D068A3FF499C","title":"哈一顿国际大酒店","lon":"121.39698105","lat":"31.188335207","category":"217","category_name":"旅馆招待所","address":"闵行区红松东路1000号(近虹许路)"},{"poiid":"B2094757D069A1FC4592","title":"武警总队医院","lon":"121.38895056","lat":"31.192590069","category":"162","category_name":"医院","address":"长宁区虹许路831号(近延安西路)"},{"poiid":"B2094757D06FA5FB489C","title":"蓝蛙(虹梅店)","lon":"121.3854","lat":"31.19026","category":"260","category_name":"其他","address":"闵行区虹梅路3338弄虹梅休闲街30号(近延安西路)"},{"poiid":"B2094757D069AAFB4299","title":"Sunset Bar","lon":"121.38596","lat":"31.18988","category":"260","category_name":"其他","address":"闵行区虹梅路3338弄老外街21A号"},{"poiid":"B2094654DB64A6FF429C","title":"星巴克(古北店)","lon":"121.394189","lat":"31.193703","category":"260","category_name":"其他","address":"长宁区水城南路20号(黄金城道水城南路)"},{"poiid":"B2094757D065A6F5409E","title":"鸿星海鲜酒家","lon":"121.394212586","lat":"31.1872555908","category":"72","category_name":"广东菜","address":"闵行区红松东路1116号元一希尔顿酒店1-2楼A室"},{"poiid":"B2094757D06FA0FE489C","title":"旺旺集团(总部)","lon":"121.39597361","lat":"31.18772418","category":"46","category_name":"楼宇","address":"上海红松东路1088号"},{"poiid":"B2094757D06FA4FE479D","title":"名都城","lon":"121.39595027","lat":"31.19002088","category":"47","category_name":"住宅区","address":"上海闵行区古羊路788弄"},{"poiid":"B2094757D068A5F4459B","title":"天家 名都城店","lon":"121.394703054","lat":"31.192743793","category":"95","category_name":"日本料理","address":"古羊路1129号名都城俱乐部1楼近虹许路"},{"poiid":"B2094655D264A2FE429D","title":"MexicoLindo","lon":"121.38935","lat":"31.19165","category":"256","category_name":"外国餐厅","address":""},{"poiid":"B2094757D06AA0F9439E","title":"墨西哥灵得餐厅 Mexico Lindo","lon":"121.388838","lat":"31.192011","category":"94","category_name":"西餐厅","address":"闵行区虹梅路3338弄2号虹梅休闲街39号(近延安西路)"},{"poiid":"B2094757D06BA6FE4693","title":"朵馥苑酒家","lon":"121.39357858","lat":"31.191007664","category":"76","category_name":"上海菜","address":"长宁区古羊路1129号名都城俱乐部2楼(近水城南路)"},{"poiid":"B2094752D265A2F4489B","title":"上海虹桥机场T2航站楼","lon":"121.394469","lat":"31.186937","category":"252","category_name":"楼宇机构","address":null},{"poiid":"B2094757D069ABFA439A","title":"もんじゃ鬼ぴ～","lon":"121.39527","lat":"31.19343","category":"95","category_name":"日本料理","address":"上海长宁区荣华东道19弄3号d室(近水城南路)"},{"poiid":"B2094757D068A0FE449E","title":"中环路吴中路","lon":"121.39209377","lat":"31.188627644","category":"500","category_name":"未知分类","address":"上海中环路"},{"poiid":"B2094757D069A7FC4198","title":"K.MIYAKE","lon":"121.390754488","lat":"31.1874273208","category":"67","category_name":"甜品店","address":"闵行区虹梅路3187弄18号(近红松东路)"},{"poiid":"B2094750D768A3F9499A","title":"贝烤贝","lon":"121.397","lat":"31.1897","category":"96","category_name":"韩国料理","address":"长宁区翠钰路19-21号(近名都城)"},{"poiid":"B2094752D76CA5FA489E","title":"beansbins coffee","lon":"121.397003","lat":"31.188217","category":"247","category_name":"餐饮美食","address":"上海市闵行区红松东路1000号"},{"poiid":"B2094757D069A1FE4693","title":"千秋小馆","lon":"121.39568658","lat":"31.192137686","category":"91","category_name":"台湾菜","address":"长宁区黄金城道887号(近水城南路)"},{"poiid":"B2094654DB64A6FA4392","title":"Colabo 万科广场店","lon":"121.39355883409","lat":"31.194660683717","category":"94","category_name":"西餐厅","address":"长宁区水城南路37号万科广场北楼3楼(近黄金城道)"},{"poiid":"B2094757D06AA6F4469D","title":"名都城俱樂部","lon":"121.39438841","lat":"31.191833847","category":"260","category_name":"其他","address":"长宁区虹许路788号名都城内(近古羊路)"},{"poiid":"B2094655D26EA2FD439E","title":"和献洋彩","lon":"121.38541","lat":"31.19076","category":"95","category_name":"日本料理","address":"闵行区虹梅路3338弄2号虹梅休闲街32号(近延安西路)"},{"poiid":"B2094654D564A1FA429D","title":"尼克大楼","lon":"121.39304","lat":"31.1878","category":"46","category_name":"楼宇","address":"和平区南马路11号"},{"poiid":"B2094752D76DA6FF429E","title":"Beans Bins","lon":"121.397301","lat":"31.188191","category":"247","category_name":"餐饮美食","address":"红松东路1000号1F"},{"poiid":"B2094757D065AAFB449C","title":"Porta Nova","lon":"121.38541","lat":"31.19076","category":"94","category_name":"西餐厅","address":"闵行区虹梅路3338弄2号虹梅休闲街40号(近延安西路)"},{"poiid":"B2094757D568A1F94092","title":"富士咖啡屋","lon":"121.394584","lat":"31.190828","category":"65","category_name":"咖啡厅","address":"长宁区虹许路788号名都城俱乐部1-2楼(近古羊路)"},{"poiid":"B2094757D66BA2FD429F","title":"杰纳罗意大利餐厅 Gennaro Italian restaurant","lon":"121.39748","lat":"31.19063","category":"98","category_name":"意式菜品餐厅","address":"长宁区虹许路788号名都城俱乐部1楼(近古羊路)"},{"poiid":"B2094757D164ABFC4399","title":"红花铁板烧","lon":"121.39177","lat":"31.19041","category":"247","category_name":"餐饮美食","address":"长宁区虹许路788号名都城俱乐部21B号铺(近古羊路)"},{"poiid":"B2094751D36FA0F44393","title":"千年瓦房","lon":"121.3969","lat":"31.19199","category":"96","category_name":"韩国料理","address":"长宁区翠钰南路25号(近名都城)"},{"poiid":"B2094757D569A2FE4292","title":"名都新城","lon":"121.3919598","lat":"31.18997868","category":"47","category_name":"住宅区","address":"虹许路788号"},{"poiid":"B2094757D069A0FE4892","title":"巴黎贝甜(古北店)","lon":"121.39491","lat":"31.19273","category":"67","category_name":"甜品店","address":"长宁区水城南路12号(名都城对面)"},{"poiid":"B2094654D564A2FF4893","title":"万科广场商务楼","lon":"121.39342","lat":"31.19465","category":"46","category_name":"楼宇","address":"河西区土城医院西侧"},{"poiid":"B2094752D46BA1FF429E","title":"BEANSBINS COFFEE","lon":"121.39729","lat":"31.188353","category":"247","category_name":"餐饮美食","address":"红松东路1000号哈一顿大酒店1楼"},{"poiid":"B2094757D06FA6FF499E","title":"SOHO3911休闲街","lon":"121.39150238","lat":"31.1894397736","category":"260","category_name":"其他","address":"长宁区虹梅路3911号(近虹桥路)"},{"poiid":"B2094654D564A1FA449F","title":"乔登大楼","lon":"121.39384","lat":"31.1886","category":"46","category_name":"楼宇","address":"虹许路560号"},{"poiid":"B2094753DB64A0FA469B","title":"校村炸鸡","lon":"121.394493","lat":"31.189022","category":"247","category_name":"餐饮美食","address":"上海市 紫藤路182号"},{"poiid":"B2094655D26FA1FE449D","title":"伊藤家(古北店)","lon":"121.39291","lat":"31.1936","category":"95","category_name":"日本料理","address":"长宁区荣华西道19弄金狮花园6号101室(近水城南路)"},{"poiid":"B2094757D164A1FE4192","title":"Honey.B.Coffee","lon":"121.394945586","lat":"31.1900506454","category":"65","category_name":"咖啡厅","address":"上海荣华西道59号(古北美食坊内)"},{"poiid":"B2094655D36CA6FC4198","title":"古羊路","lon":"121.39218","lat":"31.18773","category":"38","category_name":"公交车站","address":""},{"poiid":"B2094655D26EA4FA499A","title":"名都城俱乐部西餐厅","lon":"121.394703054","lat":"31.192743793","category":"94","category_name":"西餐厅","address":"虹许路788号名都城俱乐部内近古羊路"},{"poiid":"B2094655D265ABFD489B","title":"香港名都庄园","lon":"121.39464","lat":"31.19164","category":"76","category_name":"上海菜","address":"长宁区虹许路788号名都城内(近水城路)"},{"poiid":"B2094757D065A5FE449F","title":"gennaro","lon":"121.39431598","lat":"31.191171767","category":"94","category_name":"西餐厅","address":"上海古羊路1129号名都城俱乐部"},{"poiid":"B2094757D069AAF44192","title":"青叶台湾料理(长宁店)","lon":"121.39385","lat":"31.19426","category":"91","category_name":"台湾菜","address":"长宁区水城南路37号万科广场北楼2楼(近黄金城道)"},{"poiid":"B2094757D664A3F9499C","title":"百八","lon":"121.39131","lat":"31.1934","category":"95","category_name":"日本料理","address":"长宁区荣华西道59号古北俱乐部2楼(近水城南路)"},{"poiid":"B2094757D069A5F54498","title":"延安路高架虹许路出口","lon":"121.38997713","lat":"31.192029834","category":"500","category_name":"未知分类","address":"上海延安路高架虹许路出口"},{"poiid":"B2094757D06BA1F5489B","title":"Dunkin Donuts(荣华西道店)","lon":"121.3936","lat":"31.19449","category":"67","category_name":"甜品店","address":"长宁区荣华西道99弄金马公寓1号101室(近水城南路)"},{"poiid":"B2094655D26EA4F54699","title":"酣庭院","lon":"121.39701","lat":"31.18843","category":"96","category_name":"韩国料理","address":"闵行区红松东路1000号哈一顿国际大酒店3楼(近古羊路)"},{"poiid":"B2094757D06BAAFF4098","title":"Papas Bierstube","lon":"121.39559173","lat":"31.188903808","category":"500","category_name":"未知分类","address":"上海虹梅路3338弄虹梅休闲街22-24号"},{"poiid":"B2094757D06EAAFE409F","title":"虹桥元一希尔顿酒店","lon":"121.395549","lat":"31.187601","category":"217","category_name":"旅馆招待所","address":"闵行区红松东路1116号(近虹许路)"},{"poiid":"B2094654D564A1FD479A","title":"虹梅休闲街","lon":"121.38869","lat":"31.19128","category":"116","category_name":"特色商业街","address":""},{"poiid":"B2094757D068A3FF499C","title":"哈一顿国际大酒店","lon":"121.39698105","lat":"31.188335207","category":"217","category_name":"旅馆招待所","address":"闵行区红松东路1000号(近虹许路)"},{"poiid":"B2094757D069A1FC4592","title":"武警总队医院","lon":"121.38895056","lat":"31.192590069","category":"162","category_name":"医院","address":"长宁区虹许路831号(近延安西路)"},{"poiid":"B2094757D06FA5FB489C","title":"蓝蛙(虹梅店)","lon":"121.3854","lat":"31.19026","category":"260","category_name":"其他","address":"闵行区虹梅路3338弄虹梅休闲街30号(近延安西路)"},{"poiid":"B2094757D069AAFB4299","title":"Sunset Bar","lon":"121.38596","lat":"31.18988","category":"260","category_name":"其他","address":"闵行区虹梅路3338弄老外街21A号"},{"poiid":"B2094654DB64A6FF429C","title":"星巴克(古北店)","lon":"121.394189","lat":"31.193703","category":"260","category_name":"其他","address":"长宁区水城南路20号(黄金城道水城南路)"},{"poiid":"B2094757D065A6F5409E","title":"鸿星海鲜酒家","lon":"121.394212586","lat":"31.1872555908","category":"72","category_name":"广东菜","address":"闵行区红松东路1116号元一希尔顿酒店1-2楼A室"},{"poiid":"B2094757D06FA0FE489C","title":"旺旺集团(总部)","lon":"121.39597361","lat":"31.18772418","category":"46","category_name":"楼宇","address":"上海红松东路1088号"},{"poiid":"B2094757D06FA4FE479D","title":"名都城","lon":"121.39595027","lat":"31.19002088","category":"47","category_name":"住宅区","address":"上海闵行区古羊路788弄"},{"poiid":"B2094757D068A5F4459B","title":"天家 名都城店","lon":"121.394703054","lat":"31.192743793","category":"95","category_name":"日本料理","address":"古羊路1129号名都城俱乐部1楼近虹许路"},{"poiid":"B2094655D264A2FE429D","title":"MexicoLindo","lon":"121.38935","lat":"31.19165","category":"256","category_name":"外国餐厅","address":""},{"poiid":"B2094757D06AA0F9439E","title":"墨西哥灵得餐厅 Mexico Lindo","lon":"121.388838","lat":"31.192011","category":"94","category_name":"西餐厅","address":"闵行区虹梅路3338弄2号虹梅休闲街39号(近延安西路)"},{"poiid":"B2094757D06BA6FE4693","title":"朵馥苑酒家","lon":"121.39357858","lat":"31.191007664","category":"76","category_name":"上海菜","address":"长宁区古羊路1129号名都城俱乐部2楼(近水城南路)"},{"poiid":"B2094752D265A2F4489B","title":"上海虹桥机场T2航站楼","lon":"121.394469","lat":"31.186937","category":"252","category_name":"楼宇机构","address":null},{"poiid":"B2094757D069ABFA439A","title":"もんじゃ鬼ぴ～","lon":"121.39527","lat":"31.19343","category":"95","category_name":"日本料理","address":"上海长宁区荣华东道19弄3号d室(近水城南路)"},{"poiid":"B2094757D068A0FE449E","title":"中环路吴中路","lon":"121.39209377","lat":"31.188627644","category":"500","category_name":"未知分类","address":"上海中环路"},{"poiid":"B2094757D069A7FC4198","title":"K.MIYAKE","lon":"121.390754488","lat":"31.1874273208","category":"67","category_name":"甜品店","address":"闵行区虹梅路3187弄18号(近红松东路)"},{"poiid":"B2094750D768A3F9499A","title":"贝烤贝","lon":"121.397","lat":"31.1897","category":"96","category_name":"韩国料理","address":"长宁区翠钰路19-21号(近名都城)"},{"poiid":"B2094752D76CA5FA489E","title":"beansbins coffee","lon":"121.397003","lat":"31.188217","category":"247","category_name":"餐饮美食","address":"上海市闵行区红松东路1000号"},{"poiid":"B2094757D069A1FE4693","title":"千秋小馆","lon":"121.39568658","lat":"31.192137686","category":"91","category_name":"台湾菜","address":"长宁区黄金城道887号(近水城南路)"},{"poiid":"B2094654DB64A6FA4392","title":"Colabo 万科广场店","lon":"121.39355883409","lat":"31.194660683717","category":"94","category_name":"西餐厅","address":"长宁区水城南路37号万科广场北楼3楼(近黄金城道)"},{"poiid":"B2094757D06AA6F4469D","title":"名都城俱樂部","lon":"121.39438841","lat":"31.191833847","category":"260","category_name":"其他","address":"长宁区虹许路788号名都城内(近古羊路)"},{"poiid":"B2094655D26EA2FD439E","title":"和献洋彩","lon":"121.38541","lat":"31.19076","category":"95","category_name":"日本料理","address":"闵行区虹梅路3338弄2号虹梅休闲街32号(近延安西路)"},{"poiid":"B2094654D564A1FA429D","title":"尼克大楼","lon":"121.39304","lat":"31.1878","category":"46","category_name":"楼宇","address":"和平区南马路11号"},{"poiid":"B2094752D76DA6FF429E","title":"Beans Bins","lon":"121.397301","lat":"31.188191","category":"247","category_name":"餐饮美食","address":"红松东路1000号1F"},{"poiid":"B2094757D065AAFB449C","title":"Porta Nova","lon":"121.38541","lat":"31.19076","category":"94","category_name":"西餐厅","address":"闵行区虹梅路3338弄2号虹梅休闲街40号(近延安西路)"},{"poiid":"B2094757D568A1F94092","title":"富士咖啡屋","lon":"121.394584","lat":"31.190828","category":"65","category_name":"咖啡厅","address":"长宁区虹许路788号名都城俱乐部1-2楼(近古羊路)"},{"poiid":"B2094757D66BA2FD429F","title":"杰纳罗意大利餐厅 Gennaro Italian restaurant","lon":"121.39748","lat":"31.19063","category":"98","category_name":"意式菜品餐厅","address":"长宁区虹许路788号名都城俱乐部1楼(近古羊路)"},{"poiid":"B2094757D164ABFC4399","title":"红花铁板烧","lon":"121.39177","lat":"31.19041","category":"247","category_name":"餐饮美食","address":"长宁区虹许路788号名都城俱乐部21B号铺(近古羊路)"},{"poiid":"B2094751D36FA0F44393","title":"千年瓦房","lon":"121.3969","lat":"31.19199","category":"96","category_name":"韩国料理","address":"长宁区翠钰南路25号(近名都城)"},{"poiid":"B2094757D569A2FE4292","title":"名都新城","lon":"121.3919598","lat":"31.18997868","category":"47","category_name":"住宅区","address":"虹许路788号"},{"poiid":"B2094757D069A0FE4892","title":"巴黎贝甜(古北店)","lon":"121.39491","lat":"31.19273","category":"67","category_name":"甜品店","address":"长宁区水城南路12号(名都城对面)"},{"poiid":"B2094654D564A2FF4893","title":"万科广场商务楼","lon":"121.39342","lat":"31.19465","category":"46","category_name":"楼宇","address":"河西区土城医院西侧"},{"poiid":"B2094752D46BA1FF429E","title":"BEANSBINS COFFEE","lon":"121.39729","lat":"31.188353","category":"247","category_name":"餐饮美食","address":"红松东路1000号哈一顿大酒店1楼"},{"poiid":"B2094757D06FA6FF499E","title":"SOHO3911休闲街","lon":"121.39150238","lat":"31.1894397736","category":"260","category_name":"其他","address":"长宁区虹梅路3911号(近虹桥路)"},{"poiid":"B2094654D564A1FA449F","title":"乔登大楼","lon":"121.39384","lat":"31.1886","category":"46","category_name":"楼宇","address":"虹许路560号"},{"poiid":"B2094753DB64A0FA469B","title":"校村炸鸡","lon":"121.394493","lat":"31.189022","category":"247","category_name":"餐饮美食","address":"上海市 紫藤路182号"},{"poiid":"B2094655D26FA1FE449D","title":"伊藤家(古北店)","lon":"121.39291","lat":"31.1936","category":"95","category_name":"日本料理","address":"长宁区荣华西道19弄金狮花园6号101室(近水城南路)"},{"poiid":"B2094757D164A1FE4192","title":"Honey.B.Coffee","lon":"121.394945586","lat":"31.1900506454","category":"65","category_name":"咖啡厅","address":"上海荣华西道59号(古北美食坊内)"},{"poiid":"B2094655D36CA6FC4198","title":"古羊路","lon":"121.39218","lat":"31.18773","category":"38","category_name":"公交车站","address":""},{"poiid":"B2094655D26EA4FA499A","title":"名都城俱乐部西餐厅","lon":"121.394703054","lat":"31.192743793","category":"94","category_name":"西餐厅","address":"虹许路788号名都城俱乐部内近古羊路"},{"poiid":"B2094655D265ABFD489B","title":"香港名都庄园","lon":"121.39464","lat":"31.19164","category":"76","category_name":"上海菜","address":"长宁区虹许路788号名都城内(近水城路)"},{"poiid":"B2094757D065A5FE449F","title":"gennaro","lon":"121.39431598","lat":"31.191171767","category":"94","category_name":"西餐厅","address":"上海古羊路1129号名都城俱乐部"},{"poiid":"B2094757D069AAF44192","title":"青叶台湾料理(长宁店)","lon":"121.39385","lat":"31.19426","category":"91","category_name":"台湾菜","address":"长宁区水城南路37号万科广场北楼2楼(近黄金城道)"},{"poiid":"B2094757D664A3F9499C","title":"百八","lon":"121.39131","lat":"31.1934","category":"95","category_name":"日本料理","address":"长宁区荣华西道59号古北俱乐部2楼(近水城南路)"},{"poiid":"B2094757D069A5F54498","title":"延安路高架虹许路出口","lon":"121.38997713","lat":"31.192029834","category":"500","category_name":"未知分类","address":"上海延安路高架虹许路出口"},{"poiid":"B2094757D06BA1F5489B","title":"Dunkin Donuts(荣华西道店)","lon":"121.3936","lat":"31.19449","category":"67","category_name":"甜品店","address":"长宁区荣华西道99弄金马公寓1号101室(近水城南路)"},{"poiid":"B2094655D26EA4F54699","title":"酣庭院","lon":"121.39701","lat":"31.18843","category":"96","category_name":"韩国料理","address":"闵行区红松东路1000号哈一顿国际大酒店3楼(近古羊路)"},{"poiid":"B2094757D06BAAFF4098","title":"Papas Bierstube","lon":"121.39559173","lat":"31.188903808","category":"500","category_name":"未知分类","address":"上海虹梅路3338弄虹梅休闲街22-24号"},{"poiid":"B2094757D06EAAFE409F","title":"虹桥元一希尔顿酒店","lon":"121.395549","lat":"31.187601","category":"217","category_name":"旅馆招待所","address":"闵行区红松东路1116号(近虹许路)"},{"poiid":"B2094654D564A1FD479A","title":"虹梅休闲街","lon":"121.38869","lat":"31.19128","category":"116","category_name":"特色商业街","address":""},{"poiid":"B2094757D068A3FF499C","title":"哈一顿国际大酒店","lon":"121.39698105","lat":"31.188335207","category":"217","category_name":"旅馆招待所","address":"闵行区红松东路1000号(近虹许路)"},{"poiid":"B2094757D069A1FC4592","title":"武警总队医院","lon":"121.38895056","lat":"31.192590069","category":"162","category_name":"医院","address":"长宁区虹许路831号(近延安西路)"},{"poiid":"B2094757D06FA5FB489C","title":"蓝蛙(虹梅店)","lon":"121.3854","lat":"31.19026","category":"260","category_name":"其他","address":"闵行区虹梅路3338弄虹梅休闲街30号(近延安西路)"},{"poiid":"B2094757D069AAFB4299","title":"Sunset Bar","lon":"121.38596","lat":"31.18988","category":"260","category_name":"其他","address":"闵行区虹梅路3338弄老外街21A号"},{"poiid":"B2094654DB64A6FF429C","title":"星巴克(古北店)","lon":"121.394189","lat":"31.193703","category":"260","category_name":"其他","address":"长宁区水城南路20号(黄金城道水城南路)"},{"poiid":"B2094757D065A6F5409E","title":"鸿星海鲜酒家","lon":"121.394212586","lat":"31.1872555908","category":"72","category_name":"广东菜","address":"闵行区红松东路1116号元一希尔顿酒店1-2楼A室"},{"poiid":"B2094757D06FA0FE489C","title":"旺旺集团(总部)","lon":"121.39597361","lat":"31.18772418","category":"46","category_name":"楼宇","address":"上海红松东路1088号"},{"poiid":"B2094757D06FA4FE479D","title":"名都城","lon":"121.39595027","lat":"31.19002088","category":"47","category_name":"住宅区","address":"上海闵行区古羊路788弄"},{"poiid":"B2094757D068A5F4459B","title":"天家 名都城店","lon":"121.394703054","lat":"31.192743793","category":"95","category_name":"日本料理","address":"古羊路1129号名都城俱乐部1楼近虹许路"},{"poiid":"B2094655D264A2FE429D","title":"MexicoLindo","lon":"121.38935","lat":"31.19165","category":"256","category_name":"外国餐厅","address":""},{"poiid":"B2094757D06AA0F9439E","title":"墨西哥灵得餐厅 Mexico Lindo","lon":"121.388838","lat":"31.192011","category":"94","category_name":"西餐厅","address":"闵行区虹梅路3338弄2号虹梅休闲街39号(近延安西路)"},{"poiid":"B2094757D06BA6FE4693","title":"朵馥苑酒家","lon":"121.39357858","lat":"31.191007664","category":"76","category_name":"上海菜","address":"长宁区古羊路1129号名都城俱乐部2楼(近水城南路)"},{"poiid":"B2094752D265A2F4489B","title":"上海虹桥机场T2航站楼","lon":"121.394469","lat":"31.186937","category":"252","category_name":"楼宇机构","address":null},{"poiid":"B2094757D069ABFA439A","title":"もんじゃ鬼ぴ～","lon":"121.39527","lat":"31.19343","category":"95","category_name":"日本料理","address":"上海长宁区荣华东道19弄3号d室(近水城南路)"},{"poiid":"B2094757D068A0FE449E","title":"中环路吴中路","lon":"121.39209377","lat":"31.188627644","category":"500","category_name":"未知分类","address":"上海中环路"},{"poiid":"B2094757D069A7FC4198","title":"K.MIYAKE","lon":"121.390754488","lat":"31.1874273208","category":"67","category_name":"甜品店","address":"闵行区虹梅路3187弄18号(近红松东路)"},{"poiid":"B2094750D768A3F9499A","title":"贝烤贝","lon":"121.397","lat":"31.1897","category":"96","category_name":"韩国料理","address":"长宁区翠钰路19-21号(近名都城)"},{"poiid":"B2094752D76CA5FA489E","title":"beansbins coffee","lon":"121.397003","lat":"31.188217","category":"247","category_name":"餐饮美食","address":"上海市闵行区红松东路1000号"},{"poiid":"B2094757D069A1FE4693","title":"千秋小馆","lon":"121.39568658","lat":"31.192137686","category":"91","category_name":"台湾菜","address":"长宁区黄金城道887号(近水城南路)"},{"poiid":"B2094654DB64A6FA4392","title":"Colabo 万科广场店","lon":"121.39355883409","lat":"31.194660683717","category":"94","category_name":"西餐厅","address":"长宁区水城南路37号万科广场北楼3楼(近黄金城道)"},{"poiid":"B2094757D06AA6F4469D","title":"名都城俱樂部","lon":"121.39438841","lat":"31.191833847","category":"260","category_name":"其他","address":"长宁区虹许路788号名都城内(近古羊路)"},{"poiid":"B2094655D26EA2FD439E","title":"和献洋彩","lon":"121.38541","lat":"31.19076","category":"95","category_name":"日本料理","address":"闵行区虹梅路3338弄2号虹梅休闲街32号(近延安西路)"},{"poiid":"B2094654D564A1FA429D","title":"尼克大楼","lon":"121.39304","lat":"31.1878","category":"46","category_name":"楼宇","address":"和平区南马路11号"},{"poiid":"B2094752D76DA6FF429E","title":"Beans Bins","lon":"121.397301","lat":"31.188191","category":"247","category_name":"餐饮美食","address":"红松东路1000号1F"},{"poiid":"B2094757D065AAFB449C","title":"Porta Nova","lon":"121.38541","lat":"31.19076","category":"94","category_name":"西餐厅","address":"闵行区虹梅路3338弄2号虹梅休闲街40号(近延安西路)"},{"poiid":"B2094757D568A1F94092","title":"富士咖啡屋","lon":"121.394584","lat":"31.190828","category":"65","category_name":"咖啡厅","address":"长宁区虹许路788号名都城俱乐部1-2楼(近古羊路)"},{"poiid":"B2094757D66BA2FD429F","title":"杰纳罗意大利餐厅 Gennaro Italian restaurant","lon":"121.39748","lat":"31.19063","category":"98","category_name":"意式菜品餐厅","address":"长宁区虹许路788号名都城俱乐部1楼(近古羊路)"},{"poiid":"B2094757D164ABFC4399","title":"红花铁板烧","lon":"121.39177","lat":"31.19041","category":"247","category_name":"餐饮美食","address":"长宁区虹许路788号名都城俱乐部21B号铺(近古羊路)"},{"poiid":"B2094751D36FA0F44393","title":"千年瓦房","lon":"121.3969","lat":"31.19199","category":"96","category_name":"韩国料理","address":"长宁区翠钰南路25号(近名都城)"},{"poiid":"B2094757D569A2FE4292","title":"名都新城","lon":"121.3919598","lat":"31.18997868","category":"47","category_name":"住宅区","address":"虹许路788号"},{"poiid":"B2094757D069A0FE4892","title":"巴黎贝甜(古北店)","lon":"121.39491","lat":"31.19273","category":"67","category_name":"甜品店","address":"长宁区水城南路12号(名都城对面)"},{"poiid":"B2094654D564A2FF4893","title":"万科广场商务楼","lon":"121.39342","lat":"31.19465","category":"46","category_name":"楼宇","address":"河西区土城医院西侧"},{"poiid":"B2094752D46BA1FF429E","title":"BEANSBINS COFFEE","lon":"121.39729","lat":"31.188353","category":"247","category_name":"餐饮美食","address":"红松东路1000号哈一顿大酒店1楼"},{"poiid":"B2094757D06FA6FF499E","title":"SOHO3911休闲街","lon":"121.39150238","lat":"31.1894397736","category":"260","category_name":"其他","address":"长宁区虹梅路3911号(近虹桥路)"},{"poiid":"B2094654D564A1FA449F","title":"乔登大楼","lon":"121.39384","lat":"31.1886","category":"46","category_name":"楼宇","address":"虹许路560号"},{"poiid":"B2094753DB64A0FA469B","title":"校村炸鸡","lon":"121.394493","lat":"31.189022","category":"247","category_name":"餐饮美食","address":"上海市 紫藤路182号"},{"poiid":"B2094655D26FA1FE449D","title":"伊藤家(古北店)","lon":"121.39291","lat":"31.1936","category":"95","category_name":"日本料理","address":"长宁区荣华西道19弄金狮花园6号101室(近水城南路)"},{"poiid":"B2094757D164A1FE4192","title":"Honey.B.Coffee","lon":"121.394945586","lat":"31.1900506454","category":"65","category_name":"咖啡厅","address":"上海荣华西道59号(古北美食坊内)"},{"poiid":"B2094655D36CA6FC4198","title":"古羊路","lon":"121.39218","lat":"31.18773","category":"38","category_name":"公交车站","address":""},{"poiid":"B2094655D26EA4FA499A","title":"名都城俱乐部西餐厅","lon":"121.394703054","lat":"31.192743793","category":"94","category_name":"西餐厅","address":"虹许路788号名都城俱乐部内近古羊路"},{"poiid":"B2094655D265ABFD489B","title":"香港名都庄园","lon":"121.39464","lat":"31.19164","category":"76","category_name":"上海菜","address":"长宁区虹许路788号名都城内(近水城路)"},{"poiid":"B2094757D065A5FE449F","title":"gennaro","lon":"121.39431598","lat":"31.191171767","category":"94","category_name":"西餐厅","address":"上海古羊路1129号名都城俱乐部"},{"poiid":"B2094757D069AAF44192","title":"青叶台湾料理(长宁店)","lon":"121.39385","lat":"31.19426","category":"91","category_name":"台湾菜","address":"长宁区水城南路37号万科广场北楼2楼(近黄金城道)"},{"poiid":"B2094757D664A3F9499C","title":"百八","lon":"121.39131","lat":"31.1934","category":"95","category_name":"日本料理","address":"长宁区荣华西道59号古北俱乐部2楼(近水城南路)"},{"poiid":"B2094757D069A5F54498","title":"延安路高架虹许路出口","lon":"121.38997713","lat":"31.192029834","category":"500","category_name":"未知分类","address":"上海延安路高架虹许路出口"},{"poiid":"B2094757D06BA1F5489B","title":"Dunkin Donuts(荣华西道店)","lon":"121.3936","lat":"31.19449","category":"67","category_name":"甜品店","address":"长宁区荣华西道99弄金马公寓1号101室(近水城南路)"},{"poiid":"B2094655D26EA4F54699","title":"酣庭院","lon":"121.39701","lat":"31.18843","category":"96","category_name":"韩国料理","address":"闵行区红松东路1000号哈一顿国际大酒店3楼(近古羊路)"},{"poiid":"B2094757D06BAAFF4098","title":"Papas Bierstube","lon":"121.39559173","lat":"31.188903808","category":"500","category_name":"未知分类","address":"上海虹梅路3338弄虹梅休闲街22-24号"},{"poiid":"B2094757D06EAAFE409F","title":"虹桥元一希尔顿酒店","lon":"121.395549","lat":"31.187601","category":"217","category_name":"旅馆招待所","address":"闵行区红松东路1116号(近虹许路)"},{"poiid":"B2094654D564A1FD479A","title":"虹梅休闲街","lon":"121.38869","lat":"31.19128","category":"116","category_name":"特色商业街","address":""},{"poiid":"B2094757D068A3FF499C","title":"哈一顿国际大酒店","lon":"121.39698105","lat":"31.188335207","category":"217","category_name":"旅馆招待所","address":"闵行区红松东路1000号(近虹许路)"},{"poiid":"B2094757D069A1FC4592","title":"武警总队医院","lon":"121.38895056","lat":"31.192590069","category":"162","category_name":"医院","address":"长宁区虹许路831号(近延安西路)"},{"poiid":"B2094757D06FA5FB489C","title":"蓝蛙(虹梅店)","lon":"121.3854","lat":"31.19026","category":"260","category_name":"其他","address":"闵行区虹梅路3338弄虹梅休闲街30号(近延安西路)"},{"poiid":"B2094757D069AAFB4299","title":"Sunset Bar","lon":"121.38596","lat":"31.18988","category":"260","category_name":"其他","address":"闵行区虹梅路3338弄老外街21A号"},{"poiid":"B2094654DB64A6FF429C","title":"星巴克(古北店)","lon":"121.394189","lat":"31.193703","category":"260","category_name":"其他","address":"长宁区水城南路20号(黄金城道水城南路)"},{"poiid":"B2094757D065A6F5409E","title":"鸿星海鲜酒家","lon":"121.394212586","lat":"31.1872555908","category":"72","category_name":"广东菜","address":"闵行区红松东路1116号元一希尔顿酒店1-2楼A室"},{"poiid":"B2094757D06FA0FE489C","title":"旺旺集团(总部)","lon":"121.39597361","lat":"31.18772418","category":"46","category_name":"楼宇","address":"上海红松东路1088号"},{"poiid":"B2094757D06FA4FE479D","title":"名都城","lon":"121.39595027","lat":"31.19002088","category":"47","category_name":"住宅区","address":"上海闵行区古羊路788弄"},{"poiid":"B2094757D068A5F4459B","title":"天家 名都城店","lon":"121.394703054","lat":"31.192743793","category":"95","category_name":"日本料理","address":"古羊路1129号名都城俱乐部1楼近虹许路"},{"poiid":"B2094655D264A2FE429D","title":"MexicoLindo","lon":"121.38935","lat":"31.19165","category":"256","category_name":"外国餐厅","address":""},{"poiid":"B2094757D06AA0F9439E","title":"墨西哥灵得餐厅 Mexico Lindo","lon":"121.388838","lat":"31.192011","category":"94","category_name":"西餐厅","address":"闵行区虹梅路3338弄2号虹梅休闲街39号(近延安西路)"},{"poiid":"B2094757D06BA6FE4693","title":"朵馥苑酒家","lon":"121.39357858","lat":"31.191007664","category":"76","category_name":"上海菜","address":"长宁区古羊路1129号名都城俱乐部2楼(近水城南路)"},{"poiid":"B2094752D265A2F4489B","title":"上海虹桥机场T2航站楼","lon":"121.394469","lat":"31.186937","category":"252","category_name":"楼宇机构","address":null},{"poiid":"B2094757D069ABFA439A","title":"もんじゃ鬼ぴ～","lon":"121.39527","lat":"31.19343","category":"95","category_name":"日本料理","address":"上海长宁区荣华东道19弄3号d室(近水城南路)"},{"poiid":"B2094757D068A0FE449E","title":"中环路吴中路","lon":"121.39209377","lat":"31.188627644","category":"500","category_name":"未知分类","address":"上海中环路"},{"poiid":"B2094757D069A7FC4198","title":"K.MIYAKE","lon":"121.390754488","lat":"31.1874273208","category":"67","category_name":"甜品店","address":"闵行区虹梅路3187弄18号(近红松东路)"},{"poiid":"B2094750D768A3F9499A","title":"贝烤贝","lon":"121.397","lat":"31.1897","category":"96","category_name":"韩国料理","address":"长宁区翠钰路19-21号(近名都城)"},{"poiid":"B2094752D76CA5FA489E","title":"beansbins coffee","lon":"121.397003","lat":"31.188217","category":"247","category_name":"餐饮美食","address":"上海市闵行区红松东路1000号"},{"poiid":"B2094757D069A1FE4693","title":"千秋小馆","lon":"121.39568658","lat":"31.192137686","category":"91","category_name":"台湾菜","address":"长宁区黄金城道887号(近水城南路)"},{"poiid":"B2094654DB64A6FA4392","title":"Colabo 万科广场店","lon":"121.39355883409","lat":"31.194660683717","category":"94","category_name":"西餐厅","address":"长宁区水城南路37号万科广场北楼3楼(近黄金城道)"},{"poiid":"B2094757D06AA6F4469D","title":"名都城俱樂部","lon":"121.39438841","lat":"31.191833847","category":"260","category_name":"其他","address":"长宁区虹许路788号名都城内(近古羊路)"},{"poiid":"B2094655D26EA2FD439E","title":"和献洋彩","lon":"121.38541","lat":"31.19076","category":"95","category_name":"日本料理","address":"闵行区虹梅路3338弄2号虹梅休闲街32号(近延安西路)"},{"poiid":"B2094654D564A1FA429D","title":"尼克大楼","lon":"121.39304","lat":"31.1878","category":"46","category_name":"楼宇","address":"和平区南马路11号"},{"poiid":"B2094752D76DA6FF429E","title":"Beans Bins","lon":"121.397301","lat":"31.188191","category":"247","category_name":"餐饮美食","address":"红松东路1000号1F"},{"poiid":"B2094757D065AAFB449C","title":"Porta Nova","lon":"121.38541","lat":"31.19076","category":"94","category_name":"西餐厅","address":"闵行区虹梅路3338弄2号虹梅休闲街40号(近延安西路)"},{"poiid":"B2094757D568A1F94092","title":"富士咖啡屋","lon":"121.394584","lat":"31.190828","category":"65","category_name":"咖啡厅","address":"长宁区虹许路788号名都城俱乐部1-2楼(近古羊路)"},{"poiid":"B2094757D66BA2FD429F","title":"杰纳罗意大利餐厅 Gennaro Italian restaurant","lon":"121.39748","lat":"31.19063","category":"98","category_name":"意式菜品餐厅","address":"长宁区虹许路788号名都城俱乐部1楼(近古羊路)"},{"poiid":"B2094757D164ABFC4399","title":"红花铁板烧","lon":"121.39177","lat":"31.19041","category":"247","category_name":"餐饮美食","address":"长宁区虹许路788号名都城俱乐部21B号铺(近古羊路)"},{"poiid":"B2094751D36FA0F44393","title":"千年瓦房","lon":"121.3969","lat":"31.19199","category":"96","category_name":"韩国料理","address":"长宁区翠钰南路25号(近名都城)"},{"poiid":"B2094757D569A2FE4292","title":"名都新城","lon":"121.3919598","lat":"31.18997868","category":"47","category_name":"住宅区","address":"虹许路788号"},{"poiid":"B2094757D069A0FE4892","title":"巴黎贝甜(古北店)","lon":"121.39491","lat":"31.19273","category":"67","category_name":"甜品店","address":"长宁区水城南路12号(名都城对面)"},{"poiid":"B2094654D564A2FF4893","title":"万科广场商务楼","lon":"121.39342","lat":"31.19465","category":"46","category_name":"楼宇","address":"河西区土城医院西侧"},{"poiid":"B2094752D46BA1FF429E","title":"BEANSBINS COFFEE","lon":"121.39729","lat":"31.188353","category":"247","category_name":"餐饮美食","address":"红松东路1000号哈一顿大酒店1楼"},{"poiid":"B2094757D06FA6FF499E","title":"SOHO3911休闲街","lon":"121.39150238","lat":"31.1894397736","category":"260","category_name":"其他","address":"长宁区虹梅路3911号(近虹桥路)"},{"poiid":"B2094654D564A1FA449F","title":"乔登大楼","lon":"121.39384","lat":"31.1886","category":"46","category_name":"楼宇","address":"虹许路560号"},{"poiid":"B2094753DB64A0FA469B","title":"校村炸鸡","lon":"121.394493","lat":"31.189022","category":"247","category_name":"餐饮美食","address":"上海市 紫藤路182号"},{"poiid":"B2094655D26FA1FE449D","title":"伊藤家(古北店)","lon":"121.39291","lat":"31.1936","category":"95","category_name":"日本料理","address":"长宁区荣华西道19弄金狮花园6号101室(近水城南路)"},{"poiid":"B2094757D164A1FE4192","title":"Honey.B.Coffee","lon":"121.394945586","lat":"31.1900506454","category":"65","category_name":"咖啡厅","address":"上海荣华西道59号(古北美食坊内)"},{"poiid":"B2094655D36CA6FC4198","title":"古羊路","lon":"121.39218","lat":"31.18773","category":"38","category_name":"公交车站","address":""},{"poiid":"B2094655D26EA4FA499A","title":"名都城俱乐部西餐厅","lon":"121.394703054","lat":"31.192743793","category":"94","category_name":"西餐厅","address":"虹许路788号名都城俱乐部内近古羊路"},{"poiid":"B2094655D265ABFD489B","title":"香港名都庄园","lon":"121.39464","lat":"31.19164","category":"76","category_name":"上海菜","address":"长宁区虹许路788号名都城内(近水城路)"},{"poiid":"B2094757D065A5FE449F","title":"gennaro","lon":"121.39431598","lat":"31.191171767","category":"94","category_name":"西餐厅","address":"上海古羊路1129号名都城俱乐部"},{"poiid":"B2094757D069AAF44192","title":"青叶台湾料理(长宁店)","lon":"121.39385","lat":"31.19426","category":"91","category_name":"台湾菜","address":"长宁区水城南路37号万科广场北楼2楼(近黄金城道)"},{"poiid":"B2094757D664A3F9499C","title":"百八","lon":"121.39131","lat":"31.1934","category":"95","category_name":"日本料理","address":"长宁区荣华西道59号古北俱乐部2楼(近水城南路)"},{"poiid":"B2094757D069A5F54498","title":"延安路高架虹许路出口","lon":"121.38997713","lat":"31.192029834","category":"500","category_name":"未知分类","address":"上海延安路高架虹许路出口"},{"poiid":"B2094757D06BA1F5489B","title":"Dunkin Donuts(荣华西道店)","lon":"121.3936","lat":"31.19449","category":"67","category_name":"甜品店","address":"长宁区荣华西道99弄金马公寓1号101室(近水城南路)"},{"poiid":"B2094655D26EA4F54699","title":"酣庭院","lon":"121.39701","lat":"31.18843","category":"96","category_name":"韩国料理","address":"闵行区红松东路1000号哈一顿国际大酒店3楼(近古羊路)"},{"poiid":"B2094757D06BAAFF4098","title":"Papas Bierstube","lon":"121.39559173","lat":"31.188903808","category":"500","category_name":"未知分类","address":"上海虹梅路3338弄虹梅休闲街22-24号"}]