[{"poiid":"B2094654DB6AA6F84692","title":"上海千禧海鸥大酒店","lon":"121.39518","lat":"31.19704","category":"112","category_name":"糕饼店","address":"长宁区延安西路2588号千禧海鸥大酒店1楼(近古北家乐福)"},{"poiid":"B2094757D068A1FF419B","title":"鹿港老镇","lon":"121.39703258","lat":"31.195483751","category":"500","category_name":"未知分类","address":"上海市长宁区黄金城道778号(古北路)"},{"poiid":"B2094757D06FA1FB4498","title":"千秋膳房(古北店)","lon":"121.39549","lat":"31.19448","category":"91","category_name":"台湾菜","address":"上海长宁区水城南路17号"},{"poiid":"B2094757D16CAAF8409C","title":"平壤高丽餐厅","lon":"121.397864586","lat":"31.19540175","category":"96","category_name":"韩国料理","address":"长宁区古北路1088号2楼(近中信银行)"},{"poiid":"B2094757D06FA0FD429F","title":"Wagas沃歌斯(古北店)","lon":"121.39416","lat":"31.19637","category":"94","category_name":"西餐厅","address":"长宁区水城南路268号家乐福1楼(近延安西路)"},{"poiid":"B2094757D06BABFE449C","title":"黄金城道","lon":"121.395090586","lat":"31.1946027344","category":"500","category_name":"未知分类","address":"上海黄金城道水城南路"},{"poiid":"B2094654DB64A6FF429C","title":"星巴克(古北店)","lon":"121.394189","lat":"31.193703","category":"260","category_name":"其他","address":"长宁区水城南路20号(黄金城道水城南路)"},{"poiid":"B2094654DB64AAF4419A","title":"华越楼No.1","lon":"121.39712","lat":"31.19486","category":"99","category_name":"泰国／越南菜品餐厅","address":"长宁区黄金城道781号(近古北路)"},{"poiid":"B2094757D069A1FE4093","title":"陵水酒家","lon":"121.39535","lat":"31.19536","category":"96","category_name":"韩国料理","address":"长宁区荣华东道119弄2号巴黎花园B楼107号(近水城南路)"},{"poiid":"B2094757D06FA2FB419C","title":"麦当劳(古北店)","lon":"121.39396","lat":"31.19584","category":"68","category_name":"快餐厅","address":"长宁区水城南路258号古北家乐福附近(近延安西路)"},{"poiid":"B2094757D06AA5FD4992","title":"里の水","lon":"121.39682","lat":"31.19424","category":"95","category_name":"日本料理","address":"长宁区荣华东道57弄1号102(近古北路)"},{"poiid":"B2094757D66AAAFF4598","title":"涟波 SAZANAMI","lon":"121.39484837119","lat":"31.19537499377","category":"95","category_name":"日本料理","address":"长宁区荣华东道121号(近家乐福)"},{"poiid":"B2094757D66BA6F9489D","title":"早安巴黎 黄金城道店 Bon Matin","lon":"121.398810054","lat":"31.195088793","category":"112","category_name":"糕饼店","address":"长宁区黄金城道506号(近伊犁南路)"},{"poiid":"B2094757D069ABFA439A","title":"もんじゃ鬼ぴ～","lon":"121.39527","lat":"31.19343","category":"95","category_name":"日本料理","address":"上海长宁区荣华东道19弄3号d室(近水城南路)"},{"poiid":"B2094757D068ABFC429E","title":"卡布拉蛋糕专卖店(古北店)","lon":"121.39712","lat":"31.19483","category":"67","category_name":"甜品店","address":"长宁区黄金城道818号(近古北路)"},{"poiid":"B2094654D564A2F9409E","title":"函极博","lon":"121.39636","lat":"31.19426","category":"96","category_name":"韩国料理","address":"长宁区荣华东道60弄1号里昂花园内(近水城南路)"},{"poiid":"B2094757D664A1F9459F","title":"万寿亭 古北店","lon":"121.3963","lat":"31.19385","category":"96","category_name":"韩国料理","address":"长宁区荣华东道19弄2号(近水城南路)"},{"poiid":"B2094757D068A1FE4792","title":"CAT&amp;JAZZ","lon":"121.3972","lat":"31.1955","category":"260","category_name":"其他","address":"上海长宁区荣华东道79弄马赛花园3号301室(近古北路)"},{"poiid":"B2094757D464A7FF4592","title":"伊豆日本烧肉","lon":"121.39578130603","lat":"31.194834981876","category":"247","category_name":"餐饮美食","address":"长宁区黄金城道856号(水城南路和古北南路之间)"},{"poiid":"B2094757D46FA0F4439B","title":"二金堂拉面","lon":"121.395927","lat":"31.19513","category":"95","category_name":"日本料理","address":"长宁区黄金城道810号(近古北路)"},{"poiid":"B2094757D665A1F54599","title":"纹兵卫 古北店","lon":"121.396817","lat":"31.193989","category":"95","category_name":"日本料理","address":"长宁区荣华东道57号里昂花园1号2号(近古北路)"},{"poiid":"B2094750D26EA3FF4698","title":"上雅铁板烧 长宁店 Julia Teppanyaki","lon":"121.39577541849","lat":"31.194540619812","category":"269","category_name":"烧烤","address":"长宁区黄金城道851号(近水城南路)"},{"poiid":"B2094757D065A1FD4492","title":"二金堂","lon":"121.39640758","lat":"31.195499751","category":"500","category_name":"未知分类","address":"上海市长宁区古北新区黄金城道810号"},{"poiid":"B2094757D06AABFF469D","title":"凯司令西点房(古北店)","lon":"121.39919","lat":"31.19504","category":"67","category_name":"甜品店","address":"长宁区黄金城道727号(近古北路)"},{"poiid":"B2094751D56EA3FB439F","title":"魔家Tokyo铁板(古北店)","lon":"121.39607","lat":"31.19414","category":"269","category_name":"烧烤","address":"长宁区荣华东道19弄4号云古酒店店公寓1楼4012-4013室(近水城南路)"},{"poiid":"B2094757D169A0FB409B","title":"cabler cake coffee","lon":"121.39621938","lat":"31.195153345","category":"67","category_name":"甜品店","address":"上海市黄金城道818号"},{"poiid":"B2094655D268A4FD429F","title":"马赛花园","lon":"121.39641","lat":"31.195349","category":"47","category_name":"住宅区","address":"荣华东道79弄"},{"poiid":"B2094655D26EA4FD4898","title":"串庵 Kushiyaki House","lon":"121.39708966515","lat":"31.195117494761","category":"247","category_name":"餐饮美食","address":"黄金城道818号近古北路"},{"poiid":"B2094757D169A3F84698","title":"北海道扎幌拉面","lon":"121.396815586","lat":"31.1945497334","category":"247","category_name":"餐饮美食","address":"上海黄金城道810号"},{"poiid":"B209475CD06BA3F8479D","title":"鹿港小镇 黄金城道店","lon":"121.396949","lat":"31.195202","category":"91","category_name":"台湾菜","address":"黄金城道778号(近古北路)"},{"poiid":"B2094655D26FA4FC4992","title":"健康煮 古北店","lon":"121.396586","lat":"31.1947895","category":"257","category_name":"中餐厅","address":"黄金城道807号近古北路"},{"poiid":"B2094757D56CA0FA439C","title":"必胜客 Pizza Hut","lon":"121.397638","lat":"31.19517","category":"247","category_name":"餐饮美食","address":"古北路1088号1楼3楼近黄金城道"},{"poiid":"B2094757D069A2FE419A","title":"枣子树(古北店)","lon":"121.39642","lat":"31.19469","category":"89","category_name":"中式素餐馆","address":"长宁区黄金城道848号巴黎花园2楼(近水城南路)"},{"poiid":"B2094757D664A3F8449E","title":"猫与爵士 CAT&JAZZ","lon":"121.397601054","lat":"31.194368793","category":"260","category_name":"其他","address":"长宁区荣华东道79弄马赛花园3号301室(近古北路)"},{"poiid":"B2094751DB6BA7F4489F","title":"角落咖啡","lon":"121.39719","lat":"31.19601","category":"247","category_name":"餐饮美食","address":"长宁区荣华东道82号(近古北路)"},{"poiid":"B2094757D16BAAFC4393","title":"Nini Thai","lon":"121.395335786","lat":"31.1944600316","category":"99","category_name":"泰国／越南菜品餐厅","address":"长宁区水城南路37号3楼(近延安西路)"},{"poiid":"B2094654D564A2F84999","title":"南海活鱼","lon":"121.397218","lat":"31.194359","category":"96","category_name":"韩国料理","address":"上海长宁区荣华东道60弄里昂花园2号(近古北路)  "},{"poiid":"B2094757D16FA0FA4299","title":"渣打银行(古北支行)","lon":"121.39656406","lat":"31.194919328","category":"150","category_name":"银行","address":"上海黄金城道805号"},{"poiid":"B2094654D564A2F8469C","title":"香啡缤 黄金城道店 Coffee Bean&Tea Leaf","lon":"121.39444829068","lat":"31.194243094447","category":"247","category_name":"餐饮美食","address":"黄金城道915号近古北路"},{"poiid":"B2094757D569A0FC4493","title":"全家便利店(黄金城道)","lon":"121.39619086","lat":"31.19509359","category":"117","category_name":"便民商店/便利店","address":"中国上海市长宁区黄金城道"},{"poiid":"B2094654D564A2F84499","title":"黄金豪园","lon":"121.39754","lat":"31.195518","category":"47","category_name":"住宅区","address":"上海市长宁区黄金城道777号(古北路口)"},{"poiid":"B2094655D26BA3FD4192","title":"艺林盲人按摩院古北店","lon":"121.395","lat":"31.19506","category":"149","category_name":"洗浴推拿场所","address":"长宁区荣华东道119弄巴黎花园4号101室(近水城南路)"},{"poiid":"B2094654D564A2F8449A","title":"珉士美容美发","lon":"121.39611","lat":"31.19546","category":"148","category_name":"美容美发店","address":""},{"poiid":"B2094654DB6BA7F9459E","title":"友莉米糕","lon":"121.397464054","lat":"31.195914793","category":"96","category_name":"韩国料理","address":"长宁区荣华东道60弄1号里昂花园1号(近古北路)"},{"poiid":"B2094655D26DA0F54593","title":"里昂花园东区(黄金城道)","lon":"121.39703","lat":"31.19469","category":"47","category_name":"住宅区","address":"荣华东道60弄1-3号"},{"poiid":"B2094655D26DA0F54799","title":"里昂花园西区","lon":"121.39656","lat":"31.19444","category":"47","category_name":"住宅区","address":"荣华东道59弄1-4号"},{"poiid":"B2094655D268A4F5459B","title":"维多利亚高级商务楼","lon":"121.3967","lat":"31.19627","category":"46","category_name":"楼宇","address":""},{"poiid":"B2094757D66EA4FE4998","title":"Nail Boutique","lon":"121.39622958","lat":"31.195184745","category":"500","category_name":"未知分类","address":"上海長寧區榮華東道119弄"},{"poiid":"B2094757D66AA6F44792","title":"开心站 COCORU Chichen & ODEN","lon":"121.396395","lat":"31.193877","category":"96","category_name":"韩国料理","address":"长宁区翠钰路17号(近名都城)"},{"poiid":"B2094654DB69AAFB4898","title":"千禧海鸥大酒店欧咖啡餐厅","lon":"121.39518","lat":"31.19704","category":"268","category_name":"自助","address":"长宁区延安西路2588号千禧海鸥大酒店1楼(近古北家乐福)"},{"poiid":"B2094654DB6AA6F84692","title":"上海千禧海鸥大酒店","lon":"121.39518","lat":"31.19704","category":"112","category_name":"糕饼店","address":"长宁区延安西路2588号千禧海鸥大酒店1楼(近古北家乐福)"},{"poiid":"B2094757D068A1FF419B","title":"鹿港老镇","lon":"121.39703258","lat":"31.195483751","category":"500","category_name":"未知分类","address":"上海市长宁区黄金城道778号(古北路)"},{"poiid":"B2094757D06FA1FB4498","title":"千秋膳房(古北店)","lon":"121.39549","lat":"31.19448","category":"91","category_name":"台湾菜","address":"上海长宁区水城南路17号"},{"poiid":"B2094757D16CAAF8409C","title":"平壤高丽餐厅","lon":"121.397864586","lat":"31.19540175","category":"96","category_name":"韩国料理","address":"长宁区古北路1088号2楼(近中信银行)"},{"poiid":"B2094757D06FA0FD429F","title":"Wagas沃歌斯(古北店)","lon":"121.39416","lat":"31.19637","category":"94","category_name":"西餐厅","address":"长宁区水城南路268号家乐福1楼(近延安西路)"},{"poiid":"B2094757D06BABFE449C","title":"黄金城道","lon":"121.395090586","lat":"31.1946027344","category":"500","category_name":"未知分类","address":"上海黄金城道水城南路"},{"poiid":"B2094654DB64A6FF429C","title":"星巴克(古北店)","lon":"121.394189","lat":"31.193703","category":"260","category_name":"其他","address":"长宁区水城南路20号(黄金城道水城南路)"},{"poiid":"B2094654DB64AAF4419A","title":"华越楼No.1","lon":"121.39712","lat":"31.19486","category":"99","category_name":"泰国／越南菜品餐厅","address":"长宁区黄金城道781号(近古北路)"},{"poiid":"B2094757D069A1FE4093","title":"陵水酒家","lon":"121.39535","lat":"31.19536","category":"96","category_name":"韩国料理","address":"长宁区荣华东道119弄2号巴黎花园B楼107号(近水城南路)"},{"poiid":"B2094757D06FA2FB419C","title":"麦当劳(古北店)","lon":"121.39396","lat":"31.19584","category":"68","category_name":"快餐厅","address":"长宁区水城南路258号古北家乐福附近(近延安西路)"},{"poiid":"B2094757D06AA5FD4992","title":"里の水","lon":"121.39682","lat":"31.19424","category":"95","category_name":"日本料理","address":"长宁区荣华东道57弄1号102(近古北路)"},{"poiid":"B2094757D66AAAFF4598","title":"涟波 SAZANAMI","lon":"121.39484837119","lat":"31.19537499377","category":"95","category_name":"日本料理","address":"长宁区荣华东道121号(近家乐福)"},{"poiid":"B2094757D66BA6F9489D","title":"早安巴黎 黄金城道店 Bon Matin","lon":"121.398810054","lat":"31.195088793","category":"112","category_name":"糕饼店","address":"长宁区黄金城道506号(近伊犁南路)"},{"poiid":"B2094757D069ABFA439A","title":"もんじゃ鬼ぴ～","lon":"121.39527","lat":"31.19343","category":"95","category_name":"日本料理","address":"上海长宁区荣华东道19弄3号d室(近水城南路)"},{"poiid":"B2094757D068ABFC429E","title":"卡布拉蛋糕专卖店(古北店)","lon":"121.39712","lat":"31.19483","category":"67","category_name":"甜品店","address":"长宁区黄金城道818号(近古北路)"},{"poiid":"B2094654D564A2F9409E","title":"函极博","lon":"121.39636","lat":"31.19426","category":"96","category_name":"韩国料理","address":"长宁区荣华东道60弄1号里昂花园内(近水城南路)"},{"poiid":"B2094757D664A1F9459F","title":"万寿亭 古北店","lon":"121.3963","lat":"31.19385","category":"96","category_name":"韩国料理","address":"长宁区荣华东道19弄2号(近水城南路)"},{"poiid":"B2094757D068A1FE4792","title":"CAT&amp;JAZZ","lon":"121.3972","lat":"31.1955","category":"260","category_name":"其他","address":"上海长宁区荣华东道79弄马赛花园3号301室(近古北路)"},{"poiid":"B2094757D464A7FF4592","title":"伊豆日本烧肉","lon":"121.39578130603","lat":"31.194834981876","category":"247","category_name":"餐饮美食","address":"长宁区黄金城道856号(水城南路和古北南路之间)"},{"poiid":"B2094757D46FA0F4439B","title":"二金堂拉面","lon":"121.395927","lat":"31.19513","category":"95","category_name":"日本料理","address":"长宁区黄金城道810号(近古北路)"},{"poiid":"B2094757D665A1F54599","title":"纹兵卫 古北店","lon":"121.396817","lat":"31.193989","category":"95","category_name":"日本料理","address":"长宁区荣华东道57号里昂花园1号2号(近古北路)"},{"poiid":"B2094750D26EA3FF4698","title":"上雅铁板烧 长宁店 Julia Teppanyaki","lon":"121.39577541849","lat":"31.194540619812","category":"269","category_name":"烧烤","address":"长宁区黄金城道851号(近水城南路)"},{"poiid":"B2094757D065A1FD4492","title":"二金堂","lon":"121.39640758","lat":"31.195499751","category":"500","category_name":"未知分类","address":"上海市长宁区古北新区黄金城道810号"},{"poiid":"B2094757D06AABFF469D","title":"凯司令西点房(古北店)","lon":"121.39919","lat":"31.19504","category":"67","category_name":"甜品店","address":"长宁区黄金城道727号(近古北路)"},{"poiid":"B2094751D56EA3FB439F","title":"魔家Tokyo铁板(古北店)","lon":"121.39607","lat":"31.19414","category":"269","category_name":"烧烤","address":"长宁区荣华东道19弄4号云古酒店店公寓1楼4012-4013室(近水城南路)"},{"poiid":"B2094757D169A0FB409B","title":"cabler cake coffee","lon":"121.39621938","lat":"31.195153345","category":"67","category_name":"甜品店","address":"上海市黄金城道818号"},{"poiid":"B2094655D268A4FD429F","title":"马赛花园","lon":"121.39641","lat":"31.195349","category":"47","category_name":"住宅区","address":"荣华东道79弄"},{"poiid":"B2094655D26EA4FD4898","title":"串庵 Kushiyaki House","lon":"121.39708966515","lat":"31.195117494761","category":"247","category_name":"餐饮美食","address":"黄金城道818号近古北路"},{"poiid":"B2094757D169A3F84698","title":"北海道扎幌拉面","lon":"121.396815586","lat":"31.1945497334","category":"247","category_name":"餐饮美食","address":"上海黄金城道810号"},{"poiid":"B209475CD06BA3F8479D","title":"鹿港小镇 黄金城道店","lon":"121.396949","lat":"31.195202","category":"91","category_name":"台湾菜","address":"黄金城道778号(近古北路)"},{"poiid":"B2094655D26FA4FC4992","title":"健康煮 古北店","lon":"121.396586","lat":"31.1947895","category":"257","category_name":"中餐厅","address":"黄金城道807号近古北路"},{"poiid":"B2094757D56CA0FA439C","title":"必胜客 Pizza Hut","lon":"121.397638","lat":"31.19517","category":"247","category_name":"餐饮美食","address":"古北路1088号1楼3楼近黄金城道"},{"poiid":"B2094757D069A2FE419A","title":"枣子树(古北店)","lon":"121.39642","lat":"31.19469","category":"89","category_name":"中式素餐馆","address":"长宁区黄金城道848号巴黎花园2楼(近水城南路)"},{"poiid":"B2094757D664A3F8449E","title":"猫与爵士 CAT&JAZZ","lon":"121.397601054","lat":"31.194368793","category":"260","category_name":"其他","address":"长宁区荣华东道79弄马赛花园3号301室(近古北路)"},{"poiid":"B2094751DB6BA7F4489F","title":"角落咖啡","lon":"121.39719","lat":"31.19601","category":"247","category_name":"餐饮美食","address":"长宁区荣华东道82号(近古北路)"},{"poiid":"B2094757D16BAAFC4393","title":"Nini Thai","lon":"121.395335786","lat":"31.1944600316","category":"99","category_name":"泰国／越南菜品餐厅","address":"长宁区水城南路37号3楼(近延安西路)"},{"poiid":"B2094654D564A2F84999","title":"南海活鱼","lon":"121.397218","lat":"31.194359","category":"96","category_name":"韩国料理","address":"上海长宁区荣华东道60弄里昂花园2号(近古北路)  "},{"poiid":"B2094757D16FA0FA4299","title":"渣打银行(古北支行)","lon":"121.39656406","lat":"31.194919328","category":"150","category_name":"银行","address":"上海黄金城道805号"},{"poiid":"B2094654D564A2F8469C","title":"香啡缤 黄金城道店 Coffee Bean&Tea Leaf","lon":"121.39444829068","lat":"31.194243094447","category":"247","category_name":"餐饮美食","address":"黄金城道915号近古北路"},{"poiid":"B2094757D569A0FC4493","title":"全家便利店(黄金城道)","lon":"121.39619086","lat":"31.19509359","category":"117","category_name":"便民商店/便利店","address":"中国上海市长宁区黄金城道"},{"poiid":"B2094654D564A2F84499","title":"黄金豪园","lon":"121.39754","lat":"31.195518","category":"47","category_name":"住宅区","address":"上海市长宁区黄金城道777号(古北路口)"},{"poiid":"B2094655D26BA3FD4192","title":"艺林盲人按摩院古北店","lon":"121.395","lat":"31.19506","category":"149","category_name":"洗浴推拿场所","address":"长宁区荣华东道119弄巴黎花园4号101室(近水城南路)"},{"poiid":"B2094654D564A2F8449A","title":"珉士美容美发","lon":"121.39611","lat":"31.19546","category":"148","category_name":"美容美发店","address":""},{"poiid":"B2094654DB6BA7F9459E","title":"友莉米糕","lon":"121.397464054","lat":"31.195914793","category":"96","category_name":"韩国料理","address":"长宁区荣华东道60弄1号里昂花园1号(近古北路)"},{"poiid":"B2094655D26DA0F54593","title":"里昂花园东区(黄金城道)","lon":"121.39703","lat":"31.19469","category":"47","category_name":"住宅区","address":"荣华东道60弄1-3号"},{"poiid":"B2094655D26DA0F54799","title":"里昂花园西区","lon":"121.39656","lat":"31.19444","category":"47","category_name":"住宅区","address":"荣华东道59弄1-4号"},{"poiid":"B2094655D268A4F5459B","title":"维多利亚高级商务楼","lon":"121.3967","lat":"31.19627","category":"46","category_name":"楼宇","address":""},{"poiid":"B2094757D66EA4FE4998","title":"Nail Boutique","lon":"121.39622958","lat":"31.195184745","category":"500","category_name":"未知分类","address":"上海長寧區榮華東道119弄"},{"poiid":"B2094757D66AA6F44792","title":"开心站 COCORU Chichen & ODEN","lon":"121.396395","lat":"31.193877","category":"96","category_name":"韩国料理","address":"长宁区翠钰路17号(近名都城)"},{"poiid":"B2094654DB69AAFB4898","title":"千禧海鸥大酒店欧咖啡餐厅","lon":"121.39518","lat":"31.19704","category":"268","category_name":"自助","address":"长宁区延安西路2588号千禧海鸥大酒店1楼(近古北家乐福)"},{"poiid":"B2094654DB6AA6F84692","title":"上海千禧海鸥大酒店","lon":"121.39518","lat":"31.19704","category":"112","category_name":"糕饼店","address":"长宁区延安西路2588号千禧海鸥大酒店1楼(近古北家乐福)"},{"poiid":"B2094757D068A1FF419B","title":"鹿港老镇","lon":"121.39703258","lat":"31.195483751","category":"500","category_name":"未知分类","address":"上海市长宁区黄金城道778号(古北路)"},{"poiid":"B2094757D06FA1FB4498","title":"千秋膳房(古北店)","lon":"121.39549","lat":"31.19448","category":"91","category_name":"台湾菜","address":"上海长宁区水城南路17号"},{"poiid":"B2094757D16CAAF8409C","title":"平壤高丽餐厅","lon":"121.397864586","lat":"31.19540175","category":"96","category_name":"韩国料理","address":"长宁区古北路1088号2楼(近中信银行)"},{"poiid":"B2094757D06FA0FD429F","title":"Wagas沃歌斯(古北店)","lon":"121.39416","lat":"31.19637","category":"94","category_name":"西餐厅","address":"长宁区水城南路268号家乐福1楼(近延安西路)"},{"poiid":"B2094757D06BABFE449C","title":"黄金城道","lon":"121.395090586","lat":"31.1946027344","category":"500","category_name":"未知分类","address":"上海黄金城道水城南路"},{"poiid":"B2094654DB64A6FF429C","title":"星巴克(古北店)","lon":"121.394189","lat":"31.193703","category":"260","category_name":"其他","address":"长宁区水城南路20号(黄金城道水城南路)"},{"poiid":"B2094654DB64AAF4419A","title":"华越楼No.1","lon":"121.39712","lat":"31.19486","category":"99","category_name":"泰国／越南菜品餐厅","address":"长宁区黄金城道781号(近古北路)"},{"poiid":"B2094757D069A1FE4093","title":"陵水酒家","lon":"121.39535","lat":"31.19536","category":"96","category_name":"韩国料理","address":"长宁区荣华东道119弄2号巴黎花园B楼107号(近水城南路)"},{"poiid":"B2094757D06FA2FB419C","title":"麦当劳(古北店)","lon":"121.39396","lat":"31.19584","category":"68","category_name":"快餐厅","address":"长宁区水城南路258号古北家乐福附近(近延安西路)"},{"poiid":"B2094757D06AA5FD4992","title":"里の水","lon":"121.39682","lat":"31.19424","category":"95","category_name":"日本料理","address":"长宁区荣华东道57弄1号102(近古北路)"},{"poiid":"B2094757D66AAAFF4598","title":"涟波 SAZANAMI","lon":"121.39484837119","lat":"31.19537499377","category":"95","category_name":"日本料理","address":"长宁区荣华东道121号(近家乐福)"},{"poiid":"B2094757D66BA6F9489D","title":"早安巴黎 黄金城道店 Bon Matin","lon":"121.398810054","lat":"31.195088793","category":"112","category_name":"糕饼店","address":"长宁区黄金城道506号(近伊犁南路)"},{"poiid":"B2094757D069ABFA439A","title":"もんじゃ鬼ぴ～","lon":"121.39527","lat":"31.19343","category":"95","category_name":"日本料理","address":"上海长宁区荣华东道19弄3号d室(近水城南路)"},{"poiid":"B2094757D068ABFC429E","title":"卡布拉蛋糕专卖店(古北店)","lon":"121.39712","lat":"31.19483","category":"67","category_name":"甜品店","address":"长宁区黄金城道818号(近古北路)"},{"poiid":"B2094654D564A2F9409E","title":"函极博","lon":"121.39636","lat":"31.19426","category":"96","category_name":"韩国料理","address":"长宁区荣华东道60弄1号里昂花园内(近水城南路)"},{"poiid":"B2094757D664A1F9459F","title":"万寿亭 古北店","lon":"121.3963","lat":"31.19385","category":"96","category_name":"韩国料理","address":"长宁区荣华东道19弄2号(近水城南路)"},{"poiid":"B2094757D068A1FE4792","title":"CAT&amp;JAZZ","lon":"121.3972","lat":"31.1955","category":"260","category_name":"其他","address":"上海长宁区荣华东道79弄马赛花园3号301室(近古北路)"},{"poiid":"B2094757D464A7FF4592","title":"伊豆日本烧肉","lon":"121.39578130603","lat":"31.194834981876","category":"247","category_name":"餐饮美食","address":"长宁区黄金城道856号(水城南路和古北南路之间)"},{"poiid":"B2094757D46FA0F4439B","title":"二金堂拉面","lon":"121.395927","lat":"31.19513","category":"95","category_name":"日本料理","address":"长宁区黄金城道810号(近古北路)"},{"poiid":"B2094757D665A1F54599","title":"纹兵卫 古北店","lon":"121.396817","lat":"31.193989","category":"95","category_name":"日本料理","address":"长宁区荣华东道57号里昂花园1号2号(近古北路)"},{"poiid":"B2094750D26EA3FF4698","title":"上雅铁板烧 长宁店 Julia Teppanyaki","lon":"121.39577541849","lat":"31.194540619812","category":"269","category_name":"烧烤","address":"长宁区黄金城道851号(近水城南路)"},{"poiid":"B2094757D065A1FD4492","title":"二金堂","lon":"121.39640758","lat":"31.195499751","category":"500","category_name":"未知分类","address":"上海市长宁区古北新区黄金城道810号"},{"poiid":"B2094757D06AABFF469D","title":"凯司令西点房(古北店)","lon":"121.39919","lat":"31.19504","category":"67","category_name":"甜品店","address":"长宁区黄金城道727号(近古北路)"},{"poiid":"B2094751D56EA3FB439F","title":"魔家Tokyo铁板(古北店)","lon":"121.39607","lat":"31.19414","category":"269","category_name":"烧烤","address":"长宁区荣华东道19弄4号云古酒店店公寓1楼4012-4013室(近水城南路)"},{"poiid":"B2094757D169A0FB409B","title":"cabler cake coffee","lon":"121.39621938","lat":"31.195153345","category":"67","category_name":"甜品店","address":"上海市黄金城道818号"},{"poiid":"B2094655D268A4FD429F","title":"马赛花园","lon":"121.39641","lat":"31.195349","category":"47","category_name":"住宅区","address":"荣华东道79弄"},{"poiid":"B2094655D26EA4FD4898","title":"串庵 Kushiyaki House","lon":"121.39708966515","lat":"31.195117494761","category":"247","category_name":"餐饮美食","address":"黄金城道818号近古北路"},{"poiid":"B2094757D169A3F84698","title":"北海道扎幌拉面","lon":"121.396815586","lat":"31.1945497334","category":"247","category_name":"餐饮美食","address":"上海黄金城道810号"},{"poiid":"B209475CD06BA3F8479D","title":"鹿港小镇 黄金城道店","lon":"121.396949","lat":"31.195202","category":"91","category_name":"台湾菜","address":"黄金城道778号(近古北路)"},{"poiid":"B2094655D26FA4FC4992","title":"健康煮 古北店","lon":"121.396586","lat":"31.1947895","category":"257","category_name":"中餐厅","address":"黄金城道807号近古北路"},{"poiid":"B2094757D56CA0FA439C","title":"必胜客 Pizza Hut","lon":"121.397638","lat":"31.19517","category":"247","category_name":"餐饮美食","address":"古北路1088号1楼3楼近黄金城道"},{"poiid":"B2094757D069A2FE419A","title":"枣子树(古北店)","lon":"121.39642","lat":"31.19469","category":"89","category_name":"中式素餐馆","address":"长宁区黄金城道848号巴黎花园2楼(近水城南路)"},{"poiid":"B2094757D664A3F8449E","title":"猫与爵士 CAT&JAZZ","lon":"121.397601054","lat":"31.194368793","category":"260","category_name":"其他","address":"长宁区荣华东道79弄马赛花园3号301室(近古北路)"},{"poiid":"B2094751DB6BA7F4489F","title":"角落咖啡","lon":"121.39719","lat":"31.19601","category":"247","category_name":"餐饮美食","address":"长宁区荣华东道82号(近古北路)"},{"poiid":"B2094757D16BAAFC4393","title":"Nini Thai","lon":"121.395335786","lat":"31.1944600316","category":"99","category_name":"泰国／越南菜品餐厅","address":"长宁区水城南路37号3楼(近延安西路)"},{"poiid":"B2094654D564A2F84999","title":"南海活鱼","lon":"121.397218","lat":"31.194359","category":"96","category_name":"韩国料理","address":"上海长宁区荣华东道60弄里昂花园2号(近古北路)  "},{"poiid":"B2094757D16FA0FA4299","title":"渣打银行(古北支行)","lon":"121.39656406","lat":"31.194919328","category":"150","category_name":"银行","address":"上海黄金城道805号"},{"poiid":"B2094654D564A2F8469C","title":"香啡缤 黄金城道店 Coffee Bean&Tea Leaf","lon":"121.39444829068","lat":"31.194243094447","category":"247","category_name":"餐饮美食","address":"黄金城道915号近古北路"},{"poiid":"B2094757D569A0FC4493","title":"全家便利店(黄金城道)","lon":"121.39619086","lat":"31.19509359","category":"117","category_name":"便民商店/便利店","address":"中国上海市长宁区黄金城道"},{"poiid":"B2094654D564A2F84499","title":"黄金豪园","lon":"121.39754","lat":"31.195518","category":"47","category_name":"住宅区","address":"上海市长宁区黄金城道777号(古北路口)"},{"poiid":"B2094655D26BA3FD4192","title":"艺林盲人按摩院古北店","lon":"121.395","lat":"31.19506","category":"149","category_name":"洗浴推拿场所","address":"长宁区荣华东道119弄巴黎花园4号101室(近水城南路)"},{"poiid":"B2094654D564A2F8449A","title":"珉士美容美发","lon":"121.39611","lat":"31.19546","category":"148","category_name":"美容美发店","address":""},{"poiid":"B2094654DB6BA7F9459E","title":"友莉米糕","lon":"121.397464054","lat":"31.195914793","category":"96","category_name":"韩国料理","address":"长宁区荣华东道60弄1号里昂花园1号(近古北路)"},{"poiid":"B2094655D26DA0F54593","title":"里昂花园东区(黄金城道)","lon":"121.39703","lat":"31.19469","category":"47","category_name":"住宅区","address":"荣华东道60弄1-3号"},{"poiid":"B2094655D26DA0F54799","title":"里昂花园西区","lon":"121.39656","lat":"31.19444","category":"47","category_name":"住宅区","address":"荣华东道59弄1-4号"},{"poiid":"B2094655D268A4F5459B","title":"维多利亚高级商务楼","lon":"121.3967","lat":"31.19627","category":"46","category_name":"楼宇","address":""},{"poiid":"B2094757D66EA4FE4998","title":"Nail Boutique","lon":"121.39622958","lat":"31.195184745","category":"500","category_name":"未知分类","address":"上海長寧區榮華東道119弄"},{"poiid":"B2094757D66AA6F44792","title":"开心站 COCORU Chichen & ODEN","lon":"121.396395","lat":"31.193877","category":"96","category_name":"韩国料理","address":"长宁区翠钰路17号(近名都城)"},{"poiid":"B2094654DB69AAFB4898","title":"千禧海鸥大酒店欧咖啡餐厅","lon":"121.39518","lat":"31.19704","category":"268","category_name":"自助","address":"长宁区延安西路2588号千禧海鸥大酒店1楼(近古北家乐福)"},{"poiid":"B2094654DB6AA6F84692","title":"上海千禧海鸥大酒店","lon":"121.39518","lat":"31.19704","category":"112","category_name":"糕饼店","address":"长宁区延安西路2588号千禧海鸥大酒店1楼(近古北家乐福)"},{"poiid":"B2094757D068A1FF419B","title":"鹿港老镇","lon":"121.39703258","lat":"31.195483751","category":"500","category_name":"未知分类","address":"上海市长宁区黄金城道778号(古北路)"},{"poiid":"B2094757D06FA1FB4498","title":"千秋膳房(古北店)","lon":"121.39549","lat":"31.19448","category":"91","category_name":"台湾菜","address":"上海长宁区水城南路17号"},{"poiid":"B2094757D16CAAF8409C","title":"平壤高丽餐厅","lon":"121.397864586","lat":"31.19540175","category":"96","category_name":"韩国料理","address":"长宁区古北路1088号2楼(近中信银行)"},{"poiid":"B2094757D06FA0FD429F","title":"Wagas沃歌斯(古北店)","lon":"121.39416","lat":"31.19637","category":"94","category_name":"西餐厅","address":"长宁区水城南路268号家乐福1楼(近延安西路)"},{"poiid":"B2094757D06BABFE449C","title":"黄金城道","lon":"121.395090586","lat":"31.1946027344","category":"500","category_name":"未知分类","address":"上海黄金城道水城南路"},{"poiid":"B2094654DB64A6FF429C","title":"星巴克(古北店)","lon":"121.394189","lat":"31.193703","category":"260","category_name":"其他","address":"长宁区水城南路20号(黄金城道水城南路)"},{"poiid":"B2094654DB64AAF4419A","title":"华越楼No.1","lon":"121.39712","lat":"31.19486","category":"99","category_name":"泰国／越南菜品餐厅","address":"长宁区黄金城道781号(近古北路)"},{"poiid":"B2094757D069A1FE4093","title":"陵水酒家","lon":"121.39535","lat":"31.19536","category":"96","category_name":"韩国料理","address":"长宁区荣华东道119弄2号巴黎花园B楼107号(近水城南路)"},{"poiid":"B2094757D06FA2FB419C","title":"麦当劳(古北店)","lon":"121.39396","lat":"31.19584","category":"68","category_name":"快餐厅","address":"长宁区水城南路258号古北家乐福附近(近延安西路)"},{"poiid":"B2094757D06AA5FD4992","title":"里の水","lon":"121.39682","lat":"31.19424","category":"95","category_name":"日本料理","address":"长宁区荣华东道57弄1号102(近古北路)"},{"poiid":"B2094757D66AAAFF4598","title":"涟波 SAZANAMI","lon":"121.39484837119","lat":"31.19537499377","category":"95","category_name":"日本料理","address":"长宁区荣华东道121号(近家乐福)"},{"poiid":"B2094757D66BA6F9489D","title":"早安巴黎 黄金城道店 Bon Matin","lon":"121.398810054","lat":"31.195088793","category":"112","category_name":"糕饼店","address":"长宁区黄金城道506号(近伊犁南路)"},{"poiid":"B2094757D069ABFA439A","title":"もんじゃ鬼ぴ～","lon":"121.39527","lat":"31.19343","category":"95","category_name":"日本料理","address":"上海长宁区荣华东道19弄3号d室(近水城南路)"},{"poiid":"B2094757D068ABFC429E","title":"卡布拉蛋糕专卖店(古北店)","lon":"121.39712","lat":"31.19483","category":"67","category_name":"甜品店","address":"长宁区黄金城道818号(近古北路)"},{"poiid":"B2094654D564A2F9409E","title":"函极博","lon":"121.39636","lat":"31.19426","category":"96","category_name":"韩国料理","address":"长宁区荣华东道60弄1号里昂花园内(近水城南路)"},{"poiid":"B2094757D664A1F9459F","title":"万寿亭 古北店","lon":"121.3963","lat":"31.19385","category":"96","category_name":"韩国料理","address":"长宁区荣华东道19弄2号(近水城南路)"},{"poiid":"B2094757D068A1FE4792","title":"CAT&amp;JAZZ","lon":"121.3972","lat":"31.1955","category":"260","category_name":"其他","address":"上海长宁区荣华东道79弄马赛花园3号301室(近古北路)"},{"poiid":"B2094757D464A7FF4592","title":"伊豆日本烧肉","lon":"121.39578130603","lat":"31.194834981876","category":"247","category_name":"餐饮美食","address":"长宁区黄金城道856号(水城南路和古北南路之间)"},{"poiid":"B2094757D46FA0F4439B","title":"二金堂拉面","lon":"121.395927","lat":"31.19513","category":"95","category_name":"日本料理","address":"长宁区黄金城道810号(近古北路)"},{"poiid":"B2094757D665A1F54599","title":"纹兵卫 古北店","lon":"121.396817","lat":"31.193989","category":"95","category_name":"日本料理","address":"长宁区荣华东道57号里昂花园1号2号(近古北路)"},{"poiid":"B2094750D26EA3FF4698","title":"上雅铁板烧 长宁店 Julia Teppanyaki","lon":"121.39577541849","lat":"31.194540619812","category":"269","category_name":"烧烤","address":"长宁区黄金城道851号(近水城南路)"},{"poiid":"B2094757D065A1FD4492","title":"二金堂","lon":"121.39640758","lat":"31.195499751","category":"500","category_name":"未知分类","address":"上海市长宁区古北新区黄金城道810号"},{"poiid":"B2094757D06AABFF469D","title":"凯司令西点房(古北店)","lon":"121.39919","lat":"31.19504","category":"67","category_name":"甜品店","address":"长宁区黄金城道727号(近古北路)"},{"poiid":"B2094751D56EA3FB439F","title":"魔家Tokyo铁板(古北店)","lon":"121.39607","lat":"31.19414","category":"269","category_name":"烧烤","address":"长宁区荣华东道19弄4号云古酒店店公寓1楼4012-4013室(近水城南路)"},{"poiid":"B2094757D169A0FB409B","title":"cabler cake coffee","lon":"121.39621938","lat":"31.195153345","category":"67","category_name":"甜品店","address":"上海市黄金城道818号"},{"poiid":"B2094655D268A4FD429F","title":"马赛花园","lon":"121.39641","lat":"31.195349","category":"47","category_name":"住宅区","address":"荣华东道79弄"},{"poiid":"B2094655D26EA4FD4898","title":"串庵 Kushiyaki House","lon":"121.39708966515","lat":"31.195117494761","category":"247","category_name":"餐饮美食","address":"黄金城道818号近古北路"},{"poiid":"B2094757D169A3F84698","title":"北海道扎幌拉面","lon":"121.396815586","lat":"31.1945497334","category":"247","category_name":"餐饮美食","address":"上海黄金城道810号"},{"poiid":"B209475CD06BA3F8479D","title":"鹿港小镇 黄金城道店","lon":"121.396949","lat":"31.195202","category":"91","category_name":"台湾菜","address":"黄金城道778号(近古北路)"},{"poiid":"B2094655D26FA4FC4992","title":"健康煮 古北店","lon":"121.396586","lat":"31.1947895","category":"257","category_name":"中餐厅","address":"黄金城道807号近古北路"},{"poiid":"B2094757D56CA0FA439C","title":"必胜客 Pizza Hut","lon":"121.397638","lat":"31.19517","category":"247","category_name":"餐饮美食","address":"古北路1088号1楼3楼近黄金城道"},{"poiid":"B2094757D069A2FE419A","title":"枣子树(古北店)","lon":"121.39642","lat":"31.19469","category":"89","category_name":"中式素餐馆","address":"长宁区黄金城道848号巴黎花园2楼(近水城南路)"},{"poiid":"B2094757D664A3F8449E","title":"猫与爵士 CAT&JAZZ","lon":"121.397601054","lat":"31.194368793","category":"260","category_name":"其他","address":"长宁区荣华东道79弄马赛花园3号301室(近古北路)"},{"poiid":"B2094751DB6BA7F4489F","title":"角落咖啡","lon":"121.39719","lat":"31.19601","category":"247","category_name":"餐饮美食","address":"长宁区荣华东道82号(近古北路)"},{"poiid":"B2094757D16BAAFC4393","title":"Nini Thai","lon":"121.395335786","lat":"31.1944600316","category":"99","category_name":"泰国／越南菜品餐厅","address":"长宁区水城南路37号3楼(近延安西路)"},{"poiid":"B2094654D564A2F84999","title":"南海活鱼","lon":"121.397218","lat":"31.194359","category":"96","category_name":"韩国料理","address":"上海长宁区荣华东道60弄里昂花园2号(近古北路)  "},{"poiid":"B2094757D16FA0FA4299","title":"渣打银行(古北支行)","lon":"121.39656406","lat":"31.194919328","category":"150","category_name":"银行","address":"上海黄金城道805号"},{"poiid":"B2094654D564A2F8469C","title":"香啡缤 黄金城道店 Coffee Bean&Tea Leaf","lon":"121.39444829068","lat":"31.194243094447","category":"247","category_name":"餐饮美食","address":"黄金城道915号近古北路"},{"poiid":"B2094757D569A0FC4493","title":"全家便利店(黄金城道)","lon":"121.39619086","lat":"31.19509359","category":"117","category_name":"便民商店/便利店","address":"中国上海市长宁区黄金城道"},{"poiid":"B2094654D564A2F84499","title":"黄金豪园","lon":"121.39754","lat":"31.195518","category":"47","category_name":"住宅区","address":"上海市长宁区黄金城道777号(古北路口)"},{"poiid":"B2094655D26BA3FD4192","title":"艺林盲人按摩院古北店","lon":"121.395","lat":"31.19506","category":"149","category_name":"洗浴推拿场所","address":"长宁区荣华东道119弄巴黎花园4号101室(近水城南路)"},{"poiid":"B2094654D564A2F8449A","title":"珉士美容美发","lon":"121.39611","lat":"31.19546","category":"148","category_name":"美容美发店","address":""},{"poiid":"B2094654DB6BA7F9459E","title":"友莉米糕","lon":"121.397464054","lat":"31.195914793","category":"96","category_name":"韩国料理","address":"长宁区荣华东道60弄1号里昂花园1号(近古北路)"},{"poiid":"B2094655D26DA0F54593","title":"里昂花园东区(黄金城道)","lon":"121.39703","lat":"31.19469","category":"47","category_name":"住宅区","address":"荣华东道60弄1-3号"},{"poiid":"B2094655D26DA0F54799","title":"里昂花园西区","lon":"121.39656","lat":"31.19444","category":"47","category_name":"住宅区","address":"荣华东道59弄1-4号"},{"poiid":"B2094655D268A4F5459B","title":"维多利亚高级商务楼","lon":"121.3967","lat":"31.19627","category":"46","category_name":"楼宇","address":""},{"poiid":"B2094757D66EA4FE4998","title":"Nail Boutique","lon":"121.39622958","lat":"31.195184745","category":"500","category_name":"未知分类","address":"上海長寧區榮華東道119弄"},{"poiid":"B2094757D66AA6F44792","title":"开心站 COCORU Chichen & ODEN","lon":"121.396395","lat":"31.193877","category":"96","category_name":"韩国料理","address":"长宁区翠钰路17号(近名都城)"},{"poiid":"B2094654DB69AAFB4898","title":"千禧海鸥大酒店欧咖啡餐厅","lon":"121.39518","lat":"31.19704","category":"268","category_name":"自助","address":"长宁区延安西路2588号千禧海鸥大酒店1楼(近古北家乐福)"}]