[{"poiid":"B2094655D36CA1F4449C","title":"老港","lon":"121.84672","lat":"31.02941","category":"38","category_name":"公交车站","address":""},{"poiid":"B2094654DB69A6FC479B","title":"老港工业区","lon":"121.84293","lat":"31.04119","category":"45","category_name":"产业园区","address":"南汇区南港公路1765号"},{"poiid":"B2094654DB6FA4F4429F","title":"桃博园","lon":"121.85146","lat":"31.03667","category":"250","category_name":"公园户外","address":""},{"poiid":"B2094757D164A5F4479C","title":"老港镇港西村","lon":"121.849553","lat":"31.036287","category":"500","category_name":"未知分类","address":"上海浦东新区老港镇港西村"},{"poiid":"B2094655D26DA6FB4198","title":"宏港苑","lon":"121.84293","lat":"31.03363","category":"47","category_name":"住宅区","address":""},{"poiid":"B2094654DB6FA6F9429B","title":"中国电信中港营业处","lon":"121.84121","lat":"31.03979","category":"151","category_name":"电讯营业厅","address":"老港镇"},{"poiid":"B2094757D16CABF9479B","title":"南汇驾校","lon":"121.846088","lat":"31.056536","category":"253","category_name":"校园生活","address":"浦东新区拱极东路8号"},{"poiid":"B2094654DB6FA6F9429A","title":"老港社区卫生服务中心","lon":"121.83867","lat":"31.03958","category":"162","category_name":"医院","address":"鑫盛路13号"},{"poiid":"B2094654DB6FA6F9419C","title":"老港镇文化服务中心图书馆","lon":"121.84082","lat":"31.04066","category":"181","category_name":"图书馆","address":""},{"poiid":"B2094655D26DA6FB459C","title":"教委新村","lon":"121.84082","lat":"31.03954","category":"47","category_name":"住宅区","address":""},{"poiid":"B2094757D16CA2FF4792","title":"中港","lon":"121.83450811","lat":"31.042268935","category":"500","category_name":"未知分类","address":"上海中港"},{"poiid":"B2094654DB69ABF84199","title":"农工商超市(中港店)","lon":"121.84038","lat":"31.03994","category":"118","category_name":"超级市场","address":"南汇区中港镇鑫盛路1号"},{"poiid":"B2094654DB6AA1FB4298","title":"老港沙岭中学","lon":"121.83972","lat":"31.03964","category":"55","category_name":"中学","address":"南汇区老港镇牛肚村"},{"poiid":"B2094654DB6FA6FA459B","title":"老港派出所","lon":"121.84006","lat":"31.03982","category":"609","category_name":"警察局","address":"鑫盛路7弄"},{"poiid":"B2094655D26DA6FB459F","title":"联盛苑小区","lon":"121.83766","lat":"31.03998","category":"47","category_name":"住宅区","address":"老港社区卫生服务中心西北"},{"poiid":"B2094654DB6FA6F8479C","title":"老港镇中心幼儿园","lon":"121.83708","lat":"31.03902","category":"57","category_name":"幼儿园","address":""},{"poiid":"B2094654DB6FA6F9439F","title":"南汇老港中学","lon":"121.84477","lat":"31.02702","category":"55","category_name":"中学","address":"浦东新区老港镇建中路1001号"},{"poiid":"B2094654DB64AAFA4898","title":"中国移动中港路营业厅","lon":"121.8369","lat":"31.04045","category":"151","category_name":"电讯营业厅","address":""},{"poiid":"B2094654DB64A0FA419A","title":"上海农村商业银行老港支行ATM取款机","lon":"121.83967","lat":"31.03981","category":"152","category_name":"ATM","address":""},{"poiid":"B2094655D36CA6FE4692","title":"港东","lon":"121.84795","lat":"31.02745","category":"38","category_name":"公交车站","address":""},{"poiid":"B2094654DB6FA6F94193","title":"新兴啤酒屋","lon":"121.8377","lat":"31.03942","category":"172","category_name":"酒吧","address":"老港镇"},{"poiid":"B2094655D26FA4F9429F","title":"花园新村(东南门)","lon":"121.84123","lat":"31.03742","category":"656","category_name":"大门","address":"建中路"},{"poiid":"B2094757D16EA0FA449C","title":"老港镇建港村","lon":"121.841531","lat":"31.030674","category":"500","category_name":"未知分类","address":"上海老港镇建港村"},{"poiid":"B2094757D16AAAFD479F","title":"中港264号","lon":"121.849205463","lat":"31.05316653","category":"47","category_name":"住宅区","address":"上海拱极路同发路"},{"poiid":"B2094655D26FA4F84399","title":"花园新村(西北门)","lon":"121.84049","lat":"31.03855","category":"656","category_name":"大门","address":""},{"poiid":"B2094654DB6FA6F84899","title":"老港镇建港村社区文化活动中心","lon":"121.84153","lat":"31.03067","category":"248","category_name":"生活娱乐","address":""},{"poiid":"B2094757D16BA5FC439E","title":"阿童木火锅","lon":"121.834672099","lat":"31.0475107547","category":"247","category_name":"餐饮美食","address":"上海惠南镇听潮南路新都会一楼"},{"poiid":"B2094757D66DA1FD479F","title":"老港废弃物处置有限公司","lon":"121.868973687","lat":"31.0407465244","category":"500","category_name":"未知分类","address":"上海南汇老港"},{"poiid":"B2094654DB6FA6F8439E","title":"上海永丽置业老港化工园区","lon":"121.84635","lat":"31.05696","category":"45","category_name":"产业园区","address":""},{"poiid":"B2094757D66EA6FF459D","title":"东宇酒家","lon":"121.83861","lat":"31.05286","category":"260","category_name":"其他","address":"浦东新区合庆镇白龙港"}]