[{"poiid":"B2094654DA6DA4F44792","title":"复旦大学附属眼耳鼻喉科医院(汾阳路总院)","lon":"121.45335","lat":"31.20955","category":"191","category_name":"科研机构","address":"上海徐汇区汾阳路83号(太原路口)"},{"poiid":"B2094655D26EA4FD419B","title":"宝莱纳餐厅(徐汇店)","lon":"121.45233","lat":"31.20984","category":"260","category_name":"其他","address":"徐汇区汾阳路150号(近桃江路)"},{"poiid":"B2094757D06FA7FF479A","title":"仙炙轩(汾阳路店)","lon":"121.452714142","lat":"31.2095961951","category":"269","category_name":"烧烤","address":"徐汇区汾阳路150号(近桃江路)"},{"poiid":"B2094753D76FAAFA449C","title":"上海滩国泰旗舰店","lon":"121.466011","lat":"31.216125","category":"249","category_name":"购物服务","address":"淮海中路868号"},{"poiid":"B209475CD564A7F84292","title":"上海滩新天地店","lon":"121.47463","lat":"31.22164","category":"119","category_name":"商场","address":"\"太仓路181弄新天地北里15号\r\n\""},{"poiid":"B209475CD564A7F8439E","title":"上海滩中信泰富店","lon":"121.45602","lat":"31.22851","category":"119","category_name":"商场","address":"\"南京西路1168号中信泰富广场，店铺号221.\r\n\""},{"poiid":"B2094757D06FA2FA4999","title":"Colabo(衡山店)","lon":"121.451678867","lat":"31.2094187393","category":"94","category_name":"西餐厅","address":"徐汇区汾阳路156号(近桃江路)"},{"poiid":"B2094757D06BA7F54593","title":"五官科医院特约耳鼻喉科门诊","lon":"121.453332","lat":"31.20965","category":"162","category_name":"医院","address":"上海徐汇区汾阳路83号3楼(太原路口)"},{"poiid":"B2094654DB69A5F9449A","title":"星巴克(汾阳路店)","lon":"121.4530533","lat":"31.2097278","category":"65","category_name":"咖啡厅","address":"徐汇区汾阳路138号1楼03单元(太原路)"},{"poiid":"B2094757D06FA4FD499F","title":"La Creperie","lon":"121.4518","lat":"31.20849","category":"94","category_name":"西餐厅","address":"徐汇区桃江路1号(近东平路)"},{"poiid":"B2094757D664A4FA469F","title":"The Camel Bar","lon":"121.451739","lat":"31.20861","category":"172","category_name":"酒吧","address":"徐汇区岳阳路1号(近东平路)"},{"poiid":"B2094757D16DA7FF479A","title":"宝莱纳","lon":"121.45173458","lat":"31.208893013","category":"249","category_name":"购物服务","address":"上海汾阳路138号"},{"poiid":"B2094757D068A1FE449D","title":"复旦大学附属眼耳鼻喉科医院(宝庆路分院)","lon":"121.450369913","lat":"31.2102095153","category":"162","category_name":"医院","address":"徐汇区宝庆路19号(近淮海中路)"},{"poiid":"B2094655D26EA5FA4999","title":"上海教育会堂","lon":"121.45212","lat":"31.20841","category":"68","category_name":"快餐厅","address":"徐汇区岳阳路1号(近东平路)"},{"poiid":"B2094757D06FA0FD449C","title":"Abbey Road","lon":"121.45199149","lat":"31.208174879","category":"94","category_name":"西餐厅","address":"徐汇区岳阳路45号(近永嘉路)"},{"poiid":"B2094757D069A3F54799","title":"El Patio","lon":"121.45368458","lat":"31.210532045","category":"94","category_name":"西餐厅","address":"徐汇区汾阳路110号(近太原路)"},{"poiid":"B2094757D06FA6F54293","title":"斗牛士(岳阳店)","lon":"121.45247","lat":"31.20854","category":"94","category_name":"西餐厅","address":"徐汇区岳阳路1号(近东平路)"},{"poiid":"B2094757D069A3FA429E","title":"Aura Restaurant","lon":"121.45183358","lat":"31.212174077","category":"500","category_name":"未知分类","address":"上海市 汾阳路 复兴中路"},{"poiid":"B2094757D06FA6FC439D","title":"宝莱纳贝可利面包","lon":"121.45267563","lat":"31.209468642","category":"67","category_name":"甜品店","address":"徐汇区汾阳路150号(近桃江路)"},{"poiid":"B2094654DB69A7FD439B","title":"席家花园(徐汇总店)","lon":"121.45147","lat":"31.20833","category":"47","category_name":"住宅区","address":"徐汇区东平路1号(近衡山路)"},{"poiid":"B2094654DA6DA6F8439A","title":"上海市第二中学","lon":"121.45536","lat":"31.21034","category":"55","category_name":"中学","address":"徐汇区永康路200号(近太原路)"},{"poiid":"B2094757DB68AAFE4898","title":"洋房火锅 Hot Pot Sun","lon":"121.45186","lat":"31.2083","category":"88","category_name":"海鲜酒楼","address":"徐汇区岳阳路1号(近汾阳路)"},{"poiid":"B2094654DA6DA4FB419E","title":"和平官邸","lon":"121.45141","lat":"31.20936","category":"76","category_name":"上海菜","address":"徐汇区汾阳路158号(近桃江路)"},{"poiid":"B2094757D06AA3FB4292","title":"上海工艺美术博物馆","lon":"121.45460284","lat":"31.210373083","category":"182","category_name":"博物馆","address":"徐汇区汾阳路79号(永康路与太原路之间)"},{"poiid":"B2094757D06AAAF84399","title":"Greek Taverna","lon":"121.451924586","lat":"31.2083350028","category":"500","category_name":"未知分类","address":"上海市徐汇区岳阳路1号近东平路"},{"poiid":"B2094757D068A3FC4398","title":"轻科大厦","lon":"121.452919","lat":"31.209844589","category":"46","category_name":"楼宇","address":"西城区金融街A区3号地南部"},{"poiid":"B2094757D468A4FE439C","title":"埃哇餐厅 汾阳路店 AURA","lon":"121.454274","lat":"31.2113792","category":"94","category_name":"西餐厅","address":"徐汇区汾阳路64弄4号(近复兴中路)"},{"poiid":"B2094757D06AA2F5409D","title":"鲜芋仙(岳阳店)","lon":"121.451889586","lat":"31.2088120122","category":"67","category_name":"甜品店","address":"徐汇区岳阳路1号(近桃江路东平路)"},{"poiid":"B2094753D464AAF8489D","title":"上海交响乐团音乐厅","lon":"121.451896","lat":"31.21169","category":"500","category_name":"未知分类","address":"复兴中路1380号"},{"poiid":"B2094654DA6DA4F44899","title":"上海市红十字眼耳鼻喉科医院","lon":"121.45334","lat":"31.20954","category":"162","category_name":"医院","address":"汾阳路83"},{"poiid":"B2094757D06EAAFD4392","title":"磨咕咖啡馆 mogoo cafe","lon":"121.454309054","lat":"31.211203793","category":"260","category_name":"其他","address":"徐汇区汾阳路77号(近音乐学院)"},{"poiid":"B2094757D069A4FD4892","title":"东篱文艺沙龙","lon":"121.45067","lat":"31.2104","category":"179","category_name":"音乐厅","address":"徐汇区复兴中路1363弄1号104室(近宝庆路)"},{"poiid":"B2094757D068AAFA4999","title":"猫咖啡 Cat cafe bliss","lon":"121.45400997","lat":"31.209424931","category":"260","category_name":"其他","address":"徐汇区太原路8弄1号2楼(近汾阳路)"},{"poiid":"B2094757D069A1F54799","title":"南蛮亭","lon":"121.45185","lat":"31.20829","category":"95","category_name":"日本料理","address":"徐汇区岳阳路1号(近汾阳路)"},{"poiid":"B2094757D065A3F94398","title":"茜茜莉亚音乐咖啡","lon":"121.4542747","lat":"31.211379","category":"65","category_name":"咖啡厅","address":"徐汇区汾阳路64弄2号(近复兴中路)"},{"poiid":"B2094757D06BAAF44598","title":"尔苑咖啡厅 Anna Maya Vegetarian Cafe","lon":"121.450652054","lat":"31.208991793","category":"89","category_name":"中式素餐馆","address":"徐汇区桃江路3号(近宝庆路)"},{"poiid":"B2094757D165A0FC479B","title":"庆余别墅","lon":"121.45207540812","lat":"31.210259460525","category":"47","category_name":"住宅区","address":"徐汇区衡山路58弄3号(近高安路)"},{"poiid":"B2094757D66BABF9479C","title":"Goga","lon":"121.45167517625","lat":"31.208671976401","category":"94","category_name":"西餐厅","address":"徐汇区岳阳路1号(近东平路)"},{"poiid":"B2094655D265A7FF429F","title":"上海音乐学院(南门)","lon":"121.45434","lat":"31.21193","category":"52","category_name":"高等院校","address":"复兴中路1330"},{"poiid":"B2094750D36BABFA4692","title":"致尚生活的爱","lon":"121.45278908724","lat":"31.211112767704","category":"247","category_name":"餐饮美食","address":"徐汇区复兴中路1335号(近音乐学院)"},{"poiid":"B2094655D26CA1FE439D","title":"Deli & Bakery","lon":"121.45269","lat":"31.20957","category":"112","category_name":"糕饼店","address":""},{"poiid":"B2094757D06FA7FA4998","title":"Memo bar & restaurant","lon":"121.4543","lat":"31.21143","category":"94","category_name":"西餐厅","address":"嘉善路259弄旁嘉善老市内（建国西路和永嘉路之间）"},{"poiid":"B2094655D26AA6FE4598","title":"今啤主题酒吧","lon":"121.45291","lat":"31.20984","category":"94","category_name":"西餐厅","address":"徐汇区汾阳路138号(近太原路)"},{"poiid":"B2094655D26BA2FA439C","title":"太原路永嘉路","lon":"121.45407","lat":"31.20982","category":"38","category_name":"公交车站","address":""},{"poiid":"B2094654DB6BA5FA4599","title":"前进大楼","lon":"121.453","lat":"31.21","category":"46","category_name":"楼宇","address":"永嘉路697-1识别"},{"poiid":"B2094654DA6DA4FB4199","title":"宝轻大厦","lon":"121.45123","lat":"31.20942","category":"46","category_name":"楼宇","address":"宣武区南横街东口"},{"poiid":"B2094655D268A5F9409A","title":"克莱门公寓","lon":"121.4518","lat":"31.21051","category":"47","category_name":"住宅区","address":"复兴中路1363弄1-38号"},{"poiid":"B2094655D268A5F84993","title":"珊珊小区","lon":"121.45242","lat":"31.21065","category":"47","category_name":"住宅区","address":"复兴中路1333弄1-6号"},{"poiid":"B2094757D064A3FC459C","title":"复兴中路近汾阳路","lon":"121.4519967","lat":"31.211072371","category":"500","category_name":"未知分类","address":"上海1333弄"},{"poiid":"B2094655D269A4F54898","title":"美优网","lon":"121.45291","lat":"31.20984","category":"247","category_name":"餐饮美食","address":"徐汇区汾阳路138号5楼(近桃江路)"},{"poiid":"B2094654DA6DA4F44792","title":"复旦大学附属眼耳鼻喉科医院(汾阳路总院)","lon":"121.45335","lat":"31.20955","category":"191","category_name":"科研机构","address":"上海徐汇区汾阳路83号(太原路口)"},{"poiid":"B2094655D26EA4FD419B","title":"宝莱纳餐厅(徐汇店)","lon":"121.45233","lat":"31.20984","category":"260","category_name":"其他","address":"徐汇区汾阳路150号(近桃江路)"},{"poiid":"B2094757D06FA7FF479A","title":"仙炙轩(汾阳路店)","lon":"121.452714142","lat":"31.2095961951","category":"269","category_name":"烧烤","address":"徐汇区汾阳路150号(近桃江路)"},{"poiid":"B2094753D76FAAFA449C","title":"上海滩国泰旗舰店","lon":"121.466011","lat":"31.216125","category":"249","category_name":"购物服务","address":"淮海中路868号"},{"poiid":"B209475CD564A7F84292","title":"上海滩新天地店","lon":"121.47463","lat":"31.22164","category":"119","category_name":"商场","address":"\"太仓路181弄新天地北里15号\r\n\""},{"poiid":"B209475CD564A7F8439E","title":"上海滩中信泰富店","lon":"121.45602","lat":"31.22851","category":"119","category_name":"商场","address":"\"南京西路1168号中信泰富广场，店铺号221.\r\n\""},{"poiid":"B2094757D06FA2FA4999","title":"Colabo(衡山店)","lon":"121.451678867","lat":"31.2094187393","category":"94","category_name":"西餐厅","address":"徐汇区汾阳路156号(近桃江路)"},{"poiid":"B2094757D06BA7F54593","title":"五官科医院特约耳鼻喉科门诊","lon":"121.453332","lat":"31.20965","category":"162","category_name":"医院","address":"上海徐汇区汾阳路83号3楼(太原路口)"},{"poiid":"B2094654DB69A5F9449A","title":"星巴克(汾阳路店)","lon":"121.4530533","lat":"31.2097278","category":"65","category_name":"咖啡厅","address":"徐汇区汾阳路138号1楼03单元(太原路)"},{"poiid":"B2094757D06FA4FD499F","title":"La Creperie","lon":"121.4518","lat":"31.20849","category":"94","category_name":"西餐厅","address":"徐汇区桃江路1号(近东平路)"},{"poiid":"B2094757D664A4FA469F","title":"The Camel Bar","lon":"121.451739","lat":"31.20861","category":"172","category_name":"酒吧","address":"徐汇区岳阳路1号(近东平路)"},{"poiid":"B2094757D16DA7FF479A","title":"宝莱纳","lon":"121.45173458","lat":"31.208893013","category":"249","category_name":"购物服务","address":"上海汾阳路138号"},{"poiid":"B2094757D068A1FE449D","title":"复旦大学附属眼耳鼻喉科医院(宝庆路分院)","lon":"121.450369913","lat":"31.2102095153","category":"162","category_name":"医院","address":"徐汇区宝庆路19号(近淮海中路)"},{"poiid":"B2094655D26EA5FA4999","title":"上海教育会堂","lon":"121.45212","lat":"31.20841","category":"68","category_name":"快餐厅","address":"徐汇区岳阳路1号(近东平路)"},{"poiid":"B2094757D06FA0FD449C","title":"Abbey Road","lon":"121.45199149","lat":"31.208174879","category":"94","category_name":"西餐厅","address":"徐汇区岳阳路45号(近永嘉路)"},{"poiid":"B2094757D069A3F54799","title":"El Patio","lon":"121.45368458","lat":"31.210532045","category":"94","category_name":"西餐厅","address":"徐汇区汾阳路110号(近太原路)"},{"poiid":"B2094757D06FA6F54293","title":"斗牛士(岳阳店)","lon":"121.45247","lat":"31.20854","category":"94","category_name":"西餐厅","address":"徐汇区岳阳路1号(近东平路)"},{"poiid":"B2094757D069A3FA429E","title":"Aura Restaurant","lon":"121.45183358","lat":"31.212174077","category":"500","category_name":"未知分类","address":"上海市 汾阳路 复兴中路"},{"poiid":"B2094757D06FA6FC439D","title":"宝莱纳贝可利面包","lon":"121.45267563","lat":"31.209468642","category":"67","category_name":"甜品店","address":"徐汇区汾阳路150号(近桃江路)"},{"poiid":"B2094654DB69A7FD439B","title":"席家花园(徐汇总店)","lon":"121.45147","lat":"31.20833","category":"47","category_name":"住宅区","address":"徐汇区东平路1号(近衡山路)"},{"poiid":"B2094654DA6DA6F8439A","title":"上海市第二中学","lon":"121.45536","lat":"31.21034","category":"55","category_name":"中学","address":"徐汇区永康路200号(近太原路)"},{"poiid":"B2094757DB68AAFE4898","title":"洋房火锅 Hot Pot Sun","lon":"121.45186","lat":"31.2083","category":"88","category_name":"海鲜酒楼","address":"徐汇区岳阳路1号(近汾阳路)"},{"poiid":"B2094654DA6DA4FB419E","title":"和平官邸","lon":"121.45141","lat":"31.20936","category":"76","category_name":"上海菜","address":"徐汇区汾阳路158号(近桃江路)"},{"poiid":"B2094757D06AA3FB4292","title":"上海工艺美术博物馆","lon":"121.45460284","lat":"31.210373083","category":"182","category_name":"博物馆","address":"徐汇区汾阳路79号(永康路与太原路之间)"},{"poiid":"B2094757D06AAAF84399","title":"Greek Taverna","lon":"121.451924586","lat":"31.2083350028","category":"500","category_name":"未知分类","address":"上海市徐汇区岳阳路1号近东平路"},{"poiid":"B2094757D068A3FC4398","title":"轻科大厦","lon":"121.452919","lat":"31.209844589","category":"46","category_name":"楼宇","address":"西城区金融街A区3号地南部"},{"poiid":"B2094757D468A4FE439C","title":"埃哇餐厅 汾阳路店 AURA","lon":"121.454274","lat":"31.2113792","category":"94","category_name":"西餐厅","address":"徐汇区汾阳路64弄4号(近复兴中路)"},{"poiid":"B2094757D06AA2F5409D","title":"鲜芋仙(岳阳店)","lon":"121.451889586","lat":"31.2088120122","category":"67","category_name":"甜品店","address":"徐汇区岳阳路1号(近桃江路东平路)"},{"poiid":"B2094753D464AAF8489D","title":"上海交响乐团音乐厅","lon":"121.451896","lat":"31.21169","category":"500","category_name":"未知分类","address":"复兴中路1380号"},{"poiid":"B2094654DA6DA4F44899","title":"上海市红十字眼耳鼻喉科医院","lon":"121.45334","lat":"31.20954","category":"162","category_name":"医院","address":"汾阳路83"},{"poiid":"B2094757D06EAAFD4392","title":"磨咕咖啡馆 mogoo cafe","lon":"121.454309054","lat":"31.211203793","category":"260","category_name":"其他","address":"徐汇区汾阳路77号(近音乐学院)"},{"poiid":"B2094757D069A4FD4892","title":"东篱文艺沙龙","lon":"121.45067","lat":"31.2104","category":"179","category_name":"音乐厅","address":"徐汇区复兴中路1363弄1号104室(近宝庆路)"},{"poiid":"B2094757D068AAFA4999","title":"猫咖啡 Cat cafe bliss","lon":"121.45400997","lat":"31.209424931","category":"260","category_name":"其他","address":"徐汇区太原路8弄1号2楼(近汾阳路)"},{"poiid":"B2094757D069A1F54799","title":"南蛮亭","lon":"121.45185","lat":"31.20829","category":"95","category_name":"日本料理","address":"徐汇区岳阳路1号(近汾阳路)"},{"poiid":"B2094757D065A3F94398","title":"茜茜莉亚音乐咖啡","lon":"121.4542747","lat":"31.211379","category":"65","category_name":"咖啡厅","address":"徐汇区汾阳路64弄2号(近复兴中路)"},{"poiid":"B2094757D06BAAF44598","title":"尔苑咖啡厅 Anna Maya Vegetarian Cafe","lon":"121.450652054","lat":"31.208991793","category":"89","category_name":"中式素餐馆","address":"徐汇区桃江路3号(近宝庆路)"},{"poiid":"B2094757D165A0FC479B","title":"庆余别墅","lon":"121.45207540812","lat":"31.210259460525","category":"47","category_name":"住宅区","address":"徐汇区衡山路58弄3号(近高安路)"},{"poiid":"B2094757D66BABF9479C","title":"Goga","lon":"121.45167517625","lat":"31.208671976401","category":"94","category_name":"西餐厅","address":"徐汇区岳阳路1号(近东平路)"},{"poiid":"B2094655D265A7FF429F","title":"上海音乐学院(南门)","lon":"121.45434","lat":"31.21193","category":"52","category_name":"高等院校","address":"复兴中路1330"},{"poiid":"B2094750D36BABFA4692","title":"致尚生活的爱","lon":"121.45278908724","lat":"31.211112767704","category":"247","category_name":"餐饮美食","address":"徐汇区复兴中路1335号(近音乐学院)"},{"poiid":"B2094655D26CA1FE439D","title":"Deli & Bakery","lon":"121.45269","lat":"31.20957","category":"112","category_name":"糕饼店","address":""},{"poiid":"B2094757D06FA7FA4998","title":"Memo bar & restaurant","lon":"121.4543","lat":"31.21143","category":"94","category_name":"西餐厅","address":"嘉善路259弄旁嘉善老市内（建国西路和永嘉路之间）"},{"poiid":"B2094655D26AA6FE4598","title":"今啤主题酒吧","lon":"121.45291","lat":"31.20984","category":"94","category_name":"西餐厅","address":"徐汇区汾阳路138号(近太原路)"},{"poiid":"B2094655D26BA2FA439C","title":"太原路永嘉路","lon":"121.45407","lat":"31.20982","category":"38","category_name":"公交车站","address":""},{"poiid":"B2094654DB6BA5FA4599","title":"前进大楼","lon":"121.453","lat":"31.21","category":"46","category_name":"楼宇","address":"永嘉路697-1识别"},{"poiid":"B2094654DA6DA4FB4199","title":"宝轻大厦","lon":"121.45123","lat":"31.20942","category":"46","category_name":"楼宇","address":"宣武区南横街东口"},{"poiid":"B2094655D268A5F9409A","title":"克莱门公寓","lon":"121.4518","lat":"31.21051","category":"47","category_name":"住宅区","address":"复兴中路1363弄1-38号"},{"poiid":"B2094655D268A5F84993","title":"珊珊小区","lon":"121.45242","lat":"31.21065","category":"47","category_name":"住宅区","address":"复兴中路1333弄1-6号"},{"poiid":"B2094757D064A3FC459C","title":"复兴中路近汾阳路","lon":"121.4519967","lat":"31.211072371","category":"500","category_name":"未知分类","address":"上海1333弄"},{"poiid":"B2094655D269A4F54898","title":"美优网","lon":"121.45291","lat":"31.20984","category":"247","category_name":"餐饮美食","address":"徐汇区汾阳路138号5楼(近桃江路)"},{"poiid":"B2094654DA6DA4F44792","title":"复旦大学附属眼耳鼻喉科医院(汾阳路总院)","lon":"121.45335","lat":"31.20955","category":"191","category_name":"科研机构","address":"上海徐汇区汾阳路83号(太原路口)"},{"poiid":"B2094655D26EA4FD419B","title":"宝莱纳餐厅(徐汇店)","lon":"121.45233","lat":"31.20984","category":"260","category_name":"其他","address":"徐汇区汾阳路150号(近桃江路)"},{"poiid":"B2094757D06FA7FF479A","title":"仙炙轩(汾阳路店)","lon":"121.452714142","lat":"31.2095961951","category":"269","category_name":"烧烤","address":"徐汇区汾阳路150号(近桃江路)"},{"poiid":"B2094753D76FAAFA449C","title":"上海滩国泰旗舰店","lon":"121.466011","lat":"31.216125","category":"249","category_name":"购物服务","address":"淮海中路868号"},{"poiid":"B209475CD564A7F84292","title":"上海滩新天地店","lon":"121.47463","lat":"31.22164","category":"119","category_name":"商场","address":"\"太仓路181弄新天地北里15号\r\n\""},{"poiid":"B209475CD564A7F8439E","title":"上海滩中信泰富店","lon":"121.45602","lat":"31.22851","category":"119","category_name":"商场","address":"\"南京西路1168号中信泰富广场，店铺号221.\r\n\""},{"poiid":"B2094757D06FA2FA4999","title":"Colabo(衡山店)","lon":"121.451678867","lat":"31.2094187393","category":"94","category_name":"西餐厅","address":"徐汇区汾阳路156号(近桃江路)"},{"poiid":"B2094757D06BA7F54593","title":"五官科医院特约耳鼻喉科门诊","lon":"121.453332","lat":"31.20965","category":"162","category_name":"医院","address":"上海徐汇区汾阳路83号3楼(太原路口)"},{"poiid":"B2094654DB69A5F9449A","title":"星巴克(汾阳路店)","lon":"121.4530533","lat":"31.2097278","category":"65","category_name":"咖啡厅","address":"徐汇区汾阳路138号1楼03单元(太原路)"},{"poiid":"B2094757D06FA4FD499F","title":"La Creperie","lon":"121.4518","lat":"31.20849","category":"94","category_name":"西餐厅","address":"徐汇区桃江路1号(近东平路)"},{"poiid":"B2094757D664A4FA469F","title":"The Camel Bar","lon":"121.451739","lat":"31.20861","category":"172","category_name":"酒吧","address":"徐汇区岳阳路1号(近东平路)"},{"poiid":"B2094757D16DA7FF479A","title":"宝莱纳","lon":"121.45173458","lat":"31.208893013","category":"249","category_name":"购物服务","address":"上海汾阳路138号"},{"poiid":"B2094757D068A1FE449D","title":"复旦大学附属眼耳鼻喉科医院(宝庆路分院)","lon":"121.450369913","lat":"31.2102095153","category":"162","category_name":"医院","address":"徐汇区宝庆路19号(近淮海中路)"},{"poiid":"B2094655D26EA5FA4999","title":"上海教育会堂","lon":"121.45212","lat":"31.20841","category":"68","category_name":"快餐厅","address":"徐汇区岳阳路1号(近东平路)"},{"poiid":"B2094757D06FA0FD449C","title":"Abbey Road","lon":"121.45199149","lat":"31.208174879","category":"94","category_name":"西餐厅","address":"徐汇区岳阳路45号(近永嘉路)"},{"poiid":"B2094757D069A3F54799","title":"El Patio","lon":"121.45368458","lat":"31.210532045","category":"94","category_name":"西餐厅","address":"徐汇区汾阳路110号(近太原路)"},{"poiid":"B2094757D06FA6F54293","title":"斗牛士(岳阳店)","lon":"121.45247","lat":"31.20854","category":"94","category_name":"西餐厅","address":"徐汇区岳阳路1号(近东平路)"},{"poiid":"B2094757D069A3FA429E","title":"Aura Restaurant","lon":"121.45183358","lat":"31.212174077","category":"500","category_name":"未知分类","address":"上海市 汾阳路 复兴中路"},{"poiid":"B2094757D06FA6FC439D","title":"宝莱纳贝可利面包","lon":"121.45267563","lat":"31.209468642","category":"67","category_name":"甜品店","address":"徐汇区汾阳路150号(近桃江路)"},{"poiid":"B2094654DB69A7FD439B","title":"席家花园(徐汇总店)","lon":"121.45147","lat":"31.20833","category":"47","category_name":"住宅区","address":"徐汇区东平路1号(近衡山路)"},{"poiid":"B2094654DA6DA6F8439A","title":"上海市第二中学","lon":"121.45536","lat":"31.21034","category":"55","category_name":"中学","address":"徐汇区永康路200号(近太原路)"},{"poiid":"B2094757DB68AAFE4898","title":"洋房火锅 Hot Pot Sun","lon":"121.45186","lat":"31.2083","category":"88","category_name":"海鲜酒楼","address":"徐汇区岳阳路1号(近汾阳路)"},{"poiid":"B2094654DA6DA4FB419E","title":"和平官邸","lon":"121.45141","lat":"31.20936","category":"76","category_name":"上海菜","address":"徐汇区汾阳路158号(近桃江路)"},{"poiid":"B2094757D06AA3FB4292","title":"上海工艺美术博物馆","lon":"121.45460284","lat":"31.210373083","category":"182","category_name":"博物馆","address":"徐汇区汾阳路79号(永康路与太原路之间)"},{"poiid":"B2094757D06AAAF84399","title":"Greek Taverna","lon":"121.451924586","lat":"31.2083350028","category":"500","category_name":"未知分类","address":"上海市徐汇区岳阳路1号近东平路"},{"poiid":"B2094757D068A3FC4398","title":"轻科大厦","lon":"121.452919","lat":"31.209844589","category":"46","category_name":"楼宇","address":"西城区金融街A区3号地南部"},{"poiid":"B2094757D468A4FE439C","title":"埃哇餐厅 汾阳路店 AURA","lon":"121.454274","lat":"31.2113792","category":"94","category_name":"西餐厅","address":"徐汇区汾阳路64弄4号(近复兴中路)"},{"poiid":"B2094757D06AA2F5409D","title":"鲜芋仙(岳阳店)","lon":"121.451889586","lat":"31.2088120122","category":"67","category_name":"甜品店","address":"徐汇区岳阳路1号(近桃江路东平路)"},{"poiid":"B2094753D464AAF8489D","title":"上海交响乐团音乐厅","lon":"121.451896","lat":"31.21169","category":"500","category_name":"未知分类","address":"复兴中路1380号"},{"poiid":"B2094654DA6DA4F44899","title":"上海市红十字眼耳鼻喉科医院","lon":"121.45334","lat":"31.20954","category":"162","category_name":"医院","address":"汾阳路83"},{"poiid":"B2094757D06EAAFD4392","title":"磨咕咖啡馆 mogoo cafe","lon":"121.454309054","lat":"31.211203793","category":"260","category_name":"其他","address":"徐汇区汾阳路77号(近音乐学院)"},{"poiid":"B2094757D069A4FD4892","title":"东篱文艺沙龙","lon":"121.45067","lat":"31.2104","category":"179","category_name":"音乐厅","address":"徐汇区复兴中路1363弄1号104室(近宝庆路)"},{"poiid":"B2094757D068AAFA4999","title":"猫咖啡 Cat cafe bliss","lon":"121.45400997","lat":"31.209424931","category":"260","category_name":"其他","address":"徐汇区太原路8弄1号2楼(近汾阳路)"},{"poiid":"B2094757D069A1F54799","title":"南蛮亭","lon":"121.45185","lat":"31.20829","category":"95","category_name":"日本料理","address":"徐汇区岳阳路1号(近汾阳路)"},{"poiid":"B2094757D065A3F94398","title":"茜茜莉亚音乐咖啡","lon":"121.4542747","lat":"31.211379","category":"65","category_name":"咖啡厅","address":"徐汇区汾阳路64弄2号(近复兴中路)"},{"poiid":"B2094757D06BAAF44598","title":"尔苑咖啡厅 Anna Maya Vegetarian Cafe","lon":"121.450652054","lat":"31.208991793","category":"89","category_name":"中式素餐馆","address":"徐汇区桃江路3号(近宝庆路)"},{"poiid":"B2094757D165A0FC479B","title":"庆余别墅","lon":"121.45207540812","lat":"31.210259460525","category":"47","category_name":"住宅区","address":"徐汇区衡山路58弄3号(近高安路)"},{"poiid":"B2094757D66BABF9479C","title":"Goga","lon":"121.45167517625","lat":"31.208671976401","category":"94","category_name":"西餐厅","address":"徐汇区岳阳路1号(近东平路)"},{"poiid":"B2094655D265A7FF429F","title":"上海音乐学院(南门)","lon":"121.45434","lat":"31.21193","category":"52","category_name":"高等院校","address":"复兴中路1330"},{"poiid":"B2094750D36BABFA4692","title":"致尚生活的爱","lon":"121.45278908724","lat":"31.211112767704","category":"247","category_name":"餐饮美食","address":"徐汇区复兴中路1335号(近音乐学院)"},{"poiid":"B2094655D26CA1FE439D","title":"Deli & Bakery","lon":"121.45269","lat":"31.20957","category":"112","category_name":"糕饼店","address":""},{"poiid":"B2094757D06FA7FA4998","title":"Memo bar & restaurant","lon":"121.4543","lat":"31.21143","category":"94","category_name":"西餐厅","address":"嘉善路259弄旁嘉善老市内（建国西路和永嘉路之间）"},{"poiid":"B2094655D26AA6FE4598","title":"今啤主题酒吧","lon":"121.45291","lat":"31.20984","category":"94","category_name":"西餐厅","address":"徐汇区汾阳路138号(近太原路)"},{"poiid":"B2094655D26BA2FA439C","title":"太原路永嘉路","lon":"121.45407","lat":"31.20982","category":"38","category_name":"公交车站","address":""},{"poiid":"B2094654DB6BA5FA4599","title":"前进大楼","lon":"121.453","lat":"31.21","category":"46","category_name":"楼宇","address":"永嘉路697-1识别"},{"poiid":"B2094654DA6DA4FB4199","title":"宝轻大厦","lon":"121.45123","lat":"31.20942","category":"46","category_name":"楼宇","address":"宣武区南横街东口"},{"poiid":"B2094655D268A5F9409A","title":"克莱门公寓","lon":"121.4518","lat":"31.21051","category":"47","category_name":"住宅区","address":"复兴中路1363弄1-38号"},{"poiid":"B2094655D268A5F84993","title":"珊珊小区","lon":"121.45242","lat":"31.21065","category":"47","category_name":"住宅区","address":"复兴中路1333弄1-6号"},{"poiid":"B2094757D064A3FC459C","title":"复兴中路近汾阳路","lon":"121.4519967","lat":"31.211072371","category":"500","category_name":"未知分类","address":"上海1333弄"},{"poiid":"B2094655D269A4F54898","title":"美优网","lon":"121.45291","lat":"31.20984","category":"247","category_name":"餐饮美食","address":"徐汇区汾阳路138号5楼(近桃江路)"},{"poiid":"B2094654DA6DA4F44792","title":"复旦大学附属眼耳鼻喉科医院(汾阳路总院)","lon":"121.45335","lat":"31.20955","category":"191","category_name":"科研机构","address":"上海徐汇区汾阳路83号(太原路口)"},{"poiid":"B2094655D26EA4FD419B","title":"宝莱纳餐厅(徐汇店)","lon":"121.45233","lat":"31.20984","category":"260","category_name":"其他","address":"徐汇区汾阳路150号(近桃江路)"},{"poiid":"B2094757D06FA7FF479A","title":"仙炙轩(汾阳路店)","lon":"121.452714142","lat":"31.2095961951","category":"269","category_name":"烧烤","address":"徐汇区汾阳路150号(近桃江路)"},{"poiid":"B2094753D76FAAFA449C","title":"上海滩国泰旗舰店","lon":"121.466011","lat":"31.216125","category":"249","category_name":"购物服务","address":"淮海中路868号"},{"poiid":"B209475CD564A7F84292","title":"上海滩新天地店","lon":"121.47463","lat":"31.22164","category":"119","category_name":"商场","address":"\"太仓路181弄新天地北里15号\r\n\""},{"poiid":"B209475CD564A7F8439E","title":"上海滩中信泰富店","lon":"121.45602","lat":"31.22851","category":"119","category_name":"商场","address":"\"南京西路1168号中信泰富广场，店铺号221.\r\n\""},{"poiid":"B2094757D06FA2FA4999","title":"Colabo(衡山店)","lon":"121.451678867","lat":"31.2094187393","category":"94","category_name":"西餐厅","address":"徐汇区汾阳路156号(近桃江路)"},{"poiid":"B2094757D06BA7F54593","title":"五官科医院特约耳鼻喉科门诊","lon":"121.453332","lat":"31.20965","category":"162","category_name":"医院","address":"上海徐汇区汾阳路83号3楼(太原路口)"},{"poiid":"B2094654DB69A5F9449A","title":"星巴克(汾阳路店)","lon":"121.4530533","lat":"31.2097278","category":"65","category_name":"咖啡厅","address":"徐汇区汾阳路138号1楼03单元(太原路)"},{"poiid":"B2094757D06FA4FD499F","title":"La Creperie","lon":"121.4518","lat":"31.20849","category":"94","category_name":"西餐厅","address":"徐汇区桃江路1号(近东平路)"},{"poiid":"B2094757D664A4FA469F","title":"The Camel Bar","lon":"121.451739","lat":"31.20861","category":"172","category_name":"酒吧","address":"徐汇区岳阳路1号(近东平路)"},{"poiid":"B2094757D16DA7FF479A","title":"宝莱纳","lon":"121.45173458","lat":"31.208893013","category":"249","category_name":"购物服务","address":"上海汾阳路138号"},{"poiid":"B2094757D068A1FE449D","title":"复旦大学附属眼耳鼻喉科医院(宝庆路分院)","lon":"121.450369913","lat":"31.2102095153","category":"162","category_name":"医院","address":"徐汇区宝庆路19号(近淮海中路)"},{"poiid":"B2094655D26EA5FA4999","title":"上海教育会堂","lon":"121.45212","lat":"31.20841","category":"68","category_name":"快餐厅","address":"徐汇区岳阳路1号(近东平路)"},{"poiid":"B2094757D06FA0FD449C","title":"Abbey Road","lon":"121.45199149","lat":"31.208174879","category":"94","category_name":"西餐厅","address":"徐汇区岳阳路45号(近永嘉路)"},{"poiid":"B2094757D069A3F54799","title":"El Patio","lon":"121.45368458","lat":"31.210532045","category":"94","category_name":"西餐厅","address":"徐汇区汾阳路110号(近太原路)"},{"poiid":"B2094757D06FA6F54293","title":"斗牛士(岳阳店)","lon":"121.45247","lat":"31.20854","category":"94","category_name":"西餐厅","address":"徐汇区岳阳路1号(近东平路)"},{"poiid":"B2094757D069A3FA429E","title":"Aura Restaurant","lon":"121.45183358","lat":"31.212174077","category":"500","category_name":"未知分类","address":"上海市 汾阳路 复兴中路"},{"poiid":"B2094757D06FA6FC439D","title":"宝莱纳贝可利面包","lon":"121.45267563","lat":"31.209468642","category":"67","category_name":"甜品店","address":"徐汇区汾阳路150号(近桃江路)"},{"poiid":"B2094654DB69A7FD439B","title":"席家花园(徐汇总店)","lon":"121.45147","lat":"31.20833","category":"47","category_name":"住宅区","address":"徐汇区东平路1号(近衡山路)"},{"poiid":"B2094654DA6DA6F8439A","title":"上海市第二中学","lon":"121.45536","lat":"31.21034","category":"55","category_name":"中学","address":"徐汇区永康路200号(近太原路)"},{"poiid":"B2094757DB68AAFE4898","title":"洋房火锅 Hot Pot Sun","lon":"121.45186","lat":"31.2083","category":"88","category_name":"海鲜酒楼","address":"徐汇区岳阳路1号(近汾阳路)"},{"poiid":"B2094654DA6DA4FB419E","title":"和平官邸","lon":"121.45141","lat":"31.20936","category":"76","category_name":"上海菜","address":"徐汇区汾阳路158号(近桃江路)"},{"poiid":"B2094757D06AA3FB4292","title":"上海工艺美术博物馆","lon":"121.45460284","lat":"31.210373083","category":"182","category_name":"博物馆","address":"徐汇区汾阳路79号(永康路与太原路之间)"},{"poiid":"B2094757D06AAAF84399","title":"Greek Taverna","lon":"121.451924586","lat":"31.2083350028","category":"500","category_name":"未知分类","address":"上海市徐汇区岳阳路1号近东平路"},{"poiid":"B2094757D068A3FC4398","title":"轻科大厦","lon":"121.452919","lat":"31.209844589","category":"46","category_name":"楼宇","address":"西城区金融街A区3号地南部"},{"poiid":"B2094757D468A4FE439C","title":"埃哇餐厅 汾阳路店 AURA","lon":"121.454274","lat":"31.2113792","category":"94","category_name":"西餐厅","address":"徐汇区汾阳路64弄4号(近复兴中路)"},{"poiid":"B2094757D06AA2F5409D","title":"鲜芋仙(岳阳店)","lon":"121.451889586","lat":"31.2088120122","category":"67","category_name":"甜品店","address":"徐汇区岳阳路1号(近桃江路东平路)"},{"poiid":"B2094753D464AAF8489D","title":"上海交响乐团音乐厅","lon":"121.451896","lat":"31.21169","category":"500","category_name":"未知分类","address":"复兴中路1380号"},{"poiid":"B2094654DA6DA4F44899","title":"上海市红十字眼耳鼻喉科医院","lon":"121.45334","lat":"31.20954","category":"162","category_name":"医院","address":"汾阳路83"},{"poiid":"B2094757D06EAAFD4392","title":"磨咕咖啡馆 mogoo cafe","lon":"121.454309054","lat":"31.211203793","category":"260","category_name":"其他","address":"徐汇区汾阳路77号(近音乐学院)"},{"poiid":"B2094757D069A4FD4892","title":"东篱文艺沙龙","lon":"121.45067","lat":"31.2104","category":"179","category_name":"音乐厅","address":"徐汇区复兴中路1363弄1号104室(近宝庆路)"},{"poiid":"B2094757D068AAFA4999","title":"猫咖啡 Cat cafe bliss","lon":"121.45400997","lat":"31.209424931","category":"260","category_name":"其他","address":"徐汇区太原路8弄1号2楼(近汾阳路)"},{"poiid":"B2094757D069A1F54799","title":"南蛮亭","lon":"121.45185","lat":"31.20829","category":"95","category_name":"日本料理","address":"徐汇区岳阳路1号(近汾阳路)"},{"poiid":"B2094757D065A3F94398","title":"茜茜莉亚音乐咖啡","lon":"121.4542747","lat":"31.211379","category":"65","category_name":"咖啡厅","address":"徐汇区汾阳路64弄2号(近复兴中路)"},{"poiid":"B2094757D06BAAF44598","title":"尔苑咖啡厅 Anna Maya Vegetarian Cafe","lon":"121.450652054","lat":"31.208991793","category":"89","category_name":"中式素餐馆","address":"徐汇区桃江路3号(近宝庆路)"},{"poiid":"B2094757D165A0FC479B","title":"庆余别墅","lon":"121.45207540812","lat":"31.210259460525","category":"47","category_name":"住宅区","address":"徐汇区衡山路58弄3号(近高安路)"},{"poiid":"B2094757D66BABF9479C","title":"Goga","lon":"121.45167517625","lat":"31.208671976401","category":"94","category_name":"西餐厅","address":"徐汇区岳阳路1号(近东平路)"},{"poiid":"B2094655D265A7FF429F","title":"上海音乐学院(南门)","lon":"121.45434","lat":"31.21193","category":"52","category_name":"高等院校","address":"复兴中路1330"},{"poiid":"B2094750D36BABFA4692","title":"致尚生活的爱","lon":"121.45278908724","lat":"31.211112767704","category":"247","category_name":"餐饮美食","address":"徐汇区复兴中路1335号(近音乐学院)"},{"poiid":"B2094655D26CA1FE439D","title":"Deli & Bakery","lon":"121.45269","lat":"31.20957","category":"112","category_name":"糕饼店","address":""},{"poiid":"B2094757D06FA7FA4998","title":"Memo bar & restaurant","lon":"121.4543","lat":"31.21143","category":"94","category_name":"西餐厅","address":"嘉善路259弄旁嘉善老市内（建国西路和永嘉路之间）"},{"poiid":"B2094655D26AA6FE4598","title":"今啤主题酒吧","lon":"121.45291","lat":"31.20984","category":"94","category_name":"西餐厅","address":"徐汇区汾阳路138号(近太原路)"},{"poiid":"B2094655D26BA2FA439C","title":"太原路永嘉路","lon":"121.45407","lat":"31.20982","category":"38","category_name":"公交车站","address":""},{"poiid":"B2094654DB6BA5FA4599","title":"前进大楼","lon":"121.453","lat":"31.21","category":"46","category_name":"楼宇","address":"永嘉路697-1识别"},{"poiid":"B2094654DA6DA4FB4199","title":"宝轻大厦","lon":"121.45123","lat":"31.20942","category":"46","category_name":"楼宇","address":"宣武区南横街东口"},{"poiid":"B2094655D268A5F9409A","title":"克莱门公寓","lon":"121.4518","lat":"31.21051","category":"47","category_name":"住宅区","address":"复兴中路1363弄1-38号"},{"poiid":"B2094655D268A5F84993","title":"珊珊小区","lon":"121.45242","lat":"31.21065","category":"47","category_name":"住宅区","address":"复兴中路1333弄1-6号"},{"poiid":"B2094757D064A3FC459C","title":"复兴中路近汾阳路","lon":"121.4519967","lat":"31.211072371","category":"500","category_name":"未知分类","address":"上海1333弄"},{"poiid":"B2094655D269A4F54898","title":"美优网","lon":"121.45291","lat":"31.20984","category":"247","category_name":"餐饮美食","address":"徐汇区汾阳路138号5楼(近桃江路)"}]