[{"poiid":"B2094757D065A7FE449B","title":"汉泰东南亚风味餐厅","lon":"121.520411","lat":"31.225582","category":"500","category_name":"未知分类","address":"浦东新区浦东南路1138号上海湾大厦3楼302(近张杨路)"},{"poiid":"B2094757D16EA5FE459C","title":"竹若金枪鱼","lon":"121.519619738","lat":"31.2261218125","category":"95","category_name":"日本料理","address":"浦东新区南泉北路1029号中电大厦1楼(近张杨路)"},{"poiid":"B2094750DB6CA5FF4192","title":"上海第一八佰伴","lon":"121.519043","lat":"31.225433","category":"249","category_name":"购物服务","address":"浦东新区张杨路501号(近浦东南路)"},{"poiid":"B209475CD564A7F84392","title":"上海滩浦东香格里拉店","lon":"121.50058","lat":"31.23634","category":"119","category_name":"商场","address":"浦东富成路33号香格里拉酒店内大堂层"},{"poiid":"B2094757D068AAFE499B","title":"美年健康(长航店)","lon":"121.52241","lat":"31.22742","category":"162","category_name":"医院","address":"浦东新区崂山路523号(近张杨路)"},{"poiid":"B2094757D068A0F8419B","title":"望湘园(潍坊路店)","lon":"121.52305","lat":"31.22407","category":"77","category_name":"湖南菜","address":"浦东新区潍坊路118号(近崂山路)"},{"poiid":"B2094757D068A4F8489B","title":"洋泾中学","lon":"121.52055","lat":"31.22364","category":"55","category_name":"中学","address":"浦东新区潍坊路111号(近崂山路)"},{"poiid":"B2094757D16BA2FB4599","title":"大漁","lon":"121.520078738","lat":"31.2253951971","category":"247","category_name":"餐饮美食","address":"上海八佰伴"},{"poiid":"B2094757D06FA4F54292","title":"味趣川菜馆 浦东店","lon":"121.51992379583","lat":"31.225158537752","category":"71","category_name":"四川菜","address":"浦东新区南泉北路1044号(近张杨路)"},{"poiid":"B2094757D06FA4FF429A","title":"鸿瑞兴(崂山路店)","lon":"121.52561","lat":"31.22058","category":"76","category_name":"上海菜","address":"浦东新区崂山路706号(近浦电路)"},{"poiid":"B2094757D06AA3F44992","title":"崂山路","lon":"121.523775","lat":"31.226032","category":"500","category_name":"未知分类","address":"上海崂山路"},{"poiid":"B2094654DA69ABFC409D","title":"天天渔港精作坊","lon":"121.52346","lat":"31.22688","category":"72","category_name":"广东菜","address":"浦东新区崂山路588号宝安大厦2楼(近潍坊路)"},{"poiid":"B209475DD16AABFB4292","title":"LAMU慕•法式铁板烧(华润时代店)","lon":"121.521621","lat":"31.224924","category":"247","category_name":"餐饮美食","address":"上海市 张杨路500号华润时代广场8楼(近南泉北路 浦东南路  张杨路)"},{"poiid":"B2094655D269ABF5459E","title":"上品小笼 潍坊路店","lon":"121.519568054","lat":"31.223962793","category":"68","category_name":"快餐厅","address":"浦东新区潍坊路85-1号(近南泉北路)"},{"poiid":"B2094753DA68A5FF439A","title":"金钱豹（浦东三鑫店）","lon":"121.52349","lat":"31.224824","category":"500","category_name":"未知分类","address":"上海市 浦东张杨路579号三鑫大厦"},{"poiid":"B2094750DA6FA5FE4893","title":"四月茶香","lon":"121.52337","lat":"31.22737","category":"260","category_name":"其他","address":"浦东新区东方路778号紫金山大酒店1楼(近张杨路)"},{"poiid":"B2094654DB65A7F4439E","title":"85度(崂山店)","lon":"121.5238","lat":"31.22489","category":"111","category_name":"休闲餐饮场所","address":"浦东新区崂山路525号(近长航医院)"},{"poiid":"B209475CD26EA7FD479C","title":"江边城外烤鱼","lon":"121.521232","lat":"31.227392","category":"247","category_name":"餐饮美食","address":"上海市 上海浦东新区华申大厦三楼"},{"poiid":"B2094655D26DABFA459F","title":"泉东小区","lon":"121.5211","lat":"31.225807","category":"47","category_name":"住宅区","address":"南泉北路1040弄"},{"poiid":"B2094757D06FA4FF4799","title":"COSTA COFFEE(南泉北路店)","lon":"121.52037","lat":"31.22453","category":"65","category_name":"咖啡厅","address":"上海浦东新区南泉北路528号1-2楼(近张杨路)  "},{"poiid":"B2094757D16CA2FE499D","title":"潍坊新村街道社区事务受理中心","lon":"121.522165","lat":"31.224737","category":"46","category_name":"楼宇","address":"上海浦东新区 潍坊路131弄1号 近崂山路"},{"poiid":"B2094654DA69ABFC4993","title":"华东师范大学附属东昌中学南校","lon":"121.51961","lat":"31.22668","category":"55","category_name":"中学","address":"南泉北路1020"},{"poiid":"B209475DD16AABFB499C","title":"LAMU慕•法式铁板烧(华润时代店)","lon":"121.52182","lat":"31.225078","category":"247","category_name":"餐饮美食","address":"上海市 张杨路500号华润时代广场8楼(近南泉北路 浦东南路  张杨路)"},{"poiid":"B2094757D068A0FE4399","title":"馋佬汇美食广场","lon":"121.52227783","lat":"31.225606918","category":"500","category_name":"未知分类","address":"浦东新区浦东南路1101号远东大厦1楼(近八佰伴)"},{"poiid":"B209475DD364A3FB479D","title":"Tai Cook 泰谷","lon":"121.521148","lat":"31.225465","category":"500","category_name":"未知分类","address":"上海市 八佰伴"},{"poiid":"B2094757D068A6F84293","title":"崎味拉面","lon":"121.523906","lat":"31.225404","category":"95","category_name":"日本料理","address":"浦东新区崂山路604号(潍坊路口)"},{"poiid":"B2094757D168A1FB459A","title":"Haagen Daz 华润时代店","lon":"121.52226257","lat":"31.225282669","category":"500","category_name":"未知分类","address":"上海张杨路500号中庭"},{"poiid":"B209475CD668AAFE459F","title":"上海外滩","lon":"121.520034","lat":"31.224922","category":"500","category_name":"未知分类","address":"上海市 上海外滩"},{"poiid":"B2094750D16AABF5429D","title":"新旺茶餐厅（八佰伴分店）","lon":"121.520133","lat":"31.227333","category":"247","category_name":"餐饮美食","address":null},{"poiid":"B2094757D069A3FD4092","title":"华东师范大学附属东昌中学初中部(南校)","lon":"121.52004","lat":"31.22592","category":"55","category_name":"中学","address":"浦东新区南泉北路1020号(近张扬路)"},{"poiid":"B2094757D06BA3FC459E","title":"继光香香鸡","lon":"121.519553738","lat":"31.2254591984","category":"68","category_name":"快餐厅","address":"浦东新区南泉北路588号新大陆广场1楼(近张杨路)"},{"poiid":"B2094757D068A6F44898","title":"南洋商业银行大厦","lon":"121.523221308","lat":"31.2262088744","category":"46","category_name":"楼宇","address":"浦东新区世纪大道800号南洋商业银行大厦(浦东南路东昌路内)"},{"poiid":"B2094757D66CA1F5439A","title":"大渔","lon":"121.52165673","lat":"31.226555221","category":"247","category_name":"餐饮美食","address":"上海市浦东新区张杨路"},{"poiid":"B2094655D26DA7FB449C","title":"东欣小区","lon":"121.52274","lat":"31.22603","category":"47","category_name":"住宅区","address":"崂山路571弄1-6号"},{"poiid":"B2094654DA69ABFC4292","title":"崂东居民区市民学校阅览室","lon":"121.52239","lat":"31.22529","category":"181","category_name":"图书馆","address":""},{"poiid":"B2094757D165A6F8439A","title":"峰尚美容美发","lon":"121.521891738","lat":"31.2256482024","category":"148","category_name":"美容美发店","address":"上海市浦东新区崂山路625号"},{"poiid":"B2094757D16EA5FB469B","title":"好食道","lon":"121.51971327525","lat":"31.226090950987","category":"76","category_name":"上海菜","address":"浦东新区南泉北路1028号(中电大厦对面)"},{"poiid":"B2094654DA69ABFC499C","title":"上海市浦东新区辅读学校","lon":"121.52183","lat":"31.22624","category":"56","category_name":"小学","address":"浦东新区崂山路551弄40号"},{"poiid":"B2094655D268A4F54099","title":"潍坊七村(北门)","lon":"121.52218","lat":"31.22439","category":"47","category_name":"住宅区","address":""},{"poiid":"B2094757D569A3FB439C","title":"南泉路炸肉串摊","lon":"121.5197831","lat":"31.22519389","category":"68","category_name":"快餐厅","address":"浦东新区浦东新区南泉北路1040弄门口(近潍坊路)"},{"poiid":"B2094654DA69ABFC439F","title":"崂东小区","lon":"121.52235","lat":"31.225693","category":"47","category_name":"住宅区","address":"潍坊路127号"},{"poiid":"B2094753D165AAFB449D","title":"一得仙海鲜","lon":"121.52025","lat":"31.225302","category":"247","category_name":"餐饮美食","address":"上海市 崂山路555号"},{"poiid":"B2094757D06AA3F44493","title":"丰潍娘家韩国料理","lon":"121.52059","lat":"31.22305","category":"96","category_name":"韩国料理","address":"浦东新区南泉路12号(潍坊路口)"},{"poiid":"B2094654DA69ABFC4593","title":"洋泾高级中学(南门)","lon":"121.52072","lat":"31.22416","category":"678","category_name":"学校大门","address":"潍坊路111"},{"poiid":"B2094654DB65A5F5419D","title":"上海市浦东科技教育学院(东门)","lon":"121.5192","lat":"31.22554","category":"52","category_name":"高等院校","address":"浦东新区南泉北路1035号亨利国际商务中心"},{"poiid":"B2094757D66CA4FC429E","title":"C&amp;C烘培坊","lon":"121.521071738","lat":"31.2241761711","category":"247","category_name":"餐饮美食","address":"上海南泉北路1035号611室"},{"poiid":"B2094757D465A4FF419E","title":"新亚大包 潍坊路店","lon":"121.523656054","lat":"31.225256793","category":"68","category_name":"快餐厅","address":"浦东新区潍坊路135号(近崂山路)"},{"poiid":"B2094654DA69A4F44793","title":"金稻田造型设计","lon":"121.51975","lat":"31.22391","category":"148","category_name":"美容美发店","address":"浦东新区潍坊路91号(近浦东南路)"},{"poiid":"B2094654DA69ABFC439C","title":"崂东小区(南门)","lon":"121.52257","lat":"31.22476","category":"47","category_name":"住宅区","address":"潍坊路127"},{"poiid":"B209475DD365A7FD4592","title":"爽辣重庆潮人火锅","lon":"121.522453","lat":"31.226766","category":"247","category_name":"餐饮美食","address":"上海市 浦东南泉北路528号新大陆广场北楼3楼"},{"poiid":"B2094757D065A7FE449B","title":"汉泰东南亚风味餐厅","lon":"121.520411","lat":"31.225582","category":"500","category_name":"未知分类","address":"浦东新区浦东南路1138号上海湾大厦3楼302(近张杨路)"},{"poiid":"B2094757D16EA5FE459C","title":"竹若金枪鱼","lon":"121.519619738","lat":"31.2261218125","category":"95","category_name":"日本料理","address":"浦东新区南泉北路1029号中电大厦1楼(近张杨路)"},{"poiid":"B2094750DB6CA5FF4192","title":"上海第一八佰伴","lon":"121.519043","lat":"31.225433","category":"249","category_name":"购物服务","address":"浦东新区张杨路501号(近浦东南路)"},{"poiid":"B209475CD564A7F84392","title":"上海滩浦东香格里拉店","lon":"121.50058","lat":"31.23634","category":"119","category_name":"商场","address":"浦东富成路33号香格里拉酒店内大堂层"},{"poiid":"B2094757D068AAFE499B","title":"美年健康(长航店)","lon":"121.52241","lat":"31.22742","category":"162","category_name":"医院","address":"浦东新区崂山路523号(近张杨路)"},{"poiid":"B2094757D068A0F8419B","title":"望湘园(潍坊路店)","lon":"121.52305","lat":"31.22407","category":"77","category_name":"湖南菜","address":"浦东新区潍坊路118号(近崂山路)"},{"poiid":"B2094757D068A4F8489B","title":"洋泾中学","lon":"121.52055","lat":"31.22364","category":"55","category_name":"中学","address":"浦东新区潍坊路111号(近崂山路)"},{"poiid":"B2094757D16BA2FB4599","title":"大漁","lon":"121.520078738","lat":"31.2253951971","category":"247","category_name":"餐饮美食","address":"上海八佰伴"},{"poiid":"B2094757D06FA4F54292","title":"味趣川菜馆 浦东店","lon":"121.51992379583","lat":"31.225158537752","category":"71","category_name":"四川菜","address":"浦东新区南泉北路1044号(近张杨路)"},{"poiid":"B2094757D06FA4FF429A","title":"鸿瑞兴(崂山路店)","lon":"121.52561","lat":"31.22058","category":"76","category_name":"上海菜","address":"浦东新区崂山路706号(近浦电路)"},{"poiid":"B2094757D06AA3F44992","title":"崂山路","lon":"121.523775","lat":"31.226032","category":"500","category_name":"未知分类","address":"上海崂山路"},{"poiid":"B2094654DA69ABFC409D","title":"天天渔港精作坊","lon":"121.52346","lat":"31.22688","category":"72","category_name":"广东菜","address":"浦东新区崂山路588号宝安大厦2楼(近潍坊路)"},{"poiid":"B209475DD16AABFB4292","title":"LAMU慕•法式铁板烧(华润时代店)","lon":"121.521621","lat":"31.224924","category":"247","category_name":"餐饮美食","address":"上海市 张杨路500号华润时代广场8楼(近南泉北路 浦东南路  张杨路)"},{"poiid":"B2094655D269ABF5459E","title":"上品小笼 潍坊路店","lon":"121.519568054","lat":"31.223962793","category":"68","category_name":"快餐厅","address":"浦东新区潍坊路85-1号(近南泉北路)"},{"poiid":"B2094753DA68A5FF439A","title":"金钱豹（浦东三鑫店）","lon":"121.52349","lat":"31.224824","category":"500","category_name":"未知分类","address":"上海市 浦东张杨路579号三鑫大厦"},{"poiid":"B2094750DA6FA5FE4893","title":"四月茶香","lon":"121.52337","lat":"31.22737","category":"260","category_name":"其他","address":"浦东新区东方路778号紫金山大酒店1楼(近张杨路)"},{"poiid":"B2094654DB65A7F4439E","title":"85度(崂山店)","lon":"121.5238","lat":"31.22489","category":"111","category_name":"休闲餐饮场所","address":"浦东新区崂山路525号(近长航医院)"},{"poiid":"B209475CD26EA7FD479C","title":"江边城外烤鱼","lon":"121.521232","lat":"31.227392","category":"247","category_name":"餐饮美食","address":"上海市 上海浦东新区华申大厦三楼"},{"poiid":"B2094655D26DABFA459F","title":"泉东小区","lon":"121.5211","lat":"31.225807","category":"47","category_name":"住宅区","address":"南泉北路1040弄"},{"poiid":"B2094757D06FA4FF4799","title":"COSTA COFFEE(南泉北路店)","lon":"121.52037","lat":"31.22453","category":"65","category_name":"咖啡厅","address":"上海浦东新区南泉北路528号1-2楼(近张杨路)  "},{"poiid":"B2094757D16CA2FE499D","title":"潍坊新村街道社区事务受理中心","lon":"121.522165","lat":"31.224737","category":"46","category_name":"楼宇","address":"上海浦东新区 潍坊路131弄1号 近崂山路"},{"poiid":"B2094654DA69ABFC4993","title":"华东师范大学附属东昌中学南校","lon":"121.51961","lat":"31.22668","category":"55","category_name":"中学","address":"南泉北路1020"},{"poiid":"B209475DD16AABFB499C","title":"LAMU慕•法式铁板烧(华润时代店)","lon":"121.52182","lat":"31.225078","category":"247","category_name":"餐饮美食","address":"上海市 张杨路500号华润时代广场8楼(近南泉北路 浦东南路  张杨路)"},{"poiid":"B2094757D068A0FE4399","title":"馋佬汇美食广场","lon":"121.52227783","lat":"31.225606918","category":"500","category_name":"未知分类","address":"浦东新区浦东南路1101号远东大厦1楼(近八佰伴)"},{"poiid":"B209475DD364A3FB479D","title":"Tai Cook 泰谷","lon":"121.521148","lat":"31.225465","category":"500","category_name":"未知分类","address":"上海市 八佰伴"},{"poiid":"B2094757D068A6F84293","title":"崎味拉面","lon":"121.523906","lat":"31.225404","category":"95","category_name":"日本料理","address":"浦东新区崂山路604号(潍坊路口)"},{"poiid":"B2094757D168A1FB459A","title":"Haagen Daz 华润时代店","lon":"121.52226257","lat":"31.225282669","category":"500","category_name":"未知分类","address":"上海张杨路500号中庭"},{"poiid":"B209475CD668AAFE459F","title":"上海外滩","lon":"121.520034","lat":"31.224922","category":"500","category_name":"未知分类","address":"上海市 上海外滩"},{"poiid":"B2094750D16AABF5429D","title":"新旺茶餐厅（八佰伴分店）","lon":"121.520133","lat":"31.227333","category":"247","category_name":"餐饮美食","address":null},{"poiid":"B2094757D069A3FD4092","title":"华东师范大学附属东昌中学初中部(南校)","lon":"121.52004","lat":"31.22592","category":"55","category_name":"中学","address":"浦东新区南泉北路1020号(近张扬路)"},{"poiid":"B2094757D06BA3FC459E","title":"继光香香鸡","lon":"121.519553738","lat":"31.2254591984","category":"68","category_name":"快餐厅","address":"浦东新区南泉北路588号新大陆广场1楼(近张杨路)"},{"poiid":"B2094757D068A6F44898","title":"南洋商业银行大厦","lon":"121.523221308","lat":"31.2262088744","category":"46","category_name":"楼宇","address":"浦东新区世纪大道800号南洋商业银行大厦(浦东南路东昌路内)"},{"poiid":"B2094757D66CA1F5439A","title":"大渔","lon":"121.52165673","lat":"31.226555221","category":"247","category_name":"餐饮美食","address":"上海市浦东新区张杨路"},{"poiid":"B2094655D26DA7FB449C","title":"东欣小区","lon":"121.52274","lat":"31.22603","category":"47","category_name":"住宅区","address":"崂山路571弄1-6号"},{"poiid":"B2094654DA69ABFC4292","title":"崂东居民区市民学校阅览室","lon":"121.52239","lat":"31.22529","category":"181","category_name":"图书馆","address":""},{"poiid":"B2094757D165A6F8439A","title":"峰尚美容美发","lon":"121.521891738","lat":"31.2256482024","category":"148","category_name":"美容美发店","address":"上海市浦东新区崂山路625号"},{"poiid":"B2094757D16EA5FB469B","title":"好食道","lon":"121.51971327525","lat":"31.226090950987","category":"76","category_name":"上海菜","address":"浦东新区南泉北路1028号(中电大厦对面)"},{"poiid":"B2094654DA69ABFC499C","title":"上海市浦东新区辅读学校","lon":"121.52183","lat":"31.22624","category":"56","category_name":"小学","address":"浦东新区崂山路551弄40号"},{"poiid":"B2094655D268A4F54099","title":"潍坊七村(北门)","lon":"121.52218","lat":"31.22439","category":"47","category_name":"住宅区","address":""},{"poiid":"B2094757D569A3FB439C","title":"南泉路炸肉串摊","lon":"121.5197831","lat":"31.22519389","category":"68","category_name":"快餐厅","address":"浦东新区浦东新区南泉北路1040弄门口(近潍坊路)"},{"poiid":"B2094654DA69ABFC439F","title":"崂东小区","lon":"121.52235","lat":"31.225693","category":"47","category_name":"住宅区","address":"潍坊路127号"},{"poiid":"B2094753D165AAFB449D","title":"一得仙海鲜","lon":"121.52025","lat":"31.225302","category":"247","category_name":"餐饮美食","address":"上海市 崂山路555号"},{"poiid":"B2094757D06AA3F44493","title":"丰潍娘家韩国料理","lon":"121.52059","lat":"31.22305","category":"96","category_name":"韩国料理","address":"浦东新区南泉路12号(潍坊路口)"},{"poiid":"B2094654DA69ABFC4593","title":"洋泾高级中学(南门)","lon":"121.52072","lat":"31.22416","category":"678","category_name":"学校大门","address":"潍坊路111"},{"poiid":"B2094654DB65A5F5419D","title":"上海市浦东科技教育学院(东门)","lon":"121.5192","lat":"31.22554","category":"52","category_name":"高等院校","address":"浦东新区南泉北路1035号亨利国际商务中心"},{"poiid":"B2094757D66CA4FC429E","title":"C&amp;C烘培坊","lon":"121.521071738","lat":"31.2241761711","category":"247","category_name":"餐饮美食","address":"上海南泉北路1035号611室"},{"poiid":"B2094757D465A4FF419E","title":"新亚大包 潍坊路店","lon":"121.523656054","lat":"31.225256793","category":"68","category_name":"快餐厅","address":"浦东新区潍坊路135号(近崂山路)"},{"poiid":"B2094654DA69A4F44793","title":"金稻田造型设计","lon":"121.51975","lat":"31.22391","category":"148","category_name":"美容美发店","address":"浦东新区潍坊路91号(近浦东南路)"},{"poiid":"B2094654DA69ABFC439C","title":"崂东小区(南门)","lon":"121.52257","lat":"31.22476","category":"47","category_name":"住宅区","address":"潍坊路127"},{"poiid":"B209475DD365A7FD4592","title":"爽辣重庆潮人火锅","lon":"121.522453","lat":"31.226766","category":"247","category_name":"餐饮美食","address":"上海市 浦东南泉北路528号新大陆广场北楼3楼"},{"poiid":"B2094757D065A7FE449B","title":"汉泰东南亚风味餐厅","lon":"121.520411","lat":"31.225582","category":"500","category_name":"未知分类","address":"浦东新区浦东南路1138号上海湾大厦3楼302(近张杨路)"},{"poiid":"B2094757D16EA5FE459C","title":"竹若金枪鱼","lon":"121.519619738","lat":"31.2261218125","category":"95","category_name":"日本料理","address":"浦东新区南泉北路1029号中电大厦1楼(近张杨路)"},{"poiid":"B2094750DB6CA5FF4192","title":"上海第一八佰伴","lon":"121.519043","lat":"31.225433","category":"249","category_name":"购物服务","address":"浦东新区张杨路501号(近浦东南路)"},{"poiid":"B209475CD564A7F84392","title":"上海滩浦东香格里拉店","lon":"121.50058","lat":"31.23634","category":"119","category_name":"商场","address":"浦东富成路33号香格里拉酒店内大堂层"},{"poiid":"B2094757D068AAFE499B","title":"美年健康(长航店)","lon":"121.52241","lat":"31.22742","category":"162","category_name":"医院","address":"浦东新区崂山路523号(近张杨路)"},{"poiid":"B2094757D068A0F8419B","title":"望湘园(潍坊路店)","lon":"121.52305","lat":"31.22407","category":"77","category_name":"湖南菜","address":"浦东新区潍坊路118号(近崂山路)"},{"poiid":"B2094757D068A4F8489B","title":"洋泾中学","lon":"121.52055","lat":"31.22364","category":"55","category_name":"中学","address":"浦东新区潍坊路111号(近崂山路)"},{"poiid":"B2094757D16BA2FB4599","title":"大漁","lon":"121.520078738","lat":"31.2253951971","category":"247","category_name":"餐饮美食","address":"上海八佰伴"},{"poiid":"B2094757D06FA4F54292","title":"味趣川菜馆 浦东店","lon":"121.51992379583","lat":"31.225158537752","category":"71","category_name":"四川菜","address":"浦东新区南泉北路1044号(近张杨路)"},{"poiid":"B2094757D06FA4FF429A","title":"鸿瑞兴(崂山路店)","lon":"121.52561","lat":"31.22058","category":"76","category_name":"上海菜","address":"浦东新区崂山路706号(近浦电路)"},{"poiid":"B2094757D06AA3F44992","title":"崂山路","lon":"121.523775","lat":"31.226032","category":"500","category_name":"未知分类","address":"上海崂山路"},{"poiid":"B2094654DA69ABFC409D","title":"天天渔港精作坊","lon":"121.52346","lat":"31.22688","category":"72","category_name":"广东菜","address":"浦东新区崂山路588号宝安大厦2楼(近潍坊路)"},{"poiid":"B209475DD16AABFB4292","title":"LAMU慕•法式铁板烧(华润时代店)","lon":"121.521621","lat":"31.224924","category":"247","category_name":"餐饮美食","address":"上海市 张杨路500号华润时代广场8楼(近南泉北路 浦东南路  张杨路)"},{"poiid":"B2094655D269ABF5459E","title":"上品小笼 潍坊路店","lon":"121.519568054","lat":"31.223962793","category":"68","category_name":"快餐厅","address":"浦东新区潍坊路85-1号(近南泉北路)"},{"poiid":"B2094753DA68A5FF439A","title":"金钱豹（浦东三鑫店）","lon":"121.52349","lat":"31.224824","category":"500","category_name":"未知分类","address":"上海市 浦东张杨路579号三鑫大厦"},{"poiid":"B2094750DA6FA5FE4893","title":"四月茶香","lon":"121.52337","lat":"31.22737","category":"260","category_name":"其他","address":"浦东新区东方路778号紫金山大酒店1楼(近张杨路)"},{"poiid":"B2094654DB65A7F4439E","title":"85度(崂山店)","lon":"121.5238","lat":"31.22489","category":"111","category_name":"休闲餐饮场所","address":"浦东新区崂山路525号(近长航医院)"},{"poiid":"B209475CD26EA7FD479C","title":"江边城外烤鱼","lon":"121.521232","lat":"31.227392","category":"247","category_name":"餐饮美食","address":"上海市 上海浦东新区华申大厦三楼"},{"poiid":"B2094655D26DABFA459F","title":"泉东小区","lon":"121.5211","lat":"31.225807","category":"47","category_name":"住宅区","address":"南泉北路1040弄"},{"poiid":"B2094757D06FA4FF4799","title":"COSTA COFFEE(南泉北路店)","lon":"121.52037","lat":"31.22453","category":"65","category_name":"咖啡厅","address":"上海浦东新区南泉北路528号1-2楼(近张杨路)  "},{"poiid":"B2094757D16CA2FE499D","title":"潍坊新村街道社区事务受理中心","lon":"121.522165","lat":"31.224737","category":"46","category_name":"楼宇","address":"上海浦东新区 潍坊路131弄1号 近崂山路"},{"poiid":"B2094654DA69ABFC4993","title":"华东师范大学附属东昌中学南校","lon":"121.51961","lat":"31.22668","category":"55","category_name":"中学","address":"南泉北路1020"},{"poiid":"B209475DD16AABFB499C","title":"LAMU慕•法式铁板烧(华润时代店)","lon":"121.52182","lat":"31.225078","category":"247","category_name":"餐饮美食","address":"上海市 张杨路500号华润时代广场8楼(近南泉北路 浦东南路  张杨路)"},{"poiid":"B2094757D068A0FE4399","title":"馋佬汇美食广场","lon":"121.52227783","lat":"31.225606918","category":"500","category_name":"未知分类","address":"浦东新区浦东南路1101号远东大厦1楼(近八佰伴)"},{"poiid":"B209475DD364A3FB479D","title":"Tai Cook 泰谷","lon":"121.521148","lat":"31.225465","category":"500","category_name":"未知分类","address":"上海市 八佰伴"},{"poiid":"B2094757D068A6F84293","title":"崎味拉面","lon":"121.523906","lat":"31.225404","category":"95","category_name":"日本料理","address":"浦东新区崂山路604号(潍坊路口)"},{"poiid":"B2094757D168A1FB459A","title":"Haagen Daz 华润时代店","lon":"121.52226257","lat":"31.225282669","category":"500","category_name":"未知分类","address":"上海张杨路500号中庭"},{"poiid":"B209475CD668AAFE459F","title":"上海外滩","lon":"121.520034","lat":"31.224922","category":"500","category_name":"未知分类","address":"上海市 上海外滩"},{"poiid":"B2094750D16AABF5429D","title":"新旺茶餐厅（八佰伴分店）","lon":"121.520133","lat":"31.227333","category":"247","category_name":"餐饮美食","address":null},{"poiid":"B2094757D069A3FD4092","title":"华东师范大学附属东昌中学初中部(南校)","lon":"121.52004","lat":"31.22592","category":"55","category_name":"中学","address":"浦东新区南泉北路1020号(近张扬路)"},{"poiid":"B2094757D06BA3FC459E","title":"继光香香鸡","lon":"121.519553738","lat":"31.2254591984","category":"68","category_name":"快餐厅","address":"浦东新区南泉北路588号新大陆广场1楼(近张杨路)"},{"poiid":"B2094757D068A6F44898","title":"南洋商业银行大厦","lon":"121.523221308","lat":"31.2262088744","category":"46","category_name":"楼宇","address":"浦东新区世纪大道800号南洋商业银行大厦(浦东南路东昌路内)"},{"poiid":"B2094757D66CA1F5439A","title":"大渔","lon":"121.52165673","lat":"31.226555221","category":"247","category_name":"餐饮美食","address":"上海市浦东新区张杨路"},{"poiid":"B2094655D26DA7FB449C","title":"东欣小区","lon":"121.52274","lat":"31.22603","category":"47","category_name":"住宅区","address":"崂山路571弄1-6号"},{"poiid":"B2094654DA69ABFC4292","title":"崂东居民区市民学校阅览室","lon":"121.52239","lat":"31.22529","category":"181","category_name":"图书馆","address":""},{"poiid":"B2094757D165A6F8439A","title":"峰尚美容美发","lon":"121.521891738","lat":"31.2256482024","category":"148","category_name":"美容美发店","address":"上海市浦东新区崂山路625号"},{"poiid":"B2094757D16EA5FB469B","title":"好食道","lon":"121.51971327525","lat":"31.226090950987","category":"76","category_name":"上海菜","address":"浦东新区南泉北路1028号(中电大厦对面)"},{"poiid":"B2094654DA69ABFC499C","title":"上海市浦东新区辅读学校","lon":"121.52183","lat":"31.22624","category":"56","category_name":"小学","address":"浦东新区崂山路551弄40号"},{"poiid":"B2094655D268A4F54099","title":"潍坊七村(北门)","lon":"121.52218","lat":"31.22439","category":"47","category_name":"住宅区","address":""},{"poiid":"B2094757D569A3FB439C","title":"南泉路炸肉串摊","lon":"121.5197831","lat":"31.22519389","category":"68","category_name":"快餐厅","address":"浦东新区浦东新区南泉北路1040弄门口(近潍坊路)"},{"poiid":"B2094654DA69ABFC439F","title":"崂东小区","lon":"121.52235","lat":"31.225693","category":"47","category_name":"住宅区","address":"潍坊路127号"},{"poiid":"B2094753D165AAFB449D","title":"一得仙海鲜","lon":"121.52025","lat":"31.225302","category":"247","category_name":"餐饮美食","address":"上海市 崂山路555号"},{"poiid":"B2094757D06AA3F44493","title":"丰潍娘家韩国料理","lon":"121.52059","lat":"31.22305","category":"96","category_name":"韩国料理","address":"浦东新区南泉路12号(潍坊路口)"},{"poiid":"B2094654DA69ABFC4593","title":"洋泾高级中学(南门)","lon":"121.52072","lat":"31.22416","category":"678","category_name":"学校大门","address":"潍坊路111"},{"poiid":"B2094654DB65A5F5419D","title":"上海市浦东科技教育学院(东门)","lon":"121.5192","lat":"31.22554","category":"52","category_name":"高等院校","address":"浦东新区南泉北路1035号亨利国际商务中心"},{"poiid":"B2094757D66CA4FC429E","title":"C&amp;C烘培坊","lon":"121.521071738","lat":"31.2241761711","category":"247","category_name":"餐饮美食","address":"上海南泉北路1035号611室"},{"poiid":"B2094757D465A4FF419E","title":"新亚大包 潍坊路店","lon":"121.523656054","lat":"31.225256793","category":"68","category_name":"快餐厅","address":"浦东新区潍坊路135号(近崂山路)"},{"poiid":"B2094654DA69A4F44793","title":"金稻田造型设计","lon":"121.51975","lat":"31.22391","category":"148","category_name":"美容美发店","address":"浦东新区潍坊路91号(近浦东南路)"},{"poiid":"B2094654DA69ABFC439C","title":"崂东小区(南门)","lon":"121.52257","lat":"31.22476","category":"47","category_name":"住宅区","address":"潍坊路127"},{"poiid":"B209475DD365A7FD4592","title":"爽辣重庆潮人火锅","lon":"121.522453","lat":"31.226766","category":"247","category_name":"餐饮美食","address":"上海市 浦东南泉北路528号新大陆广场北楼3楼"}]