[{"poiid":"B2094757D66FA6FA4492","title":"外婆家(华润时代广场店)","lon":"121.518290738","lat":"31.2266762244","category":"75","category_name":"浙江菜","address":"浦东新区张杨路500号华润时代广场8楼(近南泉北路)"},{"poiid":"B2094757D06FA1FB459C","title":"川国演义(浦东店)","lon":"121.51727","lat":"31.22688","category":"71","category_name":"四川菜","address":"浦东新区张杨路500号华润时代广场10楼(近浦东南路)"},{"poiid":"B2094750DB6CA5FF4192","title":"上海第一八佰伴","lon":"121.519043","lat":"31.225433","category":"249","category_name":"购物服务","address":"浦东新区张杨路501号(近浦东南路)"},{"poiid":"B209475CD564A7F84392","title":"上海滩浦东香格里拉店","lon":"121.50058","lat":"31.23634","category":"119","category_name":"商场","address":"浦东富成路33号香格里拉酒店内大堂层"},{"poiid":"B2094655D26BA2F54393","title":"浦东南路潍坊路","lon":"121.5181","lat":"31.22198","category":"38","category_name":"公交车站","address":""},{"poiid":"B2094757D66CA6F4479E","title":"维也纳国际酒店(陆家嘴店)","lon":"121.517019738","lat":"31.2233981545","category":"500","category_name":"未知分类","address":"浦东新区潍坊西路73号(近浦东南路)"},{"poiid":"B2094757D06FA0F4489C","title":"香港粗菜馆(浦东店)","lon":"121.519063738","lat":"31.226141213","category":"72","category_name":"广东菜","address":"浦东新区南泉北路1029号中电大厦2楼(近张杨路)"},{"poiid":"B2094757D06FA6FD469F","title":"麦当劳(华润店)","lon":"121.51728","lat":"31.22635","category":"68","category_name":"快餐厅","address":"浦东新区张杨路500号华润时代广场1楼118商铺(近浦东南路)"},{"poiid":"B2094757D068A6FE459B","title":"近江和牛正传(华润时代店)","lon":"121.51736812","lat":"31.226760826","category":"95","category_name":"日本料理","address":"上海浦东新区张杨路500号华润时代广场5楼(近浦东南路)"},{"poiid":"B2094757D16AABFD4799","title":"梅园村(浦东南路店)","lon":"121.518600838","lat":"31.2243286743","category":"500","category_name":"未知分类","address":"上海浦东南路中融国际商城"},{"poiid":"B2094750DA6BAAFF4493","title":"八佰伴新世纪影城","lon":"121.516845","lat":"31.226518","category":"248","category_name":"生活娱乐","address":null},{"poiid":"B2094757D168AAFD4598","title":"辛香汇","lon":"121.51956373","lat":"31.223014146","category":"500","category_name":"未知分类","address":"上海市浦东新区世纪大道"},{"poiid":"B2094654DB6AA6FF4799","title":"上海中电大酒店","lon":"121.51893","lat":"31.22616","category":"215","category_name":"三星级宾馆","address":"浦东新区南泉北路1029号"},{"poiid":"B2094654DB69A5F54999","title":"哈根达斯冷饮(时代广场店)","lon":"121.51701","lat":"31.22662","category":"113","category_name":"冷饮店","address":"浦东新区张杨路500号华润时代广场1楼114-115商铺(近浦东南路)"},{"poiid":"B2094757D66BA0FE4099","title":"九卓堂","lon":"121.517141","lat":"31.2230009","category":"76","category_name":"上海菜","address":"浦东新区潍坊西路73号(潍坊路潍坊西路)"},{"poiid":"B2094757D16FA7FE479A","title":"好乐迪","lon":"121.51964573","lat":"31.223012146","category":"500","category_name":"未知分类","address":"上海ShanghaiPudong XinquPucheng Rd"},{"poiid":"B2094757D068A7FE409F","title":"上海新东方学校(八佰伴分部)","lon":"121.51714","lat":"31.22429","category":"253","category_name":"校园生活","address":"浦东新区浦东南路1341弄12号(近临园路)"},{"poiid":"B2094655D269ABF5459E","title":"上品小笼 潍坊路店","lon":"121.519568054","lat":"31.223962793","category":"68","category_name":"快餐厅","address":"浦东新区潍坊路85-1号(近南泉北路)"},{"poiid":"B2094757D469A7F4409F","title":"JSTONE","lon":"121.516112","lat":"31.222485","category":"94","category_name":"西餐厅","address":"浦东新区潍坊西路88号(近浦城路)"},{"poiid":"B2094654DA69ABFE4298","title":"东川造型(浦东南路)","lon":"121.51818","lat":"31.22285","category":"148","category_name":"美容美发店","address":"浦东新区浦东南路1463号(近潍坊路)"},{"poiid":"B2094654DB6AA6F8429F","title":"上海久阳滨江酒店","lon":"121.51708","lat":"31.22245","category":"214","category_name":"四星级宾馆","address":"浦东新区浦东南路1436号(近潍坊西路)"},{"poiid":"B2094757D06BA2FB4298","title":"亨利花园","lon":"121.51859873","lat":"31.225309195","category":"47","category_name":"住宅区","address":"上海市浦东新区南泉北路1035号紫金瀚宫3号楼"},{"poiid":"B2094757D465A4F8409E","title":"亨利花园餐厅 Henry'sGardenRestaurant&Bar","lon":"121.51867","lat":"31.225694","category":"100","category_name":"地中海风格菜品","address":"浦东新区南泉北路1035号紫金瀚宫3号楼(近中电大酒店)"},{"poiid":"B2094654DA69ABFE429B","title":"永和豆浆(浦东南路)","lon":"121.51814","lat":"31.22297","category":"68","category_name":"快餐厅","address":"浦东新区浦东南路1457号(近潍坊路)"},{"poiid":"B2094757D068A5F9459E","title":"东南新村","lon":"121.51726646","lat":"31.225442348","category":"47","category_name":"住宅区","address":"上海张杨路浦东南路"},{"poiid":"B2094757D068A0F8449C","title":"一兆韦德(华润店)","lon":"121.5174","lat":"31.2268","category":"221","category_name":"健身中心","address":"浦东新区张杨路500号华润时代广场5楼514室(近浦东南路)"},{"poiid":"B2094757D16DA3FA4193","title":"Nancy's Bakery","lon":"121.516442878","lat":"31.2227383333","category":"67","category_name":"甜品店","address":"浦东新区潍坊西路86号(近浦东南路)"},{"poiid":"B2094654DB64A3FD489A","title":"花之林人文茶馆 潍坊路店","lon":"121.51820875448","lat":"31.223558710918","category":"260","category_name":"其他","address":"浦东新区潍坊路2号(浦东南路口)"},{"poiid":"B2094654DA69ABF9469B","title":"上海乔家栅小吃世界(浦东南路)","lon":"121.51702","lat":"31.225","category":"68","category_name":"快餐厅","address":"浦东新区浦东南路东南新村19号(近张杨路)"},{"poiid":"B2094757D06FAAFD479A","title":"南梦宫电子游戏世界(八佰伴店)","lon":"121.51706","lat":"31.22674","category":"173","category_name":"游戏厅","address":"浦东新区张杨路501号第一八佰伴10楼(近浦东南路)"},{"poiid":"B2094655D269ABFC449B","title":"ACE台球吧","lon":"121.51703","lat":"31.22309","category":"247","category_name":"餐饮美食","address":"浦东新区潍坊西路73号4号楼(近浦东南路)"},{"poiid":"B2094655D26DA1FB4398","title":"上海鸿酒店","lon":"121.51611","lat":"31.22248","category":"250","category_name":"公园户外","address":"浦东新区潍坊西路88号(近浦城路)"},{"poiid":"B209475DD16DA2F44598","title":"小辉哥火锅","lon":"121.516998","lat":"31.226911","category":"247","category_name":"餐饮美食","address":"上海市 上海浦东新区张杨路500号4楼"},{"poiid":"B2094757D168A6F54899","title":"YAMAZAKI","lon":"121.51710163","lat":"31.22414117","category":"500","category_name":"未知分类","address":"上海浦東第一八百伴"},{"poiid":"B209475CD66AA1FF4893","title":"城隍庙","lon":"121.516731","lat":"31.224786","category":"500","category_name":"未知分类","address":"上海市 城隍庙"},{"poiid":"B2094655D26DA7FB449E","title":"深圳发展银行分行营业部","lon":"121.51768","lat":"31.22465","category":"150","category_name":"银行","address":"浦东南路1351"},{"poiid":"B2094757D064ABF84592","title":"湖南特色牛肉米粉(南泉北路店)","lon":"121.51876","lat":"31.22521","category":"68","category_name":"快餐厅","address":"浦东新区南泉北路1035号大门南侧(近潍坊路)"},{"poiid":"B2094757D16CABF54998","title":"深圳发展银行-小红楼","lon":"121.51838008","lat":"31.224671981","category":"500","category_name":"未知分类","address":"上海浦东南路1351号"},{"poiid":"B2094757D06BA2F4469F","title":"翡翠皇宫酒家","lon":"121.51734398","lat":"31.226731855","category":"72","category_name":"广东菜","address":"浦东新区张杨路500号华润时代广场8楼(近浦东南路)"},{"poiid":"B2094757D06AABFF459A","title":"The Max Pub(潍坊西路店)","lon":"121.51683","lat":"31.22249","category":"500","category_name":"未知分类","address":"浦东新区潍坊西路116号(近浦东南路)"},{"poiid":"B2094752DB64A4FB449D","title":"上海市陆家嘴","lon":"121.517515","lat":"31.224637","category":"500","category_name":"未知分类","address":"上海市 滨江"},{"poiid":"B2094750DA6FA5FE4893","title":"四月茶香","lon":"121.52337","lat":"31.22737","category":"260","category_name":"其他","address":"浦东新区东方路778号紫金山大酒店1楼(近张杨路)"},{"poiid":"B2094655D26EA7FC4999","title":"永琪美容美发","lon":"121.51851","lat":"31.22353","category":"148","category_name":"美容美发店","address":"浦东新区潍坊路21号(近浦东南路)"},{"poiid":"B2094757D165A0F94198","title":"浦东南路潍坊路中星服务式公寓","lon":"121.518643838","lat":"31.2242961736","category":"500","category_name":"未知分类","address":"上海市浦东新区潍坊路16弄2号（近浦东南路）"},{"poiid":"B2094655D26BA2FE409B","title":"潍坊路","lon":"121.5179","lat":"31.22268","category":"38","category_name":"公交车站","address":""},{"poiid":"B2094750DB6CA0FB449A","title":"上海歌城","lon":"121.517417","lat":"31.225231","category":"170","category_name":"KTV","address":null},{"poiid":"B2094654DA69ABF94698","title":"东南新村(东门)","lon":"121.51684","lat":"31.22511","category":"47","category_name":"住宅区","address":""},{"poiid":"B2094655D268A6F94092","title":"台球吧","lon":"121.51676","lat":"31.22365","category":"171","category_name":"台球厅","address":"潍坊西路73号"},{"poiid":"B2094654DB64A3FD479D","title":"明珠大楼","lon":"121.51791","lat":"31.22529","category":"46","category_name":"楼宇","address":"崂山西路1021"},{"poiid":"B2094654DA69ABFD479D","title":"潍坊三村","lon":"121.51924","lat":"31.22311","category":"47","category_name":"住宅区","address":"潍坊三村351"},{"poiid":"B2094757D66FA6FA4492","title":"外婆家(华润时代广场店)","lon":"121.518290738","lat":"31.2266762244","category":"75","category_name":"浙江菜","address":"浦东新区张杨路500号华润时代广场8楼(近南泉北路)"},{"poiid":"B2094757D06FA1FB459C","title":"川国演义(浦东店)","lon":"121.51727","lat":"31.22688","category":"71","category_name":"四川菜","address":"浦东新区张杨路500号华润时代广场10楼(近浦东南路)"},{"poiid":"B2094750DB6CA5FF4192","title":"上海第一八佰伴","lon":"121.519043","lat":"31.225433","category":"249","category_name":"购物服务","address":"浦东新区张杨路501号(近浦东南路)"},{"poiid":"B209475CD564A7F84392","title":"上海滩浦东香格里拉店","lon":"121.50058","lat":"31.23634","category":"119","category_name":"商场","address":"浦东富成路33号香格里拉酒店内大堂层"},{"poiid":"B2094655D26BA2F54393","title":"浦东南路潍坊路","lon":"121.5181","lat":"31.22198","category":"38","category_name":"公交车站","address":""},{"poiid":"B2094757D66CA6F4479E","title":"维也纳国际酒店(陆家嘴店)","lon":"121.517019738","lat":"31.2233981545","category":"500","category_name":"未知分类","address":"浦东新区潍坊西路73号(近浦东南路)"},{"poiid":"B2094757D06FA0F4489C","title":"香港粗菜馆(浦东店)","lon":"121.519063738","lat":"31.226141213","category":"72","category_name":"广东菜","address":"浦东新区南泉北路1029号中电大厦2楼(近张杨路)"},{"poiid":"B2094757D06FA6FD469F","title":"麦当劳(华润店)","lon":"121.51728","lat":"31.22635","category":"68","category_name":"快餐厅","address":"浦东新区张杨路500号华润时代广场1楼118商铺(近浦东南路)"},{"poiid":"B2094757D068A6FE459B","title":"近江和牛正传(华润时代店)","lon":"121.51736812","lat":"31.226760826","category":"95","category_name":"日本料理","address":"上海浦东新区张杨路500号华润时代广场5楼(近浦东南路)"},{"poiid":"B2094757D16AABFD4799","title":"梅园村(浦东南路店)","lon":"121.518600838","lat":"31.2243286743","category":"500","category_name":"未知分类","address":"上海浦东南路中融国际商城"},{"poiid":"B2094750DA6BAAFF4493","title":"八佰伴新世纪影城","lon":"121.516845","lat":"31.226518","category":"248","category_name":"生活娱乐","address":null},{"poiid":"B2094757D168AAFD4598","title":"辛香汇","lon":"121.51956373","lat":"31.223014146","category":"500","category_name":"未知分类","address":"上海市浦东新区世纪大道"},{"poiid":"B2094654DB6AA6FF4799","title":"上海中电大酒店","lon":"121.51893","lat":"31.22616","category":"215","category_name":"三星级宾馆","address":"浦东新区南泉北路1029号"},{"poiid":"B2094654DB69A5F54999","title":"哈根达斯冷饮(时代广场店)","lon":"121.51701","lat":"31.22662","category":"113","category_name":"冷饮店","address":"浦东新区张杨路500号华润时代广场1楼114-115商铺(近浦东南路)"},{"poiid":"B2094757D66BA0FE4099","title":"九卓堂","lon":"121.517141","lat":"31.2230009","category":"76","category_name":"上海菜","address":"浦东新区潍坊西路73号(潍坊路潍坊西路)"},{"poiid":"B2094757D16FA7FE479A","title":"好乐迪","lon":"121.51964573","lat":"31.223012146","category":"500","category_name":"未知分类","address":"上海ShanghaiPudong XinquPucheng Rd"},{"poiid":"B2094757D068A7FE409F","title":"上海新东方学校(八佰伴分部)","lon":"121.51714","lat":"31.22429","category":"253","category_name":"校园生活","address":"浦东新区浦东南路1341弄12号(近临园路)"},{"poiid":"B2094655D269ABF5459E","title":"上品小笼 潍坊路店","lon":"121.519568054","lat":"31.223962793","category":"68","category_name":"快餐厅","address":"浦东新区潍坊路85-1号(近南泉北路)"},{"poiid":"B2094757D469A7F4409F","title":"JSTONE","lon":"121.516112","lat":"31.222485","category":"94","category_name":"西餐厅","address":"浦东新区潍坊西路88号(近浦城路)"},{"poiid":"B2094654DA69ABFE4298","title":"东川造型(浦东南路)","lon":"121.51818","lat":"31.22285","category":"148","category_name":"美容美发店","address":"浦东新区浦东南路1463号(近潍坊路)"},{"poiid":"B2094654DB6AA6F8429F","title":"上海久阳滨江酒店","lon":"121.51708","lat":"31.22245","category":"214","category_name":"四星级宾馆","address":"浦东新区浦东南路1436号(近潍坊西路)"},{"poiid":"B2094757D06BA2FB4298","title":"亨利花园","lon":"121.51859873","lat":"31.225309195","category":"47","category_name":"住宅区","address":"上海市浦东新区南泉北路1035号紫金瀚宫3号楼"},{"poiid":"B2094757D465A4F8409E","title":"亨利花园餐厅 Henry'sGardenRestaurant&Bar","lon":"121.51867","lat":"31.225694","category":"100","category_name":"地中海风格菜品","address":"浦东新区南泉北路1035号紫金瀚宫3号楼(近中电大酒店)"},{"poiid":"B2094654DA69ABFE429B","title":"永和豆浆(浦东南路)","lon":"121.51814","lat":"31.22297","category":"68","category_name":"快餐厅","address":"浦东新区浦东南路1457号(近潍坊路)"},{"poiid":"B2094757D068A5F9459E","title":"东南新村","lon":"121.51726646","lat":"31.225442348","category":"47","category_name":"住宅区","address":"上海张杨路浦东南路"},{"poiid":"B2094757D068A0F8449C","title":"一兆韦德(华润店)","lon":"121.5174","lat":"31.2268","category":"221","category_name":"健身中心","address":"浦东新区张杨路500号华润时代广场5楼514室(近浦东南路)"},{"poiid":"B2094757D16DA3FA4193","title":"Nancy's Bakery","lon":"121.516442878","lat":"31.2227383333","category":"67","category_name":"甜品店","address":"浦东新区潍坊西路86号(近浦东南路)"},{"poiid":"B2094654DB64A3FD489A","title":"花之林人文茶馆 潍坊路店","lon":"121.51820875448","lat":"31.223558710918","category":"260","category_name":"其他","address":"浦东新区潍坊路2号(浦东南路口)"},{"poiid":"B2094654DA69ABF9469B","title":"上海乔家栅小吃世界(浦东南路)","lon":"121.51702","lat":"31.225","category":"68","category_name":"快餐厅","address":"浦东新区浦东南路东南新村19号(近张杨路)"},{"poiid":"B2094757D06FAAFD479A","title":"南梦宫电子游戏世界(八佰伴店)","lon":"121.51706","lat":"31.22674","category":"173","category_name":"游戏厅","address":"浦东新区张杨路501号第一八佰伴10楼(近浦东南路)"},{"poiid":"B2094655D269ABFC449B","title":"ACE台球吧","lon":"121.51703","lat":"31.22309","category":"247","category_name":"餐饮美食","address":"浦东新区潍坊西路73号4号楼(近浦东南路)"},{"poiid":"B2094655D26DA1FB4398","title":"上海鸿酒店","lon":"121.51611","lat":"31.22248","category":"250","category_name":"公园户外","address":"浦东新区潍坊西路88号(近浦城路)"},{"poiid":"B209475DD16DA2F44598","title":"小辉哥火锅","lon":"121.516998","lat":"31.226911","category":"247","category_name":"餐饮美食","address":"上海市 上海浦东新区张杨路500号4楼"},{"poiid":"B2094757D168A6F54899","title":"YAMAZAKI","lon":"121.51710163","lat":"31.22414117","category":"500","category_name":"未知分类","address":"上海浦東第一八百伴"},{"poiid":"B209475CD66AA1FF4893","title":"城隍庙","lon":"121.516731","lat":"31.224786","category":"500","category_name":"未知分类","address":"上海市 城隍庙"},{"poiid":"B2094655D26DA7FB449E","title":"深圳发展银行分行营业部","lon":"121.51768","lat":"31.22465","category":"150","category_name":"银行","address":"浦东南路1351"},{"poiid":"B2094757D064ABF84592","title":"湖南特色牛肉米粉(南泉北路店)","lon":"121.51876","lat":"31.22521","category":"68","category_name":"快餐厅","address":"浦东新区南泉北路1035号大门南侧(近潍坊路)"},{"poiid":"B2094757D16CABF54998","title":"深圳发展银行-小红楼","lon":"121.51838008","lat":"31.224671981","category":"500","category_name":"未知分类","address":"上海浦东南路1351号"},{"poiid":"B2094757D06BA2F4469F","title":"翡翠皇宫酒家","lon":"121.51734398","lat":"31.226731855","category":"72","category_name":"广东菜","address":"浦东新区张杨路500号华润时代广场8楼(近浦东南路)"},{"poiid":"B2094757D06AABFF459A","title":"The Max Pub(潍坊西路店)","lon":"121.51683","lat":"31.22249","category":"500","category_name":"未知分类","address":"浦东新区潍坊西路116号(近浦东南路)"},{"poiid":"B2094752DB64A4FB449D","title":"上海市陆家嘴","lon":"121.517515","lat":"31.224637","category":"500","category_name":"未知分类","address":"上海市 滨江"},{"poiid":"B2094750DA6FA5FE4893","title":"四月茶香","lon":"121.52337","lat":"31.22737","category":"260","category_name":"其他","address":"浦东新区东方路778号紫金山大酒店1楼(近张杨路)"},{"poiid":"B2094655D26EA7FC4999","title":"永琪美容美发","lon":"121.51851","lat":"31.22353","category":"148","category_name":"美容美发店","address":"浦东新区潍坊路21号(近浦东南路)"},{"poiid":"B2094757D165A0F94198","title":"浦东南路潍坊路中星服务式公寓","lon":"121.518643838","lat":"31.2242961736","category":"500","category_name":"未知分类","address":"上海市浦东新区潍坊路16弄2号（近浦东南路）"},{"poiid":"B2094655D26BA2FE409B","title":"潍坊路","lon":"121.5179","lat":"31.22268","category":"38","category_name":"公交车站","address":""},{"poiid":"B2094750DB6CA0FB449A","title":"上海歌城","lon":"121.517417","lat":"31.225231","category":"170","category_name":"KTV","address":null},{"poiid":"B2094654DA69ABF94698","title":"东南新村(东门)","lon":"121.51684","lat":"31.22511","category":"47","category_name":"住宅区","address":""},{"poiid":"B2094655D268A6F94092","title":"台球吧","lon":"121.51676","lat":"31.22365","category":"171","category_name":"台球厅","address":"潍坊西路73号"},{"poiid":"B2094654DB64A3FD479D","title":"明珠大楼","lon":"121.51791","lat":"31.22529","category":"46","category_name":"楼宇","address":"崂山西路1021"},{"poiid":"B2094654DA69ABFD479D","title":"潍坊三村","lon":"121.51924","lat":"31.22311","category":"47","category_name":"住宅区","address":"潍坊三村351"},{"poiid":"B2094757D66FA6FA4492","title":"外婆家(华润时代广场店)","lon":"121.518290738","lat":"31.2266762244","category":"75","category_name":"浙江菜","address":"浦东新区张杨路500号华润时代广场8楼(近南泉北路)"},{"poiid":"B2094757D06FA1FB459C","title":"川国演义(浦东店)","lon":"121.51727","lat":"31.22688","category":"71","category_name":"四川菜","address":"浦东新区张杨路500号华润时代广场10楼(近浦东南路)"},{"poiid":"B2094750DB6CA5FF4192","title":"上海第一八佰伴","lon":"121.519043","lat":"31.225433","category":"249","category_name":"购物服务","address":"浦东新区张杨路501号(近浦东南路)"},{"poiid":"B209475CD564A7F84392","title":"上海滩浦东香格里拉店","lon":"121.50058","lat":"31.23634","category":"119","category_name":"商场","address":"浦东富成路33号香格里拉酒店内大堂层"},{"poiid":"B2094655D26BA2F54393","title":"浦东南路潍坊路","lon":"121.5181","lat":"31.22198","category":"38","category_name":"公交车站","address":""},{"poiid":"B2094757D66CA6F4479E","title":"维也纳国际酒店(陆家嘴店)","lon":"121.517019738","lat":"31.2233981545","category":"500","category_name":"未知分类","address":"浦东新区潍坊西路73号(近浦东南路)"},{"poiid":"B2094757D06FA0F4489C","title":"香港粗菜馆(浦东店)","lon":"121.519063738","lat":"31.226141213","category":"72","category_name":"广东菜","address":"浦东新区南泉北路1029号中电大厦2楼(近张杨路)"},{"poiid":"B2094757D06FA6FD469F","title":"麦当劳(华润店)","lon":"121.51728","lat":"31.22635","category":"68","category_name":"快餐厅","address":"浦东新区张杨路500号华润时代广场1楼118商铺(近浦东南路)"},{"poiid":"B2094757D068A6FE459B","title":"近江和牛正传(华润时代店)","lon":"121.51736812","lat":"31.226760826","category":"95","category_name":"日本料理","address":"上海浦东新区张杨路500号华润时代广场5楼(近浦东南路)"},{"poiid":"B2094757D16AABFD4799","title":"梅园村(浦东南路店)","lon":"121.518600838","lat":"31.2243286743","category":"500","category_name":"未知分类","address":"上海浦东南路中融国际商城"},{"poiid":"B2094750DA6BAAFF4493","title":"八佰伴新世纪影城","lon":"121.516845","lat":"31.226518","category":"248","category_name":"生活娱乐","address":null},{"poiid":"B2094757D168AAFD4598","title":"辛香汇","lon":"121.51956373","lat":"31.223014146","category":"500","category_name":"未知分类","address":"上海市浦东新区世纪大道"},{"poiid":"B2094654DB6AA6FF4799","title":"上海中电大酒店","lon":"121.51893","lat":"31.22616","category":"215","category_name":"三星级宾馆","address":"浦东新区南泉北路1029号"},{"poiid":"B2094654DB69A5F54999","title":"哈根达斯冷饮(时代广场店)","lon":"121.51701","lat":"31.22662","category":"113","category_name":"冷饮店","address":"浦东新区张杨路500号华润时代广场1楼114-115商铺(近浦东南路)"},{"poiid":"B2094757D66BA0FE4099","title":"九卓堂","lon":"121.517141","lat":"31.2230009","category":"76","category_name":"上海菜","address":"浦东新区潍坊西路73号(潍坊路潍坊西路)"},{"poiid":"B2094757D16FA7FE479A","title":"好乐迪","lon":"121.51964573","lat":"31.223012146","category":"500","category_name":"未知分类","address":"上海ShanghaiPudong XinquPucheng Rd"},{"poiid":"B2094757D068A7FE409F","title":"上海新东方学校(八佰伴分部)","lon":"121.51714","lat":"31.22429","category":"253","category_name":"校园生活","address":"浦东新区浦东南路1341弄12号(近临园路)"},{"poiid":"B2094655D269ABF5459E","title":"上品小笼 潍坊路店","lon":"121.519568054","lat":"31.223962793","category":"68","category_name":"快餐厅","address":"浦东新区潍坊路85-1号(近南泉北路)"},{"poiid":"B2094757D469A7F4409F","title":"JSTONE","lon":"121.516112","lat":"31.222485","category":"94","category_name":"西餐厅","address":"浦东新区潍坊西路88号(近浦城路)"},{"poiid":"B2094654DA69ABFE4298","title":"东川造型(浦东南路)","lon":"121.51818","lat":"31.22285","category":"148","category_name":"美容美发店","address":"浦东新区浦东南路1463号(近潍坊路)"},{"poiid":"B2094654DB6AA6F8429F","title":"上海久阳滨江酒店","lon":"121.51708","lat":"31.22245","category":"214","category_name":"四星级宾馆","address":"浦东新区浦东南路1436号(近潍坊西路)"},{"poiid":"B2094757D06BA2FB4298","title":"亨利花园","lon":"121.51859873","lat":"31.225309195","category":"47","category_name":"住宅区","address":"上海市浦东新区南泉北路1035号紫金瀚宫3号楼"},{"poiid":"B2094757D465A4F8409E","title":"亨利花园餐厅 Henry'sGardenRestaurant&Bar","lon":"121.51867","lat":"31.225694","category":"100","category_name":"地中海风格菜品","address":"浦东新区南泉北路1035号紫金瀚宫3号楼(近中电大酒店)"},{"poiid":"B2094654DA69ABFE429B","title":"永和豆浆(浦东南路)","lon":"121.51814","lat":"31.22297","category":"68","category_name":"快餐厅","address":"浦东新区浦东南路1457号(近潍坊路)"},{"poiid":"B2094757D068A5F9459E","title":"东南新村","lon":"121.51726646","lat":"31.225442348","category":"47","category_name":"住宅区","address":"上海张杨路浦东南路"},{"poiid":"B2094757D068A0F8449C","title":"一兆韦德(华润店)","lon":"121.5174","lat":"31.2268","category":"221","category_name":"健身中心","address":"浦东新区张杨路500号华润时代广场5楼514室(近浦东南路)"},{"poiid":"B2094757D16DA3FA4193","title":"Nancy's Bakery","lon":"121.516442878","lat":"31.2227383333","category":"67","category_name":"甜品店","address":"浦东新区潍坊西路86号(近浦东南路)"},{"poiid":"B2094654DB64A3FD489A","title":"花之林人文茶馆 潍坊路店","lon":"121.51820875448","lat":"31.223558710918","category":"260","category_name":"其他","address":"浦东新区潍坊路2号(浦东南路口)"},{"poiid":"B2094654DA69ABF9469B","title":"上海乔家栅小吃世界(浦东南路)","lon":"121.51702","lat":"31.225","category":"68","category_name":"快餐厅","address":"浦东新区浦东南路东南新村19号(近张杨路)"},{"poiid":"B2094757D06FAAFD479A","title":"南梦宫电子游戏世界(八佰伴店)","lon":"121.51706","lat":"31.22674","category":"173","category_name":"游戏厅","address":"浦东新区张杨路501号第一八佰伴10楼(近浦东南路)"},{"poiid":"B2094655D269ABFC449B","title":"ACE台球吧","lon":"121.51703","lat":"31.22309","category":"247","category_name":"餐饮美食","address":"浦东新区潍坊西路73号4号楼(近浦东南路)"},{"poiid":"B2094655D26DA1FB4398","title":"上海鸿酒店","lon":"121.51611","lat":"31.22248","category":"250","category_name":"公园户外","address":"浦东新区潍坊西路88号(近浦城路)"},{"poiid":"B209475DD16DA2F44598","title":"小辉哥火锅","lon":"121.516998","lat":"31.226911","category":"247","category_name":"餐饮美食","address":"上海市 上海浦东新区张杨路500号4楼"},{"poiid":"B2094757D168A6F54899","title":"YAMAZAKI","lon":"121.51710163","lat":"31.22414117","category":"500","category_name":"未知分类","address":"上海浦東第一八百伴"},{"poiid":"B209475CD66AA1FF4893","title":"城隍庙","lon":"121.516731","lat":"31.224786","category":"500","category_name":"未知分类","address":"上海市 城隍庙"},{"poiid":"B2094655D26DA7FB449E","title":"深圳发展银行分行营业部","lon":"121.51768","lat":"31.22465","category":"150","category_name":"银行","address":"浦东南路1351"},{"poiid":"B2094757D064ABF84592","title":"湖南特色牛肉米粉(南泉北路店)","lon":"121.51876","lat":"31.22521","category":"68","category_name":"快餐厅","address":"浦东新区南泉北路1035号大门南侧(近潍坊路)"},{"poiid":"B2094757D16CABF54998","title":"深圳发展银行-小红楼","lon":"121.51838008","lat":"31.224671981","category":"500","category_name":"未知分类","address":"上海浦东南路1351号"},{"poiid":"B2094757D06BA2F4469F","title":"翡翠皇宫酒家","lon":"121.51734398","lat":"31.226731855","category":"72","category_name":"广东菜","address":"浦东新区张杨路500号华润时代广场8楼(近浦东南路)"},{"poiid":"B2094757D06AABFF459A","title":"The Max Pub(潍坊西路店)","lon":"121.51683","lat":"31.22249","category":"500","category_name":"未知分类","address":"浦东新区潍坊西路116号(近浦东南路)"},{"poiid":"B2094752DB64A4FB449D","title":"上海市陆家嘴","lon":"121.517515","lat":"31.224637","category":"500","category_name":"未知分类","address":"上海市 滨江"},{"poiid":"B2094750DA6FA5FE4893","title":"四月茶香","lon":"121.52337","lat":"31.22737","category":"260","category_name":"其他","address":"浦东新区东方路778号紫金山大酒店1楼(近张杨路)"},{"poiid":"B2094655D26EA7FC4999","title":"永琪美容美发","lon":"121.51851","lat":"31.22353","category":"148","category_name":"美容美发店","address":"浦东新区潍坊路21号(近浦东南路)"},{"poiid":"B2094757D165A0F94198","title":"浦东南路潍坊路中星服务式公寓","lon":"121.518643838","lat":"31.2242961736","category":"500","category_name":"未知分类","address":"上海市浦东新区潍坊路16弄2号（近浦东南路）"},{"poiid":"B2094655D26BA2FE409B","title":"潍坊路","lon":"121.5179","lat":"31.22268","category":"38","category_name":"公交车站","address":""},{"poiid":"B2094750DB6CA0FB449A","title":"上海歌城","lon":"121.517417","lat":"31.225231","category":"170","category_name":"KTV","address":null},{"poiid":"B2094654DA69ABF94698","title":"东南新村(东门)","lon":"121.51684","lat":"31.22511","category":"47","category_name":"住宅区","address":""},{"poiid":"B2094655D268A6F94092","title":"台球吧","lon":"121.51676","lat":"31.22365","category":"171","category_name":"台球厅","address":"潍坊西路73号"},{"poiid":"B2094654DB64A3FD479D","title":"明珠大楼","lon":"121.51791","lat":"31.22529","category":"46","category_name":"楼宇","address":"崂山西路1021"},{"poiid":"B2094654DA69ABFD479D","title":"潍坊三村","lon":"121.51924","lat":"31.22311","category":"47","category_name":"住宅区","address":"潍坊三村351"},{"poiid":"B2094757D66FA6FA4492","title":"外婆家(华润时代广场店)","lon":"121.518290738","lat":"31.2266762244","category":"75","category_name":"浙江菜","address":"浦东新区张杨路500号华润时代广场8楼(近南泉北路)"},{"poiid":"B2094757D06FA1FB459C","title":"川国演义(浦东店)","lon":"121.51727","lat":"31.22688","category":"71","category_name":"四川菜","address":"浦东新区张杨路500号华润时代广场10楼(近浦东南路)"},{"poiid":"B2094750DB6CA5FF4192","title":"上海第一八佰伴","lon":"121.519043","lat":"31.225433","category":"249","category_name":"购物服务","address":"浦东新区张杨路501号(近浦东南路)"},{"poiid":"B209475CD564A7F84392","title":"上海滩浦东香格里拉店","lon":"121.50058","lat":"31.23634","category":"119","category_name":"商场","address":"浦东富成路33号香格里拉酒店内大堂层"},{"poiid":"B2094655D26BA2F54393","title":"浦东南路潍坊路","lon":"121.5181","lat":"31.22198","category":"38","category_name":"公交车站","address":""},{"poiid":"B2094757D66CA6F4479E","title":"维也纳国际酒店(陆家嘴店)","lon":"121.517019738","lat":"31.2233981545","category":"500","category_name":"未知分类","address":"浦东新区潍坊西路73号(近浦东南路)"},{"poiid":"B2094757D06FA0F4489C","title":"香港粗菜馆(浦东店)","lon":"121.519063738","lat":"31.226141213","category":"72","category_name":"广东菜","address":"浦东新区南泉北路1029号中电大厦2楼(近张杨路)"},{"poiid":"B2094757D06FA6FD469F","title":"麦当劳(华润店)","lon":"121.51728","lat":"31.22635","category":"68","category_name":"快餐厅","address":"浦东新区张杨路500号华润时代广场1楼118商铺(近浦东南路)"},{"poiid":"B2094757D068A6FE459B","title":"近江和牛正传(华润时代店)","lon":"121.51736812","lat":"31.226760826","category":"95","category_name":"日本料理","address":"上海浦东新区张杨路500号华润时代广场5楼(近浦东南路)"},{"poiid":"B2094757D16AABFD4799","title":"梅园村(浦东南路店)","lon":"121.518600838","lat":"31.2243286743","category":"500","category_name":"未知分类","address":"上海浦东南路中融国际商城"},{"poiid":"B2094750DA6BAAFF4493","title":"八佰伴新世纪影城","lon":"121.516845","lat":"31.226518","category":"248","category_name":"生活娱乐","address":null},{"poiid":"B2094757D168AAFD4598","title":"辛香汇","lon":"121.51956373","lat":"31.223014146","category":"500","category_name":"未知分类","address":"上海市浦东新区世纪大道"},{"poiid":"B2094654DB6AA6FF4799","title":"上海中电大酒店","lon":"121.51893","lat":"31.22616","category":"215","category_name":"三星级宾馆","address":"浦东新区南泉北路1029号"},{"poiid":"B2094654DB69A5F54999","title":"哈根达斯冷饮(时代广场店)","lon":"121.51701","lat":"31.22662","category":"113","category_name":"冷饮店","address":"浦东新区张杨路500号华润时代广场1楼114-115商铺(近浦东南路)"},{"poiid":"B2094757D66BA0FE4099","title":"九卓堂","lon":"121.517141","lat":"31.2230009","category":"76","category_name":"上海菜","address":"浦东新区潍坊西路73号(潍坊路潍坊西路)"},{"poiid":"B2094757D16FA7FE479A","title":"好乐迪","lon":"121.51964573","lat":"31.223012146","category":"500","category_name":"未知分类","address":"上海ShanghaiPudong XinquPucheng Rd"},{"poiid":"B2094757D068A7FE409F","title":"上海新东方学校(八佰伴分部)","lon":"121.51714","lat":"31.22429","category":"253","category_name":"校园生活","address":"浦东新区浦东南路1341弄12号(近临园路)"},{"poiid":"B2094655D269ABF5459E","title":"上品小笼 潍坊路店","lon":"121.519568054","lat":"31.223962793","category":"68","category_name":"快餐厅","address":"浦东新区潍坊路85-1号(近南泉北路)"},{"poiid":"B2094757D469A7F4409F","title":"JSTONE","lon":"121.516112","lat":"31.222485","category":"94","category_name":"西餐厅","address":"浦东新区潍坊西路88号(近浦城路)"},{"poiid":"B2094654DA69ABFE4298","title":"东川造型(浦东南路)","lon":"121.51818","lat":"31.22285","category":"148","category_name":"美容美发店","address":"浦东新区浦东南路1463号(近潍坊路)"},{"poiid":"B2094654DB6AA6F8429F","title":"上海久阳滨江酒店","lon":"121.51708","lat":"31.22245","category":"214","category_name":"四星级宾馆","address":"浦东新区浦东南路1436号(近潍坊西路)"},{"poiid":"B2094757D06BA2FB4298","title":"亨利花园","lon":"121.51859873","lat":"31.225309195","category":"47","category_name":"住宅区","address":"上海市浦东新区南泉北路1035号紫金瀚宫3号楼"},{"poiid":"B2094757D465A4F8409E","title":"亨利花园餐厅 Henry'sGardenRestaurant&Bar","lon":"121.51867","lat":"31.225694","category":"100","category_name":"地中海风格菜品","address":"浦东新区南泉北路1035号紫金瀚宫3号楼(近中电大酒店)"},{"poiid":"B2094654DA69ABFE429B","title":"永和豆浆(浦东南路)","lon":"121.51814","lat":"31.22297","category":"68","category_name":"快餐厅","address":"浦东新区浦东南路1457号(近潍坊路)"},{"poiid":"B2094757D068A5F9459E","title":"东南新村","lon":"121.51726646","lat":"31.225442348","category":"47","category_name":"住宅区","address":"上海张杨路浦东南路"},{"poiid":"B2094757D068A0F8449C","title":"一兆韦德(华润店)","lon":"121.5174","lat":"31.2268","category":"221","category_name":"健身中心","address":"浦东新区张杨路500号华润时代广场5楼514室(近浦东南路)"},{"poiid":"B2094757D16DA3FA4193","title":"Nancy's Bakery","lon":"121.516442878","lat":"31.2227383333","category":"67","category_name":"甜品店","address":"浦东新区潍坊西路86号(近浦东南路)"},{"poiid":"B2094654DB64A3FD489A","title":"花之林人文茶馆 潍坊路店","lon":"121.51820875448","lat":"31.223558710918","category":"260","category_name":"其他","address":"浦东新区潍坊路2号(浦东南路口)"},{"poiid":"B2094654DA69ABF9469B","title":"上海乔家栅小吃世界(浦东南路)","lon":"121.51702","lat":"31.225","category":"68","category_name":"快餐厅","address":"浦东新区浦东南路东南新村19号(近张杨路)"},{"poiid":"B2094757D06FAAFD479A","title":"南梦宫电子游戏世界(八佰伴店)","lon":"121.51706","lat":"31.22674","category":"173","category_name":"游戏厅","address":"浦东新区张杨路501号第一八佰伴10楼(近浦东南路)"},{"poiid":"B2094655D269ABFC449B","title":"ACE台球吧","lon":"121.51703","lat":"31.22309","category":"247","category_name":"餐饮美食","address":"浦东新区潍坊西路73号4号楼(近浦东南路)"},{"poiid":"B2094655D26DA1FB4398","title":"上海鸿酒店","lon":"121.51611","lat":"31.22248","category":"250","category_name":"公园户外","address":"浦东新区潍坊西路88号(近浦城路)"},{"poiid":"B209475DD16DA2F44598","title":"小辉哥火锅","lon":"121.516998","lat":"31.226911","category":"247","category_name":"餐饮美食","address":"上海市 上海浦东新区张杨路500号4楼"},{"poiid":"B2094757D168A6F54899","title":"YAMAZAKI","lon":"121.51710163","lat":"31.22414117","category":"500","category_name":"未知分类","address":"上海浦東第一八百伴"},{"poiid":"B209475CD66AA1FF4893","title":"城隍庙","lon":"121.516731","lat":"31.224786","category":"500","category_name":"未知分类","address":"上海市 城隍庙"},{"poiid":"B2094655D26DA7FB449E","title":"深圳发展银行分行营业部","lon":"121.51768","lat":"31.22465","category":"150","category_name":"银行","address":"浦东南路1351"},{"poiid":"B2094757D064ABF84592","title":"湖南特色牛肉米粉(南泉北路店)","lon":"121.51876","lat":"31.22521","category":"68","category_name":"快餐厅","address":"浦东新区南泉北路1035号大门南侧(近潍坊路)"},{"poiid":"B2094757D16CABF54998","title":"深圳发展银行-小红楼","lon":"121.51838008","lat":"31.224671981","category":"500","category_name":"未知分类","address":"上海浦东南路1351号"},{"poiid":"B2094757D06BA2F4469F","title":"翡翠皇宫酒家","lon":"121.51734398","lat":"31.226731855","category":"72","category_name":"广东菜","address":"浦东新区张杨路500号华润时代广场8楼(近浦东南路)"},{"poiid":"B2094757D06AABFF459A","title":"The Max Pub(潍坊西路店)","lon":"121.51683","lat":"31.22249","category":"500","category_name":"未知分类","address":"浦东新区潍坊西路116号(近浦东南路)"},{"poiid":"B2094752DB64A4FB449D","title":"上海市陆家嘴","lon":"121.517515","lat":"31.224637","category":"500","category_name":"未知分类","address":"上海市 滨江"},{"poiid":"B2094750DA6FA5FE4893","title":"四月茶香","lon":"121.52337","lat":"31.22737","category":"260","category_name":"其他","address":"浦东新区东方路778号紫金山大酒店1楼(近张杨路)"},{"poiid":"B2094655D26EA7FC4999","title":"永琪美容美发","lon":"121.51851","lat":"31.22353","category":"148","category_name":"美容美发店","address":"浦东新区潍坊路21号(近浦东南路)"},{"poiid":"B2094757D165A0F94198","title":"浦东南路潍坊路中星服务式公寓","lon":"121.518643838","lat":"31.2242961736","category":"500","category_name":"未知分类","address":"上海市浦东新区潍坊路16弄2号（近浦东南路）"},{"poiid":"B2094655D26BA2FE409B","title":"潍坊路","lon":"121.5179","lat":"31.22268","category":"38","category_name":"公交车站","address":""},{"poiid":"B2094750DB6CA0FB449A","title":"上海歌城","lon":"121.517417","lat":"31.225231","category":"170","category_name":"KTV","address":null},{"poiid":"B2094654DA69ABF94698","title":"东南新村(东门)","lon":"121.51684","lat":"31.22511","category":"47","category_name":"住宅区","address":""},{"poiid":"B2094655D268A6F94092","title":"台球吧","lon":"121.51676","lat":"31.22365","category":"171","category_name":"台球厅","address":"潍坊西路73号"},{"poiid":"B2094654DB64A3FD479D","title":"明珠大楼","lon":"121.51791","lat":"31.22529","category":"46","category_name":"楼宇","address":"崂山西路1021"},{"poiid":"B2094654DA69ABFD479D","title":"潍坊三村","lon":"121.51924","lat":"31.22311","category":"47","category_name":"住宅区","address":"潍坊三村351"}]