[{"poiid":"B2094654DA6EA0FB439D","title":"上海文庙","lon":"121.48657","lat":"31.21693","category":"244","category_name":"寺庙道观","address":"上海市黄浦区文庙路215号"},{"poiid":"B2094654DA6EA0FB429E","title":"孔乙己酒家","lon":"121.48838","lat":"31.21819","category":"75","category_name":"浙江菜","address":"黄浦区学宫街36号(近老西门文庙)"},{"poiid":"B2094757D168A6FD499E","title":"蓬萊路","lon":"121.49024373","lat":"31.217709033","category":"500","category_name":"未知分类","address":"上海市黄浦區蓬萊路"},{"poiid":"B2094753D76FAAFA449C","title":"上海滩国泰旗舰店","lon":"121.466011","lat":"31.216125","category":"249","category_name":"购物服务","address":"淮海中路868号"},{"poiid":"B209475CD564A7F84292","title":"上海滩新天地店","lon":"121.47463","lat":"31.22164","category":"119","category_name":"商场","address":"\"太仓路181弄新天地北里15号\r\n\""},{"poiid":"B209475CD564A7F84392","title":"上海滩浦东香格里拉店","lon":"121.50058","lat":"31.23634","category":"119","category_name":"商场","address":"浦东富成路33号香格里拉酒店内大堂层"},{"poiid":"B2094654DB6BA4FE4793","title":"豪享来上海大兴街店","lon":"121.4885","lat":"31.214","category":"247","category_name":"餐饮美食","address":"上海市黄浦区大兴街26-30号"},{"poiid":"B2094757D068A7F4429D","title":"南开大厦","lon":"121.49065","lat":"31.217077","category":"46","category_name":"楼宇","address":"浦东新区金湘路225弄"},{"poiid":"B2094654DA6EA0FA409B","title":"上海市敬业中学","lon":"121.48822","lat":"31.21711","category":"55","category_name":"中学","address":"上海黄浦区蓬莱路345号  "},{"poiid":"B2094655D26EA7FE479E","title":"红宝石中华路店","lon":"121.48735","lat":"31.21607","category":"67","category_name":"甜品店","address":"黄浦区蓬莱路426号(中华路口)"},{"poiid":"B2094757D069A2F4419B","title":"园林大厦","lon":"121.48939228085","lat":"31.215035569363","category":"46","category_name":"楼宇","address":"北一环与亳州路交叉口(庐阳区政府对面)"},{"poiid":"B2094655D268A4F54493","title":"黄浦区敬业游泳馆","lon":"121.49069","lat":"31.21562","category":"231","category_name":"游泳馆","address":"黄浦区尚文路183号(尚文路迎勋北路)"},{"poiid":"B2094757D069AAFF429E","title":"新梅居(中华路店)","lon":"121.487682738","lat":"31.2151629791","category":"86","category_name":"火锅店","address":"黄浦区中华路1160号(近永宁街)"},{"poiid":"B2094757D06BA0FB409D","title":"东北农家饺子村","lon":"121.487563","lat":"31.215112","category":"82","category_name":"东北菜","address":"黄浦区黄家阙路79号"},{"poiid":"B2094757D069A4FD499B","title":"燕山楼烧烤","lon":"121.49052","lat":"31.21522","category":"68","category_name":"快餐厅","address":"黄浦区黄家阙路180号(近中华路)"},{"poiid":"B2094757D069A5FE429C","title":"京世美容美发连锁机构(中华店)","lon":"121.48845","lat":"31.21476","category":"148","category_name":"美容美发店","address":"上海黄浦区中华路1142号(近大兴街)"},{"poiid":"B2094654DB6BA4FE4998","title":"上海市第十中学","lon":"121.48866","lat":"31.21608","category":"55","category_name":"中学","address":"永宁街25"},{"poiid":"B2094757D66AA6F94398","title":"黄浦象山海鲜馆","lon":"121.48920434293","lat":"31.214798295002","category":"75","category_name":"浙江菜","address":"黄浦区中华路1117号(近尚文路)"},{"poiid":"B2094750D768A6FA4093","title":"噫寿司","lon":"121.488","lat":"31.2176","category":"95","category_name":"日本料理","address":"黄浦区文庙路235号(近中华路)"},{"poiid":"B2094757D66BA4FC449E","title":"和怡美老象山海鲜","lon":"121.488140054","lat":"31.214310793","category":"75","category_name":"浙江菜","address":"黄浦区黄家厥路(近大吉路)"},{"poiid":"B2094654DA6EA0FE459D","title":"惠德大厦","lon":"121.48741","lat":"31.21555","category":"46","category_name":"楼宇","address":"朝阳华威桥东北角"},{"poiid":"B2094757D06BA0FF409D","title":"诞诞面","lon":"121.486093738","lat":"31.2163040034","category":"68","category_name":"快餐厅","address":"黄浦区方斜支路9号(中华路文庙路对面)"},{"poiid":"B2094757D06BA0FC4892","title":"人豪阿情酒楼","lon":"121.48651","lat":"31.21636","category":"76","category_name":"上海菜","address":"黄浦区中华路1318号(近方斜支路)"},{"poiid":"B2094750D76DA2F4439D","title":"文庙菜饭(文庙路店)","lon":"121.487","lat":"31.2168","category":"68","category_name":"快餐厅","address":"黄浦区文庙路282号(中华路口)"},{"poiid":"B2094654DB69A0F8479E","title":"蓬莱路第二小学","lon":"121.49009","lat":"31.21824","category":"56","category_name":"小学","address":"黄浦区蓬莱路225号(蓬莱路迎勋北路)"},{"poiid":"B2094757D16EAAFD4892","title":"文庙老道前街骨头汤","lon":"121.48902","lat":"31.21714","category":"257","category_name":"中餐厅","address":"黄浦区文庙路233号(近老道前街)"},{"poiid":"B2094757D16CA7FC479D","title":"老西门地段医院","lon":"121.489300738","lat":"31.2166863448","category":"162","category_name":"医院","address":"上海学前街"},{"poiid":"B2094757D16EAAF4499C","title":"滄海苑","lon":"121.48937503","lat":"31.216520808","category":"252","category_name":"楼宇机构","address":"沧海苑位于黄浦学前街111号"},{"poiid":"B2094757D16DA0F4419F","title":"广东煲仔饭","lon":"121.487505","lat":"31.215142","category":"68","category_name":"快餐厅","address":"黄浦区黄家阙路148号(近中华路)"},{"poiid":"B2094757D06BA7FF4099","title":"高风雨时尚造型工作室","lon":"121.48916","lat":"31.21429","category":"148","category_name":"美容美发店","address":"黄浦区中华路1112号(尚文路中华路)"},{"poiid":"B2094757D064A3FD4393","title":"品客一佳 中华路店","lon":"121.48897","lat":"31.21455","category":"68","category_name":"快餐厅","address":"黄浦区中华路1122号(近黄家阙路)"},{"poiid":"B2094757DA6EABF4429A","title":"超级鸡车(蓬莱路店)","lon":"121.488144","lat":"31.2165260000003","category":"68","category_name":"快餐厅","address":"黄浦区蓬莱路374号(近蓬莱路中华路)"},{"poiid":"B2094751DA6EA6FE409A","title":"上海体育场","lon":"121.4908603","lat":"31.2169628","category":"500","category_name":"未知分类","address":null},{"poiid":"B2094750D76DA2F44493","title":"文庙面馆","lon":"121.488","lat":"31.2174","category":"68","category_name":"快餐厅","address":"黄浦区老道前街55号(近文庙路)"},{"poiid":"B2094757D66BA7FE459A","title":"老北京王府井烤鸭","lon":"121.48757","lat":"31.216047","category":"68","category_name":"快餐厅","address":"黄浦区中华路1160号(近狼来了火锅店)"},{"poiid":"B2094654DA6EA0FB4699","title":"康宁商厦","lon":"121.48628","lat":"31.21743","category":"46","category_name":"楼宇","address":"上海中华路1359号"},{"poiid":"B2094654DA6EA0FB469A","title":"乔家栅 文庙店","lon":"121.486328054","lat":"31.216917793","category":"247","category_name":"餐饮美食","address":"黄浦区中华路1341号(文庙路口)"},{"poiid":"B2094757D16FA2FB4993","title":"文庙飘香烤鸡翅","lon":"121.48822","lat":"31.21715","category":"68","category_name":"快餐厅","address":"黄浦区文庙路(老道前街文庙路)"},{"poiid":"B2094655D265A7F5409A","title":"庙街礼品服饰商厦","lon":"121.48966","lat":"31.2147","category":"119","category_name":"商场","address":"黄浦中华路1051号"},{"poiid":"B2094757D76AA2F4489C","title":"吾饮良品 文庙店","lon":"121.48799","lat":"31.21813","category":"113","category_name":"冷饮店","address":"黄浦区文庙路249号(近学前街)"},{"poiid":"B2094654DB69A4FB4498","title":"重庆鸡公煲 黄家阙店","lon":"121.488187054","lat":"31.214126793","category":"71","category_name":"四川菜","address":"黄浦区黄家阙路85号(大林路口)"},{"poiid":"B2094757D16DA2FB459C","title":"文庙路奶茶","lon":"121.48823","lat":"31.21701","category":"67","category_name":"甜品店","address":"上海黄浦区文庙路西北狼烧烤旁  "},{"poiid":"B2094757D664ABFE409B","title":"正龙桂林米粉店 黄家阙路店","lon":"121.487834054","lat":"31.214168793","category":"68","category_name":"快餐厅","address":"黄浦区黄家阙路131号(近大兴街)"},{"poiid":"B2094654DA6EA0F4499F","title":"老西门街道社区卫生服务中心","lon":"121.48928","lat":"31.21659","category":"162","category_name":"医院","address":"学前街81"},{"poiid":"B2094757D165A1FF4393","title":"惠佳小馆","lon":"121.487993738","lat":"31.214078956","category":"68","category_name":"快餐厅","address":"黄浦区黄家阙路174号(中华路口)"},{"poiid":"B2094654DB6BA4FF4092","title":"广东仔章鱼小丸子","lon":"121.48854","lat":"31.21764","category":"68","category_name":"快餐厅","address":"黄浦区文庙路231号"},{"poiid":"B2094654DA6EA0FF4093","title":"中国工商银行上海市中华路支行","lon":"121.48738","lat":"31.21568","category":"150","category_name":"银行","address":"黄浦区中华路1168号近蓬莱路(大吉路黄家阙路)"},{"poiid":"B2094757D66CA0F4499F","title":"平利公寓","lon":"121.489637738","lat":"31.215302982","category":"47","category_name":"住宅区","address":"平阳绿家园位于闵行龙茗路888号顾戴路口"},{"poiid":"B2094757D069A1F9499B","title":"文庙书刊交易市场","lon":"121.48720275","lat":"31.217069805","category":"125","category_name":"书店","address":"黄浦区文庙路215号东北角(老道前街文庙路)"},{"poiid":"B2094655D36DA7FF489F","title":"中华路尚文路","lon":"121.48688","lat":"31.21633","category":"38","category_name":"公交车站","address":""},{"poiid":"B2094654DA6EA0FB439D","title":"上海文庙","lon":"121.48657","lat":"31.21693","category":"244","category_name":"寺庙道观","address":"上海市黄浦区文庙路215号"},{"poiid":"B2094654DA6EA0FB429E","title":"孔乙己酒家","lon":"121.48838","lat":"31.21819","category":"75","category_name":"浙江菜","address":"黄浦区学宫街36号(近老西门文庙)"},{"poiid":"B2094757D168A6FD499E","title":"蓬萊路","lon":"121.49024373","lat":"31.217709033","category":"500","category_name":"未知分类","address":"上海市黄浦區蓬萊路"},{"poiid":"B2094753D76FAAFA449C","title":"上海滩国泰旗舰店","lon":"121.466011","lat":"31.216125","category":"249","category_name":"购物服务","address":"淮海中路868号"},{"poiid":"B209475CD564A7F84292","title":"上海滩新天地店","lon":"121.47463","lat":"31.22164","category":"119","category_name":"商场","address":"\"太仓路181弄新天地北里15号\r\n\""},{"poiid":"B209475CD564A7F84392","title":"上海滩浦东香格里拉店","lon":"121.50058","lat":"31.23634","category":"119","category_name":"商场","address":"浦东富成路33号香格里拉酒店内大堂层"},{"poiid":"B2094654DB6BA4FE4793","title":"豪享来上海大兴街店","lon":"121.4885","lat":"31.214","category":"247","category_name":"餐饮美食","address":"上海市黄浦区大兴街26-30号"},{"poiid":"B2094757D068A7F4429D","title":"南开大厦","lon":"121.49065","lat":"31.217077","category":"46","category_name":"楼宇","address":"浦东新区金湘路225弄"},{"poiid":"B2094654DA6EA0FA409B","title":"上海市敬业中学","lon":"121.48822","lat":"31.21711","category":"55","category_name":"中学","address":"上海黄浦区蓬莱路345号  "},{"poiid":"B2094655D26EA7FE479E","title":"红宝石中华路店","lon":"121.48735","lat":"31.21607","category":"67","category_name":"甜品店","address":"黄浦区蓬莱路426号(中华路口)"},{"poiid":"B2094757D069A2F4419B","title":"园林大厦","lon":"121.48939228085","lat":"31.215035569363","category":"46","category_name":"楼宇","address":"北一环与亳州路交叉口(庐阳区政府对面)"},{"poiid":"B2094655D268A4F54493","title":"黄浦区敬业游泳馆","lon":"121.49069","lat":"31.21562","category":"231","category_name":"游泳馆","address":"黄浦区尚文路183号(尚文路迎勋北路)"},{"poiid":"B2094757D069AAFF429E","title":"新梅居(中华路店)","lon":"121.487682738","lat":"31.2151629791","category":"86","category_name":"火锅店","address":"黄浦区中华路1160号(近永宁街)"},{"poiid":"B2094757D06BA0FB409D","title":"东北农家饺子村","lon":"121.487563","lat":"31.215112","category":"82","category_name":"东北菜","address":"黄浦区黄家阙路79号"},{"poiid":"B2094757D069A4FD499B","title":"燕山楼烧烤","lon":"121.49052","lat":"31.21522","category":"68","category_name":"快餐厅","address":"黄浦区黄家阙路180号(近中华路)"},{"poiid":"B2094757D069A5FE429C","title":"京世美容美发连锁机构(中华店)","lon":"121.48845","lat":"31.21476","category":"148","category_name":"美容美发店","address":"上海黄浦区中华路1142号(近大兴街)"},{"poiid":"B2094654DB6BA4FE4998","title":"上海市第十中学","lon":"121.48866","lat":"31.21608","category":"55","category_name":"中学","address":"永宁街25"},{"poiid":"B2094757D66AA6F94398","title":"黄浦象山海鲜馆","lon":"121.48920434293","lat":"31.214798295002","category":"75","category_name":"浙江菜","address":"黄浦区中华路1117号(近尚文路)"},{"poiid":"B2094750D768A6FA4093","title":"噫寿司","lon":"121.488","lat":"31.2176","category":"95","category_name":"日本料理","address":"黄浦区文庙路235号(近中华路)"},{"poiid":"B2094757D66BA4FC449E","title":"和怡美老象山海鲜","lon":"121.488140054","lat":"31.214310793","category":"75","category_name":"浙江菜","address":"黄浦区黄家厥路(近大吉路)"},{"poiid":"B2094654DA6EA0FE459D","title":"惠德大厦","lon":"121.48741","lat":"31.21555","category":"46","category_name":"楼宇","address":"朝阳华威桥东北角"},{"poiid":"B2094757D06BA0FF409D","title":"诞诞面","lon":"121.486093738","lat":"31.2163040034","category":"68","category_name":"快餐厅","address":"黄浦区方斜支路9号(中华路文庙路对面)"},{"poiid":"B2094757D06BA0FC4892","title":"人豪阿情酒楼","lon":"121.48651","lat":"31.21636","category":"76","category_name":"上海菜","address":"黄浦区中华路1318号(近方斜支路)"},{"poiid":"B2094750D76DA2F4439D","title":"文庙菜饭(文庙路店)","lon":"121.487","lat":"31.2168","category":"68","category_name":"快餐厅","address":"黄浦区文庙路282号(中华路口)"},{"poiid":"B2094654DB69A0F8479E","title":"蓬莱路第二小学","lon":"121.49009","lat":"31.21824","category":"56","category_name":"小学","address":"黄浦区蓬莱路225号(蓬莱路迎勋北路)"},{"poiid":"B2094757D16EAAFD4892","title":"文庙老道前街骨头汤","lon":"121.48902","lat":"31.21714","category":"257","category_name":"中餐厅","address":"黄浦区文庙路233号(近老道前街)"},{"poiid":"B2094757D16CA7FC479D","title":"老西门地段医院","lon":"121.489300738","lat":"31.2166863448","category":"162","category_name":"医院","address":"上海学前街"},{"poiid":"B2094757D16EAAF4499C","title":"滄海苑","lon":"121.48937503","lat":"31.216520808","category":"252","category_name":"楼宇机构","address":"沧海苑位于黄浦学前街111号"},{"poiid":"B2094757D16DA0F4419F","title":"广东煲仔饭","lon":"121.487505","lat":"31.215142","category":"68","category_name":"快餐厅","address":"黄浦区黄家阙路148号(近中华路)"},{"poiid":"B2094757D06BA7FF4099","title":"高风雨时尚造型工作室","lon":"121.48916","lat":"31.21429","category":"148","category_name":"美容美发店","address":"黄浦区中华路1112号(尚文路中华路)"},{"poiid":"B2094757D064A3FD4393","title":"品客一佳 中华路店","lon":"121.48897","lat":"31.21455","category":"68","category_name":"快餐厅","address":"黄浦区中华路1122号(近黄家阙路)"},{"poiid":"B2094757DA6EABF4429A","title":"超级鸡车(蓬莱路店)","lon":"121.488144","lat":"31.2165260000003","category":"68","category_name":"快餐厅","address":"黄浦区蓬莱路374号(近蓬莱路中华路)"},{"poiid":"B2094751DA6EA6FE409A","title":"上海体育场","lon":"121.4908603","lat":"31.2169628","category":"500","category_name":"未知分类","address":null},{"poiid":"B2094750D76DA2F44493","title":"文庙面馆","lon":"121.488","lat":"31.2174","category":"68","category_name":"快餐厅","address":"黄浦区老道前街55号(近文庙路)"},{"poiid":"B2094757D66BA7FE459A","title":"老北京王府井烤鸭","lon":"121.48757","lat":"31.216047","category":"68","category_name":"快餐厅","address":"黄浦区中华路1160号(近狼来了火锅店)"},{"poiid":"B2094654DA6EA0FB4699","title":"康宁商厦","lon":"121.48628","lat":"31.21743","category":"46","category_name":"楼宇","address":"上海中华路1359号"},{"poiid":"B2094654DA6EA0FB469A","title":"乔家栅 文庙店","lon":"121.486328054","lat":"31.216917793","category":"247","category_name":"餐饮美食","address":"黄浦区中华路1341号(文庙路口)"},{"poiid":"B2094757D16FA2FB4993","title":"文庙飘香烤鸡翅","lon":"121.48822","lat":"31.21715","category":"68","category_name":"快餐厅","address":"黄浦区文庙路(老道前街文庙路)"},{"poiid":"B2094655D265A7F5409A","title":"庙街礼品服饰商厦","lon":"121.48966","lat":"31.2147","category":"119","category_name":"商场","address":"黄浦中华路1051号"},{"poiid":"B2094757D76AA2F4489C","title":"吾饮良品 文庙店","lon":"121.48799","lat":"31.21813","category":"113","category_name":"冷饮店","address":"黄浦区文庙路249号(近学前街)"},{"poiid":"B2094654DB69A4FB4498","title":"重庆鸡公煲 黄家阙店","lon":"121.488187054","lat":"31.214126793","category":"71","category_name":"四川菜","address":"黄浦区黄家阙路85号(大林路口)"},{"poiid":"B2094757D16DA2FB459C","title":"文庙路奶茶","lon":"121.48823","lat":"31.21701","category":"67","category_name":"甜品店","address":"上海黄浦区文庙路西北狼烧烤旁  "},{"poiid":"B2094757D664ABFE409B","title":"正龙桂林米粉店 黄家阙路店","lon":"121.487834054","lat":"31.214168793","category":"68","category_name":"快餐厅","address":"黄浦区黄家阙路131号(近大兴街)"},{"poiid":"B2094654DA6EA0F4499F","title":"老西门街道社区卫生服务中心","lon":"121.48928","lat":"31.21659","category":"162","category_name":"医院","address":"学前街81"},{"poiid":"B2094757D165A1FF4393","title":"惠佳小馆","lon":"121.487993738","lat":"31.214078956","category":"68","category_name":"快餐厅","address":"黄浦区黄家阙路174号(中华路口)"},{"poiid":"B2094654DB6BA4FF4092","title":"广东仔章鱼小丸子","lon":"121.48854","lat":"31.21764","category":"68","category_name":"快餐厅","address":"黄浦区文庙路231号"},{"poiid":"B2094654DA6EA0FF4093","title":"中国工商银行上海市中华路支行","lon":"121.48738","lat":"31.21568","category":"150","category_name":"银行","address":"黄浦区中华路1168号近蓬莱路(大吉路黄家阙路)"},{"poiid":"B2094757D66CA0F4499F","title":"平利公寓","lon":"121.489637738","lat":"31.215302982","category":"47","category_name":"住宅区","address":"平阳绿家园位于闵行龙茗路888号顾戴路口"},{"poiid":"B2094757D069A1F9499B","title":"文庙书刊交易市场","lon":"121.48720275","lat":"31.217069805","category":"125","category_name":"书店","address":"黄浦区文庙路215号东北角(老道前街文庙路)"},{"poiid":"B2094655D36DA7FF489F","title":"中华路尚文路","lon":"121.48688","lat":"31.21633","category":"38","category_name":"公交车站","address":""},{"poiid":"B2094654DA6EA0FB439D","title":"上海文庙","lon":"121.48657","lat":"31.21693","category":"244","category_name":"寺庙道观","address":"上海市黄浦区文庙路215号"},{"poiid":"B2094654DA6EA0FB429E","title":"孔乙己酒家","lon":"121.48838","lat":"31.21819","category":"75","category_name":"浙江菜","address":"黄浦区学宫街36号(近老西门文庙)"},{"poiid":"B2094757D168A6FD499E","title":"蓬萊路","lon":"121.49024373","lat":"31.217709033","category":"500","category_name":"未知分类","address":"上海市黄浦區蓬萊路"},{"poiid":"B2094753D76FAAFA449C","title":"上海滩国泰旗舰店","lon":"121.466011","lat":"31.216125","category":"249","category_name":"购物服务","address":"淮海中路868号"},{"poiid":"B209475CD564A7F84292","title":"上海滩新天地店","lon":"121.47463","lat":"31.22164","category":"119","category_name":"商场","address":"\"太仓路181弄新天地北里15号\r\n\""},{"poiid":"B209475CD564A7F84392","title":"上海滩浦东香格里拉店","lon":"121.50058","lat":"31.23634","category":"119","category_name":"商场","address":"浦东富成路33号香格里拉酒店内大堂层"},{"poiid":"B2094654DB6BA4FE4793","title":"豪享来上海大兴街店","lon":"121.4885","lat":"31.214","category":"247","category_name":"餐饮美食","address":"上海市黄浦区大兴街26-30号"},{"poiid":"B2094757D068A7F4429D","title":"南开大厦","lon":"121.49065","lat":"31.217077","category":"46","category_name":"楼宇","address":"浦东新区金湘路225弄"},{"poiid":"B2094654DA6EA0FA409B","title":"上海市敬业中学","lon":"121.48822","lat":"31.21711","category":"55","category_name":"中学","address":"上海黄浦区蓬莱路345号  "},{"poiid":"B2094655D26EA7FE479E","title":"红宝石中华路店","lon":"121.48735","lat":"31.21607","category":"67","category_name":"甜品店","address":"黄浦区蓬莱路426号(中华路口)"},{"poiid":"B2094757D069A2F4419B","title":"园林大厦","lon":"121.48939228085","lat":"31.215035569363","category":"46","category_name":"楼宇","address":"北一环与亳州路交叉口(庐阳区政府对面)"},{"poiid":"B2094655D268A4F54493","title":"黄浦区敬业游泳馆","lon":"121.49069","lat":"31.21562","category":"231","category_name":"游泳馆","address":"黄浦区尚文路183号(尚文路迎勋北路)"},{"poiid":"B2094757D069AAFF429E","title":"新梅居(中华路店)","lon":"121.487682738","lat":"31.2151629791","category":"86","category_name":"火锅店","address":"黄浦区中华路1160号(近永宁街)"},{"poiid":"B2094757D06BA0FB409D","title":"东北农家饺子村","lon":"121.487563","lat":"31.215112","category":"82","category_name":"东北菜","address":"黄浦区黄家阙路79号"},{"poiid":"B2094757D069A4FD499B","title":"燕山楼烧烤","lon":"121.49052","lat":"31.21522","category":"68","category_name":"快餐厅","address":"黄浦区黄家阙路180号(近中华路)"},{"poiid":"B2094757D069A5FE429C","title":"京世美容美发连锁机构(中华店)","lon":"121.48845","lat":"31.21476","category":"148","category_name":"美容美发店","address":"上海黄浦区中华路1142号(近大兴街)"},{"poiid":"B2094654DB6BA4FE4998","title":"上海市第十中学","lon":"121.48866","lat":"31.21608","category":"55","category_name":"中学","address":"永宁街25"},{"poiid":"B2094757D66AA6F94398","title":"黄浦象山海鲜馆","lon":"121.48920434293","lat":"31.214798295002","category":"75","category_name":"浙江菜","address":"黄浦区中华路1117号(近尚文路)"},{"poiid":"B2094750D768A6FA4093","title":"噫寿司","lon":"121.488","lat":"31.2176","category":"95","category_name":"日本料理","address":"黄浦区文庙路235号(近中华路)"},{"poiid":"B2094757D66BA4FC449E","title":"和怡美老象山海鲜","lon":"121.488140054","lat":"31.214310793","category":"75","category_name":"浙江菜","address":"黄浦区黄家厥路(近大吉路)"},{"poiid":"B2094654DA6EA0FE459D","title":"惠德大厦","lon":"121.48741","lat":"31.21555","category":"46","category_name":"楼宇","address":"朝阳华威桥东北角"},{"poiid":"B2094757D06BA0FF409D","title":"诞诞面","lon":"121.486093738","lat":"31.2163040034","category":"68","category_name":"快餐厅","address":"黄浦区方斜支路9号(中华路文庙路对面)"},{"poiid":"B2094757D06BA0FC4892","title":"人豪阿情酒楼","lon":"121.48651","lat":"31.21636","category":"76","category_name":"上海菜","address":"黄浦区中华路1318号(近方斜支路)"},{"poiid":"B2094750D76DA2F4439D","title":"文庙菜饭(文庙路店)","lon":"121.487","lat":"31.2168","category":"68","category_name":"快餐厅","address":"黄浦区文庙路282号(中华路口)"},{"poiid":"B2094654DB69A0F8479E","title":"蓬莱路第二小学","lon":"121.49009","lat":"31.21824","category":"56","category_name":"小学","address":"黄浦区蓬莱路225号(蓬莱路迎勋北路)"},{"poiid":"B2094757D16EAAFD4892","title":"文庙老道前街骨头汤","lon":"121.48902","lat":"31.21714","category":"257","category_name":"中餐厅","address":"黄浦区文庙路233号(近老道前街)"},{"poiid":"B2094757D16CA7FC479D","title":"老西门地段医院","lon":"121.489300738","lat":"31.2166863448","category":"162","category_name":"医院","address":"上海学前街"},{"poiid":"B2094757D16EAAF4499C","title":"滄海苑","lon":"121.48937503","lat":"31.216520808","category":"252","category_name":"楼宇机构","address":"沧海苑位于黄浦学前街111号"},{"poiid":"B2094757D16DA0F4419F","title":"广东煲仔饭","lon":"121.487505","lat":"31.215142","category":"68","category_name":"快餐厅","address":"黄浦区黄家阙路148号(近中华路)"},{"poiid":"B2094757D06BA7FF4099","title":"高风雨时尚造型工作室","lon":"121.48916","lat":"31.21429","category":"148","category_name":"美容美发店","address":"黄浦区中华路1112号(尚文路中华路)"},{"poiid":"B2094757D064A3FD4393","title":"品客一佳 中华路店","lon":"121.48897","lat":"31.21455","category":"68","category_name":"快餐厅","address":"黄浦区中华路1122号(近黄家阙路)"},{"poiid":"B2094757DA6EABF4429A","title":"超级鸡车(蓬莱路店)","lon":"121.488144","lat":"31.2165260000003","category":"68","category_name":"快餐厅","address":"黄浦区蓬莱路374号(近蓬莱路中华路)"},{"poiid":"B2094751DA6EA6FE409A","title":"上海体育场","lon":"121.4908603","lat":"31.2169628","category":"500","category_name":"未知分类","address":null},{"poiid":"B2094750D76DA2F44493","title":"文庙面馆","lon":"121.488","lat":"31.2174","category":"68","category_name":"快餐厅","address":"黄浦区老道前街55号(近文庙路)"},{"poiid":"B2094757D66BA7FE459A","title":"老北京王府井烤鸭","lon":"121.48757","lat":"31.216047","category":"68","category_name":"快餐厅","address":"黄浦区中华路1160号(近狼来了火锅店)"},{"poiid":"B2094654DA6EA0FB4699","title":"康宁商厦","lon":"121.48628","lat":"31.21743","category":"46","category_name":"楼宇","address":"上海中华路1359号"},{"poiid":"B2094654DA6EA0FB469A","title":"乔家栅 文庙店","lon":"121.486328054","lat":"31.216917793","category":"247","category_name":"餐饮美食","address":"黄浦区中华路1341号(文庙路口)"},{"poiid":"B2094757D16FA2FB4993","title":"文庙飘香烤鸡翅","lon":"121.48822","lat":"31.21715","category":"68","category_name":"快餐厅","address":"黄浦区文庙路(老道前街文庙路)"},{"poiid":"B2094655D265A7F5409A","title":"庙街礼品服饰商厦","lon":"121.48966","lat":"31.2147","category":"119","category_name":"商场","address":"黄浦中华路1051号"},{"poiid":"B2094757D76AA2F4489C","title":"吾饮良品 文庙店","lon":"121.48799","lat":"31.21813","category":"113","category_name":"冷饮店","address":"黄浦区文庙路249号(近学前街)"},{"poiid":"B2094654DB69A4FB4498","title":"重庆鸡公煲 黄家阙店","lon":"121.488187054","lat":"31.214126793","category":"71","category_name":"四川菜","address":"黄浦区黄家阙路85号(大林路口)"},{"poiid":"B2094757D16DA2FB459C","title":"文庙路奶茶","lon":"121.48823","lat":"31.21701","category":"67","category_name":"甜品店","address":"上海黄浦区文庙路西北狼烧烤旁  "},{"poiid":"B2094757D664ABFE409B","title":"正龙桂林米粉店 黄家阙路店","lon":"121.487834054","lat":"31.214168793","category":"68","category_name":"快餐厅","address":"黄浦区黄家阙路131号(近大兴街)"},{"poiid":"B2094654DA6EA0F4499F","title":"老西门街道社区卫生服务中心","lon":"121.48928","lat":"31.21659","category":"162","category_name":"医院","address":"学前街81"},{"poiid":"B2094757D165A1FF4393","title":"惠佳小馆","lon":"121.487993738","lat":"31.214078956","category":"68","category_name":"快餐厅","address":"黄浦区黄家阙路174号(中华路口)"},{"poiid":"B2094654DB6BA4FF4092","title":"广东仔章鱼小丸子","lon":"121.48854","lat":"31.21764","category":"68","category_name":"快餐厅","address":"黄浦区文庙路231号"},{"poiid":"B2094654DA6EA0FF4093","title":"中国工商银行上海市中华路支行","lon":"121.48738","lat":"31.21568","category":"150","category_name":"银行","address":"黄浦区中华路1168号近蓬莱路(大吉路黄家阙路)"},{"poiid":"B2094757D66CA0F4499F","title":"平利公寓","lon":"121.489637738","lat":"31.215302982","category":"47","category_name":"住宅区","address":"平阳绿家园位于闵行龙茗路888号顾戴路口"},{"poiid":"B2094757D069A1F9499B","title":"文庙书刊交易市场","lon":"121.48720275","lat":"31.217069805","category":"125","category_name":"书店","address":"黄浦区文庙路215号东北角(老道前街文庙路)"},{"poiid":"B2094655D36DA7FF489F","title":"中华路尚文路","lon":"121.48688","lat":"31.21633","category":"38","category_name":"公交车站","address":""},{"poiid":"B2094654DA6EA0FB439D","title":"上海文庙","lon":"121.48657","lat":"31.21693","category":"244","category_name":"寺庙道观","address":"上海市黄浦区文庙路215号"},{"poiid":"B2094654DA6EA0FB429E","title":"孔乙己酒家","lon":"121.48838","lat":"31.21819","category":"75","category_name":"浙江菜","address":"黄浦区学宫街36号(近老西门文庙)"},{"poiid":"B2094757D168A6FD499E","title":"蓬萊路","lon":"121.49024373","lat":"31.217709033","category":"500","category_name":"未知分类","address":"上海市黄浦區蓬萊路"},{"poiid":"B2094753D76FAAFA449C","title":"上海滩国泰旗舰店","lon":"121.466011","lat":"31.216125","category":"249","category_name":"购物服务","address":"淮海中路868号"},{"poiid":"B209475CD564A7F84292","title":"上海滩新天地店","lon":"121.47463","lat":"31.22164","category":"119","category_name":"商场","address":"\"太仓路181弄新天地北里15号\r\n\""},{"poiid":"B209475CD564A7F84392","title":"上海滩浦东香格里拉店","lon":"121.50058","lat":"31.23634","category":"119","category_name":"商场","address":"浦东富成路33号香格里拉酒店内大堂层"},{"poiid":"B2094654DB6BA4FE4793","title":"豪享来上海大兴街店","lon":"121.4885","lat":"31.214","category":"247","category_name":"餐饮美食","address":"上海市黄浦区大兴街26-30号"},{"poiid":"B2094757D068A7F4429D","title":"南开大厦","lon":"121.49065","lat":"31.217077","category":"46","category_name":"楼宇","address":"浦东新区金湘路225弄"},{"poiid":"B2094654DA6EA0FA409B","title":"上海市敬业中学","lon":"121.48822","lat":"31.21711","category":"55","category_name":"中学","address":"上海黄浦区蓬莱路345号  "},{"poiid":"B2094655D26EA7FE479E","title":"红宝石中华路店","lon":"121.48735","lat":"31.21607","category":"67","category_name":"甜品店","address":"黄浦区蓬莱路426号(中华路口)"},{"poiid":"B2094757D069A2F4419B","title":"园林大厦","lon":"121.48939228085","lat":"31.215035569363","category":"46","category_name":"楼宇","address":"北一环与亳州路交叉口(庐阳区政府对面)"},{"poiid":"B2094655D268A4F54493","title":"黄浦区敬业游泳馆","lon":"121.49069","lat":"31.21562","category":"231","category_name":"游泳馆","address":"黄浦区尚文路183号(尚文路迎勋北路)"},{"poiid":"B2094757D069AAFF429E","title":"新梅居(中华路店)","lon":"121.487682738","lat":"31.2151629791","category":"86","category_name":"火锅店","address":"黄浦区中华路1160号(近永宁街)"},{"poiid":"B2094757D06BA0FB409D","title":"东北农家饺子村","lon":"121.487563","lat":"31.215112","category":"82","category_name":"东北菜","address":"黄浦区黄家阙路79号"},{"poiid":"B2094757D069A4FD499B","title":"燕山楼烧烤","lon":"121.49052","lat":"31.21522","category":"68","category_name":"快餐厅","address":"黄浦区黄家阙路180号(近中华路)"},{"poiid":"B2094757D069A5FE429C","title":"京世美容美发连锁机构(中华店)","lon":"121.48845","lat":"31.21476","category":"148","category_name":"美容美发店","address":"上海黄浦区中华路1142号(近大兴街)"},{"poiid":"B2094654DB6BA4FE4998","title":"上海市第十中学","lon":"121.48866","lat":"31.21608","category":"55","category_name":"中学","address":"永宁街25"},{"poiid":"B2094757D66AA6F94398","title":"黄浦象山海鲜馆","lon":"121.48920434293","lat":"31.214798295002","category":"75","category_name":"浙江菜","address":"黄浦区中华路1117号(近尚文路)"},{"poiid":"B2094750D768A6FA4093","title":"噫寿司","lon":"121.488","lat":"31.2176","category":"95","category_name":"日本料理","address":"黄浦区文庙路235号(近中华路)"},{"poiid":"B2094757D66BA4FC449E","title":"和怡美老象山海鲜","lon":"121.488140054","lat":"31.214310793","category":"75","category_name":"浙江菜","address":"黄浦区黄家厥路(近大吉路)"},{"poiid":"B2094654DA6EA0FE459D","title":"惠德大厦","lon":"121.48741","lat":"31.21555","category":"46","category_name":"楼宇","address":"朝阳华威桥东北角"},{"poiid":"B2094757D06BA0FF409D","title":"诞诞面","lon":"121.486093738","lat":"31.2163040034","category":"68","category_name":"快餐厅","address":"黄浦区方斜支路9号(中华路文庙路对面)"},{"poiid":"B2094757D06BA0FC4892","title":"人豪阿情酒楼","lon":"121.48651","lat":"31.21636","category":"76","category_name":"上海菜","address":"黄浦区中华路1318号(近方斜支路)"},{"poiid":"B2094750D76DA2F4439D","title":"文庙菜饭(文庙路店)","lon":"121.487","lat":"31.2168","category":"68","category_name":"快餐厅","address":"黄浦区文庙路282号(中华路口)"},{"poiid":"B2094654DB69A0F8479E","title":"蓬莱路第二小学","lon":"121.49009","lat":"31.21824","category":"56","category_name":"小学","address":"黄浦区蓬莱路225号(蓬莱路迎勋北路)"},{"poiid":"B2094757D16EAAFD4892","title":"文庙老道前街骨头汤","lon":"121.48902","lat":"31.21714","category":"257","category_name":"中餐厅","address":"黄浦区文庙路233号(近老道前街)"},{"poiid":"B2094757D16CA7FC479D","title":"老西门地段医院","lon":"121.489300738","lat":"31.2166863448","category":"162","category_name":"医院","address":"上海学前街"},{"poiid":"B2094757D16EAAF4499C","title":"滄海苑","lon":"121.48937503","lat":"31.216520808","category":"252","category_name":"楼宇机构","address":"沧海苑位于黄浦学前街111号"},{"poiid":"B2094757D16DA0F4419F","title":"广东煲仔饭","lon":"121.487505","lat":"31.215142","category":"68","category_name":"快餐厅","address":"黄浦区黄家阙路148号(近中华路)"},{"poiid":"B2094757D06BA7FF4099","title":"高风雨时尚造型工作室","lon":"121.48916","lat":"31.21429","category":"148","category_name":"美容美发店","address":"黄浦区中华路1112号(尚文路中华路)"},{"poiid":"B2094757D064A3FD4393","title":"品客一佳 中华路店","lon":"121.48897","lat":"31.21455","category":"68","category_name":"快餐厅","address":"黄浦区中华路1122号(近黄家阙路)"},{"poiid":"B2094757DA6EABF4429A","title":"超级鸡车(蓬莱路店)","lon":"121.488144","lat":"31.2165260000003","category":"68","category_name":"快餐厅","address":"黄浦区蓬莱路374号(近蓬莱路中华路)"},{"poiid":"B2094751DA6EA6FE409A","title":"上海体育场","lon":"121.4908603","lat":"31.2169628","category":"500","category_name":"未知分类","address":null},{"poiid":"B2094750D76DA2F44493","title":"文庙面馆","lon":"121.488","lat":"31.2174","category":"68","category_name":"快餐厅","address":"黄浦区老道前街55号(近文庙路)"},{"poiid":"B2094757D66BA7FE459A","title":"老北京王府井烤鸭","lon":"121.48757","lat":"31.216047","category":"68","category_name":"快餐厅","address":"黄浦区中华路1160号(近狼来了火锅店)"},{"poiid":"B2094654DA6EA0FB4699","title":"康宁商厦","lon":"121.48628","lat":"31.21743","category":"46","category_name":"楼宇","address":"上海中华路1359号"},{"poiid":"B2094654DA6EA0FB469A","title":"乔家栅 文庙店","lon":"121.486328054","lat":"31.216917793","category":"247","category_name":"餐饮美食","address":"黄浦区中华路1341号(文庙路口)"},{"poiid":"B2094757D16FA2FB4993","title":"文庙飘香烤鸡翅","lon":"121.48822","lat":"31.21715","category":"68","category_name":"快餐厅","address":"黄浦区文庙路(老道前街文庙路)"},{"poiid":"B2094655D265A7F5409A","title":"庙街礼品服饰商厦","lon":"121.48966","lat":"31.2147","category":"119","category_name":"商场","address":"黄浦中华路1051号"},{"poiid":"B2094757D76AA2F4489C","title":"吾饮良品 文庙店","lon":"121.48799","lat":"31.21813","category":"113","category_name":"冷饮店","address":"黄浦区文庙路249号(近学前街)"},{"poiid":"B2094654DB69A4FB4498","title":"重庆鸡公煲 黄家阙店","lon":"121.488187054","lat":"31.214126793","category":"71","category_name":"四川菜","address":"黄浦区黄家阙路85号(大林路口)"},{"poiid":"B2094757D16DA2FB459C","title":"文庙路奶茶","lon":"121.48823","lat":"31.21701","category":"67","category_name":"甜品店","address":"上海黄浦区文庙路西北狼烧烤旁  "},{"poiid":"B2094757D664ABFE409B","title":"正龙桂林米粉店 黄家阙路店","lon":"121.487834054","lat":"31.214168793","category":"68","category_name":"快餐厅","address":"黄浦区黄家阙路131号(近大兴街)"},{"poiid":"B2094654DA6EA0F4499F","title":"老西门街道社区卫生服务中心","lon":"121.48928","lat":"31.21659","category":"162","category_name":"医院","address":"学前街81"},{"poiid":"B2094757D165A1FF4393","title":"惠佳小馆","lon":"121.487993738","lat":"31.214078956","category":"68","category_name":"快餐厅","address":"黄浦区黄家阙路174号(中华路口)"},{"poiid":"B2094654DB6BA4FF4092","title":"广东仔章鱼小丸子","lon":"121.48854","lat":"31.21764","category":"68","category_name":"快餐厅","address":"黄浦区文庙路231号"},{"poiid":"B2094654DA6EA0FF4093","title":"中国工商银行上海市中华路支行","lon":"121.48738","lat":"31.21568","category":"150","category_name":"银行","address":"黄浦区中华路1168号近蓬莱路(大吉路黄家阙路)"},{"poiid":"B2094757D66CA0F4499F","title":"平利公寓","lon":"121.489637738","lat":"31.215302982","category":"47","category_name":"住宅区","address":"平阳绿家园位于闵行龙茗路888号顾戴路口"},{"poiid":"B2094757D069A1F9499B","title":"文庙书刊交易市场","lon":"121.48720275","lat":"31.217069805","category":"125","category_name":"书店","address":"黄浦区文庙路215号东北角(老道前街文庙路)"},{"poiid":"B2094655D36DA7FF489F","title":"中华路尚文路","lon":"121.48688","lat":"31.21633","category":"38","category_name":"公交车站","address":""}]