[{"poiid":"B2094757D06EAAFF479A","title":"杨树浦路地铁站","lon":"121.51719604","lat":"31.252407847","category":"36","category_name":"地铁站","address":"上海轨道交通 四号线 轨交杨树浦路站 轻轨 4"},{"poiid":"B2094757D06FA3FF4692","title":"提篮桥监狱","lon":"121.51515197","lat":"31.253217697","category":"608","category_name":"法院","address":"上海市虹口区长阳路147号"},{"poiid":"B2094757D06FA2FD409E","title":"上海市市东中学","lon":"121.51550766","lat":"31.257074778","category":"55","category_name":"中学","address":"杨浦区荆州路42号(长阳路荆州路)"},{"poiid":"B209475CD564A7F84392","title":"上海滩浦东香格里拉店","lon":"121.50058","lat":"31.23634","category":"119","category_name":"商场","address":"浦东富成路33号香格里拉酒店内大堂层"},{"poiid":"B2094654DB69A5FF429A","title":"莫泰168连锁旅店(霍山路店)","lon":"121.51356","lat":"31.2559","category":"216","category_name":"经济型连锁酒店","address":"上海虹口区霍山路300号（近大连路）"},{"poiid":"B2094655D269ABFC449F","title":"市东中学羽毛球馆","lon":"121.51613","lat":"31.25695","category":"247","category_name":"餐饮美食","address":"杨浦区荆州路101号市东中学体育馆5楼(近霍山路)"},{"poiid":"B2094757D66FA2F9469F","title":"西门子总部","lon":"121.516492803","lat":"31.2571552451","category":"500","category_name":"未知分类","address":"上海大连路500号"},{"poiid":"B2094757D068A4F5479A","title":"隧道工程股份有限公司","lon":"121.517015","lat":"31.253451","category":"263","category_name":"公司","address":"上海大连路118号"},{"poiid":"B2094655D26AA0F9409B","title":"地铁杨树浦路站","lon":"121.5172","lat":"31.25241","category":"36","category_name":"地铁站","address":""},{"poiid":"B2094655D26BA1FC489F","title":"平凉路大连路","lon":"121.51745","lat":"31.25307","category":"38","category_name":"公交车站","address":""},{"poiid":"B2094757D068ABFE489E","title":"世博园秦皇岛水门","lon":"121.51718895","lat":"31.253926877","category":"260","category_name":"其他","address":"上海秦皇岛路32号"},{"poiid":"B2094655D26CA6FD439B","title":"上海精密机械加工园区榆林路201号园区","lon":"121.51712","lat":"31.25487","category":"45","category_name":"产业园区","address":"榆林路201号"},{"poiid":"B2094757D068AAF8469E","title":"上海船厂船舶有限公司","lon":"121.516366773","lat":"31.2546355024","category":"263","category_name":"公司","address":"上海杨树浦路468号"},{"poiid":"B2094750DB6DA1FA479C","title":"新天地stayreal","lon":"121.516563","lat":"31.255727","category":"249","category_name":"购物服务","address":"马当路245号"},{"poiid":"B2094655D264ABFE4498","title":"三乐里(边门)","lon":"121.51617","lat":"31.25539","category":"47","category_name":"住宅区","address":""},{"poiid":"B2094655D26DA4F54492","title":"惠民路355弄小区(南门)","lon":"121.51605","lat":"31.25557","category":"47","category_name":"住宅区","address":"惠民路355弄"},{"poiid":"B2094655D36CA0FB499D","title":"惠民路","lon":"121.51419","lat":"31.2546","category":"38","category_name":"公交车站","address":""},{"poiid":"B2094757D06AA1FC4693","title":"德国大陆汽车亚太总部","lon":"121.51864624","lat":"31.256095886","category":"500","category_name":"未知分类","address":"上海大连路538号"},{"poiid":"B2094655D26CA6FC4593","title":"人寿里","lon":"121.51683","lat":"31.25608","category":"47","category_name":"住宅区","address":""},{"poiid":"B2094655D36DA6FE4992","title":"杨树浦路","lon":"121.5172","lat":"31.25241","category":"38","category_name":"公交车站","address":""},{"poiid":"B2094757D16BA5FF479C","title":"coco奶茶(平凉店)","lon":"121.519247003","lat":"31.2554528095","category":"113","category_name":"冷饮店","address":"上海通北路平凉路口"},{"poiid":"B2094654D56FA2FD4999","title":"云舫小区","lon":"121.51371","lat":"31.255001","category":"47","category_name":"住宅区","address":"保定路20弄10-40号"},{"poiid":"B2094654DB6AA2FB479D","title":"上海仪电购物总汇榆林商场","lon":"121.51647","lat":"31.25425","category":"119","category_name":"商场","address":"榆林路161号-163号"},{"poiid":"B2094655D26EA2FF469B","title":"惠民路355弄小区","lon":"121.51581","lat":"31.25572","category":"47","category_name":"住宅区","address":"惠民路355弄"},{"poiid":"B2094655D26EA1FC479F","title":"上海精密机械加工园区榆林路200号园区","lon":"121.51738","lat":"31.25431","category":"45","category_name":"产业园区","address":"榆林路200号"},{"poiid":"B2094655D265A6FA489A","title":"国歌广场","lon":"121.51455","lat":"31.25792","category":"202","category_name":"公园广场","address":""},{"poiid":"B2094654D56FA2FC4098","title":"快客No.1305","lon":"121.51496","lat":"31.25505","category":"117","category_name":"便民商店/便利店","address":"惠民路309号"},{"poiid":"B2094655D26CA6F5419E","title":"大连路260弄小区","lon":"121.51529","lat":"31.25592","category":"47","category_name":"住宅区","address":"大连路260弄15-23号"},{"poiid":"B2094655D265ABF4459F","title":"榆林路281弄小区","lon":"121.51835","lat":"31.2555","category":"47","category_name":"住宅区","address":"榆林路281弄"},{"poiid":"B2094654DB6BA3F4489F","title":"上海市市东中学初中部","lon":"121.51694","lat":"31.25698","category":"55","category_name":"中学","address":"荆州路100号"},{"poiid":"B2094654D56EA5FF449D","title":"上海新世纪表业有限公司(榆林路)","lon":"121.51712","lat":"31.25487","category":"263","category_name":"公司","address":"榆林路201"},{"poiid":"B2094654D56FA2FE4992","title":"上汽霍山大楼","lon":"121.51394","lat":"31.25616","category":"46","category_name":"楼宇","address":"霍山路340"},{"poiid":"B2094655D26FA7FD419A","title":"三瑞里(东门)","lon":"121.51661","lat":"31.25671","category":"47","category_name":"住宅区","address":""},{"poiid":"B2094655D26DAAF9439B","title":"宏惠花苑二期","lon":"121.51498","lat":"31.254585","category":"47","category_name":"住宅区","address":"上海市虹口区榆林路119号"},{"poiid":"B2094655D26EA3F94798","title":"大连路260弄小区(西门)","lon":"121.51519","lat":"31.2559","category":"47","category_name":"住宅区","address":"大连路260弄15-23号"},{"poiid":"B2094654D56EA5FF449E","title":"上海手表厂","lon":"121.5175","lat":"31.25486","category":"263","category_name":"公司","address":"平凉路"},{"poiid":"B2094655D36CA3FC4292","title":"榆林路281弄小区(东门)","lon":"121.51836","lat":"31.25557","category":"47","category_name":"住宅区","address":"榆林路281弄"},{"poiid":"B2094757D065A7FB469F","title":"上海市杨浦区天主教爱国会 和平之后圣母堂","lon":"121.5181706","lat":"31.256806937","category":"245","category_name":"教堂","address":"上海杨浦区惠民路692号(近益丰大药房)  和平堂"},{"poiid":"B2094655D26CA6FD489E","title":"榆林路280弄小区(北门)","lon":"121.5185","lat":"31.25515","category":"47","category_name":"住宅区","address":"榆林路280弄"},{"poiid":"B2094655D26FA7FA429F","title":"近胜坊(西门)","lon":"121.51809","lat":"31.25632","category":"47","category_name":"住宅区","address":"景星路490弄"},{"poiid":"B2094757D165AAF8479D","title":"ˋ♥.уo尛囡丶窩窩","lon":"121.514754003","lat":"31.255285006","category":"47","category_name":"住宅区","address":"上海大連路榆林路"},{"poiid":"B2094654D56EA5FF4493","title":"上海表业有限公司营销部","lon":"121.51702","lat":"31.25459","category":"135","category_name":"钟表店","address":""},{"poiid":"B2094655D26BA0F44692","title":"近胜里小区","lon":"121.51849","lat":"31.25417","category":"47","category_name":"住宅区","address":"平凉路245弄"},{"poiid":"B2094753D66AA7F94999","title":"海老寿司","lon":"121.516647","lat":"31.258975","category":"247","category_name":"餐饮美食","address":"上海市 上海市昆明路555号宝地广场"},{"poiid":"B2094655D26CA6FD4899","title":"虹口公安分局交通警察支队二中队","lon":"121.5168","lat":"31.25399","category":"248","category_name":"生活娱乐","address":"榆林路192号"},{"poiid":"B2094655D26CA6FD469C","title":"景星路385弄小区","lon":"121.51866","lat":"31.25462","category":"47","category_name":"住宅区","address":"景星路385弄"},{"poiid":"B2094654D56EA5FA409E","title":"近胜坊","lon":"121.51829","lat":"31.256413","category":"47","category_name":"住宅区","address":"景星路490弄"},{"poiid":"B2094655D264ABF94092","title":"上海春蕾牌手表经营部","lon":"121.51679","lat":"31.25445","category":"135","category_name":"钟表店","address":"榆林路201-2临"},{"poiid":"B2094654D56EA5F9489D","title":"上海市市东小学","lon":"121.51921","lat":"31.25589","category":"56","category_name":"小学","address":"榆林路313"},{"poiid":"B2094757D068A4FD449A","title":"平凉街道社区卫生服务中心","lon":"121.520317959","lat":"31.2547247168","category":"162","category_name":"医院","address":"杨浦区平凉路335号(福禄街平凉路)"},{"poiid":"B2094757D06EAAFF479A","title":"杨树浦路地铁站","lon":"121.51719604","lat":"31.252407847","category":"36","category_name":"地铁站","address":"上海轨道交通 四号线 轨交杨树浦路站 轻轨 4"},{"poiid":"B2094757D06FA3FF4692","title":"提篮桥监狱","lon":"121.51515197","lat":"31.253217697","category":"608","category_name":"法院","address":"上海市虹口区长阳路147号"},{"poiid":"B2094757D06FA2FD409E","title":"上海市市东中学","lon":"121.51550766","lat":"31.257074778","category":"55","category_name":"中学","address":"杨浦区荆州路42号(长阳路荆州路)"},{"poiid":"B209475CD564A7F84392","title":"上海滩浦东香格里拉店","lon":"121.50058","lat":"31.23634","category":"119","category_name":"商场","address":"浦东富成路33号香格里拉酒店内大堂层"},{"poiid":"B2094654DB69A5FF429A","title":"莫泰168连锁旅店(霍山路店)","lon":"121.51356","lat":"31.2559","category":"216","category_name":"经济型连锁酒店","address":"上海虹口区霍山路300号（近大连路）"},{"poiid":"B2094655D269ABFC449F","title":"市东中学羽毛球馆","lon":"121.51613","lat":"31.25695","category":"247","category_name":"餐饮美食","address":"杨浦区荆州路101号市东中学体育馆5楼(近霍山路)"},{"poiid":"B2094757D66FA2F9469F","title":"西门子总部","lon":"121.516492803","lat":"31.2571552451","category":"500","category_name":"未知分类","address":"上海大连路500号"},{"poiid":"B2094757D068A4F5479A","title":"隧道工程股份有限公司","lon":"121.517015","lat":"31.253451","category":"263","category_name":"公司","address":"上海大连路118号"},{"poiid":"B2094655D26AA0F9409B","title":"地铁杨树浦路站","lon":"121.5172","lat":"31.25241","category":"36","category_name":"地铁站","address":""},{"poiid":"B2094655D26BA1FC489F","title":"平凉路大连路","lon":"121.51745","lat":"31.25307","category":"38","category_name":"公交车站","address":""},{"poiid":"B2094757D068ABFE489E","title":"世博园秦皇岛水门","lon":"121.51718895","lat":"31.253926877","category":"260","category_name":"其他","address":"上海秦皇岛路32号"},{"poiid":"B2094655D26CA6FD439B","title":"上海精密机械加工园区榆林路201号园区","lon":"121.51712","lat":"31.25487","category":"45","category_name":"产业园区","address":"榆林路201号"},{"poiid":"B2094757D068AAF8469E","title":"上海船厂船舶有限公司","lon":"121.516366773","lat":"31.2546355024","category":"263","category_name":"公司","address":"上海杨树浦路468号"},{"poiid":"B2094750DB6DA1FA479C","title":"新天地stayreal","lon":"121.516563","lat":"31.255727","category":"249","category_name":"购物服务","address":"马当路245号"},{"poiid":"B2094655D264ABFE4498","title":"三乐里(边门)","lon":"121.51617","lat":"31.25539","category":"47","category_name":"住宅区","address":""},{"poiid":"B2094655D26DA4F54492","title":"惠民路355弄小区(南门)","lon":"121.51605","lat":"31.25557","category":"47","category_name":"住宅区","address":"惠民路355弄"},{"poiid":"B2094655D36CA0FB499D","title":"惠民路","lon":"121.51419","lat":"31.2546","category":"38","category_name":"公交车站","address":""},{"poiid":"B2094757D06AA1FC4693","title":"德国大陆汽车亚太总部","lon":"121.51864624","lat":"31.256095886","category":"500","category_name":"未知分类","address":"上海大连路538号"},{"poiid":"B2094655D26CA6FC4593","title":"人寿里","lon":"121.51683","lat":"31.25608","category":"47","category_name":"住宅区","address":""},{"poiid":"B2094655D36DA6FE4992","title":"杨树浦路","lon":"121.5172","lat":"31.25241","category":"38","category_name":"公交车站","address":""},{"poiid":"B2094757D16BA5FF479C","title":"coco奶茶(平凉店)","lon":"121.519247003","lat":"31.2554528095","category":"113","category_name":"冷饮店","address":"上海通北路平凉路口"},{"poiid":"B2094654D56FA2FD4999","title":"云舫小区","lon":"121.51371","lat":"31.255001","category":"47","category_name":"住宅区","address":"保定路20弄10-40号"},{"poiid":"B2094654DB6AA2FB479D","title":"上海仪电购物总汇榆林商场","lon":"121.51647","lat":"31.25425","category":"119","category_name":"商场","address":"榆林路161号-163号"},{"poiid":"B2094655D26EA2FF469B","title":"惠民路355弄小区","lon":"121.51581","lat":"31.25572","category":"47","category_name":"住宅区","address":"惠民路355弄"},{"poiid":"B2094655D26EA1FC479F","title":"上海精密机械加工园区榆林路200号园区","lon":"121.51738","lat":"31.25431","category":"45","category_name":"产业园区","address":"榆林路200号"},{"poiid":"B2094655D265A6FA489A","title":"国歌广场","lon":"121.51455","lat":"31.25792","category":"202","category_name":"公园广场","address":""},{"poiid":"B2094654D56FA2FC4098","title":"快客No.1305","lon":"121.51496","lat":"31.25505","category":"117","category_name":"便民商店/便利店","address":"惠民路309号"},{"poiid":"B2094655D26CA6F5419E","title":"大连路260弄小区","lon":"121.51529","lat":"31.25592","category":"47","category_name":"住宅区","address":"大连路260弄15-23号"},{"poiid":"B2094655D265ABF4459F","title":"榆林路281弄小区","lon":"121.51835","lat":"31.2555","category":"47","category_name":"住宅区","address":"榆林路281弄"},{"poiid":"B2094654DB6BA3F4489F","title":"上海市市东中学初中部","lon":"121.51694","lat":"31.25698","category":"55","category_name":"中学","address":"荆州路100号"},{"poiid":"B2094654D56EA5FF449D","title":"上海新世纪表业有限公司(榆林路)","lon":"121.51712","lat":"31.25487","category":"263","category_name":"公司","address":"榆林路201"},{"poiid":"B2094654D56FA2FE4992","title":"上汽霍山大楼","lon":"121.51394","lat":"31.25616","category":"46","category_name":"楼宇","address":"霍山路340"},{"poiid":"B2094655D26FA7FD419A","title":"三瑞里(东门)","lon":"121.51661","lat":"31.25671","category":"47","category_name":"住宅区","address":""},{"poiid":"B2094655D26DAAF9439B","title":"宏惠花苑二期","lon":"121.51498","lat":"31.254585","category":"47","category_name":"住宅区","address":"上海市虹口区榆林路119号"},{"poiid":"B2094655D26EA3F94798","title":"大连路260弄小区(西门)","lon":"121.51519","lat":"31.2559","category":"47","category_name":"住宅区","address":"大连路260弄15-23号"},{"poiid":"B2094654D56EA5FF449E","title":"上海手表厂","lon":"121.5175","lat":"31.25486","category":"263","category_name":"公司","address":"平凉路"},{"poiid":"B2094655D36CA3FC4292","title":"榆林路281弄小区(东门)","lon":"121.51836","lat":"31.25557","category":"47","category_name":"住宅区","address":"榆林路281弄"},{"poiid":"B2094757D065A7FB469F","title":"上海市杨浦区天主教爱国会 和平之后圣母堂","lon":"121.5181706","lat":"31.256806937","category":"245","category_name":"教堂","address":"上海杨浦区惠民路692号(近益丰大药房)  和平堂"},{"poiid":"B2094655D26CA6FD489E","title":"榆林路280弄小区(北门)","lon":"121.5185","lat":"31.25515","category":"47","category_name":"住宅区","address":"榆林路280弄"},{"poiid":"B2094655D26FA7FA429F","title":"近胜坊(西门)","lon":"121.51809","lat":"31.25632","category":"47","category_name":"住宅区","address":"景星路490弄"},{"poiid":"B2094757D165AAF8479D","title":"ˋ♥.уo尛囡丶窩窩","lon":"121.514754003","lat":"31.255285006","category":"47","category_name":"住宅区","address":"上海大連路榆林路"},{"poiid":"B2094654D56EA5FF4493","title":"上海表业有限公司营销部","lon":"121.51702","lat":"31.25459","category":"135","category_name":"钟表店","address":""},{"poiid":"B2094655D26BA0F44692","title":"近胜里小区","lon":"121.51849","lat":"31.25417","category":"47","category_name":"住宅区","address":"平凉路245弄"},{"poiid":"B2094753D66AA7F94999","title":"海老寿司","lon":"121.516647","lat":"31.258975","category":"247","category_name":"餐饮美食","address":"上海市 上海市昆明路555号宝地广场"},{"poiid":"B2094655D26CA6FD4899","title":"虹口公安分局交通警察支队二中队","lon":"121.5168","lat":"31.25399","category":"248","category_name":"生活娱乐","address":"榆林路192号"},{"poiid":"B2094655D26CA6FD469C","title":"景星路385弄小区","lon":"121.51866","lat":"31.25462","category":"47","category_name":"住宅区","address":"景星路385弄"},{"poiid":"B2094654D56EA5FA409E","title":"近胜坊","lon":"121.51829","lat":"31.256413","category":"47","category_name":"住宅区","address":"景星路490弄"},{"poiid":"B2094655D264ABF94092","title":"上海春蕾牌手表经营部","lon":"121.51679","lat":"31.25445","category":"135","category_name":"钟表店","address":"榆林路201-2临"},{"poiid":"B2094654D56EA5F9489D","title":"上海市市东小学","lon":"121.51921","lat":"31.25589","category":"56","category_name":"小学","address":"榆林路313"},{"poiid":"B2094757D068A4FD449A","title":"平凉街道社区卫生服务中心","lon":"121.520317959","lat":"31.2547247168","category":"162","category_name":"医院","address":"杨浦区平凉路335号(福禄街平凉路)"},{"poiid":"B2094757D06EAAFF479A","title":"杨树浦路地铁站","lon":"121.51719604","lat":"31.252407847","category":"36","category_name":"地铁站","address":"上海轨道交通 四号线 轨交杨树浦路站 轻轨 4"},{"poiid":"B2094757D06FA3FF4692","title":"提篮桥监狱","lon":"121.51515197","lat":"31.253217697","category":"608","category_name":"法院","address":"上海市虹口区长阳路147号"},{"poiid":"B2094757D06FA2FD409E","title":"上海市市东中学","lon":"121.51550766","lat":"31.257074778","category":"55","category_name":"中学","address":"杨浦区荆州路42号(长阳路荆州路)"},{"poiid":"B209475CD564A7F84392","title":"上海滩浦东香格里拉店","lon":"121.50058","lat":"31.23634","category":"119","category_name":"商场","address":"浦东富成路33号香格里拉酒店内大堂层"},{"poiid":"B2094654DB69A5FF429A","title":"莫泰168连锁旅店(霍山路店)","lon":"121.51356","lat":"31.2559","category":"216","category_name":"经济型连锁酒店","address":"上海虹口区霍山路300号（近大连路）"},{"poiid":"B2094655D269ABFC449F","title":"市东中学羽毛球馆","lon":"121.51613","lat":"31.25695","category":"247","category_name":"餐饮美食","address":"杨浦区荆州路101号市东中学体育馆5楼(近霍山路)"},{"poiid":"B2094757D66FA2F9469F","title":"西门子总部","lon":"121.516492803","lat":"31.2571552451","category":"500","category_name":"未知分类","address":"上海大连路500号"},{"poiid":"B2094757D068A4F5479A","title":"隧道工程股份有限公司","lon":"121.517015","lat":"31.253451","category":"263","category_name":"公司","address":"上海大连路118号"},{"poiid":"B2094655D26AA0F9409B","title":"地铁杨树浦路站","lon":"121.5172","lat":"31.25241","category":"36","category_name":"地铁站","address":""},{"poiid":"B2094655D26BA1FC489F","title":"平凉路大连路","lon":"121.51745","lat":"31.25307","category":"38","category_name":"公交车站","address":""},{"poiid":"B2094757D068ABFE489E","title":"世博园秦皇岛水门","lon":"121.51718895","lat":"31.253926877","category":"260","category_name":"其他","address":"上海秦皇岛路32号"},{"poiid":"B2094655D26CA6FD439B","title":"上海精密机械加工园区榆林路201号园区","lon":"121.51712","lat":"31.25487","category":"45","category_name":"产业园区","address":"榆林路201号"},{"poiid":"B2094757D068AAF8469E","title":"上海船厂船舶有限公司","lon":"121.516366773","lat":"31.2546355024","category":"263","category_name":"公司","address":"上海杨树浦路468号"},{"poiid":"B2094750DB6DA1FA479C","title":"新天地stayreal","lon":"121.516563","lat":"31.255727","category":"249","category_name":"购物服务","address":"马当路245号"},{"poiid":"B2094655D264ABFE4498","title":"三乐里(边门)","lon":"121.51617","lat":"31.25539","category":"47","category_name":"住宅区","address":""},{"poiid":"B2094655D26DA4F54492","title":"惠民路355弄小区(南门)","lon":"121.51605","lat":"31.25557","category":"47","category_name":"住宅区","address":"惠民路355弄"},{"poiid":"B2094655D36CA0FB499D","title":"惠民路","lon":"121.51419","lat":"31.2546","category":"38","category_name":"公交车站","address":""},{"poiid":"B2094757D06AA1FC4693","title":"德国大陆汽车亚太总部","lon":"121.51864624","lat":"31.256095886","category":"500","category_name":"未知分类","address":"上海大连路538号"},{"poiid":"B2094655D26CA6FC4593","title":"人寿里","lon":"121.51683","lat":"31.25608","category":"47","category_name":"住宅区","address":""},{"poiid":"B2094655D36DA6FE4992","title":"杨树浦路","lon":"121.5172","lat":"31.25241","category":"38","category_name":"公交车站","address":""},{"poiid":"B2094757D16BA5FF479C","title":"coco奶茶(平凉店)","lon":"121.519247003","lat":"31.2554528095","category":"113","category_name":"冷饮店","address":"上海通北路平凉路口"},{"poiid":"B2094654D56FA2FD4999","title":"云舫小区","lon":"121.51371","lat":"31.255001","category":"47","category_name":"住宅区","address":"保定路20弄10-40号"},{"poiid":"B2094654DB6AA2FB479D","title":"上海仪电购物总汇榆林商场","lon":"121.51647","lat":"31.25425","category":"119","category_name":"商场","address":"榆林路161号-163号"},{"poiid":"B2094655D26EA2FF469B","title":"惠民路355弄小区","lon":"121.51581","lat":"31.25572","category":"47","category_name":"住宅区","address":"惠民路355弄"},{"poiid":"B2094655D26EA1FC479F","title":"上海精密机械加工园区榆林路200号园区","lon":"121.51738","lat":"31.25431","category":"45","category_name":"产业园区","address":"榆林路200号"},{"poiid":"B2094655D265A6FA489A","title":"国歌广场","lon":"121.51455","lat":"31.25792","category":"202","category_name":"公园广场","address":""},{"poiid":"B2094654D56FA2FC4098","title":"快客No.1305","lon":"121.51496","lat":"31.25505","category":"117","category_name":"便民商店/便利店","address":"惠民路309号"},{"poiid":"B2094655D26CA6F5419E","title":"大连路260弄小区","lon":"121.51529","lat":"31.25592","category":"47","category_name":"住宅区","address":"大连路260弄15-23号"},{"poiid":"B2094655D265ABF4459F","title":"榆林路281弄小区","lon":"121.51835","lat":"31.2555","category":"47","category_name":"住宅区","address":"榆林路281弄"},{"poiid":"B2094654DB6BA3F4489F","title":"上海市市东中学初中部","lon":"121.51694","lat":"31.25698","category":"55","category_name":"中学","address":"荆州路100号"},{"poiid":"B2094654D56EA5FF449D","title":"上海新世纪表业有限公司(榆林路)","lon":"121.51712","lat":"31.25487","category":"263","category_name":"公司","address":"榆林路201"},{"poiid":"B2094654D56FA2FE4992","title":"上汽霍山大楼","lon":"121.51394","lat":"31.25616","category":"46","category_name":"楼宇","address":"霍山路340"},{"poiid":"B2094655D26FA7FD419A","title":"三瑞里(东门)","lon":"121.51661","lat":"31.25671","category":"47","category_name":"住宅区","address":""},{"poiid":"B2094655D26DAAF9439B","title":"宏惠花苑二期","lon":"121.51498","lat":"31.254585","category":"47","category_name":"住宅区","address":"上海市虹口区榆林路119号"},{"poiid":"B2094655D26EA3F94798","title":"大连路260弄小区(西门)","lon":"121.51519","lat":"31.2559","category":"47","category_name":"住宅区","address":"大连路260弄15-23号"},{"poiid":"B2094654D56EA5FF449E","title":"上海手表厂","lon":"121.5175","lat":"31.25486","category":"263","category_name":"公司","address":"平凉路"},{"poiid":"B2094655D36CA3FC4292","title":"榆林路281弄小区(东门)","lon":"121.51836","lat":"31.25557","category":"47","category_name":"住宅区","address":"榆林路281弄"},{"poiid":"B2094757D065A7FB469F","title":"上海市杨浦区天主教爱国会 和平之后圣母堂","lon":"121.5181706","lat":"31.256806937","category":"245","category_name":"教堂","address":"上海杨浦区惠民路692号(近益丰大药房)  和平堂"},{"poiid":"B2094655D26CA6FD489E","title":"榆林路280弄小区(北门)","lon":"121.5185","lat":"31.25515","category":"47","category_name":"住宅区","address":"榆林路280弄"},{"poiid":"B2094655D26FA7FA429F","title":"近胜坊(西门)","lon":"121.51809","lat":"31.25632","category":"47","category_name":"住宅区","address":"景星路490弄"},{"poiid":"B2094757D165AAF8479D","title":"ˋ♥.уo尛囡丶窩窩","lon":"121.514754003","lat":"31.255285006","category":"47","category_name":"住宅区","address":"上海大連路榆林路"},{"poiid":"B2094654D56EA5FF4493","title":"上海表业有限公司营销部","lon":"121.51702","lat":"31.25459","category":"135","category_name":"钟表店","address":""},{"poiid":"B2094655D26BA0F44692","title":"近胜里小区","lon":"121.51849","lat":"31.25417","category":"47","category_name":"住宅区","address":"平凉路245弄"},{"poiid":"B2094753D66AA7F94999","title":"海老寿司","lon":"121.516647","lat":"31.258975","category":"247","category_name":"餐饮美食","address":"上海市 上海市昆明路555号宝地广场"},{"poiid":"B2094655D26CA6FD4899","title":"虹口公安分局交通警察支队二中队","lon":"121.5168","lat":"31.25399","category":"248","category_name":"生活娱乐","address":"榆林路192号"},{"poiid":"B2094655D26CA6FD469C","title":"景星路385弄小区","lon":"121.51866","lat":"31.25462","category":"47","category_name":"住宅区","address":"景星路385弄"},{"poiid":"B2094654D56EA5FA409E","title":"近胜坊","lon":"121.51829","lat":"31.256413","category":"47","category_name":"住宅区","address":"景星路490弄"},{"poiid":"B2094655D264ABF94092","title":"上海春蕾牌手表经营部","lon":"121.51679","lat":"31.25445","category":"135","category_name":"钟表店","address":"榆林路201-2临"},{"poiid":"B2094654D56EA5F9489D","title":"上海市市东小学","lon":"121.51921","lat":"31.25589","category":"56","category_name":"小学","address":"榆林路313"},{"poiid":"B2094757D068A4FD449A","title":"平凉街道社区卫生服务中心","lon":"121.520317959","lat":"31.2547247168","category":"162","category_name":"医院","address":"杨浦区平凉路335号(福禄街平凉路)"},{"poiid":"B2094757D06EAAFF479A","title":"杨树浦路地铁站","lon":"121.51719604","lat":"31.252407847","category":"36","category_name":"地铁站","address":"上海轨道交通 四号线 轨交杨树浦路站 轻轨 4"},{"poiid":"B2094757D06FA3FF4692","title":"提篮桥监狱","lon":"121.51515197","lat":"31.253217697","category":"608","category_name":"法院","address":"上海市虹口区长阳路147号"},{"poiid":"B2094757D06FA2FD409E","title":"上海市市东中学","lon":"121.51550766","lat":"31.257074778","category":"55","category_name":"中学","address":"杨浦区荆州路42号(长阳路荆州路)"},{"poiid":"B209475CD564A7F84392","title":"上海滩浦东香格里拉店","lon":"121.50058","lat":"31.23634","category":"119","category_name":"商场","address":"浦东富成路33号香格里拉酒店内大堂层"},{"poiid":"B2094654DB69A5FF429A","title":"莫泰168连锁旅店(霍山路店)","lon":"121.51356","lat":"31.2559","category":"216","category_name":"经济型连锁酒店","address":"上海虹口区霍山路300号（近大连路）"},{"poiid":"B2094655D269ABFC449F","title":"市东中学羽毛球馆","lon":"121.51613","lat":"31.25695","category":"247","category_name":"餐饮美食","address":"杨浦区荆州路101号市东中学体育馆5楼(近霍山路)"},{"poiid":"B2094757D66FA2F9469F","title":"西门子总部","lon":"121.516492803","lat":"31.2571552451","category":"500","category_name":"未知分类","address":"上海大连路500号"},{"poiid":"B2094757D068A4F5479A","title":"隧道工程股份有限公司","lon":"121.517015","lat":"31.253451","category":"263","category_name":"公司","address":"上海大连路118号"},{"poiid":"B2094655D26AA0F9409B","title":"地铁杨树浦路站","lon":"121.5172","lat":"31.25241","category":"36","category_name":"地铁站","address":""},{"poiid":"B2094655D26BA1FC489F","title":"平凉路大连路","lon":"121.51745","lat":"31.25307","category":"38","category_name":"公交车站","address":""},{"poiid":"B2094757D068ABFE489E","title":"世博园秦皇岛水门","lon":"121.51718895","lat":"31.253926877","category":"260","category_name":"其他","address":"上海秦皇岛路32号"},{"poiid":"B2094655D26CA6FD439B","title":"上海精密机械加工园区榆林路201号园区","lon":"121.51712","lat":"31.25487","category":"45","category_name":"产业园区","address":"榆林路201号"},{"poiid":"B2094757D068AAF8469E","title":"上海船厂船舶有限公司","lon":"121.516366773","lat":"31.2546355024","category":"263","category_name":"公司","address":"上海杨树浦路468号"},{"poiid":"B2094750DB6DA1FA479C","title":"新天地stayreal","lon":"121.516563","lat":"31.255727","category":"249","category_name":"购物服务","address":"马当路245号"},{"poiid":"B2094655D264ABFE4498","title":"三乐里(边门)","lon":"121.51617","lat":"31.25539","category":"47","category_name":"住宅区","address":""},{"poiid":"B2094655D26DA4F54492","title":"惠民路355弄小区(南门)","lon":"121.51605","lat":"31.25557","category":"47","category_name":"住宅区","address":"惠民路355弄"},{"poiid":"B2094655D36CA0FB499D","title":"惠民路","lon":"121.51419","lat":"31.2546","category":"38","category_name":"公交车站","address":""},{"poiid":"B2094757D06AA1FC4693","title":"德国大陆汽车亚太总部","lon":"121.51864624","lat":"31.256095886","category":"500","category_name":"未知分类","address":"上海大连路538号"},{"poiid":"B2094655D26CA6FC4593","title":"人寿里","lon":"121.51683","lat":"31.25608","category":"47","category_name":"住宅区","address":""},{"poiid":"B2094655D36DA6FE4992","title":"杨树浦路","lon":"121.5172","lat":"31.25241","category":"38","category_name":"公交车站","address":""},{"poiid":"B2094757D16BA5FF479C","title":"coco奶茶(平凉店)","lon":"121.519247003","lat":"31.2554528095","category":"113","category_name":"冷饮店","address":"上海通北路平凉路口"},{"poiid":"B2094654D56FA2FD4999","title":"云舫小区","lon":"121.51371","lat":"31.255001","category":"47","category_name":"住宅区","address":"保定路20弄10-40号"},{"poiid":"B2094654DB6AA2FB479D","title":"上海仪电购物总汇榆林商场","lon":"121.51647","lat":"31.25425","category":"119","category_name":"商场","address":"榆林路161号-163号"},{"poiid":"B2094655D26EA2FF469B","title":"惠民路355弄小区","lon":"121.51581","lat":"31.25572","category":"47","category_name":"住宅区","address":"惠民路355弄"},{"poiid":"B2094655D26EA1FC479F","title":"上海精密机械加工园区榆林路200号园区","lon":"121.51738","lat":"31.25431","category":"45","category_name":"产业园区","address":"榆林路200号"},{"poiid":"B2094655D265A6FA489A","title":"国歌广场","lon":"121.51455","lat":"31.25792","category":"202","category_name":"公园广场","address":""},{"poiid":"B2094654D56FA2FC4098","title":"快客No.1305","lon":"121.51496","lat":"31.25505","category":"117","category_name":"便民商店/便利店","address":"惠民路309号"},{"poiid":"B2094655D26CA6F5419E","title":"大连路260弄小区","lon":"121.51529","lat":"31.25592","category":"47","category_name":"住宅区","address":"大连路260弄15-23号"},{"poiid":"B2094655D265ABF4459F","title":"榆林路281弄小区","lon":"121.51835","lat":"31.2555","category":"47","category_name":"住宅区","address":"榆林路281弄"},{"poiid":"B2094654DB6BA3F4489F","title":"上海市市东中学初中部","lon":"121.51694","lat":"31.25698","category":"55","category_name":"中学","address":"荆州路100号"},{"poiid":"B2094654D56EA5FF449D","title":"上海新世纪表业有限公司(榆林路)","lon":"121.51712","lat":"31.25487","category":"263","category_name":"公司","address":"榆林路201"},{"poiid":"B2094654D56FA2FE4992","title":"上汽霍山大楼","lon":"121.51394","lat":"31.25616","category":"46","category_name":"楼宇","address":"霍山路340"},{"poiid":"B2094655D26FA7FD419A","title":"三瑞里(东门)","lon":"121.51661","lat":"31.25671","category":"47","category_name":"住宅区","address":""},{"poiid":"B2094655D26DAAF9439B","title":"宏惠花苑二期","lon":"121.51498","lat":"31.254585","category":"47","category_name":"住宅区","address":"上海市虹口区榆林路119号"},{"poiid":"B2094655D26EA3F94798","title":"大连路260弄小区(西门)","lon":"121.51519","lat":"31.2559","category":"47","category_name":"住宅区","address":"大连路260弄15-23号"},{"poiid":"B2094654D56EA5FF449E","title":"上海手表厂","lon":"121.5175","lat":"31.25486","category":"263","category_name":"公司","address":"平凉路"},{"poiid":"B2094655D36CA3FC4292","title":"榆林路281弄小区(东门)","lon":"121.51836","lat":"31.25557","category":"47","category_name":"住宅区","address":"榆林路281弄"},{"poiid":"B2094757D065A7FB469F","title":"上海市杨浦区天主教爱国会 和平之后圣母堂","lon":"121.5181706","lat":"31.256806937","category":"245","category_name":"教堂","address":"上海杨浦区惠民路692号(近益丰大药房)  和平堂"},{"poiid":"B2094655D26CA6FD489E","title":"榆林路280弄小区(北门)","lon":"121.5185","lat":"31.25515","category":"47","category_name":"住宅区","address":"榆林路280弄"},{"poiid":"B2094655D26FA7FA429F","title":"近胜坊(西门)","lon":"121.51809","lat":"31.25632","category":"47","category_name":"住宅区","address":"景星路490弄"},{"poiid":"B2094757D165AAF8479D","title":"ˋ♥.уo尛囡丶窩窩","lon":"121.514754003","lat":"31.255285006","category":"47","category_name":"住宅区","address":"上海大連路榆林路"},{"poiid":"B2094654D56EA5FF4493","title":"上海表业有限公司营销部","lon":"121.51702","lat":"31.25459","category":"135","category_name":"钟表店","address":""},{"poiid":"B2094655D26BA0F44692","title":"近胜里小区","lon":"121.51849","lat":"31.25417","category":"47","category_name":"住宅区","address":"平凉路245弄"},{"poiid":"B2094753D66AA7F94999","title":"海老寿司","lon":"121.516647","lat":"31.258975","category":"247","category_name":"餐饮美食","address":"上海市 上海市昆明路555号宝地广场"},{"poiid":"B2094655D26CA6FD4899","title":"虹口公安分局交通警察支队二中队","lon":"121.5168","lat":"31.25399","category":"248","category_name":"生活娱乐","address":"榆林路192号"},{"poiid":"B2094655D26CA6FD469C","title":"景星路385弄小区","lon":"121.51866","lat":"31.25462","category":"47","category_name":"住宅区","address":"景星路385弄"},{"poiid":"B2094654D56EA5FA409E","title":"近胜坊","lon":"121.51829","lat":"31.256413","category":"47","category_name":"住宅区","address":"景星路490弄"},{"poiid":"B2094655D264ABF94092","title":"上海春蕾牌手表经营部","lon":"121.51679","lat":"31.25445","category":"135","category_name":"钟表店","address":"榆林路201-2临"},{"poiid":"B2094654D56EA5F9489D","title":"上海市市东小学","lon":"121.51921","lat":"31.25589","category":"56","category_name":"小学","address":"榆林路313"},{"poiid":"B2094757D068A4FD449A","title":"平凉街道社区卫生服务中心","lon":"121.520317959","lat":"31.2547247168","category":"162","category_name":"医院","address":"杨浦区平凉路335号(福禄街平凉路)"}]