[{"poiid":"B2094757D06FA7FD4392","title":"上海工程技术大学(松江校区)","lon":"121.20435571","lat":"31.05668136","category":"52","category_name":"高等院校","address":"松江区松江龙腾路333号"},{"poiid":"B2094655D26FABFC4699","title":"上海工程技术大学图书馆","lon":"121.20449","lat":"31.05704","category":"181","category_name":"图书馆","address":"松江区龙腾路333号上海工程技术大学内"},{"poiid":"B2094757D06FA0F4479A","title":"松江大学城三期寝室","lon":"121.20460969","lat":"31.050815503","category":"253","category_name":"校园生活","address":"上海文汇路800弄"},{"poiid":"B2094655D26BA2FB449D","title":"松江大学城","lon":"121.21218","lat":"31.04941","category":"38","category_name":"公交车站","address":""},{"poiid":"B2094757D06FA3FE439F","title":"松江大学城一期学生公寓","lon":"121.208628196","lat":"31.0513171146","category":"253","category_name":"校园生活","address":"松江区文汇路600号(上海对外贸易学院对面)"},{"poiid":"B2094757D06FA3FB4499","title":"王小姐的店","lon":"121.20830277","lat":"31.049656643","category":"260","category_name":"其他","address":"松江区松江大学城一期文汇路652弄203室(近龙腾路)"},{"poiid":"B2094757D069A0F4419D","title":"东华大学图书馆(松江校区)","lon":"121.213105943","lat":"31.0565057824","category":"253","category_name":"校园生活","address":"松江区人民北路2999号(北翠路人民北路)"},{"poiid":"B2094757D06BABFC489B","title":"松江大学城三期","lon":"121.203803149","lat":"31.0493673889","category":"252","category_name":"楼宇机构","address":"上海文汇路800弄"},{"poiid":"B2094757D06FA3FB4793","title":"东华大学 (松江校区) 第一教学楼","lon":"121.216392517","lat":"31.0574913025","category":"253","category_name":"校园生活","address":"上海松江区人民北路2999号 东华大学内"},{"poiid":"B2094757D069A2FC439A","title":"上海工程技术大学C楼","lon":"121.20699779","lat":"31.054935392","category":"500","category_name":"未知分类","address":"上海工程技术大学C楼"},{"poiid":"B2094757D06FA6FF4593","title":"华东政法大学明法楼东楼","lon":"121.200904846","lat":"31.0555477142","category":"253","category_name":"校园生活","address":"上海近龙源路555号"},{"poiid":"B2094757D068A4F84199","title":"文汇路","lon":"121.202765","lat":"31.049669","category":"260","category_name":"其他","address":"上海市松江区文汇路"},{"poiid":"B2094757D068A7F4459C","title":"RouRou Coffee","lon":"121.208647","lat":"31.049337","category":"260","category_name":"其他","address":"松江区文汇路652弄201室(近龙腾路)"},{"poiid":"B2094757D068A7FB4493","title":"上海工程技術大學教學樓E樓","lon":"121.20913696","lat":"31.056999206","category":"253","category_name":"校园生活","address":"上海龍騰路333號"},{"poiid":"B2094757D66EA7F8429C","title":"阁楼上的猫","lon":"121.205550196","lat":"31.0499700858","category":"260","category_name":"其他","address":"松江区文汇路樱花广场3楼"},{"poiid":"B2094655D26FAAFA469D","title":"上海工程技术大学行政楼","lon":"121.20844","lat":"31.05723","category":"52","category_name":"高等院校","address":"腾飞东路"},{"poiid":"B2094757D068A0F94798","title":"东华大学食堂(松江校区)","lon":"121.21399916","lat":"31.054109358","category":"68","category_name":"快餐厅","address":"松江区松江大学城二期东华大学一食堂"},{"poiid":"B2094757D069A4FE489D","title":"东华大学体育馆","lon":"121.212041857","lat":"31.0542823987","category":"253","category_name":"校园生活","address":"上海市松江区人民北路2999号东华大学内"},{"poiid":"B2094757D069A1F5409A","title":"东华大学锦绣会堂","lon":"121.213003096","lat":"31.0536938654","category":"260","category_name":"其他","address":"上海东华大学内(近一食堂)"},{"poiid":"B2094757D06FA0F9449C","title":"肯德基 KFC (大学城店)","lon":"121.20284","lat":"31.049604","category":"68","category_name":"快餐厅","address":"松江区文汇路818号(近龙源路)"},{"poiid":"B2094757D069A2FA439C","title":"华东政法大学集英楼","lon":"121.20215606","lat":"31.055418014","category":"253","category_name":"校园生活","address":"上海近松江区龙源路555号"},{"poiid":"B2094757D069A6F44899","title":"上海工程技术大学 教学F楼","lon":"121.206471074","lat":"31.0557901524","category":"253","category_name":"校园生活","address":"上海龙腾路333号"},{"poiid":"B2094757D06BA4FF489F","title":"上海工程技术大学体育馆","lon":"121.202497","lat":"31.054414","category":"220","category_name":"运动场所","address":"上海松江区龙腾路333号工程技术大学内"},{"poiid":"B2094757D16BA6F9429F","title":"工程大艺术楼","lon":"121.205250196","lat":"31.0538731693","category":"500","category_name":"未知分类","address":"上海市松江区龙源路"},{"poiid":"B2094757D068A7F5409F","title":"复旦大学上海视觉艺术学院实训楼","lon":"121.20693206","lat":"31.049365997","category":"500","category_name":"未知分类","address":"上海松江区文翔路2200号"},{"poiid":"B2094757D068A5FD459F","title":"华东政法大学汇贤楼","lon":"121.20063781","lat":"31.055269241","category":"253","category_name":"校园生活","address":"上海市松江区龙源路555号附近"},{"poiid":"B2094757D064AAFB429E","title":"华东政法大学明珠楼","lon":"121.2053139","lat":"31.050214021","category":"181","category_name":"图书馆","address":"上海华东政法大学"},{"poiid":"B2094757D06BA5FE4193","title":"上海工程技术大学实训楼1号楼","lon":"121.20179956","lat":"31.060506296","category":"500","category_name":"未知分类","address":"上海工程技术大学实训楼1号楼"},{"poiid":"B2094757D065A0F44693","title":"上海工程技术大学教学楼E楼","lon":"121.209454","lat":"31.056982","category":"253","category_name":"校园生活","address":"上海松江区龙腾路333号教学楼E楼"},{"poiid":"B2094655D26FAAFA4892","title":"东华大学图文信息大楼","lon":"121.21314","lat":"31.05648","category":"52","category_name":"高等院校","address":""},{"poiid":"B2094654DB6EA3FA4293","title":"上海工程技术大学(东门)","lon":"121.20913","lat":"31.05699","category":"52","category_name":"高等院校","address":"松江区龙腾路333"},{"poiid":"B2094757D56DA5FB4992","title":"上海工程技术大学","lon":"121.20855331420898","lat":"31.057933920678824","category":"252","category_name":"楼宇机构","address":"上海 上海市 上海工程技术大学艺术楼"},{"poiid":"B2094655D268A6FD4098","title":"东华大学信息学院","lon":"121.21128","lat":"31.05686","category":"52","category_name":"高等院校","address":""},{"poiid":"B2094655D268A7FD459C","title":"东华大学化学化工与生物工程学院","lon":"121.21073","lat":"31.05758","category":"52","category_name":"高等院校","address":""},{"poiid":"B2094655D268A7FD4592","title":"东华大学纺织学院","lon":"121.21131","lat":"31.05742","category":"52","category_name":"高等院校","address":""},{"poiid":"B2094757D56DA5F84792","title":"MINGS","lon":"121.207947","lat":"31.049933","category":"260","category_name":"其他","address":"松江区文汇路656弄104号(近罗森超市)"},{"poiid":"B2094655D268A7FD459F","title":"东华大学环境学院","lon":"121.21081","lat":"31.05837","category":"52","category_name":"高等院校","address":""},{"poiid":"B2094757D165A4F94199","title":"上海工程技术大学教学楼J楼","lon":"121.209201","lat":"31.0570866","category":"500","category_name":"未知分类","address":"上海龙腾路333号"},{"poiid":"B2094752DA6EA2FF4399","title":"东华大学第二报告厅","lon":"121.20857","lat":"31.058597","category":"500","category_name":"未知分类","address":"上海市 东华大学图文信息中心"},{"poiid":"B2094654DB64A0FC439A","title":"上海工程技术大学(腾飞北路)","lon":"121.20436","lat":"31.05667","category":"52","category_name":"高等院校","address":"松江区龙腾路333"},{"poiid":"B2094757D068A6FF459B","title":"樱花广场","lon":"121.209078","lat":"31.049391","category":"119","category_name":"商场","address":"松江区松江大学城文汇路718号(近1期)"},{"poiid":"B2094655D268A6FD4099","title":"东华大学理学院","lon":"121.21104","lat":"31.0567","category":"671","category_name":"高校中心点","address":""},{"poiid":"B2094655D36CA1F84093","title":"龙腾路","lon":"121.20948","lat":"31.05574","category":"38","category_name":"公交车站","address":""},{"poiid":"B2094655D268A6FD409E","title":"东华大学计算机人文外语学院","lon":"121.21124","lat":"31.05588","category":"52","category_name":"高等院校","address":""},{"poiid":"B2094655D268A7FD459D","title":"东华大学机械学院","lon":"121.21163","lat":"31.0586","category":"52","category_name":"高等院校","address":""},{"poiid":"B2094750DA6EABFE489F","title":"上海工程技术大学教学楼A楼","lon":"121.207946","lat":"31.053899","category":"500","category_name":"未知分类","address":null},{"poiid":"B2094757D165A4FC4399","title":"上海工程技术大学图书馆第五阅览室","lon":"121.20674119","lat":"31.055415202","category":"181","category_name":"图书馆","address":"上海市松江区腾飞北路"},{"poiid":"B2094757D168ABF94392","title":"上海工程技术大学图文信息中心二报","lon":"121.2044568","lat":"31.056795399","category":"500","category_name":"未知分类","address":"上海文汇路"},{"poiid":"B2094654DB64A0FC4192","title":"翔仔好味馆","lon":"121.20716","lat":"31.0496","category":"68","category_name":"快餐厅","address":"松江区文汇路686号(近MZONE)"},{"poiid":"B2094757D06BA5FD409A","title":"东北一家人","lon":"121.20223","lat":"31.04942","category":"82","category_name":"东北菜","address":"松江区文汇路818号2楼(近三期公寓)"},{"poiid":"B2094757D06FA7FD4392","title":"上海工程技术大学(松江校区)","lon":"121.20435571","lat":"31.05668136","category":"52","category_name":"高等院校","address":"松江区松江龙腾路333号"},{"poiid":"B2094655D26FABFC4699","title":"上海工程技术大学图书馆","lon":"121.20449","lat":"31.05704","category":"181","category_name":"图书馆","address":"松江区龙腾路333号上海工程技术大学内"},{"poiid":"B2094757D06FA0F4479A","title":"松江大学城三期寝室","lon":"121.20460969","lat":"31.050815503","category":"253","category_name":"校园生活","address":"上海文汇路800弄"},{"poiid":"B2094655D26BA2FB449D","title":"松江大学城","lon":"121.21218","lat":"31.04941","category":"38","category_name":"公交车站","address":""},{"poiid":"B2094757D06FA3FE439F","title":"松江大学城一期学生公寓","lon":"121.208628196","lat":"31.0513171146","category":"253","category_name":"校园生活","address":"松江区文汇路600号(上海对外贸易学院对面)"},{"poiid":"B2094757D06FA3FB4499","title":"王小姐的店","lon":"121.20830277","lat":"31.049656643","category":"260","category_name":"其他","address":"松江区松江大学城一期文汇路652弄203室(近龙腾路)"},{"poiid":"B2094757D069A0F4419D","title":"东华大学图书馆(松江校区)","lon":"121.213105943","lat":"31.0565057824","category":"253","category_name":"校园生活","address":"松江区人民北路2999号(北翠路人民北路)"},{"poiid":"B2094757D06BABFC489B","title":"松江大学城三期","lon":"121.203803149","lat":"31.0493673889","category":"252","category_name":"楼宇机构","address":"上海文汇路800弄"},{"poiid":"B2094757D06FA3FB4793","title":"东华大学 (松江校区) 第一教学楼","lon":"121.216392517","lat":"31.0574913025","category":"253","category_name":"校园生活","address":"上海松江区人民北路2999号 东华大学内"},{"poiid":"B2094757D069A2FC439A","title":"上海工程技术大学C楼","lon":"121.20699779","lat":"31.054935392","category":"500","category_name":"未知分类","address":"上海工程技术大学C楼"},{"poiid":"B2094757D06FA6FF4593","title":"华东政法大学明法楼东楼","lon":"121.200904846","lat":"31.0555477142","category":"253","category_name":"校园生活","address":"上海近龙源路555号"},{"poiid":"B2094757D068A4F84199","title":"文汇路","lon":"121.202765","lat":"31.049669","category":"260","category_name":"其他","address":"上海市松江区文汇路"},{"poiid":"B2094757D068A7F4459C","title":"RouRou Coffee","lon":"121.208647","lat":"31.049337","category":"260","category_name":"其他","address":"松江区文汇路652弄201室(近龙腾路)"},{"poiid":"B2094757D068A7FB4493","title":"上海工程技術大學教學樓E樓","lon":"121.20913696","lat":"31.056999206","category":"253","category_name":"校园生活","address":"上海龍騰路333號"},{"poiid":"B2094757D66EA7F8429C","title":"阁楼上的猫","lon":"121.205550196","lat":"31.0499700858","category":"260","category_name":"其他","address":"松江区文汇路樱花广场3楼"},{"poiid":"B2094655D26FAAFA469D","title":"上海工程技术大学行政楼","lon":"121.20844","lat":"31.05723","category":"52","category_name":"高等院校","address":"腾飞东路"},{"poiid":"B2094757D068A0F94798","title":"东华大学食堂(松江校区)","lon":"121.21399916","lat":"31.054109358","category":"68","category_name":"快餐厅","address":"松江区松江大学城二期东华大学一食堂"},{"poiid":"B2094757D069A4FE489D","title":"东华大学体育馆","lon":"121.212041857","lat":"31.0542823987","category":"253","category_name":"校园生活","address":"上海市松江区人民北路2999号东华大学内"},{"poiid":"B2094757D069A1F5409A","title":"东华大学锦绣会堂","lon":"121.213003096","lat":"31.0536938654","category":"260","category_name":"其他","address":"上海东华大学内(近一食堂)"},{"poiid":"B2094757D06FA0F9449C","title":"肯德基 KFC (大学城店)","lon":"121.20284","lat":"31.049604","category":"68","category_name":"快餐厅","address":"松江区文汇路818号(近龙源路)"},{"poiid":"B2094757D069A2FA439C","title":"华东政法大学集英楼","lon":"121.20215606","lat":"31.055418014","category":"253","category_name":"校园生活","address":"上海近松江区龙源路555号"},{"poiid":"B2094757D069A6F44899","title":"上海工程技术大学 教学F楼","lon":"121.206471074","lat":"31.0557901524","category":"253","category_name":"校园生活","address":"上海龙腾路333号"},{"poiid":"B2094757D06BA4FF489F","title":"上海工程技术大学体育馆","lon":"121.202497","lat":"31.054414","category":"220","category_name":"运动场所","address":"上海松江区龙腾路333号工程技术大学内"},{"poiid":"B2094757D16BA6F9429F","title":"工程大艺术楼","lon":"121.205250196","lat":"31.0538731693","category":"500","category_name":"未知分类","address":"上海市松江区龙源路"},{"poiid":"B2094757D068A7F5409F","title":"复旦大学上海视觉艺术学院实训楼","lon":"121.20693206","lat":"31.049365997","category":"500","category_name":"未知分类","address":"上海松江区文翔路2200号"},{"poiid":"B2094757D068A5FD459F","title":"华东政法大学汇贤楼","lon":"121.20063781","lat":"31.055269241","category":"253","category_name":"校园生活","address":"上海市松江区龙源路555号附近"},{"poiid":"B2094757D064AAFB429E","title":"华东政法大学明珠楼","lon":"121.2053139","lat":"31.050214021","category":"181","category_name":"图书馆","address":"上海华东政法大学"},{"poiid":"B2094757D06BA5FE4193","title":"上海工程技术大学实训楼1号楼","lon":"121.20179956","lat":"31.060506296","category":"500","category_name":"未知分类","address":"上海工程技术大学实训楼1号楼"},{"poiid":"B2094757D065A0F44693","title":"上海工程技术大学教学楼E楼","lon":"121.209454","lat":"31.056982","category":"253","category_name":"校园生活","address":"上海松江区龙腾路333号教学楼E楼"},{"poiid":"B2094655D26FAAFA4892","title":"东华大学图文信息大楼","lon":"121.21314","lat":"31.05648","category":"52","category_name":"高等院校","address":""},{"poiid":"B2094654DB6EA3FA4293","title":"上海工程技术大学(东门)","lon":"121.20913","lat":"31.05699","category":"52","category_name":"高等院校","address":"松江区龙腾路333"},{"poiid":"B2094757D56DA5FB4992","title":"上海工程技术大学","lon":"121.20855331420898","lat":"31.057933920678824","category":"252","category_name":"楼宇机构","address":"上海 上海市 上海工程技术大学艺术楼"},{"poiid":"B2094655D268A6FD4098","title":"东华大学信息学院","lon":"121.21128","lat":"31.05686","category":"52","category_name":"高等院校","address":""},{"poiid":"B2094655D268A7FD459C","title":"东华大学化学化工与生物工程学院","lon":"121.21073","lat":"31.05758","category":"52","category_name":"高等院校","address":""},{"poiid":"B2094655D268A7FD4592","title":"东华大学纺织学院","lon":"121.21131","lat":"31.05742","category":"52","category_name":"高等院校","address":""},{"poiid":"B2094757D56DA5F84792","title":"MINGS","lon":"121.207947","lat":"31.049933","category":"260","category_name":"其他","address":"松江区文汇路656弄104号(近罗森超市)"},{"poiid":"B2094655D268A7FD459F","title":"东华大学环境学院","lon":"121.21081","lat":"31.05837","category":"52","category_name":"高等院校","address":""},{"poiid":"B2094757D165A4F94199","title":"上海工程技术大学教学楼J楼","lon":"121.209201","lat":"31.0570866","category":"500","category_name":"未知分类","address":"上海龙腾路333号"},{"poiid":"B2094752DA6EA2FF4399","title":"东华大学第二报告厅","lon":"121.20857","lat":"31.058597","category":"500","category_name":"未知分类","address":"上海市 东华大学图文信息中心"},{"poiid":"B2094654DB64A0FC439A","title":"上海工程技术大学(腾飞北路)","lon":"121.20436","lat":"31.05667","category":"52","category_name":"高等院校","address":"松江区龙腾路333"},{"poiid":"B2094757D068A6FF459B","title":"樱花广场","lon":"121.209078","lat":"31.049391","category":"119","category_name":"商场","address":"松江区松江大学城文汇路718号(近1期)"},{"poiid":"B2094655D268A6FD4099","title":"东华大学理学院","lon":"121.21104","lat":"31.0567","category":"671","category_name":"高校中心点","address":""},{"poiid":"B2094655D36CA1F84093","title":"龙腾路","lon":"121.20948","lat":"31.05574","category":"38","category_name":"公交车站","address":""},{"poiid":"B2094655D268A6FD409E","title":"东华大学计算机人文外语学院","lon":"121.21124","lat":"31.05588","category":"52","category_name":"高等院校","address":""},{"poiid":"B2094655D268A7FD459D","title":"东华大学机械学院","lon":"121.21163","lat":"31.0586","category":"52","category_name":"高等院校","address":""},{"poiid":"B2094750DA6EABFE489F","title":"上海工程技术大学教学楼A楼","lon":"121.207946","lat":"31.053899","category":"500","category_name":"未知分类","address":null},{"poiid":"B2094757D165A4FC4399","title":"上海工程技术大学图书馆第五阅览室","lon":"121.20674119","lat":"31.055415202","category":"181","category_name":"图书馆","address":"上海市松江区腾飞北路"},{"poiid":"B2094757D168ABF94392","title":"上海工程技术大学图文信息中心二报","lon":"121.2044568","lat":"31.056795399","category":"500","category_name":"未知分类","address":"上海文汇路"},{"poiid":"B2094654DB64A0FC4192","title":"翔仔好味馆","lon":"121.20716","lat":"31.0496","category":"68","category_name":"快餐厅","address":"松江区文汇路686号(近MZONE)"},{"poiid":"B2094757D06BA5FD409A","title":"东北一家人","lon":"121.20223","lat":"31.04942","category":"82","category_name":"东北菜","address":"松江区文汇路818号2楼(近三期公寓)"},{"poiid":"B2094757D06FA7FD4392","title":"上海工程技术大学(松江校区)","lon":"121.20435571","lat":"31.05668136","category":"52","category_name":"高等院校","address":"松江区松江龙腾路333号"},{"poiid":"B2094655D26FABFC4699","title":"上海工程技术大学图书馆","lon":"121.20449","lat":"31.05704","category":"181","category_name":"图书馆","address":"松江区龙腾路333号上海工程技术大学内"},{"poiid":"B2094757D06FA0F4479A","title":"松江大学城三期寝室","lon":"121.20460969","lat":"31.050815503","category":"253","category_name":"校园生活","address":"上海文汇路800弄"},{"poiid":"B2094655D26BA2FB449D","title":"松江大学城","lon":"121.21218","lat":"31.04941","category":"38","category_name":"公交车站","address":""},{"poiid":"B2094757D06FA3FE439F","title":"松江大学城一期学生公寓","lon":"121.208628196","lat":"31.0513171146","category":"253","category_name":"校园生活","address":"松江区文汇路600号(上海对外贸易学院对面)"},{"poiid":"B2094757D06FA3FB4499","title":"王小姐的店","lon":"121.20830277","lat":"31.049656643","category":"260","category_name":"其他","address":"松江区松江大学城一期文汇路652弄203室(近龙腾路)"},{"poiid":"B2094757D069A0F4419D","title":"东华大学图书馆(松江校区)","lon":"121.213105943","lat":"31.0565057824","category":"253","category_name":"校园生活","address":"松江区人民北路2999号(北翠路人民北路)"},{"poiid":"B2094757D06BABFC489B","title":"松江大学城三期","lon":"121.203803149","lat":"31.0493673889","category":"252","category_name":"楼宇机构","address":"上海文汇路800弄"},{"poiid":"B2094757D06FA3FB4793","title":"东华大学 (松江校区) 第一教学楼","lon":"121.216392517","lat":"31.0574913025","category":"253","category_name":"校园生活","address":"上海松江区人民北路2999号 东华大学内"},{"poiid":"B2094757D069A2FC439A","title":"上海工程技术大学C楼","lon":"121.20699779","lat":"31.054935392","category":"500","category_name":"未知分类","address":"上海工程技术大学C楼"},{"poiid":"B2094757D06FA6FF4593","title":"华东政法大学明法楼东楼","lon":"121.200904846","lat":"31.0555477142","category":"253","category_name":"校园生活","address":"上海近龙源路555号"},{"poiid":"B2094757D068A4F84199","title":"文汇路","lon":"121.202765","lat":"31.049669","category":"260","category_name":"其他","address":"上海市松江区文汇路"},{"poiid":"B2094757D068A7F4459C","title":"RouRou Coffee","lon":"121.208647","lat":"31.049337","category":"260","category_name":"其他","address":"松江区文汇路652弄201室(近龙腾路)"},{"poiid":"B2094757D068A7FB4493","title":"上海工程技術大學教學樓E樓","lon":"121.20913696","lat":"31.056999206","category":"253","category_name":"校园生活","address":"上海龍騰路333號"},{"poiid":"B2094757D66EA7F8429C","title":"阁楼上的猫","lon":"121.205550196","lat":"31.0499700858","category":"260","category_name":"其他","address":"松江区文汇路樱花广场3楼"},{"poiid":"B2094655D26FAAFA469D","title":"上海工程技术大学行政楼","lon":"121.20844","lat":"31.05723","category":"52","category_name":"高等院校","address":"腾飞东路"},{"poiid":"B2094757D068A0F94798","title":"东华大学食堂(松江校区)","lon":"121.21399916","lat":"31.054109358","category":"68","category_name":"快餐厅","address":"松江区松江大学城二期东华大学一食堂"},{"poiid":"B2094757D069A4FE489D","title":"东华大学体育馆","lon":"121.212041857","lat":"31.0542823987","category":"253","category_name":"校园生活","address":"上海市松江区人民北路2999号东华大学内"},{"poiid":"B2094757D069A1F5409A","title":"东华大学锦绣会堂","lon":"121.213003096","lat":"31.0536938654","category":"260","category_name":"其他","address":"上海东华大学内(近一食堂)"},{"poiid":"B2094757D06FA0F9449C","title":"肯德基 KFC (大学城店)","lon":"121.20284","lat":"31.049604","category":"68","category_name":"快餐厅","address":"松江区文汇路818号(近龙源路)"},{"poiid":"B2094757D069A2FA439C","title":"华东政法大学集英楼","lon":"121.20215606","lat":"31.055418014","category":"253","category_name":"校园生活","address":"上海近松江区龙源路555号"},{"poiid":"B2094757D069A6F44899","title":"上海工程技术大学 教学F楼","lon":"121.206471074","lat":"31.0557901524","category":"253","category_name":"校园生活","address":"上海龙腾路333号"},{"poiid":"B2094757D06BA4FF489F","title":"上海工程技术大学体育馆","lon":"121.202497","lat":"31.054414","category":"220","category_name":"运动场所","address":"上海松江区龙腾路333号工程技术大学内"},{"poiid":"B2094757D16BA6F9429F","title":"工程大艺术楼","lon":"121.205250196","lat":"31.0538731693","category":"500","category_name":"未知分类","address":"上海市松江区龙源路"},{"poiid":"B2094757D068A7F5409F","title":"复旦大学上海视觉艺术学院实训楼","lon":"121.20693206","lat":"31.049365997","category":"500","category_name":"未知分类","address":"上海松江区文翔路2200号"},{"poiid":"B2094757D068A5FD459F","title":"华东政法大学汇贤楼","lon":"121.20063781","lat":"31.055269241","category":"253","category_name":"校园生活","address":"上海市松江区龙源路555号附近"},{"poiid":"B2094757D064AAFB429E","title":"华东政法大学明珠楼","lon":"121.2053139","lat":"31.050214021","category":"181","category_name":"图书馆","address":"上海华东政法大学"},{"poiid":"B2094757D06BA5FE4193","title":"上海工程技术大学实训楼1号楼","lon":"121.20179956","lat":"31.060506296","category":"500","category_name":"未知分类","address":"上海工程技术大学实训楼1号楼"},{"poiid":"B2094757D065A0F44693","title":"上海工程技术大学教学楼E楼","lon":"121.209454","lat":"31.056982","category":"253","category_name":"校园生活","address":"上海松江区龙腾路333号教学楼E楼"},{"poiid":"B2094655D26FAAFA4892","title":"东华大学图文信息大楼","lon":"121.21314","lat":"31.05648","category":"52","category_name":"高等院校","address":""},{"poiid":"B2094654DB6EA3FA4293","title":"上海工程技术大学(东门)","lon":"121.20913","lat":"31.05699","category":"52","category_name":"高等院校","address":"松江区龙腾路333"},{"poiid":"B2094757D56DA5FB4992","title":"上海工程技术大学","lon":"121.20855331420898","lat":"31.057933920678824","category":"252","category_name":"楼宇机构","address":"上海 上海市 上海工程技术大学艺术楼"},{"poiid":"B2094655D268A6FD4098","title":"东华大学信息学院","lon":"121.21128","lat":"31.05686","category":"52","category_name":"高等院校","address":""},{"poiid":"B2094655D268A7FD459C","title":"东华大学化学化工与生物工程学院","lon":"121.21073","lat":"31.05758","category":"52","category_name":"高等院校","address":""},{"poiid":"B2094655D268A7FD4592","title":"东华大学纺织学院","lon":"121.21131","lat":"31.05742","category":"52","category_name":"高等院校","address":""},{"poiid":"B2094757D56DA5F84792","title":"MINGS","lon":"121.207947","lat":"31.049933","category":"260","category_name":"其他","address":"松江区文汇路656弄104号(近罗森超市)"},{"poiid":"B2094655D268A7FD459F","title":"东华大学环境学院","lon":"121.21081","lat":"31.05837","category":"52","category_name":"高等院校","address":""},{"poiid":"B2094757D165A4F94199","title":"上海工程技术大学教学楼J楼","lon":"121.209201","lat":"31.0570866","category":"500","category_name":"未知分类","address":"上海龙腾路333号"},{"poiid":"B2094752DA6EA2FF4399","title":"东华大学第二报告厅","lon":"121.20857","lat":"31.058597","category":"500","category_name":"未知分类","address":"上海市 东华大学图文信息中心"},{"poiid":"B2094654DB64A0FC439A","title":"上海工程技术大学(腾飞北路)","lon":"121.20436","lat":"31.05667","category":"52","category_name":"高等院校","address":"松江区龙腾路333"},{"poiid":"B2094757D068A6FF459B","title":"樱花广场","lon":"121.209078","lat":"31.049391","category":"119","category_name":"商场","address":"松江区松江大学城文汇路718号(近1期)"},{"poiid":"B2094655D268A6FD4099","title":"东华大学理学院","lon":"121.21104","lat":"31.0567","category":"671","category_name":"高校中心点","address":""},{"poiid":"B2094655D36CA1F84093","title":"龙腾路","lon":"121.20948","lat":"31.05574","category":"38","category_name":"公交车站","address":""},{"poiid":"B2094655D268A6FD409E","title":"东华大学计算机人文外语学院","lon":"121.21124","lat":"31.05588","category":"52","category_name":"高等院校","address":""},{"poiid":"B2094655D268A7FD459D","title":"东华大学机械学院","lon":"121.21163","lat":"31.0586","category":"52","category_name":"高等院校","address":""},{"poiid":"B2094750DA6EABFE489F","title":"上海工程技术大学教学楼A楼","lon":"121.207946","lat":"31.053899","category":"500","category_name":"未知分类","address":null},{"poiid":"B2094757D165A4FC4399","title":"上海工程技术大学图书馆第五阅览室","lon":"121.20674119","lat":"31.055415202","category":"181","category_name":"图书馆","address":"上海市松江区腾飞北路"},{"poiid":"B2094757D168ABF94392","title":"上海工程技术大学图文信息中心二报","lon":"121.2044568","lat":"31.056795399","category":"500","category_name":"未知分类","address":"上海文汇路"},{"poiid":"B2094654DB64A0FC4192","title":"翔仔好味馆","lon":"121.20716","lat":"31.0496","category":"68","category_name":"快餐厅","address":"松江区文汇路686号(近MZONE)"},{"poiid":"B2094757D06BA5FD409A","title":"东北一家人","lon":"121.20223","lat":"31.04942","category":"82","category_name":"东北菜","address":"松江区文汇路818号2楼(近三期公寓)"},{"poiid":"B2094757D06FA7FD4392","title":"上海工程技术大学(松江校区)","lon":"121.20435571","lat":"31.05668136","category":"52","category_name":"高等院校","address":"松江区松江龙腾路333号"},{"poiid":"B2094655D26FABFC4699","title":"上海工程技术大学图书馆","lon":"121.20449","lat":"31.05704","category":"181","category_name":"图书馆","address":"松江区龙腾路333号上海工程技术大学内"},{"poiid":"B2094757D06FA0F4479A","title":"松江大学城三期寝室","lon":"121.20460969","lat":"31.050815503","category":"253","category_name":"校园生活","address":"上海文汇路800弄"},{"poiid":"B2094655D26BA2FB449D","title":"松江大学城","lon":"121.21218","lat":"31.04941","category":"38","category_name":"公交车站","address":""},{"poiid":"B2094757D06FA3FE439F","title":"松江大学城一期学生公寓","lon":"121.208628196","lat":"31.0513171146","category":"253","category_name":"校园生活","address":"松江区文汇路600号(上海对外贸易学院对面)"},{"poiid":"B2094757D06FA3FB4499","title":"王小姐的店","lon":"121.20830277","lat":"31.049656643","category":"260","category_name":"其他","address":"松江区松江大学城一期文汇路652弄203室(近龙腾路)"},{"poiid":"B2094757D069A0F4419D","title":"东华大学图书馆(松江校区)","lon":"121.213105943","lat":"31.0565057824","category":"253","category_name":"校园生活","address":"松江区人民北路2999号(北翠路人民北路)"},{"poiid":"B2094757D06BABFC489B","title":"松江大学城三期","lon":"121.203803149","lat":"31.0493673889","category":"252","category_name":"楼宇机构","address":"上海文汇路800弄"},{"poiid":"B2094757D06FA3FB4793","title":"东华大学 (松江校区) 第一教学楼","lon":"121.216392517","lat":"31.0574913025","category":"253","category_name":"校园生活","address":"上海松江区人民北路2999号 东华大学内"},{"poiid":"B2094757D069A2FC439A","title":"上海工程技术大学C楼","lon":"121.20699779","lat":"31.054935392","category":"500","category_name":"未知分类","address":"上海工程技术大学C楼"},{"poiid":"B2094757D06FA6FF4593","title":"华东政法大学明法楼东楼","lon":"121.200904846","lat":"31.0555477142","category":"253","category_name":"校园生活","address":"上海近龙源路555号"},{"poiid":"B2094757D068A4F84199","title":"文汇路","lon":"121.202765","lat":"31.049669","category":"260","category_name":"其他","address":"上海市松江区文汇路"},{"poiid":"B2094757D068A7F4459C","title":"RouRou Coffee","lon":"121.208647","lat":"31.049337","category":"260","category_name":"其他","address":"松江区文汇路652弄201室(近龙腾路)"},{"poiid":"B2094757D068A7FB4493","title":"上海工程技術大學教學樓E樓","lon":"121.20913696","lat":"31.056999206","category":"253","category_name":"校园生活","address":"上海龍騰路333號"},{"poiid":"B2094757D66EA7F8429C","title":"阁楼上的猫","lon":"121.205550196","lat":"31.0499700858","category":"260","category_name":"其他","address":"松江区文汇路樱花广场3楼"},{"poiid":"B2094655D26FAAFA469D","title":"上海工程技术大学行政楼","lon":"121.20844","lat":"31.05723","category":"52","category_name":"高等院校","address":"腾飞东路"},{"poiid":"B2094757D068A0F94798","title":"东华大学食堂(松江校区)","lon":"121.21399916","lat":"31.054109358","category":"68","category_name":"快餐厅","address":"松江区松江大学城二期东华大学一食堂"},{"poiid":"B2094757D069A4FE489D","title":"东华大学体育馆","lon":"121.212041857","lat":"31.0542823987","category":"253","category_name":"校园生活","address":"上海市松江区人民北路2999号东华大学内"},{"poiid":"B2094757D069A1F5409A","title":"东华大学锦绣会堂","lon":"121.213003096","lat":"31.0536938654","category":"260","category_name":"其他","address":"上海东华大学内(近一食堂)"},{"poiid":"B2094757D06FA0F9449C","title":"肯德基 KFC (大学城店)","lon":"121.20284","lat":"31.049604","category":"68","category_name":"快餐厅","address":"松江区文汇路818号(近龙源路)"},{"poiid":"B2094757D069A2FA439C","title":"华东政法大学集英楼","lon":"121.20215606","lat":"31.055418014","category":"253","category_name":"校园生活","address":"上海近松江区龙源路555号"},{"poiid":"B2094757D069A6F44899","title":"上海工程技术大学 教学F楼","lon":"121.206471074","lat":"31.0557901524","category":"253","category_name":"校园生活","address":"上海龙腾路333号"},{"poiid":"B2094757D06BA4FF489F","title":"上海工程技术大学体育馆","lon":"121.202497","lat":"31.054414","category":"220","category_name":"运动场所","address":"上海松江区龙腾路333号工程技术大学内"},{"poiid":"B2094757D16BA6F9429F","title":"工程大艺术楼","lon":"121.205250196","lat":"31.0538731693","category":"500","category_name":"未知分类","address":"上海市松江区龙源路"},{"poiid":"B2094757D068A7F5409F","title":"复旦大学上海视觉艺术学院实训楼","lon":"121.20693206","lat":"31.049365997","category":"500","category_name":"未知分类","address":"上海松江区文翔路2200号"},{"poiid":"B2094757D068A5FD459F","title":"华东政法大学汇贤楼","lon":"121.20063781","lat":"31.055269241","category":"253","category_name":"校园生活","address":"上海市松江区龙源路555号附近"},{"poiid":"B2094757D064AAFB429E","title":"华东政法大学明珠楼","lon":"121.2053139","lat":"31.050214021","category":"181","category_name":"图书馆","address":"上海华东政法大学"},{"poiid":"B2094757D06BA5FE4193","title":"上海工程技术大学实训楼1号楼","lon":"121.20179956","lat":"31.060506296","category":"500","category_name":"未知分类","address":"上海工程技术大学实训楼1号楼"},{"poiid":"B2094757D065A0F44693","title":"上海工程技术大学教学楼E楼","lon":"121.209454","lat":"31.056982","category":"253","category_name":"校园生活","address":"上海松江区龙腾路333号教学楼E楼"},{"poiid":"B2094655D26FAAFA4892","title":"东华大学图文信息大楼","lon":"121.21314","lat":"31.05648","category":"52","category_name":"高等院校","address":""},{"poiid":"B2094654DB6EA3FA4293","title":"上海工程技术大学(东门)","lon":"121.20913","lat":"31.05699","category":"52","category_name":"高等院校","address":"松江区龙腾路333"},{"poiid":"B2094757D56DA5FB4992","title":"上海工程技术大学","lon":"121.20855331420898","lat":"31.057933920678824","category":"252","category_name":"楼宇机构","address":"上海 上海市 上海工程技术大学艺术楼"},{"poiid":"B2094655D268A6FD4098","title":"东华大学信息学院","lon":"121.21128","lat":"31.05686","category":"52","category_name":"高等院校","address":""},{"poiid":"B2094655D268A7FD459C","title":"东华大学化学化工与生物工程学院","lon":"121.21073","lat":"31.05758","category":"52","category_name":"高等院校","address":""},{"poiid":"B2094655D268A7FD4592","title":"东华大学纺织学院","lon":"121.21131","lat":"31.05742","category":"52","category_name":"高等院校","address":""},{"poiid":"B2094757D56DA5F84792","title":"MINGS","lon":"121.207947","lat":"31.049933","category":"260","category_name":"其他","address":"松江区文汇路656弄104号(近罗森超市)"},{"poiid":"B2094655D268A7FD459F","title":"东华大学环境学院","lon":"121.21081","lat":"31.05837","category":"52","category_name":"高等院校","address":""},{"poiid":"B2094757D165A4F94199","title":"上海工程技术大学教学楼J楼","lon":"121.209201","lat":"31.0570866","category":"500","category_name":"未知分类","address":"上海龙腾路333号"},{"poiid":"B2094752DA6EA2FF4399","title":"东华大学第二报告厅","lon":"121.20857","lat":"31.058597","category":"500","category_name":"未知分类","address":"上海市 东华大学图文信息中心"},{"poiid":"B2094654DB64A0FC439A","title":"上海工程技术大学(腾飞北路)","lon":"121.20436","lat":"31.05667","category":"52","category_name":"高等院校","address":"松江区龙腾路333"},{"poiid":"B2094757D068A6FF459B","title":"樱花广场","lon":"121.209078","lat":"31.049391","category":"119","category_name":"商场","address":"松江区松江大学城文汇路718号(近1期)"},{"poiid":"B2094655D268A6FD4099","title":"东华大学理学院","lon":"121.21104","lat":"31.0567","category":"671","category_name":"高校中心点","address":""},{"poiid":"B2094655D36CA1F84093","title":"龙腾路","lon":"121.20948","lat":"31.05574","category":"38","category_name":"公交车站","address":""},{"poiid":"B2094655D268A6FD409E","title":"东华大学计算机人文外语学院","lon":"121.21124","lat":"31.05588","category":"52","category_name":"高等院校","address":""},{"poiid":"B2094655D268A7FD459D","title":"东华大学机械学院","lon":"121.21163","lat":"31.0586","category":"52","category_name":"高等院校","address":""},{"poiid":"B2094750DA6EABFE489F","title":"上海工程技术大学教学楼A楼","lon":"121.207946","lat":"31.053899","category":"500","category_name":"未知分类","address":null},{"poiid":"B2094757D165A4FC4399","title":"上海工程技术大学图书馆第五阅览室","lon":"121.20674119","lat":"31.055415202","category":"181","category_name":"图书馆","address":"上海市松江区腾飞北路"},{"poiid":"B2094757D168ABF94392","title":"上海工程技术大学图文信息中心二报","lon":"121.2044568","lat":"31.056795399","category":"500","category_name":"未知分类","address":"上海文汇路"},{"poiid":"B2094654DB64A0FC4192","title":"翔仔好味馆","lon":"121.20716","lat":"31.0496","category":"68","category_name":"快餐厅","address":"松江区文汇路686号(近MZONE)"},{"poiid":"B2094757D06BA5FD409A","title":"东北一家人","lon":"121.20223","lat":"31.04942","category":"82","category_name":"东北菜","address":"松江区文汇路818号2楼(近三期公寓)"}]