[{"poiid":"B2094654DB64A4FC449E","title":"三人行骨头王火锅(浙江路店)","lon":"121.48163","lat":"31.22993","category":"86","category_name":"火锅店","address":"黄浦区浙江南路8号(近延安东路)"},{"poiid":"B2094654DB69A4F4479D","title":"纯k（浙江路店）","lon":"121.48193","lat":"31.22918","category":"170","category_name":"KTV","address":"黄浦区浙江南路68号(近宁海东路)"},{"poiid":"B2094750DA68ABFE4898","title":"台北纯K(浙江路店)","lon":"121.482363726181","lat":"31.2290736899797","category":"170","category_name":"KTV","address":"黄浦区浙江南路68号(宁海东路口)"},{"poiid":"B2094753D76FAAFA449C","title":"上海滩国泰旗舰店","lon":"121.466011","lat":"31.216125","category":"249","category_name":"购物服务","address":"淮海中路868号"},{"poiid":"B209475CD564A7F84292","title":"上海滩新天地店","lon":"121.47463","lat":"31.22164","category":"119","category_name":"商场","address":"\"太仓路181弄新天地北里15号\r\n\""},{"poiid":"B209475CD564A7F8439E","title":"上海滩中信泰富店","lon":"121.45602","lat":"31.22851","category":"119","category_name":"商场","address":"\"南京西路1168号中信泰富广场，店铺号221.\r\n\""},{"poiid":"B209475CD564A7F84392","title":"上海滩浦东香格里拉店","lon":"121.50058","lat":"31.23634","category":"119","category_name":"商场","address":"浦东富成路33号香格里拉酒店内大堂层"},{"poiid":"B2094654DA6EAAFD479A","title":"力宝广场","lon":"121.482","lat":"31.2305","category":"119","category_name":"商场","address":"卢湾区淮海中路222号(近嵩山路)"},{"poiid":"B2094757D06FABFF459C","title":"外灘","lon":"121.48152573","lat":"31.231372324","category":"500","category_name":"未知分类","address":"上海市黄浦区汉口路"},{"poiid":"B2094654DA6FAAFF459A","title":"海洋大厦","lon":"121.48151","lat":"31.23078","category":"46","category_name":"楼宇","address":"丰台学城海鹰路1号,3号"},{"poiid":"B2094757D06FA4FB469B","title":"金外滩宾馆","lon":"121.48184","lat":"31.23174","category":"217","category_name":"旅馆招待所","address":"黄浦区广东路525号金外滩宾馆6楼(湖北路口)查看地图"},{"poiid":"B2094757D06FA2FA439D","title":"德兴馆","lon":"121.48226928","lat":"31.232244491","category":"257","category_name":"中餐厅","address":"上海福建路"},{"poiid":"B2094757D06FA3FE459E","title":"沈家门兰嫂海鲜面(福建中路一店)","lon":"121.48276","lat":"31.23214","category":"88","category_name":"海鲜酒楼","address":"黄浦区福建中路120号(近福州路)"},{"poiid":"B2094757D06FA2FC4092","title":"东海商业中心","lon":"121.47998046","lat":"31.23007965","category":"46","category_name":"楼宇","address":"黄浦区延安东路588号(近湖北路)"},{"poiid":"B2094757D06FA4F9429A","title":"金陵大厦","lon":"121.48","lat":"31.2303","category":"46","category_name":"楼宇","address":"浦东区崂山东路410号"},{"poiid":"B2094757D76EAAFC499F","title":"星巴克 东海店 Starbucks Cafe","lon":"121.48056286686","lat":"31.230016324823","category":"260","category_name":"其他","address":"黄浦区延安东路588号(延安东路永寿路)"},{"poiid":"B2094757D068A6FF4598","title":"延福绿地篮球场","lon":"121.48202","lat":"31.22915","category":"220","category_name":"运动场所","address":"黄浦区延安东路(近福建南路)"},{"poiid":"B2094757D16DA6F5449E","title":"MINT Club","lon":"121.481183738","lat":"31.2311953207","category":"500","category_name":"未知分类","address":"上海ShanghaiHuangpuHankou Rd"},{"poiid":"B2094757D06FA5F94992","title":"游人馆 桌面游戏 游乐场","lon":"121.48209669","lat":"31.230753554","category":"175","category_name":"棋牌室","address":"黄浦区湖北路20号中信福申大楼2楼A室(近上海书城)"},{"poiid":"B2094757D064A2FC419D","title":"避風塘","lon":"121.481941636","lat":"31.2304952344","category":"500","category_name":"未知分类","address":"上海福州路666號"},{"poiid":"B2094757D165A2FF4398","title":"黄浦区","lon":"121.482597239","lat":"31.2320581764","category":"250","category_name":"公园户外","address":"上海黄浦区区域"},{"poiid":"B2094757D16DA6FB439D","title":"石锅鱼","lon":"121.48094073","lat":"31.231237321","category":"71","category_name":"四川菜","address":"黄浦区海口路3号(近浙江中路)"},{"poiid":"B2094757D068A3FA469F","title":"巴黎贝甜 湖北路店 Paris Baguette","lon":"121.480870054","lat":"31.232799793","category":"67","category_name":"甜品店","address":"黄浦区湖北路131号(近福州路)"},{"poiid":"B2094757D065AAF44899","title":"上海博物館","lon":"121.480607","lat":"31.229964","category":"500","category_name":"未知分类","address":"上海延安路高架下"},{"poiid":"B2094757D068A0FF489A","title":"格致中学羽毛球馆","lon":"121.480135656","lat":"31.2308425552","category":"253","category_name":"校园生活","address":"上海黄浦区北海路150号5楼(广西路口)"},{"poiid":"B2094757D06AA3FA419A","title":"大壶春(浙江中路店)","lon":"121.48031","lat":"31.23183","category":"68","category_name":"快餐厅","address":"黄浦区浙江中路117号(近广东路)"},{"poiid":"B2094757D06BA4FA4798","title":"浙江电影院","lon":"121.479819","lat":"31.232088","category":"178","category_name":"电影院","address":"黄浦区浙江中路123号(近广东路)"},{"poiid":"B2094757D06FAAFA4393","title":"格致中学游泳池","lon":"121.47967","lat":"31.23032","category":"253","category_name":"校园生活","address":"黄浦区广西北路66号(近宁海路)"},{"poiid":"B209475CDA69ABF8439D","title":"SPAO","lon":"121.480155","lat":"31.230993","category":"500","category_name":"未知分类","address":"上海市 西藏中路336号华旭大厦"},{"poiid":"B2094757D16FA2F84099","title":"和民","lon":"121.48152873","lat":"31.231405325","category":"500","category_name":"未知分类","address":"上海市黄浦区汉口路"},{"poiid":"B2094757D06AA2F5459E","title":"广东路","lon":"121.4816165","lat":"31.230948448","category":"500","category_name":"未知分类","address":"上海广东路"},{"poiid":"B209475DD265ABF5439D","title":"猫山榴莲王","lon":"121.482299","lat":"31.229858","category":"247","category_name":"餐饮美食","address":"上海市 浙江中路58号"},{"poiid":"B2094757D068ABF5479C","title":"唛歌","lon":"121.48142373","lat":"31.231328323","category":"500","category_name":"未知分类","address":"上海市黄浦区汉口路"},{"poiid":"B2094757D464A0F9439D","title":"穆斯林饮食店","lon":"121.48068990699","lat":"31.231494503294","category":"90","category_name":"清真餐馆","address":"黄浦区浙江中路70号甲(北海路广东路间)"},{"poiid":"B2094757D16BA7FB489A","title":"世贸大厦","lon":"121.48218373","lat":"31.232370345","category":"252","category_name":"楼宇机构","address":"卢湾区复兴中路369号(马当路口)"},{"poiid":"B2094757D56EA6F8409E","title":"大麦售票处（宁海路申鑫大厦）","lon":"121.48169875145","lat":"31.2291054861415","category":"248","category_name":"生活娱乐","address":"上海市黄浦区宁海东路200号8楼"},{"poiid":"B2094655D26AA1F44392","title":"明堂青年旅舍","lon":"121.48131","lat":"31.22923","category":"217","category_name":"旅馆招待所","address":"黄浦区永寿路35号(近延安东路)"},{"poiid":"B2094654DA6FABFF4792","title":"飞象西餐厅 Flying Elephant Restaurant","lon":"121.481146054","lat":"31.232194793","category":"94","category_name":"西餐厅","address":"黄浦区广东路525号金外滩宾馆3楼(湖北路口)"},{"poiid":"B2094757D068A3FD469A","title":"埃洛美甲","lon":"121.482538","lat":"31.229008","category":"149","category_name":"洗浴推拿场所","address":"上海浙江南路69号"},{"poiid":"B2094655D26AAAFA4492","title":"上游社会桌游俱乐部","lon":"121.48243","lat":"31.22873","category":"248","category_name":"生活娱乐","address":"黄浦区浙江南路88号东新大厦216商铺(近宁海东路)"},{"poiid":"B2094757D068A2FD499D","title":"IDEA HAIR艺帝亚(人民广场店)","lon":"121.48180389","lat":"31.230163574","category":"148","category_name":"美容美发店","address":"上海市黄浦区广西北路241号二楼"},{"poiid":"B2094655D26BA3F84392","title":"美林阁(广东路店)","lon":"121.48179","lat":"31.23257","category":"76","category_name":"上海菜","address":"黄浦区广东路500号世界贸易大厦(近湖北路)"},{"poiid":"B2094757D064A2FA4799","title":"海底捞","lon":"121.48322301","lat":"31.230217549","category":"500","category_name":"未知分类","address":"上海八佰伴"},{"poiid":"B2094654DA6EA6FD449D","title":"钱柜(浪达包装(上海)有限公司东)","lon":"121.48193","lat":"31.22918","category":"170","category_name":"KTV","address":"浙江南路68"},{"poiid":"B2094757D069A4F84793","title":"永宁台球","lon":"121.4814","lat":"31.22917","category":"171","category_name":"台球厅","address":"上海黄浦区永寿路11号4楼(近延安路高架)  "},{"poiid":"B2094757D66EA0F5449B","title":"新疆正宗烤羊肉串","lon":"121.480216738","lat":"31.2316683307","category":"247","category_name":"餐饮美食","address":"上海黄浦区浙江中路"},{"poiid":"B2094757D068A4F9489B","title":"京都拉面太郎","lon":"121.48188083","lat":"31.229529914","category":"95","category_name":"日本料理","address":"黄浦区浙江南路48号(近宁海东路)"},{"poiid":"B2094753D66BA0FA4793","title":"豪厨","lon":"121.482566","lat":"31.230209","category":"247","category_name":"餐饮美食","address":"上海市 福州路666号2楼"},{"poiid":"B2094757D46DA4F54499","title":"贯贯吉拉面","lon":"121.480504054","lat":"31.231652793","category":"90","category_name":"清真餐馆","address":"黄浦区浙江中路70号A座(近广东路)"},{"poiid":"B2094757D06AA4F4479C","title":"顺德面馆","lon":"121.48087","lat":"31.2315","category":"68","category_name":"快餐厅","address":"黄浦区广东路575号(近浙江中路)"},{"poiid":"B2094654DB64A4FC449E","title":"三人行骨头王火锅(浙江路店)","lon":"121.48163","lat":"31.22993","category":"86","category_name":"火锅店","address":"黄浦区浙江南路8号(近延安东路)"},{"poiid":"B2094654DB69A4F4479D","title":"纯k（浙江路店）","lon":"121.48193","lat":"31.22918","category":"170","category_name":"KTV","address":"黄浦区浙江南路68号(近宁海东路)"},{"poiid":"B2094750DA68ABFE4898","title":"台北纯K(浙江路店)","lon":"121.482363726181","lat":"31.2290736899797","category":"170","category_name":"KTV","address":"黄浦区浙江南路68号(宁海东路口)"},{"poiid":"B2094753D76FAAFA449C","title":"上海滩国泰旗舰店","lon":"121.466011","lat":"31.216125","category":"249","category_name":"购物服务","address":"淮海中路868号"},{"poiid":"B209475CD564A7F84292","title":"上海滩新天地店","lon":"121.47463","lat":"31.22164","category":"119","category_name":"商场","address":"\"太仓路181弄新天地北里15号\r\n\""},{"poiid":"B209475CD564A7F8439E","title":"上海滩中信泰富店","lon":"121.45602","lat":"31.22851","category":"119","category_name":"商场","address":"\"南京西路1168号中信泰富广场，店铺号221.\r\n\""},{"poiid":"B209475CD564A7F84392","title":"上海滩浦东香格里拉店","lon":"121.50058","lat":"31.23634","category":"119","category_name":"商场","address":"浦东富成路33号香格里拉酒店内大堂层"},{"poiid":"B2094654DA6EAAFD479A","title":"力宝广场","lon":"121.482","lat":"31.2305","category":"119","category_name":"商场","address":"卢湾区淮海中路222号(近嵩山路)"},{"poiid":"B2094757D06FABFF459C","title":"外灘","lon":"121.48152573","lat":"31.231372324","category":"500","category_name":"未知分类","address":"上海市黄浦区汉口路"},{"poiid":"B2094654DA6FAAFF459A","title":"海洋大厦","lon":"121.48151","lat":"31.23078","category":"46","category_name":"楼宇","address":"丰台学城海鹰路1号,3号"},{"poiid":"B2094757D06FA4FB469B","title":"金外滩宾馆","lon":"121.48184","lat":"31.23174","category":"217","category_name":"旅馆招待所","address":"黄浦区广东路525号金外滩宾馆6楼(湖北路口)查看地图"},{"poiid":"B2094757D06FA2FA439D","title":"德兴馆","lon":"121.48226928","lat":"31.232244491","category":"257","category_name":"中餐厅","address":"上海福建路"},{"poiid":"B2094757D06FA3FE459E","title":"沈家门兰嫂海鲜面(福建中路一店)","lon":"121.48276","lat":"31.23214","category":"88","category_name":"海鲜酒楼","address":"黄浦区福建中路120号(近福州路)"},{"poiid":"B2094757D06FA2FC4092","title":"东海商业中心","lon":"121.47998046","lat":"31.23007965","category":"46","category_name":"楼宇","address":"黄浦区延安东路588号(近湖北路)"},{"poiid":"B2094757D06FA4F9429A","title":"金陵大厦","lon":"121.48","lat":"31.2303","category":"46","category_name":"楼宇","address":"浦东区崂山东路410号"},{"poiid":"B2094757D76EAAFC499F","title":"星巴克 东海店 Starbucks Cafe","lon":"121.48056286686","lat":"31.230016324823","category":"260","category_name":"其他","address":"黄浦区延安东路588号(延安东路永寿路)"},{"poiid":"B2094757D068A6FF4598","title":"延福绿地篮球场","lon":"121.48202","lat":"31.22915","category":"220","category_name":"运动场所","address":"黄浦区延安东路(近福建南路)"},{"poiid":"B2094757D16DA6F5449E","title":"MINT Club","lon":"121.481183738","lat":"31.2311953207","category":"500","category_name":"未知分类","address":"上海ShanghaiHuangpuHankou Rd"},{"poiid":"B2094757D06FA5F94992","title":"游人馆 桌面游戏 游乐场","lon":"121.48209669","lat":"31.230753554","category":"175","category_name":"棋牌室","address":"黄浦区湖北路20号中信福申大楼2楼A室(近上海书城)"},{"poiid":"B2094757D064A2FC419D","title":"避風塘","lon":"121.481941636","lat":"31.2304952344","category":"500","category_name":"未知分类","address":"上海福州路666號"},{"poiid":"B2094757D165A2FF4398","title":"黄浦区","lon":"121.482597239","lat":"31.2320581764","category":"250","category_name":"公园户外","address":"上海黄浦区区域"},{"poiid":"B2094757D16DA6FB439D","title":"石锅鱼","lon":"121.48094073","lat":"31.231237321","category":"71","category_name":"四川菜","address":"黄浦区海口路3号(近浙江中路)"},{"poiid":"B2094757D068A3FA469F","title":"巴黎贝甜 湖北路店 Paris Baguette","lon":"121.480870054","lat":"31.232799793","category":"67","category_name":"甜品店","address":"黄浦区湖北路131号(近福州路)"},{"poiid":"B2094757D065AAF44899","title":"上海博物館","lon":"121.480607","lat":"31.229964","category":"500","category_name":"未知分类","address":"上海延安路高架下"},{"poiid":"B2094757D068A0FF489A","title":"格致中学羽毛球馆","lon":"121.480135656","lat":"31.2308425552","category":"253","category_name":"校园生活","address":"上海黄浦区北海路150号5楼(广西路口)"},{"poiid":"B2094757D06AA3FA419A","title":"大壶春(浙江中路店)","lon":"121.48031","lat":"31.23183","category":"68","category_name":"快餐厅","address":"黄浦区浙江中路117号(近广东路)"},{"poiid":"B2094757D06BA4FA4798","title":"浙江电影院","lon":"121.479819","lat":"31.232088","category":"178","category_name":"电影院","address":"黄浦区浙江中路123号(近广东路)"},{"poiid":"B2094757D06FAAFA4393","title":"格致中学游泳池","lon":"121.47967","lat":"31.23032","category":"253","category_name":"校园生活","address":"黄浦区广西北路66号(近宁海路)"},{"poiid":"B209475CDA69ABF8439D","title":"SPAO","lon":"121.480155","lat":"31.230993","category":"500","category_name":"未知分类","address":"上海市 西藏中路336号华旭大厦"},{"poiid":"B2094757D16FA2F84099","title":"和民","lon":"121.48152873","lat":"31.231405325","category":"500","category_name":"未知分类","address":"上海市黄浦区汉口路"},{"poiid":"B2094757D06AA2F5459E","title":"广东路","lon":"121.4816165","lat":"31.230948448","category":"500","category_name":"未知分类","address":"上海广东路"},{"poiid":"B209475DD265ABF5439D","title":"猫山榴莲王","lon":"121.482299","lat":"31.229858","category":"247","category_name":"餐饮美食","address":"上海市 浙江中路58号"},{"poiid":"B2094757D068ABF5479C","title":"唛歌","lon":"121.48142373","lat":"31.231328323","category":"500","category_name":"未知分类","address":"上海市黄浦区汉口路"},{"poiid":"B2094757D464A0F9439D","title":"穆斯林饮食店","lon":"121.48068990699","lat":"31.231494503294","category":"90","category_name":"清真餐馆","address":"黄浦区浙江中路70号甲(北海路广东路间)"},{"poiid":"B2094757D16BA7FB489A","title":"世贸大厦","lon":"121.48218373","lat":"31.232370345","category":"252","category_name":"楼宇机构","address":"卢湾区复兴中路369号(马当路口)"},{"poiid":"B2094757D56EA6F8409E","title":"大麦售票处（宁海路申鑫大厦）","lon":"121.48169875145","lat":"31.2291054861415","category":"248","category_name":"生活娱乐","address":"上海市黄浦区宁海东路200号8楼"},{"poiid":"B2094655D26AA1F44392","title":"明堂青年旅舍","lon":"121.48131","lat":"31.22923","category":"217","category_name":"旅馆招待所","address":"黄浦区永寿路35号(近延安东路)"},{"poiid":"B2094654DA6FABFF4792","title":"飞象西餐厅 Flying Elephant Restaurant","lon":"121.481146054","lat":"31.232194793","category":"94","category_name":"西餐厅","address":"黄浦区广东路525号金外滩宾馆3楼(湖北路口)"},{"poiid":"B2094757D068A3FD469A","title":"埃洛美甲","lon":"121.482538","lat":"31.229008","category":"149","category_name":"洗浴推拿场所","address":"上海浙江南路69号"},{"poiid":"B2094655D26AAAFA4492","title":"上游社会桌游俱乐部","lon":"121.48243","lat":"31.22873","category":"248","category_name":"生活娱乐","address":"黄浦区浙江南路88号东新大厦216商铺(近宁海东路)"},{"poiid":"B2094757D068A2FD499D","title":"IDEA HAIR艺帝亚(人民广场店)","lon":"121.48180389","lat":"31.230163574","category":"148","category_name":"美容美发店","address":"上海市黄浦区广西北路241号二楼"},{"poiid":"B2094655D26BA3F84392","title":"美林阁(广东路店)","lon":"121.48179","lat":"31.23257","category":"76","category_name":"上海菜","address":"黄浦区广东路500号世界贸易大厦(近湖北路)"},{"poiid":"B2094757D064A2FA4799","title":"海底捞","lon":"121.48322301","lat":"31.230217549","category":"500","category_name":"未知分类","address":"上海八佰伴"},{"poiid":"B2094654DA6EA6FD449D","title":"钱柜(浪达包装(上海)有限公司东)","lon":"121.48193","lat":"31.22918","category":"170","category_name":"KTV","address":"浙江南路68"},{"poiid":"B2094757D069A4F84793","title":"永宁台球","lon":"121.4814","lat":"31.22917","category":"171","category_name":"台球厅","address":"上海黄浦区永寿路11号4楼(近延安路高架)  "},{"poiid":"B2094757D66EA0F5449B","title":"新疆正宗烤羊肉串","lon":"121.480216738","lat":"31.2316683307","category":"247","category_name":"餐饮美食","address":"上海黄浦区浙江中路"},{"poiid":"B2094757D068A4F9489B","title":"京都拉面太郎","lon":"121.48188083","lat":"31.229529914","category":"95","category_name":"日本料理","address":"黄浦区浙江南路48号(近宁海东路)"},{"poiid":"B2094753D66BA0FA4793","title":"豪厨","lon":"121.482566","lat":"31.230209","category":"247","category_name":"餐饮美食","address":"上海市 福州路666号2楼"},{"poiid":"B2094757D46DA4F54499","title":"贯贯吉拉面","lon":"121.480504054","lat":"31.231652793","category":"90","category_name":"清真餐馆","address":"黄浦区浙江中路70号A座(近广东路)"},{"poiid":"B2094757D06AA4F4479C","title":"顺德面馆","lon":"121.48087","lat":"31.2315","category":"68","category_name":"快餐厅","address":"黄浦区广东路575号(近浙江中路)"},{"poiid":"B2094654DB64A4FC449E","title":"三人行骨头王火锅(浙江路店)","lon":"121.48163","lat":"31.22993","category":"86","category_name":"火锅店","address":"黄浦区浙江南路8号(近延安东路)"},{"poiid":"B2094654DB69A4F4479D","title":"纯k（浙江路店）","lon":"121.48193","lat":"31.22918","category":"170","category_name":"KTV","address":"黄浦区浙江南路68号(近宁海东路)"},{"poiid":"B2094750DA68ABFE4898","title":"台北纯K(浙江路店)","lon":"121.482363726181","lat":"31.2290736899797","category":"170","category_name":"KTV","address":"黄浦区浙江南路68号(宁海东路口)"},{"poiid":"B2094753D76FAAFA449C","title":"上海滩国泰旗舰店","lon":"121.466011","lat":"31.216125","category":"249","category_name":"购物服务","address":"淮海中路868号"},{"poiid":"B209475CD564A7F84292","title":"上海滩新天地店","lon":"121.47463","lat":"31.22164","category":"119","category_name":"商场","address":"\"太仓路181弄新天地北里15号\r\n\""},{"poiid":"B209475CD564A7F8439E","title":"上海滩中信泰富店","lon":"121.45602","lat":"31.22851","category":"119","category_name":"商场","address":"\"南京西路1168号中信泰富广场，店铺号221.\r\n\""},{"poiid":"B209475CD564A7F84392","title":"上海滩浦东香格里拉店","lon":"121.50058","lat":"31.23634","category":"119","category_name":"商场","address":"浦东富成路33号香格里拉酒店内大堂层"},{"poiid":"B2094654DA6EAAFD479A","title":"力宝广场","lon":"121.482","lat":"31.2305","category":"119","category_name":"商场","address":"卢湾区淮海中路222号(近嵩山路)"},{"poiid":"B2094757D06FABFF459C","title":"外灘","lon":"121.48152573","lat":"31.231372324","category":"500","category_name":"未知分类","address":"上海市黄浦区汉口路"},{"poiid":"B2094654DA6FAAFF459A","title":"海洋大厦","lon":"121.48151","lat":"31.23078","category":"46","category_name":"楼宇","address":"丰台学城海鹰路1号,3号"},{"poiid":"B2094757D06FA4FB469B","title":"金外滩宾馆","lon":"121.48184","lat":"31.23174","category":"217","category_name":"旅馆招待所","address":"黄浦区广东路525号金外滩宾馆6楼(湖北路口)查看地图"},{"poiid":"B2094757D06FA2FA439D","title":"德兴馆","lon":"121.48226928","lat":"31.232244491","category":"257","category_name":"中餐厅","address":"上海福建路"},{"poiid":"B2094757D06FA3FE459E","title":"沈家门兰嫂海鲜面(福建中路一店)","lon":"121.48276","lat":"31.23214","category":"88","category_name":"海鲜酒楼","address":"黄浦区福建中路120号(近福州路)"},{"poiid":"B2094757D06FA2FC4092","title":"东海商业中心","lon":"121.47998046","lat":"31.23007965","category":"46","category_name":"楼宇","address":"黄浦区延安东路588号(近湖北路)"},{"poiid":"B2094757D06FA4F9429A","title":"金陵大厦","lon":"121.48","lat":"31.2303","category":"46","category_name":"楼宇","address":"浦东区崂山东路410号"},{"poiid":"B2094757D76EAAFC499F","title":"星巴克 东海店 Starbucks Cafe","lon":"121.48056286686","lat":"31.230016324823","category":"260","category_name":"其他","address":"黄浦区延安东路588号(延安东路永寿路)"},{"poiid":"B2094757D068A6FF4598","title":"延福绿地篮球场","lon":"121.48202","lat":"31.22915","category":"220","category_name":"运动场所","address":"黄浦区延安东路(近福建南路)"},{"poiid":"B2094757D16DA6F5449E","title":"MINT Club","lon":"121.481183738","lat":"31.2311953207","category":"500","category_name":"未知分类","address":"上海ShanghaiHuangpuHankou Rd"},{"poiid":"B2094757D06FA5F94992","title":"游人馆 桌面游戏 游乐场","lon":"121.48209669","lat":"31.230753554","category":"175","category_name":"棋牌室","address":"黄浦区湖北路20号中信福申大楼2楼A室(近上海书城)"},{"poiid":"B2094757D064A2FC419D","title":"避風塘","lon":"121.481941636","lat":"31.2304952344","category":"500","category_name":"未知分类","address":"上海福州路666號"},{"poiid":"B2094757D165A2FF4398","title":"黄浦区","lon":"121.482597239","lat":"31.2320581764","category":"250","category_name":"公园户外","address":"上海黄浦区区域"},{"poiid":"B2094757D16DA6FB439D","title":"石锅鱼","lon":"121.48094073","lat":"31.231237321","category":"71","category_name":"四川菜","address":"黄浦区海口路3号(近浙江中路)"},{"poiid":"B2094757D068A3FA469F","title":"巴黎贝甜 湖北路店 Paris Baguette","lon":"121.480870054","lat":"31.232799793","category":"67","category_name":"甜品店","address":"黄浦区湖北路131号(近福州路)"},{"poiid":"B2094757D065AAF44899","title":"上海博物館","lon":"121.480607","lat":"31.229964","category":"500","category_name":"未知分类","address":"上海延安路高架下"},{"poiid":"B2094757D068A0FF489A","title":"格致中学羽毛球馆","lon":"121.480135656","lat":"31.2308425552","category":"253","category_name":"校园生活","address":"上海黄浦区北海路150号5楼(广西路口)"},{"poiid":"B2094757D06AA3FA419A","title":"大壶春(浙江中路店)","lon":"121.48031","lat":"31.23183","category":"68","category_name":"快餐厅","address":"黄浦区浙江中路117号(近广东路)"},{"poiid":"B2094757D06BA4FA4798","title":"浙江电影院","lon":"121.479819","lat":"31.232088","category":"178","category_name":"电影院","address":"黄浦区浙江中路123号(近广东路)"},{"poiid":"B2094757D06FAAFA4393","title":"格致中学游泳池","lon":"121.47967","lat":"31.23032","category":"253","category_name":"校园生活","address":"黄浦区广西北路66号(近宁海路)"},{"poiid":"B209475CDA69ABF8439D","title":"SPAO","lon":"121.480155","lat":"31.230993","category":"500","category_name":"未知分类","address":"上海市 西藏中路336号华旭大厦"},{"poiid":"B2094757D16FA2F84099","title":"和民","lon":"121.48152873","lat":"31.231405325","category":"500","category_name":"未知分类","address":"上海市黄浦区汉口路"},{"poiid":"B2094757D06AA2F5459E","title":"广东路","lon":"121.4816165","lat":"31.230948448","category":"500","category_name":"未知分类","address":"上海广东路"},{"poiid":"B209475DD265ABF5439D","title":"猫山榴莲王","lon":"121.482299","lat":"31.229858","category":"247","category_name":"餐饮美食","address":"上海市 浙江中路58号"},{"poiid":"B2094757D068ABF5479C","title":"唛歌","lon":"121.48142373","lat":"31.231328323","category":"500","category_name":"未知分类","address":"上海市黄浦区汉口路"},{"poiid":"B2094757D464A0F9439D","title":"穆斯林饮食店","lon":"121.48068990699","lat":"31.231494503294","category":"90","category_name":"清真餐馆","address":"黄浦区浙江中路70号甲(北海路广东路间)"},{"poiid":"B2094757D16BA7FB489A","title":"世贸大厦","lon":"121.48218373","lat":"31.232370345","category":"252","category_name":"楼宇机构","address":"卢湾区复兴中路369号(马当路口)"},{"poiid":"B2094757D56EA6F8409E","title":"大麦售票处（宁海路申鑫大厦）","lon":"121.48169875145","lat":"31.2291054861415","category":"248","category_name":"生活娱乐","address":"上海市黄浦区宁海东路200号8楼"},{"poiid":"B2094655D26AA1F44392","title":"明堂青年旅舍","lon":"121.48131","lat":"31.22923","category":"217","category_name":"旅馆招待所","address":"黄浦区永寿路35号(近延安东路)"},{"poiid":"B2094654DA6FABFF4792","title":"飞象西餐厅 Flying Elephant Restaurant","lon":"121.481146054","lat":"31.232194793","category":"94","category_name":"西餐厅","address":"黄浦区广东路525号金外滩宾馆3楼(湖北路口)"},{"poiid":"B2094757D068A3FD469A","title":"埃洛美甲","lon":"121.482538","lat":"31.229008","category":"149","category_name":"洗浴推拿场所","address":"上海浙江南路69号"},{"poiid":"B2094655D26AAAFA4492","title":"上游社会桌游俱乐部","lon":"121.48243","lat":"31.22873","category":"248","category_name":"生活娱乐","address":"黄浦区浙江南路88号东新大厦216商铺(近宁海东路)"},{"poiid":"B2094757D068A2FD499D","title":"IDEA HAIR艺帝亚(人民广场店)","lon":"121.48180389","lat":"31.230163574","category":"148","category_name":"美容美发店","address":"上海市黄浦区广西北路241号二楼"},{"poiid":"B2094655D26BA3F84392","title":"美林阁(广东路店)","lon":"121.48179","lat":"31.23257","category":"76","category_name":"上海菜","address":"黄浦区广东路500号世界贸易大厦(近湖北路)"},{"poiid":"B2094757D064A2FA4799","title":"海底捞","lon":"121.48322301","lat":"31.230217549","category":"500","category_name":"未知分类","address":"上海八佰伴"},{"poiid":"B2094654DA6EA6FD449D","title":"钱柜(浪达包装(上海)有限公司东)","lon":"121.48193","lat":"31.22918","category":"170","category_name":"KTV","address":"浙江南路68"},{"poiid":"B2094757D069A4F84793","title":"永宁台球","lon":"121.4814","lat":"31.22917","category":"171","category_name":"台球厅","address":"上海黄浦区永寿路11号4楼(近延安路高架)  "},{"poiid":"B2094757D66EA0F5449B","title":"新疆正宗烤羊肉串","lon":"121.480216738","lat":"31.2316683307","category":"247","category_name":"餐饮美食","address":"上海黄浦区浙江中路"},{"poiid":"B2094757D068A4F9489B","title":"京都拉面太郎","lon":"121.48188083","lat":"31.229529914","category":"95","category_name":"日本料理","address":"黄浦区浙江南路48号(近宁海东路)"},{"poiid":"B2094753D66BA0FA4793","title":"豪厨","lon":"121.482566","lat":"31.230209","category":"247","category_name":"餐饮美食","address":"上海市 福州路666号2楼"},{"poiid":"B2094757D46DA4F54499","title":"贯贯吉拉面","lon":"121.480504054","lat":"31.231652793","category":"90","category_name":"清真餐馆","address":"黄浦区浙江中路70号A座(近广东路)"},{"poiid":"B2094757D06AA4F4479C","title":"顺德面馆","lon":"121.48087","lat":"31.2315","category":"68","category_name":"快餐厅","address":"黄浦区广东路575号(近浙江中路)"},{"poiid":"B2094654DB64A4FC449E","title":"三人行骨头王火锅(浙江路店)","lon":"121.48163","lat":"31.22993","category":"86","category_name":"火锅店","address":"黄浦区浙江南路8号(近延安东路)"},{"poiid":"B2094654DB69A4F4479D","title":"纯k（浙江路店）","lon":"121.48193","lat":"31.22918","category":"170","category_name":"KTV","address":"黄浦区浙江南路68号(近宁海东路)"},{"poiid":"B2094750DA68ABFE4898","title":"台北纯K(浙江路店)","lon":"121.482363726181","lat":"31.2290736899797","category":"170","category_name":"KTV","address":"黄浦区浙江南路68号(宁海东路口)"},{"poiid":"B2094753D76FAAFA449C","title":"上海滩国泰旗舰店","lon":"121.466011","lat":"31.216125","category":"249","category_name":"购物服务","address":"淮海中路868号"},{"poiid":"B209475CD564A7F84292","title":"上海滩新天地店","lon":"121.47463","lat":"31.22164","category":"119","category_name":"商场","address":"\"太仓路181弄新天地北里15号\r\n\""},{"poiid":"B209475CD564A7F8439E","title":"上海滩中信泰富店","lon":"121.45602","lat":"31.22851","category":"119","category_name":"商场","address":"\"南京西路1168号中信泰富广场，店铺号221.\r\n\""},{"poiid":"B209475CD564A7F84392","title":"上海滩浦东香格里拉店","lon":"121.50058","lat":"31.23634","category":"119","category_name":"商场","address":"浦东富成路33号香格里拉酒店内大堂层"},{"poiid":"B2094654DA6EAAFD479A","title":"力宝广场","lon":"121.482","lat":"31.2305","category":"119","category_name":"商场","address":"卢湾区淮海中路222号(近嵩山路)"},{"poiid":"B2094757D06FABFF459C","title":"外灘","lon":"121.48152573","lat":"31.231372324","category":"500","category_name":"未知分类","address":"上海市黄浦区汉口路"},{"poiid":"B2094654DA6FAAFF459A","title":"海洋大厦","lon":"121.48151","lat":"31.23078","category":"46","category_name":"楼宇","address":"丰台学城海鹰路1号,3号"},{"poiid":"B2094757D06FA4FB469B","title":"金外滩宾馆","lon":"121.48184","lat":"31.23174","category":"217","category_name":"旅馆招待所","address":"黄浦区广东路525号金外滩宾馆6楼(湖北路口)查看地图"},{"poiid":"B2094757D06FA2FA439D","title":"德兴馆","lon":"121.48226928","lat":"31.232244491","category":"257","category_name":"中餐厅","address":"上海福建路"},{"poiid":"B2094757D06FA3FE459E","title":"沈家门兰嫂海鲜面(福建中路一店)","lon":"121.48276","lat":"31.23214","category":"88","category_name":"海鲜酒楼","address":"黄浦区福建中路120号(近福州路)"},{"poiid":"B2094757D06FA2FC4092","title":"东海商业中心","lon":"121.47998046","lat":"31.23007965","category":"46","category_name":"楼宇","address":"黄浦区延安东路588号(近湖北路)"},{"poiid":"B2094757D06FA4F9429A","title":"金陵大厦","lon":"121.48","lat":"31.2303","category":"46","category_name":"楼宇","address":"浦东区崂山东路410号"},{"poiid":"B2094757D76EAAFC499F","title":"星巴克 东海店 Starbucks Cafe","lon":"121.48056286686","lat":"31.230016324823","category":"260","category_name":"其他","address":"黄浦区延安东路588号(延安东路永寿路)"},{"poiid":"B2094757D068A6FF4598","title":"延福绿地篮球场","lon":"121.48202","lat":"31.22915","category":"220","category_name":"运动场所","address":"黄浦区延安东路(近福建南路)"},{"poiid":"B2094757D16DA6F5449E","title":"MINT Club","lon":"121.481183738","lat":"31.2311953207","category":"500","category_name":"未知分类","address":"上海ShanghaiHuangpuHankou Rd"},{"poiid":"B2094757D06FA5F94992","title":"游人馆 桌面游戏 游乐场","lon":"121.48209669","lat":"31.230753554","category":"175","category_name":"棋牌室","address":"黄浦区湖北路20号中信福申大楼2楼A室(近上海书城)"},{"poiid":"B2094757D064A2FC419D","title":"避風塘","lon":"121.481941636","lat":"31.2304952344","category":"500","category_name":"未知分类","address":"上海福州路666號"},{"poiid":"B2094757D165A2FF4398","title":"黄浦区","lon":"121.482597239","lat":"31.2320581764","category":"250","category_name":"公园户外","address":"上海黄浦区区域"},{"poiid":"B2094757D16DA6FB439D","title":"石锅鱼","lon":"121.48094073","lat":"31.231237321","category":"71","category_name":"四川菜","address":"黄浦区海口路3号(近浙江中路)"},{"poiid":"B2094757D068A3FA469F","title":"巴黎贝甜 湖北路店 Paris Baguette","lon":"121.480870054","lat":"31.232799793","category":"67","category_name":"甜品店","address":"黄浦区湖北路131号(近福州路)"},{"poiid":"B2094757D065AAF44899","title":"上海博物館","lon":"121.480607","lat":"31.229964","category":"500","category_name":"未知分类","address":"上海延安路高架下"},{"poiid":"B2094757D068A0FF489A","title":"格致中学羽毛球馆","lon":"121.480135656","lat":"31.2308425552","category":"253","category_name":"校园生活","address":"上海黄浦区北海路150号5楼(广西路口)"},{"poiid":"B2094757D06AA3FA419A","title":"大壶春(浙江中路店)","lon":"121.48031","lat":"31.23183","category":"68","category_name":"快餐厅","address":"黄浦区浙江中路117号(近广东路)"},{"poiid":"B2094757D06BA4FA4798","title":"浙江电影院","lon":"121.479819","lat":"31.232088","category":"178","category_name":"电影院","address":"黄浦区浙江中路123号(近广东路)"},{"poiid":"B2094757D06FAAFA4393","title":"格致中学游泳池","lon":"121.47967","lat":"31.23032","category":"253","category_name":"校园生活","address":"黄浦区广西北路66号(近宁海路)"},{"poiid":"B209475CDA69ABF8439D","title":"SPAO","lon":"121.480155","lat":"31.230993","category":"500","category_name":"未知分类","address":"上海市 西藏中路336号华旭大厦"},{"poiid":"B2094757D16FA2F84099","title":"和民","lon":"121.48152873","lat":"31.231405325","category":"500","category_name":"未知分类","address":"上海市黄浦区汉口路"},{"poiid":"B2094757D06AA2F5459E","title":"广东路","lon":"121.4816165","lat":"31.230948448","category":"500","category_name":"未知分类","address":"上海广东路"},{"poiid":"B209475DD265ABF5439D","title":"猫山榴莲王","lon":"121.482299","lat":"31.229858","category":"247","category_name":"餐饮美食","address":"上海市 浙江中路58号"},{"poiid":"B2094757D068ABF5479C","title":"唛歌","lon":"121.48142373","lat":"31.231328323","category":"500","category_name":"未知分类","address":"上海市黄浦区汉口路"},{"poiid":"B2094757D464A0F9439D","title":"穆斯林饮食店","lon":"121.48068990699","lat":"31.231494503294","category":"90","category_name":"清真餐馆","address":"黄浦区浙江中路70号甲(北海路广东路间)"},{"poiid":"B2094757D16BA7FB489A","title":"世贸大厦","lon":"121.48218373","lat":"31.232370345","category":"252","category_name":"楼宇机构","address":"卢湾区复兴中路369号(马当路口)"},{"poiid":"B2094757D56EA6F8409E","title":"大麦售票处（宁海路申鑫大厦）","lon":"121.48169875145","lat":"31.2291054861415","category":"248","category_name":"生活娱乐","address":"上海市黄浦区宁海东路200号8楼"},{"poiid":"B2094655D26AA1F44392","title":"明堂青年旅舍","lon":"121.48131","lat":"31.22923","category":"217","category_name":"旅馆招待所","address":"黄浦区永寿路35号(近延安东路)"},{"poiid":"B2094654DA6FABFF4792","title":"飞象西餐厅 Flying Elephant Restaurant","lon":"121.481146054","lat":"31.232194793","category":"94","category_name":"西餐厅","address":"黄浦区广东路525号金外滩宾馆3楼(湖北路口)"},{"poiid":"B2094757D068A3FD469A","title":"埃洛美甲","lon":"121.482538","lat":"31.229008","category":"149","category_name":"洗浴推拿场所","address":"上海浙江南路69号"},{"poiid":"B2094655D26AAAFA4492","title":"上游社会桌游俱乐部","lon":"121.48243","lat":"31.22873","category":"248","category_name":"生活娱乐","address":"黄浦区浙江南路88号东新大厦216商铺(近宁海东路)"},{"poiid":"B2094757D068A2FD499D","title":"IDEA HAIR艺帝亚(人民广场店)","lon":"121.48180389","lat":"31.230163574","category":"148","category_name":"美容美发店","address":"上海市黄浦区广西北路241号二楼"},{"poiid":"B2094655D26BA3F84392","title":"美林阁(广东路店)","lon":"121.48179","lat":"31.23257","category":"76","category_name":"上海菜","address":"黄浦区广东路500号世界贸易大厦(近湖北路)"},{"poiid":"B2094757D064A2FA4799","title":"海底捞","lon":"121.48322301","lat":"31.230217549","category":"500","category_name":"未知分类","address":"上海八佰伴"},{"poiid":"B2094654DA6EA6FD449D","title":"钱柜(浪达包装(上海)有限公司东)","lon":"121.48193","lat":"31.22918","category":"170","category_name":"KTV","address":"浙江南路68"},{"poiid":"B2094757D069A4F84793","title":"永宁台球","lon":"121.4814","lat":"31.22917","category":"171","category_name":"台球厅","address":"上海黄浦区永寿路11号4楼(近延安路高架)  "},{"poiid":"B2094757D66EA0F5449B","title":"新疆正宗烤羊肉串","lon":"121.480216738","lat":"31.2316683307","category":"247","category_name":"餐饮美食","address":"上海黄浦区浙江中路"},{"poiid":"B2094757D068A4F9489B","title":"京都拉面太郎","lon":"121.48188083","lat":"31.229529914","category":"95","category_name":"日本料理","address":"黄浦区浙江南路48号(近宁海东路)"},{"poiid":"B2094753D66BA0FA4793","title":"豪厨","lon":"121.482566","lat":"31.230209","category":"247","category_name":"餐饮美食","address":"上海市 福州路666号2楼"},{"poiid":"B2094757D46DA4F54499","title":"贯贯吉拉面","lon":"121.480504054","lat":"31.231652793","category":"90","category_name":"清真餐馆","address":"黄浦区浙江中路70号A座(近广东路)"},{"poiid":"B2094757D06AA4F4479C","title":"顺德面馆","lon":"121.48087","lat":"31.2315","category":"68","category_name":"快餐厅","address":"黄浦区广东路575号(近浙江中路)"},{"poiid":"B2094654DB64A4FC449E","title":"三人行骨头王火锅(浙江路店)","lon":"121.48163","lat":"31.22993","category":"86","category_name":"火锅店","address":"黄浦区浙江南路8号(近延安东路)"},{"poiid":"B2094654DB69A4F4479D","title":"纯k（浙江路店）","lon":"121.48193","lat":"31.22918","category":"170","category_name":"KTV","address":"黄浦区浙江南路68号(近宁海东路)"},{"poiid":"B2094750DA68ABFE4898","title":"台北纯K(浙江路店)","lon":"121.482363726181","lat":"31.2290736899797","category":"170","category_name":"KTV","address":"黄浦区浙江南路68号(宁海东路口)"},{"poiid":"B2094753D76FAAFA449C","title":"上海滩国泰旗舰店","lon":"121.466011","lat":"31.216125","category":"249","category_name":"购物服务","address":"淮海中路868号"},{"poiid":"B209475CD564A7F84292","title":"上海滩新天地店","lon":"121.47463","lat":"31.22164","category":"119","category_name":"商场","address":"\"太仓路181弄新天地北里15号\r\n\""},{"poiid":"B209475CD564A7F8439E","title":"上海滩中信泰富店","lon":"121.45602","lat":"31.22851","category":"119","category_name":"商场","address":"\"南京西路1168号中信泰富广场，店铺号221.\r\n\""},{"poiid":"B209475CD564A7F84392","title":"上海滩浦东香格里拉店","lon":"121.50058","lat":"31.23634","category":"119","category_name":"商场","address":"浦东富成路33号香格里拉酒店内大堂层"},{"poiid":"B2094654DA6EAAFD479A","title":"力宝广场","lon":"121.482","lat":"31.2305","category":"119","category_name":"商场","address":"卢湾区淮海中路222号(近嵩山路)"},{"poiid":"B2094757D06FABFF459C","title":"外灘","lon":"121.48152573","lat":"31.231372324","category":"500","category_name":"未知分类","address":"上海市黄浦区汉口路"},{"poiid":"B2094654DA6FAAFF459A","title":"海洋大厦","lon":"121.48151","lat":"31.23078","category":"46","category_name":"楼宇","address":"丰台学城海鹰路1号,3号"},{"poiid":"B2094757D06FA4FB469B","title":"金外滩宾馆","lon":"121.48184","lat":"31.23174","category":"217","category_name":"旅馆招待所","address":"黄浦区广东路525号金外滩宾馆6楼(湖北路口)查看地图"},{"poiid":"B2094757D06FA2FA439D","title":"德兴馆","lon":"121.48226928","lat":"31.232244491","category":"257","category_name":"中餐厅","address":"上海福建路"},{"poiid":"B2094757D06FA3FE459E","title":"沈家门兰嫂海鲜面(福建中路一店)","lon":"121.48276","lat":"31.23214","category":"88","category_name":"海鲜酒楼","address":"黄浦区福建中路120号(近福州路)"},{"poiid":"B2094757D06FA2FC4092","title":"东海商业中心","lon":"121.47998046","lat":"31.23007965","category":"46","category_name":"楼宇","address":"黄浦区延安东路588号(近湖北路)"},{"poiid":"B2094757D06FA4F9429A","title":"金陵大厦","lon":"121.48","lat":"31.2303","category":"46","category_name":"楼宇","address":"浦东区崂山东路410号"},{"poiid":"B2094757D76EAAFC499F","title":"星巴克 东海店 Starbucks Cafe","lon":"121.48056286686","lat":"31.230016324823","category":"260","category_name":"其他","address":"黄浦区延安东路588号(延安东路永寿路)"},{"poiid":"B2094757D068A6FF4598","title":"延福绿地篮球场","lon":"121.48202","lat":"31.22915","category":"220","category_name":"运动场所","address":"黄浦区延安东路(近福建南路)"},{"poiid":"B2094757D16DA6F5449E","title":"MINT Club","lon":"121.481183738","lat":"31.2311953207","category":"500","category_name":"未知分类","address":"上海ShanghaiHuangpuHankou Rd"},{"poiid":"B2094757D06FA5F94992","title":"游人馆 桌面游戏 游乐场","lon":"121.48209669","lat":"31.230753554","category":"175","category_name":"棋牌室","address":"黄浦区湖北路20号中信福申大楼2楼A室(近上海书城)"},{"poiid":"B2094757D064A2FC419D","title":"避風塘","lon":"121.481941636","lat":"31.2304952344","category":"500","category_name":"未知分类","address":"上海福州路666號"},{"poiid":"B2094757D165A2FF4398","title":"黄浦区","lon":"121.482597239","lat":"31.2320581764","category":"250","category_name":"公园户外","address":"上海黄浦区区域"},{"poiid":"B2094757D16DA6FB439D","title":"石锅鱼","lon":"121.48094073","lat":"31.231237321","category":"71","category_name":"四川菜","address":"黄浦区海口路3号(近浙江中路)"},{"poiid":"B2094757D068A3FA469F","title":"巴黎贝甜 湖北路店 Paris Baguette","lon":"121.480870054","lat":"31.232799793","category":"67","category_name":"甜品店","address":"黄浦区湖北路131号(近福州路)"},{"poiid":"B2094757D065AAF44899","title":"上海博物館","lon":"121.480607","lat":"31.229964","category":"500","category_name":"未知分类","address":"上海延安路高架下"},{"poiid":"B2094757D068A0FF489A","title":"格致中学羽毛球馆","lon":"121.480135656","lat":"31.2308425552","category":"253","category_name":"校园生活","address":"上海黄浦区北海路150号5楼(广西路口)"},{"poiid":"B2094757D06AA3FA419A","title":"大壶春(浙江中路店)","lon":"121.48031","lat":"31.23183","category":"68","category_name":"快餐厅","address":"黄浦区浙江中路117号(近广东路)"},{"poiid":"B2094757D06BA4FA4798","title":"浙江电影院","lon":"121.479819","lat":"31.232088","category":"178","category_name":"电影院","address":"黄浦区浙江中路123号(近广东路)"},{"poiid":"B2094757D06FAAFA4393","title":"格致中学游泳池","lon":"121.47967","lat":"31.23032","category":"253","category_name":"校园生活","address":"黄浦区广西北路66号(近宁海路)"},{"poiid":"B209475CDA69ABF8439D","title":"SPAO","lon":"121.480155","lat":"31.230993","category":"500","category_name":"未知分类","address":"上海市 西藏中路336号华旭大厦"},{"poiid":"B2094757D16FA2F84099","title":"和民","lon":"121.48152873","lat":"31.231405325","category":"500","category_name":"未知分类","address":"上海市黄浦区汉口路"},{"poiid":"B2094757D06AA2F5459E","title":"广东路","lon":"121.4816165","lat":"31.230948448","category":"500","category_name":"未知分类","address":"上海广东路"},{"poiid":"B209475DD265ABF5439D","title":"猫山榴莲王","lon":"121.482299","lat":"31.229858","category":"247","category_name":"餐饮美食","address":"上海市 浙江中路58号"},{"poiid":"B2094757D068ABF5479C","title":"唛歌","lon":"121.48142373","lat":"31.231328323","category":"500","category_name":"未知分类","address":"上海市黄浦区汉口路"},{"poiid":"B2094757D464A0F9439D","title":"穆斯林饮食店","lon":"121.48068990699","lat":"31.231494503294","category":"90","category_name":"清真餐馆","address":"黄浦区浙江中路70号甲(北海路广东路间)"},{"poiid":"B2094757D16BA7FB489A","title":"世贸大厦","lon":"121.48218373","lat":"31.232370345","category":"252","category_name":"楼宇机构","address":"卢湾区复兴中路369号(马当路口)"},{"poiid":"B2094757D56EA6F8409E","title":"大麦售票处（宁海路申鑫大厦）","lon":"121.48169875145","lat":"31.2291054861415","category":"248","category_name":"生活娱乐","address":"上海市黄浦区宁海东路200号8楼"},{"poiid":"B2094655D26AA1F44392","title":"明堂青年旅舍","lon":"121.48131","lat":"31.22923","category":"217","category_name":"旅馆招待所","address":"黄浦区永寿路35号(近延安东路)"},{"poiid":"B2094654DA6FABFF4792","title":"飞象西餐厅 Flying Elephant Restaurant","lon":"121.481146054","lat":"31.232194793","category":"94","category_name":"西餐厅","address":"黄浦区广东路525号金外滩宾馆3楼(湖北路口)"},{"poiid":"B2094757D068A3FD469A","title":"埃洛美甲","lon":"121.482538","lat":"31.229008","category":"149","category_name":"洗浴推拿场所","address":"上海浙江南路69号"},{"poiid":"B2094655D26AAAFA4492","title":"上游社会桌游俱乐部","lon":"121.48243","lat":"31.22873","category":"248","category_name":"生活娱乐","address":"黄浦区浙江南路88号东新大厦216商铺(近宁海东路)"},{"poiid":"B2094757D068A2FD499D","title":"IDEA HAIR艺帝亚(人民广场店)","lon":"121.48180389","lat":"31.230163574","category":"148","category_name":"美容美发店","address":"上海市黄浦区广西北路241号二楼"},{"poiid":"B2094655D26BA3F84392","title":"美林阁(广东路店)","lon":"121.48179","lat":"31.23257","category":"76","category_name":"上海菜","address":"黄浦区广东路500号世界贸易大厦(近湖北路)"},{"poiid":"B2094757D064A2FA4799","title":"海底捞","lon":"121.48322301","lat":"31.230217549","category":"500","category_name":"未知分类","address":"上海八佰伴"},{"poiid":"B2094654DA6EA6FD449D","title":"钱柜(浪达包装(上海)有限公司东)","lon":"121.48193","lat":"31.22918","category":"170","category_name":"KTV","address":"浙江南路68"},{"poiid":"B2094757D069A4F84793","title":"永宁台球","lon":"121.4814","lat":"31.22917","category":"171","category_name":"台球厅","address":"上海黄浦区永寿路11号4楼(近延安路高架)  "},{"poiid":"B2094757D66EA0F5449B","title":"新疆正宗烤羊肉串","lon":"121.480216738","lat":"31.2316683307","category":"247","category_name":"餐饮美食","address":"上海黄浦区浙江中路"},{"poiid":"B2094757D068A4F9489B","title":"京都拉面太郎","lon":"121.48188083","lat":"31.229529914","category":"95","category_name":"日本料理","address":"黄浦区浙江南路48号(近宁海东路)"},{"poiid":"B2094753D66BA0FA4793","title":"豪厨","lon":"121.482566","lat":"31.230209","category":"247","category_name":"餐饮美食","address":"上海市 福州路666号2楼"},{"poiid":"B2094757D46DA4F54499","title":"贯贯吉拉面","lon":"121.480504054","lat":"31.231652793","category":"90","category_name":"清真餐馆","address":"黄浦区浙江中路70号A座(近广东路)"},{"poiid":"B2094757D06AA4F4479C","title":"顺德面馆","lon":"121.48087","lat":"31.2315","category":"68","category_name":"快餐厅","address":"黄浦区广东路575号(近浙江中路)"}]