[{"poiid":"B2094655D26CA7F4429B","title":"复旦大学附属中山医院","lon":"121.45405","lat":"31.19857","category":"162","category_name":"医院","address":"医学院路111,136号"},{"poiid":"B2094757D06FA0F84793","title":"耶里夏丽 枫林店","lon":"121.4546063054","lat":"31.198207435713","category":"90","category_name":"清真餐馆","address":"徐汇区枫林路147号(近清真路)"},{"poiid":"B2094655D26DA3F9449E","title":"复旦大学附属中山医院门诊急诊部","lon":"121.45333","lat":"31.19884","category":"162","category_name":"医院","address":"医学院路111、136"},{"poiid":"B2094753D76FAAFA449C","title":"上海滩国泰旗舰店","lon":"121.466011","lat":"31.216125","category":"249","category_name":"购物服务","address":"淮海中路868号"},{"poiid":"B2094655D26CA4F84898","title":"复旦大学附属中山医院住院部","lon":"121.45423","lat":"31.1975","category":"265","category_name":"知名企业","address":"枫林路180号"},{"poiid":"B2094757D064A0F94198","title":"中山医院住院部1号楼","lon":"121.454551738","lat":"31.1979389123","category":"162","category_name":"医院","address":"上海枫林路180号"},{"poiid":"B2094757D06FAAFD4199","title":"孔家花园","lon":"121.453","lat":"31.1978","category":"47","category_name":"住宅区","address":"徐汇区斜土路2421号(近宛平南路)"},{"poiid":"B2094655D36DA1F5479B","title":"斜土路","lon":"121.45772","lat":"31.19815","category":"38","category_name":"公交车站","address":""},{"poiid":"B2094757D068A5FB469B","title":"复旦大学附属儿科医院(枫林路分院)","lon":"121.45477","lat":"31.19753","category":"162","category_name":"医院","address":"上海徐汇区枫林路183号(近斜土路)"},{"poiid":"B2094757D06FA1FF429F","title":"伶达港骨头皇火锅(枫林店)","lon":"121.45522","lat":"31.20049","category":"86","category_name":"火锅店","address":"徐汇区肇嘉浜路567号(近枫林路)"},{"poiid":"B2094757D56DA7FE499B","title":"徐家汇查餐厅","lon":"121.45405","lat":"31.19857","category":"247","category_name":"餐饮美食","address":"天钥桥路"},{"poiid":"B2094757D06FA4FB409A","title":"串串香麻辣烫(枫林路店)","lon":"121.45532","lat":"31.19775","category":"68","category_name":"快餐厅","address":"徐汇区枫林路155号(近中山医院)"},{"poiid":"B2094757D06AA5F4499F","title":"馥满江南菜","lon":"121.454896","lat":"31.199246","category":"76","category_name":"上海菜","address":"徐汇区医学院路79号(近枫林路)"},{"poiid":"B2094757D068A3FA499D","title":"中山医院住院部三号楼","lon":"121.453937593","lat":"31.1983534856","category":"162","category_name":"医院","address":"上海徐汇区枫林路180号(近医学院路)"},{"poiid":"B2094750DB68A3FF4898","title":"上海市复旦大学附属中山医院","lon":"121.456687","lat":"31.198736","category":"162","category_name":"医院","address":null},{"poiid":"B2094757D069A1F9419D","title":"中山医院10号楼手术室","lon":"121.453940275","lat":"31.1983488969","category":"162","category_name":"医院","address":"上海徐汇区枫林路180号(近医学院路)"},{"poiid":"B2094655D36CA6F84392","title":"枫林路斜土路","lon":"121.45569","lat":"31.1961","category":"38","category_name":"公交车站","address":""},{"poiid":"B2094757D064A5F4489C","title":"4号线东安路站","lon":"121.457173138","lat":"31.1970184927","category":"500","category_name":"未知分类","address":"上海东安路331号"},{"poiid":"B2094757D06BA3F9439E","title":"复旦大学附属中山医院急诊输液室","lon":"121.453645232","lat":"31.1989293545","category":"162","category_name":"医院","address":"徐汇区枫林路180号中山医院内(近医学院路)"},{"poiid":"B2094757D06BAAFA4599","title":"中山医院住院部九号楼","lon":"121.454636586","lat":"31.1974707905","category":"500","category_name":"未知分类","address":"上海市徐汇区肇嘉浜路"},{"poiid":"B2094654DA6DAAFD4293","title":"中山医院特诊部","lon":"121.45515","lat":"31.19751","category":"162","category_name":"医院","address":"枫林路169-1识别"},{"poiid":"B2094654DA6DAAFD439A","title":"妯娌老鸭粉丝馆枫林店","lon":"121.45495","lat":"31.19781","category":"68","category_name":"快餐厅","address":"徐汇区枫林路167号(近斜土路)"},{"poiid":"B2094655D26CA4FB479D","title":"串串香","lon":"121.45553","lat":"31.19803","category":"257","category_name":"中餐厅","address":"清真路1638-1640识别"},{"poiid":"B2094655D264A4FD449B","title":"紫燕百味鸡 枫林路店","lon":"121.454536054","lat":"31.198441793","category":"68","category_name":"快餐厅","address":"徐汇区枫林路167号(近医学院路)"},{"poiid":"B2094757D16DA1F8479F","title":"医学院路","lon":"121.45605018","lat":"31.200274212","category":"500","category_name":"未知分类","address":"上海医学院路69号"},{"poiid":"B2094655D26FA7FA4093","title":"中山新村(西门)","lon":"121.45465","lat":"31.19845","category":"47","category_name":"住宅区","address":"枫林路135"},{"poiid":"B2094654DA6DAAFE459F","title":"上海复旦大学儿科医院急诊","lon":"121.45561","lat":"31.19779","category":"162","category_name":"医院","address":"清真路1619识别"},{"poiid":"B2094757D064A2FF409C","title":"中山医院工会","lon":"121.45557211","lat":"31.19762358","category":"162","category_name":"医院","address":"上海小木桥路250号"},{"poiid":"B2094757D56EA2FF469E","title":"天目山庄","lon":"121.454923","lat":"31.199855","category":"247","category_name":"餐饮美食","address":"徐汇区大木桥路360号(近斜土路)"},{"poiid":"B2094757D06FABF94492","title":"中山医院检验科","lon":"121.45450558","lat":"31.198786816","category":"162","category_name":"医院","address":"上海市徐汇区枫林路180号门诊大楼C楼6楼"},{"poiid":"B2094655D26FA5FD4599","title":"中山新村","lon":"121.45507","lat":"31.198494","category":"47","category_name":"住宅区","address":"医学院路110弄3-33号"},{"poiid":"B2094750D364A7FA4593","title":"Godhands_歌特翰丝艺术形象设计","lon":"121.45719","lat":"31.19931","category":"148","category_name":"美容美发店","address":"上海市徐汇区衡山路235号"},{"poiid":"B2094757D568A4FC4198","title":"中山医院新外科大楼","lon":"121.4540968","lat":"31.19750493","category":"162","category_name":"医院","address":"枫林路180号"},{"poiid":"B2094655D26BABFB429B","title":"徽州风味咸肉菜饭骨头汤","lon":"121.45547","lat":"31.19918","category":"68","category_name":"快餐厅","address":"徐汇区医学院路100号(近中山医院)"},{"poiid":"B2094654DA6DAAFD4398","title":"良友(枫林路)","lon":"121.45489","lat":"31.19795","category":"117","category_name":"便民商店/便利店","address":"枫林路161"},{"poiid":"B2094757D66EA4FC469B","title":"清真路特色葱油饼","lon":"121.456954019","lat":"31.1987728863","category":"68","category_name":"快餐厅","address":"徐汇区小木桥路1号(近中山南二路)"},{"poiid":"B2094757D168A0FF479E","title":"复旦大学附属中山医院五号楼","lon":"121.452995311","lat":"31.1973022872","category":"162","category_name":"医院","address":"上海枫林路180号"},{"poiid":"B2094655D26EA2F54492","title":"罗森枫林路店","lon":"121.45455","lat":"31.19861","category":"117","category_name":"便民商店/便利店","address":"枫林路97"},{"poiid":"B2094654DA6DAAFD4399","title":"快客(枫林路)","lon":"121.45481","lat":"31.19809","category":"117","category_name":"便民商店/便利店","address":"枫林路155"},{"poiid":"B2094757D168A4FC409D","title":"中山医院急诊","lon":"121.45386328","lat":"31.19900592","category":"162","category_name":"医院","address":"上海急诊"},{"poiid":"B2094654DA6DAAFE449A","title":"牛奶棚No.077","lon":"121.45529","lat":"31.19915","category":"117","category_name":"便民商店/便利店","address":""},{"poiid":"B2094654DA6DAAFD4993","title":"浙江菜馆","lon":"121.45441","lat":"31.19899","category":"68","category_name":"快餐厅","address":"徐汇区医学院路(近枫林路)"},{"poiid":"B2094757D16BA2FB4299","title":"阿三生煎","lon":"121.46027","lat":"31.19409","category":"68","category_name":"快餐厅","address":"徐汇区小木桥路(近零陵路)"},{"poiid":"B2094655D26FA1FD4599","title":"真汉咖啡剧场","lon":"121.45417","lat":"31.19947","category":"180","category_name":"剧场","address":"徐汇区肇嘉浜路555号(近枫林路)"},{"poiid":"B2094757D06AA6FF4098","title":"神話LEGEND","lon":"121.457754","lat":"31.19685","category":"148","category_name":"美容美发店","address":"上海徐匯區斜土路1579號"},{"poiid":"B2094750D668A3FD499D","title":"中山医院新门诊楼","lon":"121.456878","lat":"31.198402","category":"162","category_name":"医院","address":null},{"poiid":"B2094750D36BA7FB4292","title":"慕寿司","lon":"121.458076","lat":"31.198871","category":"95","category_name":"日本料理","address":"徐汇区清真路134号(近小木桥路)"},{"poiid":"B2094654DB6BA5F5489A","title":"汇丰大药房枫林店(边门)","lon":"121.45447","lat":"31.19876","category":"162","category_name":"医院","address":"枫林路81"},{"poiid":"B2094757D16EABFB4499","title":"中山医院住院8号楼","lon":"121.45390858","lat":"31.196357768","category":"162","category_name":"医院","address":"上海市徐汇区枫林路180号中山医院住院部"},{"poiid":"B2094757D66CA2FE459A","title":"清真牛肉拉面馆","lon":"121.45445273","lat":"31.198034614","category":"247","category_name":"餐饮美食","address":"上海市徐汇区平江路234号"},{"poiid":"B2094655D26CA7F4429B","title":"复旦大学附属中山医院","lon":"121.45405","lat":"31.19857","category":"162","category_name":"医院","address":"医学院路111,136号"},{"poiid":"B2094757D06FA0F84793","title":"耶里夏丽 枫林店","lon":"121.4546063054","lat":"31.198207435713","category":"90","category_name":"清真餐馆","address":"徐汇区枫林路147号(近清真路)"},{"poiid":"B2094655D26DA3F9449E","title":"复旦大学附属中山医院门诊急诊部","lon":"121.45333","lat":"31.19884","category":"162","category_name":"医院","address":"医学院路111、136"},{"poiid":"B2094753D76FAAFA449C","title":"上海滩国泰旗舰店","lon":"121.466011","lat":"31.216125","category":"249","category_name":"购物服务","address":"淮海中路868号"},{"poiid":"B2094655D26CA4F84898","title":"复旦大学附属中山医院住院部","lon":"121.45423","lat":"31.1975","category":"265","category_name":"知名企业","address":"枫林路180号"},{"poiid":"B2094757D064A0F94198","title":"中山医院住院部1号楼","lon":"121.454551738","lat":"31.1979389123","category":"162","category_name":"医院","address":"上海枫林路180号"},{"poiid":"B2094757D06FAAFD4199","title":"孔家花园","lon":"121.453","lat":"31.1978","category":"47","category_name":"住宅区","address":"徐汇区斜土路2421号(近宛平南路)"},{"poiid":"B2094655D36DA1F5479B","title":"斜土路","lon":"121.45772","lat":"31.19815","category":"38","category_name":"公交车站","address":""},{"poiid":"B2094757D068A5FB469B","title":"复旦大学附属儿科医院(枫林路分院)","lon":"121.45477","lat":"31.19753","category":"162","category_name":"医院","address":"上海徐汇区枫林路183号(近斜土路)"},{"poiid":"B2094757D06FA1FF429F","title":"伶达港骨头皇火锅(枫林店)","lon":"121.45522","lat":"31.20049","category":"86","category_name":"火锅店","address":"徐汇区肇嘉浜路567号(近枫林路)"},{"poiid":"B2094757D56DA7FE499B","title":"徐家汇查餐厅","lon":"121.45405","lat":"31.19857","category":"247","category_name":"餐饮美食","address":"天钥桥路"},{"poiid":"B2094757D06FA4FB409A","title":"串串香麻辣烫(枫林路店)","lon":"121.45532","lat":"31.19775","category":"68","category_name":"快餐厅","address":"徐汇区枫林路155号(近中山医院)"},{"poiid":"B2094757D06AA5F4499F","title":"馥满江南菜","lon":"121.454896","lat":"31.199246","category":"76","category_name":"上海菜","address":"徐汇区医学院路79号(近枫林路)"},{"poiid":"B2094757D068A3FA499D","title":"中山医院住院部三号楼","lon":"121.453937593","lat":"31.1983534856","category":"162","category_name":"医院","address":"上海徐汇区枫林路180号(近医学院路)"},{"poiid":"B2094750DB68A3FF4898","title":"上海市复旦大学附属中山医院","lon":"121.456687","lat":"31.198736","category":"162","category_name":"医院","address":null},{"poiid":"B2094757D069A1F9419D","title":"中山医院10号楼手术室","lon":"121.453940275","lat":"31.1983488969","category":"162","category_name":"医院","address":"上海徐汇区枫林路180号(近医学院路)"},{"poiid":"B2094655D36CA6F84392","title":"枫林路斜土路","lon":"121.45569","lat":"31.1961","category":"38","category_name":"公交车站","address":""},{"poiid":"B2094757D064A5F4489C","title":"4号线东安路站","lon":"121.457173138","lat":"31.1970184927","category":"500","category_name":"未知分类","address":"上海东安路331号"},{"poiid":"B2094757D06BA3F9439E","title":"复旦大学附属中山医院急诊输液室","lon":"121.453645232","lat":"31.1989293545","category":"162","category_name":"医院","address":"徐汇区枫林路180号中山医院内(近医学院路)"},{"poiid":"B2094757D06BAAFA4599","title":"中山医院住院部九号楼","lon":"121.454636586","lat":"31.1974707905","category":"500","category_name":"未知分类","address":"上海市徐汇区肇嘉浜路"},{"poiid":"B2094654DA6DAAFD4293","title":"中山医院特诊部","lon":"121.45515","lat":"31.19751","category":"162","category_name":"医院","address":"枫林路169-1识别"},{"poiid":"B2094654DA6DAAFD439A","title":"妯娌老鸭粉丝馆枫林店","lon":"121.45495","lat":"31.19781","category":"68","category_name":"快餐厅","address":"徐汇区枫林路167号(近斜土路)"},{"poiid":"B2094655D26CA4FB479D","title":"串串香","lon":"121.45553","lat":"31.19803","category":"257","category_name":"中餐厅","address":"清真路1638-1640识别"},{"poiid":"B2094655D264A4FD449B","title":"紫燕百味鸡 枫林路店","lon":"121.454536054","lat":"31.198441793","category":"68","category_name":"快餐厅","address":"徐汇区枫林路167号(近医学院路)"},{"poiid":"B2094757D16DA1F8479F","title":"医学院路","lon":"121.45605018","lat":"31.200274212","category":"500","category_name":"未知分类","address":"上海医学院路69号"},{"poiid":"B2094655D26FA7FA4093","title":"中山新村(西门)","lon":"121.45465","lat":"31.19845","category":"47","category_name":"住宅区","address":"枫林路135"},{"poiid":"B2094654DA6DAAFE459F","title":"上海复旦大学儿科医院急诊","lon":"121.45561","lat":"31.19779","category":"162","category_name":"医院","address":"清真路1619识别"},{"poiid":"B2094757D064A2FF409C","title":"中山医院工会","lon":"121.45557211","lat":"31.19762358","category":"162","category_name":"医院","address":"上海小木桥路250号"},{"poiid":"B2094757D56EA2FF469E","title":"天目山庄","lon":"121.454923","lat":"31.199855","category":"247","category_name":"餐饮美食","address":"徐汇区大木桥路360号(近斜土路)"},{"poiid":"B2094757D06FABF94492","title":"中山医院检验科","lon":"121.45450558","lat":"31.198786816","category":"162","category_name":"医院","address":"上海市徐汇区枫林路180号门诊大楼C楼6楼"},{"poiid":"B2094655D26FA5FD4599","title":"中山新村","lon":"121.45507","lat":"31.198494","category":"47","category_name":"住宅区","address":"医学院路110弄3-33号"},{"poiid":"B2094750D364A7FA4593","title":"Godhands_歌特翰丝艺术形象设计","lon":"121.45719","lat":"31.19931","category":"148","category_name":"美容美发店","address":"上海市徐汇区衡山路235号"},{"poiid":"B2094757D568A4FC4198","title":"中山医院新外科大楼","lon":"121.4540968","lat":"31.19750493","category":"162","category_name":"医院","address":"枫林路180号"},{"poiid":"B2094655D26BABFB429B","title":"徽州风味咸肉菜饭骨头汤","lon":"121.45547","lat":"31.19918","category":"68","category_name":"快餐厅","address":"徐汇区医学院路100号(近中山医院)"},{"poiid":"B2094654DA6DAAFD4398","title":"良友(枫林路)","lon":"121.45489","lat":"31.19795","category":"117","category_name":"便民商店/便利店","address":"枫林路161"},{"poiid":"B2094757D66EA4FC469B","title":"清真路特色葱油饼","lon":"121.456954019","lat":"31.1987728863","category":"68","category_name":"快餐厅","address":"徐汇区小木桥路1号(近中山南二路)"},{"poiid":"B2094757D168A0FF479E","title":"复旦大学附属中山医院五号楼","lon":"121.452995311","lat":"31.1973022872","category":"162","category_name":"医院","address":"上海枫林路180号"},{"poiid":"B2094655D26EA2F54492","title":"罗森枫林路店","lon":"121.45455","lat":"31.19861","category":"117","category_name":"便民商店/便利店","address":"枫林路97"},{"poiid":"B2094654DA6DAAFD4399","title":"快客(枫林路)","lon":"121.45481","lat":"31.19809","category":"117","category_name":"便民商店/便利店","address":"枫林路155"},{"poiid":"B2094757D168A4FC409D","title":"中山医院急诊","lon":"121.45386328","lat":"31.19900592","category":"162","category_name":"医院","address":"上海急诊"},{"poiid":"B2094654DA6DAAFE449A","title":"牛奶棚No.077","lon":"121.45529","lat":"31.19915","category":"117","category_name":"便民商店/便利店","address":""},{"poiid":"B2094654DA6DAAFD4993","title":"浙江菜馆","lon":"121.45441","lat":"31.19899","category":"68","category_name":"快餐厅","address":"徐汇区医学院路(近枫林路)"},{"poiid":"B2094757D16BA2FB4299","title":"阿三生煎","lon":"121.46027","lat":"31.19409","category":"68","category_name":"快餐厅","address":"徐汇区小木桥路(近零陵路)"},{"poiid":"B2094655D26FA1FD4599","title":"真汉咖啡剧场","lon":"121.45417","lat":"31.19947","category":"180","category_name":"剧场","address":"徐汇区肇嘉浜路555号(近枫林路)"},{"poiid":"B2094757D06AA6FF4098","title":"神話LEGEND","lon":"121.457754","lat":"31.19685","category":"148","category_name":"美容美发店","address":"上海徐匯區斜土路1579號"},{"poiid":"B2094750D668A3FD499D","title":"中山医院新门诊楼","lon":"121.456878","lat":"31.198402","category":"162","category_name":"医院","address":null},{"poiid":"B2094750D36BA7FB4292","title":"慕寿司","lon":"121.458076","lat":"31.198871","category":"95","category_name":"日本料理","address":"徐汇区清真路134号(近小木桥路)"},{"poiid":"B2094654DB6BA5F5489A","title":"汇丰大药房枫林店(边门)","lon":"121.45447","lat":"31.19876","category":"162","category_name":"医院","address":"枫林路81"},{"poiid":"B2094757D16EABFB4499","title":"中山医院住院8号楼","lon":"121.45390858","lat":"31.196357768","category":"162","category_name":"医院","address":"上海市徐汇区枫林路180号中山医院住院部"},{"poiid":"B2094757D66CA2FE459A","title":"清真牛肉拉面馆","lon":"121.45445273","lat":"31.198034614","category":"247","category_name":"餐饮美食","address":"上海市徐汇区平江路234号"},{"poiid":"B2094655D26CA7F4429B","title":"复旦大学附属中山医院","lon":"121.45405","lat":"31.19857","category":"162","category_name":"医院","address":"医学院路111,136号"},{"poiid":"B2094757D06FA0F84793","title":"耶里夏丽 枫林店","lon":"121.4546063054","lat":"31.198207435713","category":"90","category_name":"清真餐馆","address":"徐汇区枫林路147号(近清真路)"},{"poiid":"B2094655D26DA3F9449E","title":"复旦大学附属中山医院门诊急诊部","lon":"121.45333","lat":"31.19884","category":"162","category_name":"医院","address":"医学院路111、136"},{"poiid":"B2094753D76FAAFA449C","title":"上海滩国泰旗舰店","lon":"121.466011","lat":"31.216125","category":"249","category_name":"购物服务","address":"淮海中路868号"},{"poiid":"B2094655D26CA4F84898","title":"复旦大学附属中山医院住院部","lon":"121.45423","lat":"31.1975","category":"265","category_name":"知名企业","address":"枫林路180号"},{"poiid":"B2094757D064A0F94198","title":"中山医院住院部1号楼","lon":"121.454551738","lat":"31.1979389123","category":"162","category_name":"医院","address":"上海枫林路180号"},{"poiid":"B2094757D06FAAFD4199","title":"孔家花园","lon":"121.453","lat":"31.1978","category":"47","category_name":"住宅区","address":"徐汇区斜土路2421号(近宛平南路)"},{"poiid":"B2094655D36DA1F5479B","title":"斜土路","lon":"121.45772","lat":"31.19815","category":"38","category_name":"公交车站","address":""},{"poiid":"B2094757D068A5FB469B","title":"复旦大学附属儿科医院(枫林路分院)","lon":"121.45477","lat":"31.19753","category":"162","category_name":"医院","address":"上海徐汇区枫林路183号(近斜土路)"},{"poiid":"B2094757D06FA1FF429F","title":"伶达港骨头皇火锅(枫林店)","lon":"121.45522","lat":"31.20049","category":"86","category_name":"火锅店","address":"徐汇区肇嘉浜路567号(近枫林路)"},{"poiid":"B2094757D56DA7FE499B","title":"徐家汇查餐厅","lon":"121.45405","lat":"31.19857","category":"247","category_name":"餐饮美食","address":"天钥桥路"},{"poiid":"B2094757D06FA4FB409A","title":"串串香麻辣烫(枫林路店)","lon":"121.45532","lat":"31.19775","category":"68","category_name":"快餐厅","address":"徐汇区枫林路155号(近中山医院)"},{"poiid":"B2094757D06AA5F4499F","title":"馥满江南菜","lon":"121.454896","lat":"31.199246","category":"76","category_name":"上海菜","address":"徐汇区医学院路79号(近枫林路)"},{"poiid":"B2094757D068A3FA499D","title":"中山医院住院部三号楼","lon":"121.453937593","lat":"31.1983534856","category":"162","category_name":"医院","address":"上海徐汇区枫林路180号(近医学院路)"},{"poiid":"B2094750DB68A3FF4898","title":"上海市复旦大学附属中山医院","lon":"121.456687","lat":"31.198736","category":"162","category_name":"医院","address":null},{"poiid":"B2094757D069A1F9419D","title":"中山医院10号楼手术室","lon":"121.453940275","lat":"31.1983488969","category":"162","category_name":"医院","address":"上海徐汇区枫林路180号(近医学院路)"},{"poiid":"B2094655D36CA6F84392","title":"枫林路斜土路","lon":"121.45569","lat":"31.1961","category":"38","category_name":"公交车站","address":""},{"poiid":"B2094757D064A5F4489C","title":"4号线东安路站","lon":"121.457173138","lat":"31.1970184927","category":"500","category_name":"未知分类","address":"上海东安路331号"},{"poiid":"B2094757D06BA3F9439E","title":"复旦大学附属中山医院急诊输液室","lon":"121.453645232","lat":"31.1989293545","category":"162","category_name":"医院","address":"徐汇区枫林路180号中山医院内(近医学院路)"},{"poiid":"B2094757D06BAAFA4599","title":"中山医院住院部九号楼","lon":"121.454636586","lat":"31.1974707905","category":"500","category_name":"未知分类","address":"上海市徐汇区肇嘉浜路"},{"poiid":"B2094654DA6DAAFD4293","title":"中山医院特诊部","lon":"121.45515","lat":"31.19751","category":"162","category_name":"医院","address":"枫林路169-1识别"},{"poiid":"B2094654DA6DAAFD439A","title":"妯娌老鸭粉丝馆枫林店","lon":"121.45495","lat":"31.19781","category":"68","category_name":"快餐厅","address":"徐汇区枫林路167号(近斜土路)"},{"poiid":"B2094655D26CA4FB479D","title":"串串香","lon":"121.45553","lat":"31.19803","category":"257","category_name":"中餐厅","address":"清真路1638-1640识别"},{"poiid":"B2094655D264A4FD449B","title":"紫燕百味鸡 枫林路店","lon":"121.454536054","lat":"31.198441793","category":"68","category_name":"快餐厅","address":"徐汇区枫林路167号(近医学院路)"},{"poiid":"B2094757D16DA1F8479F","title":"医学院路","lon":"121.45605018","lat":"31.200274212","category":"500","category_name":"未知分类","address":"上海医学院路69号"},{"poiid":"B2094655D26FA7FA4093","title":"中山新村(西门)","lon":"121.45465","lat":"31.19845","category":"47","category_name":"住宅区","address":"枫林路135"},{"poiid":"B2094654DA6DAAFE459F","title":"上海复旦大学儿科医院急诊","lon":"121.45561","lat":"31.19779","category":"162","category_name":"医院","address":"清真路1619识别"},{"poiid":"B2094757D064A2FF409C","title":"中山医院工会","lon":"121.45557211","lat":"31.19762358","category":"162","category_name":"医院","address":"上海小木桥路250号"},{"poiid":"B2094757D56EA2FF469E","title":"天目山庄","lon":"121.454923","lat":"31.199855","category":"247","category_name":"餐饮美食","address":"徐汇区大木桥路360号(近斜土路)"},{"poiid":"B2094757D06FABF94492","title":"中山医院检验科","lon":"121.45450558","lat":"31.198786816","category":"162","category_name":"医院","address":"上海市徐汇区枫林路180号门诊大楼C楼6楼"},{"poiid":"B2094655D26FA5FD4599","title":"中山新村","lon":"121.45507","lat":"31.198494","category":"47","category_name":"住宅区","address":"医学院路110弄3-33号"},{"poiid":"B2094750D364A7FA4593","title":"Godhands_歌特翰丝艺术形象设计","lon":"121.45719","lat":"31.19931","category":"148","category_name":"美容美发店","address":"上海市徐汇区衡山路235号"},{"poiid":"B2094757D568A4FC4198","title":"中山医院新外科大楼","lon":"121.4540968","lat":"31.19750493","category":"162","category_name":"医院","address":"枫林路180号"},{"poiid":"B2094655D26BABFB429B","title":"徽州风味咸肉菜饭骨头汤","lon":"121.45547","lat":"31.19918","category":"68","category_name":"快餐厅","address":"徐汇区医学院路100号(近中山医院)"},{"poiid":"B2094654DA6DAAFD4398","title":"良友(枫林路)","lon":"121.45489","lat":"31.19795","category":"117","category_name":"便民商店/便利店","address":"枫林路161"},{"poiid":"B2094757D66EA4FC469B","title":"清真路特色葱油饼","lon":"121.456954019","lat":"31.1987728863","category":"68","category_name":"快餐厅","address":"徐汇区小木桥路1号(近中山南二路)"},{"poiid":"B2094757D168A0FF479E","title":"复旦大学附属中山医院五号楼","lon":"121.452995311","lat":"31.1973022872","category":"162","category_name":"医院","address":"上海枫林路180号"},{"poiid":"B2094655D26EA2F54492","title":"罗森枫林路店","lon":"121.45455","lat":"31.19861","category":"117","category_name":"便民商店/便利店","address":"枫林路97"},{"poiid":"B2094654DA6DAAFD4399","title":"快客(枫林路)","lon":"121.45481","lat":"31.19809","category":"117","category_name":"便民商店/便利店","address":"枫林路155"},{"poiid":"B2094757D168A4FC409D","title":"中山医院急诊","lon":"121.45386328","lat":"31.19900592","category":"162","category_name":"医院","address":"上海急诊"},{"poiid":"B2094654DA6DAAFE449A","title":"牛奶棚No.077","lon":"121.45529","lat":"31.19915","category":"117","category_name":"便民商店/便利店","address":""},{"poiid":"B2094654DA6DAAFD4993","title":"浙江菜馆","lon":"121.45441","lat":"31.19899","category":"68","category_name":"快餐厅","address":"徐汇区医学院路(近枫林路)"},{"poiid":"B2094757D16BA2FB4299","title":"阿三生煎","lon":"121.46027","lat":"31.19409","category":"68","category_name":"快餐厅","address":"徐汇区小木桥路(近零陵路)"},{"poiid":"B2094655D26FA1FD4599","title":"真汉咖啡剧场","lon":"121.45417","lat":"31.19947","category":"180","category_name":"剧场","address":"徐汇区肇嘉浜路555号(近枫林路)"},{"poiid":"B2094757D06AA6FF4098","title":"神話LEGEND","lon":"121.457754","lat":"31.19685","category":"148","category_name":"美容美发店","address":"上海徐匯區斜土路1579號"},{"poiid":"B2094750D668A3FD499D","title":"中山医院新门诊楼","lon":"121.456878","lat":"31.198402","category":"162","category_name":"医院","address":null},{"poiid":"B2094750D36BA7FB4292","title":"慕寿司","lon":"121.458076","lat":"31.198871","category":"95","category_name":"日本料理","address":"徐汇区清真路134号(近小木桥路)"},{"poiid":"B2094654DB6BA5F5489A","title":"汇丰大药房枫林店(边门)","lon":"121.45447","lat":"31.19876","category":"162","category_name":"医院","address":"枫林路81"},{"poiid":"B2094757D16EABFB4499","title":"中山医院住院8号楼","lon":"121.45390858","lat":"31.196357768","category":"162","category_name":"医院","address":"上海市徐汇区枫林路180号中山医院住院部"},{"poiid":"B2094757D66CA2FE459A","title":"清真牛肉拉面馆","lon":"121.45445273","lat":"31.198034614","category":"247","category_name":"餐饮美食","address":"上海市徐汇区平江路234号"},{"poiid":"B2094655D26CA7F4429B","title":"复旦大学附属中山医院","lon":"121.45405","lat":"31.19857","category":"162","category_name":"医院","address":"医学院路111,136号"},{"poiid":"B2094757D06FA0F84793","title":"耶里夏丽 枫林店","lon":"121.4546063054","lat":"31.198207435713","category":"90","category_name":"清真餐馆","address":"徐汇区枫林路147号(近清真路)"},{"poiid":"B2094655D26DA3F9449E","title":"复旦大学附属中山医院门诊急诊部","lon":"121.45333","lat":"31.19884","category":"162","category_name":"医院","address":"医学院路111、136"},{"poiid":"B2094753D76FAAFA449C","title":"上海滩国泰旗舰店","lon":"121.466011","lat":"31.216125","category":"249","category_name":"购物服务","address":"淮海中路868号"},{"poiid":"B2094655D26CA4F84898","title":"复旦大学附属中山医院住院部","lon":"121.45423","lat":"31.1975","category":"265","category_name":"知名企业","address":"枫林路180号"},{"poiid":"B2094757D064A0F94198","title":"中山医院住院部1号楼","lon":"121.454551738","lat":"31.1979389123","category":"162","category_name":"医院","address":"上海枫林路180号"},{"poiid":"B2094757D06FAAFD4199","title":"孔家花园","lon":"121.453","lat":"31.1978","category":"47","category_name":"住宅区","address":"徐汇区斜土路2421号(近宛平南路)"},{"poiid":"B2094655D36DA1F5479B","title":"斜土路","lon":"121.45772","lat":"31.19815","category":"38","category_name":"公交车站","address":""},{"poiid":"B2094757D068A5FB469B","title":"复旦大学附属儿科医院(枫林路分院)","lon":"121.45477","lat":"31.19753","category":"162","category_name":"医院","address":"上海徐汇区枫林路183号(近斜土路)"},{"poiid":"B2094757D06FA1FF429F","title":"伶达港骨头皇火锅(枫林店)","lon":"121.45522","lat":"31.20049","category":"86","category_name":"火锅店","address":"徐汇区肇嘉浜路567号(近枫林路)"},{"poiid":"B2094757D56DA7FE499B","title":"徐家汇查餐厅","lon":"121.45405","lat":"31.19857","category":"247","category_name":"餐饮美食","address":"天钥桥路"},{"poiid":"B2094757D06FA4FB409A","title":"串串香麻辣烫(枫林路店)","lon":"121.45532","lat":"31.19775","category":"68","category_name":"快餐厅","address":"徐汇区枫林路155号(近中山医院)"},{"poiid":"B2094757D06AA5F4499F","title":"馥满江南菜","lon":"121.454896","lat":"31.199246","category":"76","category_name":"上海菜","address":"徐汇区医学院路79号(近枫林路)"},{"poiid":"B2094757D068A3FA499D","title":"中山医院住院部三号楼","lon":"121.453937593","lat":"31.1983534856","category":"162","category_name":"医院","address":"上海徐汇区枫林路180号(近医学院路)"},{"poiid":"B2094750DB68A3FF4898","title":"上海市复旦大学附属中山医院","lon":"121.456687","lat":"31.198736","category":"162","category_name":"医院","address":null},{"poiid":"B2094757D069A1F9419D","title":"中山医院10号楼手术室","lon":"121.453940275","lat":"31.1983488969","category":"162","category_name":"医院","address":"上海徐汇区枫林路180号(近医学院路)"},{"poiid":"B2094655D36CA6F84392","title":"枫林路斜土路","lon":"121.45569","lat":"31.1961","category":"38","category_name":"公交车站","address":""},{"poiid":"B2094757D064A5F4489C","title":"4号线东安路站","lon":"121.457173138","lat":"31.1970184927","category":"500","category_name":"未知分类","address":"上海东安路331号"},{"poiid":"B2094757D06BA3F9439E","title":"复旦大学附属中山医院急诊输液室","lon":"121.453645232","lat":"31.1989293545","category":"162","category_name":"医院","address":"徐汇区枫林路180号中山医院内(近医学院路)"},{"poiid":"B2094757D06BAAFA4599","title":"中山医院住院部九号楼","lon":"121.454636586","lat":"31.1974707905","category":"500","category_name":"未知分类","address":"上海市徐汇区肇嘉浜路"},{"poiid":"B2094654DA6DAAFD4293","title":"中山医院特诊部","lon":"121.45515","lat":"31.19751","category":"162","category_name":"医院","address":"枫林路169-1识别"},{"poiid":"B2094654DA6DAAFD439A","title":"妯娌老鸭粉丝馆枫林店","lon":"121.45495","lat":"31.19781","category":"68","category_name":"快餐厅","address":"徐汇区枫林路167号(近斜土路)"},{"poiid":"B2094655D26CA4FB479D","title":"串串香","lon":"121.45553","lat":"31.19803","category":"257","category_name":"中餐厅","address":"清真路1638-1640识别"},{"poiid":"B2094655D264A4FD449B","title":"紫燕百味鸡 枫林路店","lon":"121.454536054","lat":"31.198441793","category":"68","category_name":"快餐厅","address":"徐汇区枫林路167号(近医学院路)"},{"poiid":"B2094757D16DA1F8479F","title":"医学院路","lon":"121.45605018","lat":"31.200274212","category":"500","category_name":"未知分类","address":"上海医学院路69号"},{"poiid":"B2094655D26FA7FA4093","title":"中山新村(西门)","lon":"121.45465","lat":"31.19845","category":"47","category_name":"住宅区","address":"枫林路135"},{"poiid":"B2094654DA6DAAFE459F","title":"上海复旦大学儿科医院急诊","lon":"121.45561","lat":"31.19779","category":"162","category_name":"医院","address":"清真路1619识别"},{"poiid":"B2094757D064A2FF409C","title":"中山医院工会","lon":"121.45557211","lat":"31.19762358","category":"162","category_name":"医院","address":"上海小木桥路250号"},{"poiid":"B2094757D56EA2FF469E","title":"天目山庄","lon":"121.454923","lat":"31.199855","category":"247","category_name":"餐饮美食","address":"徐汇区大木桥路360号(近斜土路)"},{"poiid":"B2094757D06FABF94492","title":"中山医院检验科","lon":"121.45450558","lat":"31.198786816","category":"162","category_name":"医院","address":"上海市徐汇区枫林路180号门诊大楼C楼6楼"},{"poiid":"B2094655D26FA5FD4599","title":"中山新村","lon":"121.45507","lat":"31.198494","category":"47","category_name":"住宅区","address":"医学院路110弄3-33号"},{"poiid":"B2094750D364A7FA4593","title":"Godhands_歌特翰丝艺术形象设计","lon":"121.45719","lat":"31.19931","category":"148","category_name":"美容美发店","address":"上海市徐汇区衡山路235号"},{"poiid":"B2094757D568A4FC4198","title":"中山医院新外科大楼","lon":"121.4540968","lat":"31.19750493","category":"162","category_name":"医院","address":"枫林路180号"},{"poiid":"B2094655D26BABFB429B","title":"徽州风味咸肉菜饭骨头汤","lon":"121.45547","lat":"31.19918","category":"68","category_name":"快餐厅","address":"徐汇区医学院路100号(近中山医院)"},{"poiid":"B2094654DA6DAAFD4398","title":"良友(枫林路)","lon":"121.45489","lat":"31.19795","category":"117","category_name":"便民商店/便利店","address":"枫林路161"},{"poiid":"B2094757D66EA4FC469B","title":"清真路特色葱油饼","lon":"121.456954019","lat":"31.1987728863","category":"68","category_name":"快餐厅","address":"徐汇区小木桥路1号(近中山南二路)"},{"poiid":"B2094757D168A0FF479E","title":"复旦大学附属中山医院五号楼","lon":"121.452995311","lat":"31.1973022872","category":"162","category_name":"医院","address":"上海枫林路180号"},{"poiid":"B2094655D26EA2F54492","title":"罗森枫林路店","lon":"121.45455","lat":"31.19861","category":"117","category_name":"便民商店/便利店","address":"枫林路97"},{"poiid":"B2094654DA6DAAFD4399","title":"快客(枫林路)","lon":"121.45481","lat":"31.19809","category":"117","category_name":"便民商店/便利店","address":"枫林路155"},{"poiid":"B2094757D168A4FC409D","title":"中山医院急诊","lon":"121.45386328","lat":"31.19900592","category":"162","category_name":"医院","address":"上海急诊"},{"poiid":"B2094654DA6DAAFE449A","title":"牛奶棚No.077","lon":"121.45529","lat":"31.19915","category":"117","category_name":"便民商店/便利店","address":""},{"poiid":"B2094654DA6DAAFD4993","title":"浙江菜馆","lon":"121.45441","lat":"31.19899","category":"68","category_name":"快餐厅","address":"徐汇区医学院路(近枫林路)"},{"poiid":"B2094757D16BA2FB4299","title":"阿三生煎","lon":"121.46027","lat":"31.19409","category":"68","category_name":"快餐厅","address":"徐汇区小木桥路(近零陵路)"},{"poiid":"B2094655D26FA1FD4599","title":"真汉咖啡剧场","lon":"121.45417","lat":"31.19947","category":"180","category_name":"剧场","address":"徐汇区肇嘉浜路555号(近枫林路)"},{"poiid":"B2094757D06AA6FF4098","title":"神話LEGEND","lon":"121.457754","lat":"31.19685","category":"148","category_name":"美容美发店","address":"上海徐匯區斜土路1579號"},{"poiid":"B2094750D668A3FD499D","title":"中山医院新门诊楼","lon":"121.456878","lat":"31.198402","category":"162","category_name":"医院","address":null},{"poiid":"B2094750D36BA7FB4292","title":"慕寿司","lon":"121.458076","lat":"31.198871","category":"95","category_name":"日本料理","address":"徐汇区清真路134号(近小木桥路)"},{"poiid":"B2094654DB6BA5F5489A","title":"汇丰大药房枫林店(边门)","lon":"121.45447","lat":"31.19876","category":"162","category_name":"医院","address":"枫林路81"},{"poiid":"B2094757D16EABFB4499","title":"中山医院住院8号楼","lon":"121.45390858","lat":"31.196357768","category":"162","category_name":"医院","address":"上海市徐汇区枫林路180号中山医院住院部"},{"poiid":"B2094757D66CA2FE459A","title":"清真牛肉拉面馆","lon":"121.45445273","lat":"31.198034614","category":"247","category_name":"餐饮美食","address":"上海市徐汇区平江路234号"}]