[{"poiid":"B2094655D26DA6FC479C","title":"瑞和苑(瑞和路)","lon":"121.58839","lat":"31.08561","category":"47","category_name":"住宅区","address":"瑞和路168弄1-42号"},{"poiid":"B2094757D06EAAFF449B","title":"光明驾校","lon":"121.584971","lat":"31.099637","category":"253","category_name":"校园生活","address":"浦东新区周浦镇周祝公路158号(近沪南公路)"},{"poiid":"B2094757D069A6FD4192","title":"召稼楼古镇","lon":"121.58206","lat":"31.08402","category":"250","category_name":"公园户外","address":"上海闵行区沈杜公路(近苏召路)"},{"poiid":"B2094655D26DA0FA459C","title":"桃园新城中城苑","lon":"121.58813","lat":"31.08945","category":"47","category_name":"住宅区","address":""},{"poiid":"B2094757D068A0FF439F","title":"欧风家园","lon":"121.58738","lat":"31.095015","category":"500","category_name":"未知分类","address":"瑞意路77弄"},{"poiid":"B2094655D36CA1FC4499","title":"沈庄","lon":"121.58408","lat":"31.08462","category":"38","category_name":"公交车站","address":""},{"poiid":"B2094757D069A5FC4292","title":"周浦监狱","lon":"121.581641","lat":"31.104608","category":"608","category_name":"法院","address":"上海沪南公路近三十七厂"},{"poiid":"B2094655D26DA0FA4592","title":"汇腾东苑","lon":"121.58649","lat":"31.091671","category":"47","category_name":"住宅区","address":"瑞浦路611弄1-22号"},{"poiid":"B2094655D36DA7F94793","title":"周东南路","lon":"121.59181","lat":"31.08753","category":"38","category_name":"公交车站","address":"周东南路"},{"poiid":"B2094655D26DA0FA459D","title":"安阁苑(北区)","lon":"121.59036","lat":"31.0909","category":"47","category_name":"住宅区","address":"瑞安路211弄1-49号"},{"poiid":"B2094654DB64A4FD409B","title":"南汇区周浦镇社区卫生服务中心","lon":"121.58511","lat":"31.09308","category":"162","category_name":"医院","address":"浦东新区沈梅东路163号(近康沈路)"},{"poiid":"B2094655D26DA6FC479D","title":"汇腾南苑","lon":"121.58482","lat":"31.090767","category":"47","category_name":"住宅区","address":"瑞浦路612弄1-56号"},{"poiid":"B2094654DB6DA3FC499C","title":"华东师范大学附属周浦中学","lon":"121.57445","lat":"31.10449","category":"55","category_name":"中学","address":"繁荣路188"},{"poiid":"B2094750D56DA4F84892","title":"昱星家园","lon":"121.587699","lat":"31.081027","category":"47","category_name":"住宅区","address":"鹤沙路688弄"},{"poiid":"B2094752DB65A4FB4693","title":"金沁苑","lon":"121.586478","lat":"31.088607","category":"47","category_name":"住宅区","address":"上海市 鹤沙路201弄"},{"poiid":"B2094654DB64A5FA439B","title":"桃园新城中虹佳园","lon":"121.58572","lat":"31.09476","category":"47","category_name":"住宅区","address":"瑞浦路287弄1-82号"},{"poiid":"B2094757D16FA4F9409C","title":"瑞浦路瑞阳路","lon":"121.585368","lat":"31.098579","category":"500","category_name":"未知分类","address":"上海瑞浦路瑞阳路"},{"poiid":"B2094751D569A5FF4199","title":"瑞浦嘉苑","lon":"121.585903","lat":"31.093172","category":"47","category_name":"住宅区","address":"瑞和路269弄"},{"poiid":"B2094750D16BA0F9499E","title":"周浦万达广场","lon":"121.582206","lat":"31.095958","category":"500","category_name":"未知分类","address":null},{"poiid":"B2094655D26DA0FB4798","title":"安阁苑(南区)","lon":"121.59092","lat":"31.0872","category":"47","category_name":"住宅区","address":"周浦镇"},{"poiid":"B2094655D26FA3F5469F","title":"安阁苑(北门)","lon":"121.59043","lat":"31.0901","category":"47","category_name":"住宅区","address":"瑞阳路693弄1-55号"},{"poiid":"B2094757D66CABF8469C","title":"明唐大酒店","lon":"121.576148","lat":"31.092719","category":"72","category_name":"广东菜","address":"浦东新区周浦镇沈梅路99弄1号2-3楼(近沪南公路)"},{"poiid":"B2094655D36CA1FC439A","title":"沈西","lon":"121.582","lat":"31.09325","category":"38","category_name":"公交车站","address":""},{"poiid":"B2094655D26FA3FC4492","title":"安阁苑北区(南门)","lon":"121.59049","lat":"31.09053","category":"47","category_name":"住宅区","address":"瑞安路211弄1-49号"},{"poiid":"B2094757D168A7FF419A","title":"迪街量贩KTV","lon":"121.589184246","lat":"31.0866351747","category":"170","category_name":"KTV","address":"上海浦东新区北蔡沪南路967号北楼4—5F"},{"poiid":"B2094655D265A7FF4298","title":"东丰林居","lon":"121.58118","lat":"31.0966","category":"47","category_name":"住宅区","address":"浦东新区周浦镇康沈路2588弄"},{"poiid":"B2094655D265A6FD4498","title":"明天华城","lon":"121.58215","lat":"31.100822","category":"47","category_name":"住宅区","address":"浦东新区繁荣路(靠近康沈公路)"},{"poiid":"B2094655D36CA2FA4499","title":"瑞浦路瑞意路","lon":"121.58452","lat":"31.0961","category":"38","category_name":"公交车站","address":""},{"poiid":"B2094757D66DAAF94799","title":"智慧产业园","lon":"121.577812246","lat":"31.0918042979","category":"500","category_name":"未知分类","address":"上海市浦东新区建恒路"},{"poiid":"B2094757D16DA2FD459A","title":"上海隧道建筑防水材料有限公司","lon":"121.58238454","lat":"31.089124934","category":"500","category_name":"未知分类","address":"上海市浦东新区康沈路2403号"},{"poiid":"B2094757D169A5FC4698","title":"周康航市政配套工程","lon":"121.590845546","lat":"31.0909114767","category":"500","category_name":"未知分类","address":"上海周东南路瑞和路口"},{"poiid":"B2094655D36DA7F9479B","title":"周东路","lon":"121.59196","lat":"31.08629","category":"38","category_name":"公交车站","address":""},{"poiid":"B2094751D26AA2F44292","title":"上海建桥学院","lon":"121.590934","lat":"31.093095","category":"253","category_name":"校园生活","address":"康桥路1700号"},{"poiid":"B2094655D36DA7FA4299","title":"周祝公路康沈路","lon":"121.58225","lat":"31.0995","category":"38","category_name":"公交车站","address":""},{"poiid":"B2094654DB64ABF84698","title":"澧溪幼儿园","lon":"121.58715","lat":"31.09835","category":"57","category_name":"幼儿园","address":"瑞阳路2"},{"poiid":"B2094757D66DA4FF419F","title":"瑞浦路瑞意路287弄","lon":"121.58463528","lat":"31.096091246","category":"500","category_name":"未知分类","address":"上海瑞浦路瑞意路287弄"},{"poiid":"B2094655D26BA2FA4192","title":"塘东","lon":"121.58799","lat":"31.09985","category":"38","category_name":"公交车站","address":""},{"poiid":"B2094757DB6CA6FC419B","title":"恒福家园","lon":"121.5898046273978","lat":"31.08054442766347","category":"627","category_name":"一般地点标志","address":"鹤驰路99弄"},{"poiid":"B2094655D36DA7F9479D","title":"周东路周祝公路","lon":"121.58958","lat":"31.10217","category":"38","category_name":"公交车站","address":""},{"poiid":"B2094655D36CA7FE469D","title":"沪南路建豪路","lon":"121.57702","lat":"31.09366","category":"38","category_name":"公交车站","address":""},{"poiid":"B2094655D36DA2FD449A","title":"付家宅桥","lon":"121.58435","lat":"31.09681","category":"250","category_name":"公园户外","address":""},{"poiid":"B2094757D069A1FE499D","title":"周祝公路","lon":"121.59619624","lat":"31.101070518","category":"500","category_name":"未知分类","address":"上海市浦东新区周东南路"},{"poiid":"B2094757D065A1F84693","title":"繁荣安居","lon":"121.58722","lat":"31.10771","category":"500","category_name":"未知分类","address":"上海周浦镇繁荣东路159弄"},{"poiid":"B2094654DB6DA2FD469E","title":"上海万香日化有限公司","lon":"121.57973","lat":"31.0926","category":"263","category_name":"公司","address":"沪南路4309号"},{"poiid":"B2094750D26AA1F5459D","title":"南馨佳苑","lon":"121.590339","lat":"31.080825","category":"252","category_name":"楼宇机构","address":"鹤驰路88弄"},{"poiid":"B2094750D26EA2F9499E","title":"康桥半岛新城别墅区","lon":"121.591003","lat":"31.097455","category":"47","category_name":"住宅区","address":"沪南路2729弄"},{"poiid":"B2094655D265AAF84699","title":"海尼会所餐厅","lon":"121.57444","lat":"31.09582","category":"74","category_name":"江苏菜","address":"浦东新区沪南路3999号(近周浦镇)"},{"poiid":"B2094753D66BA2FD4792","title":"周浦万达广场","lon":"121.577346","lat":"31.0927","category":"500","category_name":"未知分类","address":"上海市 沪南公路3459号"},{"poiid":"B2094654DB64ABFD439D","title":"浦欣大厦","lon":"121.58544","lat":"31.09973","category":"46","category_name":"楼宇","address":""},{"poiid":"B2094757D16BA7FC499B","title":"辣友","lon":"121.587073796","lat":"31.0986804519","category":"249","category_name":"购物服务","address":"年家浜路437号(沪南公路3449弄)周浦万达广场3楼近沪南公路"},{"poiid":"B2094655D26DA6FC479C","title":"瑞和苑(瑞和路)","lon":"121.58839","lat":"31.08561","category":"47","category_name":"住宅区","address":"瑞和路168弄1-42号"},{"poiid":"B2094757D06EAAFF449B","title":"光明驾校","lon":"121.584971","lat":"31.099637","category":"253","category_name":"校园生活","address":"浦东新区周浦镇周祝公路158号(近沪南公路)"},{"poiid":"B2094757D069A6FD4192","title":"召稼楼古镇","lon":"121.58206","lat":"31.08402","category":"250","category_name":"公园户外","address":"上海闵行区沈杜公路(近苏召路)"},{"poiid":"B2094655D26DA0FA459C","title":"桃园新城中城苑","lon":"121.58813","lat":"31.08945","category":"47","category_name":"住宅区","address":""},{"poiid":"B2094757D068A0FF439F","title":"欧风家园","lon":"121.58738","lat":"31.095015","category":"500","category_name":"未知分类","address":"瑞意路77弄"},{"poiid":"B2094655D36CA1FC4499","title":"沈庄","lon":"121.58408","lat":"31.08462","category":"38","category_name":"公交车站","address":""},{"poiid":"B2094757D069A5FC4292","title":"周浦监狱","lon":"121.581641","lat":"31.104608","category":"608","category_name":"法院","address":"上海沪南公路近三十七厂"},{"poiid":"B2094655D26DA0FA4592","title":"汇腾东苑","lon":"121.58649","lat":"31.091671","category":"47","category_name":"住宅区","address":"瑞浦路611弄1-22号"},{"poiid":"B2094655D36DA7F94793","title":"周东南路","lon":"121.59181","lat":"31.08753","category":"38","category_name":"公交车站","address":"周东南路"},{"poiid":"B2094655D26DA0FA459D","title":"安阁苑(北区)","lon":"121.59036","lat":"31.0909","category":"47","category_name":"住宅区","address":"瑞安路211弄1-49号"},{"poiid":"B2094654DB64A4FD409B","title":"南汇区周浦镇社区卫生服务中心","lon":"121.58511","lat":"31.09308","category":"162","category_name":"医院","address":"浦东新区沈梅东路163号(近康沈路)"},{"poiid":"B2094655D26DA6FC479D","title":"汇腾南苑","lon":"121.58482","lat":"31.090767","category":"47","category_name":"住宅区","address":"瑞浦路612弄1-56号"},{"poiid":"B2094654DB6DA3FC499C","title":"华东师范大学附属周浦中学","lon":"121.57445","lat":"31.10449","category":"55","category_name":"中学","address":"繁荣路188"},{"poiid":"B2094750D56DA4F84892","title":"昱星家园","lon":"121.587699","lat":"31.081027","category":"47","category_name":"住宅区","address":"鹤沙路688弄"},{"poiid":"B2094752DB65A4FB4693","title":"金沁苑","lon":"121.586478","lat":"31.088607","category":"47","category_name":"住宅区","address":"上海市 鹤沙路201弄"},{"poiid":"B2094654DB64A5FA439B","title":"桃园新城中虹佳园","lon":"121.58572","lat":"31.09476","category":"47","category_name":"住宅区","address":"瑞浦路287弄1-82号"},{"poiid":"B2094757D16FA4F9409C","title":"瑞浦路瑞阳路","lon":"121.585368","lat":"31.098579","category":"500","category_name":"未知分类","address":"上海瑞浦路瑞阳路"},{"poiid":"B2094751D569A5FF4199","title":"瑞浦嘉苑","lon":"121.585903","lat":"31.093172","category":"47","category_name":"住宅区","address":"瑞和路269弄"},{"poiid":"B2094750D16BA0F9499E","title":"周浦万达广场","lon":"121.582206","lat":"31.095958","category":"500","category_name":"未知分类","address":null},{"poiid":"B2094655D26DA0FB4798","title":"安阁苑(南区)","lon":"121.59092","lat":"31.0872","category":"47","category_name":"住宅区","address":"周浦镇"},{"poiid":"B2094655D26FA3F5469F","title":"安阁苑(北门)","lon":"121.59043","lat":"31.0901","category":"47","category_name":"住宅区","address":"瑞阳路693弄1-55号"},{"poiid":"B2094757D66CABF8469C","title":"明唐大酒店","lon":"121.576148","lat":"31.092719","category":"72","category_name":"广东菜","address":"浦东新区周浦镇沈梅路99弄1号2-3楼(近沪南公路)"},{"poiid":"B2094655D36CA1FC439A","title":"沈西","lon":"121.582","lat":"31.09325","category":"38","category_name":"公交车站","address":""},{"poiid":"B2094655D26FA3FC4492","title":"安阁苑北区(南门)","lon":"121.59049","lat":"31.09053","category":"47","category_name":"住宅区","address":"瑞安路211弄1-49号"},{"poiid":"B2094757D168A7FF419A","title":"迪街量贩KTV","lon":"121.589184246","lat":"31.0866351747","category":"170","category_name":"KTV","address":"上海浦东新区北蔡沪南路967号北楼4—5F"},{"poiid":"B2094655D265A7FF4298","title":"东丰林居","lon":"121.58118","lat":"31.0966","category":"47","category_name":"住宅区","address":"浦东新区周浦镇康沈路2588弄"},{"poiid":"B2094655D265A6FD4498","title":"明天华城","lon":"121.58215","lat":"31.100822","category":"47","category_name":"住宅区","address":"浦东新区繁荣路(靠近康沈公路)"},{"poiid":"B2094655D36CA2FA4499","title":"瑞浦路瑞意路","lon":"121.58452","lat":"31.0961","category":"38","category_name":"公交车站","address":""},{"poiid":"B2094757D66DAAF94799","title":"智慧产业园","lon":"121.577812246","lat":"31.0918042979","category":"500","category_name":"未知分类","address":"上海市浦东新区建恒路"},{"poiid":"B2094757D16DA2FD459A","title":"上海隧道建筑防水材料有限公司","lon":"121.58238454","lat":"31.089124934","category":"500","category_name":"未知分类","address":"上海市浦东新区康沈路2403号"},{"poiid":"B2094757D169A5FC4698","title":"周康航市政配套工程","lon":"121.590845546","lat":"31.0909114767","category":"500","category_name":"未知分类","address":"上海周东南路瑞和路口"},{"poiid":"B2094655D36DA7F9479B","title":"周东路","lon":"121.59196","lat":"31.08629","category":"38","category_name":"公交车站","address":""},{"poiid":"B2094751D26AA2F44292","title":"上海建桥学院","lon":"121.590934","lat":"31.093095","category":"253","category_name":"校园生活","address":"康桥路1700号"},{"poiid":"B2094655D36DA7FA4299","title":"周祝公路康沈路","lon":"121.58225","lat":"31.0995","category":"38","category_name":"公交车站","address":""},{"poiid":"B2094654DB64ABF84698","title":"澧溪幼儿园","lon":"121.58715","lat":"31.09835","category":"57","category_name":"幼儿园","address":"瑞阳路2"},{"poiid":"B2094757D66DA4FF419F","title":"瑞浦路瑞意路287弄","lon":"121.58463528","lat":"31.096091246","category":"500","category_name":"未知分类","address":"上海瑞浦路瑞意路287弄"},{"poiid":"B2094655D26BA2FA4192","title":"塘东","lon":"121.58799","lat":"31.09985","category":"38","category_name":"公交车站","address":""},{"poiid":"B2094757DB6CA6FC419B","title":"恒福家园","lon":"121.5898046273978","lat":"31.08054442766347","category":"627","category_name":"一般地点标志","address":"鹤驰路99弄"},{"poiid":"B2094655D36DA7F9479D","title":"周东路周祝公路","lon":"121.58958","lat":"31.10217","category":"38","category_name":"公交车站","address":""},{"poiid":"B2094655D36CA7FE469D","title":"沪南路建豪路","lon":"121.57702","lat":"31.09366","category":"38","category_name":"公交车站","address":""},{"poiid":"B2094655D36DA2FD449A","title":"付家宅桥","lon":"121.58435","lat":"31.09681","category":"250","category_name":"公园户外","address":""},{"poiid":"B2094757D069A1FE499D","title":"周祝公路","lon":"121.59619624","lat":"31.101070518","category":"500","category_name":"未知分类","address":"上海市浦东新区周东南路"},{"poiid":"B2094757D065A1F84693","title":"繁荣安居","lon":"121.58722","lat":"31.10771","category":"500","category_name":"未知分类","address":"上海周浦镇繁荣东路159弄"},{"poiid":"B2094654DB6DA2FD469E","title":"上海万香日化有限公司","lon":"121.57973","lat":"31.0926","category":"263","category_name":"公司","address":"沪南路4309号"},{"poiid":"B2094750D26AA1F5459D","title":"南馨佳苑","lon":"121.590339","lat":"31.080825","category":"252","category_name":"楼宇机构","address":"鹤驰路88弄"},{"poiid":"B2094750D26EA2F9499E","title":"康桥半岛新城别墅区","lon":"121.591003","lat":"31.097455","category":"47","category_name":"住宅区","address":"沪南路2729弄"},{"poiid":"B2094655D265AAF84699","title":"海尼会所餐厅","lon":"121.57444","lat":"31.09582","category":"74","category_name":"江苏菜","address":"浦东新区沪南路3999号(近周浦镇)"},{"poiid":"B2094753D66BA2FD4792","title":"周浦万达广场","lon":"121.577346","lat":"31.0927","category":"500","category_name":"未知分类","address":"上海市 沪南公路3459号"},{"poiid":"B2094654DB64ABFD439D","title":"浦欣大厦","lon":"121.58544","lat":"31.09973","category":"46","category_name":"楼宇","address":""},{"poiid":"B2094757D16BA7FC499B","title":"辣友","lon":"121.587073796","lat":"31.0986804519","category":"249","category_name":"购物服务","address":"年家浜路437号(沪南公路3449弄)周浦万达广场3楼近沪南公路"}]