[{"poiid":"B2094757D068A0FD479C","title":"松江火车站","lon":"121.228025999","lat":"30.9993683162","category":"22","category_name":"火车站","address":"上海近郊松江区人民南路1号"},{"poiid":"B2094757D068ABFC409F","title":"醉白池公园","lon":"121.230251779","lat":"31.0021066903","category":"196","category_name":"公园","address":"松江区人民南路64号"},{"poiid":"B2094757D068A2F8489F","title":"必胜客 松江申越店 Pizza Hut","lon":"121.23119","lat":"31.00668","category":"94","category_name":"西餐厅","address":"松江区中山中路265-283号申越广场1楼(近人民路)"},{"poiid":"B2094757D065ABFC4898","title":"华亭老街","lon":"121.22531202","lat":"31.006368324","category":"260","category_name":"其他","address":"上海市松江區中山中路"},{"poiid":"B2094757D065A1FE4998","title":"西林禅寺","lon":"121.224357","lat":"31.00692","category":"244","category_name":"寺庙道观","address":"上海松江区中山中路666号"},{"poiid":"B2094750DA6BA4FF4099","title":"猫的天空之城概念书店","lon":"121.234818","lat":"31.004097","category":"500","category_name":"未知分类","address":"松江区老城松汇中路496号(近谷阳南路)"},{"poiid":"B2094757D06AAAF9489B","title":"松江一中","lon":"121.23373","lat":"31.00276","category":"55","category_name":"中学","address":"松江区松汇中路601号"},{"poiid":"B2094654DB6EA3FC4793","title":"河畔雅苑","lon":"121.22621","lat":"31.00114","category":"47","category_name":"住宅区","address":"河畔雅苑位于松江人民南路15弄"},{"poiid":"B2094757D064A1FD4499","title":"松江15路","lon":"121.22476959","lat":"30.999530792","category":"38","category_name":"公交车站","address":"上海松江客运站－松江永丰路"},{"poiid":"B2094654DB6EA3FC469C","title":"松江站","lon":"121.22795","lat":"31.0001","category":"22","category_name":"火车站","address":"松江区人民南路1号"},{"poiid":"B2094654DB6EA3FD489B","title":"荣汇公寓","lon":"121.22516","lat":"31.002411","category":"47","category_name":"住宅区","address":"松汇中路971弄1-36号"},{"poiid":"B2094757D16CA1FB4898","title":"中国农业银行松江支行","lon":"121.22496795","lat":"30.999313354","category":"150","category_name":"银行","address":"上海松江区人民北路8号"},{"poiid":"B2094655D26BA5FB419A","title":"谷树园大酒店","lon":"121.22292","lat":"30.99195","category":"70","category_name":"综合酒楼","address":"松江区富永路77号(近金玉路)"},{"poiid":"B2094757D66DA4FD4593","title":"胜嵩机械","lon":"121.229024667","lat":"30.9975582867","category":"249","category_name":"购物服务","address":"上海盐平路1869号"},{"poiid":"B2094655D268A6FA4998","title":"世纪华联No.2013","lon":"121.22875","lat":"31.00024","category":"117","category_name":"便民商店/便利店","address":""},{"poiid":"B2094655D268A3F94292","title":"顺子烧烤","lon":"121.22258","lat":"31.00585","category":"68","category_name":"快餐厅","address":"松江区西林南路99弄59号(近中心医院)"},{"poiid":"B2094654DB6EA3FC4899","title":"松江长途汽车客运站","lon":"121.22866","lat":"31.00183","category":"35","category_name":"长途汽车站","address":"松江区人民南路31号"},{"poiid":"B2094757D568A0F44698","title":"永丰苑","lon":"121.22433","lat":"30.990284","category":"47","category_name":"住宅区","address":"富永路425弄"},{"poiid":"B2094654DB6EA3FD469C","title":"平安小区","lon":"121.22588","lat":"31.002064","category":"47","category_name":"住宅区","address":"松汇中路939弄"},{"poiid":"B2094654DB6EA3FE409D","title":"仓城七村","lon":"121.22038","lat":"31.002552","category":"47","category_name":"住宅区","address":"松汇中路1101弄"},{"poiid":"B2094757D168A6F4429F","title":"百味佳(人民南路店)","lon":"121.22948","lat":"31.00554","category":"76","category_name":"上海菜","address":"松江区人民南路77-79号(近中山中路)"},{"poiid":"B2094654DB6EA3FD469F","title":"景家堰","lon":"121.22668","lat":"31.002647","category":"47","category_name":"住宅区","address":"松汇中路939弄"},{"poiid":"B2094757D66DA1F4419F","title":"醉白酒楼","lon":"121.22854638428","lat":"31.004038969534","category":"76","category_name":"上海菜","address":"松江区松汇中路763号(人民路口)"},{"poiid":"B2094655D26FABF84892","title":"河畔雅苑(东门)","lon":"121.22772","lat":"31.00057","category":"48","category_name":"楼宇大门","address":"人民南路15弄"},{"poiid":"B209475DD565A5F54292","title":"some coffee","lon":"121.226966","lat":"31.00432","category":"247","category_name":"餐饮美食","address":"上海市 华庭老街"},{"poiid":"B2094654DB6DABFE429C","title":"雷哲发型设计","lon":"121.22608","lat":"31.00695","category":"148","category_name":"美容美发店","address":"中山中路546号2层"},{"poiid":"B2094655D268A5FB4198","title":"醉白池(侧门)","lon":"121.2291","lat":"31.00213","category":"680","category_name":"楼宇机构","address":""},{"poiid":"B2094757D169A0FA479C","title":"申越广场","lon":"121.22685826","lat":"31.005070251","category":"119","category_name":"商场","address":"松江区中山中路279号(近人民南路)"},{"poiid":"B2094655D26FABF8499A","title":"平安小区(北门)","lon":"121.22641","lat":"31.00265","category":"47","category_name":"住宅区","address":"松汇中路939弄"},{"poiid":"B2094654DB6EA3FD469D","title":"荣汇公寓(东大门)","lon":"121.22521","lat":"31.00281","category":"47","category_name":"住宅区","address":"松汇中路941弄"},{"poiid":"B2094655D268A6FE419D","title":"源峰商业楼","lon":"121.2291","lat":"31.00267","category":"46","category_name":"楼宇","address":""},{"poiid":"B2094757D068A0FF4598","title":"好乐迪量贩式KTV(松江店)","lon":"121.22612","lat":"31.00617","category":"170","category_name":"KTV","address":"上海松江区中山中路320-228号3F"},{"poiid":"B2094655D26FABF8499B","title":"景家堰(西门)","lon":"121.22673","lat":"31.00303","category":"47","category_name":"住宅区","address":"松汇中路939弄"},{"poiid":"B2094655D26BABF8469A","title":"台南风味馆","lon":"121.22338","lat":"31.00625","category":"91","category_name":"台湾菜","address":"松江区岳阳街道缸甏巷254号(中心医院斜对面)"},{"poiid":"B2094654DB69A5FF429D","title":"莫泰168连锁旅店(松汇中路店)","lon":"121.23022","lat":"31.00457","category":"216","category_name":"经济型连锁酒店","address":"松江区松汇中路736弄1号楼(人民南路)"},{"poiid":"B2094751DA6CA7FF4593","title":"沁韵渔火","lon":"121.224259","lat":"31.006569","category":"247","category_name":"餐饮美食","address":"华亭老街西林禅寺对面"},{"poiid":"B2094751D56CA6F9419C","title":"小杨生煎(乐颂坊店)","lon":"121.23084","lat":"31.00481","category":"68","category_name":"快餐厅","address":"松江区松汇中路568号乐颂坊B座106B单元(近沃尔玛)"},{"poiid":"B2094655D36DA1FB479E","title":"西林南路","lon":"121.22414","lat":"31.00359","category":"38","category_name":"公交车站","address":""},{"poiid":"B2094757D66EA1FA449F","title":"小野寺家","lon":"121.225158","lat":"31.00241","category":"500","category_name":"未知分类","address":"上海松汇中路971弄"},{"poiid":"B2094757D16BA1FB429E","title":"金佰利纸业","lon":"121.230401217","lat":"31.0004953411","category":"249","category_name":"购物服务","address":"上海松汇中路119号"},{"poiid":"B2094655D268A5F4469A","title":"荣汇公寓(北门)","lon":"121.2256","lat":"31.00346","category":"47","category_name":"住宅区","address":"松汇中路971弄1-36号"},{"poiid":"B2094757D66DA3FB4393","title":"黛菲至尊纤颜会所","lon":"121.225049467","lat":"31.0026168977","category":"500","category_name":"未知分类","address":"上海市松江区文城路500弄3号102"},{"poiid":"B2094757D46EA4F8439B","title":"重庆鸡公煲 中山中路店","lon":"121.226682054","lat":"31.006929793","category":"71","category_name":"四川菜","address":"松江区中山中路596弄6号"},{"poiid":"B2094757D16BA7FE4393","title":"普陀山千步沙","lon":"121.23047686","lat":"31.001575434","category":"500","category_name":"未知分类","address":"上海普陀山"},{"poiid":"B2094757D06AABFA489C","title":"蜀香蛙王(松江店)","lon":"121.22793195","lat":"31.006683145","category":"71","category_name":"四川菜","address":"松江区中山中路265-283申越广场3楼(近人民路)"},{"poiid":"B2094655D268A2F4429C","title":"松汇中路948弄小区","lon":"121.22661","lat":"31.00437","category":"47","category_name":"住宅区","address":"松汇中路948弄"},{"poiid":"B2094655D268A5F4459C","title":"荣景苑A区(南门)","lon":"121.22492","lat":"31.00385","category":"656","category_name":"大门","address":"松汇中路972弄"},{"poiid":"B2094655D268A2F4429D","title":"松汇中路948弄小区(南门)","lon":"121.22623","lat":"31.00418","category":"47","category_name":"住宅区","address":"松汇中路948弄"},{"poiid":"B2094655D268A5F4469E","title":"仓城七村(西门)","lon":"121.21925","lat":"31.00259","category":"47","category_name":"住宅区","address":"松汇中路1101弄"},{"poiid":"B2094757D46AA0FC459D","title":"悠悠烧烤","lon":"121.22516","lat":"31.0065","category":"68","category_name":"快餐厅","address":"松江区华亭老街485弄5号(近永和豆浆)"},{"poiid":"B2094757D068A0FD479C","title":"松江火车站","lon":"121.228025999","lat":"30.9993683162","category":"22","category_name":"火车站","address":"上海近郊松江区人民南路1号"},{"poiid":"B2094757D068ABFC409F","title":"醉白池公园","lon":"121.230251779","lat":"31.0021066903","category":"196","category_name":"公园","address":"松江区人民南路64号"},{"poiid":"B2094757D068A2F8489F","title":"必胜客 松江申越店 Pizza Hut","lon":"121.23119","lat":"31.00668","category":"94","category_name":"西餐厅","address":"松江区中山中路265-283号申越广场1楼(近人民路)"},{"poiid":"B2094757D065ABFC4898","title":"华亭老街","lon":"121.22531202","lat":"31.006368324","category":"260","category_name":"其他","address":"上海市松江區中山中路"},{"poiid":"B2094757D065A1FE4998","title":"西林禅寺","lon":"121.224357","lat":"31.00692","category":"244","category_name":"寺庙道观","address":"上海松江区中山中路666号"},{"poiid":"B2094750DA6BA4FF4099","title":"猫的天空之城概念书店","lon":"121.234818","lat":"31.004097","category":"500","category_name":"未知分类","address":"松江区老城松汇中路496号(近谷阳南路)"},{"poiid":"B2094757D06AAAF9489B","title":"松江一中","lon":"121.23373","lat":"31.00276","category":"55","category_name":"中学","address":"松江区松汇中路601号"},{"poiid":"B2094654DB6EA3FC4793","title":"河畔雅苑","lon":"121.22621","lat":"31.00114","category":"47","category_name":"住宅区","address":"河畔雅苑位于松江人民南路15弄"},{"poiid":"B2094757D064A1FD4499","title":"松江15路","lon":"121.22476959","lat":"30.999530792","category":"38","category_name":"公交车站","address":"上海松江客运站－松江永丰路"},{"poiid":"B2094654DB6EA3FC469C","title":"松江站","lon":"121.22795","lat":"31.0001","category":"22","category_name":"火车站","address":"松江区人民南路1号"},{"poiid":"B2094654DB6EA3FD489B","title":"荣汇公寓","lon":"121.22516","lat":"31.002411","category":"47","category_name":"住宅区","address":"松汇中路971弄1-36号"},{"poiid":"B2094757D16CA1FB4898","title":"中国农业银行松江支行","lon":"121.22496795","lat":"30.999313354","category":"150","category_name":"银行","address":"上海松江区人民北路8号"},{"poiid":"B2094655D26BA5FB419A","title":"谷树园大酒店","lon":"121.22292","lat":"30.99195","category":"70","category_name":"综合酒楼","address":"松江区富永路77号(近金玉路)"},{"poiid":"B2094757D66DA4FD4593","title":"胜嵩机械","lon":"121.229024667","lat":"30.9975582867","category":"249","category_name":"购物服务","address":"上海盐平路1869号"},{"poiid":"B2094655D268A6FA4998","title":"世纪华联No.2013","lon":"121.22875","lat":"31.00024","category":"117","category_name":"便民商店/便利店","address":""},{"poiid":"B2094655D268A3F94292","title":"顺子烧烤","lon":"121.22258","lat":"31.00585","category":"68","category_name":"快餐厅","address":"松江区西林南路99弄59号(近中心医院)"},{"poiid":"B2094654DB6EA3FC4899","title":"松江长途汽车客运站","lon":"121.22866","lat":"31.00183","category":"35","category_name":"长途汽车站","address":"松江区人民南路31号"},{"poiid":"B2094757D568A0F44698","title":"永丰苑","lon":"121.22433","lat":"30.990284","category":"47","category_name":"住宅区","address":"富永路425弄"},{"poiid":"B2094654DB6EA3FD469C","title":"平安小区","lon":"121.22588","lat":"31.002064","category":"47","category_name":"住宅区","address":"松汇中路939弄"},{"poiid":"B2094654DB6EA3FE409D","title":"仓城七村","lon":"121.22038","lat":"31.002552","category":"47","category_name":"住宅区","address":"松汇中路1101弄"},{"poiid":"B2094757D168A6F4429F","title":"百味佳(人民南路店)","lon":"121.22948","lat":"31.00554","category":"76","category_name":"上海菜","address":"松江区人民南路77-79号(近中山中路)"},{"poiid":"B2094654DB6EA3FD469F","title":"景家堰","lon":"121.22668","lat":"31.002647","category":"47","category_name":"住宅区","address":"松汇中路939弄"},{"poiid":"B2094757D66DA1F4419F","title":"醉白酒楼","lon":"121.22854638428","lat":"31.004038969534","category":"76","category_name":"上海菜","address":"松江区松汇中路763号(人民路口)"},{"poiid":"B2094655D26FABF84892","title":"河畔雅苑(东门)","lon":"121.22772","lat":"31.00057","category":"48","category_name":"楼宇大门","address":"人民南路15弄"},{"poiid":"B209475DD565A5F54292","title":"some coffee","lon":"121.226966","lat":"31.00432","category":"247","category_name":"餐饮美食","address":"上海市 华庭老街"},{"poiid":"B2094654DB6DABFE429C","title":"雷哲发型设计","lon":"121.22608","lat":"31.00695","category":"148","category_name":"美容美发店","address":"中山中路546号2层"},{"poiid":"B2094655D268A5FB4198","title":"醉白池(侧门)","lon":"121.2291","lat":"31.00213","category":"680","category_name":"楼宇机构","address":""},{"poiid":"B2094757D169A0FA479C","title":"申越广场","lon":"121.22685826","lat":"31.005070251","category":"119","category_name":"商场","address":"松江区中山中路279号(近人民南路)"},{"poiid":"B2094655D26FABF8499A","title":"平安小区(北门)","lon":"121.22641","lat":"31.00265","category":"47","category_name":"住宅区","address":"松汇中路939弄"},{"poiid":"B2094654DB6EA3FD469D","title":"荣汇公寓(东大门)","lon":"121.22521","lat":"31.00281","category":"47","category_name":"住宅区","address":"松汇中路941弄"},{"poiid":"B2094655D268A6FE419D","title":"源峰商业楼","lon":"121.2291","lat":"31.00267","category":"46","category_name":"楼宇","address":""},{"poiid":"B2094757D068A0FF4598","title":"好乐迪量贩式KTV(松江店)","lon":"121.22612","lat":"31.00617","category":"170","category_name":"KTV","address":"上海松江区中山中路320-228号3F"},{"poiid":"B2094655D26FABF8499B","title":"景家堰(西门)","lon":"121.22673","lat":"31.00303","category":"47","category_name":"住宅区","address":"松汇中路939弄"},{"poiid":"B2094655D26BABF8469A","title":"台南风味馆","lon":"121.22338","lat":"31.00625","category":"91","category_name":"台湾菜","address":"松江区岳阳街道缸甏巷254号(中心医院斜对面)"},{"poiid":"B2094654DB69A5FF429D","title":"莫泰168连锁旅店(松汇中路店)","lon":"121.23022","lat":"31.00457","category":"216","category_name":"经济型连锁酒店","address":"松江区松汇中路736弄1号楼(人民南路)"},{"poiid":"B2094751DA6CA7FF4593","title":"沁韵渔火","lon":"121.224259","lat":"31.006569","category":"247","category_name":"餐饮美食","address":"华亭老街西林禅寺对面"},{"poiid":"B2094751D56CA6F9419C","title":"小杨生煎(乐颂坊店)","lon":"121.23084","lat":"31.00481","category":"68","category_name":"快餐厅","address":"松江区松汇中路568号乐颂坊B座106B单元(近沃尔玛)"},{"poiid":"B2094655D36DA1FB479E","title":"西林南路","lon":"121.22414","lat":"31.00359","category":"38","category_name":"公交车站","address":""},{"poiid":"B2094757D66EA1FA449F","title":"小野寺家","lon":"121.225158","lat":"31.00241","category":"500","category_name":"未知分类","address":"上海松汇中路971弄"},{"poiid":"B2094757D16BA1FB429E","title":"金佰利纸业","lon":"121.230401217","lat":"31.0004953411","category":"249","category_name":"购物服务","address":"上海松汇中路119号"},{"poiid":"B2094655D268A5F4469A","title":"荣汇公寓(北门)","lon":"121.2256","lat":"31.00346","category":"47","category_name":"住宅区","address":"松汇中路971弄1-36号"},{"poiid":"B2094757D66DA3FB4393","title":"黛菲至尊纤颜会所","lon":"121.225049467","lat":"31.0026168977","category":"500","category_name":"未知分类","address":"上海市松江区文城路500弄3号102"},{"poiid":"B2094757D46EA4F8439B","title":"重庆鸡公煲 中山中路店","lon":"121.226682054","lat":"31.006929793","category":"71","category_name":"四川菜","address":"松江区中山中路596弄6号"},{"poiid":"B2094757D16BA7FE4393","title":"普陀山千步沙","lon":"121.23047686","lat":"31.001575434","category":"500","category_name":"未知分类","address":"上海普陀山"},{"poiid":"B2094757D06AABFA489C","title":"蜀香蛙王(松江店)","lon":"121.22793195","lat":"31.006683145","category":"71","category_name":"四川菜","address":"松江区中山中路265-283申越广场3楼(近人民路)"},{"poiid":"B2094655D268A2F4429C","title":"松汇中路948弄小区","lon":"121.22661","lat":"31.00437","category":"47","category_name":"住宅区","address":"松汇中路948弄"},{"poiid":"B2094655D268A5F4459C","title":"荣景苑A区(南门)","lon":"121.22492","lat":"31.00385","category":"656","category_name":"大门","address":"松汇中路972弄"},{"poiid":"B2094655D268A2F4429D","title":"松汇中路948弄小区(南门)","lon":"121.22623","lat":"31.00418","category":"47","category_name":"住宅区","address":"松汇中路948弄"},{"poiid":"B2094655D268A5F4469E","title":"仓城七村(西门)","lon":"121.21925","lat":"31.00259","category":"47","category_name":"住宅区","address":"松汇中路1101弄"},{"poiid":"B2094757D46AA0FC459D","title":"悠悠烧烤","lon":"121.22516","lat":"31.0065","category":"68","category_name":"快餐厅","address":"松江区华亭老街485弄5号(近永和豆浆)"},{"poiid":"B2094757D068A0FD479C","title":"松江火车站","lon":"121.228025999","lat":"30.9993683162","category":"22","category_name":"火车站","address":"上海近郊松江区人民南路1号"},{"poiid":"B2094757D068ABFC409F","title":"醉白池公园","lon":"121.230251779","lat":"31.0021066903","category":"196","category_name":"公园","address":"松江区人民南路64号"},{"poiid":"B2094757D068A2F8489F","title":"必胜客 松江申越店 Pizza Hut","lon":"121.23119","lat":"31.00668","category":"94","category_name":"西餐厅","address":"松江区中山中路265-283号申越广场1楼(近人民路)"},{"poiid":"B2094757D065ABFC4898","title":"华亭老街","lon":"121.22531202","lat":"31.006368324","category":"260","category_name":"其他","address":"上海市松江區中山中路"},{"poiid":"B2094757D065A1FE4998","title":"西林禅寺","lon":"121.224357","lat":"31.00692","category":"244","category_name":"寺庙道观","address":"上海松江区中山中路666号"},{"poiid":"B2094750DA6BA4FF4099","title":"猫的天空之城概念书店","lon":"121.234818","lat":"31.004097","category":"500","category_name":"未知分类","address":"松江区老城松汇中路496号(近谷阳南路)"},{"poiid":"B2094757D06AAAF9489B","title":"松江一中","lon":"121.23373","lat":"31.00276","category":"55","category_name":"中学","address":"松江区松汇中路601号"},{"poiid":"B2094654DB6EA3FC4793","title":"河畔雅苑","lon":"121.22621","lat":"31.00114","category":"47","category_name":"住宅区","address":"河畔雅苑位于松江人民南路15弄"},{"poiid":"B2094757D064A1FD4499","title":"松江15路","lon":"121.22476959","lat":"30.999530792","category":"38","category_name":"公交车站","address":"上海松江客运站－松江永丰路"},{"poiid":"B2094654DB6EA3FC469C","title":"松江站","lon":"121.22795","lat":"31.0001","category":"22","category_name":"火车站","address":"松江区人民南路1号"},{"poiid":"B2094654DB6EA3FD489B","title":"荣汇公寓","lon":"121.22516","lat":"31.002411","category":"47","category_name":"住宅区","address":"松汇中路971弄1-36号"},{"poiid":"B2094757D16CA1FB4898","title":"中国农业银行松江支行","lon":"121.22496795","lat":"30.999313354","category":"150","category_name":"银行","address":"上海松江区人民北路8号"},{"poiid":"B2094655D26BA5FB419A","title":"谷树园大酒店","lon":"121.22292","lat":"30.99195","category":"70","category_name":"综合酒楼","address":"松江区富永路77号(近金玉路)"},{"poiid":"B2094757D66DA4FD4593","title":"胜嵩机械","lon":"121.229024667","lat":"30.9975582867","category":"249","category_name":"购物服务","address":"上海盐平路1869号"},{"poiid":"B2094655D268A6FA4998","title":"世纪华联No.2013","lon":"121.22875","lat":"31.00024","category":"117","category_name":"便民商店/便利店","address":""},{"poiid":"B2094655D268A3F94292","title":"顺子烧烤","lon":"121.22258","lat":"31.00585","category":"68","category_name":"快餐厅","address":"松江区西林南路99弄59号(近中心医院)"},{"poiid":"B2094654DB6EA3FC4899","title":"松江长途汽车客运站","lon":"121.22866","lat":"31.00183","category":"35","category_name":"长途汽车站","address":"松江区人民南路31号"},{"poiid":"B2094757D568A0F44698","title":"永丰苑","lon":"121.22433","lat":"30.990284","category":"47","category_name":"住宅区","address":"富永路425弄"},{"poiid":"B2094654DB6EA3FD469C","title":"平安小区","lon":"121.22588","lat":"31.002064","category":"47","category_name":"住宅区","address":"松汇中路939弄"},{"poiid":"B2094654DB6EA3FE409D","title":"仓城七村","lon":"121.22038","lat":"31.002552","category":"47","category_name":"住宅区","address":"松汇中路1101弄"},{"poiid":"B2094757D168A6F4429F","title":"百味佳(人民南路店)","lon":"121.22948","lat":"31.00554","category":"76","category_name":"上海菜","address":"松江区人民南路77-79号(近中山中路)"},{"poiid":"B2094654DB6EA3FD469F","title":"景家堰","lon":"121.22668","lat":"31.002647","category":"47","category_name":"住宅区","address":"松汇中路939弄"},{"poiid":"B2094757D66DA1F4419F","title":"醉白酒楼","lon":"121.22854638428","lat":"31.004038969534","category":"76","category_name":"上海菜","address":"松江区松汇中路763号(人民路口)"},{"poiid":"B2094655D26FABF84892","title":"河畔雅苑(东门)","lon":"121.22772","lat":"31.00057","category":"48","category_name":"楼宇大门","address":"人民南路15弄"},{"poiid":"B209475DD565A5F54292","title":"some coffee","lon":"121.226966","lat":"31.00432","category":"247","category_name":"餐饮美食","address":"上海市 华庭老街"},{"poiid":"B2094654DB6DABFE429C","title":"雷哲发型设计","lon":"121.22608","lat":"31.00695","category":"148","category_name":"美容美发店","address":"中山中路546号2层"},{"poiid":"B2094655D268A5FB4198","title":"醉白池(侧门)","lon":"121.2291","lat":"31.00213","category":"680","category_name":"楼宇机构","address":""},{"poiid":"B2094757D169A0FA479C","title":"申越广场","lon":"121.22685826","lat":"31.005070251","category":"119","category_name":"商场","address":"松江区中山中路279号(近人民南路)"},{"poiid":"B2094655D26FABF8499A","title":"平安小区(北门)","lon":"121.22641","lat":"31.00265","category":"47","category_name":"住宅区","address":"松汇中路939弄"},{"poiid":"B2094654DB6EA3FD469D","title":"荣汇公寓(东大门)","lon":"121.22521","lat":"31.00281","category":"47","category_name":"住宅区","address":"松汇中路941弄"},{"poiid":"B2094655D268A6FE419D","title":"源峰商业楼","lon":"121.2291","lat":"31.00267","category":"46","category_name":"楼宇","address":""},{"poiid":"B2094757D068A0FF4598","title":"好乐迪量贩式KTV(松江店)","lon":"121.22612","lat":"31.00617","category":"170","category_name":"KTV","address":"上海松江区中山中路320-228号3F"},{"poiid":"B2094655D26FABF8499B","title":"景家堰(西门)","lon":"121.22673","lat":"31.00303","category":"47","category_name":"住宅区","address":"松汇中路939弄"},{"poiid":"B2094655D26BABF8469A","title":"台南风味馆","lon":"121.22338","lat":"31.00625","category":"91","category_name":"台湾菜","address":"松江区岳阳街道缸甏巷254号(中心医院斜对面)"},{"poiid":"B2094654DB69A5FF429D","title":"莫泰168连锁旅店(松汇中路店)","lon":"121.23022","lat":"31.00457","category":"216","category_name":"经济型连锁酒店","address":"松江区松汇中路736弄1号楼(人民南路)"},{"poiid":"B2094751DA6CA7FF4593","title":"沁韵渔火","lon":"121.224259","lat":"31.006569","category":"247","category_name":"餐饮美食","address":"华亭老街西林禅寺对面"},{"poiid":"B2094751D56CA6F9419C","title":"小杨生煎(乐颂坊店)","lon":"121.23084","lat":"31.00481","category":"68","category_name":"快餐厅","address":"松江区松汇中路568号乐颂坊B座106B单元(近沃尔玛)"},{"poiid":"B2094655D36DA1FB479E","title":"西林南路","lon":"121.22414","lat":"31.00359","category":"38","category_name":"公交车站","address":""},{"poiid":"B2094757D66EA1FA449F","title":"小野寺家","lon":"121.225158","lat":"31.00241","category":"500","category_name":"未知分类","address":"上海松汇中路971弄"},{"poiid":"B2094757D16BA1FB429E","title":"金佰利纸业","lon":"121.230401217","lat":"31.0004953411","category":"249","category_name":"购物服务","address":"上海松汇中路119号"},{"poiid":"B2094655D268A5F4469A","title":"荣汇公寓(北门)","lon":"121.2256","lat":"31.00346","category":"47","category_name":"住宅区","address":"松汇中路971弄1-36号"},{"poiid":"B2094757D66DA3FB4393","title":"黛菲至尊纤颜会所","lon":"121.225049467","lat":"31.0026168977","category":"500","category_name":"未知分类","address":"上海市松江区文城路500弄3号102"},{"poiid":"B2094757D46EA4F8439B","title":"重庆鸡公煲 中山中路店","lon":"121.226682054","lat":"31.006929793","category":"71","category_name":"四川菜","address":"松江区中山中路596弄6号"},{"poiid":"B2094757D16BA7FE4393","title":"普陀山千步沙","lon":"121.23047686","lat":"31.001575434","category":"500","category_name":"未知分类","address":"上海普陀山"},{"poiid":"B2094757D06AABFA489C","title":"蜀香蛙王(松江店)","lon":"121.22793195","lat":"31.006683145","category":"71","category_name":"四川菜","address":"松江区中山中路265-283申越广场3楼(近人民路)"},{"poiid":"B2094655D268A2F4429C","title":"松汇中路948弄小区","lon":"121.22661","lat":"31.00437","category":"47","category_name":"住宅区","address":"松汇中路948弄"},{"poiid":"B2094655D268A5F4459C","title":"荣景苑A区(南门)","lon":"121.22492","lat":"31.00385","category":"656","category_name":"大门","address":"松汇中路972弄"},{"poiid":"B2094655D268A2F4429D","title":"松汇中路948弄小区(南门)","lon":"121.22623","lat":"31.00418","category":"47","category_name":"住宅区","address":"松汇中路948弄"},{"poiid":"B2094655D268A5F4469E","title":"仓城七村(西门)","lon":"121.21925","lat":"31.00259","category":"47","category_name":"住宅区","address":"松汇中路1101弄"},{"poiid":"B2094757D46AA0FC459D","title":"悠悠烧烤","lon":"121.22516","lat":"31.0065","category":"68","category_name":"快餐厅","address":"松江区华亭老街485弄5号(近永和豆浆)"}]