[{"poiid":"B2094757D06FA3FD429E","title":"红房子妇产科医院(杨浦分院)","lon":"121.534619481","lat":"31.2590112668","category":"162","category_name":"医院","address":"上海杨浦区沈阳路128号(近眉州路)"},{"poiid":"B2094757D06FA2F84498","title":"上海兴荣温德姆酒店","lon":"121.53912567915063","lat":"31.26011215378175","category":"76","category_name":"上海菜","address":"杨浦区宁国路25号兴荣温德姆酒店(近杭州路)"},{"poiid":"B2094655D36DA0F94092","title":"杨浦大桥","lon":"121.54012","lat":"31.26137","category":"38","category_name":"公交车站","address":"浦东新区浦东大道2175弄88号(近北洋泾路)"},{"poiid":"B2094757D06FA2FD469B","title":"复旦大学附属妇产科医院(杨浦院区)","lon":"121.53505897","lat":"31.260293398","category":"68","category_name":"快餐厅","address":"杨浦区沈阳路128号(近眉州路)"},{"poiid":"B2094757D06FA5F8449B","title":"杨浦区中医医院","lon":"121.53841","lat":"31.25735","category":"162","category_name":"医院","address":"杨浦区眉州路185号(近平凉路)"},{"poiid":"B2094757D16CA6FF479C","title":"平凉路宁国路","lon":"121.536385103","lat":"31.262084248","category":"500","category_name":"未知分类","address":"上海市杨浦区平凉路宁国路"},{"poiid":"B2094757D06FAAF84892","title":"杨浦区老年医院","lon":"121.53890578","lat":"31.260598383","category":"162","category_name":"医院","address":"杨浦区杭州路349号(近宁国路)"},{"poiid":"B2094757D069AAFF419F","title":"杨树浦路","lon":"121.537211","lat":"31.255356","category":"500","category_name":"未知分类","address":"上海杨树浦路眉州路"},{"poiid":"B2094757D06FA4F44692","title":"杭州路","lon":"121.53958","lat":"31.261819","category":"500","category_name":"未知分类","address":"上海杭州路宁国路"},{"poiid":"B2094757D068A0F4479D","title":"崇业小区","lon":"121.53728","lat":"31.256132","category":"47","category_name":"住宅区","address":"上海杨树浦路1455弄"},{"poiid":"B2094654D56EA7FF489D","title":"申润江涛苑","lon":"121.53604","lat":"31.256815","category":"47","category_name":"住宅区","address":"上海市杨浦区广州路55弄1-6号"},{"poiid":"B2094757D465A4F9489C","title":"上海兴荣温德姆酒店 尚荣轩","lon":"121.538991","lat":"31.26016","category":"76","category_name":"上海菜","address":"杨浦区宁国路25号兴荣温德姆酒店2、31、32楼(近杭州路)"},{"poiid":"B2094757D065A2FC4392","title":"东宫","lon":"121.53514872","lat":"31.261538216","category":"260","category_name":"其他","address":"上海三星路"},{"poiid":"B2094757D16BA1FE459B","title":"洪都酒家","lon":"121.53787","lat":"31.25708","category":"76","category_name":"上海菜","address":"杨浦区广州路109号(近眉州路)"},{"poiid":"B2094757D068A4F94893","title":"杨树浦路松潘路","lon":"121.540130143","lat":"31.2605108352","category":"260","category_name":"其他","address":"上海杨树浦路松潘路"},{"poiid":"B2094655D265A5F94599","title":"重庆鸡公煲","lon":"121.53777","lat":"31.25783","category":"86","category_name":"火锅店","address":"杨浦区眉州路"},{"poiid":"B2094757D068A7FB4793","title":"广杭苑","lon":"121.53644","lat":"31.257813","category":"500","category_name":"未知分类","address":"上海杭州路66弄"},{"poiid":"B2094757D06AA5FB4492","title":"交通运输部上海打捞局","lon":"121.53660991","lat":"31.254856987","category":"46","category_name":"楼宇","address":"上海杨树浦路1426号"},{"poiid":"B2094655D265A2F84199","title":"眉州路100弄小区","lon":"121.53876","lat":"31.25843","category":"47","category_name":"住宅区","address":"眉州路100弄"},{"poiid":"B2094655D36DA0F94193","title":"杨树浦路眉州路","lon":"121.53757","lat":"31.25575","category":"38","category_name":"公交车站","address":""},{"poiid":"B2094655D264A0FF489C","title":"喜士多便利(崇业店)","lon":"121.53748","lat":"31.25592","category":"117","category_name":"便民商店/便利店","address":"杨树浦路1461号"},{"poiid":"B2094757D568AAFE449C","title":"上海轮渡宁国路渡口","lon":"121.542579","lat":"31.256299","category":"35","category_name":"长途汽车站","address":"宁国南路10号"},{"poiid":"B2094757D16EA3F9449D","title":"路边摊","lon":"121.537346","lat":"31.2567","category":"247","category_name":"餐饮美食","address":"上海广州路眉州路口"},{"poiid":"B2094654DB6BA3F4419B","title":"好德便利No.96","lon":"121.53793","lat":"31.25751","category":"117","category_name":"便民商店/便利店","address":"眉州路99"},{"poiid":"B2094654D56EA7FF439E","title":"东华里","lon":"121.53884","lat":"31.257099","category":"47","category_name":"住宅区","address":"杨树浦路1571弄"},{"poiid":"B2094655D26BABF9429B","title":"广圆小区","lon":"121.53787","lat":"31.25699","category":"47","category_name":"住宅区","address":"广州路110"},{"poiid":"B2094655D26FA7F8449F","title":"崇业小区(东门)","lon":"121.53737","lat":"31.25587","category":"47","category_name":"住宅区","address":"杨树浦路1455弄"},{"poiid":"B2094757D065A4FE499D","title":"杭州路第一小学(南部)","lon":"121.53845","lat":"31.25591","category":"56","category_name":"小学","address":"杨浦区杨树浦路1509号(眉州路杨树浦路)"},{"poiid":"B2094757D06BA4F5469F","title":"禾禄寿司","lon":"121.5371261","lat":"31.258931182","category":"247","category_name":"餐饮美食","address":"上海五角场百联又一城"},{"poiid":"B2094757D069A0F5409C","title":"70路兰州路杨树浦路终点站","lon":"121.53568876","lat":"31.254882393","category":"38","category_name":"公交车站","address":"上海兰州路(近杨树浦路)"},{"poiid":"B2094654D56EA7FF4398","title":"上海有机新材料科技工业园","lon":"121.53945","lat":"31.25644","category":"45","category_name":"产业园区","address":"杨树浦路1578"},{"poiid":"B2094655D26FA7F94698","title":"东华里(东门)","lon":"121.53901","lat":"31.25694","category":"47","category_name":"住宅区","address":"杨树浦路1571弄"},{"poiid":"B2094654D56EA7F84298","title":"乐狗生活馆","lon":"121.53768","lat":"31.25792","category":"162","category_name":"医院","address":"杨浦区眉州路129号(近杨树浦路)"},{"poiid":"B2094757D16CA0F8429E","title":"上海市杨浦区人民法院立案庭","lon":"121.53594074","lat":"31.254658889","category":"500","category_name":"未知分类","address":"上海杨树浦路1360号"},{"poiid":"B2094757D069AAF5479A","title":"广杭苑135弄","lon":"121.5370991","lat":"31.257551153","category":"252","category_name":"楼宇机构","address":"上海眉州路135弄"},{"poiid":"B2094654D56FA6FE469A","title":"老北京热气涮羊肉","lon":"121.540374054","lat":"31.261556793","category":"86","category_name":"火锅店","address":"杨浦区松潘路148号(853车站终点站对面)"},{"poiid":"B2094655D265A3FD469E","title":"安德里","lon":"121.53945","lat":"31.257593","category":"47","category_name":"住宅区","address":"杨树浦路1615弄1-34号"},{"poiid":"B2094655D265A7FA4692","title":"眉州路100弄小区(南门)","lon":"121.5388","lat":"31.25798","category":"47","category_name":"住宅区","address":"眉州路100弄"},{"poiid":"B2094655D265A2F8419E","title":"安德里(南门)","lon":"121.5396","lat":"31.25747","category":"47","category_name":"住宅区","address":"杨树浦路1615弄1-34号"},{"poiid":"B2094655D265A3FF439A","title":"上海烟草(集团)公司海烟机电修配厂","lon":"121.53825","lat":"31.25601","category":"263","category_name":"公司","address":"杨树浦路1500"},{"poiid":"B2094655D36CA3FB4892","title":"联华超市","lon":"121.53757","lat":"31.25833","category":"118","category_name":"超级市场","address":"眉州路120"},{"poiid":"B2094654DB64AAFB4599","title":"创安优胜小区","lon":"121.5368","lat":"31.25804","category":"47","category_name":"住宅区","address":"眉州路135弄"},{"poiid":"B2094655D26CA6FB4093","title":"杨浦区人民法院","lon":"121.53614","lat":"31.25426","category":"608","category_name":"法院","address":"杨树浦路1360"},{"poiid":"B2094757D069A5FA449A","title":"摆渡站(宁国路站)","lon":"121.54297","lat":"31.25601","category":"35","category_name":"长途汽车站","address":"杨浦区宁国南路10号"},{"poiid":"B2094654D56EA7FF469F","title":"快客No.6551","lon":"121.54019","lat":"31.25805","category":"117","category_name":"便民商店/便利店","address":"杨树浦路1663"},{"poiid":"B2094750D664A0FA479C","title":"老盛兴苏州汤包馆(眉州路店)","lon":"121.536","lat":"31.261","category":"68","category_name":"快餐厅","address":"杨浦区眉州路300号(近沈阳路)"},{"poiid":"B2094655D26BA5FB499E","title":"杨浦区康乃馨老年公寓","lon":"121.5382","lat":"31.25782","category":"207","category_name":"度假疗养场所","address":""},{"poiid":"B2094757D068A4F9439E","title":"双喜家园","lon":"121.53331","lat":"31.253859","category":"47","category_name":"住宅区","address":"上海市杨浦区杨树浦路1177弄"},{"poiid":"B2094655D26CA5FA489E","title":"怀德路201弄","lon":"121.53502264122","lat":"31.259616193756","category":"47","category_name":"住宅区","address":"怀德路201弄"},{"poiid":"B2094654D56EA7F54498","title":"老莫的春天","lon":"121.53456765922","lat":"31.253473504332","category":"91","category_name":"台湾菜","address":"杨浦区杨树浦路1248号(近齐齐哈尔路)"},{"poiid":"B2094757D06FA3FD429E","title":"红房子妇产科医院(杨浦分院)","lon":"121.534619481","lat":"31.2590112668","category":"162","category_name":"医院","address":"上海杨浦区沈阳路128号(近眉州路)"},{"poiid":"B2094757D06FA2F84498","title":"上海兴荣温德姆酒店","lon":"121.53912567915063","lat":"31.26011215378175","category":"76","category_name":"上海菜","address":"杨浦区宁国路25号兴荣温德姆酒店(近杭州路)"},{"poiid":"B2094655D36DA0F94092","title":"杨浦大桥","lon":"121.54012","lat":"31.26137","category":"38","category_name":"公交车站","address":"浦东新区浦东大道2175弄88号(近北洋泾路)"},{"poiid":"B2094757D06FA2FD469B","title":"复旦大学附属妇产科医院(杨浦院区)","lon":"121.53505897","lat":"31.260293398","category":"68","category_name":"快餐厅","address":"杨浦区沈阳路128号(近眉州路)"},{"poiid":"B2094757D06FA5F8449B","title":"杨浦区中医医院","lon":"121.53841","lat":"31.25735","category":"162","category_name":"医院","address":"杨浦区眉州路185号(近平凉路)"},{"poiid":"B2094757D16CA6FF479C","title":"平凉路宁国路","lon":"121.536385103","lat":"31.262084248","category":"500","category_name":"未知分类","address":"上海市杨浦区平凉路宁国路"},{"poiid":"B2094757D06FAAF84892","title":"杨浦区老年医院","lon":"121.53890578","lat":"31.260598383","category":"162","category_name":"医院","address":"杨浦区杭州路349号(近宁国路)"},{"poiid":"B2094757D069AAFF419F","title":"杨树浦路","lon":"121.537211","lat":"31.255356","category":"500","category_name":"未知分类","address":"上海杨树浦路眉州路"},{"poiid":"B2094757D06FA4F44692","title":"杭州路","lon":"121.53958","lat":"31.261819","category":"500","category_name":"未知分类","address":"上海杭州路宁国路"},{"poiid":"B2094757D068A0F4479D","title":"崇业小区","lon":"121.53728","lat":"31.256132","category":"47","category_name":"住宅区","address":"上海杨树浦路1455弄"},{"poiid":"B2094654D56EA7FF489D","title":"申润江涛苑","lon":"121.53604","lat":"31.256815","category":"47","category_name":"住宅区","address":"上海市杨浦区广州路55弄1-6号"},{"poiid":"B2094757D465A4F9489C","title":"上海兴荣温德姆酒店 尚荣轩","lon":"121.538991","lat":"31.26016","category":"76","category_name":"上海菜","address":"杨浦区宁国路25号兴荣温德姆酒店2、31、32楼(近杭州路)"},{"poiid":"B2094757D065A2FC4392","title":"东宫","lon":"121.53514872","lat":"31.261538216","category":"260","category_name":"其他","address":"上海三星路"},{"poiid":"B2094757D16BA1FE459B","title":"洪都酒家","lon":"121.53787","lat":"31.25708","category":"76","category_name":"上海菜","address":"杨浦区广州路109号(近眉州路)"},{"poiid":"B2094757D068A4F94893","title":"杨树浦路松潘路","lon":"121.540130143","lat":"31.2605108352","category":"260","category_name":"其他","address":"上海杨树浦路松潘路"},{"poiid":"B2094655D265A5F94599","title":"重庆鸡公煲","lon":"121.53777","lat":"31.25783","category":"86","category_name":"火锅店","address":"杨浦区眉州路"},{"poiid":"B2094757D068A7FB4793","title":"广杭苑","lon":"121.53644","lat":"31.257813","category":"500","category_name":"未知分类","address":"上海杭州路66弄"},{"poiid":"B2094757D06AA5FB4492","title":"交通运输部上海打捞局","lon":"121.53660991","lat":"31.254856987","category":"46","category_name":"楼宇","address":"上海杨树浦路1426号"},{"poiid":"B2094655D265A2F84199","title":"眉州路100弄小区","lon":"121.53876","lat":"31.25843","category":"47","category_name":"住宅区","address":"眉州路100弄"},{"poiid":"B2094655D36DA0F94193","title":"杨树浦路眉州路","lon":"121.53757","lat":"31.25575","category":"38","category_name":"公交车站","address":""},{"poiid":"B2094655D264A0FF489C","title":"喜士多便利(崇业店)","lon":"121.53748","lat":"31.25592","category":"117","category_name":"便民商店/便利店","address":"杨树浦路1461号"},{"poiid":"B2094757D568AAFE449C","title":"上海轮渡宁国路渡口","lon":"121.542579","lat":"31.256299","category":"35","category_name":"长途汽车站","address":"宁国南路10号"},{"poiid":"B2094757D16EA3F9449D","title":"路边摊","lon":"121.537346","lat":"31.2567","category":"247","category_name":"餐饮美食","address":"上海广州路眉州路口"},{"poiid":"B2094654DB6BA3F4419B","title":"好德便利No.96","lon":"121.53793","lat":"31.25751","category":"117","category_name":"便民商店/便利店","address":"眉州路99"},{"poiid":"B2094654D56EA7FF439E","title":"东华里","lon":"121.53884","lat":"31.257099","category":"47","category_name":"住宅区","address":"杨树浦路1571弄"},{"poiid":"B2094655D26BABF9429B","title":"广圆小区","lon":"121.53787","lat":"31.25699","category":"47","category_name":"住宅区","address":"广州路110"},{"poiid":"B2094655D26FA7F8449F","title":"崇业小区(东门)","lon":"121.53737","lat":"31.25587","category":"47","category_name":"住宅区","address":"杨树浦路1455弄"},{"poiid":"B2094757D065A4FE499D","title":"杭州路第一小学(南部)","lon":"121.53845","lat":"31.25591","category":"56","category_name":"小学","address":"杨浦区杨树浦路1509号(眉州路杨树浦路)"},{"poiid":"B2094757D06BA4F5469F","title":"禾禄寿司","lon":"121.5371261","lat":"31.258931182","category":"247","category_name":"餐饮美食","address":"上海五角场百联又一城"},{"poiid":"B2094757D069A0F5409C","title":"70路兰州路杨树浦路终点站","lon":"121.53568876","lat":"31.254882393","category":"38","category_name":"公交车站","address":"上海兰州路(近杨树浦路)"},{"poiid":"B2094654D56EA7FF4398","title":"上海有机新材料科技工业园","lon":"121.53945","lat":"31.25644","category":"45","category_name":"产业园区","address":"杨树浦路1578"},{"poiid":"B2094655D26FA7F94698","title":"东华里(东门)","lon":"121.53901","lat":"31.25694","category":"47","category_name":"住宅区","address":"杨树浦路1571弄"},{"poiid":"B2094654D56EA7F84298","title":"乐狗生活馆","lon":"121.53768","lat":"31.25792","category":"162","category_name":"医院","address":"杨浦区眉州路129号(近杨树浦路)"},{"poiid":"B2094757D16CA0F8429E","title":"上海市杨浦区人民法院立案庭","lon":"121.53594074","lat":"31.254658889","category":"500","category_name":"未知分类","address":"上海杨树浦路1360号"},{"poiid":"B2094757D069AAF5479A","title":"广杭苑135弄","lon":"121.5370991","lat":"31.257551153","category":"252","category_name":"楼宇机构","address":"上海眉州路135弄"},{"poiid":"B2094654D56FA6FE469A","title":"老北京热气涮羊肉","lon":"121.540374054","lat":"31.261556793","category":"86","category_name":"火锅店","address":"杨浦区松潘路148号(853车站终点站对面)"},{"poiid":"B2094655D265A3FD469E","title":"安德里","lon":"121.53945","lat":"31.257593","category":"47","category_name":"住宅区","address":"杨树浦路1615弄1-34号"},{"poiid":"B2094655D265A7FA4692","title":"眉州路100弄小区(南门)","lon":"121.5388","lat":"31.25798","category":"47","category_name":"住宅区","address":"眉州路100弄"},{"poiid":"B2094655D265A2F8419E","title":"安德里(南门)","lon":"121.5396","lat":"31.25747","category":"47","category_name":"住宅区","address":"杨树浦路1615弄1-34号"},{"poiid":"B2094655D265A3FF439A","title":"上海烟草(集团)公司海烟机电修配厂","lon":"121.53825","lat":"31.25601","category":"263","category_name":"公司","address":"杨树浦路1500"},{"poiid":"B2094655D36CA3FB4892","title":"联华超市","lon":"121.53757","lat":"31.25833","category":"118","category_name":"超级市场","address":"眉州路120"},{"poiid":"B2094654DB64AAFB4599","title":"创安优胜小区","lon":"121.5368","lat":"31.25804","category":"47","category_name":"住宅区","address":"眉州路135弄"},{"poiid":"B2094655D26CA6FB4093","title":"杨浦区人民法院","lon":"121.53614","lat":"31.25426","category":"608","category_name":"法院","address":"杨树浦路1360"},{"poiid":"B2094757D069A5FA449A","title":"摆渡站(宁国路站)","lon":"121.54297","lat":"31.25601","category":"35","category_name":"长途汽车站","address":"杨浦区宁国南路10号"},{"poiid":"B2094654D56EA7FF469F","title":"快客No.6551","lon":"121.54019","lat":"31.25805","category":"117","category_name":"便民商店/便利店","address":"杨树浦路1663"},{"poiid":"B2094750D664A0FA479C","title":"老盛兴苏州汤包馆(眉州路店)","lon":"121.536","lat":"31.261","category":"68","category_name":"快餐厅","address":"杨浦区眉州路300号(近沈阳路)"},{"poiid":"B2094655D26BA5FB499E","title":"杨浦区康乃馨老年公寓","lon":"121.5382","lat":"31.25782","category":"207","category_name":"度假疗养场所","address":""},{"poiid":"B2094757D068A4F9439E","title":"双喜家园","lon":"121.53331","lat":"31.253859","category":"47","category_name":"住宅区","address":"上海市杨浦区杨树浦路1177弄"},{"poiid":"B2094655D26CA5FA489E","title":"怀德路201弄","lon":"121.53502264122","lat":"31.259616193756","category":"47","category_name":"住宅区","address":"怀德路201弄"},{"poiid":"B2094654D56EA7F54498","title":"老莫的春天","lon":"121.53456765922","lat":"31.253473504332","category":"91","category_name":"台湾菜","address":"杨浦区杨树浦路1248号(近齐齐哈尔路)"},{"poiid":"B2094757D06FA3FD429E","title":"红房子妇产科医院(杨浦分院)","lon":"121.534619481","lat":"31.2590112668","category":"162","category_name":"医院","address":"上海杨浦区沈阳路128号(近眉州路)"},{"poiid":"B2094757D06FA2F84498","title":"上海兴荣温德姆酒店","lon":"121.53912567915063","lat":"31.26011215378175","category":"76","category_name":"上海菜","address":"杨浦区宁国路25号兴荣温德姆酒店(近杭州路)"},{"poiid":"B2094655D36DA0F94092","title":"杨浦大桥","lon":"121.54012","lat":"31.26137","category":"38","category_name":"公交车站","address":"浦东新区浦东大道2175弄88号(近北洋泾路)"},{"poiid":"B2094757D06FA2FD469B","title":"复旦大学附属妇产科医院(杨浦院区)","lon":"121.53505897","lat":"31.260293398","category":"68","category_name":"快餐厅","address":"杨浦区沈阳路128号(近眉州路)"},{"poiid":"B2094757D06FA5F8449B","title":"杨浦区中医医院","lon":"121.53841","lat":"31.25735","category":"162","category_name":"医院","address":"杨浦区眉州路185号(近平凉路)"},{"poiid":"B2094757D16CA6FF479C","title":"平凉路宁国路","lon":"121.536385103","lat":"31.262084248","category":"500","category_name":"未知分类","address":"上海市杨浦区平凉路宁国路"},{"poiid":"B2094757D06FAAF84892","title":"杨浦区老年医院","lon":"121.53890578","lat":"31.260598383","category":"162","category_name":"医院","address":"杨浦区杭州路349号(近宁国路)"},{"poiid":"B2094757D069AAFF419F","title":"杨树浦路","lon":"121.537211","lat":"31.255356","category":"500","category_name":"未知分类","address":"上海杨树浦路眉州路"},{"poiid":"B2094757D06FA4F44692","title":"杭州路","lon":"121.53958","lat":"31.261819","category":"500","category_name":"未知分类","address":"上海杭州路宁国路"},{"poiid":"B2094757D068A0F4479D","title":"崇业小区","lon":"121.53728","lat":"31.256132","category":"47","category_name":"住宅区","address":"上海杨树浦路1455弄"},{"poiid":"B2094654D56EA7FF489D","title":"申润江涛苑","lon":"121.53604","lat":"31.256815","category":"47","category_name":"住宅区","address":"上海市杨浦区广州路55弄1-6号"},{"poiid":"B2094757D465A4F9489C","title":"上海兴荣温德姆酒店 尚荣轩","lon":"121.538991","lat":"31.26016","category":"76","category_name":"上海菜","address":"杨浦区宁国路25号兴荣温德姆酒店2、31、32楼(近杭州路)"},{"poiid":"B2094757D065A2FC4392","title":"东宫","lon":"121.53514872","lat":"31.261538216","category":"260","category_name":"其他","address":"上海三星路"},{"poiid":"B2094757D16BA1FE459B","title":"洪都酒家","lon":"121.53787","lat":"31.25708","category":"76","category_name":"上海菜","address":"杨浦区广州路109号(近眉州路)"},{"poiid":"B2094757D068A4F94893","title":"杨树浦路松潘路","lon":"121.540130143","lat":"31.2605108352","category":"260","category_name":"其他","address":"上海杨树浦路松潘路"},{"poiid":"B2094655D265A5F94599","title":"重庆鸡公煲","lon":"121.53777","lat":"31.25783","category":"86","category_name":"火锅店","address":"杨浦区眉州路"},{"poiid":"B2094757D068A7FB4793","title":"广杭苑","lon":"121.53644","lat":"31.257813","category":"500","category_name":"未知分类","address":"上海杭州路66弄"},{"poiid":"B2094757D06AA5FB4492","title":"交通运输部上海打捞局","lon":"121.53660991","lat":"31.254856987","category":"46","category_name":"楼宇","address":"上海杨树浦路1426号"},{"poiid":"B2094655D265A2F84199","title":"眉州路100弄小区","lon":"121.53876","lat":"31.25843","category":"47","category_name":"住宅区","address":"眉州路100弄"},{"poiid":"B2094655D36DA0F94193","title":"杨树浦路眉州路","lon":"121.53757","lat":"31.25575","category":"38","category_name":"公交车站","address":""},{"poiid":"B2094655D264A0FF489C","title":"喜士多便利(崇业店)","lon":"121.53748","lat":"31.25592","category":"117","category_name":"便民商店/便利店","address":"杨树浦路1461号"},{"poiid":"B2094757D568AAFE449C","title":"上海轮渡宁国路渡口","lon":"121.542579","lat":"31.256299","category":"35","category_name":"长途汽车站","address":"宁国南路10号"},{"poiid":"B2094757D16EA3F9449D","title":"路边摊","lon":"121.537346","lat":"31.2567","category":"247","category_name":"餐饮美食","address":"上海广州路眉州路口"},{"poiid":"B2094654DB6BA3F4419B","title":"好德便利No.96","lon":"121.53793","lat":"31.25751","category":"117","category_name":"便民商店/便利店","address":"眉州路99"},{"poiid":"B2094654D56EA7FF439E","title":"东华里","lon":"121.53884","lat":"31.257099","category":"47","category_name":"住宅区","address":"杨树浦路1571弄"},{"poiid":"B2094655D26BABF9429B","title":"广圆小区","lon":"121.53787","lat":"31.25699","category":"47","category_name":"住宅区","address":"广州路110"},{"poiid":"B2094655D26FA7F8449F","title":"崇业小区(东门)","lon":"121.53737","lat":"31.25587","category":"47","category_name":"住宅区","address":"杨树浦路1455弄"},{"poiid":"B2094757D065A4FE499D","title":"杭州路第一小学(南部)","lon":"121.53845","lat":"31.25591","category":"56","category_name":"小学","address":"杨浦区杨树浦路1509号(眉州路杨树浦路)"},{"poiid":"B2094757D06BA4F5469F","title":"禾禄寿司","lon":"121.5371261","lat":"31.258931182","category":"247","category_name":"餐饮美食","address":"上海五角场百联又一城"},{"poiid":"B2094757D069A0F5409C","title":"70路兰州路杨树浦路终点站","lon":"121.53568876","lat":"31.254882393","category":"38","category_name":"公交车站","address":"上海兰州路(近杨树浦路)"},{"poiid":"B2094654D56EA7FF4398","title":"上海有机新材料科技工业园","lon":"121.53945","lat":"31.25644","category":"45","category_name":"产业园区","address":"杨树浦路1578"},{"poiid":"B2094655D26FA7F94698","title":"东华里(东门)","lon":"121.53901","lat":"31.25694","category":"47","category_name":"住宅区","address":"杨树浦路1571弄"},{"poiid":"B2094654D56EA7F84298","title":"乐狗生活馆","lon":"121.53768","lat":"31.25792","category":"162","category_name":"医院","address":"杨浦区眉州路129号(近杨树浦路)"},{"poiid":"B2094757D16CA0F8429E","title":"上海市杨浦区人民法院立案庭","lon":"121.53594074","lat":"31.254658889","category":"500","category_name":"未知分类","address":"上海杨树浦路1360号"},{"poiid":"B2094757D069AAF5479A","title":"广杭苑135弄","lon":"121.5370991","lat":"31.257551153","category":"252","category_name":"楼宇机构","address":"上海眉州路135弄"},{"poiid":"B2094654D56FA6FE469A","title":"老北京热气涮羊肉","lon":"121.540374054","lat":"31.261556793","category":"86","category_name":"火锅店","address":"杨浦区松潘路148号(853车站终点站对面)"},{"poiid":"B2094655D265A3FD469E","title":"安德里","lon":"121.53945","lat":"31.257593","category":"47","category_name":"住宅区","address":"杨树浦路1615弄1-34号"},{"poiid":"B2094655D265A7FA4692","title":"眉州路100弄小区(南门)","lon":"121.5388","lat":"31.25798","category":"47","category_name":"住宅区","address":"眉州路100弄"},{"poiid":"B2094655D265A2F8419E","title":"安德里(南门)","lon":"121.5396","lat":"31.25747","category":"47","category_name":"住宅区","address":"杨树浦路1615弄1-34号"},{"poiid":"B2094655D265A3FF439A","title":"上海烟草(集团)公司海烟机电修配厂","lon":"121.53825","lat":"31.25601","category":"263","category_name":"公司","address":"杨树浦路1500"},{"poiid":"B2094655D36CA3FB4892","title":"联华超市","lon":"121.53757","lat":"31.25833","category":"118","category_name":"超级市场","address":"眉州路120"},{"poiid":"B2094654DB64AAFB4599","title":"创安优胜小区","lon":"121.5368","lat":"31.25804","category":"47","category_name":"住宅区","address":"眉州路135弄"},{"poiid":"B2094655D26CA6FB4093","title":"杨浦区人民法院","lon":"121.53614","lat":"31.25426","category":"608","category_name":"法院","address":"杨树浦路1360"},{"poiid":"B2094757D069A5FA449A","title":"摆渡站(宁国路站)","lon":"121.54297","lat":"31.25601","category":"35","category_name":"长途汽车站","address":"杨浦区宁国南路10号"},{"poiid":"B2094654D56EA7FF469F","title":"快客No.6551","lon":"121.54019","lat":"31.25805","category":"117","category_name":"便民商店/便利店","address":"杨树浦路1663"},{"poiid":"B2094750D664A0FA479C","title":"老盛兴苏州汤包馆(眉州路店)","lon":"121.536","lat":"31.261","category":"68","category_name":"快餐厅","address":"杨浦区眉州路300号(近沈阳路)"},{"poiid":"B2094655D26BA5FB499E","title":"杨浦区康乃馨老年公寓","lon":"121.5382","lat":"31.25782","category":"207","category_name":"度假疗养场所","address":""},{"poiid":"B2094757D068A4F9439E","title":"双喜家园","lon":"121.53331","lat":"31.253859","category":"47","category_name":"住宅区","address":"上海市杨浦区杨树浦路1177弄"},{"poiid":"B2094655D26CA5FA489E","title":"怀德路201弄","lon":"121.53502264122","lat":"31.259616193756","category":"47","category_name":"住宅区","address":"怀德路201弄"},{"poiid":"B2094654D56EA7F54498","title":"老莫的春天","lon":"121.53456765922","lat":"31.253473504332","category":"91","category_name":"台湾菜","address":"杨浦区杨树浦路1248号(近齐齐哈尔路)"},{"poiid":"B2094757D06FA3FD429E","title":"红房子妇产科医院(杨浦分院)","lon":"121.534619481","lat":"31.2590112668","category":"162","category_name":"医院","address":"上海杨浦区沈阳路128号(近眉州路)"},{"poiid":"B2094757D06FA2F84498","title":"上海兴荣温德姆酒店","lon":"121.53912567915063","lat":"31.26011215378175","category":"76","category_name":"上海菜","address":"杨浦区宁国路25号兴荣温德姆酒店(近杭州路)"},{"poiid":"B2094655D36DA0F94092","title":"杨浦大桥","lon":"121.54012","lat":"31.26137","category":"38","category_name":"公交车站","address":"浦东新区浦东大道2175弄88号(近北洋泾路)"},{"poiid":"B2094757D06FA2FD469B","title":"复旦大学附属妇产科医院(杨浦院区)","lon":"121.53505897","lat":"31.260293398","category":"68","category_name":"快餐厅","address":"杨浦区沈阳路128号(近眉州路)"},{"poiid":"B2094757D06FA5F8449B","title":"杨浦区中医医院","lon":"121.53841","lat":"31.25735","category":"162","category_name":"医院","address":"杨浦区眉州路185号(近平凉路)"},{"poiid":"B2094757D16CA6FF479C","title":"平凉路宁国路","lon":"121.536385103","lat":"31.262084248","category":"500","category_name":"未知分类","address":"上海市杨浦区平凉路宁国路"},{"poiid":"B2094757D06FAAF84892","title":"杨浦区老年医院","lon":"121.53890578","lat":"31.260598383","category":"162","category_name":"医院","address":"杨浦区杭州路349号(近宁国路)"},{"poiid":"B2094757D069AAFF419F","title":"杨树浦路","lon":"121.537211","lat":"31.255356","category":"500","category_name":"未知分类","address":"上海杨树浦路眉州路"},{"poiid":"B2094757D06FA4F44692","title":"杭州路","lon":"121.53958","lat":"31.261819","category":"500","category_name":"未知分类","address":"上海杭州路宁国路"},{"poiid":"B2094757D068A0F4479D","title":"崇业小区","lon":"121.53728","lat":"31.256132","category":"47","category_name":"住宅区","address":"上海杨树浦路1455弄"},{"poiid":"B2094654D56EA7FF489D","title":"申润江涛苑","lon":"121.53604","lat":"31.256815","category":"47","category_name":"住宅区","address":"上海市杨浦区广州路55弄1-6号"},{"poiid":"B2094757D465A4F9489C","title":"上海兴荣温德姆酒店 尚荣轩","lon":"121.538991","lat":"31.26016","category":"76","category_name":"上海菜","address":"杨浦区宁国路25号兴荣温德姆酒店2、31、32楼(近杭州路)"},{"poiid":"B2094757D065A2FC4392","title":"东宫","lon":"121.53514872","lat":"31.261538216","category":"260","category_name":"其他","address":"上海三星路"},{"poiid":"B2094757D16BA1FE459B","title":"洪都酒家","lon":"121.53787","lat":"31.25708","category":"76","category_name":"上海菜","address":"杨浦区广州路109号(近眉州路)"},{"poiid":"B2094757D068A4F94893","title":"杨树浦路松潘路","lon":"121.540130143","lat":"31.2605108352","category":"260","category_name":"其他","address":"上海杨树浦路松潘路"},{"poiid":"B2094655D265A5F94599","title":"重庆鸡公煲","lon":"121.53777","lat":"31.25783","category":"86","category_name":"火锅店","address":"杨浦区眉州路"},{"poiid":"B2094757D068A7FB4793","title":"广杭苑","lon":"121.53644","lat":"31.257813","category":"500","category_name":"未知分类","address":"上海杭州路66弄"},{"poiid":"B2094757D06AA5FB4492","title":"交通运输部上海打捞局","lon":"121.53660991","lat":"31.254856987","category":"46","category_name":"楼宇","address":"上海杨树浦路1426号"},{"poiid":"B2094655D265A2F84199","title":"眉州路100弄小区","lon":"121.53876","lat":"31.25843","category":"47","category_name":"住宅区","address":"眉州路100弄"},{"poiid":"B2094655D36DA0F94193","title":"杨树浦路眉州路","lon":"121.53757","lat":"31.25575","category":"38","category_name":"公交车站","address":""},{"poiid":"B2094655D264A0FF489C","title":"喜士多便利(崇业店)","lon":"121.53748","lat":"31.25592","category":"117","category_name":"便民商店/便利店","address":"杨树浦路1461号"},{"poiid":"B2094757D568AAFE449C","title":"上海轮渡宁国路渡口","lon":"121.542579","lat":"31.256299","category":"35","category_name":"长途汽车站","address":"宁国南路10号"},{"poiid":"B2094757D16EA3F9449D","title":"路边摊","lon":"121.537346","lat":"31.2567","category":"247","category_name":"餐饮美食","address":"上海广州路眉州路口"},{"poiid":"B2094654DB6BA3F4419B","title":"好德便利No.96","lon":"121.53793","lat":"31.25751","category":"117","category_name":"便民商店/便利店","address":"眉州路99"},{"poiid":"B2094654D56EA7FF439E","title":"东华里","lon":"121.53884","lat":"31.257099","category":"47","category_name":"住宅区","address":"杨树浦路1571弄"},{"poiid":"B2094655D26BABF9429B","title":"广圆小区","lon":"121.53787","lat":"31.25699","category":"47","category_name":"住宅区","address":"广州路110"},{"poiid":"B2094655D26FA7F8449F","title":"崇业小区(东门)","lon":"121.53737","lat":"31.25587","category":"47","category_name":"住宅区","address":"杨树浦路1455弄"},{"poiid":"B2094757D065A4FE499D","title":"杭州路第一小学(南部)","lon":"121.53845","lat":"31.25591","category":"56","category_name":"小学","address":"杨浦区杨树浦路1509号(眉州路杨树浦路)"},{"poiid":"B2094757D06BA4F5469F","title":"禾禄寿司","lon":"121.5371261","lat":"31.258931182","category":"247","category_name":"餐饮美食","address":"上海五角场百联又一城"},{"poiid":"B2094757D069A0F5409C","title":"70路兰州路杨树浦路终点站","lon":"121.53568876","lat":"31.254882393","category":"38","category_name":"公交车站","address":"上海兰州路(近杨树浦路)"},{"poiid":"B2094654D56EA7FF4398","title":"上海有机新材料科技工业园","lon":"121.53945","lat":"31.25644","category":"45","category_name":"产业园区","address":"杨树浦路1578"},{"poiid":"B2094655D26FA7F94698","title":"东华里(东门)","lon":"121.53901","lat":"31.25694","category":"47","category_name":"住宅区","address":"杨树浦路1571弄"},{"poiid":"B2094654D56EA7F84298","title":"乐狗生活馆","lon":"121.53768","lat":"31.25792","category":"162","category_name":"医院","address":"杨浦区眉州路129号(近杨树浦路)"},{"poiid":"B2094757D16CA0F8429E","title":"上海市杨浦区人民法院立案庭","lon":"121.53594074","lat":"31.254658889","category":"500","category_name":"未知分类","address":"上海杨树浦路1360号"},{"poiid":"B2094757D069AAF5479A","title":"广杭苑135弄","lon":"121.5370991","lat":"31.257551153","category":"252","category_name":"楼宇机构","address":"上海眉州路135弄"},{"poiid":"B2094654D56FA6FE469A","title":"老北京热气涮羊肉","lon":"121.540374054","lat":"31.261556793","category":"86","category_name":"火锅店","address":"杨浦区松潘路148号(853车站终点站对面)"},{"poiid":"B2094655D265A3FD469E","title":"安德里","lon":"121.53945","lat":"31.257593","category":"47","category_name":"住宅区","address":"杨树浦路1615弄1-34号"},{"poiid":"B2094655D265A7FA4692","title":"眉州路100弄小区(南门)","lon":"121.5388","lat":"31.25798","category":"47","category_name":"住宅区","address":"眉州路100弄"},{"poiid":"B2094655D265A2F8419E","title":"安德里(南门)","lon":"121.5396","lat":"31.25747","category":"47","category_name":"住宅区","address":"杨树浦路1615弄1-34号"},{"poiid":"B2094655D265A3FF439A","title":"上海烟草(集团)公司海烟机电修配厂","lon":"121.53825","lat":"31.25601","category":"263","category_name":"公司","address":"杨树浦路1500"},{"poiid":"B2094655D36CA3FB4892","title":"联华超市","lon":"121.53757","lat":"31.25833","category":"118","category_name":"超级市场","address":"眉州路120"},{"poiid":"B2094654DB64AAFB4599","title":"创安优胜小区","lon":"121.5368","lat":"31.25804","category":"47","category_name":"住宅区","address":"眉州路135弄"},{"poiid":"B2094655D26CA6FB4093","title":"杨浦区人民法院","lon":"121.53614","lat":"31.25426","category":"608","category_name":"法院","address":"杨树浦路1360"},{"poiid":"B2094757D069A5FA449A","title":"摆渡站(宁国路站)","lon":"121.54297","lat":"31.25601","category":"35","category_name":"长途汽车站","address":"杨浦区宁国南路10号"},{"poiid":"B2094654D56EA7FF469F","title":"快客No.6551","lon":"121.54019","lat":"31.25805","category":"117","category_name":"便民商店/便利店","address":"杨树浦路1663"},{"poiid":"B2094750D664A0FA479C","title":"老盛兴苏州汤包馆(眉州路店)","lon":"121.536","lat":"31.261","category":"68","category_name":"快餐厅","address":"杨浦区眉州路300号(近沈阳路)"},{"poiid":"B2094655D26BA5FB499E","title":"杨浦区康乃馨老年公寓","lon":"121.5382","lat":"31.25782","category":"207","category_name":"度假疗养场所","address":""},{"poiid":"B2094757D068A4F9439E","title":"双喜家园","lon":"121.53331","lat":"31.253859","category":"47","category_name":"住宅区","address":"上海市杨浦区杨树浦路1177弄"},{"poiid":"B2094655D26CA5FA489E","title":"怀德路201弄","lon":"121.53502264122","lat":"31.259616193756","category":"47","category_name":"住宅区","address":"怀德路201弄"},{"poiid":"B2094654D56EA7F54498","title":"老莫的春天","lon":"121.53456765922","lat":"31.253473504332","category":"91","category_name":"台湾菜","address":"杨浦区杨树浦路1248号(近齐齐哈尔路)"}]