[{"poiid":"B2094757D06FA2F4409E","title":"老盛昌苏州汤包馆(梅陇店)","lon":"121.4211","lat":"31.13846","category":"68","category_name":"快餐厅","address":"徐汇区梅陇路267号(近凌云路)"},{"poiid":"B2094757D06FA5FF499E","title":"千岛湖平价小海鲜(梅陇路店)","lon":"121.41571","lat":"31.13684","category":"76","category_name":"上海菜","address":"徐汇区梅陇路599号(近虹梅南路)"},{"poiid":"B2094757D068A0FA4599","title":"小食堂","lon":"121.41547","lat":"31.13859","category":"76","category_name":"上海菜","address":"徐汇区虹梅南路126弄323号(近梅陇路)"},{"poiid":"B2094655D26DAAFB4698","title":"凌云新村","lon":"121.41817","lat":"31.14193","category":"47","category_name":"住宅区","address":"虹梅南路126弄"},{"poiid":"B2094654DB6AA7F5479B","title":"华东理工大学华理苑","lon":"121.41942","lat":"31.13925","category":"52","category_name":"高等院校","address":"徐汇区梅陇路256号"},{"poiid":"B2094757D068A1F9489E","title":"梅陇路","lon":"121.419166565","lat":"31.1382198334","category":"500","category_name":"未知分类","address":"上海梅陇路"},{"poiid":"B2094757D068A4FF469B","title":"小梅园","lon":"121.41896","lat":"31.13747","category":"76","category_name":"上海菜","address":"徐汇区凌云路413号(近梅陇路)"},{"poiid":"B2094757D06FAAF4489E","title":"小李烧烤(梅陇路店)","lon":"121.4202","lat":"31.13859","category":"68","category_name":"快餐厅","address":"徐汇区梅陇路258号(近凌云路)"},{"poiid":"B2094655D26EA2FC479E","title":"巴贝拉 梅陇路店 Babela's Kitchen","lon":"121.42533","lat":"31.14084","category":"94","category_name":"西餐厅","address":"徐汇区梅陇路257号1-2楼(近天等路)"},{"poiid":"B2094757D068A7F94393","title":"虹梅商务大厦","lon":"121.414548746","lat":"31.1425100958","category":"46","category_name":"楼宇","address":"上海徐汇区沪闵路8075号"},{"poiid":"B2094757D068A1FD419D","title":"唱享量贩式KTV(锦江乐园店)","lon":"121.4143","lat":"31.13971","category":"170","category_name":"KTV","address":"上海闵行区沪闵路8079号锦江乐园地铁站3楼"},{"poiid":"B2094757D06FAAF5439C","title":"我家","lon":"121.41635071","lat":"31.138881528","category":"500","category_name":"未知分类","address":"上海虹梅南路126弄"},{"poiid":"B2094750D269A5F94893","title":"济州料理","lon":"121.420692","lat":"31.138915","category":"96","category_name":"韩国料理","address":"徐汇区梅陇路279号格林联盟酒店1楼(近华东理工大学)"},{"poiid":"B2094654DB69AAF84398","title":"台台缘美食坊 梅陇路店","lon":"121.4188167111","lat":"31.138202038697","category":"76","category_name":"上海菜","address":"徐汇区梅陇路293号(近凌云路)"},{"poiid":"B2094757D568A5FC489E","title":"刘基故里农家大院","lon":"121.42073","lat":"31.138929","category":"257","category_name":"中餐厅","address":"徐汇区梅陇路279号今缘宝大酒店2楼(近凌云路)"},{"poiid":"B2094757D069A4F9489A","title":"豪鸡汇(梅陇路店)","lon":"121.419965","lat":"31.138611","category":"68","category_name":"快餐厅","address":"徐汇区梅陇路391号(近龙州路)"},{"poiid":"B2094757D164A2F54793","title":"济洲料理","lon":"121.419791857","lat":"31.1382051273","category":"96","category_name":"韩国料理","address":"徐汇区梅陇路(近凌云路)"},{"poiid":"B2094757D069A4F94098","title":"泰煌鸡 梅陇路店","lon":"121.41907","lat":"31.138309","category":"68","category_name":"快餐厅","address":"徐汇区梅陇路279号(近凌云路)"},{"poiid":"B2094655D26BAAFD4092","title":"华东理工大学游泳池","lon":"121.42037","lat":"31.14171","category":"231","category_name":"游泳馆","address":"徐汇区梅陇路130号华东理工大学内(近天等路)"},{"poiid":"B2094655D268A3F44793","title":"锦泰苑","lon":"121.41693","lat":"31.14003","category":"47","category_name":"住宅区","address":"虹梅南路126弄58号-70号"},{"poiid":"B2094757D069AAFB489A","title":"川福楼","lon":"121.421497054","lat":"31.139273793","category":"86","category_name":"火锅店","address":"徐汇区梅陇路289号(近凌云路)"},{"poiid":"B2094655D26FA6F8429B","title":"凌云新村(西2门)","lon":"121.41835","lat":"31.13989","category":"47","category_name":"住宅区","address":""},{"poiid":"B2094655D268A4F9429C","title":"凌云新村(二号门)","lon":"121.41788","lat":"31.14077","category":"47","category_name":"住宅区","address":""},{"poiid":"B2094655D26BA6F94499","title":"小红花幼儿园","lon":"121.4204","lat":"31.13946","category":"57","category_name":"幼儿园","address":"徐汇区梅陇路130弄(天等路口)"},{"poiid":"B2094655D268A4F9419E","title":"梅苑二居","lon":"121.41736","lat":"31.13999","category":"47","category_name":"住宅区","address":"虹梅南路126弄71-82号"},{"poiid":"B2094654DB65A0FF4593","title":"凌云工商所消费者权益保护梅苑二居委会联络点","lon":"121.41768","lat":"31.14064","category":"250","category_name":"公园户外","address":""},{"poiid":"B2094757D664AAFB4393","title":"华东理工教工食堂","lon":"121.42533","lat":"31.14084","category":"68","category_name":"快餐厅","address":"徐汇区梅陇路130号华东理工大学西门(近天等路)"},{"poiid":"B2094654DB69A5F44892","title":"避风塘 梅陇路","lon":"121.41902923668","lat":"31.138262254249","category":"257","category_name":"中餐厅","address":"梅陇路279号近龙州路"},{"poiid":"B2094655D268A3F4489A","title":"锦泰苑(北门)","lon":"121.41696","lat":"31.1404","category":"47","category_name":"住宅区","address":"虹梅南路126弄58号-70号"},{"poiid":"B2094757D66BA0FC459D","title":"广东仔原味烧烤","lon":"121.417584054","lat":"31.137848793","category":"68","category_name":"快餐厅","address":"徐汇区梅陇路565弄15号(近虹梅南路)"},{"poiid":"B2094753D56AA1FE429E","title":"梅赛德斯-奔驰文化中心","lon":"121.418167","lat":"31.142641","category":"500","category_name":"未知分类","address":"上海市 上海市浦东新区世博大道1200号(近上南路)"},{"poiid":"B2094757D16CA5F94298","title":"虹梅南路96弄","lon":"121.415510857","lat":"31.1408471803","category":"500","category_name":"未知分类","address":"上海市闵行区梅陇立交桥"},{"poiid":"B2094757D66CA3F5459B","title":"千島湖海鮮酒樓","lon":"121.417572857","lat":"31.1421672067","category":"247","category_name":"餐饮美食","address":"上海徐匯區梅龍路599號"},{"poiid":"B2094757D66CA0F4469D","title":"梅陇文化馆2号厅","lon":"121.41949365","lat":"31.138143226","category":"500","category_name":"未知分类","address":"上海梅陇路"},{"poiid":"B2094654DA65AAFE439F","title":"快客(虹梅南路)","lon":"121.41661","lat":"31.1392","category":"117","category_name":"便民商店/便利店","address":"虹梅南路126弄30号"},{"poiid":"B2094654DB65A3F5419D","title":"锦隆苑","lon":"121.4192","lat":"31.139442","category":"47","category_name":"住宅区","address":"梅陇路256弄5-6号"},{"poiid":"B2094654DB64A2FB479B","title":"永琪美容美发(梅陇路)","lon":"121.42026","lat":"31.13874","category":"148","category_name":"美容美发店","address":"徐汇区梅陇路555号(近虹梅南路)"},{"poiid":"B2094757D06AA6F8469F","title":"梅陇一村","lon":"121.42","lat":"31.1424","category":"500","category_name":"未知分类","address":"上海中环路梅陇路"},{"poiid":"B2094757D56CABFA469C","title":"凯司令西点房 百色路店","lon":"121.41598","lat":"31.13722","category":"67","category_name":"甜品店","address":"徐汇区百色路1076号(近上海植物园)"},{"poiid":"B2094654DA65AAFE4392","title":"北京饺子馆","lon":"121.41568","lat":"31.13888","category":"260","category_name":"其他","address":"徐汇区虹梅南路126弄337号"},{"poiid":"B2094757D06BA5F4449E","title":"大娘水饺 沪闵路店","lon":"121.414277054","lat":"31.142391793","category":"68","category_name":"快餐厅","address":"徐汇区沪闵路8075号虹梅商务大厦内(近锦江乐园)"},{"poiid":"B2094655D26FA6F8439B","title":"华理二三村","lon":"121.41723","lat":"31.13837","category":"47","category_name":"住宅区","address":"梅陇路300号"},{"poiid":"B2094655D26FA7FA449C","title":"锦隆苑(东门)","lon":"121.41936","lat":"31.13963","category":"47","category_name":"住宅区","address":"梅陇路256弄5-6号"},{"poiid":"B2094757D06AA4F54092","title":"中国银行(梅陇支行)","lon":"121.41976648","lat":"31.138787582","category":"150","category_name":"银行","address":"徐汇区梅陇路260号"},{"poiid":"B2094752D66CAAF9409A","title":"恋暖の初茶","lon":"121.419455","lat":"31.141734","category":"247","category_name":"餐饮美食","address":"徐家汇美罗城B1楼"},{"poiid":"B2094655D268A7FB4992","title":"梅苑一居","lon":"121.41513","lat":"31.14027","category":"47","category_name":"住宅区","address":""},{"poiid":"B2094654DB64A4F84593","title":"翡翠别墅","lon":"121.41506","lat":"31.13936","category":"47","category_name":"住宅区","address":"虹梅路"},{"poiid":"B2094757D569A3FD499D","title":"华东理工肉夹馍","lon":"121.42602","lat":"31.14041","category":"68","category_name":"快餐厅","address":"徐汇区天等路494号(近华东理工大学正门口)"},{"poiid":"B2094655D268A2FF4199","title":"梅陇路教师公寓小区","lon":"121.41939","lat":"31.13908","category":"47","category_name":"住宅区","address":"梅陇路256弄1-4号"},{"poiid":"B2094750DB64A6FD499B","title":"上海动物园","lon":"121.417243","lat":"31.141632","category":"500","category_name":"未知分类","address":null},{"poiid":"B2094757D06FA2F4409E","title":"老盛昌苏州汤包馆(梅陇店)","lon":"121.4211","lat":"31.13846","category":"68","category_name":"快餐厅","address":"徐汇区梅陇路267号(近凌云路)"},{"poiid":"B2094757D06FA5FF499E","title":"千岛湖平价小海鲜(梅陇路店)","lon":"121.41571","lat":"31.13684","category":"76","category_name":"上海菜","address":"徐汇区梅陇路599号(近虹梅南路)"},{"poiid":"B2094757D068A0FA4599","title":"小食堂","lon":"121.41547","lat":"31.13859","category":"76","category_name":"上海菜","address":"徐汇区虹梅南路126弄323号(近梅陇路)"},{"poiid":"B2094655D26DAAFB4698","title":"凌云新村","lon":"121.41817","lat":"31.14193","category":"47","category_name":"住宅区","address":"虹梅南路126弄"},{"poiid":"B2094654DB6AA7F5479B","title":"华东理工大学华理苑","lon":"121.41942","lat":"31.13925","category":"52","category_name":"高等院校","address":"徐汇区梅陇路256号"},{"poiid":"B2094757D068A1F9489E","title":"梅陇路","lon":"121.419166565","lat":"31.1382198334","category":"500","category_name":"未知分类","address":"上海梅陇路"},{"poiid":"B2094757D068A4FF469B","title":"小梅园","lon":"121.41896","lat":"31.13747","category":"76","category_name":"上海菜","address":"徐汇区凌云路413号(近梅陇路)"},{"poiid":"B2094757D06FAAF4489E","title":"小李烧烤(梅陇路店)","lon":"121.4202","lat":"31.13859","category":"68","category_name":"快餐厅","address":"徐汇区梅陇路258号(近凌云路)"},{"poiid":"B2094655D26EA2FC479E","title":"巴贝拉 梅陇路店 Babela's Kitchen","lon":"121.42533","lat":"31.14084","category":"94","category_name":"西餐厅","address":"徐汇区梅陇路257号1-2楼(近天等路)"},{"poiid":"B2094757D068A7F94393","title":"虹梅商务大厦","lon":"121.414548746","lat":"31.1425100958","category":"46","category_name":"楼宇","address":"上海徐汇区沪闵路8075号"},{"poiid":"B2094757D068A1FD419D","title":"唱享量贩式KTV(锦江乐园店)","lon":"121.4143","lat":"31.13971","category":"170","category_name":"KTV","address":"上海闵行区沪闵路8079号锦江乐园地铁站3楼"},{"poiid":"B2094757D06FAAF5439C","title":"我家","lon":"121.41635071","lat":"31.138881528","category":"500","category_name":"未知分类","address":"上海虹梅南路126弄"},{"poiid":"B2094750D269A5F94893","title":"济州料理","lon":"121.420692","lat":"31.138915","category":"96","category_name":"韩国料理","address":"徐汇区梅陇路279号格林联盟酒店1楼(近华东理工大学)"},{"poiid":"B2094654DB69AAF84398","title":"台台缘美食坊 梅陇路店","lon":"121.4188167111","lat":"31.138202038697","category":"76","category_name":"上海菜","address":"徐汇区梅陇路293号(近凌云路)"},{"poiid":"B2094757D568A5FC489E","title":"刘基故里农家大院","lon":"121.42073","lat":"31.138929","category":"257","category_name":"中餐厅","address":"徐汇区梅陇路279号今缘宝大酒店2楼(近凌云路)"},{"poiid":"B2094757D069A4F9489A","title":"豪鸡汇(梅陇路店)","lon":"121.419965","lat":"31.138611","category":"68","category_name":"快餐厅","address":"徐汇区梅陇路391号(近龙州路)"},{"poiid":"B2094757D164A2F54793","title":"济洲料理","lon":"121.419791857","lat":"31.1382051273","category":"96","category_name":"韩国料理","address":"徐汇区梅陇路(近凌云路)"},{"poiid":"B2094757D069A4F94098","title":"泰煌鸡 梅陇路店","lon":"121.41907","lat":"31.138309","category":"68","category_name":"快餐厅","address":"徐汇区梅陇路279号(近凌云路)"},{"poiid":"B2094655D26BAAFD4092","title":"华东理工大学游泳池","lon":"121.42037","lat":"31.14171","category":"231","category_name":"游泳馆","address":"徐汇区梅陇路130号华东理工大学内(近天等路)"},{"poiid":"B2094655D268A3F44793","title":"锦泰苑","lon":"121.41693","lat":"31.14003","category":"47","category_name":"住宅区","address":"虹梅南路126弄58号-70号"},{"poiid":"B2094757D069AAFB489A","title":"川福楼","lon":"121.421497054","lat":"31.139273793","category":"86","category_name":"火锅店","address":"徐汇区梅陇路289号(近凌云路)"},{"poiid":"B2094655D26FA6F8429B","title":"凌云新村(西2门)","lon":"121.41835","lat":"31.13989","category":"47","category_name":"住宅区","address":""},{"poiid":"B2094655D268A4F9429C","title":"凌云新村(二号门)","lon":"121.41788","lat":"31.14077","category":"47","category_name":"住宅区","address":""},{"poiid":"B2094655D26BA6F94499","title":"小红花幼儿园","lon":"121.4204","lat":"31.13946","category":"57","category_name":"幼儿园","address":"徐汇区梅陇路130弄(天等路口)"},{"poiid":"B2094655D268A4F9419E","title":"梅苑二居","lon":"121.41736","lat":"31.13999","category":"47","category_name":"住宅区","address":"虹梅南路126弄71-82号"},{"poiid":"B2094654DB65A0FF4593","title":"凌云工商所消费者权益保护梅苑二居委会联络点","lon":"121.41768","lat":"31.14064","category":"250","category_name":"公园户外","address":""},{"poiid":"B2094757D664AAFB4393","title":"华东理工教工食堂","lon":"121.42533","lat":"31.14084","category":"68","category_name":"快餐厅","address":"徐汇区梅陇路130号华东理工大学西门(近天等路)"},{"poiid":"B2094654DB69A5F44892","title":"避风塘 梅陇路","lon":"121.41902923668","lat":"31.138262254249","category":"257","category_name":"中餐厅","address":"梅陇路279号近龙州路"},{"poiid":"B2094655D268A3F4489A","title":"锦泰苑(北门)","lon":"121.41696","lat":"31.1404","category":"47","category_name":"住宅区","address":"虹梅南路126弄58号-70号"},{"poiid":"B2094757D66BA0FC459D","title":"广东仔原味烧烤","lon":"121.417584054","lat":"31.137848793","category":"68","category_name":"快餐厅","address":"徐汇区梅陇路565弄15号(近虹梅南路)"},{"poiid":"B2094753D56AA1FE429E","title":"梅赛德斯-奔驰文化中心","lon":"121.418167","lat":"31.142641","category":"500","category_name":"未知分类","address":"上海市 上海市浦东新区世博大道1200号(近上南路)"},{"poiid":"B2094757D16CA5F94298","title":"虹梅南路96弄","lon":"121.415510857","lat":"31.1408471803","category":"500","category_name":"未知分类","address":"上海市闵行区梅陇立交桥"},{"poiid":"B2094757D66CA3F5459B","title":"千島湖海鮮酒樓","lon":"121.417572857","lat":"31.1421672067","category":"247","category_name":"餐饮美食","address":"上海徐匯區梅龍路599號"},{"poiid":"B2094757D66CA0F4469D","title":"梅陇文化馆2号厅","lon":"121.41949365","lat":"31.138143226","category":"500","category_name":"未知分类","address":"上海梅陇路"},{"poiid":"B2094654DA65AAFE439F","title":"快客(虹梅南路)","lon":"121.41661","lat":"31.1392","category":"117","category_name":"便民商店/便利店","address":"虹梅南路126弄30号"},{"poiid":"B2094654DB65A3F5419D","title":"锦隆苑","lon":"121.4192","lat":"31.139442","category":"47","category_name":"住宅区","address":"梅陇路256弄5-6号"},{"poiid":"B2094654DB64A2FB479B","title":"永琪美容美发(梅陇路)","lon":"121.42026","lat":"31.13874","category":"148","category_name":"美容美发店","address":"徐汇区梅陇路555号(近虹梅南路)"},{"poiid":"B2094757D06AA6F8469F","title":"梅陇一村","lon":"121.42","lat":"31.1424","category":"500","category_name":"未知分类","address":"上海中环路梅陇路"},{"poiid":"B2094757D56CABFA469C","title":"凯司令西点房 百色路店","lon":"121.41598","lat":"31.13722","category":"67","category_name":"甜品店","address":"徐汇区百色路1076号(近上海植物园)"},{"poiid":"B2094654DA65AAFE4392","title":"北京饺子馆","lon":"121.41568","lat":"31.13888","category":"260","category_name":"其他","address":"徐汇区虹梅南路126弄337号"},{"poiid":"B2094757D06BA5F4449E","title":"大娘水饺 沪闵路店","lon":"121.414277054","lat":"31.142391793","category":"68","category_name":"快餐厅","address":"徐汇区沪闵路8075号虹梅商务大厦内(近锦江乐园)"},{"poiid":"B2094655D26FA6F8439B","title":"华理二三村","lon":"121.41723","lat":"31.13837","category":"47","category_name":"住宅区","address":"梅陇路300号"},{"poiid":"B2094655D26FA7FA449C","title":"锦隆苑(东门)","lon":"121.41936","lat":"31.13963","category":"47","category_name":"住宅区","address":"梅陇路256弄5-6号"},{"poiid":"B2094757D06AA4F54092","title":"中国银行(梅陇支行)","lon":"121.41976648","lat":"31.138787582","category":"150","category_name":"银行","address":"徐汇区梅陇路260号"},{"poiid":"B2094752D66CAAF9409A","title":"恋暖の初茶","lon":"121.419455","lat":"31.141734","category":"247","category_name":"餐饮美食","address":"徐家汇美罗城B1楼"},{"poiid":"B2094655D268A7FB4992","title":"梅苑一居","lon":"121.41513","lat":"31.14027","category":"47","category_name":"住宅区","address":""},{"poiid":"B2094654DB64A4F84593","title":"翡翠别墅","lon":"121.41506","lat":"31.13936","category":"47","category_name":"住宅区","address":"虹梅路"},{"poiid":"B2094757D569A3FD499D","title":"华东理工肉夹馍","lon":"121.42602","lat":"31.14041","category":"68","category_name":"快餐厅","address":"徐汇区天等路494号(近华东理工大学正门口)"},{"poiid":"B2094655D268A2FF4199","title":"梅陇路教师公寓小区","lon":"121.41939","lat":"31.13908","category":"47","category_name":"住宅区","address":"梅陇路256弄1-4号"},{"poiid":"B2094750DB64A6FD499B","title":"上海动物园","lon":"121.417243","lat":"31.141632","category":"500","category_name":"未知分类","address":null},{"poiid":"B2094757D06FA2F4409E","title":"老盛昌苏州汤包馆(梅陇店)","lon":"121.4211","lat":"31.13846","category":"68","category_name":"快餐厅","address":"徐汇区梅陇路267号(近凌云路)"},{"poiid":"B2094757D06FA5FF499E","title":"千岛湖平价小海鲜(梅陇路店)","lon":"121.41571","lat":"31.13684","category":"76","category_name":"上海菜","address":"徐汇区梅陇路599号(近虹梅南路)"},{"poiid":"B2094757D068A0FA4599","title":"小食堂","lon":"121.41547","lat":"31.13859","category":"76","category_name":"上海菜","address":"徐汇区虹梅南路126弄323号(近梅陇路)"},{"poiid":"B2094655D26DAAFB4698","title":"凌云新村","lon":"121.41817","lat":"31.14193","category":"47","category_name":"住宅区","address":"虹梅南路126弄"},{"poiid":"B2094654DB6AA7F5479B","title":"华东理工大学华理苑","lon":"121.41942","lat":"31.13925","category":"52","category_name":"高等院校","address":"徐汇区梅陇路256号"},{"poiid":"B2094757D068A1F9489E","title":"梅陇路","lon":"121.419166565","lat":"31.1382198334","category":"500","category_name":"未知分类","address":"上海梅陇路"},{"poiid":"B2094757D068A4FF469B","title":"小梅园","lon":"121.41896","lat":"31.13747","category":"76","category_name":"上海菜","address":"徐汇区凌云路413号(近梅陇路)"},{"poiid":"B2094757D06FAAF4489E","title":"小李烧烤(梅陇路店)","lon":"121.4202","lat":"31.13859","category":"68","category_name":"快餐厅","address":"徐汇区梅陇路258号(近凌云路)"},{"poiid":"B2094655D26EA2FC479E","title":"巴贝拉 梅陇路店 Babela's Kitchen","lon":"121.42533","lat":"31.14084","category":"94","category_name":"西餐厅","address":"徐汇区梅陇路257号1-2楼(近天等路)"},{"poiid":"B2094757D068A7F94393","title":"虹梅商务大厦","lon":"121.414548746","lat":"31.1425100958","category":"46","category_name":"楼宇","address":"上海徐汇区沪闵路8075号"},{"poiid":"B2094757D068A1FD419D","title":"唱享量贩式KTV(锦江乐园店)","lon":"121.4143","lat":"31.13971","category":"170","category_name":"KTV","address":"上海闵行区沪闵路8079号锦江乐园地铁站3楼"},{"poiid":"B2094757D06FAAF5439C","title":"我家","lon":"121.41635071","lat":"31.138881528","category":"500","category_name":"未知分类","address":"上海虹梅南路126弄"},{"poiid":"B2094750D269A5F94893","title":"济州料理","lon":"121.420692","lat":"31.138915","category":"96","category_name":"韩国料理","address":"徐汇区梅陇路279号格林联盟酒店1楼(近华东理工大学)"},{"poiid":"B2094654DB69AAF84398","title":"台台缘美食坊 梅陇路店","lon":"121.4188167111","lat":"31.138202038697","category":"76","category_name":"上海菜","address":"徐汇区梅陇路293号(近凌云路)"},{"poiid":"B2094757D568A5FC489E","title":"刘基故里农家大院","lon":"121.42073","lat":"31.138929","category":"257","category_name":"中餐厅","address":"徐汇区梅陇路279号今缘宝大酒店2楼(近凌云路)"},{"poiid":"B2094757D069A4F9489A","title":"豪鸡汇(梅陇路店)","lon":"121.419965","lat":"31.138611","category":"68","category_name":"快餐厅","address":"徐汇区梅陇路391号(近龙州路)"},{"poiid":"B2094757D164A2F54793","title":"济洲料理","lon":"121.419791857","lat":"31.1382051273","category":"96","category_name":"韩国料理","address":"徐汇区梅陇路(近凌云路)"},{"poiid":"B2094757D069A4F94098","title":"泰煌鸡 梅陇路店","lon":"121.41907","lat":"31.138309","category":"68","category_name":"快餐厅","address":"徐汇区梅陇路279号(近凌云路)"},{"poiid":"B2094655D26BAAFD4092","title":"华东理工大学游泳池","lon":"121.42037","lat":"31.14171","category":"231","category_name":"游泳馆","address":"徐汇区梅陇路130号华东理工大学内(近天等路)"},{"poiid":"B2094655D268A3F44793","title":"锦泰苑","lon":"121.41693","lat":"31.14003","category":"47","category_name":"住宅区","address":"虹梅南路126弄58号-70号"},{"poiid":"B2094757D069AAFB489A","title":"川福楼","lon":"121.421497054","lat":"31.139273793","category":"86","category_name":"火锅店","address":"徐汇区梅陇路289号(近凌云路)"},{"poiid":"B2094655D26FA6F8429B","title":"凌云新村(西2门)","lon":"121.41835","lat":"31.13989","category":"47","category_name":"住宅区","address":""},{"poiid":"B2094655D268A4F9429C","title":"凌云新村(二号门)","lon":"121.41788","lat":"31.14077","category":"47","category_name":"住宅区","address":""},{"poiid":"B2094655D26BA6F94499","title":"小红花幼儿园","lon":"121.4204","lat":"31.13946","category":"57","category_name":"幼儿园","address":"徐汇区梅陇路130弄(天等路口)"},{"poiid":"B2094655D268A4F9419E","title":"梅苑二居","lon":"121.41736","lat":"31.13999","category":"47","category_name":"住宅区","address":"虹梅南路126弄71-82号"},{"poiid":"B2094654DB65A0FF4593","title":"凌云工商所消费者权益保护梅苑二居委会联络点","lon":"121.41768","lat":"31.14064","category":"250","category_name":"公园户外","address":""},{"poiid":"B2094757D664AAFB4393","title":"华东理工教工食堂","lon":"121.42533","lat":"31.14084","category":"68","category_name":"快餐厅","address":"徐汇区梅陇路130号华东理工大学西门(近天等路)"},{"poiid":"B2094654DB69A5F44892","title":"避风塘 梅陇路","lon":"121.41902923668","lat":"31.138262254249","category":"257","category_name":"中餐厅","address":"梅陇路279号近龙州路"},{"poiid":"B2094655D268A3F4489A","title":"锦泰苑(北门)","lon":"121.41696","lat":"31.1404","category":"47","category_name":"住宅区","address":"虹梅南路126弄58号-70号"},{"poiid":"B2094757D66BA0FC459D","title":"广东仔原味烧烤","lon":"121.417584054","lat":"31.137848793","category":"68","category_name":"快餐厅","address":"徐汇区梅陇路565弄15号(近虹梅南路)"},{"poiid":"B2094753D56AA1FE429E","title":"梅赛德斯-奔驰文化中心","lon":"121.418167","lat":"31.142641","category":"500","category_name":"未知分类","address":"上海市 上海市浦东新区世博大道1200号(近上南路)"},{"poiid":"B2094757D16CA5F94298","title":"虹梅南路96弄","lon":"121.415510857","lat":"31.1408471803","category":"500","category_name":"未知分类","address":"上海市闵行区梅陇立交桥"},{"poiid":"B2094757D66CA3F5459B","title":"千島湖海鮮酒樓","lon":"121.417572857","lat":"31.1421672067","category":"247","category_name":"餐饮美食","address":"上海徐匯區梅龍路599號"},{"poiid":"B2094757D66CA0F4469D","title":"梅陇文化馆2号厅","lon":"121.41949365","lat":"31.138143226","category":"500","category_name":"未知分类","address":"上海梅陇路"},{"poiid":"B2094654DA65AAFE439F","title":"快客(虹梅南路)","lon":"121.41661","lat":"31.1392","category":"117","category_name":"便民商店/便利店","address":"虹梅南路126弄30号"},{"poiid":"B2094654DB65A3F5419D","title":"锦隆苑","lon":"121.4192","lat":"31.139442","category":"47","category_name":"住宅区","address":"梅陇路256弄5-6号"},{"poiid":"B2094654DB64A2FB479B","title":"永琪美容美发(梅陇路)","lon":"121.42026","lat":"31.13874","category":"148","category_name":"美容美发店","address":"徐汇区梅陇路555号(近虹梅南路)"},{"poiid":"B2094757D06AA6F8469F","title":"梅陇一村","lon":"121.42","lat":"31.1424","category":"500","category_name":"未知分类","address":"上海中环路梅陇路"},{"poiid":"B2094757D56CABFA469C","title":"凯司令西点房 百色路店","lon":"121.41598","lat":"31.13722","category":"67","category_name":"甜品店","address":"徐汇区百色路1076号(近上海植物园)"},{"poiid":"B2094654DA65AAFE4392","title":"北京饺子馆","lon":"121.41568","lat":"31.13888","category":"260","category_name":"其他","address":"徐汇区虹梅南路126弄337号"},{"poiid":"B2094757D06BA5F4449E","title":"大娘水饺 沪闵路店","lon":"121.414277054","lat":"31.142391793","category":"68","category_name":"快餐厅","address":"徐汇区沪闵路8075号虹梅商务大厦内(近锦江乐园)"},{"poiid":"B2094655D26FA6F8439B","title":"华理二三村","lon":"121.41723","lat":"31.13837","category":"47","category_name":"住宅区","address":"梅陇路300号"},{"poiid":"B2094655D26FA7FA449C","title":"锦隆苑(东门)","lon":"121.41936","lat":"31.13963","category":"47","category_name":"住宅区","address":"梅陇路256弄5-6号"},{"poiid":"B2094757D06AA4F54092","title":"中国银行(梅陇支行)","lon":"121.41976648","lat":"31.138787582","category":"150","category_name":"银行","address":"徐汇区梅陇路260号"},{"poiid":"B2094752D66CAAF9409A","title":"恋暖の初茶","lon":"121.419455","lat":"31.141734","category":"247","category_name":"餐饮美食","address":"徐家汇美罗城B1楼"},{"poiid":"B2094655D268A7FB4992","title":"梅苑一居","lon":"121.41513","lat":"31.14027","category":"47","category_name":"住宅区","address":""},{"poiid":"B2094654DB64A4F84593","title":"翡翠别墅","lon":"121.41506","lat":"31.13936","category":"47","category_name":"住宅区","address":"虹梅路"},{"poiid":"B2094757D569A3FD499D","title":"华东理工肉夹馍","lon":"121.42602","lat":"31.14041","category":"68","category_name":"快餐厅","address":"徐汇区天等路494号(近华东理工大学正门口)"},{"poiid":"B2094655D268A2FF4199","title":"梅陇路教师公寓小区","lon":"121.41939","lat":"31.13908","category":"47","category_name":"住宅区","address":"梅陇路256弄1-4号"},{"poiid":"B2094750DB64A6FD499B","title":"上海动物园","lon":"121.417243","lat":"31.141632","category":"500","category_name":"未知分类","address":null}]