[{"poiid":"B2094757D06FA7F44199","title":"光头烧烤吧(南泉北路店)","lon":"121.51594","lat":"31.23765","category":"68","category_name":"快餐厅","address":"浦东新区南泉北路47号(近东方医院)"},{"poiid":"B2094655D36CA6F44498","title":"东昌路地铁站","lon":"121.51688","lat":"31.23429","category":"36","category_name":"地铁站","address":"上海轨道交通二号线东昌路站"},{"poiid":"B2094757D069A7F4429B","title":"浦东新舞台","lon":"121.51503","lat":"31.23892","category":"179","category_name":"音乐厅","address":"浦东新区浦东大道143号(南泉北路浦东大道)"},{"poiid":"B209475CD564A7F84392","title":"上海滩浦东香格里拉店","lon":"121.50058","lat":"31.23634","category":"119","category_name":"商场","address":"浦东富成路33号香格里拉酒店内大堂层"},{"poiid":"B2094757D06FA1FE489C","title":"上海市房地产交易中心","lon":"121.515980363","lat":"31.2356323484","category":"46","category_name":"楼宇","address":"上海浦东新区南泉北路201号(栖霞路口)"},{"poiid":"B2094655D26DA7F84399","title":"房地大厦","lon":"121.51593","lat":"31.23556","category":"46","category_name":"楼宇","address":"昌平区回龙观镇国际信息产业基地高新二街"},{"poiid":"B2094757D068A1FA4999","title":"西安5号米皮","lon":"121.51563","lat":"31.23721","category":"68","category_name":"快餐厅","address":"浦东新区南泉北路51号-4(近招远路)"},{"poiid":"B2094750D665A4FA489D","title":"花ちゃんの台所","lon":"121.515","lat":"31.2359","category":"95","category_name":"日本料理","address":"浦东新区栖霞路41号(近南泉北路)"},{"poiid":"B2094757D068A6FD489F","title":"永华大厦","lon":"121.51416015","lat":"31.238700866","category":"46","category_name":"楼宇","address":"浦东大道138号"},{"poiid":"B2094654DA69A7FF4398","title":"华东师范大学附属东昌中学","lon":"121.51499","lat":"31.23516","category":"55","category_name":"中学","address":"浦东新区栖霞路34号(南泉北路)"},{"poiid":"B2094757D068A3F94192","title":"东北四季饺子王(浦东大道店)","lon":"121.51492","lat":"31.23906","category":"82","category_name":"东北菜","address":"上海浦东新区浦东大道143号甲(即墨路口)"},{"poiid":"B2094757D56CAAFB469F","title":"二子龙虾 东昌店","lon":"121.514945054","lat":"31.237452793","category":"68","category_name":"快餐厅","address":"浦东新区南泉北路51号(近招远路)"},{"poiid":"B2094757D068A5F8459B","title":"月亮生煎大王","lon":"121.51692","lat":"31.23806","category":"68","category_name":"快餐厅","address":"浦东新区崂山路80号101室(近浦东大道)"},{"poiid":"B2094757D16CA6F84393","title":"龙门鱼府","lon":"121.517858738","lat":"31.234588393","category":"86","category_name":"火锅店","address":"浦东新区崂山路300号(近乳山路)"},{"poiid":"B2094757D06FAAFF4693","title":"大壶春(浦东总店)","lon":"121.51408","lat":"31.23824","category":"68","category_name":"快餐厅","address":"浦东新区浦东大道136弄4-6号(近即墨路)"},{"poiid":"B2094757D164A2F9429C","title":"光头烧烤","lon":"121.51228","lat":"31.24018","category":"68","category_name":"快餐厅","address":"浦东新区崂山路47号(东昌电影院)"},{"poiid":"B2094757D068A1F8449F","title":"鲜得来排骨年糕 浦东店","lon":"121.513548054","lat":"31.237137793","category":"68","category_name":"快餐厅","address":"浦东新区即墨路180号(近招远路东方医院旁边)"},{"poiid":"B2094757D068A1FC429F","title":"东昌电影院","lon":"121.516061","lat":"31.237536","category":"178","category_name":"电影院","address":"南泉北路150"},{"poiid":"B2094757D065A2FD479B","title":"老姚烧烤","lon":"121.51579","lat":"31.23748","category":"68","category_name":"快餐厅","address":"浦东新区南泉北路51号(近招远路)"},{"poiid":"B2094757D06AA7F8429A","title":"德兴面馆(浦东店)","lon":"121.5153","lat":"31.2387","category":"68","category_name":"快餐厅","address":"浦东新区南泉北路1号(浦东大道口)"},{"poiid":"B2094654DA69A7FE459A","title":"崂山五村","lon":"121.51745","lat":"31.23745","category":"47","category_name":"住宅区","address":"崂山五村502-562号"},{"poiid":"B2094757D66DABFB479E","title":"名盛串城","lon":"121.515641738","lat":"31.2376644585","category":"96","category_name":"韩国料理","address":"浦东新区南泉北路53号(近浦东大道)"},{"poiid":"B2094654DA69A1F5439D","title":"申金大厦","lon":"121.517","lat":"31.2352","category":"46","category_name":"楼宇","address":"商城路297-305"},{"poiid":"B2094757D064A5F54393","title":"吉祥馄饨 栖霞店 Gll Wonton","lon":"121.51706","lat":"31.23627","category":"68","category_name":"快餐厅","address":"浦东新区栖霞路66号(近南泉北路)"},{"poiid":"B2094654DA69A7F8459B","title":"上海电视大学黄经贸分校","lon":"121.51627","lat":"31.23714","category":"52","category_name":"高等院校","address":"南泉北路168-170"},{"poiid":"B2094654DA69A7FD479B","title":"东昌中学东校","lon":"121.51871","lat":"31.23801","category":"55","category_name":"中学","address":"崂山路200"},{"poiid":"B2094655D264ABF94793","title":"富橙投资","lon":"121.51634","lat":"31.23925","category":"46","category_name":"楼宇","address":"浦东区浦东大道288号"},{"poiid":"B2094757D46EA2FE4099","title":"食食客客","lon":"121.51642","lat":"31.23625","category":"68","category_name":"快餐厅","address":"浦东新区栖霞路53号(近南泉北路)"},{"poiid":"B2094750D76CABFF429C","title":"长安客(招远路店)","lon":"121.515","lat":"31.2371","category":"68","category_name":"快餐厅","address":"浦东新区招远路19弄25号(近东方医院)"},{"poiid":"B2094654DA69A7FC439A","title":"京世国际发型美容连锁机构","lon":"121.519","lat":"31.237","category":"148","category_name":"美容美发店","address":"崂山东路"},{"poiid":"B2094654DA69A7F8499E","title":"星火日夜崂山店","lon":"121.5166","lat":"31.23764","category":"117","category_name":"便民商店/便利店","address":"崂山路143"},{"poiid":"B2094757D169A6FA409F","title":"千岩五谷煲仔饭","lon":"121.51551","lat":"31.23728","category":"68","category_name":"快餐厅","address":"浦东新区招远路48号(近东方医院)"},{"poiid":"B2094757D065A6FB4293","title":"东来福热气涮羊肉(南泉北路店)","lon":"121.5143","lat":"31.23661","category":"86","category_name":"火锅店","address":"浦东新区南泉北路(近招远路)"},{"poiid":"B2094757D569A2F8429D","title":"R&B珍奶会所(栖霞店)","lon":"121.51728163","lat":"31.23635878","category":"113","category_name":"冷饮店","address":"浦东新区栖霞路72号(近南泉北路)"},{"poiid":"B2094757D465A0F4489A","title":"溢香小苑湘菜馆","lon":"121.518042054","lat":"31.237157793","category":"77","category_name":"湖南菜","address":"浦东新区栖霞路99号(近崂山路)"},{"poiid":"B2094757D16DA3FE4092","title":"仟村馄饨","lon":"121.51579573","lat":"31.238097467","category":"247","category_name":"餐饮美食","address":"上海市浦东新区浦东南路"},{"poiid":"B2094654DA69A7F84598","title":"浦江职业技术培训学校","lon":"121.51627","lat":"31.23714","category":"54","category_name":"职业技术学校","address":"南泉北路168-170"},{"poiid":"B2094654DA69A7FB4092","title":"三和辣欢天川菜馆","lon":"121.51757","lat":"31.23647","category":"71","category_name":"四川菜","address":"浦东新区栖霞路82号(崂山路南泉北路间)"},{"poiid":"B2094654DA69A7FD439C","title":"养和堂药业连锁中西药房NO.052","lon":"121.51602","lat":"31.23815","category":"162","category_name":"医院","address":"崂山路50"},{"poiid":"B2094654DA69A7FA4192","title":"上港小区","lon":"121.5146","lat":"31.238003","category":"47","category_name":"住宅区","address":"浦东大道136弄2-51号"},{"poiid":"B2094757D16BA7FE4793","title":"黄浦江边","lon":"121.51653933","lat":"31.239108522","category":"500","category_name":"未知分类","address":"上海钱仓站"},{"poiid":"B2094757D164AAF84299","title":"面道","lon":"121.515697738","lat":"31.238063467","category":"247","category_name":"餐饮美食","address":"上海南泉北路35号"},{"poiid":"B2094654DA69A7FD439D","title":"名剪城专业发型设计","lon":"121.51602","lat":"31.23812","category":"148","category_name":"美容美发店","address":"上海市浦东新区崂山路54号"},{"poiid":"B2094655D26BA2F44298","title":"栖霞路崂山路","lon":"121.51674","lat":"31.23631","category":"38","category_name":"公交车站","address":""},{"poiid":"B2094654DA69A7F84892","title":"东昌台球城","lon":"121.51593","lat":"31.23744","category":"171","category_name":"台球厅","address":"南泉北路150-7"},{"poiid":"B2094654DA69A7FE459C","title":"246深度造型","lon":"121.51723","lat":"31.23658","category":"148","category_name":"美容美发店","address":"浦东新区栖霞路85号(地铁2号线东昌路站2号出口)"},{"poiid":"B2094654DA69A0FD4792","title":"半岛鱼翅潮州酒楼","lon":"121.51827247863","lat":"31.24055145864","category":"72","category_name":"广东菜","address":"浦东新区浦东大道281号2楼(浦东大道荣成路)"},{"poiid":"B2094654DA69A7FC4598","title":"崂山新村","lon":"121.51923","lat":"31.238258","category":"47","category_name":"住宅区","address":"栖霞路190弄"},{"poiid":"B2094757D66BA6F8409E","title":"小四川鱼庄","lon":"121.5204","lat":"31.23341","category":"71","category_name":"四川菜","address":"浦东新区崂山东路310号(近乳山路)"},{"poiid":"B2094757D064A0F94199","title":"Chloe's","lon":"121.51385973","lat":"31.238796482","category":"94","category_name":"西餐厅","address":"浦东新区昌邑路31号(即墨路口)"},{"poiid":"B2094757D06FA7F44199","title":"光头烧烤吧(南泉北路店)","lon":"121.51594","lat":"31.23765","category":"68","category_name":"快餐厅","address":"浦东新区南泉北路47号(近东方医院)"},{"poiid":"B2094655D36CA6F44498","title":"东昌路地铁站","lon":"121.51688","lat":"31.23429","category":"36","category_name":"地铁站","address":"上海轨道交通二号线东昌路站"},{"poiid":"B2094757D069A7F4429B","title":"浦东新舞台","lon":"121.51503","lat":"31.23892","category":"179","category_name":"音乐厅","address":"浦东新区浦东大道143号(南泉北路浦东大道)"},{"poiid":"B209475CD564A7F84392","title":"上海滩浦东香格里拉店","lon":"121.50058","lat":"31.23634","category":"119","category_name":"商场","address":"浦东富成路33号香格里拉酒店内大堂层"},{"poiid":"B2094757D06FA1FE489C","title":"上海市房地产交易中心","lon":"121.515980363","lat":"31.2356323484","category":"46","category_name":"楼宇","address":"上海浦东新区南泉北路201号(栖霞路口)"},{"poiid":"B2094655D26DA7F84399","title":"房地大厦","lon":"121.51593","lat":"31.23556","category":"46","category_name":"楼宇","address":"昌平区回龙观镇国际信息产业基地高新二街"},{"poiid":"B2094757D068A1FA4999","title":"西安5号米皮","lon":"121.51563","lat":"31.23721","category":"68","category_name":"快餐厅","address":"浦东新区南泉北路51号-4(近招远路)"},{"poiid":"B2094750D665A4FA489D","title":"花ちゃんの台所","lon":"121.515","lat":"31.2359","category":"95","category_name":"日本料理","address":"浦东新区栖霞路41号(近南泉北路)"},{"poiid":"B2094757D068A6FD489F","title":"永华大厦","lon":"121.51416015","lat":"31.238700866","category":"46","category_name":"楼宇","address":"浦东大道138号"},{"poiid":"B2094654DA69A7FF4398","title":"华东师范大学附属东昌中学","lon":"121.51499","lat":"31.23516","category":"55","category_name":"中学","address":"浦东新区栖霞路34号(南泉北路)"},{"poiid":"B2094757D068A3F94192","title":"东北四季饺子王(浦东大道店)","lon":"121.51492","lat":"31.23906","category":"82","category_name":"东北菜","address":"上海浦东新区浦东大道143号甲(即墨路口)"},{"poiid":"B2094757D56CAAFB469F","title":"二子龙虾 东昌店","lon":"121.514945054","lat":"31.237452793","category":"68","category_name":"快餐厅","address":"浦东新区南泉北路51号(近招远路)"},{"poiid":"B2094757D068A5F8459B","title":"月亮生煎大王","lon":"121.51692","lat":"31.23806","category":"68","category_name":"快餐厅","address":"浦东新区崂山路80号101室(近浦东大道)"},{"poiid":"B2094757D16CA6F84393","title":"龙门鱼府","lon":"121.517858738","lat":"31.234588393","category":"86","category_name":"火锅店","address":"浦东新区崂山路300号(近乳山路)"},{"poiid":"B2094757D06FAAFF4693","title":"大壶春(浦东总店)","lon":"121.51408","lat":"31.23824","category":"68","category_name":"快餐厅","address":"浦东新区浦东大道136弄4-6号(近即墨路)"},{"poiid":"B2094757D164A2F9429C","title":"光头烧烤","lon":"121.51228","lat":"31.24018","category":"68","category_name":"快餐厅","address":"浦东新区崂山路47号(东昌电影院)"},{"poiid":"B2094757D068A1F8449F","title":"鲜得来排骨年糕 浦东店","lon":"121.513548054","lat":"31.237137793","category":"68","category_name":"快餐厅","address":"浦东新区即墨路180号(近招远路东方医院旁边)"},{"poiid":"B2094757D068A1FC429F","title":"东昌电影院","lon":"121.516061","lat":"31.237536","category":"178","category_name":"电影院","address":"南泉北路150"},{"poiid":"B2094757D065A2FD479B","title":"老姚烧烤","lon":"121.51579","lat":"31.23748","category":"68","category_name":"快餐厅","address":"浦东新区南泉北路51号(近招远路)"},{"poiid":"B2094757D06AA7F8429A","title":"德兴面馆(浦东店)","lon":"121.5153","lat":"31.2387","category":"68","category_name":"快餐厅","address":"浦东新区南泉北路1号(浦东大道口)"},{"poiid":"B2094654DA69A7FE459A","title":"崂山五村","lon":"121.51745","lat":"31.23745","category":"47","category_name":"住宅区","address":"崂山五村502-562号"},{"poiid":"B2094757D66DABFB479E","title":"名盛串城","lon":"121.515641738","lat":"31.2376644585","category":"96","category_name":"韩国料理","address":"浦东新区南泉北路53号(近浦东大道)"},{"poiid":"B2094654DA69A1F5439D","title":"申金大厦","lon":"121.517","lat":"31.2352","category":"46","category_name":"楼宇","address":"商城路297-305"},{"poiid":"B2094757D064A5F54393","title":"吉祥馄饨 栖霞店 Gll Wonton","lon":"121.51706","lat":"31.23627","category":"68","category_name":"快餐厅","address":"浦东新区栖霞路66号(近南泉北路)"},{"poiid":"B2094654DA69A7F8459B","title":"上海电视大学黄经贸分校","lon":"121.51627","lat":"31.23714","category":"52","category_name":"高等院校","address":"南泉北路168-170"},{"poiid":"B2094654DA69A7FD479B","title":"东昌中学东校","lon":"121.51871","lat":"31.23801","category":"55","category_name":"中学","address":"崂山路200"},{"poiid":"B2094655D264ABF94793","title":"富橙投资","lon":"121.51634","lat":"31.23925","category":"46","category_name":"楼宇","address":"浦东区浦东大道288号"},{"poiid":"B2094757D46EA2FE4099","title":"食食客客","lon":"121.51642","lat":"31.23625","category":"68","category_name":"快餐厅","address":"浦东新区栖霞路53号(近南泉北路)"},{"poiid":"B2094750D76CABFF429C","title":"长安客(招远路店)","lon":"121.515","lat":"31.2371","category":"68","category_name":"快餐厅","address":"浦东新区招远路19弄25号(近东方医院)"},{"poiid":"B2094654DA69A7FC439A","title":"京世国际发型美容连锁机构","lon":"121.519","lat":"31.237","category":"148","category_name":"美容美发店","address":"崂山东路"},{"poiid":"B2094654DA69A7F8499E","title":"星火日夜崂山店","lon":"121.5166","lat":"31.23764","category":"117","category_name":"便民商店/便利店","address":"崂山路143"},{"poiid":"B2094757D169A6FA409F","title":"千岩五谷煲仔饭","lon":"121.51551","lat":"31.23728","category":"68","category_name":"快餐厅","address":"浦东新区招远路48号(近东方医院)"},{"poiid":"B2094757D065A6FB4293","title":"东来福热气涮羊肉(南泉北路店)","lon":"121.5143","lat":"31.23661","category":"86","category_name":"火锅店","address":"浦东新区南泉北路(近招远路)"},{"poiid":"B2094757D569A2F8429D","title":"R&B珍奶会所(栖霞店)","lon":"121.51728163","lat":"31.23635878","category":"113","category_name":"冷饮店","address":"浦东新区栖霞路72号(近南泉北路)"},{"poiid":"B2094757D465A0F4489A","title":"溢香小苑湘菜馆","lon":"121.518042054","lat":"31.237157793","category":"77","category_name":"湖南菜","address":"浦东新区栖霞路99号(近崂山路)"},{"poiid":"B2094757D16DA3FE4092","title":"仟村馄饨","lon":"121.51579573","lat":"31.238097467","category":"247","category_name":"餐饮美食","address":"上海市浦东新区浦东南路"},{"poiid":"B2094654DA69A7F84598","title":"浦江职业技术培训学校","lon":"121.51627","lat":"31.23714","category":"54","category_name":"职业技术学校","address":"南泉北路168-170"},{"poiid":"B2094654DA69A7FB4092","title":"三和辣欢天川菜馆","lon":"121.51757","lat":"31.23647","category":"71","category_name":"四川菜","address":"浦东新区栖霞路82号(崂山路南泉北路间)"},{"poiid":"B2094654DA69A7FD439C","title":"养和堂药业连锁中西药房NO.052","lon":"121.51602","lat":"31.23815","category":"162","category_name":"医院","address":"崂山路50"},{"poiid":"B2094654DA69A7FA4192","title":"上港小区","lon":"121.5146","lat":"31.238003","category":"47","category_name":"住宅区","address":"浦东大道136弄2-51号"},{"poiid":"B2094757D16BA7FE4793","title":"黄浦江边","lon":"121.51653933","lat":"31.239108522","category":"500","category_name":"未知分类","address":"上海钱仓站"},{"poiid":"B2094757D164AAF84299","title":"面道","lon":"121.515697738","lat":"31.238063467","category":"247","category_name":"餐饮美食","address":"上海南泉北路35号"},{"poiid":"B2094654DA69A7FD439D","title":"名剪城专业发型设计","lon":"121.51602","lat":"31.23812","category":"148","category_name":"美容美发店","address":"上海市浦东新区崂山路54号"},{"poiid":"B2094655D26BA2F44298","title":"栖霞路崂山路","lon":"121.51674","lat":"31.23631","category":"38","category_name":"公交车站","address":""},{"poiid":"B2094654DA69A7F84892","title":"东昌台球城","lon":"121.51593","lat":"31.23744","category":"171","category_name":"台球厅","address":"南泉北路150-7"},{"poiid":"B2094654DA69A7FE459C","title":"246深度造型","lon":"121.51723","lat":"31.23658","category":"148","category_name":"美容美发店","address":"浦东新区栖霞路85号(地铁2号线东昌路站2号出口)"},{"poiid":"B2094654DA69A0FD4792","title":"半岛鱼翅潮州酒楼","lon":"121.51827247863","lat":"31.24055145864","category":"72","category_name":"广东菜","address":"浦东新区浦东大道281号2楼(浦东大道荣成路)"},{"poiid":"B2094654DA69A7FC4598","title":"崂山新村","lon":"121.51923","lat":"31.238258","category":"47","category_name":"住宅区","address":"栖霞路190弄"},{"poiid":"B2094757D66BA6F8409E","title":"小四川鱼庄","lon":"121.5204","lat":"31.23341","category":"71","category_name":"四川菜","address":"浦东新区崂山东路310号(近乳山路)"},{"poiid":"B2094757D064A0F94199","title":"Chloe's","lon":"121.51385973","lat":"31.238796482","category":"94","category_name":"西餐厅","address":"浦东新区昌邑路31号(即墨路口)"},{"poiid":"B2094757D06FA7F44199","title":"光头烧烤吧(南泉北路店)","lon":"121.51594","lat":"31.23765","category":"68","category_name":"快餐厅","address":"浦东新区南泉北路47号(近东方医院)"},{"poiid":"B2094655D36CA6F44498","title":"东昌路地铁站","lon":"121.51688","lat":"31.23429","category":"36","category_name":"地铁站","address":"上海轨道交通二号线东昌路站"},{"poiid":"B2094757D069A7F4429B","title":"浦东新舞台","lon":"121.51503","lat":"31.23892","category":"179","category_name":"音乐厅","address":"浦东新区浦东大道143号(南泉北路浦东大道)"},{"poiid":"B209475CD564A7F84392","title":"上海滩浦东香格里拉店","lon":"121.50058","lat":"31.23634","category":"119","category_name":"商场","address":"浦东富成路33号香格里拉酒店内大堂层"},{"poiid":"B2094757D06FA1FE489C","title":"上海市房地产交易中心","lon":"121.515980363","lat":"31.2356323484","category":"46","category_name":"楼宇","address":"上海浦东新区南泉北路201号(栖霞路口)"},{"poiid":"B2094655D26DA7F84399","title":"房地大厦","lon":"121.51593","lat":"31.23556","category":"46","category_name":"楼宇","address":"昌平区回龙观镇国际信息产业基地高新二街"},{"poiid":"B2094757D068A1FA4999","title":"西安5号米皮","lon":"121.51563","lat":"31.23721","category":"68","category_name":"快餐厅","address":"浦东新区南泉北路51号-4(近招远路)"},{"poiid":"B2094750D665A4FA489D","title":"花ちゃんの台所","lon":"121.515","lat":"31.2359","category":"95","category_name":"日本料理","address":"浦东新区栖霞路41号(近南泉北路)"},{"poiid":"B2094757D068A6FD489F","title":"永华大厦","lon":"121.51416015","lat":"31.238700866","category":"46","category_name":"楼宇","address":"浦东大道138号"},{"poiid":"B2094654DA69A7FF4398","title":"华东师范大学附属东昌中学","lon":"121.51499","lat":"31.23516","category":"55","category_name":"中学","address":"浦东新区栖霞路34号(南泉北路)"},{"poiid":"B2094757D068A3F94192","title":"东北四季饺子王(浦东大道店)","lon":"121.51492","lat":"31.23906","category":"82","category_name":"东北菜","address":"上海浦东新区浦东大道143号甲(即墨路口)"},{"poiid":"B2094757D56CAAFB469F","title":"二子龙虾 东昌店","lon":"121.514945054","lat":"31.237452793","category":"68","category_name":"快餐厅","address":"浦东新区南泉北路51号(近招远路)"},{"poiid":"B2094757D068A5F8459B","title":"月亮生煎大王","lon":"121.51692","lat":"31.23806","category":"68","category_name":"快餐厅","address":"浦东新区崂山路80号101室(近浦东大道)"},{"poiid":"B2094757D16CA6F84393","title":"龙门鱼府","lon":"121.517858738","lat":"31.234588393","category":"86","category_name":"火锅店","address":"浦东新区崂山路300号(近乳山路)"},{"poiid":"B2094757D06FAAFF4693","title":"大壶春(浦东总店)","lon":"121.51408","lat":"31.23824","category":"68","category_name":"快餐厅","address":"浦东新区浦东大道136弄4-6号(近即墨路)"},{"poiid":"B2094757D164A2F9429C","title":"光头烧烤","lon":"121.51228","lat":"31.24018","category":"68","category_name":"快餐厅","address":"浦东新区崂山路47号(东昌电影院)"},{"poiid":"B2094757D068A1F8449F","title":"鲜得来排骨年糕 浦东店","lon":"121.513548054","lat":"31.237137793","category":"68","category_name":"快餐厅","address":"浦东新区即墨路180号(近招远路东方医院旁边)"},{"poiid":"B2094757D068A1FC429F","title":"东昌电影院","lon":"121.516061","lat":"31.237536","category":"178","category_name":"电影院","address":"南泉北路150"},{"poiid":"B2094757D065A2FD479B","title":"老姚烧烤","lon":"121.51579","lat":"31.23748","category":"68","category_name":"快餐厅","address":"浦东新区南泉北路51号(近招远路)"},{"poiid":"B2094757D06AA7F8429A","title":"德兴面馆(浦东店)","lon":"121.5153","lat":"31.2387","category":"68","category_name":"快餐厅","address":"浦东新区南泉北路1号(浦东大道口)"},{"poiid":"B2094654DA69A7FE459A","title":"崂山五村","lon":"121.51745","lat":"31.23745","category":"47","category_name":"住宅区","address":"崂山五村502-562号"},{"poiid":"B2094757D66DABFB479E","title":"名盛串城","lon":"121.515641738","lat":"31.2376644585","category":"96","category_name":"韩国料理","address":"浦东新区南泉北路53号(近浦东大道)"},{"poiid":"B2094654DA69A1F5439D","title":"申金大厦","lon":"121.517","lat":"31.2352","category":"46","category_name":"楼宇","address":"商城路297-305"},{"poiid":"B2094757D064A5F54393","title":"吉祥馄饨 栖霞店 Gll Wonton","lon":"121.51706","lat":"31.23627","category":"68","category_name":"快餐厅","address":"浦东新区栖霞路66号(近南泉北路)"},{"poiid":"B2094654DA69A7F8459B","title":"上海电视大学黄经贸分校","lon":"121.51627","lat":"31.23714","category":"52","category_name":"高等院校","address":"南泉北路168-170"},{"poiid":"B2094654DA69A7FD479B","title":"东昌中学东校","lon":"121.51871","lat":"31.23801","category":"55","category_name":"中学","address":"崂山路200"},{"poiid":"B2094655D264ABF94793","title":"富橙投资","lon":"121.51634","lat":"31.23925","category":"46","category_name":"楼宇","address":"浦东区浦东大道288号"},{"poiid":"B2094757D46EA2FE4099","title":"食食客客","lon":"121.51642","lat":"31.23625","category":"68","category_name":"快餐厅","address":"浦东新区栖霞路53号(近南泉北路)"},{"poiid":"B2094750D76CABFF429C","title":"长安客(招远路店)","lon":"121.515","lat":"31.2371","category":"68","category_name":"快餐厅","address":"浦东新区招远路19弄25号(近东方医院)"},{"poiid":"B2094654DA69A7FC439A","title":"京世国际发型美容连锁机构","lon":"121.519","lat":"31.237","category":"148","category_name":"美容美发店","address":"崂山东路"},{"poiid":"B2094654DA69A7F8499E","title":"星火日夜崂山店","lon":"121.5166","lat":"31.23764","category":"117","category_name":"便民商店/便利店","address":"崂山路143"},{"poiid":"B2094757D169A6FA409F","title":"千岩五谷煲仔饭","lon":"121.51551","lat":"31.23728","category":"68","category_name":"快餐厅","address":"浦东新区招远路48号(近东方医院)"},{"poiid":"B2094757D065A6FB4293","title":"东来福热气涮羊肉(南泉北路店)","lon":"121.5143","lat":"31.23661","category":"86","category_name":"火锅店","address":"浦东新区南泉北路(近招远路)"},{"poiid":"B2094757D569A2F8429D","title":"R&B珍奶会所(栖霞店)","lon":"121.51728163","lat":"31.23635878","category":"113","category_name":"冷饮店","address":"浦东新区栖霞路72号(近南泉北路)"},{"poiid":"B2094757D465A0F4489A","title":"溢香小苑湘菜馆","lon":"121.518042054","lat":"31.237157793","category":"77","category_name":"湖南菜","address":"浦东新区栖霞路99号(近崂山路)"},{"poiid":"B2094757D16DA3FE4092","title":"仟村馄饨","lon":"121.51579573","lat":"31.238097467","category":"247","category_name":"餐饮美食","address":"上海市浦东新区浦东南路"},{"poiid":"B2094654DA69A7F84598","title":"浦江职业技术培训学校","lon":"121.51627","lat":"31.23714","category":"54","category_name":"职业技术学校","address":"南泉北路168-170"},{"poiid":"B2094654DA69A7FB4092","title":"三和辣欢天川菜馆","lon":"121.51757","lat":"31.23647","category":"71","category_name":"四川菜","address":"浦东新区栖霞路82号(崂山路南泉北路间)"},{"poiid":"B2094654DA69A7FD439C","title":"养和堂药业连锁中西药房NO.052","lon":"121.51602","lat":"31.23815","category":"162","category_name":"医院","address":"崂山路50"},{"poiid":"B2094654DA69A7FA4192","title":"上港小区","lon":"121.5146","lat":"31.238003","category":"47","category_name":"住宅区","address":"浦东大道136弄2-51号"},{"poiid":"B2094757D16BA7FE4793","title":"黄浦江边","lon":"121.51653933","lat":"31.239108522","category":"500","category_name":"未知分类","address":"上海钱仓站"},{"poiid":"B2094757D164AAF84299","title":"面道","lon":"121.515697738","lat":"31.238063467","category":"247","category_name":"餐饮美食","address":"上海南泉北路35号"},{"poiid":"B2094654DA69A7FD439D","title":"名剪城专业发型设计","lon":"121.51602","lat":"31.23812","category":"148","category_name":"美容美发店","address":"上海市浦东新区崂山路54号"},{"poiid":"B2094655D26BA2F44298","title":"栖霞路崂山路","lon":"121.51674","lat":"31.23631","category":"38","category_name":"公交车站","address":""},{"poiid":"B2094654DA69A7F84892","title":"东昌台球城","lon":"121.51593","lat":"31.23744","category":"171","category_name":"台球厅","address":"南泉北路150-7"},{"poiid":"B2094654DA69A7FE459C","title":"246深度造型","lon":"121.51723","lat":"31.23658","category":"148","category_name":"美容美发店","address":"浦东新区栖霞路85号(地铁2号线东昌路站2号出口)"},{"poiid":"B2094654DA69A0FD4792","title":"半岛鱼翅潮州酒楼","lon":"121.51827247863","lat":"31.24055145864","category":"72","category_name":"广东菜","address":"浦东新区浦东大道281号2楼(浦东大道荣成路)"},{"poiid":"B2094654DA69A7FC4598","title":"崂山新村","lon":"121.51923","lat":"31.238258","category":"47","category_name":"住宅区","address":"栖霞路190弄"},{"poiid":"B2094757D66BA6F8409E","title":"小四川鱼庄","lon":"121.5204","lat":"31.23341","category":"71","category_name":"四川菜","address":"浦东新区崂山东路310号(近乳山路)"},{"poiid":"B2094757D064A0F94199","title":"Chloe's","lon":"121.51385973","lat":"31.238796482","category":"94","category_name":"西餐厅","address":"浦东新区昌邑路31号(即墨路口)"},{"poiid":"B2094757D06FA7F44199","title":"光头烧烤吧(南泉北路店)","lon":"121.51594","lat":"31.23765","category":"68","category_name":"快餐厅","address":"浦东新区南泉北路47号(近东方医院)"},{"poiid":"B2094655D36CA6F44498","title":"东昌路地铁站","lon":"121.51688","lat":"31.23429","category":"36","category_name":"地铁站","address":"上海轨道交通二号线东昌路站"},{"poiid":"B2094757D069A7F4429B","title":"浦东新舞台","lon":"121.51503","lat":"31.23892","category":"179","category_name":"音乐厅","address":"浦东新区浦东大道143号(南泉北路浦东大道)"},{"poiid":"B209475CD564A7F84392","title":"上海滩浦东香格里拉店","lon":"121.50058","lat":"31.23634","category":"119","category_name":"商场","address":"浦东富成路33号香格里拉酒店内大堂层"},{"poiid":"B2094757D06FA1FE489C","title":"上海市房地产交易中心","lon":"121.515980363","lat":"31.2356323484","category":"46","category_name":"楼宇","address":"上海浦东新区南泉北路201号(栖霞路口)"},{"poiid":"B2094655D26DA7F84399","title":"房地大厦","lon":"121.51593","lat":"31.23556","category":"46","category_name":"楼宇","address":"昌平区回龙观镇国际信息产业基地高新二街"},{"poiid":"B2094757D068A1FA4999","title":"西安5号米皮","lon":"121.51563","lat":"31.23721","category":"68","category_name":"快餐厅","address":"浦东新区南泉北路51号-4(近招远路)"},{"poiid":"B2094750D665A4FA489D","title":"花ちゃんの台所","lon":"121.515","lat":"31.2359","category":"95","category_name":"日本料理","address":"浦东新区栖霞路41号(近南泉北路)"},{"poiid":"B2094757D068A6FD489F","title":"永华大厦","lon":"121.51416015","lat":"31.238700866","category":"46","category_name":"楼宇","address":"浦东大道138号"},{"poiid":"B2094654DA69A7FF4398","title":"华东师范大学附属东昌中学","lon":"121.51499","lat":"31.23516","category":"55","category_name":"中学","address":"浦东新区栖霞路34号(南泉北路)"},{"poiid":"B2094757D068A3F94192","title":"东北四季饺子王(浦东大道店)","lon":"121.51492","lat":"31.23906","category":"82","category_name":"东北菜","address":"上海浦东新区浦东大道143号甲(即墨路口)"},{"poiid":"B2094757D56CAAFB469F","title":"二子龙虾 东昌店","lon":"121.514945054","lat":"31.237452793","category":"68","category_name":"快餐厅","address":"浦东新区南泉北路51号(近招远路)"},{"poiid":"B2094757D068A5F8459B","title":"月亮生煎大王","lon":"121.51692","lat":"31.23806","category":"68","category_name":"快餐厅","address":"浦东新区崂山路80号101室(近浦东大道)"},{"poiid":"B2094757D16CA6F84393","title":"龙门鱼府","lon":"121.517858738","lat":"31.234588393","category":"86","category_name":"火锅店","address":"浦东新区崂山路300号(近乳山路)"},{"poiid":"B2094757D06FAAFF4693","title":"大壶春(浦东总店)","lon":"121.51408","lat":"31.23824","category":"68","category_name":"快餐厅","address":"浦东新区浦东大道136弄4-6号(近即墨路)"},{"poiid":"B2094757D164A2F9429C","title":"光头烧烤","lon":"121.51228","lat":"31.24018","category":"68","category_name":"快餐厅","address":"浦东新区崂山路47号(东昌电影院)"},{"poiid":"B2094757D068A1F8449F","title":"鲜得来排骨年糕 浦东店","lon":"121.513548054","lat":"31.237137793","category":"68","category_name":"快餐厅","address":"浦东新区即墨路180号(近招远路东方医院旁边)"},{"poiid":"B2094757D068A1FC429F","title":"东昌电影院","lon":"121.516061","lat":"31.237536","category":"178","category_name":"电影院","address":"南泉北路150"},{"poiid":"B2094757D065A2FD479B","title":"老姚烧烤","lon":"121.51579","lat":"31.23748","category":"68","category_name":"快餐厅","address":"浦东新区南泉北路51号(近招远路)"},{"poiid":"B2094757D06AA7F8429A","title":"德兴面馆(浦东店)","lon":"121.5153","lat":"31.2387","category":"68","category_name":"快餐厅","address":"浦东新区南泉北路1号(浦东大道口)"},{"poiid":"B2094654DA69A7FE459A","title":"崂山五村","lon":"121.51745","lat":"31.23745","category":"47","category_name":"住宅区","address":"崂山五村502-562号"},{"poiid":"B2094757D66DABFB479E","title":"名盛串城","lon":"121.515641738","lat":"31.2376644585","category":"96","category_name":"韩国料理","address":"浦东新区南泉北路53号(近浦东大道)"},{"poiid":"B2094654DA69A1F5439D","title":"申金大厦","lon":"121.517","lat":"31.2352","category":"46","category_name":"楼宇","address":"商城路297-305"},{"poiid":"B2094757D064A5F54393","title":"吉祥馄饨 栖霞店 Gll Wonton","lon":"121.51706","lat":"31.23627","category":"68","category_name":"快餐厅","address":"浦东新区栖霞路66号(近南泉北路)"},{"poiid":"B2094654DA69A7F8459B","title":"上海电视大学黄经贸分校","lon":"121.51627","lat":"31.23714","category":"52","category_name":"高等院校","address":"南泉北路168-170"},{"poiid":"B2094654DA69A7FD479B","title":"东昌中学东校","lon":"121.51871","lat":"31.23801","category":"55","category_name":"中学","address":"崂山路200"},{"poiid":"B2094655D264ABF94793","title":"富橙投资","lon":"121.51634","lat":"31.23925","category":"46","category_name":"楼宇","address":"浦东区浦东大道288号"},{"poiid":"B2094757D46EA2FE4099","title":"食食客客","lon":"121.51642","lat":"31.23625","category":"68","category_name":"快餐厅","address":"浦东新区栖霞路53号(近南泉北路)"},{"poiid":"B2094750D76CABFF429C","title":"长安客(招远路店)","lon":"121.515","lat":"31.2371","category":"68","category_name":"快餐厅","address":"浦东新区招远路19弄25号(近东方医院)"},{"poiid":"B2094654DA69A7FC439A","title":"京世国际发型美容连锁机构","lon":"121.519","lat":"31.237","category":"148","category_name":"美容美发店","address":"崂山东路"},{"poiid":"B2094654DA69A7F8499E","title":"星火日夜崂山店","lon":"121.5166","lat":"31.23764","category":"117","category_name":"便民商店/便利店","address":"崂山路143"},{"poiid":"B2094757D169A6FA409F","title":"千岩五谷煲仔饭","lon":"121.51551","lat":"31.23728","category":"68","category_name":"快餐厅","address":"浦东新区招远路48号(近东方医院)"},{"poiid":"B2094757D065A6FB4293","title":"东来福热气涮羊肉(南泉北路店)","lon":"121.5143","lat":"31.23661","category":"86","category_name":"火锅店","address":"浦东新区南泉北路(近招远路)"},{"poiid":"B2094757D569A2F8429D","title":"R&B珍奶会所(栖霞店)","lon":"121.51728163","lat":"31.23635878","category":"113","category_name":"冷饮店","address":"浦东新区栖霞路72号(近南泉北路)"},{"poiid":"B2094757D465A0F4489A","title":"溢香小苑湘菜馆","lon":"121.518042054","lat":"31.237157793","category":"77","category_name":"湖南菜","address":"浦东新区栖霞路99号(近崂山路)"},{"poiid":"B2094757D16DA3FE4092","title":"仟村馄饨","lon":"121.51579573","lat":"31.238097467","category":"247","category_name":"餐饮美食","address":"上海市浦东新区浦东南路"},{"poiid":"B2094654DA69A7F84598","title":"浦江职业技术培训学校","lon":"121.51627","lat":"31.23714","category":"54","category_name":"职业技术学校","address":"南泉北路168-170"},{"poiid":"B2094654DA69A7FB4092","title":"三和辣欢天川菜馆","lon":"121.51757","lat":"31.23647","category":"71","category_name":"四川菜","address":"浦东新区栖霞路82号(崂山路南泉北路间)"},{"poiid":"B2094654DA69A7FD439C","title":"养和堂药业连锁中西药房NO.052","lon":"121.51602","lat":"31.23815","category":"162","category_name":"医院","address":"崂山路50"},{"poiid":"B2094654DA69A7FA4192","title":"上港小区","lon":"121.5146","lat":"31.238003","category":"47","category_name":"住宅区","address":"浦东大道136弄2-51号"},{"poiid":"B2094757D16BA7FE4793","title":"黄浦江边","lon":"121.51653933","lat":"31.239108522","category":"500","category_name":"未知分类","address":"上海钱仓站"},{"poiid":"B2094757D164AAF84299","title":"面道","lon":"121.515697738","lat":"31.238063467","category":"247","category_name":"餐饮美食","address":"上海南泉北路35号"},{"poiid":"B2094654DA69A7FD439D","title":"名剪城专业发型设计","lon":"121.51602","lat":"31.23812","category":"148","category_name":"美容美发店","address":"上海市浦东新区崂山路54号"},{"poiid":"B2094655D26BA2F44298","title":"栖霞路崂山路","lon":"121.51674","lat":"31.23631","category":"38","category_name":"公交车站","address":""},{"poiid":"B2094654DA69A7F84892","title":"东昌台球城","lon":"121.51593","lat":"31.23744","category":"171","category_name":"台球厅","address":"南泉北路150-7"},{"poiid":"B2094654DA69A7FE459C","title":"246深度造型","lon":"121.51723","lat":"31.23658","category":"148","category_name":"美容美发店","address":"浦东新区栖霞路85号(地铁2号线东昌路站2号出口)"},{"poiid":"B2094654DA69A0FD4792","title":"半岛鱼翅潮州酒楼","lon":"121.51827247863","lat":"31.24055145864","category":"72","category_name":"广东菜","address":"浦东新区浦东大道281号2楼(浦东大道荣成路)"},{"poiid":"B2094654DA69A7FC4598","title":"崂山新村","lon":"121.51923","lat":"31.238258","category":"47","category_name":"住宅区","address":"栖霞路190弄"},{"poiid":"B2094757D66BA6F8409E","title":"小四川鱼庄","lon":"121.5204","lat":"31.23341","category":"71","category_name":"四川菜","address":"浦东新区崂山东路310号(近乳山路)"},{"poiid":"B2094757D064A0F94199","title":"Chloe's","lon":"121.51385973","lat":"31.238796482","category":"94","category_name":"西餐厅","address":"浦东新区昌邑路31号(即墨路口)"}]