[{"poiid":"B2094757D06FA3FC449C","title":"上海商城","lon":"121.459","lat":"31.2331","category":"119","category_name":"商场","address":"上海静安区南京西路1376号(近西康路)"},{"poiid":"B2094655D26CAAF94198","title":"SOHO东海广场","lon":"121.455285","lat":"31.23305","category":"46","category_name":"楼宇","address":"上海市浦东新区金桥路983号"},{"poiid":"B2094757D56EA3F4499D","title":"La Pasta 义面屋","lon":"121.457576","lat":"31.233518","category":"247","category_name":"餐饮美食","address":"静安区南京西路819号中创大厦5楼"},{"poiid":"B2094753D76FAAFA449C","title":"上海滩国泰旗舰店","lon":"121.466011","lat":"31.216125","category":"249","category_name":"购物服务","address":"淮海中路868号"},{"poiid":"B209475CD564A7F84292","title":"上海滩新天地店","lon":"121.47463","lat":"31.22164","category":"119","category_name":"商场","address":"\"太仓路181弄新天地北里15号\r\n\""},{"poiid":"B209475CD564A7F8439E","title":"上海滩中信泰富店","lon":"121.45602","lat":"31.22851","category":"119","category_name":"商场","address":"\"南京西路1168号中信泰富广场，店铺号221.\r\n\""},{"poiid":"B2094757D06FA3FE4799","title":"星巴克(远中风华店)","lon":"121.455101","lat":"31.234818","category":"65","category_name":"咖啡厅","address":"静安区昌化路68号(近武定路)"},{"poiid":"B2094750D365A0FA4698","title":"倍乐创意韩国料理","lon":"121.457778","lat":"31.234186","category":"96","category_name":"韩国料理","address":"静安区新闸路848-850号(近石门二路)"},{"poiid":"B2094757D16CA0FE469D","title":"海底捞","lon":"121.456670738","lat":"31.2332153637","category":"500","category_name":"未知分类","address":"上海市静安区江宁路"},{"poiid":"B2094757D069A0F54492","title":"上海市政协","lon":"121.458072","lat":"31.231919","category":"68","category_name":"快餐厅","address":"静安区泰兴路306号4楼(泰兴路吴江路)"},{"poiid":"B2094757D06FA7FB409C","title":"国际丽都城","lon":"121.459495","lat":"31.233372","category":"47","category_name":"住宅区","address":"上海静安区北京西路758弄(近石门二路)"},{"poiid":"B2094757D06BA2FF429F","title":"市政协文化俱乐部","lon":"121.457643985","lat":"31.2322390652","category":"46","category_name":"楼宇","address":"上海静安区泰兴路306号"},{"poiid":"B2094654DA6CA5FA479B","title":"MOB(新闸路店)","lon":"121.45814","lat":"31.23372","category":"221","category_name":"健身中心","address":"静安区新闸路945号国际丽都城群楼3楼(近泰兴路)"},{"poiid":"B2094757D06FA2FE449D","title":"潮汕砂锅粥馆(静安店)","lon":"121.45992","lat":"31.23502","category":"72","category_name":"广东菜","address":"静安区新闸路868号(近石门二路)"},{"poiid":"B2094757D06FA6F4439A","title":"国旅大厦","lon":"121.45750893637","lat":"31.235029833226","category":"46","category_name":"楼宇","address":"上海市四川北路1851号"},{"poiid":"B2094757D06FA6FE489C","title":"北泰电信大楼","lon":"121.459558","lat":"31.231557","category":"500","category_name":"未知分类","address":"上海北京西路819号"},{"poiid":"B2094750DB65AAFF4899","title":"Mr.pancake house","lon":"121.455604","lat":"31.231794","category":"247","category_name":"餐饮美食","address":"静安区武定路479号(近陕西北路)"},{"poiid":"B2094655D36CA5F54093","title":"北京西路泰兴路","lon":"121.45873","lat":"31.23168","category":"38","category_name":"公交车站","address":"上海市静安区昌平路"},{"poiid":"B2094757D06FA4F9469F","title":"信达大厦","lon":"121.455","lat":"31.2339","category":"46","category_name":"楼宇","address":"上海北京西路1399号"},{"poiid":"B2094757D064A3FE4192","title":"九安广场","lon":"121.457","lat":"31.2328","category":"500","category_name":"未知分类","address":"上海市平凉路1398号"},{"poiid":"B2094654DA6CA5FA489B","title":"弘记港式茶餐厅 新闸路店","lon":"121.45998989478","lat":"31.235576570521","category":"72","category_name":"广东菜","address":"静安区新闸路852号(近石门二路)"},{"poiid":"B2094757D56CA4FA429F","title":"星巴克 鸿翔店 Starbucks Cafe","lon":"121.46081642562","lat":"31.230413708613","category":"247","category_name":"餐饮美食","address":"南京西路869号鸿翔百货1楼近石门二路"},{"poiid":"B2094654DA6CA5FA4699","title":"康骏会馆(泰兴路)","lon":"121.45717","lat":"31.23326","category":"149","category_name":"洗浴推拿场所","address":"静安区泰兴路407号1楼(近新闸路)"},{"poiid":"B2094752D66FABF5419D","title":"花之舞","lon":"121.456278","lat":"31.232221","category":"247","category_name":"餐饮美食","address":"南京西路中创大厦"},{"poiid":"B2094753D76AA1F9499E","title":"CORNER,WINE&COFFEE","lon":"121.45756","lat":"31.23405","category":"247","category_name":"餐饮美食","address":"上海市静安区泰兴路428号(近新闸路)"},{"poiid":"B2094757D06AA5FA4992","title":"babyface 儿童摄影","lon":"121.45796966","lat":"31.23392868","category":"500","category_name":"未知分类","address":"上海新闸路泰兴路"},{"poiid":"B2094654DA6CA5FB429B","title":"克莉丝汀(泰兴路)","lon":"121.45748","lat":"31.23405","category":"112","category_name":"糕饼店","address":"静安区泰兴路430号(新闸路口)"},{"poiid":"B2094750D268A2FD4092","title":"古丽仙西域餐厅","lon":"121.458595","lat":"31.234464","category":"247","category_name":"餐饮美食","address":"南京西路818广场"},{"poiid":"B2094757D16BA4FF4492","title":"潮汕沙锅粥馆","lon":"121.458894","lat":"31.2346","category":"247","category_name":"餐饮美食","address":"上海新闸路868号"},{"poiid":"B2094655D36CA1FD4599","title":"石门二路","lon":"121.45947","lat":"31.23472","category":"38","category_name":"公交车站","address":""},{"poiid":"B209475DDB6BABF94698","title":"老张牛肉面","lon":"121.456962","lat":"31.233003","category":"247","category_name":"餐饮美食","address":"上海市 上海市江宁路99号"},{"poiid":"B2094654DB6BA5FD429A","title":"茂盛商务中心(新闸路)","lon":"121.456","lat":"31.2332","category":"46","category_name":"楼宇","address":"新闸路1051号"},{"poiid":"B2094757D66CA3F54693","title":"凯撒国际会所","lon":"121.456417738","lat":"31.2346433941","category":"500","category_name":"未知分类","address":"上海市静安区新闸路石门二路"},{"poiid":"B2094757D56CA1FB429D","title":"汤谱瓦罐煨汤","lon":"121.45697351958","lat":"31.234154528381","category":"247","category_name":"餐饮美食","address":"静安区石门二路19号(近南京西路)"},{"poiid":"B2094654DB69AAFA4699","title":"市政协文化俱乐部餐厅","lon":"121.457649054","lat":"31.231717793","category":"76","category_name":"上海菜","address":"静安区泰兴路306号2楼(近北京西路)"},{"poiid":"B2094757D06BAAFD4198","title":"北京西路泰兴路公交站","lon":"121.457263","lat":"31.232901","category":"38","category_name":"公交车站","address":"上海静安区北京西路(近泰兴路)"},{"poiid":"B209475CD669A6FC419A","title":"肥仔文猪骨煲","lon":"121.457229","lat":"31.23303","category":"247","category_name":"餐饮美食","address":"上海市 上海市静安区南汇路77路"},{"poiid":"B2094654DA6CA5FB419B","title":"雪茄客","lon":"121.45784","lat":"31.23401","category":"117","category_name":"便民商店/便利店","address":"静安区新闸路912号(近泰兴路)"},{"poiid":"B2094757D06FABF94299","title":"丽都太平洋全套房酒店","lon":"121.459948","lat":"31.234771","category":"217","category_name":"旅馆招待所","address":"上海市静安区新闸路831号"},{"poiid":"B2094655D26CAAF9459A","title":"中华新邨(东门)","lon":"121.45729","lat":"31.23399","category":"47","category_name":"住宅区","address":"泰兴路445弄2-48号"},{"poiid":"B2094750D76DABFE489B","title":"蜀巷","lon":"121.46","lat":"31.2351","category":"71","category_name":"四川菜","address":"静安区新闸路854号(近石门二路)"},{"poiid":"B2094752D56AA6FB499F","title":"818广场 外婆家","lon":"121.458862","lat":"31.23434","category":"247","category_name":"餐饮美食","address":null},{"poiid":"B2094757D06AA2FA479B","title":"翁龄旺山珍","lon":"121.45724","lat":"31.2354","category":"76","category_name":"上海菜","address":"静安区泰兴路528号(近武定路)"},{"poiid":"B2094655D265A1FA439A","title":"鲜乐园水果大卖场","lon":"121.4575","lat":"31.23305","category":"117","category_name":"便民商店/便利店","address":"泰兴路396"},{"poiid":"B2094750D364ABFA439B","title":"casal卡赛欧","lon":"121.45759332679","lat":"31.23375250931","category":"643","category_name":"食品饮料类公司","address":"泰兴路428号"},{"poiid":"B2094753D66DA5F54093","title":"星巴克汇银大厦店","lon":"121.457849","lat":"31.23313","category":"500","category_name":"未知分类","address":"上海市 南京西路762号一楼d座"},{"poiid":"B209475CD668A5F54293","title":"九久日本料理","lon":"121.45755","lat":"31.232704","category":"500","category_name":"未知分类","address":"上海市 江宁路428号静安体育中心一楼"},{"poiid":"B2094655D26DA3FC469C","title":"远中风华-城宝","lon":"121.45602","lat":"31.23388","category":"47","category_name":"住宅区","address":"新闸路1068弄1-6号"},{"poiid":"B2094752D065ABFA4492","title":"丝芙兰旗舰店","lon":"121.45654296875","lat":"31.23349761962891","category":"249","category_name":"购物服务","address":"南京西路茂名路"},{"poiid":"B2094750D26CA3FC419A","title":"创益家","lon":"121.4578684981338","lat":"31.23414667774911","category":"252","category_name":"楼宇机构","address":"北京西路605弄王家沙花苑22号"},{"poiid":"B2094757D06FA3FC449C","title":"上海商城","lon":"121.459","lat":"31.2331","category":"119","category_name":"商场","address":"上海静安区南京西路1376号(近西康路)"},{"poiid":"B2094655D26CAAF94198","title":"SOHO东海广场","lon":"121.455285","lat":"31.23305","category":"46","category_name":"楼宇","address":"上海市浦东新区金桥路983号"},{"poiid":"B2094757D56EA3F4499D","title":"La Pasta 义面屋","lon":"121.457576","lat":"31.233518","category":"247","category_name":"餐饮美食","address":"静安区南京西路819号中创大厦5楼"},{"poiid":"B2094753D76FAAFA449C","title":"上海滩国泰旗舰店","lon":"121.466011","lat":"31.216125","category":"249","category_name":"购物服务","address":"淮海中路868号"},{"poiid":"B209475CD564A7F84292","title":"上海滩新天地店","lon":"121.47463","lat":"31.22164","category":"119","category_name":"商场","address":"\"太仓路181弄新天地北里15号\r\n\""},{"poiid":"B209475CD564A7F8439E","title":"上海滩中信泰富店","lon":"121.45602","lat":"31.22851","category":"119","category_name":"商场","address":"\"南京西路1168号中信泰富广场，店铺号221.\r\n\""},{"poiid":"B2094757D06FA3FE4799","title":"星巴克(远中风华店)","lon":"121.455101","lat":"31.234818","category":"65","category_name":"咖啡厅","address":"静安区昌化路68号(近武定路)"},{"poiid":"B2094750D365A0FA4698","title":"倍乐创意韩国料理","lon":"121.457778","lat":"31.234186","category":"96","category_name":"韩国料理","address":"静安区新闸路848-850号(近石门二路)"},{"poiid":"B2094757D16CA0FE469D","title":"海底捞","lon":"121.456670738","lat":"31.2332153637","category":"500","category_name":"未知分类","address":"上海市静安区江宁路"},{"poiid":"B2094757D069A0F54492","title":"上海市政协","lon":"121.458072","lat":"31.231919","category":"68","category_name":"快餐厅","address":"静安区泰兴路306号4楼(泰兴路吴江路)"},{"poiid":"B2094757D06FA7FB409C","title":"国际丽都城","lon":"121.459495","lat":"31.233372","category":"47","category_name":"住宅区","address":"上海静安区北京西路758弄(近石门二路)"},{"poiid":"B2094757D06BA2FF429F","title":"市政协文化俱乐部","lon":"121.457643985","lat":"31.2322390652","category":"46","category_name":"楼宇","address":"上海静安区泰兴路306号"},{"poiid":"B2094654DA6CA5FA479B","title":"MOB(新闸路店)","lon":"121.45814","lat":"31.23372","category":"221","category_name":"健身中心","address":"静安区新闸路945号国际丽都城群楼3楼(近泰兴路)"},{"poiid":"B2094757D06FA2FE449D","title":"潮汕砂锅粥馆(静安店)","lon":"121.45992","lat":"31.23502","category":"72","category_name":"广东菜","address":"静安区新闸路868号(近石门二路)"},{"poiid":"B2094757D06FA6F4439A","title":"国旅大厦","lon":"121.45750893637","lat":"31.235029833226","category":"46","category_name":"楼宇","address":"上海市四川北路1851号"},{"poiid":"B2094757D06FA6FE489C","title":"北泰电信大楼","lon":"121.459558","lat":"31.231557","category":"500","category_name":"未知分类","address":"上海北京西路819号"},{"poiid":"B2094750DB65AAFF4899","title":"Mr.pancake house","lon":"121.455604","lat":"31.231794","category":"247","category_name":"餐饮美食","address":"静安区武定路479号(近陕西北路)"},{"poiid":"B2094655D36CA5F54093","title":"北京西路泰兴路","lon":"121.45873","lat":"31.23168","category":"38","category_name":"公交车站","address":"上海市静安区昌平路"},{"poiid":"B2094757D06FA4F9469F","title":"信达大厦","lon":"121.455","lat":"31.2339","category":"46","category_name":"楼宇","address":"上海北京西路1399号"},{"poiid":"B2094757D064A3FE4192","title":"九安广场","lon":"121.457","lat":"31.2328","category":"500","category_name":"未知分类","address":"上海市平凉路1398号"},{"poiid":"B2094654DA6CA5FA489B","title":"弘记港式茶餐厅 新闸路店","lon":"121.45998989478","lat":"31.235576570521","category":"72","category_name":"广东菜","address":"静安区新闸路852号(近石门二路)"},{"poiid":"B2094757D56CA4FA429F","title":"星巴克 鸿翔店 Starbucks Cafe","lon":"121.46081642562","lat":"31.230413708613","category":"247","category_name":"餐饮美食","address":"南京西路869号鸿翔百货1楼近石门二路"},{"poiid":"B2094654DA6CA5FA4699","title":"康骏会馆(泰兴路)","lon":"121.45717","lat":"31.23326","category":"149","category_name":"洗浴推拿场所","address":"静安区泰兴路407号1楼(近新闸路)"},{"poiid":"B2094752D66FABF5419D","title":"花之舞","lon":"121.456278","lat":"31.232221","category":"247","category_name":"餐饮美食","address":"南京西路中创大厦"},{"poiid":"B2094753D76AA1F9499E","title":"CORNER,WINE&COFFEE","lon":"121.45756","lat":"31.23405","category":"247","category_name":"餐饮美食","address":"上海市静安区泰兴路428号(近新闸路)"},{"poiid":"B2094757D06AA5FA4992","title":"babyface 儿童摄影","lon":"121.45796966","lat":"31.23392868","category":"500","category_name":"未知分类","address":"上海新闸路泰兴路"},{"poiid":"B2094654DA6CA5FB429B","title":"克莉丝汀(泰兴路)","lon":"121.45748","lat":"31.23405","category":"112","category_name":"糕饼店","address":"静安区泰兴路430号(新闸路口)"},{"poiid":"B2094750D268A2FD4092","title":"古丽仙西域餐厅","lon":"121.458595","lat":"31.234464","category":"247","category_name":"餐饮美食","address":"南京西路818广场"},{"poiid":"B2094757D16BA4FF4492","title":"潮汕沙锅粥馆","lon":"121.458894","lat":"31.2346","category":"247","category_name":"餐饮美食","address":"上海新闸路868号"},{"poiid":"B2094655D36CA1FD4599","title":"石门二路","lon":"121.45947","lat":"31.23472","category":"38","category_name":"公交车站","address":""},{"poiid":"B209475DDB6BABF94698","title":"老张牛肉面","lon":"121.456962","lat":"31.233003","category":"247","category_name":"餐饮美食","address":"上海市 上海市江宁路99号"},{"poiid":"B2094654DB6BA5FD429A","title":"茂盛商务中心(新闸路)","lon":"121.456","lat":"31.2332","category":"46","category_name":"楼宇","address":"新闸路1051号"},{"poiid":"B2094757D66CA3F54693","title":"凯撒国际会所","lon":"121.456417738","lat":"31.2346433941","category":"500","category_name":"未知分类","address":"上海市静安区新闸路石门二路"},{"poiid":"B2094757D56CA1FB429D","title":"汤谱瓦罐煨汤","lon":"121.45697351958","lat":"31.234154528381","category":"247","category_name":"餐饮美食","address":"静安区石门二路19号(近南京西路)"},{"poiid":"B2094654DB69AAFA4699","title":"市政协文化俱乐部餐厅","lon":"121.457649054","lat":"31.231717793","category":"76","category_name":"上海菜","address":"静安区泰兴路306号2楼(近北京西路)"},{"poiid":"B2094757D06BAAFD4198","title":"北京西路泰兴路公交站","lon":"121.457263","lat":"31.232901","category":"38","category_name":"公交车站","address":"上海静安区北京西路(近泰兴路)"},{"poiid":"B209475CD669A6FC419A","title":"肥仔文猪骨煲","lon":"121.457229","lat":"31.23303","category":"247","category_name":"餐饮美食","address":"上海市 上海市静安区南汇路77路"},{"poiid":"B2094654DA6CA5FB419B","title":"雪茄客","lon":"121.45784","lat":"31.23401","category":"117","category_name":"便民商店/便利店","address":"静安区新闸路912号(近泰兴路)"},{"poiid":"B2094757D06FABF94299","title":"丽都太平洋全套房酒店","lon":"121.459948","lat":"31.234771","category":"217","category_name":"旅馆招待所","address":"上海市静安区新闸路831号"},{"poiid":"B2094655D26CAAF9459A","title":"中华新邨(东门)","lon":"121.45729","lat":"31.23399","category":"47","category_name":"住宅区","address":"泰兴路445弄2-48号"},{"poiid":"B2094750D76DABFE489B","title":"蜀巷","lon":"121.46","lat":"31.2351","category":"71","category_name":"四川菜","address":"静安区新闸路854号(近石门二路)"},{"poiid":"B2094752D56AA6FB499F","title":"818广场 外婆家","lon":"121.458862","lat":"31.23434","category":"247","category_name":"餐饮美食","address":null},{"poiid":"B2094757D06AA2FA479B","title":"翁龄旺山珍","lon":"121.45724","lat":"31.2354","category":"76","category_name":"上海菜","address":"静安区泰兴路528号(近武定路)"},{"poiid":"B2094655D265A1FA439A","title":"鲜乐园水果大卖场","lon":"121.4575","lat":"31.23305","category":"117","category_name":"便民商店/便利店","address":"泰兴路396"},{"poiid":"B2094750D364ABFA439B","title":"casal卡赛欧","lon":"121.45759332679","lat":"31.23375250931","category":"643","category_name":"食品饮料类公司","address":"泰兴路428号"},{"poiid":"B2094753D66DA5F54093","title":"星巴克汇银大厦店","lon":"121.457849","lat":"31.23313","category":"500","category_name":"未知分类","address":"上海市 南京西路762号一楼d座"},{"poiid":"B209475CD668A5F54293","title":"九久日本料理","lon":"121.45755","lat":"31.232704","category":"500","category_name":"未知分类","address":"上海市 江宁路428号静安体育中心一楼"},{"poiid":"B2094655D26DA3FC469C","title":"远中风华-城宝","lon":"121.45602","lat":"31.23388","category":"47","category_name":"住宅区","address":"新闸路1068弄1-6号"},{"poiid":"B2094752D065ABFA4492","title":"丝芙兰旗舰店","lon":"121.45654296875","lat":"31.23349761962891","category":"249","category_name":"购物服务","address":"南京西路茂名路"},{"poiid":"B2094750D26CA3FC419A","title":"创益家","lon":"121.4578684981338","lat":"31.23414667774911","category":"252","category_name":"楼宇机构","address":"北京西路605弄王家沙花苑22号"},{"poiid":"B2094757D06FA3FC449C","title":"上海商城","lon":"121.459","lat":"31.2331","category":"119","category_name":"商场","address":"上海静安区南京西路1376号(近西康路)"},{"poiid":"B2094655D26CAAF94198","title":"SOHO东海广场","lon":"121.455285","lat":"31.23305","category":"46","category_name":"楼宇","address":"上海市浦东新区金桥路983号"},{"poiid":"B2094757D56EA3F4499D","title":"La Pasta 义面屋","lon":"121.457576","lat":"31.233518","category":"247","category_name":"餐饮美食","address":"静安区南京西路819号中创大厦5楼"},{"poiid":"B2094753D76FAAFA449C","title":"上海滩国泰旗舰店","lon":"121.466011","lat":"31.216125","category":"249","category_name":"购物服务","address":"淮海中路868号"},{"poiid":"B209475CD564A7F84292","title":"上海滩新天地店","lon":"121.47463","lat":"31.22164","category":"119","category_name":"商场","address":"\"太仓路181弄新天地北里15号\r\n\""},{"poiid":"B209475CD564A7F8439E","title":"上海滩中信泰富店","lon":"121.45602","lat":"31.22851","category":"119","category_name":"商场","address":"\"南京西路1168号中信泰富广场，店铺号221.\r\n\""},{"poiid":"B2094757D06FA3FE4799","title":"星巴克(远中风华店)","lon":"121.455101","lat":"31.234818","category":"65","category_name":"咖啡厅","address":"静安区昌化路68号(近武定路)"},{"poiid":"B2094750D365A0FA4698","title":"倍乐创意韩国料理","lon":"121.457778","lat":"31.234186","category":"96","category_name":"韩国料理","address":"静安区新闸路848-850号(近石门二路)"},{"poiid":"B2094757D16CA0FE469D","title":"海底捞","lon":"121.456670738","lat":"31.2332153637","category":"500","category_name":"未知分类","address":"上海市静安区江宁路"},{"poiid":"B2094757D069A0F54492","title":"上海市政协","lon":"121.458072","lat":"31.231919","category":"68","category_name":"快餐厅","address":"静安区泰兴路306号4楼(泰兴路吴江路)"},{"poiid":"B2094757D06FA7FB409C","title":"国际丽都城","lon":"121.459495","lat":"31.233372","category":"47","category_name":"住宅区","address":"上海静安区北京西路758弄(近石门二路)"},{"poiid":"B2094757D06BA2FF429F","title":"市政协文化俱乐部","lon":"121.457643985","lat":"31.2322390652","category":"46","category_name":"楼宇","address":"上海静安区泰兴路306号"},{"poiid":"B2094654DA6CA5FA479B","title":"MOB(新闸路店)","lon":"121.45814","lat":"31.23372","category":"221","category_name":"健身中心","address":"静安区新闸路945号国际丽都城群楼3楼(近泰兴路)"},{"poiid":"B2094757D06FA2FE449D","title":"潮汕砂锅粥馆(静安店)","lon":"121.45992","lat":"31.23502","category":"72","category_name":"广东菜","address":"静安区新闸路868号(近石门二路)"},{"poiid":"B2094757D06FA6F4439A","title":"国旅大厦","lon":"121.45750893637","lat":"31.235029833226","category":"46","category_name":"楼宇","address":"上海市四川北路1851号"},{"poiid":"B2094757D06FA6FE489C","title":"北泰电信大楼","lon":"121.459558","lat":"31.231557","category":"500","category_name":"未知分类","address":"上海北京西路819号"},{"poiid":"B2094750DB65AAFF4899","title":"Mr.pancake house","lon":"121.455604","lat":"31.231794","category":"247","category_name":"餐饮美食","address":"静安区武定路479号(近陕西北路)"},{"poiid":"B2094655D36CA5F54093","title":"北京西路泰兴路","lon":"121.45873","lat":"31.23168","category":"38","category_name":"公交车站","address":"上海市静安区昌平路"},{"poiid":"B2094757D06FA4F9469F","title":"信达大厦","lon":"121.455","lat":"31.2339","category":"46","category_name":"楼宇","address":"上海北京西路1399号"},{"poiid":"B2094757D064A3FE4192","title":"九安广场","lon":"121.457","lat":"31.2328","category":"500","category_name":"未知分类","address":"上海市平凉路1398号"},{"poiid":"B2094654DA6CA5FA489B","title":"弘记港式茶餐厅 新闸路店","lon":"121.45998989478","lat":"31.235576570521","category":"72","category_name":"广东菜","address":"静安区新闸路852号(近石门二路)"},{"poiid":"B2094757D56CA4FA429F","title":"星巴克 鸿翔店 Starbucks Cafe","lon":"121.46081642562","lat":"31.230413708613","category":"247","category_name":"餐饮美食","address":"南京西路869号鸿翔百货1楼近石门二路"},{"poiid":"B2094654DA6CA5FA4699","title":"康骏会馆(泰兴路)","lon":"121.45717","lat":"31.23326","category":"149","category_name":"洗浴推拿场所","address":"静安区泰兴路407号1楼(近新闸路)"},{"poiid":"B2094752D66FABF5419D","title":"花之舞","lon":"121.456278","lat":"31.232221","category":"247","category_name":"餐饮美食","address":"南京西路中创大厦"},{"poiid":"B2094753D76AA1F9499E","title":"CORNER,WINE&COFFEE","lon":"121.45756","lat":"31.23405","category":"247","category_name":"餐饮美食","address":"上海市静安区泰兴路428号(近新闸路)"},{"poiid":"B2094757D06AA5FA4992","title":"babyface 儿童摄影","lon":"121.45796966","lat":"31.23392868","category":"500","category_name":"未知分类","address":"上海新闸路泰兴路"},{"poiid":"B2094654DA6CA5FB429B","title":"克莉丝汀(泰兴路)","lon":"121.45748","lat":"31.23405","category":"112","category_name":"糕饼店","address":"静安区泰兴路430号(新闸路口)"},{"poiid":"B2094750D268A2FD4092","title":"古丽仙西域餐厅","lon":"121.458595","lat":"31.234464","category":"247","category_name":"餐饮美食","address":"南京西路818广场"},{"poiid":"B2094757D16BA4FF4492","title":"潮汕沙锅粥馆","lon":"121.458894","lat":"31.2346","category":"247","category_name":"餐饮美食","address":"上海新闸路868号"},{"poiid":"B2094655D36CA1FD4599","title":"石门二路","lon":"121.45947","lat":"31.23472","category":"38","category_name":"公交车站","address":""},{"poiid":"B209475DDB6BABF94698","title":"老张牛肉面","lon":"121.456962","lat":"31.233003","category":"247","category_name":"餐饮美食","address":"上海市 上海市江宁路99号"},{"poiid":"B2094654DB6BA5FD429A","title":"茂盛商务中心(新闸路)","lon":"121.456","lat":"31.2332","category":"46","category_name":"楼宇","address":"新闸路1051号"},{"poiid":"B2094757D66CA3F54693","title":"凯撒国际会所","lon":"121.456417738","lat":"31.2346433941","category":"500","category_name":"未知分类","address":"上海市静安区新闸路石门二路"},{"poiid":"B2094757D56CA1FB429D","title":"汤谱瓦罐煨汤","lon":"121.45697351958","lat":"31.234154528381","category":"247","category_name":"餐饮美食","address":"静安区石门二路19号(近南京西路)"},{"poiid":"B2094654DB69AAFA4699","title":"市政协文化俱乐部餐厅","lon":"121.457649054","lat":"31.231717793","category":"76","category_name":"上海菜","address":"静安区泰兴路306号2楼(近北京西路)"},{"poiid":"B2094757D06BAAFD4198","title":"北京西路泰兴路公交站","lon":"121.457263","lat":"31.232901","category":"38","category_name":"公交车站","address":"上海静安区北京西路(近泰兴路)"},{"poiid":"B209475CD669A6FC419A","title":"肥仔文猪骨煲","lon":"121.457229","lat":"31.23303","category":"247","category_name":"餐饮美食","address":"上海市 上海市静安区南汇路77路"},{"poiid":"B2094654DA6CA5FB419B","title":"雪茄客","lon":"121.45784","lat":"31.23401","category":"117","category_name":"便民商店/便利店","address":"静安区新闸路912号(近泰兴路)"},{"poiid":"B2094757D06FABF94299","title":"丽都太平洋全套房酒店","lon":"121.459948","lat":"31.234771","category":"217","category_name":"旅馆招待所","address":"上海市静安区新闸路831号"},{"poiid":"B2094655D26CAAF9459A","title":"中华新邨(东门)","lon":"121.45729","lat":"31.23399","category":"47","category_name":"住宅区","address":"泰兴路445弄2-48号"},{"poiid":"B2094750D76DABFE489B","title":"蜀巷","lon":"121.46","lat":"31.2351","category":"71","category_name":"四川菜","address":"静安区新闸路854号(近石门二路)"},{"poiid":"B2094752D56AA6FB499F","title":"818广场 外婆家","lon":"121.458862","lat":"31.23434","category":"247","category_name":"餐饮美食","address":null},{"poiid":"B2094757D06AA2FA479B","title":"翁龄旺山珍","lon":"121.45724","lat":"31.2354","category":"76","category_name":"上海菜","address":"静安区泰兴路528号(近武定路)"},{"poiid":"B2094655D265A1FA439A","title":"鲜乐园水果大卖场","lon":"121.4575","lat":"31.23305","category":"117","category_name":"便民商店/便利店","address":"泰兴路396"},{"poiid":"B2094750D364ABFA439B","title":"casal卡赛欧","lon":"121.45759332679","lat":"31.23375250931","category":"643","category_name":"食品饮料类公司","address":"泰兴路428号"},{"poiid":"B2094753D66DA5F54093","title":"星巴克汇银大厦店","lon":"121.457849","lat":"31.23313","category":"500","category_name":"未知分类","address":"上海市 南京西路762号一楼d座"},{"poiid":"B209475CD668A5F54293","title":"九久日本料理","lon":"121.45755","lat":"31.232704","category":"500","category_name":"未知分类","address":"上海市 江宁路428号静安体育中心一楼"},{"poiid":"B2094655D26DA3FC469C","title":"远中风华-城宝","lon":"121.45602","lat":"31.23388","category":"47","category_name":"住宅区","address":"新闸路1068弄1-6号"},{"poiid":"B2094752D065ABFA4492","title":"丝芙兰旗舰店","lon":"121.45654296875","lat":"31.23349761962891","category":"249","category_name":"购物服务","address":"南京西路茂名路"},{"poiid":"B2094750D26CA3FC419A","title":"创益家","lon":"121.4578684981338","lat":"31.23414667774911","category":"252","category_name":"楼宇机构","address":"北京西路605弄王家沙花苑22号"},{"poiid":"B2094757D06FA3FC449C","title":"上海商城","lon":"121.459","lat":"31.2331","category":"119","category_name":"商场","address":"上海静安区南京西路1376号(近西康路)"},{"poiid":"B2094655D26CAAF94198","title":"SOHO东海广场","lon":"121.455285","lat":"31.23305","category":"46","category_name":"楼宇","address":"上海市浦东新区金桥路983号"},{"poiid":"B2094757D56EA3F4499D","title":"La Pasta 义面屋","lon":"121.457576","lat":"31.233518","category":"247","category_name":"餐饮美食","address":"静安区南京西路819号中创大厦5楼"},{"poiid":"B2094753D76FAAFA449C","title":"上海滩国泰旗舰店","lon":"121.466011","lat":"31.216125","category":"249","category_name":"购物服务","address":"淮海中路868号"},{"poiid":"B209475CD564A7F84292","title":"上海滩新天地店","lon":"121.47463","lat":"31.22164","category":"119","category_name":"商场","address":"\"太仓路181弄新天地北里15号\r\n\""},{"poiid":"B209475CD564A7F8439E","title":"上海滩中信泰富店","lon":"121.45602","lat":"31.22851","category":"119","category_name":"商场","address":"\"南京西路1168号中信泰富广场，店铺号221.\r\n\""},{"poiid":"B2094757D06FA3FE4799","title":"星巴克(远中风华店)","lon":"121.455101","lat":"31.234818","category":"65","category_name":"咖啡厅","address":"静安区昌化路68号(近武定路)"},{"poiid":"B2094750D365A0FA4698","title":"倍乐创意韩国料理","lon":"121.457778","lat":"31.234186","category":"96","category_name":"韩国料理","address":"静安区新闸路848-850号(近石门二路)"},{"poiid":"B2094757D16CA0FE469D","title":"海底捞","lon":"121.456670738","lat":"31.2332153637","category":"500","category_name":"未知分类","address":"上海市静安区江宁路"},{"poiid":"B2094757D069A0F54492","title":"上海市政协","lon":"121.458072","lat":"31.231919","category":"68","category_name":"快餐厅","address":"静安区泰兴路306号4楼(泰兴路吴江路)"},{"poiid":"B2094757D06FA7FB409C","title":"国际丽都城","lon":"121.459495","lat":"31.233372","category":"47","category_name":"住宅区","address":"上海静安区北京西路758弄(近石门二路)"},{"poiid":"B2094757D06BA2FF429F","title":"市政协文化俱乐部","lon":"121.457643985","lat":"31.2322390652","category":"46","category_name":"楼宇","address":"上海静安区泰兴路306号"},{"poiid":"B2094654DA6CA5FA479B","title":"MOB(新闸路店)","lon":"121.45814","lat":"31.23372","category":"221","category_name":"健身中心","address":"静安区新闸路945号国际丽都城群楼3楼(近泰兴路)"},{"poiid":"B2094757D06FA2FE449D","title":"潮汕砂锅粥馆(静安店)","lon":"121.45992","lat":"31.23502","category":"72","category_name":"广东菜","address":"静安区新闸路868号(近石门二路)"},{"poiid":"B2094757D06FA6F4439A","title":"国旅大厦","lon":"121.45750893637","lat":"31.235029833226","category":"46","category_name":"楼宇","address":"上海市四川北路1851号"},{"poiid":"B2094757D06FA6FE489C","title":"北泰电信大楼","lon":"121.459558","lat":"31.231557","category":"500","category_name":"未知分类","address":"上海北京西路819号"},{"poiid":"B2094750DB65AAFF4899","title":"Mr.pancake house","lon":"121.455604","lat":"31.231794","category":"247","category_name":"餐饮美食","address":"静安区武定路479号(近陕西北路)"},{"poiid":"B2094655D36CA5F54093","title":"北京西路泰兴路","lon":"121.45873","lat":"31.23168","category":"38","category_name":"公交车站","address":"上海市静安区昌平路"},{"poiid":"B2094757D06FA4F9469F","title":"信达大厦","lon":"121.455","lat":"31.2339","category":"46","category_name":"楼宇","address":"上海北京西路1399号"},{"poiid":"B2094757D064A3FE4192","title":"九安广场","lon":"121.457","lat":"31.2328","category":"500","category_name":"未知分类","address":"上海市平凉路1398号"},{"poiid":"B2094654DA6CA5FA489B","title":"弘记港式茶餐厅 新闸路店","lon":"121.45998989478","lat":"31.235576570521","category":"72","category_name":"广东菜","address":"静安区新闸路852号(近石门二路)"},{"poiid":"B2094757D56CA4FA429F","title":"星巴克 鸿翔店 Starbucks Cafe","lon":"121.46081642562","lat":"31.230413708613","category":"247","category_name":"餐饮美食","address":"南京西路869号鸿翔百货1楼近石门二路"},{"poiid":"B2094654DA6CA5FA4699","title":"康骏会馆(泰兴路)","lon":"121.45717","lat":"31.23326","category":"149","category_name":"洗浴推拿场所","address":"静安区泰兴路407号1楼(近新闸路)"},{"poiid":"B2094752D66FABF5419D","title":"花之舞","lon":"121.456278","lat":"31.232221","category":"247","category_name":"餐饮美食","address":"南京西路中创大厦"},{"poiid":"B2094753D76AA1F9499E","title":"CORNER,WINE&COFFEE","lon":"121.45756","lat":"31.23405","category":"247","category_name":"餐饮美食","address":"上海市静安区泰兴路428号(近新闸路)"},{"poiid":"B2094757D06AA5FA4992","title":"babyface 儿童摄影","lon":"121.45796966","lat":"31.23392868","category":"500","category_name":"未知分类","address":"上海新闸路泰兴路"},{"poiid":"B2094654DA6CA5FB429B","title":"克莉丝汀(泰兴路)","lon":"121.45748","lat":"31.23405","category":"112","category_name":"糕饼店","address":"静安区泰兴路430号(新闸路口)"},{"poiid":"B2094750D268A2FD4092","title":"古丽仙西域餐厅","lon":"121.458595","lat":"31.234464","category":"247","category_name":"餐饮美食","address":"南京西路818广场"},{"poiid":"B2094757D16BA4FF4492","title":"潮汕沙锅粥馆","lon":"121.458894","lat":"31.2346","category":"247","category_name":"餐饮美食","address":"上海新闸路868号"},{"poiid":"B2094655D36CA1FD4599","title":"石门二路","lon":"121.45947","lat":"31.23472","category":"38","category_name":"公交车站","address":""},{"poiid":"B209475DDB6BABF94698","title":"老张牛肉面","lon":"121.456962","lat":"31.233003","category":"247","category_name":"餐饮美食","address":"上海市 上海市江宁路99号"},{"poiid":"B2094654DB6BA5FD429A","title":"茂盛商务中心(新闸路)","lon":"121.456","lat":"31.2332","category":"46","category_name":"楼宇","address":"新闸路1051号"},{"poiid":"B2094757D66CA3F54693","title":"凯撒国际会所","lon":"121.456417738","lat":"31.2346433941","category":"500","category_name":"未知分类","address":"上海市静安区新闸路石门二路"},{"poiid":"B2094757D56CA1FB429D","title":"汤谱瓦罐煨汤","lon":"121.45697351958","lat":"31.234154528381","category":"247","category_name":"餐饮美食","address":"静安区石门二路19号(近南京西路)"},{"poiid":"B2094654DB69AAFA4699","title":"市政协文化俱乐部餐厅","lon":"121.457649054","lat":"31.231717793","category":"76","category_name":"上海菜","address":"静安区泰兴路306号2楼(近北京西路)"},{"poiid":"B2094757D06BAAFD4198","title":"北京西路泰兴路公交站","lon":"121.457263","lat":"31.232901","category":"38","category_name":"公交车站","address":"上海静安区北京西路(近泰兴路)"},{"poiid":"B209475CD669A6FC419A","title":"肥仔文猪骨煲","lon":"121.457229","lat":"31.23303","category":"247","category_name":"餐饮美食","address":"上海市 上海市静安区南汇路77路"},{"poiid":"B2094654DA6CA5FB419B","title":"雪茄客","lon":"121.45784","lat":"31.23401","category":"117","category_name":"便民商店/便利店","address":"静安区新闸路912号(近泰兴路)"},{"poiid":"B2094757D06FABF94299","title":"丽都太平洋全套房酒店","lon":"121.459948","lat":"31.234771","category":"217","category_name":"旅馆招待所","address":"上海市静安区新闸路831号"},{"poiid":"B2094655D26CAAF9459A","title":"中华新邨(东门)","lon":"121.45729","lat":"31.23399","category":"47","category_name":"住宅区","address":"泰兴路445弄2-48号"},{"poiid":"B2094750D76DABFE489B","title":"蜀巷","lon":"121.46","lat":"31.2351","category":"71","category_name":"四川菜","address":"静安区新闸路854号(近石门二路)"},{"poiid":"B2094752D56AA6FB499F","title":"818广场 外婆家","lon":"121.458862","lat":"31.23434","category":"247","category_name":"餐饮美食","address":null},{"poiid":"B2094757D06AA2FA479B","title":"翁龄旺山珍","lon":"121.45724","lat":"31.2354","category":"76","category_name":"上海菜","address":"静安区泰兴路528号(近武定路)"},{"poiid":"B2094655D265A1FA439A","title":"鲜乐园水果大卖场","lon":"121.4575","lat":"31.23305","category":"117","category_name":"便民商店/便利店","address":"泰兴路396"},{"poiid":"B2094750D364ABFA439B","title":"casal卡赛欧","lon":"121.45759332679","lat":"31.23375250931","category":"643","category_name":"食品饮料类公司","address":"泰兴路428号"},{"poiid":"B2094753D66DA5F54093","title":"星巴克汇银大厦店","lon":"121.457849","lat":"31.23313","category":"500","category_name":"未知分类","address":"上海市 南京西路762号一楼d座"},{"poiid":"B209475CD668A5F54293","title":"九久日本料理","lon":"121.45755","lat":"31.232704","category":"500","category_name":"未知分类","address":"上海市 江宁路428号静安体育中心一楼"},{"poiid":"B2094655D26DA3FC469C","title":"远中风华-城宝","lon":"121.45602","lat":"31.23388","category":"47","category_name":"住宅区","address":"新闸路1068弄1-6号"},{"poiid":"B2094752D065ABFA4492","title":"丝芙兰旗舰店","lon":"121.45654296875","lat":"31.23349761962891","category":"249","category_name":"购物服务","address":"南京西路茂名路"},{"poiid":"B2094750D26CA3FC419A","title":"创益家","lon":"121.4578684981338","lat":"31.23414667774911","category":"252","category_name":"楼宇机构","address":"北京西路605弄王家沙花苑22号"}]