[{"poiid":"B2094654DA6EA7FF409A","title":"大肠面","lon":"121.48144","lat":"31.21834","category":"68","category_name":"快餐厅","address":"卢湾区复兴中路59号(吉安路东台路间)"},{"poiid":"B2094757D06FA2FF409B","title":"老西门","lon":"121.483696","lat":"31.219066","category":"250","category_name":"公园户外","address":"上海老西门"},{"poiid":"B2094750D26EABF8459A","title":"上海虹桥机场","lon":"121.48","lat":"31.22","category":"21","category_name":"飞机场","address":"上海长宁区虹桥路2550号"},{"poiid":"B2094753D76FAAFA449C","title":"上海滩国泰旗舰店","lon":"121.466011","lat":"31.216125","category":"249","category_name":"购物服务","address":"淮海中路868号"},{"poiid":"B209475CD564A7F84292","title":"上海滩新天地店","lon":"121.47463","lat":"31.22164","category":"119","category_name":"商场","address":"\"太仓路181弄新天地北里15号\r\n\""},{"poiid":"B209475CD564A7F8439E","title":"上海滩中信泰富店","lon":"121.45602","lat":"31.22851","category":"119","category_name":"商场","address":"\"南京西路1168号中信泰富广场，店铺号221.\r\n\""},{"poiid":"B209475CD564A7F84392","title":"上海滩浦东香格里拉店","lon":"121.50058","lat":"31.23634","category":"119","category_name":"商场","address":"浦东富成路33号香格里拉酒店内大堂层"},{"poiid":"B2094655D269AAFA479B","title":"大马头茶餐厅","lon":"121.48304","lat":"31.21943","category":"72","category_name":"广东菜","address":"黄浦区西藏南路567号(近复兴东路)"},{"poiid":"B2094757D06AA4FD419D","title":"格澜国际大酒店","lon":"121.482429538","lat":"31.2197208762","category":"76","category_name":"上海菜","address":"黄浦区西藏南路567号(近复兴中路)"},{"poiid":"B2094757D06EAAFB489E","title":"老西门地铁站","lon":"121.483699","lat":"31.219058","category":"36","category_name":"地铁站","address":"上海轨道交通 八号线 十号线 轨交老西门站 8 10"},{"poiid":"B2094655D36CA1F4439B","title":"老西门","lon":"121.4842","lat":"31.22057","category":"38","category_name":"公交车站","address":"西藏南路方浜西路"},{"poiid":"B2094654DA6EA7F84999","title":"易买得(老西门店)","lon":"121.48337","lat":"31.21698","category":"118","category_name":"超级市场","address":"黄浦区西藏南路666号(西藏南路肇周路)"},{"poiid":"B2094757D06FAAFA499D","title":"法藏讲寺","lon":"121.48161","lat":"31.21755","category":"244","category_name":"寺庙道观","address":"上海卢湾区吉安路271号(近复兴中路)"},{"poiid":"B2094757D06FA6F8429E","title":"万商花鸟市场","lon":"121.48199","lat":"31.22132","category":"249","category_name":"购物服务","address":"黄浦区西藏南路417号(近东台路)"},{"poiid":"B2094757D06FA6F84999","title":"黄浦中心","lon":"121.48331828","lat":"31.220969198","category":"46","category_name":"楼宇","address":"上海市黄浦区中华路1600号"},{"poiid":"B2094654DA6EABFB4493","title":"东台路古玩市场(自忠路)","lon":"121.48128","lat":"31.22059","category":"134","category_name":"古玩字画店","address":"自忠路28"},{"poiid":"B2094757D064A7F54093","title":"usher OMG world tour","lon":"121.48348473","lat":"31.219800077","category":"500","category_name":"未知分类","address":"上海梅赛德斯•奔驰文化演艺中心"},{"poiid":"B2094757D068A2FB4299","title":"老西门(人民路方浜中路)站","lon":"121.484038664","lat":"31.2210625482","category":"38","category_name":"公交车站","address":"上海黄浦区人民路(11,220,135,736,920,911路)"},{"poiid":"B2094655D26AA0FA4092","title":"地铁老西门站","lon":"121.48323","lat":"31.21837","category":"36","category_name":"地铁站","address":""},{"poiid":"B2094757D069A2F84099","title":"黄浦众鑫城","lon":"121.48293","lat":"31.219999","category":"47","category_name":"住宅区","address":"上海黄浦区西藏南路555弄"},{"poiid":"B2094757D16DA3F84499","title":"黄浦区民政局","lon":"121.48325573","lat":"31.218233044","category":"500","category_name":"未知分类","address":"上海市黄浦区中华路1011号"},{"poiid":"B2094757D468A0FF4099","title":"杰克的酒窝","lon":"121.483278","lat":"31.21809","category":"260","category_name":"其他","address":"黄浦区肇周路76号(近东台路)"},{"poiid":"B2094654DB69A0F94298","title":"沈家花园(黄浦店)","lon":"121.48304","lat":"31.21943","category":"47","category_name":"住宅区","address":"黄浦区西藏南路567号"},{"poiid":"B2094655D26AA0FB449A","title":"爵士俱乐部","lon":"121.48304","lat":"31.21943","category":"247","category_name":"餐饮美食","address":"黄浦区西藏南路567号3楼(近复兴东路)"},{"poiid":"B2094654DB65AAFB409D","title":"东来顺火锅 西藏南路店","lon":"121.48289696163","lat":"31.219269974767","category":"86","category_name":"火锅店","address":"西藏南路567号沈家花园1楼近复兴中路"},{"poiid":"B209475DD669A6F5469B","title":"赵小姐不等位","lon":"121.481353","lat":"31.220138","category":"247","category_name":"餐饮美食","address":"上海市 太仓路70号"},{"poiid":"B2094757D464A0F4479F","title":"乐乐新疆风味餐厅","lon":"121.482229054","lat":"31.218332793","category":"90","category_name":"清真餐馆","address":"卢湾区东台路272号(近复兴中路)"},{"poiid":"B2094753D564A7FD429D","title":"花籠味","lon":"121.482009","lat":"31.219865","category":"247","category_name":"餐饮美食","address":"上海市 上海市济南路9号2楼"},{"poiid":"B2094655D265A0F8459E","title":"老西门茶商场","lon":"121.48403","lat":"31.21944","category":"119","category_name":"商场","address":"复兴东路1121"},{"poiid":"B2094654DB65A5FF4393","title":"雅叙屋食府家常菜(自忠路)","lon":"121.48136","lat":"31.22041","category":"76","category_name":"上海菜","address":"卢湾区自忠路13号(近东台路)"},{"poiid":"B2094751D36BA5FF469F","title":"上海南站","lon":"121.48","lat":"31.22","category":"195","category_name":"游乐场","address":"上海徐家汇"},{"poiid":"B209475DD66DA2FD4898","title":"甜品工坊","lon":"121.481758","lat":"31.219875","category":"247","category_name":"餐饮美食","address":"上海市 卢湾区太仓路济南路"},{"poiid":"B2094757D66DAAF84299","title":"鼎茶","lon":"121.483045738","lat":"31.2195332722","category":"113","category_name":"冷饮店","address":"上海人民路"},{"poiid":"B2094654DA6EA5FC4298","title":"鑫座娱乐总汇","lon":"121.48322","lat":"31.21925","category":"170","category_name":"KTV","address":"黄浦区西藏南路567号(西藏南路肇周路)"},{"poiid":"B2094654DA6EABF4469F","title":"上海市卢湾区巨三托儿所","lon":"121.48213","lat":"31.2189","category":"57","category_name":"幼儿园","address":"复兴中路34"},{"poiid":"B2094654DA6EA7FE499F","title":"国际广场B座","lon":"121.4827","lat":"31.21805","category":"46","category_name":"楼宇","address":"东台路277"},{"poiid":"B209475DD16BA2FB4399","title":"么么mussels","lon":"121.481315","lat":"31.220224","category":"500","category_name":"未知分类","address":"上海市 太仓路70号"},{"poiid":"B2094654DA6EABF4469C","title":"Pink Baby","lon":"121.48204","lat":"31.21882","category":"141","category_name":"服装鞋帽皮具店","address":""},{"poiid":"B2094654DB6BA4FA479B","title":"裕福里(自忠路)","lon":"121.48148","lat":"31.22064","category":"47","category_name":"住宅区","address":"自忠路18弄1-26号"},{"poiid":"B2094757D169A7FA409E","title":"和平饭店华懋阁","lon":"121.48424073","lat":"31.219877079","category":"247","category_name":"餐饮美食","address":"上海黄浦区南京东路20号和平饭店9F"},{"poiid":"B2094757D664A1F9439E","title":"慈光素食","lon":"121.48152","lat":"31.21795","category":"89","category_name":"中式素餐馆","address":"卢湾区吉安路271号法藏讲寺内(复兴中路吉安路)"},{"poiid":"B2094655D265A7FB479A","title":"一农茶居","lon":"121.48336","lat":"31.21927","category":"66","category_name":"茶艺馆","address":"复兴东路1153、1159"},{"poiid":"B2094757D064A3F8489E","title":"黄浦区牙病防治所(净土街分所)","lon":"121.48296","lat":"31.21866","category":"500","category_name":"未知分类","address":"黄浦区净土街77号(近河南南路)"},{"poiid":"B2094757D16BA3FF419C","title":"Familymart","lon":"121.48199073","lat":"31.219406069","category":"500","category_name":"未知分类","address":"上海复兴中路吉安路口"},{"poiid":"B209475CD76BA6FB449A","title":"老友螺蛳粉","lon":"121.481895","lat":"31.220659","category":"247","category_name":"餐饮美食","address":"上海市 西藏南路390号"},{"poiid":"B2094654DB64A5F9449D","title":"浦江之星连锁旅店","lon":"121.48198","lat":"31.21821","category":"216","category_name":"经济型连锁酒店","address":"东台路270-2、272-2"},{"poiid":"B2094654DA6EA7FE4999","title":"国际广场A座","lon":"121.4829","lat":"31.21762","category":"46","category_name":"楼宇","address":"上海东台路279号"},{"poiid":"B2094654DB6BA4FF469F","title":"新疆风味餐厅(东台路)","lon":"121.482","lat":"31.21817","category":"90","category_name":"清真餐馆","address":"东台路272-1"},{"poiid":"B2094655D36DA7FE449B","title":"肇周路老西门","lon":"121.48302","lat":"31.21724","category":"38","category_name":"公交车站","address":""},{"poiid":"B2094757D66FA0FC4092","title":"全家便利(方斜路店)","lon":"121.48286973","lat":"31.219028061","category":"249","category_name":"购物服务","address":"上海市卢湾区方斜路18号"},{"poiid":"B2094757D069A3FB459A","title":"中华路复兴东路","lon":"121.4847201","lat":"31.219632484","category":"500","category_name":"未知分类","address":"上海中华路复兴东路"},{"poiid":"B2094655D36CA6FF439E","title":"复兴中路吉安路(老西门)","lon":"121.48149","lat":"31.21848","category":"38","category_name":"公交车站","address":""},{"poiid":"B2094757D164A2FE499C","title":"会稽路人民路","lon":"121.482942638","lat":"31.2194572705","category":"500","category_name":"未知分类","address":"上海会稽路人民路"},{"poiid":"B2094757D16AA5F5409B","title":"国美老西门店","lon":"121.48305473","lat":"31.219484071","category":"500","category_name":"未知分类","address":"上海复兴东路1121号"},{"poiid":"B2094757D164A2FF419E","title":"中国电信河南南路营业厅","lon":"121.48280573","lat":"31.219069062","category":"500","category_name":"未知分类","address":"上海河南南路748号"},{"poiid":"B2094654DB6BA4FA479F","title":"兴安里","lon":"121.48158","lat":"31.220123","category":"47","category_name":"住宅区","address":"自忠路15弄1-14"},{"poiid":"B2094757D06FA3FA449D","title":"The North Face(来福士店)","lon":"121.483214","lat":"31.220356","category":"140","category_name":"体育用品店","address":"上海黄浦区西藏中路268号来福士广场5F"},{"poiid":"B2094757D66EA2F8429D","title":"黄浦区豫园卫生服务中心","lon":"121.48427073","lat":"31.219771077","category":"500","category_name":"未知分类","address":"上海中华路1525号"},{"poiid":"B2094757D06AA4FC4299","title":"C.P.U(国金店)","lon":"121.482767331","lat":"31.2201009634","category":"140","category_name":"体育用品店","address":"上海浦东新区世纪大道8号上海国金中心LG1"},{"poiid":"B2094757D469A7FA4098","title":"重庆鸡公煲 肇周路店","lon":"121.48189","lat":"31.21687","category":"71","category_name":"四川菜","address":"黄浦区肇周路108号(近西藏南路)"},{"poiid":"B2094654DB6BA4FF4599","title":"良友金伴(复兴中路)","lon":"121.48155","lat":"31.21836","category":"117","category_name":"便民商店/便利店","address":"复兴中路63-65"},{"poiid":"B2094757D165A4FF4498","title":"好米稻","lon":"121.481463","lat":"31.218539","category":"247","category_name":"餐饮美食","address":"上海复兴中路66号"},{"poiid":"B2094655D26EA5F5469E","title":"湘泉湘菜馆 黄浦店","lon":"121.48179602603","lat":"31.22046756113","category":"77","category_name":"湖南菜","address":"黄浦区西藏南路382号(西藏南路自忠路)"},{"poiid":"B2094655D268A0F94398","title":"面包新语(西藏南路)","lon":"121.48355","lat":"31.21705","category":"112","category_name":"糕饼店","address":"黄浦区西藏南路666号易买得1楼(近肇周路)"},{"poiid":"B2094655D36CA1F44398","title":"老西门(西藏南路复兴中路)","lon":"121.48327","lat":"31.2182","category":"38","category_name":"公交车站","address":""},{"poiid":"B2094757D069A4FC449F","title":"老西门国际茶广场","lon":"121.48304449","lat":"31.218575681","category":"136","category_name":"烟酒专卖店","address":"黄浦区复兴东路1121号(近地铁老西门站)"},{"poiid":"B2094757D164A0F8439F","title":"DKNY(国金中心店)","lon":"121.483752738","lat":"31.219666075","category":"141","category_name":"服装鞋帽皮具店","address":"上海市浦东新区世纪大道8号国金中心LG1"},{"poiid":"B2094655D268A5FE409B","title":"复兴中路57弄小区","lon":"121.48179","lat":"31.21831","category":"47","category_name":"住宅区","address":""},{"poiid":"B2094655D26BA7F5479C","title":"生源里小区","lon":"121.48177","lat":"31.2183","category":"47","category_name":"住宅区","address":""},{"poiid":"B2094757D66CA7FE4792","title":"东台路国际广场","lon":"121.48333173","lat":"31.218829057","category":"500","category_name":"未知分类","address":"上海市卢湾区东台路277号"},{"poiid":"B2094654DA6EA7F8499E","title":"永乐生活电器老西门二店","lon":"121.48336","lat":"31.21698","category":"138","category_name":"家电电子卖场","address":"上海市黄浦区西藏南路666号"},{"poiid":"B2094757D169A5F9439D","title":"Adidas奥特莱斯店","lon":"121.48414073","lat":"31.219683075","category":"500","category_name":"未知分类","address":"上海市青浦奥特莱斯品牌直销中心"},{"poiid":"B2094757D16BA6FC469C","title":"tutu anna(虹口龙之梦店)","lon":"121.483925738","lat":"31.2198040779","category":"500","category_name":"未知分类","address":"上海西江湾路388号虹口凯德龙之梦购物中心4楼"},{"poiid":"B2094654DA6EABFB449E","title":"好德No.220","lon":"121.48164","lat":"31.22072","category":"117","category_name":"便民商店/便利店","address":"自忠路2-4"},{"poiid":"B2094757D465A7FF499B","title":"新新美食林","lon":"121.48006393688","lat":"31.219839547289","category":"68","category_name":"快餐厅","address":"卢湾区自忠路75号(近吉安路)"},{"poiid":"B2094654DB6BA4FF459A","title":"中国光大银行卢湾支行(东台路)","lon":"121.48255","lat":"31.21843","category":"150","category_name":"银行","address":"卢湾区复兴中路1号(东台路复兴中路)"},{"poiid":"B2094654DA6EA7FE489C","title":"中国建设银行上海市复兴路支行","lon":"121.48286","lat":"31.21843","category":"150","category_name":"银行","address":"卢湾区复兴中路1号(东台路复兴中路)"},{"poiid":"B2094654DA6EA7FF409F","title":"快客No.945(吉安路)","lon":"121.48123","lat":"31.21819","category":"117","category_name":"便民商店/便利店","address":"吉安路251"},{"poiid":"B2094655D265A0F9489B","title":"飞利浦国美上海西门店","lon":"121.48402","lat":"31.21941","category":"138","category_name":"家电电子卖场","address":"复兴东路1121号"},{"poiid":"B2094655D36DA7FB439E","title":"自忠路东台路","lon":"121.48058","lat":"31.22023","category":"38","category_name":"公交车站","address":""},{"poiid":"B2094654DA6EA7FE489D","title":"中信银行上海黄浦支行","lon":"121.48284","lat":"31.2182","category":"150","category_name":"银行","address":"黄浦区西藏南路518号(复兴东路复兴中路)"},{"poiid":"B2094757D569A7FC4598","title":"钻石城中城","lon":"121.4841456","lat":"31.21981417","category":"47","category_name":"住宅区","address":"钻石城中城位于黄浦西藏南路靠近老西门"},{"poiid":"B2094655D26CA4F8479A","title":"三瑞里","lon":"121.48154","lat":"31.218157","category":"47","category_name":"住宅区","address":"复兴中路73弄1-5号"},{"poiid":"B2094757D16AA3FD4592","title":"Apple Shop(来福士店)","lon":"121.48304729","lat":"31.220340581","category":"500","category_name":"未知分类","address":"上海西藏中路268号5楼"},{"poiid":"B2094757D16BA5F84293","title":"马克西姆","lon":"121.481333338","lat":"31.2188745581","category":"500","category_name":"未知分类","address":"上海黄浦区浙江中路229号百米香榭商业街222室"},{"poiid":"B2094757D16CABFC409D","title":"18路老西门站","lon":"121.482976","lat":"31.218243","category":"500","category_name":"未知分类","address":"上海西藏南路复兴中路"},{"poiid":"B2094757D16BA0FD4492","title":"生活大师","lon":"121.483644738","lat":"31.2197900776","category":"500","category_name":"未知分类","address":"黄浦区西藏南路1433弄5号楼附近(近西凌家宅路)"},{"poiid":"B209475DD36BABFD449F","title":"赵小姐不等位","lon":"121.482887","lat":"31.221059","category":"500","category_name":"未知分类","address":"上海市 上海市卢湾区太仓路79号"},{"poiid":"B2094757D06BA1F9489F","title":"国美电器(西藏南路店)","lon":"121.482986","lat":"31.217944","category":"138","category_name":"家电电子卖场","address":"黄浦区西藏南路518-528号(复兴东路复兴中路)"},{"poiid":"B2094654DA6EA7FE4298","title":"上海利民机电制冷设备工程技术有限公司","lon":"121.48255","lat":"31.21844","category":"263","category_name":"公司","address":"复兴中路1号申能国际大厦9层901-902"},{"poiid":"B209475DD06FABF8409C","title":"梧桐疯","lon":"121.481361","lat":"31.219987","category":"248","category_name":"生活娱乐","address":"上海市 上海市黄浦区太仓路70号"},{"poiid":"B2094757D66EA4FE4893","title":"振华重工","lon":"121.481708","lat":"31.218383","category":"500","category_name":"未知分类","address":"上海长兴岛"},{"poiid":"B2094654DA6EA7FE469D","title":"上海液化天然气有限责任公司","lon":"121.48256","lat":"31.21843","category":"263","category_name":"公司","address":"复兴中路1号申能国际大厦16层1604、17层"},{"poiid":"B2094654DB65A5FB4092","title":"星程长钰酒店","lon":"121.48409","lat":"31.21958","category":"214","category_name":"四星级宾馆","address":"上海市复兴东路1117号"},{"poiid":"B209475CD769ABF5489D","title":"上海环贸广场","lon":"121.481025","lat":"31.220426","category":"500","category_name":"未知分类","address":"上海市 上海环贸广场"},{"poiid":"B2094757D164A0F94698","title":"franc franc(梅龙镇店)","lon":"121.483675738","lat":"31.2196940756","category":"500","category_name":"未知分类","address":"上海梅龙镇广场6楼"},{"poiid":"B2094654DA6EA7F84592","title":"法藏讲寺(1号门)","lon":"121.48149","lat":"31.21767","category":"679","category_name":"楼宇机构","address":"吉安路293弄2-10号"},{"poiid":"B2094654DA6EA5FC439F","title":"中国工商银行上海市老西门支行","lon":"121.48416","lat":"31.2197","category":"150","category_name":"银行","address":"黄浦区复兴东路1111号近中华路(方斜路复兴东路)"},{"poiid":"B2094757D165A3F8429F","title":"鼎茶(方斜店)","lon":"121.484070738","lat":"31.2202470874","category":"247","category_name":"餐饮美食","address":"上海黄浦区方斜路10号(近老西门)"},{"poiid":"B2094655D265ABF8489C","title":"恒安坊","lon":"121.48259","lat":"31.22101","category":"47","category_name":"住宅区","address":"方浜西路61弄3-5号、63弄1-59号"},{"poiid":"B2094654DA6EA5FC419E","title":"黄浦众鑫城(西门)","lon":"121.48242","lat":"31.22009","category":"656","category_name":"大门","address":"西藏南路555弄"},{"poiid":"B2094655D26FAAF5479B","title":"黄浦区红十字老年护理医院","lon":"121.48498","lat":"31.21949","category":"162","category_name":"医院","address":"中华路1495"},{"poiid":"B2094655D36CA6F84992","title":"方斜路老西门","lon":"121.48372","lat":"31.21765","category":"38","category_name":"公交车站","address":""},{"poiid":"B2094757D06AA5FC4393","title":"专剪坊-光头理发店","lon":"121.48009491","lat":"31.2201137543","category":"148","category_name":"美容美发店","address":"上海嵩山路115号"},{"poiid":"B2094655D36CA6FF429C","title":"复兴东路中华路","lon":"121.48464","lat":"31.21963","category":"38","category_name":"公交车站","address":""},{"poiid":"B2094654DA6EA6F54792","title":"华美国际酒店商务楼","lon":"121.48176","lat":"31.22185","category":"46","category_name":"楼宇","address":"西藏南路381号"},{"poiid":"B2094655D265A0FF4892","title":"智趣桌游吧","lon":"121.4827","lat":"31.21806","category":"173","category_name":"游戏厅","address":"东台路277号国际广场B座2406室(近肇周路)"},{"poiid":"B2094654DA6EABF44699","title":"来伊份No.229","lon":"121.48171","lat":"31.22043","category":"248","category_name":"生活娱乐","address":"西藏南路384"},{"poiid":"B2094757D168A6F9479A","title":"玩乐空间桌游吧(大学路店)","lon":"121.48343173","lat":"31.218403048","category":"500","category_name":"未知分类","address":"上海大学路259号601室"},{"poiid":"B2094757D164A2FA479E","title":"寿宁路6号","lon":"121.48107333","lat":"31.220904101","category":"500","category_name":"未知分类","address":"上海香巴岛。。从好位子换到了坏位子。。坑爹。。。"},{"poiid":"B2094757D165A0F54492","title":"大德堂","lon":"121.481107662","lat":"31.220234557","category":"500","category_name":"未知分类","address":"卢湾区东台路85号(近自忠路)"},{"poiid":"B2094654DA6EA5FC449F","title":"豫园街道社区卫生服务中心","lon":"121.48484","lat":"31.21977","category":"162","category_name":"医院","address":"黄浦区中华路1525号(近复兴中路)"},{"poiid":"B2094654DA6EABF44293","title":"好德No.199","lon":"121.48021","lat":"31.22017","category":"117","category_name":"便民商店/便利店","address":"自忠路74-78"},{"poiid":"B2094654DA6EABF44498","title":"STAR SALON zhang shi xin工作室","lon":"121.48046","lat":"31.22006","category":"148","category_name":"美容美发店","address":"自忠路61"},{"poiid":"B209475CD664A4F5469E","title":"新天地","lon":"121.483657","lat":"31.217962","category":"500","category_name":"未知分类","address":"上海市 马当路"},{"poiid":"B2094654DA6EA7F8459C","title":"法藏讲寺(2号门)","lon":"121.48151","lat":"31.21803","category":"679","category_name":"楼宇机构","address":"吉安路271"},{"poiid":"B2094654DB6AA2F5479B","title":"上海前进因私出入境服务有限公司","lon":"121.48274","lat":"31.21808","category":"263","category_name":"公司","address":"上海市黄浦区复兴中路1号1301室"},{"poiid":"B2094654DA6EA5FC4393","title":"繁莹羽绒服(方斜路)","lon":"121.48403","lat":"31.22014","category":"141","category_name":"服装鞋帽皮具店","address":""},{"poiid":"B2094757D66FA2FF4199","title":"吉安路自忠路","lon":"121.47998873","lat":"31.21946207","category":"500","category_name":"未知分类","address":"上海吉安路自忠路126弄号"},{"poiid":"B2094757D66DAAFE479C","title":"良渚文化村","lon":"121.48286573","lat":"31.220787098","category":"500","category_name":"未知分类","address":"上海杭州市余杭区良渚"},{"poiid":"B2094655D269ABF9469C","title":"西藏路花鸟市场","lon":"121.48183","lat":"31.22172","category":"247","category_name":"餐饮美食","address":"黄浦区西藏南路405号(近东台路)"},{"poiid":"B2094757D064A0F4479F","title":"SONY 上海","lon":"121.48040635","lat":"31.21929505","category":"500","category_name":"未知分类","address":"上海新天地企業天地8樓"},{"poiid":"B2094654DB6BA4FA499A","title":"良友金伴自忠路店","lon":"121.47985","lat":"31.21979","category":"117","category_name":"便民商店/便利店","address":"自忠路87"},{"poiid":"B2094654DB6BA4FA499B","title":"好再来河南牛肉拉面","lon":"121.48007","lat":"31.22043","category":"257","category_name":"中餐厅","address":"卢湾区吉安路35号(人工湖对面)"},{"poiid":"B2094654DB6BA4FA4799","title":"福源里(自忠路)","lon":"121.48047","lat":"31.22056","category":"47","category_name":"住宅区","address":"自忠路60弄1-46号"},{"poiid":"B2094757D06BA4F84298","title":"自忠路東臺路","lon":"121.480342","lat":"31.220158","category":"500","category_name":"未知分类","address":"上海自忠路東臺路"},{"poiid":"B2094654DA6EA7F84899","title":"宝燕指甲护理","lon":"121.48238","lat":"31.21747","category":"148","category_name":"美容美发店","address":""},{"poiid":"B2094757D064A6FF479F","title":"中国邮政储蓄银行(老西门支行)","lon":"121.484396278","lat":"31.2193464482","category":"150","category_name":"银行","address":"上海复兴东路1131号"},{"poiid":"B2094655D36CA0FB459D","title":"吉安路","lon":"121.48228","lat":"31.21687","category":"38","category_name":"公交车站","address":""},{"poiid":"B2094757D169A5FE4798","title":"保时捷专卖店（淮海中路店）","lon":"121.48023273","lat":"31.220034707","category":"500","category_name":"未知分类","address":"上海淮海中路177-191号"},{"poiid":"B2094654DB6BA4F84899","title":"快客No.1195","lon":"121.48303","lat":"31.22151","category":"117","category_name":"便民商店/便利店","address":""},{"poiid":"B2094757D16CA6FE449C","title":"外滩中心5楼德勤学院","lon":"121.48070141","lat":"31.218089681","category":"500","category_name":"未知分类","address":"上海延安东路222号5楼"},{"poiid":"B2094655D26FA5FF439E","title":"明月坊","lon":"121.48269","lat":"31.221506","category":"47","category_name":"住宅区","address":"方浜西路48弄1-5号"},{"poiid":"B2094655D26EABFC409E","title":"海国酒家","lon":"121.48520333007","lat":"31.219041314901","category":"257","category_name":"中餐厅","address":"中华路1616号"},{"poiid":"B2094654DA6EA7F8439D","title":"兰州拉面(吉安路)","lon":"121.48169","lat":"31.2168","category":"257","category_name":"中餐厅","address":"黄浦区肇周路114弄1号(近易买得)"},{"poiid":"B2094753DB69A2F94693","title":"东方体育中心月亮湾","lon":"121.483993","lat":"31.220796","category":"500","category_name":"未知分类","address":"上海市 东方体育中心"},{"poiid":"B2094655D268A3FF4599","title":"永华(南门)","lon":"121.48292","lat":"31.22148","category":"47","category_name":"住宅区","address":"方浜西路38弄1-34号"},{"poiid":"B2094654DA6EABFB4993","title":"丁祥里","lon":"121.48024","lat":"31.22097","category":"47","category_name":"住宅区","address":"浏河口路57弄1-33号"},{"poiid":"B2094757D168A4F54899","title":"老宅里农家菜","lon":"121.479805","lat":"31.219811","category":"247","category_name":"餐饮美食","address":"上海西门路"},{"poiid":"B2094654DA6EA7FE499B","title":"旅文网吧","lon":"121.48288","lat":"31.21767","category":"176","category_name":"网吧","address":"颐尚会所3层"},{"poiid":"B2094750D66CA0F44792","title":"汶水路","lon":"121.481437","lat":"31.221202","category":"500","category_name":"未知分类","address":null},{"poiid":"B2094757D06BA6FA4799","title":"肯德基常熟店","lon":"121.48379748","lat":"31.221551265","category":"500","category_name":"未知分类","address":"上海常熟路地铁站"},{"poiid":"B2094655D268A6F54092","title":"源成里小区","lon":"121.48062","lat":"31.2177","category":"47","category_name":"住宅区","address":"复兴中路113弄1-48号"},{"poiid":"B2094655D26FABFE479A","title":"复兴中路57弄小区(东门)","lon":"121.48194","lat":"31.21837","category":"656","category_name":"大门","address":""},{"poiid":"B2094654DA6EA6F54899","title":"新乐里南街(西门)","lon":"121.48225","lat":"31.22161","category":"47","category_name":"住宅区","address":"西藏南路439弄4-17号"},{"poiid":"B2094655D264A7F84598","title":"生源里小区(东门)","lon":"121.48195","lat":"31.21837","category":"656","category_name":"大门","address":""},{"poiid":"B2094654DB6BA4FF4699","title":"志成坊(肇周路)","lon":"121.48152","lat":"31.21684","category":"47","category_name":"住宅区","address":"肇周路126弄1-34号"},{"poiid":"B2094655D265A5FF439F","title":"WINDOWS桌面游戏馆","lon":"121.48292","lat":"31.21761","category":"173","category_name":"游戏厅","address":"东台路279号国际广场A座701室"},{"poiid":"B2094753D46AA0FF4698","title":"上海滩","lon":"121.479728","lat":"31.219394","category":"500","category_name":"未知分类","address":"上海市 上海市黄陂南路333号"},{"poiid":"B2094757D065A1F84098","title":"朝日日语进修学校","lon":"121.48487854","lat":"31.219331741","category":"53","category_name":"成人教育","address":"卢湾区普安路189号曙光大厦21楼(近淮海公园)"},{"poiid":"B2094654DA6EA5FC439C","title":"中国工商银行上海市老西门支行ATM取款机","lon":"121.48419","lat":"31.21964","category":"152","category_name":"ATM","address":"复兴东路1111"},{"poiid":"B2094654DA6EA6F5499B","title":"明月坊(南门)","lon":"121.48265","lat":"31.22168","category":"47","category_name":"住宅区","address":"方浜西路48弄1-5号"},{"poiid":"B2094655D26BABF8439D","title":"洋华网吧","lon":"121.48484","lat":"31.21941","category":"176","category_name":"网吧","address":"黄浦区中华路1502号(复兴东路中华路)"},{"poiid":"B2094655D268A3FF4598","title":"永华","lon":"121.48284","lat":"31.22167","category":"47","category_name":"住宅区","address":"方浜西路38弄1-34号"},{"poiid":"B2094757D165A5FE489C","title":"Jackie's beernest","lon":"121.482717738","lat":"31.2169130163","category":"500","category_name":"未知分类","address":"上海Zhaozhou rd"},{"poiid":"B2094655D265A0F8499E","title":"生源里小区(北门)","lon":"121.4816","lat":"31.2184","category":"656","category_name":"大门","address":"复兴中路57弄1-7号"},{"poiid":"B2094655D264A4FA469E","title":"飞利浦永乐上海老西门二店","lon":"121.48338","lat":"31.21698","category":"138","category_name":"家电电子卖场","address":"西藏南路666号3层"},{"poiid":"B2094655D268A6F8429F","title":"富华里","lon":"121.48136","lat":"31.21699","category":"47","category_name":"住宅区","address":"吉安路328弄1-3号"},{"poiid":"B2094753D568A2FB479C","title":"PwC","lon":"121.479919","lat":"31.219842","category":"500","category_name":"未知分类","address":"上海市 黄浦区新天地湖滨路202号"},{"poiid":"B2094655D268A6F84299","title":"复兴中路57弄小区(北门)","lon":"121.48159","lat":"31.21836","category":"656","category_name":"大门","address":"复兴中路57弄1-7号"},{"poiid":"B2094757D16BABFC4798","title":"G.O.D Photo Studio","lon":"121.482804","lat":"31.217449","category":"500","category_name":"未知分类","address":"上海东台路279号国际广场A座1603室"},{"poiid":"B2094750D364A6FD499B","title":"零点研究咨询集团金融研究部","lon":"121.48321837042","lat":"31.220919124886","category":"633","category_name":"商务服务类公司","address":"中华路1600号黄埔中心"},{"poiid":"B2094655D268A6F8429E","title":"富华里(东门)","lon":"121.48156","lat":"31.21703","category":"47","category_name":"住宅区","address":"吉安路328弄1-3号"},{"poiid":"B2094655D26FABFD479A","title":"恒安坊(西门)","lon":"121.48206","lat":"31.22066","category":"656","category_name":"大门","address":""},{"poiid":"B2094654DA6EA5FC409D","title":"恒安坊(北门)","lon":"121.48271","lat":"31.2207","category":"656","category_name":"大门","address":"方浜西路63弄1-59号"},{"poiid":"B2094757D168A4F4449C","title":"華特迪士尼","lon":"121.47972106","lat":"31.219261169","category":"500","category_name":"未知分类","address":"上海新天地"},{"poiid":"B2094654DA6EA5FC439D","title":"黄浦众鑫城(后门)","lon":"121.48416","lat":"31.2199","category":"656","category_name":"大门","address":"西藏南路555弄"},{"poiid":"B2094757D66DAAFD4592","title":"i-D偶像摄影黄浦店","lon":"121.484303738","lat":"31.2177200335","category":"500","category_name":"未知分类","address":"黄浦区复兴东路1151号2楼(近西藏南路)"},{"poiid":"B2094757D16AA0F4499B","title":"彭彭滴屋屋","lon":"121.48399548","lat":"31.21756123","category":"500","category_name":"未知分类","address":"上海"},{"poiid":"B2094655D26BA4F84892","title":"黄浦中心(东门)","lon":"121.48384","lat":"31.22079","category":"656","category_name":"大门","address":"中华路1600"},{"poiid":"B2094655D26BA4FC419E","title":"沙县小吃(老西门新苑北)","lon":"121.48255","lat":"31.21716","category":"48","category_name":"楼宇大门","address":"东台路346"},{"poiid":"B2094757D56EA5F44198","title":"COCO","lon":"121.483371","lat":"31.2169870000002","category":"263","category_name":"公司","address":"西藏南路666"},{"poiid":"B2094655D268A6F5409D","title":"源成里小区(北门)","lon":"121.48052","lat":"31.218","category":"656","category_name":"大门","address":"复兴中路113弄1-48号"}]