[{"poiid":"B2094655D26AAAF44499","title":"红子鸡(澳门路店)","lon":"121.44482","lat":"31.2471","category":"72","category_name":"广东菜","address":"普陀区澳门路188号(近昌化路)"},{"poiid":"B2094655D26AABFD4092","title":"M50创意园(莫干山路)","lon":"121.44866","lat":"31.24753","category":"247","category_name":"餐饮美食","address":"普陀区莫干山路50号M50创意园区内(近澳门路)"},{"poiid":"B2094757D06FA5FC469F","title":"苏州河梦清园环保主题公园","lon":"121.44088","lat":"31.25094","category":"196","category_name":"公园","address":"普陀区宜昌路66号(近江宁路)"},{"poiid":"B209475CD564A7F8439E","title":"上海滩中信泰富店","lon":"121.45602","lat":"31.22851","category":"119","category_name":"商场","address":"\"南京西路1168号中信泰富广场，店铺号221.\r\n\""},{"poiid":"B2094750D76EABFA419A","title":"星巴克(中潭路店)","lon":"121.443","lat":"31.2524","category":"260","category_name":"其他","address":"普陀区中潭路71号(近远景路)"},{"poiid":"B2094757D068A5FF4093","title":"莫干山路涂鸦墙","lon":"121.44355495","lat":"31.249478668","category":"500","category_name":"未知分类","address":"上海市普陀区莫干山路"},{"poiid":"B2094757D06AABF4469C","title":"江宁路澳门路","lon":"121.44116074","lat":"31.246652676","category":"250","category_name":"公园户外","address":"上海市普陀区江宁路澳门路"},{"poiid":"B2094757D06FA0FF4892","title":"月星家居(澳门路店)","lon":"121.44511","lat":"31.24682","category":"123","category_name":"家具建材市场","address":"普陀区澳门路168号(近昌化路)"},{"poiid":"B2094757D06FA4FD409E","title":"一兆韦德(中远两湾城店)","lon":"121.44843","lat":"31.25147","category":"221","category_name":"健身中心","address":"普陀区远景路97弄中远两湾城23号(近上海火车站)"},{"poiid":"B2094757D06FA4FE479B","title":"东方罗玛经典浴场","lon":"121.44088","lat":"31.24721","category":"149","category_name":"洗浴推拿场所","address":"普陀区江宁路1420号(澳门路口)"},{"poiid":"B2094655D26FA1F44598","title":"中远两湾城西门","lon":"121.44387","lat":"31.25119","category":"48","category_name":"楼宇大门","address":"中潭路100弄176"},{"poiid":"B2094757D06FAAFD4793","title":"古都日式料理","lon":"121.442442742","lat":"31.246909673","category":"247","category_name":"餐饮美食","address":"澳门路339号(近江宁路)"},{"poiid":"B2094757D068A4F84899","title":"大马头香港美食","lon":"121.443324","lat":"31.251285","category":"72","category_name":"广东菜","address":"普陀区中潭路49号(近中远两湾城)"},{"poiid":"B2094757D56CA2F5469E","title":"一号码头 Mimosa Supperclub","lon":"121.44170211433","lat":"31.249054090883","category":"247","category_name":"餐饮美食","address":"宜昌路88号近江宁路和昌化路之间"},{"poiid":"B2094757D068AAFC4798","title":"夏面馆(澳门路店)","lon":"121.44184","lat":"31.24639","category":"68","category_name":"快餐厅","address":"普陀区澳门路337号(近江宁路)"},{"poiid":"B2094654DA6CA5FC4293","title":"富丽大厦","lon":"121.448","lat":"31.2526","category":"46","category_name":"楼宇","address":"上海市普陀区江宁路1286号或江宁路1306弄"},{"poiid":"B2094654DB69A6FA409A","title":"中远两湾城四期(璀璨天成)","lon":"121.44374","lat":"31.24952","category":"47","category_name":"住宅区","address":"普陀区中潭路41号"},{"poiid":"B2094654D565AAFB4699","title":"宝华大厦","lon":"121.445","lat":"31.2455","category":"46","category_name":"楼宇","address":"上海市普陀区常德路1217号"},{"poiid":"B2094757D069A0FF469D","title":"浅水湾恺悦名城","lon":"121.44122259","lat":"31.248589515","category":"47","category_name":"住宅区","address":"上海普陀区澳门路330弄"},{"poiid":"B2094757D068A7F94198","title":"世纪商务大厦","lon":"121.45","lat":"31.2495","category":"46","category_name":"楼宇","address":"上海市普陀区长寿路97号"},{"poiid":"B2094654DA6CA6F9469E","title":"河滨围城","lon":"121.44302","lat":"31.247782","category":"47","category_name":"住宅区","address":"上海市普陀区澳门路249号"},{"poiid":"B2094655D26EA5F94399","title":"六角形法国西餐厅 Douce France","lon":"121.44140859447","lat":"31.253440032532","category":"247","category_name":"餐饮美食","address":"中远两湾城100弄54号中潭路"},{"poiid":"B2094654D465A7FA419A","title":"小金捞上汤火锅料理","lon":"121.44468436778","lat":"31.247049753008","category":"86","category_name":"火锅店","address":"普陀区昌化路1200号(近莫干山路)"},{"poiid":"B2094757D16CA7F54999","title":"闸北区民政局(婚姻登记处)","lon":"121.446137766","lat":"31.2447066643","category":"263","category_name":"公司","address":"上海秣陵路80号3楼"},{"poiid":"B2094654DA6CA6FB4392","title":"中环商务大厦","lon":"121.443","lat":"31.2464","category":"46","category_name":"楼宇","address":"上海长寿路468号"},{"poiid":"B2094757D064ABF4489D","title":"秋水云庐","lon":"121.44679758","lat":"31.245626732","category":"47","category_name":"住宅区","address":"上海市普陀区长寿路28弄"},{"poiid":"B2094655D26EA3FC4192","title":"圣骊澳门苑","lon":"121.44803","lat":"31.24791","category":"47","category_name":"住宅区","address":"上海市普陀区澳门路58弄"},{"poiid":"B2094757D068A7FF499A","title":"百嘉盛大酒店","lon":"121.44230813","lat":"31.245816833","category":"260","category_name":"其他","address":"上海普陀区江宁路1286号(普陀路口)"},{"poiid":"B2094654DB6AA2F94199","title":"科维大厦","lon":"121.446","lat":"31.2486","category":"46","category_name":"楼宇","address":"丰台学城海鹰路1号,3号"},{"poiid":"B2094654DB69AAF4419E","title":"两岸咖啡 中潭店","lon":"121.443570054","lat":"31.248886793","category":"247","category_name":"餐饮美食","address":"普陀区中潭路100弄中远两湾城内(近宜昌路)"},{"poiid":"B2094655D26AABFA499A","title":"M50艺术产业园","lon":"121.44866","lat":"31.24753","category":"248","category_name":"生活娱乐","address":"普陀区莫干山路50号"},{"poiid":"B2094750D664A1F8489B","title":"外婆小菜","lon":"121.444","lat":"31.2516","category":"76","category_name":"上海菜","address":"普陀区中潭路"},{"poiid":"B2094757D66DA3F4439C","title":"东方罗马","lon":"121.441131586","lat":"31.2477197733","category":"500","category_name":"未知分类","address":"上海市普陀区光复西路"},{"poiid":"B2094757D16CABF4409C","title":"段氏姐妹","lon":"121.441385586","lat":"31.2466607526","category":"500","category_name":"未知分类","address":"上海市陕西北路1306号"},{"poiid":"B2094655D26FA3FA409B","title":"长寿商业广场","lon":"121.449","lat":"31.2481","category":"46","category_name":"楼宇","address":"长寿路181弄3"},{"poiid":"B2094757D568A7FC4292","title":"罐子书屋罐子茶馆","lon":"121.4487381","lat":"31.24756806","category":"66","category_name":"茶艺馆","address":"普陀区莫干山路50号M50创意园区3号楼105-2室(近澳门路)"},{"poiid":"B2094654DB65A6F4459B","title":"圣天地商务楼","lon":"121.45","lat":"31.25","category":"46","category_name":"楼宇","address":"江宁路1165号"},{"poiid":"B2094757D46BA5FD4399","title":"村夫烤鱼 澳门路店","lon":"121.44433","lat":"31.24693","category":"269","category_name":"烧烤","address":"普陀区昌化路1019号(近澳门路)"},{"poiid":"B2094757D068A4F44499","title":"九百家居","lon":"121.443925","lat":"31.250295","category":"123","category_name":"家具建材市场","address":"宝山区沪太路1618号(新沪路口)"},{"poiid":"B2094757D66EA6F54999","title":"雪峰牛肉面馆","lon":"121.44468675","lat":"31.249893276","category":"247","category_name":"餐饮美食","address":"上海中潭路100弄338号"},{"poiid":"B2094750DB6AA2FD499F","title":"上海M50创意园区","lon":"121.448632","lat":"31.247654","category":"45","category_name":"产业园区","address":"普陀区莫干山路50号"},{"poiid":"B2094757D16BA5FD419D","title":"莫干山路","lon":"121.45006565","lat":"31.2509608964","category":"500","category_name":"未知分类","address":"上海莫干山路"},{"poiid":"B2094655D36CA5FA4292","title":"昌化路澳门路","lon":"121.44422","lat":"31.2479","category":"38","category_name":"公交车站","address":""},{"poiid":"B2094654D465A6FC4199","title":"浅水湾养生会馆","lon":"121.44281","lat":"31.25205","category":"149","category_name":"洗浴推拿场所","address":"普陀区中潭路(清水湾路中潭路)"},{"poiid":"B2094654DA6CA6F44593","title":"澳门大厦","lon":"121.443","lat":"31.2502","category":"46","category_name":"楼宇","address":"西康路1391号"},{"poiid":"B2094654DA6CA5FC429C","title":"三维大厦","lon":"121.448","lat":"31.2533","category":"46","category_name":"楼宇","address":"卢湾区局门路427号(邮编:200023)"},{"poiid":"B2094757D66AA4F84293","title":"广和酒家","lon":"121.44440925838","lat":"31.247162442618","category":"68","category_name":"快餐厅","address":"普陀区昌化路984号(昌化路普陀路)"},{"poiid":"B2094750DA69A7F54298","title":"星巴克中远两湾城","lon":"121.443061","lat":"31.252006","category":"247","category_name":"餐饮美食","address":"中潭路71号"},{"poiid":"B2094757D164A5FD499D","title":"泰极大厦","lon":"121.445","lat":"31.2487","category":"252","category_name":"楼宇机构","address":"上海普陀区西康路1249弄33号(长寿公园对面)"},{"poiid":"B2094757D065A5FB489B","title":"纺织博物馆","lon":"121.44565","lat":"31.24669","category":"500","category_name":"未知分类","address":"普陀区澳门路150号(澳门路昌化路)"},{"poiid":"B2094655D26AAAF44499","title":"红子鸡(澳门路店)","lon":"121.44482","lat":"31.2471","category":"72","category_name":"广东菜","address":"普陀区澳门路188号(近昌化路)"},{"poiid":"B2094655D26AABFD4092","title":"M50创意园(莫干山路)","lon":"121.44866","lat":"31.24753","category":"247","category_name":"餐饮美食","address":"普陀区莫干山路50号M50创意园区内(近澳门路)"},{"poiid":"B2094757D06FA5FC469F","title":"苏州河梦清园环保主题公园","lon":"121.44088","lat":"31.25094","category":"196","category_name":"公园","address":"普陀区宜昌路66号(近江宁路)"},{"poiid":"B209475CD564A7F8439E","title":"上海滩中信泰富店","lon":"121.45602","lat":"31.22851","category":"119","category_name":"商场","address":"\"南京西路1168号中信泰富广场，店铺号221.\r\n\""},{"poiid":"B2094750D76EABFA419A","title":"星巴克(中潭路店)","lon":"121.443","lat":"31.2524","category":"260","category_name":"其他","address":"普陀区中潭路71号(近远景路)"},{"poiid":"B2094757D068A5FF4093","title":"莫干山路涂鸦墙","lon":"121.44355495","lat":"31.249478668","category":"500","category_name":"未知分类","address":"上海市普陀区莫干山路"},{"poiid":"B2094757D06AABF4469C","title":"江宁路澳门路","lon":"121.44116074","lat":"31.246652676","category":"250","category_name":"公园户外","address":"上海市普陀区江宁路澳门路"},{"poiid":"B2094757D06FA0FF4892","title":"月星家居(澳门路店)","lon":"121.44511","lat":"31.24682","category":"123","category_name":"家具建材市场","address":"普陀区澳门路168号(近昌化路)"},{"poiid":"B2094757D06FA4FD409E","title":"一兆韦德(中远两湾城店)","lon":"121.44843","lat":"31.25147","category":"221","category_name":"健身中心","address":"普陀区远景路97弄中远两湾城23号(近上海火车站)"},{"poiid":"B2094757D06FA4FE479B","title":"东方罗玛经典浴场","lon":"121.44088","lat":"31.24721","category":"149","category_name":"洗浴推拿场所","address":"普陀区江宁路1420号(澳门路口)"},{"poiid":"B2094655D26FA1F44598","title":"中远两湾城西门","lon":"121.44387","lat":"31.25119","category":"48","category_name":"楼宇大门","address":"中潭路100弄176"},{"poiid":"B2094757D06FAAFD4793","title":"古都日式料理","lon":"121.442442742","lat":"31.246909673","category":"247","category_name":"餐饮美食","address":"澳门路339号(近江宁路)"},{"poiid":"B2094757D068A4F84899","title":"大马头香港美食","lon":"121.443324","lat":"31.251285","category":"72","category_name":"广东菜","address":"普陀区中潭路49号(近中远两湾城)"},{"poiid":"B2094757D56CA2F5469E","title":"一号码头 Mimosa Supperclub","lon":"121.44170211433","lat":"31.249054090883","category":"247","category_name":"餐饮美食","address":"宜昌路88号近江宁路和昌化路之间"},{"poiid":"B2094757D068AAFC4798","title":"夏面馆(澳门路店)","lon":"121.44184","lat":"31.24639","category":"68","category_name":"快餐厅","address":"普陀区澳门路337号(近江宁路)"},{"poiid":"B2094654DA6CA5FC4293","title":"富丽大厦","lon":"121.448","lat":"31.2526","category":"46","category_name":"楼宇","address":"上海市普陀区江宁路1286号或江宁路1306弄"},{"poiid":"B2094654DB69A6FA409A","title":"中远两湾城四期(璀璨天成)","lon":"121.44374","lat":"31.24952","category":"47","category_name":"住宅区","address":"普陀区中潭路41号"},{"poiid":"B2094654D565AAFB4699","title":"宝华大厦","lon":"121.445","lat":"31.2455","category":"46","category_name":"楼宇","address":"上海市普陀区常德路1217号"},{"poiid":"B2094757D069A0FF469D","title":"浅水湾恺悦名城","lon":"121.44122259","lat":"31.248589515","category":"47","category_name":"住宅区","address":"上海普陀区澳门路330弄"},{"poiid":"B2094757D068A7F94198","title":"世纪商务大厦","lon":"121.45","lat":"31.2495","category":"46","category_name":"楼宇","address":"上海市普陀区长寿路97号"},{"poiid":"B2094654DA6CA6F9469E","title":"河滨围城","lon":"121.44302","lat":"31.247782","category":"47","category_name":"住宅区","address":"上海市普陀区澳门路249号"},{"poiid":"B2094655D26EA5F94399","title":"六角形法国西餐厅 Douce France","lon":"121.44140859447","lat":"31.253440032532","category":"247","category_name":"餐饮美食","address":"中远两湾城100弄54号中潭路"},{"poiid":"B2094654D465A7FA419A","title":"小金捞上汤火锅料理","lon":"121.44468436778","lat":"31.247049753008","category":"86","category_name":"火锅店","address":"普陀区昌化路1200号(近莫干山路)"},{"poiid":"B2094757D16CA7F54999","title":"闸北区民政局(婚姻登记处)","lon":"121.446137766","lat":"31.2447066643","category":"263","category_name":"公司","address":"上海秣陵路80号3楼"},{"poiid":"B2094654DA6CA6FB4392","title":"中环商务大厦","lon":"121.443","lat":"31.2464","category":"46","category_name":"楼宇","address":"上海长寿路468号"},{"poiid":"B2094757D064ABF4489D","title":"秋水云庐","lon":"121.44679758","lat":"31.245626732","category":"47","category_name":"住宅区","address":"上海市普陀区长寿路28弄"},{"poiid":"B2094655D26EA3FC4192","title":"圣骊澳门苑","lon":"121.44803","lat":"31.24791","category":"47","category_name":"住宅区","address":"上海市普陀区澳门路58弄"},{"poiid":"B2094757D068A7FF499A","title":"百嘉盛大酒店","lon":"121.44230813","lat":"31.245816833","category":"260","category_name":"其他","address":"上海普陀区江宁路1286号(普陀路口)"},{"poiid":"B2094654DB6AA2F94199","title":"科维大厦","lon":"121.446","lat":"31.2486","category":"46","category_name":"楼宇","address":"丰台学城海鹰路1号,3号"},{"poiid":"B2094654DB69AAF4419E","title":"两岸咖啡 中潭店","lon":"121.443570054","lat":"31.248886793","category":"247","category_name":"餐饮美食","address":"普陀区中潭路100弄中远两湾城内(近宜昌路)"},{"poiid":"B2094655D26AABFA499A","title":"M50艺术产业园","lon":"121.44866","lat":"31.24753","category":"248","category_name":"生活娱乐","address":"普陀区莫干山路50号"},{"poiid":"B2094750D664A1F8489B","title":"外婆小菜","lon":"121.444","lat":"31.2516","category":"76","category_name":"上海菜","address":"普陀区中潭路"},{"poiid":"B2094757D66DA3F4439C","title":"东方罗马","lon":"121.441131586","lat":"31.2477197733","category":"500","category_name":"未知分类","address":"上海市普陀区光复西路"},{"poiid":"B2094757D16CABF4409C","title":"段氏姐妹","lon":"121.441385586","lat":"31.2466607526","category":"500","category_name":"未知分类","address":"上海市陕西北路1306号"},{"poiid":"B2094655D26FA3FA409B","title":"长寿商业广场","lon":"121.449","lat":"31.2481","category":"46","category_name":"楼宇","address":"长寿路181弄3"},{"poiid":"B2094757D568A7FC4292","title":"罐子书屋罐子茶馆","lon":"121.4487381","lat":"31.24756806","category":"66","category_name":"茶艺馆","address":"普陀区莫干山路50号M50创意园区3号楼105-2室(近澳门路)"},{"poiid":"B2094654DB65A6F4459B","title":"圣天地商务楼","lon":"121.45","lat":"31.25","category":"46","category_name":"楼宇","address":"江宁路1165号"},{"poiid":"B2094757D46BA5FD4399","title":"村夫烤鱼 澳门路店","lon":"121.44433","lat":"31.24693","category":"269","category_name":"烧烤","address":"普陀区昌化路1019号(近澳门路)"},{"poiid":"B2094757D068A4F44499","title":"九百家居","lon":"121.443925","lat":"31.250295","category":"123","category_name":"家具建材市场","address":"宝山区沪太路1618号(新沪路口)"},{"poiid":"B2094757D66EA6F54999","title":"雪峰牛肉面馆","lon":"121.44468675","lat":"31.249893276","category":"247","category_name":"餐饮美食","address":"上海中潭路100弄338号"},{"poiid":"B2094750DB6AA2FD499F","title":"上海M50创意园区","lon":"121.448632","lat":"31.247654","category":"45","category_name":"产业园区","address":"普陀区莫干山路50号"},{"poiid":"B2094757D16BA5FD419D","title":"莫干山路","lon":"121.45006565","lat":"31.2509608964","category":"500","category_name":"未知分类","address":"上海莫干山路"},{"poiid":"B2094655D36CA5FA4292","title":"昌化路澳门路","lon":"121.44422","lat":"31.2479","category":"38","category_name":"公交车站","address":""},{"poiid":"B2094654D465A6FC4199","title":"浅水湾养生会馆","lon":"121.44281","lat":"31.25205","category":"149","category_name":"洗浴推拿场所","address":"普陀区中潭路(清水湾路中潭路)"},{"poiid":"B2094654DA6CA6F44593","title":"澳门大厦","lon":"121.443","lat":"31.2502","category":"46","category_name":"楼宇","address":"西康路1391号"},{"poiid":"B2094654DA6CA5FC429C","title":"三维大厦","lon":"121.448","lat":"31.2533","category":"46","category_name":"楼宇","address":"卢湾区局门路427号(邮编:200023)"},{"poiid":"B2094757D66AA4F84293","title":"广和酒家","lon":"121.44440925838","lat":"31.247162442618","category":"68","category_name":"快餐厅","address":"普陀区昌化路984号(昌化路普陀路)"},{"poiid":"B2094750DA69A7F54298","title":"星巴克中远两湾城","lon":"121.443061","lat":"31.252006","category":"247","category_name":"餐饮美食","address":"中潭路71号"},{"poiid":"B2094757D164A5FD499D","title":"泰极大厦","lon":"121.445","lat":"31.2487","category":"252","category_name":"楼宇机构","address":"上海普陀区西康路1249弄33号(长寿公园对面)"},{"poiid":"B2094757D065A5FB489B","title":"纺织博物馆","lon":"121.44565","lat":"31.24669","category":"500","category_name":"未知分类","address":"普陀区澳门路150号(澳门路昌化路)"},{"poiid":"B2094655D26AAAF44499","title":"红子鸡(澳门路店)","lon":"121.44482","lat":"31.2471","category":"72","category_name":"广东菜","address":"普陀区澳门路188号(近昌化路)"},{"poiid":"B2094655D26AABFD4092","title":"M50创意园(莫干山路)","lon":"121.44866","lat":"31.24753","category":"247","category_name":"餐饮美食","address":"普陀区莫干山路50号M50创意园区内(近澳门路)"},{"poiid":"B2094757D06FA5FC469F","title":"苏州河梦清园环保主题公园","lon":"121.44088","lat":"31.25094","category":"196","category_name":"公园","address":"普陀区宜昌路66号(近江宁路)"},{"poiid":"B209475CD564A7F8439E","title":"上海滩中信泰富店","lon":"121.45602","lat":"31.22851","category":"119","category_name":"商场","address":"\"南京西路1168号中信泰富广场，店铺号221.\r\n\""},{"poiid":"B2094750D76EABFA419A","title":"星巴克(中潭路店)","lon":"121.443","lat":"31.2524","category":"260","category_name":"其他","address":"普陀区中潭路71号(近远景路)"},{"poiid":"B2094757D068A5FF4093","title":"莫干山路涂鸦墙","lon":"121.44355495","lat":"31.249478668","category":"500","category_name":"未知分类","address":"上海市普陀区莫干山路"},{"poiid":"B2094757D06AABF4469C","title":"江宁路澳门路","lon":"121.44116074","lat":"31.246652676","category":"250","category_name":"公园户外","address":"上海市普陀区江宁路澳门路"},{"poiid":"B2094757D06FA0FF4892","title":"月星家居(澳门路店)","lon":"121.44511","lat":"31.24682","category":"123","category_name":"家具建材市场","address":"普陀区澳门路168号(近昌化路)"},{"poiid":"B2094757D06FA4FD409E","title":"一兆韦德(中远两湾城店)","lon":"121.44843","lat":"31.25147","category":"221","category_name":"健身中心","address":"普陀区远景路97弄中远两湾城23号(近上海火车站)"},{"poiid":"B2094757D06FA4FE479B","title":"东方罗玛经典浴场","lon":"121.44088","lat":"31.24721","category":"149","category_name":"洗浴推拿场所","address":"普陀区江宁路1420号(澳门路口)"},{"poiid":"B2094655D26FA1F44598","title":"中远两湾城西门","lon":"121.44387","lat":"31.25119","category":"48","category_name":"楼宇大门","address":"中潭路100弄176"},{"poiid":"B2094757D06FAAFD4793","title":"古都日式料理","lon":"121.442442742","lat":"31.246909673","category":"247","category_name":"餐饮美食","address":"澳门路339号(近江宁路)"},{"poiid":"B2094757D068A4F84899","title":"大马头香港美食","lon":"121.443324","lat":"31.251285","category":"72","category_name":"广东菜","address":"普陀区中潭路49号(近中远两湾城)"},{"poiid":"B2094757D56CA2F5469E","title":"一号码头 Mimosa Supperclub","lon":"121.44170211433","lat":"31.249054090883","category":"247","category_name":"餐饮美食","address":"宜昌路88号近江宁路和昌化路之间"},{"poiid":"B2094757D068AAFC4798","title":"夏面馆(澳门路店)","lon":"121.44184","lat":"31.24639","category":"68","category_name":"快餐厅","address":"普陀区澳门路337号(近江宁路)"},{"poiid":"B2094654DA6CA5FC4293","title":"富丽大厦","lon":"121.448","lat":"31.2526","category":"46","category_name":"楼宇","address":"上海市普陀区江宁路1286号或江宁路1306弄"},{"poiid":"B2094654DB69A6FA409A","title":"中远两湾城四期(璀璨天成)","lon":"121.44374","lat":"31.24952","category":"47","category_name":"住宅区","address":"普陀区中潭路41号"},{"poiid":"B2094654D565AAFB4699","title":"宝华大厦","lon":"121.445","lat":"31.2455","category":"46","category_name":"楼宇","address":"上海市普陀区常德路1217号"},{"poiid":"B2094757D069A0FF469D","title":"浅水湾恺悦名城","lon":"121.44122259","lat":"31.248589515","category":"47","category_name":"住宅区","address":"上海普陀区澳门路330弄"},{"poiid":"B2094757D068A7F94198","title":"世纪商务大厦","lon":"121.45","lat":"31.2495","category":"46","category_name":"楼宇","address":"上海市普陀区长寿路97号"},{"poiid":"B2094654DA6CA6F9469E","title":"河滨围城","lon":"121.44302","lat":"31.247782","category":"47","category_name":"住宅区","address":"上海市普陀区澳门路249号"},{"poiid":"B2094655D26EA5F94399","title":"六角形法国西餐厅 Douce France","lon":"121.44140859447","lat":"31.253440032532","category":"247","category_name":"餐饮美食","address":"中远两湾城100弄54号中潭路"},{"poiid":"B2094654D465A7FA419A","title":"小金捞上汤火锅料理","lon":"121.44468436778","lat":"31.247049753008","category":"86","category_name":"火锅店","address":"普陀区昌化路1200号(近莫干山路)"},{"poiid":"B2094757D16CA7F54999","title":"闸北区民政局(婚姻登记处)","lon":"121.446137766","lat":"31.2447066643","category":"263","category_name":"公司","address":"上海秣陵路80号3楼"},{"poiid":"B2094654DA6CA6FB4392","title":"中环商务大厦","lon":"121.443","lat":"31.2464","category":"46","category_name":"楼宇","address":"上海长寿路468号"},{"poiid":"B2094757D064ABF4489D","title":"秋水云庐","lon":"121.44679758","lat":"31.245626732","category":"47","category_name":"住宅区","address":"上海市普陀区长寿路28弄"},{"poiid":"B2094655D26EA3FC4192","title":"圣骊澳门苑","lon":"121.44803","lat":"31.24791","category":"47","category_name":"住宅区","address":"上海市普陀区澳门路58弄"},{"poiid":"B2094757D068A7FF499A","title":"百嘉盛大酒店","lon":"121.44230813","lat":"31.245816833","category":"260","category_name":"其他","address":"上海普陀区江宁路1286号(普陀路口)"},{"poiid":"B2094654DB6AA2F94199","title":"科维大厦","lon":"121.446","lat":"31.2486","category":"46","category_name":"楼宇","address":"丰台学城海鹰路1号,3号"},{"poiid":"B2094654DB69AAF4419E","title":"两岸咖啡 中潭店","lon":"121.443570054","lat":"31.248886793","category":"247","category_name":"餐饮美食","address":"普陀区中潭路100弄中远两湾城内(近宜昌路)"},{"poiid":"B2094655D26AABFA499A","title":"M50艺术产业园","lon":"121.44866","lat":"31.24753","category":"248","category_name":"生活娱乐","address":"普陀区莫干山路50号"},{"poiid":"B2094750D664A1F8489B","title":"外婆小菜","lon":"121.444","lat":"31.2516","category":"76","category_name":"上海菜","address":"普陀区中潭路"},{"poiid":"B2094757D66DA3F4439C","title":"东方罗马","lon":"121.441131586","lat":"31.2477197733","category":"500","category_name":"未知分类","address":"上海市普陀区光复西路"},{"poiid":"B2094757D16CABF4409C","title":"段氏姐妹","lon":"121.441385586","lat":"31.2466607526","category":"500","category_name":"未知分类","address":"上海市陕西北路1306号"},{"poiid":"B2094655D26FA3FA409B","title":"长寿商业广场","lon":"121.449","lat":"31.2481","category":"46","category_name":"楼宇","address":"长寿路181弄3"},{"poiid":"B2094757D568A7FC4292","title":"罐子书屋罐子茶馆","lon":"121.4487381","lat":"31.24756806","category":"66","category_name":"茶艺馆","address":"普陀区莫干山路50号M50创意园区3号楼105-2室(近澳门路)"},{"poiid":"B2094654DB65A6F4459B","title":"圣天地商务楼","lon":"121.45","lat":"31.25","category":"46","category_name":"楼宇","address":"江宁路1165号"},{"poiid":"B2094757D46BA5FD4399","title":"村夫烤鱼 澳门路店","lon":"121.44433","lat":"31.24693","category":"269","category_name":"烧烤","address":"普陀区昌化路1019号(近澳门路)"},{"poiid":"B2094757D068A4F44499","title":"九百家居","lon":"121.443925","lat":"31.250295","category":"123","category_name":"家具建材市场","address":"宝山区沪太路1618号(新沪路口)"},{"poiid":"B2094757D66EA6F54999","title":"雪峰牛肉面馆","lon":"121.44468675","lat":"31.249893276","category":"247","category_name":"餐饮美食","address":"上海中潭路100弄338号"},{"poiid":"B2094750DB6AA2FD499F","title":"上海M50创意园区","lon":"121.448632","lat":"31.247654","category":"45","category_name":"产业园区","address":"普陀区莫干山路50号"},{"poiid":"B2094757D16BA5FD419D","title":"莫干山路","lon":"121.45006565","lat":"31.2509608964","category":"500","category_name":"未知分类","address":"上海莫干山路"},{"poiid":"B2094655D36CA5FA4292","title":"昌化路澳门路","lon":"121.44422","lat":"31.2479","category":"38","category_name":"公交车站","address":""},{"poiid":"B2094654D465A6FC4199","title":"浅水湾养生会馆","lon":"121.44281","lat":"31.25205","category":"149","category_name":"洗浴推拿场所","address":"普陀区中潭路(清水湾路中潭路)"},{"poiid":"B2094654DA6CA6F44593","title":"澳门大厦","lon":"121.443","lat":"31.2502","category":"46","category_name":"楼宇","address":"西康路1391号"},{"poiid":"B2094654DA6CA5FC429C","title":"三维大厦","lon":"121.448","lat":"31.2533","category":"46","category_name":"楼宇","address":"卢湾区局门路427号(邮编:200023)"},{"poiid":"B2094757D66AA4F84293","title":"广和酒家","lon":"121.44440925838","lat":"31.247162442618","category":"68","category_name":"快餐厅","address":"普陀区昌化路984号(昌化路普陀路)"},{"poiid":"B2094750DA69A7F54298","title":"星巴克中远两湾城","lon":"121.443061","lat":"31.252006","category":"247","category_name":"餐饮美食","address":"中潭路71号"},{"poiid":"B2094757D164A5FD499D","title":"泰极大厦","lon":"121.445","lat":"31.2487","category":"252","category_name":"楼宇机构","address":"上海普陀区西康路1249弄33号(长寿公园对面)"},{"poiid":"B2094757D065A5FB489B","title":"纺织博物馆","lon":"121.44565","lat":"31.24669","category":"500","category_name":"未知分类","address":"普陀区澳门路150号(澳门路昌化路)"},{"poiid":"B2094655D26AAAF44499","title":"红子鸡(澳门路店)","lon":"121.44482","lat":"31.2471","category":"72","category_name":"广东菜","address":"普陀区澳门路188号(近昌化路)"},{"poiid":"B2094655D26AABFD4092","title":"M50创意园(莫干山路)","lon":"121.44866","lat":"31.24753","category":"247","category_name":"餐饮美食","address":"普陀区莫干山路50号M50创意园区内(近澳门路)"},{"poiid":"B2094757D06FA5FC469F","title":"苏州河梦清园环保主题公园","lon":"121.44088","lat":"31.25094","category":"196","category_name":"公园","address":"普陀区宜昌路66号(近江宁路)"},{"poiid":"B209475CD564A7F8439E","title":"上海滩中信泰富店","lon":"121.45602","lat":"31.22851","category":"119","category_name":"商场","address":"\"南京西路1168号中信泰富广场，店铺号221.\r\n\""},{"poiid":"B2094750D76EABFA419A","title":"星巴克(中潭路店)","lon":"121.443","lat":"31.2524","category":"260","category_name":"其他","address":"普陀区中潭路71号(近远景路)"},{"poiid":"B2094757D068A5FF4093","title":"莫干山路涂鸦墙","lon":"121.44355495","lat":"31.249478668","category":"500","category_name":"未知分类","address":"上海市普陀区莫干山路"},{"poiid":"B2094757D06AABF4469C","title":"江宁路澳门路","lon":"121.44116074","lat":"31.246652676","category":"250","category_name":"公园户外","address":"上海市普陀区江宁路澳门路"},{"poiid":"B2094757D06FA0FF4892","title":"月星家居(澳门路店)","lon":"121.44511","lat":"31.24682","category":"123","category_name":"家具建材市场","address":"普陀区澳门路168号(近昌化路)"},{"poiid":"B2094757D06FA4FD409E","title":"一兆韦德(中远两湾城店)","lon":"121.44843","lat":"31.25147","category":"221","category_name":"健身中心","address":"普陀区远景路97弄中远两湾城23号(近上海火车站)"},{"poiid":"B2094757D06FA4FE479B","title":"东方罗玛经典浴场","lon":"121.44088","lat":"31.24721","category":"149","category_name":"洗浴推拿场所","address":"普陀区江宁路1420号(澳门路口)"},{"poiid":"B2094655D26FA1F44598","title":"中远两湾城西门","lon":"121.44387","lat":"31.25119","category":"48","category_name":"楼宇大门","address":"中潭路100弄176"},{"poiid":"B2094757D06FAAFD4793","title":"古都日式料理","lon":"121.442442742","lat":"31.246909673","category":"247","category_name":"餐饮美食","address":"澳门路339号(近江宁路)"},{"poiid":"B2094757D068A4F84899","title":"大马头香港美食","lon":"121.443324","lat":"31.251285","category":"72","category_name":"广东菜","address":"普陀区中潭路49号(近中远两湾城)"},{"poiid":"B2094757D56CA2F5469E","title":"一号码头 Mimosa Supperclub","lon":"121.44170211433","lat":"31.249054090883","category":"247","category_name":"餐饮美食","address":"宜昌路88号近江宁路和昌化路之间"},{"poiid":"B2094757D068AAFC4798","title":"夏面馆(澳门路店)","lon":"121.44184","lat":"31.24639","category":"68","category_name":"快餐厅","address":"普陀区澳门路337号(近江宁路)"},{"poiid":"B2094654DA6CA5FC4293","title":"富丽大厦","lon":"121.448","lat":"31.2526","category":"46","category_name":"楼宇","address":"上海市普陀区江宁路1286号或江宁路1306弄"},{"poiid":"B2094654DB69A6FA409A","title":"中远两湾城四期(璀璨天成)","lon":"121.44374","lat":"31.24952","category":"47","category_name":"住宅区","address":"普陀区中潭路41号"},{"poiid":"B2094654D565AAFB4699","title":"宝华大厦","lon":"121.445","lat":"31.2455","category":"46","category_name":"楼宇","address":"上海市普陀区常德路1217号"},{"poiid":"B2094757D069A0FF469D","title":"浅水湾恺悦名城","lon":"121.44122259","lat":"31.248589515","category":"47","category_name":"住宅区","address":"上海普陀区澳门路330弄"},{"poiid":"B2094757D068A7F94198","title":"世纪商务大厦","lon":"121.45","lat":"31.2495","category":"46","category_name":"楼宇","address":"上海市普陀区长寿路97号"},{"poiid":"B2094654DA6CA6F9469E","title":"河滨围城","lon":"121.44302","lat":"31.247782","category":"47","category_name":"住宅区","address":"上海市普陀区澳门路249号"},{"poiid":"B2094655D26EA5F94399","title":"六角形法国西餐厅 Douce France","lon":"121.44140859447","lat":"31.253440032532","category":"247","category_name":"餐饮美食","address":"中远两湾城100弄54号中潭路"},{"poiid":"B2094654D465A7FA419A","title":"小金捞上汤火锅料理","lon":"121.44468436778","lat":"31.247049753008","category":"86","category_name":"火锅店","address":"普陀区昌化路1200号(近莫干山路)"},{"poiid":"B2094757D16CA7F54999","title":"闸北区民政局(婚姻登记处)","lon":"121.446137766","lat":"31.2447066643","category":"263","category_name":"公司","address":"上海秣陵路80号3楼"},{"poiid":"B2094654DA6CA6FB4392","title":"中环商务大厦","lon":"121.443","lat":"31.2464","category":"46","category_name":"楼宇","address":"上海长寿路468号"},{"poiid":"B2094757D064ABF4489D","title":"秋水云庐","lon":"121.44679758","lat":"31.245626732","category":"47","category_name":"住宅区","address":"上海市普陀区长寿路28弄"},{"poiid":"B2094655D26EA3FC4192","title":"圣骊澳门苑","lon":"121.44803","lat":"31.24791","category":"47","category_name":"住宅区","address":"上海市普陀区澳门路58弄"},{"poiid":"B2094757D068A7FF499A","title":"百嘉盛大酒店","lon":"121.44230813","lat":"31.245816833","category":"260","category_name":"其他","address":"上海普陀区江宁路1286号(普陀路口)"},{"poiid":"B2094654DB6AA2F94199","title":"科维大厦","lon":"121.446","lat":"31.2486","category":"46","category_name":"楼宇","address":"丰台学城海鹰路1号,3号"},{"poiid":"B2094654DB69AAF4419E","title":"两岸咖啡 中潭店","lon":"121.443570054","lat":"31.248886793","category":"247","category_name":"餐饮美食","address":"普陀区中潭路100弄中远两湾城内(近宜昌路)"},{"poiid":"B2094655D26AABFA499A","title":"M50艺术产业园","lon":"121.44866","lat":"31.24753","category":"248","category_name":"生活娱乐","address":"普陀区莫干山路50号"},{"poiid":"B2094750D664A1F8489B","title":"外婆小菜","lon":"121.444","lat":"31.2516","category":"76","category_name":"上海菜","address":"普陀区中潭路"},{"poiid":"B2094757D66DA3F4439C","title":"东方罗马","lon":"121.441131586","lat":"31.2477197733","category":"500","category_name":"未知分类","address":"上海市普陀区光复西路"},{"poiid":"B2094757D16CABF4409C","title":"段氏姐妹","lon":"121.441385586","lat":"31.2466607526","category":"500","category_name":"未知分类","address":"上海市陕西北路1306号"},{"poiid":"B2094655D26FA3FA409B","title":"长寿商业广场","lon":"121.449","lat":"31.2481","category":"46","category_name":"楼宇","address":"长寿路181弄3"},{"poiid":"B2094757D568A7FC4292","title":"罐子书屋罐子茶馆","lon":"121.4487381","lat":"31.24756806","category":"66","category_name":"茶艺馆","address":"普陀区莫干山路50号M50创意园区3号楼105-2室(近澳门路)"},{"poiid":"B2094654DB65A6F4459B","title":"圣天地商务楼","lon":"121.45","lat":"31.25","category":"46","category_name":"楼宇","address":"江宁路1165号"},{"poiid":"B2094757D46BA5FD4399","title":"村夫烤鱼 澳门路店","lon":"121.44433","lat":"31.24693","category":"269","category_name":"烧烤","address":"普陀区昌化路1019号(近澳门路)"},{"poiid":"B2094757D068A4F44499","title":"九百家居","lon":"121.443925","lat":"31.250295","category":"123","category_name":"家具建材市场","address":"宝山区沪太路1618号(新沪路口)"},{"poiid":"B2094757D66EA6F54999","title":"雪峰牛肉面馆","lon":"121.44468675","lat":"31.249893276","category":"247","category_name":"餐饮美食","address":"上海中潭路100弄338号"},{"poiid":"B2094750DB6AA2FD499F","title":"上海M50创意园区","lon":"121.448632","lat":"31.247654","category":"45","category_name":"产业园区","address":"普陀区莫干山路50号"},{"poiid":"B2094757D16BA5FD419D","title":"莫干山路","lon":"121.45006565","lat":"31.2509608964","category":"500","category_name":"未知分类","address":"上海莫干山路"},{"poiid":"B2094655D36CA5FA4292","title":"昌化路澳门路","lon":"121.44422","lat":"31.2479","category":"38","category_name":"公交车站","address":""},{"poiid":"B2094654D465A6FC4199","title":"浅水湾养生会馆","lon":"121.44281","lat":"31.25205","category":"149","category_name":"洗浴推拿场所","address":"普陀区中潭路(清水湾路中潭路)"},{"poiid":"B2094654DA6CA6F44593","title":"澳门大厦","lon":"121.443","lat":"31.2502","category":"46","category_name":"楼宇","address":"西康路1391号"},{"poiid":"B2094654DA6CA5FC429C","title":"三维大厦","lon":"121.448","lat":"31.2533","category":"46","category_name":"楼宇","address":"卢湾区局门路427号(邮编:200023)"},{"poiid":"B2094757D66AA4F84293","title":"广和酒家","lon":"121.44440925838","lat":"31.247162442618","category":"68","category_name":"快餐厅","address":"普陀区昌化路984号(昌化路普陀路)"},{"poiid":"B2094750DA69A7F54298","title":"星巴克中远两湾城","lon":"121.443061","lat":"31.252006","category":"247","category_name":"餐饮美食","address":"中潭路71号"},{"poiid":"B2094757D164A5FD499D","title":"泰极大厦","lon":"121.445","lat":"31.2487","category":"252","category_name":"楼宇机构","address":"上海普陀区西康路1249弄33号(长寿公园对面)"},{"poiid":"B2094757D065A5FB489B","title":"纺织博物馆","lon":"121.44565","lat":"31.24669","category":"500","category_name":"未知分类","address":"普陀区澳门路150号(澳门路昌化路)"},{"poiid":"B2094655D26AAAF44499","title":"红子鸡(澳门路店)","lon":"121.44482","lat":"31.2471","category":"72","category_name":"广东菜","address":"普陀区澳门路188号(近昌化路)"},{"poiid":"B2094655D26AABFD4092","title":"M50创意园(莫干山路)","lon":"121.44866","lat":"31.24753","category":"247","category_name":"餐饮美食","address":"普陀区莫干山路50号M50创意园区内(近澳门路)"},{"poiid":"B2094757D06FA5FC469F","title":"苏州河梦清园环保主题公园","lon":"121.44088","lat":"31.25094","category":"196","category_name":"公园","address":"普陀区宜昌路66号(近江宁路)"},{"poiid":"B209475CD564A7F8439E","title":"上海滩中信泰富店","lon":"121.45602","lat":"31.22851","category":"119","category_name":"商场","address":"\"南京西路1168号中信泰富广场，店铺号221.\r\n\""},{"poiid":"B2094750D76EABFA419A","title":"星巴克(中潭路店)","lon":"121.443","lat":"31.2524","category":"260","category_name":"其他","address":"普陀区中潭路71号(近远景路)"},{"poiid":"B2094757D068A5FF4093","title":"莫干山路涂鸦墙","lon":"121.44355495","lat":"31.249478668","category":"500","category_name":"未知分类","address":"上海市普陀区莫干山路"},{"poiid":"B2094757D06AABF4469C","title":"江宁路澳门路","lon":"121.44116074","lat":"31.246652676","category":"250","category_name":"公园户外","address":"上海市普陀区江宁路澳门路"},{"poiid":"B2094757D06FA0FF4892","title":"月星家居(澳门路店)","lon":"121.44511","lat":"31.24682","category":"123","category_name":"家具建材市场","address":"普陀区澳门路168号(近昌化路)"},{"poiid":"B2094757D06FA4FD409E","title":"一兆韦德(中远两湾城店)","lon":"121.44843","lat":"31.25147","category":"221","category_name":"健身中心","address":"普陀区远景路97弄中远两湾城23号(近上海火车站)"},{"poiid":"B2094757D06FA4FE479B","title":"东方罗玛经典浴场","lon":"121.44088","lat":"31.24721","category":"149","category_name":"洗浴推拿场所","address":"普陀区江宁路1420号(澳门路口)"},{"poiid":"B2094655D26FA1F44598","title":"中远两湾城西门","lon":"121.44387","lat":"31.25119","category":"48","category_name":"楼宇大门","address":"中潭路100弄176"},{"poiid":"B2094757D06FAAFD4793","title":"古都日式料理","lon":"121.442442742","lat":"31.246909673","category":"247","category_name":"餐饮美食","address":"澳门路339号(近江宁路)"},{"poiid":"B2094757D068A4F84899","title":"大马头香港美食","lon":"121.443324","lat":"31.251285","category":"72","category_name":"广东菜","address":"普陀区中潭路49号(近中远两湾城)"},{"poiid":"B2094757D56CA2F5469E","title":"一号码头 Mimosa Supperclub","lon":"121.44170211433","lat":"31.249054090883","category":"247","category_name":"餐饮美食","address":"宜昌路88号近江宁路和昌化路之间"},{"poiid":"B2094757D068AAFC4798","title":"夏面馆(澳门路店)","lon":"121.44184","lat":"31.24639","category":"68","category_name":"快餐厅","address":"普陀区澳门路337号(近江宁路)"},{"poiid":"B2094654DA6CA5FC4293","title":"富丽大厦","lon":"121.448","lat":"31.2526","category":"46","category_name":"楼宇","address":"上海市普陀区江宁路1286号或江宁路1306弄"},{"poiid":"B2094654DB69A6FA409A","title":"中远两湾城四期(璀璨天成)","lon":"121.44374","lat":"31.24952","category":"47","category_name":"住宅区","address":"普陀区中潭路41号"},{"poiid":"B2094654D565AAFB4699","title":"宝华大厦","lon":"121.445","lat":"31.2455","category":"46","category_name":"楼宇","address":"上海市普陀区常德路1217号"},{"poiid":"B2094757D069A0FF469D","title":"浅水湾恺悦名城","lon":"121.44122259","lat":"31.248589515","category":"47","category_name":"住宅区","address":"上海普陀区澳门路330弄"},{"poiid":"B2094757D068A7F94198","title":"世纪商务大厦","lon":"121.45","lat":"31.2495","category":"46","category_name":"楼宇","address":"上海市普陀区长寿路97号"},{"poiid":"B2094654DA6CA6F9469E","title":"河滨围城","lon":"121.44302","lat":"31.247782","category":"47","category_name":"住宅区","address":"上海市普陀区澳门路249号"},{"poiid":"B2094655D26EA5F94399","title":"六角形法国西餐厅 Douce France","lon":"121.44140859447","lat":"31.253440032532","category":"247","category_name":"餐饮美食","address":"中远两湾城100弄54号中潭路"},{"poiid":"B2094654D465A7FA419A","title":"小金捞上汤火锅料理","lon":"121.44468436778","lat":"31.247049753008","category":"86","category_name":"火锅店","address":"普陀区昌化路1200号(近莫干山路)"},{"poiid":"B2094757D16CA7F54999","title":"闸北区民政局(婚姻登记处)","lon":"121.446137766","lat":"31.2447066643","category":"263","category_name":"公司","address":"上海秣陵路80号3楼"},{"poiid":"B2094654DA6CA6FB4392","title":"中环商务大厦","lon":"121.443","lat":"31.2464","category":"46","category_name":"楼宇","address":"上海长寿路468号"},{"poiid":"B2094757D064ABF4489D","title":"秋水云庐","lon":"121.44679758","lat":"31.245626732","category":"47","category_name":"住宅区","address":"上海市普陀区长寿路28弄"},{"poiid":"B2094655D26EA3FC4192","title":"圣骊澳门苑","lon":"121.44803","lat":"31.24791","category":"47","category_name":"住宅区","address":"上海市普陀区澳门路58弄"},{"poiid":"B2094757D068A7FF499A","title":"百嘉盛大酒店","lon":"121.44230813","lat":"31.245816833","category":"260","category_name":"其他","address":"上海普陀区江宁路1286号(普陀路口)"},{"poiid":"B2094654DB6AA2F94199","title":"科维大厦","lon":"121.446","lat":"31.2486","category":"46","category_name":"楼宇","address":"丰台学城海鹰路1号,3号"},{"poiid":"B2094654DB69AAF4419E","title":"两岸咖啡 中潭店","lon":"121.443570054","lat":"31.248886793","category":"247","category_name":"餐饮美食","address":"普陀区中潭路100弄中远两湾城内(近宜昌路)"},{"poiid":"B2094655D26AABFA499A","title":"M50艺术产业园","lon":"121.44866","lat":"31.24753","category":"248","category_name":"生活娱乐","address":"普陀区莫干山路50号"},{"poiid":"B2094750D664A1F8489B","title":"外婆小菜","lon":"121.444","lat":"31.2516","category":"76","category_name":"上海菜","address":"普陀区中潭路"},{"poiid":"B2094757D66DA3F4439C","title":"东方罗马","lon":"121.441131586","lat":"31.2477197733","category":"500","category_name":"未知分类","address":"上海市普陀区光复西路"},{"poiid":"B2094757D16CABF4409C","title":"段氏姐妹","lon":"121.441385586","lat":"31.2466607526","category":"500","category_name":"未知分类","address":"上海市陕西北路1306号"},{"poiid":"B2094655D26FA3FA409B","title":"长寿商业广场","lon":"121.449","lat":"31.2481","category":"46","category_name":"楼宇","address":"长寿路181弄3"},{"poiid":"B2094757D568A7FC4292","title":"罐子书屋罐子茶馆","lon":"121.4487381","lat":"31.24756806","category":"66","category_name":"茶艺馆","address":"普陀区莫干山路50号M50创意园区3号楼105-2室(近澳门路)"},{"poiid":"B2094654DB65A6F4459B","title":"圣天地商务楼","lon":"121.45","lat":"31.25","category":"46","category_name":"楼宇","address":"江宁路1165号"},{"poiid":"B2094757D46BA5FD4399","title":"村夫烤鱼 澳门路店","lon":"121.44433","lat":"31.24693","category":"269","category_name":"烧烤","address":"普陀区昌化路1019号(近澳门路)"},{"poiid":"B2094757D068A4F44499","title":"九百家居","lon":"121.443925","lat":"31.250295","category":"123","category_name":"家具建材市场","address":"宝山区沪太路1618号(新沪路口)"},{"poiid":"B2094757D66EA6F54999","title":"雪峰牛肉面馆","lon":"121.44468675","lat":"31.249893276","category":"247","category_name":"餐饮美食","address":"上海中潭路100弄338号"},{"poiid":"B2094750DB6AA2FD499F","title":"上海M50创意园区","lon":"121.448632","lat":"31.247654","category":"45","category_name":"产业园区","address":"普陀区莫干山路50号"},{"poiid":"B2094757D16BA5FD419D","title":"莫干山路","lon":"121.45006565","lat":"31.2509608964","category":"500","category_name":"未知分类","address":"上海莫干山路"},{"poiid":"B2094655D36CA5FA4292","title":"昌化路澳门路","lon":"121.44422","lat":"31.2479","category":"38","category_name":"公交车站","address":""},{"poiid":"B2094654D465A6FC4199","title":"浅水湾养生会馆","lon":"121.44281","lat":"31.25205","category":"149","category_name":"洗浴推拿场所","address":"普陀区中潭路(清水湾路中潭路)"},{"poiid":"B2094654DA6CA6F44593","title":"澳门大厦","lon":"121.443","lat":"31.2502","category":"46","category_name":"楼宇","address":"西康路1391号"},{"poiid":"B2094654DA6CA5FC429C","title":"三维大厦","lon":"121.448","lat":"31.2533","category":"46","category_name":"楼宇","address":"卢湾区局门路427号(邮编:200023)"},{"poiid":"B2094757D66AA4F84293","title":"广和酒家","lon":"121.44440925838","lat":"31.247162442618","category":"68","category_name":"快餐厅","address":"普陀区昌化路984号(昌化路普陀路)"},{"poiid":"B2094750DA69A7F54298","title":"星巴克中远两湾城","lon":"121.443061","lat":"31.252006","category":"247","category_name":"餐饮美食","address":"中潭路71号"},{"poiid":"B2094757D164A5FD499D","title":"泰极大厦","lon":"121.445","lat":"31.2487","category":"252","category_name":"楼宇机构","address":"上海普陀区西康路1249弄33号(长寿公园对面)"},{"poiid":"B2094757D065A5FB489B","title":"纺织博物馆","lon":"121.44565","lat":"31.24669","category":"500","category_name":"未知分类","address":"普陀区澳门路150号(澳门路昌化路)"}]