[{"poiid":"B2094757D06EAAFC409E","title":"星马殿","lon":"121.47005273","lat":"31.241343487","category":"110","category_name":"其他亚洲菜","address":"闸北区西藏北路166号大悦城7楼(近曲阜路)"},{"poiid":"B2094655D36DA0FE409D","title":"新闸路地铁站","lon":"121.46668","lat":"31.23916","category":"36","category_name":"地铁站","address":""},{"poiid":"B2094757D06BA1FC4992","title":"WeeCoffee微咖","lon":"121.467156","lat":"31.239803901236","category":"65","category_name":"咖啡厅","address":"上海静安区新闸路356号102(近乌镇桥)"},{"poiid":"B2094753D76FAAFA449C","title":"上海滩国泰旗舰店","lon":"121.466011","lat":"31.216125","category":"249","category_name":"购物服务","address":"淮海中路868号"},{"poiid":"B209475CD564A7F84292","title":"上海滩新天地店","lon":"121.47463","lat":"31.22164","category":"119","category_name":"商场","address":"\"太仓路181弄新天地北里15号\r\n\""},{"poiid":"B209475CD564A7F8439E","title":"上海滩中信泰富店","lon":"121.45602","lat":"31.22851","category":"119","category_name":"商场","address":"\"南京西路1168号中信泰富广场，店铺号221.\r\n\""},{"poiid":"B2094654DA68A3F84993","title":"麦当劳(新闸路店)","lon":"121.46753","lat":"31.23901","category":"68","category_name":"快餐厅","address":"黄浦区新闸路245号(近新昌路)"},{"poiid":"B2094757D069A6F8419C","title":"上海广场嘉廷酒店","lon":"121.4709877","lat":"31.2382483","category":"217","category_name":"旅馆招待所","address":"黄浦区新闸路126号(长沙路路口)"},{"poiid":"B2094757D06FA0F94492","title":"上海新东方学校(黄河路校区)","lon":"121.46896","lat":"31.23809","category":"260","category_name":"其他","address":"上海黄浦区黄河路355号1号楼3楼﹑4楼"},{"poiid":"B2094757D06BA2F4429D","title":"苏州河","lon":"121.468566895","lat":"31.2386283875","category":"234","category_name":"海滨浴场","address":"上海黄浦区"},{"poiid":"B2094757D06FA6F84592","title":"黄浦区地方税务局","lon":"121.46609","lat":"31.240098","category":"252","category_name":"楼宇机构","address":"上海黄浦区新桥路68号"},{"poiid":"B2094757D069A3F54899","title":"南岸艺术中心","lon":"121.466561738","lat":"31.2417175449","category":"179","category_name":"音乐厅","address":"黄浦区南苏州路1247号(近乌镇路桥)"},{"poiid":"B2094757D069ABFB469B","title":"雕刻时光咖啡馆(创意仓库店)","lon":"121.46884","lat":"31.239848","category":"260","category_name":"其他","address":"闸北区光复路181号四行仓库创意园区301室"},{"poiid":"B2094655D36DA6FE489C","title":"新闸路","lon":"121.46793","lat":"31.23845","category":"38","category_name":"公交车站","address":""},{"poiid":"B2094757D06FA0F4439D","title":"南北高架（新闸路口）","lon":"121.46787262","lat":"31.237960815","category":"500","category_name":"未知分类","address":"上海南北高架（新闸路口）"},{"poiid":"B2094757D06FA1FB469C","title":"DQ冰雪皇后(人民广场店)","lon":"121.469444486","lat":"31.2386640104","category":"113","category_name":"冷饮店","address":"黄浦区地铁一号线人民广场站换乘大厅(汉口路西藏中路)"},{"poiid":"B2094751D565ABFB4192","title":"年代秀飯堂","lon":"121.468833","lat":"31.237828","category":"247","category_name":"餐饮美食","address":"西藏中路525號3樓308"},{"poiid":"B2094654DA6CA2FA419A","title":"博爱大厦","lon":"121.469","lat":"31.2373","category":"46","category_name":"楼宇","address":"静安区南京西路758"},{"poiid":"B2094654DA68A3F9499C","title":"新桥大厦","lon":"121.46598","lat":"31.2402","category":"46","category_name":"楼宇","address":"新桥路68"},{"poiid":"B2094757DB68A7FF439C","title":"韩善宫","lon":"121.468888","lat":"31.239294","category":"500","category_name":"未知分类","address":"新世界"},{"poiid":"B2094655D26AA0FA4792","title":"地铁新闸路站","lon":"121.46793","lat":"31.23845","category":"36","category_name":"地铁站","address":""},{"poiid":"B2094757D068A1FE4492","title":"苏州河创意仓库","lon":"121.468460083","lat":"31.2399692535","category":"260","category_name":"其他","address":"闸北区光复路195号"},{"poiid":"B2094757D065A5FB489C","title":"八号线老西门","lon":"121.468695738","lat":"31.2403505158","category":"500","category_name":"未知分类","address":"上海老西门站"},{"poiid":"B2094757D16AA7F4479B","title":"浦东机场 T1航站楼 D215登机口","lon":"121.469346231","lat":"31.2374821213","category":"21","category_name":"飞机场","address":"上海浦东机场"},{"poiid":"B2094654DA6FAAFB4098","title":"阿文潮汕食府","lon":"121.4701174688","lat":"31.240328442631","category":"72","category_name":"广东菜","address":"闸北区国庆路110号(近曲阜西路)"},{"poiid":"B2094757D069A5F4409E","title":"咔哩咖喱(大悦城店)","lon":"121.470461938","lat":"31.2412016339","category":"247","category_name":"餐饮美食","address":"上海闸北区西藏北路166号906-07室"},{"poiid":"B2094654DA6FAAF4469D","title":"北士大酒店","lon":"121.47071","lat":"31.24069","category":"250","category_name":"公园户外","address":"闸北区国庆路35号(近晋元路)"},{"poiid":"B2094654DB6AA3F8459C","title":"Odeli","lon":"121.468173054","lat":"31.238717793","category":"94","category_name":"西餐厅","address":"黄浦区黄河路355-2号(近新闸路)"},{"poiid":"B2094654DA68A3F8489B","title":"雅珠大酒店","lon":"121.46924","lat":"31.23778","category":"72","category_name":"广东菜","address":"黄浦区黃河路288号3楼(新闸路口)"},{"poiid":"B2094654DA6FAAFA479C","title":"晋元大酒店","lon":"121.46989","lat":"31.24045","category":"250","category_name":"公园户外","address":"闸北区晋元路20号(近光复路)"},{"poiid":"B2094655D26CAAF8409C","title":"雅州大楼","lon":"121.46875","lat":"31.23845","category":"46","category_name":"楼宇","address":"黄河路355"},{"poiid":"B2094752D06EABFF439B","title":"江边城外","lon":"121.468477","lat":"31.240936","category":"247","category_name":"餐饮美食","address":"大悦城9楼"},{"poiid":"B2094757D069A0FD4193","title":"丽都新贵","lon":"121.466","lat":"31.2407","category":"500","category_name":"未知分类","address":"北一环与亳州路交叉口(庐阳区政府对面)"},{"poiid":"B2094750D26CA2F4489B","title":"新世界","lon":"121.467319","lat":"31.238781","category":"248","category_name":"生活娱乐","address":null},{"poiid":"B2094655D26BA4F8459B","title":"悦达黄浦河滨大厦","lon":"121.4669","lat":"31.23974","category":"46","category_name":"楼宇","address":"上海市黄浦区新闸路356号"},{"poiid":"B2094757D06AA0FD459C","title":"新东方人民广场校区","lon":"121.46692657","lat":"31.239282608","category":"500","category_name":"未知分类","address":"上海新闸路355号"},{"poiid":"B2094757D065A2F44393","title":"一伍一拾(新闸路店)","lon":"121.4686492","lat":"31.2385937","category":"119","category_name":"商场","address":"黄浦区新闸路213号(近黄河路)"},{"poiid":"B2094757D468A4FB419F","title":"苹果花园 新闸路店","lon":"121.467496054","lat":"31.238927793","category":"47","category_name":"住宅区","address":"黄浦区新闸路249号(近一号线新闸路站)"},{"poiid":"B2094655D26CABF44993","title":"鑫龙潮人姐妹轩","lon":"121.47122","lat":"31.23892","category":"92","category_name":"潮州菜","address":"西藏中路725弄50号(鑫龙酒店一楼)"},{"poiid":"B2094757D069A2F84392","title":"都可茶饮 新闸店","lon":"121.468871","lat":"31.238784","category":"113","category_name":"冷饮店","address":"黄浦区新闸路207号(近黄河路)"},{"poiid":"B2094654DA68A3F8499D","title":"农之尚食品七宝老街特产专卖","lon":"121.46765","lat":"31.23897","category":"68","category_name":"快餐厅","address":"黄浦区新闸路239号(近新昌路)"},{"poiid":"B2094757D16FABFB4293","title":"余庆桥站","lon":"121.46846","lat":"31.23997","category":"500","category_name":"未知分类","address":"上海沪太路1582号旁"},{"poiid":"B2094654DB6BABFE429B","title":"潮汕大排档","lon":"121.470354054","lat":"31.241977793","category":"257","category_name":"中餐厅","address":"曲阜西路88号近晋元路"},{"poiid":"B2094655D26DABF5479E","title":"雅州商务中心","lon":"121.46734","lat":"31.23897","category":"46","category_name":"楼宇","address":""},{"poiid":"B2094757D16EA6F44599","title":"南翔小笼 新闸路店","lon":"121.46887077044","lat":"31.238637533086","category":"257","category_name":"中餐厅","address":"黄浦区南京东路(近南京东路步行街)"},{"poiid":"B2094654DA6FAAFA459C","title":"精中","lon":"121.46846","lat":"31.23997","category":"263","category_name":"公司","address":"光复路195A"},{"poiid":"B2094654DA6FAAFA4593","title":"上海创意产业集聚区创意仓库(光复路)","lon":"121.46897","lat":"31.23978","category":"263","category_name":"公司","address":"光复路181号"},{"poiid":"B2094757D06AAAF94993","title":"上海地铁第一运营有限公司","lon":"121.468539152","lat":"31.2385206533","category":"46","category_name":"楼宇","address":"上海市黄河路355号3号楼"},{"poiid":"B2094757D064A1F5419B","title":"金色家园","lon":"121.46828","lat":"31.237923","category":"500","category_name":"未知分类","address":"上海市浦东新区上南路3024号"},{"poiid":"B2094757D66DA3F9499B","title":"闸北公安分局南大门","lon":"121.46906873","lat":"31.240426517","category":"500","category_name":"未知分类","address":"上海大统路199号"},{"poiid":"B2094757D06EAAFC409E","title":"星马殿","lon":"121.47005273","lat":"31.241343487","category":"110","category_name":"其他亚洲菜","address":"闸北区西藏北路166号大悦城7楼(近曲阜路)"},{"poiid":"B2094655D36DA0FE409D","title":"新闸路地铁站","lon":"121.46668","lat":"31.23916","category":"36","category_name":"地铁站","address":""},{"poiid":"B2094757D06BA1FC4992","title":"WeeCoffee微咖","lon":"121.467156","lat":"31.239803901236","category":"65","category_name":"咖啡厅","address":"上海静安区新闸路356号102(近乌镇桥)"},{"poiid":"B2094753D76FAAFA449C","title":"上海滩国泰旗舰店","lon":"121.466011","lat":"31.216125","category":"249","category_name":"购物服务","address":"淮海中路868号"},{"poiid":"B209475CD564A7F84292","title":"上海滩新天地店","lon":"121.47463","lat":"31.22164","category":"119","category_name":"商场","address":"\"太仓路181弄新天地北里15号\r\n\""},{"poiid":"B209475CD564A7F8439E","title":"上海滩中信泰富店","lon":"121.45602","lat":"31.22851","category":"119","category_name":"商场","address":"\"南京西路1168号中信泰富广场，店铺号221.\r\n\""},{"poiid":"B2094654DA68A3F84993","title":"麦当劳(新闸路店)","lon":"121.46753","lat":"31.23901","category":"68","category_name":"快餐厅","address":"黄浦区新闸路245号(近新昌路)"},{"poiid":"B2094757D069A6F8419C","title":"上海广场嘉廷酒店","lon":"121.4709877","lat":"31.2382483","category":"217","category_name":"旅馆招待所","address":"黄浦区新闸路126号(长沙路路口)"},{"poiid":"B2094757D06FA0F94492","title":"上海新东方学校(黄河路校区)","lon":"121.46896","lat":"31.23809","category":"260","category_name":"其他","address":"上海黄浦区黄河路355号1号楼3楼﹑4楼"},{"poiid":"B2094757D06BA2F4429D","title":"苏州河","lon":"121.468566895","lat":"31.2386283875","category":"234","category_name":"海滨浴场","address":"上海黄浦区"},{"poiid":"B2094757D06FA6F84592","title":"黄浦区地方税务局","lon":"121.46609","lat":"31.240098","category":"252","category_name":"楼宇机构","address":"上海黄浦区新桥路68号"},{"poiid":"B2094757D069A3F54899","title":"南岸艺术中心","lon":"121.466561738","lat":"31.2417175449","category":"179","category_name":"音乐厅","address":"黄浦区南苏州路1247号(近乌镇路桥)"},{"poiid":"B2094757D069ABFB469B","title":"雕刻时光咖啡馆(创意仓库店)","lon":"121.46884","lat":"31.239848","category":"260","category_name":"其他","address":"闸北区光复路181号四行仓库创意园区301室"},{"poiid":"B2094655D36DA6FE489C","title":"新闸路","lon":"121.46793","lat":"31.23845","category":"38","category_name":"公交车站","address":""},{"poiid":"B2094757D06FA0F4439D","title":"南北高架（新闸路口）","lon":"121.46787262","lat":"31.237960815","category":"500","category_name":"未知分类","address":"上海南北高架（新闸路口）"},{"poiid":"B2094757D06FA1FB469C","title":"DQ冰雪皇后(人民广场店)","lon":"121.469444486","lat":"31.2386640104","category":"113","category_name":"冷饮店","address":"黄浦区地铁一号线人民广场站换乘大厅(汉口路西藏中路)"},{"poiid":"B2094751D565ABFB4192","title":"年代秀飯堂","lon":"121.468833","lat":"31.237828","category":"247","category_name":"餐饮美食","address":"西藏中路525號3樓308"},{"poiid":"B2094654DA6CA2FA419A","title":"博爱大厦","lon":"121.469","lat":"31.2373","category":"46","category_name":"楼宇","address":"静安区南京西路758"},{"poiid":"B2094654DA68A3F9499C","title":"新桥大厦","lon":"121.46598","lat":"31.2402","category":"46","category_name":"楼宇","address":"新桥路68"},{"poiid":"B2094757DB68A7FF439C","title":"韩善宫","lon":"121.468888","lat":"31.239294","category":"500","category_name":"未知分类","address":"新世界"},{"poiid":"B2094655D26AA0FA4792","title":"地铁新闸路站","lon":"121.46793","lat":"31.23845","category":"36","category_name":"地铁站","address":""},{"poiid":"B2094757D068A1FE4492","title":"苏州河创意仓库","lon":"121.468460083","lat":"31.2399692535","category":"260","category_name":"其他","address":"闸北区光复路195号"},{"poiid":"B2094757D065A5FB489C","title":"八号线老西门","lon":"121.468695738","lat":"31.2403505158","category":"500","category_name":"未知分类","address":"上海老西门站"},{"poiid":"B2094757D16AA7F4479B","title":"浦东机场 T1航站楼 D215登机口","lon":"121.469346231","lat":"31.2374821213","category":"21","category_name":"飞机场","address":"上海浦东机场"},{"poiid":"B2094654DA6FAAFB4098","title":"阿文潮汕食府","lon":"121.4701174688","lat":"31.240328442631","category":"72","category_name":"广东菜","address":"闸北区国庆路110号(近曲阜西路)"},{"poiid":"B2094757D069A5F4409E","title":"咔哩咖喱(大悦城店)","lon":"121.470461938","lat":"31.2412016339","category":"247","category_name":"餐饮美食","address":"上海闸北区西藏北路166号906-07室"},{"poiid":"B2094654DA6FAAF4469D","title":"北士大酒店","lon":"121.47071","lat":"31.24069","category":"250","category_name":"公园户外","address":"闸北区国庆路35号(近晋元路)"},{"poiid":"B2094654DB6AA3F8459C","title":"Odeli","lon":"121.468173054","lat":"31.238717793","category":"94","category_name":"西餐厅","address":"黄浦区黄河路355-2号(近新闸路)"},{"poiid":"B2094654DA68A3F8489B","title":"雅珠大酒店","lon":"121.46924","lat":"31.23778","category":"72","category_name":"广东菜","address":"黄浦区黃河路288号3楼(新闸路口)"},{"poiid":"B2094654DA6FAAFA479C","title":"晋元大酒店","lon":"121.46989","lat":"31.24045","category":"250","category_name":"公园户外","address":"闸北区晋元路20号(近光复路)"},{"poiid":"B2094655D26CAAF8409C","title":"雅州大楼","lon":"121.46875","lat":"31.23845","category":"46","category_name":"楼宇","address":"黄河路355"},{"poiid":"B2094752D06EABFF439B","title":"江边城外","lon":"121.468477","lat":"31.240936","category":"247","category_name":"餐饮美食","address":"大悦城9楼"},{"poiid":"B2094757D069A0FD4193","title":"丽都新贵","lon":"121.466","lat":"31.2407","category":"500","category_name":"未知分类","address":"北一环与亳州路交叉口(庐阳区政府对面)"},{"poiid":"B2094750D26CA2F4489B","title":"新世界","lon":"121.467319","lat":"31.238781","category":"248","category_name":"生活娱乐","address":null},{"poiid":"B2094655D26BA4F8459B","title":"悦达黄浦河滨大厦","lon":"121.4669","lat":"31.23974","category":"46","category_name":"楼宇","address":"上海市黄浦区新闸路356号"},{"poiid":"B2094757D06AA0FD459C","title":"新东方人民广场校区","lon":"121.46692657","lat":"31.239282608","category":"500","category_name":"未知分类","address":"上海新闸路355号"},{"poiid":"B2094757D065A2F44393","title":"一伍一拾(新闸路店)","lon":"121.4686492","lat":"31.2385937","category":"119","category_name":"商场","address":"黄浦区新闸路213号(近黄河路)"},{"poiid":"B2094757D468A4FB419F","title":"苹果花园 新闸路店","lon":"121.467496054","lat":"31.238927793","category":"47","category_name":"住宅区","address":"黄浦区新闸路249号(近一号线新闸路站)"},{"poiid":"B2094655D26CABF44993","title":"鑫龙潮人姐妹轩","lon":"121.47122","lat":"31.23892","category":"92","category_name":"潮州菜","address":"西藏中路725弄50号(鑫龙酒店一楼)"},{"poiid":"B2094757D069A2F84392","title":"都可茶饮 新闸店","lon":"121.468871","lat":"31.238784","category":"113","category_name":"冷饮店","address":"黄浦区新闸路207号(近黄河路)"},{"poiid":"B2094654DA68A3F8499D","title":"农之尚食品七宝老街特产专卖","lon":"121.46765","lat":"31.23897","category":"68","category_name":"快餐厅","address":"黄浦区新闸路239号(近新昌路)"},{"poiid":"B2094757D16FABFB4293","title":"余庆桥站","lon":"121.46846","lat":"31.23997","category":"500","category_name":"未知分类","address":"上海沪太路1582号旁"},{"poiid":"B2094654DB6BABFE429B","title":"潮汕大排档","lon":"121.470354054","lat":"31.241977793","category":"257","category_name":"中餐厅","address":"曲阜西路88号近晋元路"},{"poiid":"B2094655D26DABF5479E","title":"雅州商务中心","lon":"121.46734","lat":"31.23897","category":"46","category_name":"楼宇","address":""},{"poiid":"B2094757D16EA6F44599","title":"南翔小笼 新闸路店","lon":"121.46887077044","lat":"31.238637533086","category":"257","category_name":"中餐厅","address":"黄浦区南京东路(近南京东路步行街)"},{"poiid":"B2094654DA6FAAFA459C","title":"精中","lon":"121.46846","lat":"31.23997","category":"263","category_name":"公司","address":"光复路195A"},{"poiid":"B2094654DA6FAAFA4593","title":"上海创意产业集聚区创意仓库(光复路)","lon":"121.46897","lat":"31.23978","category":"263","category_name":"公司","address":"光复路181号"},{"poiid":"B2094757D06AAAF94993","title":"上海地铁第一运营有限公司","lon":"121.468539152","lat":"31.2385206533","category":"46","category_name":"楼宇","address":"上海市黄河路355号3号楼"},{"poiid":"B2094757D064A1F5419B","title":"金色家园","lon":"121.46828","lat":"31.237923","category":"500","category_name":"未知分类","address":"上海市浦东新区上南路3024号"},{"poiid":"B2094757D66DA3F9499B","title":"闸北公安分局南大门","lon":"121.46906873","lat":"31.240426517","category":"500","category_name":"未知分类","address":"上海大统路199号"},{"poiid":"B2094757D06EAAFC409E","title":"星马殿","lon":"121.47005273","lat":"31.241343487","category":"110","category_name":"其他亚洲菜","address":"闸北区西藏北路166号大悦城7楼(近曲阜路)"},{"poiid":"B2094655D36DA0FE409D","title":"新闸路地铁站","lon":"121.46668","lat":"31.23916","category":"36","category_name":"地铁站","address":""},{"poiid":"B2094757D06BA1FC4992","title":"WeeCoffee微咖","lon":"121.467156","lat":"31.239803901236","category":"65","category_name":"咖啡厅","address":"上海静安区新闸路356号102(近乌镇桥)"},{"poiid":"B2094753D76FAAFA449C","title":"上海滩国泰旗舰店","lon":"121.466011","lat":"31.216125","category":"249","category_name":"购物服务","address":"淮海中路868号"},{"poiid":"B209475CD564A7F84292","title":"上海滩新天地店","lon":"121.47463","lat":"31.22164","category":"119","category_name":"商场","address":"\"太仓路181弄新天地北里15号\r\n\""},{"poiid":"B209475CD564A7F8439E","title":"上海滩中信泰富店","lon":"121.45602","lat":"31.22851","category":"119","category_name":"商场","address":"\"南京西路1168号中信泰富广场，店铺号221.\r\n\""},{"poiid":"B2094654DA68A3F84993","title":"麦当劳(新闸路店)","lon":"121.46753","lat":"31.23901","category":"68","category_name":"快餐厅","address":"黄浦区新闸路245号(近新昌路)"},{"poiid":"B2094757D069A6F8419C","title":"上海广场嘉廷酒店","lon":"121.4709877","lat":"31.2382483","category":"217","category_name":"旅馆招待所","address":"黄浦区新闸路126号(长沙路路口)"},{"poiid":"B2094757D06FA0F94492","title":"上海新东方学校(黄河路校区)","lon":"121.46896","lat":"31.23809","category":"260","category_name":"其他","address":"上海黄浦区黄河路355号1号楼3楼﹑4楼"},{"poiid":"B2094757D06BA2F4429D","title":"苏州河","lon":"121.468566895","lat":"31.2386283875","category":"234","category_name":"海滨浴场","address":"上海黄浦区"},{"poiid":"B2094757D06FA6F84592","title":"黄浦区地方税务局","lon":"121.46609","lat":"31.240098","category":"252","category_name":"楼宇机构","address":"上海黄浦区新桥路68号"},{"poiid":"B2094757D069A3F54899","title":"南岸艺术中心","lon":"121.466561738","lat":"31.2417175449","category":"179","category_name":"音乐厅","address":"黄浦区南苏州路1247号(近乌镇路桥)"},{"poiid":"B2094757D069ABFB469B","title":"雕刻时光咖啡馆(创意仓库店)","lon":"121.46884","lat":"31.239848","category":"260","category_name":"其他","address":"闸北区光复路181号四行仓库创意园区301室"},{"poiid":"B2094655D36DA6FE489C","title":"新闸路","lon":"121.46793","lat":"31.23845","category":"38","category_name":"公交车站","address":""},{"poiid":"B2094757D06FA0F4439D","title":"南北高架（新闸路口）","lon":"121.46787262","lat":"31.237960815","category":"500","category_name":"未知分类","address":"上海南北高架（新闸路口）"},{"poiid":"B2094757D06FA1FB469C","title":"DQ冰雪皇后(人民广场店)","lon":"121.469444486","lat":"31.2386640104","category":"113","category_name":"冷饮店","address":"黄浦区地铁一号线人民广场站换乘大厅(汉口路西藏中路)"},{"poiid":"B2094751D565ABFB4192","title":"年代秀飯堂","lon":"121.468833","lat":"31.237828","category":"247","category_name":"餐饮美食","address":"西藏中路525號3樓308"},{"poiid":"B2094654DA6CA2FA419A","title":"博爱大厦","lon":"121.469","lat":"31.2373","category":"46","category_name":"楼宇","address":"静安区南京西路758"},{"poiid":"B2094654DA68A3F9499C","title":"新桥大厦","lon":"121.46598","lat":"31.2402","category":"46","category_name":"楼宇","address":"新桥路68"},{"poiid":"B2094757DB68A7FF439C","title":"韩善宫","lon":"121.468888","lat":"31.239294","category":"500","category_name":"未知分类","address":"新世界"},{"poiid":"B2094655D26AA0FA4792","title":"地铁新闸路站","lon":"121.46793","lat":"31.23845","category":"36","category_name":"地铁站","address":""},{"poiid":"B2094757D068A1FE4492","title":"苏州河创意仓库","lon":"121.468460083","lat":"31.2399692535","category":"260","category_name":"其他","address":"闸北区光复路195号"},{"poiid":"B2094757D065A5FB489C","title":"八号线老西门","lon":"121.468695738","lat":"31.2403505158","category":"500","category_name":"未知分类","address":"上海老西门站"},{"poiid":"B2094757D16AA7F4479B","title":"浦东机场 T1航站楼 D215登机口","lon":"121.469346231","lat":"31.2374821213","category":"21","category_name":"飞机场","address":"上海浦东机场"},{"poiid":"B2094654DA6FAAFB4098","title":"阿文潮汕食府","lon":"121.4701174688","lat":"31.240328442631","category":"72","category_name":"广东菜","address":"闸北区国庆路110号(近曲阜西路)"},{"poiid":"B2094757D069A5F4409E","title":"咔哩咖喱(大悦城店)","lon":"121.470461938","lat":"31.2412016339","category":"247","category_name":"餐饮美食","address":"上海闸北区西藏北路166号906-07室"},{"poiid":"B2094654DA6FAAF4469D","title":"北士大酒店","lon":"121.47071","lat":"31.24069","category":"250","category_name":"公园户外","address":"闸北区国庆路35号(近晋元路)"},{"poiid":"B2094654DB6AA3F8459C","title":"Odeli","lon":"121.468173054","lat":"31.238717793","category":"94","category_name":"西餐厅","address":"黄浦区黄河路355-2号(近新闸路)"},{"poiid":"B2094654DA68A3F8489B","title":"雅珠大酒店","lon":"121.46924","lat":"31.23778","category":"72","category_name":"广东菜","address":"黄浦区黃河路288号3楼(新闸路口)"},{"poiid":"B2094654DA6FAAFA479C","title":"晋元大酒店","lon":"121.46989","lat":"31.24045","category":"250","category_name":"公园户外","address":"闸北区晋元路20号(近光复路)"},{"poiid":"B2094655D26CAAF8409C","title":"雅州大楼","lon":"121.46875","lat":"31.23845","category":"46","category_name":"楼宇","address":"黄河路355"},{"poiid":"B2094752D06EABFF439B","title":"江边城外","lon":"121.468477","lat":"31.240936","category":"247","category_name":"餐饮美食","address":"大悦城9楼"},{"poiid":"B2094757D069A0FD4193","title":"丽都新贵","lon":"121.466","lat":"31.2407","category":"500","category_name":"未知分类","address":"北一环与亳州路交叉口(庐阳区政府对面)"},{"poiid":"B2094750D26CA2F4489B","title":"新世界","lon":"121.467319","lat":"31.238781","category":"248","category_name":"生活娱乐","address":null},{"poiid":"B2094655D26BA4F8459B","title":"悦达黄浦河滨大厦","lon":"121.4669","lat":"31.23974","category":"46","category_name":"楼宇","address":"上海市黄浦区新闸路356号"},{"poiid":"B2094757D06AA0FD459C","title":"新东方人民广场校区","lon":"121.46692657","lat":"31.239282608","category":"500","category_name":"未知分类","address":"上海新闸路355号"},{"poiid":"B2094757D065A2F44393","title":"一伍一拾(新闸路店)","lon":"121.4686492","lat":"31.2385937","category":"119","category_name":"商场","address":"黄浦区新闸路213号(近黄河路)"},{"poiid":"B2094757D468A4FB419F","title":"苹果花园 新闸路店","lon":"121.467496054","lat":"31.238927793","category":"47","category_name":"住宅区","address":"黄浦区新闸路249号(近一号线新闸路站)"},{"poiid":"B2094655D26CABF44993","title":"鑫龙潮人姐妹轩","lon":"121.47122","lat":"31.23892","category":"92","category_name":"潮州菜","address":"西藏中路725弄50号(鑫龙酒店一楼)"},{"poiid":"B2094757D069A2F84392","title":"都可茶饮 新闸店","lon":"121.468871","lat":"31.238784","category":"113","category_name":"冷饮店","address":"黄浦区新闸路207号(近黄河路)"},{"poiid":"B2094654DA68A3F8499D","title":"农之尚食品七宝老街特产专卖","lon":"121.46765","lat":"31.23897","category":"68","category_name":"快餐厅","address":"黄浦区新闸路239号(近新昌路)"},{"poiid":"B2094757D16FABFB4293","title":"余庆桥站","lon":"121.46846","lat":"31.23997","category":"500","category_name":"未知分类","address":"上海沪太路1582号旁"},{"poiid":"B2094654DB6BABFE429B","title":"潮汕大排档","lon":"121.470354054","lat":"31.241977793","category":"257","category_name":"中餐厅","address":"曲阜西路88号近晋元路"},{"poiid":"B2094655D26DABF5479E","title":"雅州商务中心","lon":"121.46734","lat":"31.23897","category":"46","category_name":"楼宇","address":""},{"poiid":"B2094757D16EA6F44599","title":"南翔小笼 新闸路店","lon":"121.46887077044","lat":"31.238637533086","category":"257","category_name":"中餐厅","address":"黄浦区南京东路(近南京东路步行街)"},{"poiid":"B2094654DA6FAAFA459C","title":"精中","lon":"121.46846","lat":"31.23997","category":"263","category_name":"公司","address":"光复路195A"},{"poiid":"B2094654DA6FAAFA4593","title":"上海创意产业集聚区创意仓库(光复路)","lon":"121.46897","lat":"31.23978","category":"263","category_name":"公司","address":"光复路181号"},{"poiid":"B2094757D06AAAF94993","title":"上海地铁第一运营有限公司","lon":"121.468539152","lat":"31.2385206533","category":"46","category_name":"楼宇","address":"上海市黄河路355号3号楼"},{"poiid":"B2094757D064A1F5419B","title":"金色家园","lon":"121.46828","lat":"31.237923","category":"500","category_name":"未知分类","address":"上海市浦东新区上南路3024号"},{"poiid":"B2094757D66DA3F9499B","title":"闸北公安分局南大门","lon":"121.46906873","lat":"31.240426517","category":"500","category_name":"未知分类","address":"上海大统路199号"},{"poiid":"B2094757D06EAAFC409E","title":"星马殿","lon":"121.47005273","lat":"31.241343487","category":"110","category_name":"其他亚洲菜","address":"闸北区西藏北路166号大悦城7楼(近曲阜路)"},{"poiid":"B2094655D36DA0FE409D","title":"新闸路地铁站","lon":"121.46668","lat":"31.23916","category":"36","category_name":"地铁站","address":""},{"poiid":"B2094757D06BA1FC4992","title":"WeeCoffee微咖","lon":"121.467156","lat":"31.239803901236","category":"65","category_name":"咖啡厅","address":"上海静安区新闸路356号102(近乌镇桥)"},{"poiid":"B2094753D76FAAFA449C","title":"上海滩国泰旗舰店","lon":"121.466011","lat":"31.216125","category":"249","category_name":"购物服务","address":"淮海中路868号"},{"poiid":"B209475CD564A7F84292","title":"上海滩新天地店","lon":"121.47463","lat":"31.22164","category":"119","category_name":"商场","address":"\"太仓路181弄新天地北里15号\r\n\""},{"poiid":"B209475CD564A7F8439E","title":"上海滩中信泰富店","lon":"121.45602","lat":"31.22851","category":"119","category_name":"商场","address":"\"南京西路1168号中信泰富广场，店铺号221.\r\n\""},{"poiid":"B2094654DA68A3F84993","title":"麦当劳(新闸路店)","lon":"121.46753","lat":"31.23901","category":"68","category_name":"快餐厅","address":"黄浦区新闸路245号(近新昌路)"},{"poiid":"B2094757D069A6F8419C","title":"上海广场嘉廷酒店","lon":"121.4709877","lat":"31.2382483","category":"217","category_name":"旅馆招待所","address":"黄浦区新闸路126号(长沙路路口)"},{"poiid":"B2094757D06FA0F94492","title":"上海新东方学校(黄河路校区)","lon":"121.46896","lat":"31.23809","category":"260","category_name":"其他","address":"上海黄浦区黄河路355号1号楼3楼﹑4楼"},{"poiid":"B2094757D06BA2F4429D","title":"苏州河","lon":"121.468566895","lat":"31.2386283875","category":"234","category_name":"海滨浴场","address":"上海黄浦区"},{"poiid":"B2094757D06FA6F84592","title":"黄浦区地方税务局","lon":"121.46609","lat":"31.240098","category":"252","category_name":"楼宇机构","address":"上海黄浦区新桥路68号"},{"poiid":"B2094757D069A3F54899","title":"南岸艺术中心","lon":"121.466561738","lat":"31.2417175449","category":"179","category_name":"音乐厅","address":"黄浦区南苏州路1247号(近乌镇路桥)"},{"poiid":"B2094757D069ABFB469B","title":"雕刻时光咖啡馆(创意仓库店)","lon":"121.46884","lat":"31.239848","category":"260","category_name":"其他","address":"闸北区光复路181号四行仓库创意园区301室"},{"poiid":"B2094655D36DA6FE489C","title":"新闸路","lon":"121.46793","lat":"31.23845","category":"38","category_name":"公交车站","address":""},{"poiid":"B2094757D06FA0F4439D","title":"南北高架（新闸路口）","lon":"121.46787262","lat":"31.237960815","category":"500","category_name":"未知分类","address":"上海南北高架（新闸路口）"},{"poiid":"B2094757D06FA1FB469C","title":"DQ冰雪皇后(人民广场店)","lon":"121.469444486","lat":"31.2386640104","category":"113","category_name":"冷饮店","address":"黄浦区地铁一号线人民广场站换乘大厅(汉口路西藏中路)"},{"poiid":"B2094751D565ABFB4192","title":"年代秀飯堂","lon":"121.468833","lat":"31.237828","category":"247","category_name":"餐饮美食","address":"西藏中路525號3樓308"},{"poiid":"B2094654DA6CA2FA419A","title":"博爱大厦","lon":"121.469","lat":"31.2373","category":"46","category_name":"楼宇","address":"静安区南京西路758"},{"poiid":"B2094654DA68A3F9499C","title":"新桥大厦","lon":"121.46598","lat":"31.2402","category":"46","category_name":"楼宇","address":"新桥路68"},{"poiid":"B2094757DB68A7FF439C","title":"韩善宫","lon":"121.468888","lat":"31.239294","category":"500","category_name":"未知分类","address":"新世界"},{"poiid":"B2094655D26AA0FA4792","title":"地铁新闸路站","lon":"121.46793","lat":"31.23845","category":"36","category_name":"地铁站","address":""},{"poiid":"B2094757D068A1FE4492","title":"苏州河创意仓库","lon":"121.468460083","lat":"31.2399692535","category":"260","category_name":"其他","address":"闸北区光复路195号"},{"poiid":"B2094757D065A5FB489C","title":"八号线老西门","lon":"121.468695738","lat":"31.2403505158","category":"500","category_name":"未知分类","address":"上海老西门站"},{"poiid":"B2094757D16AA7F4479B","title":"浦东机场 T1航站楼 D215登机口","lon":"121.469346231","lat":"31.2374821213","category":"21","category_name":"飞机场","address":"上海浦东机场"},{"poiid":"B2094654DA6FAAFB4098","title":"阿文潮汕食府","lon":"121.4701174688","lat":"31.240328442631","category":"72","category_name":"广东菜","address":"闸北区国庆路110号(近曲阜西路)"},{"poiid":"B2094757D069A5F4409E","title":"咔哩咖喱(大悦城店)","lon":"121.470461938","lat":"31.2412016339","category":"247","category_name":"餐饮美食","address":"上海闸北区西藏北路166号906-07室"},{"poiid":"B2094654DA6FAAF4469D","title":"北士大酒店","lon":"121.47071","lat":"31.24069","category":"250","category_name":"公园户外","address":"闸北区国庆路35号(近晋元路)"},{"poiid":"B2094654DB6AA3F8459C","title":"Odeli","lon":"121.468173054","lat":"31.238717793","category":"94","category_name":"西餐厅","address":"黄浦区黄河路355-2号(近新闸路)"},{"poiid":"B2094654DA68A3F8489B","title":"雅珠大酒店","lon":"121.46924","lat":"31.23778","category":"72","category_name":"广东菜","address":"黄浦区黃河路288号3楼(新闸路口)"},{"poiid":"B2094654DA6FAAFA479C","title":"晋元大酒店","lon":"121.46989","lat":"31.24045","category":"250","category_name":"公园户外","address":"闸北区晋元路20号(近光复路)"},{"poiid":"B2094655D26CAAF8409C","title":"雅州大楼","lon":"121.46875","lat":"31.23845","category":"46","category_name":"楼宇","address":"黄河路355"},{"poiid":"B2094752D06EABFF439B","title":"江边城外","lon":"121.468477","lat":"31.240936","category":"247","category_name":"餐饮美食","address":"大悦城9楼"},{"poiid":"B2094757D069A0FD4193","title":"丽都新贵","lon":"121.466","lat":"31.2407","category":"500","category_name":"未知分类","address":"北一环与亳州路交叉口(庐阳区政府对面)"},{"poiid":"B2094750D26CA2F4489B","title":"新世界","lon":"121.467319","lat":"31.238781","category":"248","category_name":"生活娱乐","address":null},{"poiid":"B2094655D26BA4F8459B","title":"悦达黄浦河滨大厦","lon":"121.4669","lat":"31.23974","category":"46","category_name":"楼宇","address":"上海市黄浦区新闸路356号"},{"poiid":"B2094757D06AA0FD459C","title":"新东方人民广场校区","lon":"121.46692657","lat":"31.239282608","category":"500","category_name":"未知分类","address":"上海新闸路355号"},{"poiid":"B2094757D065A2F44393","title":"一伍一拾(新闸路店)","lon":"121.4686492","lat":"31.2385937","category":"119","category_name":"商场","address":"黄浦区新闸路213号(近黄河路)"},{"poiid":"B2094757D468A4FB419F","title":"苹果花园 新闸路店","lon":"121.467496054","lat":"31.238927793","category":"47","category_name":"住宅区","address":"黄浦区新闸路249号(近一号线新闸路站)"},{"poiid":"B2094655D26CABF44993","title":"鑫龙潮人姐妹轩","lon":"121.47122","lat":"31.23892","category":"92","category_name":"潮州菜","address":"西藏中路725弄50号(鑫龙酒店一楼)"},{"poiid":"B2094757D069A2F84392","title":"都可茶饮 新闸店","lon":"121.468871","lat":"31.238784","category":"113","category_name":"冷饮店","address":"黄浦区新闸路207号(近黄河路)"},{"poiid":"B2094654DA68A3F8499D","title":"农之尚食品七宝老街特产专卖","lon":"121.46765","lat":"31.23897","category":"68","category_name":"快餐厅","address":"黄浦区新闸路239号(近新昌路)"},{"poiid":"B2094757D16FABFB4293","title":"余庆桥站","lon":"121.46846","lat":"31.23997","category":"500","category_name":"未知分类","address":"上海沪太路1582号旁"},{"poiid":"B2094654DB6BABFE429B","title":"潮汕大排档","lon":"121.470354054","lat":"31.241977793","category":"257","category_name":"中餐厅","address":"曲阜西路88号近晋元路"},{"poiid":"B2094655D26DABF5479E","title":"雅州商务中心","lon":"121.46734","lat":"31.23897","category":"46","category_name":"楼宇","address":""},{"poiid":"B2094757D16EA6F44599","title":"南翔小笼 新闸路店","lon":"121.46887077044","lat":"31.238637533086","category":"257","category_name":"中餐厅","address":"黄浦区南京东路(近南京东路步行街)"},{"poiid":"B2094654DA6FAAFA459C","title":"精中","lon":"121.46846","lat":"31.23997","category":"263","category_name":"公司","address":"光复路195A"},{"poiid":"B2094654DA6FAAFA4593","title":"上海创意产业集聚区创意仓库(光复路)","lon":"121.46897","lat":"31.23978","category":"263","category_name":"公司","address":"光复路181号"},{"poiid":"B2094757D06AAAF94993","title":"上海地铁第一运营有限公司","lon":"121.468539152","lat":"31.2385206533","category":"46","category_name":"楼宇","address":"上海市黄河路355号3号楼"},{"poiid":"B2094757D064A1F5419B","title":"金色家园","lon":"121.46828","lat":"31.237923","category":"500","category_name":"未知分类","address":"上海市浦东新区上南路3024号"},{"poiid":"B2094757D66DA3F9499B","title":"闸北公安分局南大门","lon":"121.46906873","lat":"31.240426517","category":"500","category_name":"未知分类","address":"上海大统路199号"}]