[{"poiid":"B2094654DA6FA6F4429D","title":"七浦路服装批发市场(七浦路)","lon":"121.47849","lat":"31.24509","category":"141","category_name":"服装鞋帽皮具店","address":"闸北区七浦路303号(近河南北路)"},{"poiid":"B2094757D068A1F84993","title":"西藏北路海宁路","lon":"121.473038218","lat":"31.2452786409","category":"500","category_name":"未知分类","address":"上海西藏北路海宁路"},{"poiid":"B2094750DB6BA0F9439D","title":"江边城外（大悦城店）","lon":"121.474555","lat":"31.243404","category":"247","category_name":"餐饮美食","address":"大悦城"},{"poiid":"B209475CD564A7F84292","title":"上海滩新天地店","lon":"121.47463","lat":"31.22164","category":"119","category_name":"商场","address":"\"太仓路181弄新天地北里15号\r\n\""},{"poiid":"B209475CD564A7F8439E","title":"上海滩中信泰富店","lon":"121.45602","lat":"31.22851","category":"119","category_name":"商场","address":"\"南京西路1168号中信泰富广场，店铺号221.\r\n\""},{"poiid":"B209475CD564A7F84392","title":"上海滩浦东香格里拉店","lon":"121.50058","lat":"31.23634","category":"119","category_name":"商场","address":"浦东富成路33号香格里拉酒店内大堂层"},{"poiid":"B2094757D069A3FE4198","title":"闸北区图书馆","lon":"121.474","lat":"31.24822","category":"181","category_name":"图书馆","address":"闸北区天目中路6号(天目中路浙江北路)"},{"poiid":"B2094757D068A7FE419D","title":"上海滩新昌城","lon":"121.473","lat":"31.2443","category":"47","category_name":"住宅区","address":"上海市黄浦区新昌路477弄"},{"poiid":"B2094757DA69A2F54493","title":"金逸院线新恒星影城","lon":"121.47467","lat":"31.24432","category":"178","category_name":"电影院","address":"西藏北路166号大悦城10-11楼"},{"poiid":"B2094655D36CA7FB419C","title":"海宁路浙江北路","lon":"121.47581","lat":"31.24608","category":"38","category_name":"公交车站","address":""},{"poiid":"B2094654DB6BA3FA479C","title":"必胜客欢乐餐厅(四川北路)","lon":"121.4766","lat":"31.24862","category":"94","category_name":"西餐厅","address":"虹口区四川北路838号(近塘路路)"},{"poiid":"B2094757D064A7F4499E","title":"浙江北路天目路","lon":"121.47467","lat":"31.248947","category":"500","category_name":"未知分类","address":"上海浙江北路天目路"},{"poiid":"B2094757D069A0F94093","title":"焦叶(大悦城店)","lon":"121.47440831","lat":"31.245327969","category":"110","category_name":"其他亚洲菜","address":"上海大悦城7楼"},{"poiid":"B2094654DA68A3FA4499","title":"长新大楼","lon":"121.476","lat":"31.2446","category":"46","category_name":"楼宇","address":"静安区长寿路(万航渡路口)"},{"poiid":"B2094752D368A7FA479B","title":"星怡会","lon":"121.474488","lat":"31.245342","category":"247","category_name":"餐饮美食","address":"四川北路1360号中信泰富虹广场303单元"},{"poiid":"B2094757D069A6FB4398","title":"七浦路韩国馆","lon":"121.4782303","lat":"31.245244","category":"500","category_name":"未知分类","address":"上海七浦路批发市场"},{"poiid":"B2094654DA6FA2F8429C","title":"南高寿里","lon":"121.47594","lat":"31.246386","category":"47","category_name":"住宅区","address":"海宁路942弄"},{"poiid":"B2094750DB6CA4FE449D","title":"正大","lon":"121.475636","lat":"31.24442","category":"500","category_name":"未知分类","address":null},{"poiid":"B2094757DA6BA4FA429C","title":"长泰企业天地广场","lon":"121.476942","lat":"31.245884","category":"252","category_name":"楼宇机构","address":"城阳308国道西侧，华仙路北侧"},{"poiid":"B209475CD76CA3FF469C","title":"cafe lugo","lon":"121.473312","lat":"31.243223","category":"500","category_name":"未知分类","address":"上海市 上海市闸北区西藏北路166号大悦城一楼"},{"poiid":"B2094654DA6FA6F84999","title":"七浦商厦","lon":"121.47499","lat":"31.24441","category":"46","category_name":"楼宇","address":"七浦路535"},{"poiid":"B2094655D26CA4F5459C","title":"北站街道社区卫生服务中心(海宁路)","lon":"121.47467","lat":"31.24595","category":"162","category_name":"医院","address":"海宁路1020"},{"poiid":"B2094753DB6DA6F9439B","title":"海宁凯元国际酒店","lon":"121.4758564","lat":"31.2460623","category":"213","category_name":"五星级宾馆","address":"海宁海宁市火车站广场65号"},{"poiid":"B2094654DB6BABFC479D","title":"闽旺火锅楼 海宁店","lon":"121.47556112831","lat":"31.245693898904","category":"86","category_name":"火锅店","address":"虹口区海宁路977号(近浙江北路)"},{"poiid":"B2094757D465A0F44192","title":"吉祥馄饨 浙江北路店 Gll Wonton","lon":"121.474954054","lat":"31.247073793","category":"68","category_name":"快餐厅","address":"闸北区浙江北路354号(近天目东路)"},{"poiid":"B2094757D06BABF4489D","title":"北站派出所","lon":"121.474915","lat":"31.246779","category":"609","category_name":"警察局","address":"上海浙江北路321号"},{"poiid":"B2094757D068A5F8499B","title":"妯娌老鸭粉丝(七浦路店)","lon":"121.47583","lat":"31.24439","category":"257","category_name":"中餐厅","address":"上海虹口区七浦路  "},{"poiid":"B2094654DB65A0F54898","title":"茶风暴 七浦路店 Tea Storm","lon":"121.475365054","lat":"31.244604793","category":"113","category_name":"冷饮店","address":"虹口区七浦路486号(近浙江路)"},{"poiid":"B2094655D26CA4F54999","title":"好德No.262","lon":"121.47526","lat":"31.24549","category":"117","category_name":"便民商店/便利店","address":"海宁路975"},{"poiid":"B2094654DB6BA4F4439E","title":"福康里(东门)","lon":"121.47505","lat":"31.24643","category":"47","category_name":"住宅区","address":""},{"poiid":"B2094654DA6FA6F8479F","title":"上海休闲职业技能培训中心","lon":"121.4748","lat":"31.24538","category":"54","category_name":"职业技术学校","address":"海宁路999"},{"poiid":"B2094757D16CA0FA429B","title":"中油梅山 海宁路 加油站","lon":"121.47585063","lat":"31.245543644","category":"154","category_name":"加油加气站","address":"上海闸北区海宁路971号"},{"poiid":"B2094654DA6FA2FE469C","title":"六桂坊","lon":"121.47489","lat":"31.24666","category":"47","category_name":"住宅区","address":""},{"poiid":"B2094654DA6FA2FE489A","title":"良友金伴No.868","lon":"121.47511","lat":"31.24698","category":"117","category_name":"便民商店/便利店","address":"浙江北路328"},{"poiid":"B2094655D26DA7FE459C","title":"六桂坊(东门)","lon":"121.47495","lat":"31.2467","category":"47","category_name":"住宅区","address":""},{"poiid":"B2094654DA6FAAF44792","title":"四行仓库创意科技园区","lon":"121.478","lat":"31.2464","category":"45","category_name":"产业园区","address":"光复路1号老四行创意园5-6层"},{"poiid":"B2094654DA6FA6FB4293","title":"白马大厦(东楼)","lon":"121.47773","lat":"31.24554","category":"46","category_name":"楼宇","address":"塘沽路985号"},{"poiid":"B2094752D76BA2FD4593","title":"虹桥机场2号航站楼","lon":"121.473502","lat":"31.248145","category":"500","category_name":"未知分类","address":"虹桥机场"},{"poiid":"B2094757D16AA7FA449E","title":"948路天目东路晋元路站","lon":"121.475117","lat":"31.246241","category":"500","category_name":"未知分类","address":"上海天目东路晋元路"},{"poiid":"B2094654DA6FA6F8499A","title":"阿七头酒店","lon":"121.47549","lat":"31.24458","category":"257","category_name":"中餐厅","address":"虹口区七浦路(浙江北路口西北面)"},{"poiid":"B2094757D169A1FE439F","title":"安庆路","lon":"121.47683573","lat":"31.247443667","category":"500","category_name":"未知分类","address":"上海安庆路康乐路"},{"poiid":"B2094654D56DA1F94899","title":"上海市闸北区第一中心小学","lon":"121.47623","lat":"31.24819","category":"56","category_name":"小学","address":"闸北区康乐路199号(近天目东路)"},{"poiid":"B2094654DA6FA2FF429A","title":"北站社区文化活动中心","lon":"121.47686","lat":"31.24664","category":"252","category_name":"楼宇机构","address":"康乐路101号"},{"poiid":"B2094655D269ABF84199","title":"相声大会弘春社","lon":"121.47685","lat":"31.24664","category":"247","category_name":"餐饮美食","address":"闸北区康乐路101号北站社区文化活动中心6楼剧场(海宁路口)"},{"poiid":"B2094654DA6FA2FF479C","title":"北高寿里","lon":"121.47555","lat":"31.247454","category":"47","category_name":"住宅区","address":"天目东路245弄"},{"poiid":"B2094757D56CA4F9419B","title":"百面玲珑","lon":"121.48121129673","lat":"31.245542027384","category":"247","category_name":"餐饮美食","address":"七浦路133号5F"},{"poiid":"B2094654DA6FA2FF409D","title":"德润坊","lon":"121.47644","lat":"31.24736","category":"47","category_name":"住宅区","address":"安庆路461弄"},{"poiid":"B2094757D06BAAFE429C","title":"新川专线","lon":"121.47561938","lat":"31.2443002","category":"38","category_name":"公交车站","address":"川沙镇—上海火车站"},{"poiid":"B2094655D26CAAFA4592","title":"祥新里(北门)","lon":"121.47605","lat":"31.24733","category":"47","category_name":"住宅区","address":"安庆路487弄"},{"poiid":"B2094654DA6FA6FA4199","title":"上海梦比服装有限公司","lon":"121.4764","lat":"31.24508","category":"141","category_name":"服装鞋帽皮具店","address":"七浦路470-176"},{"poiid":"B2094654DA6FA6F4429D","title":"七浦路服装批发市场(七浦路)","lon":"121.47849","lat":"31.24509","category":"141","category_name":"服装鞋帽皮具店","address":"闸北区七浦路303号(近河南北路)"},{"poiid":"B2094757D068A1F84993","title":"西藏北路海宁路","lon":"121.473038218","lat":"31.2452786409","category":"500","category_name":"未知分类","address":"上海西藏北路海宁路"},{"poiid":"B2094750DB6BA0F9439D","title":"江边城外（大悦城店）","lon":"121.474555","lat":"31.243404","category":"247","category_name":"餐饮美食","address":"大悦城"},{"poiid":"B209475CD564A7F84292","title":"上海滩新天地店","lon":"121.47463","lat":"31.22164","category":"119","category_name":"商场","address":"\"太仓路181弄新天地北里15号\r\n\""},{"poiid":"B209475CD564A7F8439E","title":"上海滩中信泰富店","lon":"121.45602","lat":"31.22851","category":"119","category_name":"商场","address":"\"南京西路1168号中信泰富广场，店铺号221.\r\n\""},{"poiid":"B209475CD564A7F84392","title":"上海滩浦东香格里拉店","lon":"121.50058","lat":"31.23634","category":"119","category_name":"商场","address":"浦东富成路33号香格里拉酒店内大堂层"},{"poiid":"B2094757D069A3FE4198","title":"闸北区图书馆","lon":"121.474","lat":"31.24822","category":"181","category_name":"图书馆","address":"闸北区天目中路6号(天目中路浙江北路)"},{"poiid":"B2094757D068A7FE419D","title":"上海滩新昌城","lon":"121.473","lat":"31.2443","category":"47","category_name":"住宅区","address":"上海市黄浦区新昌路477弄"},{"poiid":"B2094757DA69A2F54493","title":"金逸院线新恒星影城","lon":"121.47467","lat":"31.24432","category":"178","category_name":"电影院","address":"西藏北路166号大悦城10-11楼"},{"poiid":"B2094655D36CA7FB419C","title":"海宁路浙江北路","lon":"121.47581","lat":"31.24608","category":"38","category_name":"公交车站","address":""},{"poiid":"B2094654DB6BA3FA479C","title":"必胜客欢乐餐厅(四川北路)","lon":"121.4766","lat":"31.24862","category":"94","category_name":"西餐厅","address":"虹口区四川北路838号(近塘路路)"},{"poiid":"B2094757D064A7F4499E","title":"浙江北路天目路","lon":"121.47467","lat":"31.248947","category":"500","category_name":"未知分类","address":"上海浙江北路天目路"},{"poiid":"B2094757D069A0F94093","title":"焦叶(大悦城店)","lon":"121.47440831","lat":"31.245327969","category":"110","category_name":"其他亚洲菜","address":"上海大悦城7楼"},{"poiid":"B2094654DA68A3FA4499","title":"长新大楼","lon":"121.476","lat":"31.2446","category":"46","category_name":"楼宇","address":"静安区长寿路(万航渡路口)"},{"poiid":"B2094752D368A7FA479B","title":"星怡会","lon":"121.474488","lat":"31.245342","category":"247","category_name":"餐饮美食","address":"四川北路1360号中信泰富虹广场303单元"},{"poiid":"B2094757D069A6FB4398","title":"七浦路韩国馆","lon":"121.4782303","lat":"31.245244","category":"500","category_name":"未知分类","address":"上海七浦路批发市场"},{"poiid":"B2094654DA6FA2F8429C","title":"南高寿里","lon":"121.47594","lat":"31.246386","category":"47","category_name":"住宅区","address":"海宁路942弄"},{"poiid":"B2094750DB6CA4FE449D","title":"正大","lon":"121.475636","lat":"31.24442","category":"500","category_name":"未知分类","address":null},{"poiid":"B2094757DA6BA4FA429C","title":"长泰企业天地广场","lon":"121.476942","lat":"31.245884","category":"252","category_name":"楼宇机构","address":"城阳308国道西侧，华仙路北侧"},{"poiid":"B209475CD76CA3FF469C","title":"cafe lugo","lon":"121.473312","lat":"31.243223","category":"500","category_name":"未知分类","address":"上海市 上海市闸北区西藏北路166号大悦城一楼"},{"poiid":"B2094654DA6FA6F84999","title":"七浦商厦","lon":"121.47499","lat":"31.24441","category":"46","category_name":"楼宇","address":"七浦路535"},{"poiid":"B2094655D26CA4F5459C","title":"北站街道社区卫生服务中心(海宁路)","lon":"121.47467","lat":"31.24595","category":"162","category_name":"医院","address":"海宁路1020"},{"poiid":"B2094753DB6DA6F9439B","title":"海宁凯元国际酒店","lon":"121.4758564","lat":"31.2460623","category":"213","category_name":"五星级宾馆","address":"海宁海宁市火车站广场65号"},{"poiid":"B2094654DB6BABFC479D","title":"闽旺火锅楼 海宁店","lon":"121.47556112831","lat":"31.245693898904","category":"86","category_name":"火锅店","address":"虹口区海宁路977号(近浙江北路)"},{"poiid":"B2094757D465A0F44192","title":"吉祥馄饨 浙江北路店 Gll Wonton","lon":"121.474954054","lat":"31.247073793","category":"68","category_name":"快餐厅","address":"闸北区浙江北路354号(近天目东路)"},{"poiid":"B2094757D06BABF4489D","title":"北站派出所","lon":"121.474915","lat":"31.246779","category":"609","category_name":"警察局","address":"上海浙江北路321号"},{"poiid":"B2094757D068A5F8499B","title":"妯娌老鸭粉丝(七浦路店)","lon":"121.47583","lat":"31.24439","category":"257","category_name":"中餐厅","address":"上海虹口区七浦路  "},{"poiid":"B2094654DB65A0F54898","title":"茶风暴 七浦路店 Tea Storm","lon":"121.475365054","lat":"31.244604793","category":"113","category_name":"冷饮店","address":"虹口区七浦路486号(近浙江路)"},{"poiid":"B2094655D26CA4F54999","title":"好德No.262","lon":"121.47526","lat":"31.24549","category":"117","category_name":"便民商店/便利店","address":"海宁路975"},{"poiid":"B2094654DB6BA4F4439E","title":"福康里(东门)","lon":"121.47505","lat":"31.24643","category":"47","category_name":"住宅区","address":""},{"poiid":"B2094654DA6FA6F8479F","title":"上海休闲职业技能培训中心","lon":"121.4748","lat":"31.24538","category":"54","category_name":"职业技术学校","address":"海宁路999"},{"poiid":"B2094757D16CA0FA429B","title":"中油梅山 海宁路 加油站","lon":"121.47585063","lat":"31.245543644","category":"154","category_name":"加油加气站","address":"上海闸北区海宁路971号"},{"poiid":"B2094654DA6FA2FE469C","title":"六桂坊","lon":"121.47489","lat":"31.24666","category":"47","category_name":"住宅区","address":""},{"poiid":"B2094654DA6FA2FE489A","title":"良友金伴No.868","lon":"121.47511","lat":"31.24698","category":"117","category_name":"便民商店/便利店","address":"浙江北路328"},{"poiid":"B2094655D26DA7FE459C","title":"六桂坊(东门)","lon":"121.47495","lat":"31.2467","category":"47","category_name":"住宅区","address":""},{"poiid":"B2094654DA6FAAF44792","title":"四行仓库创意科技园区","lon":"121.478","lat":"31.2464","category":"45","category_name":"产业园区","address":"光复路1号老四行创意园5-6层"},{"poiid":"B2094654DA6FA6FB4293","title":"白马大厦(东楼)","lon":"121.47773","lat":"31.24554","category":"46","category_name":"楼宇","address":"塘沽路985号"},{"poiid":"B2094752D76BA2FD4593","title":"虹桥机场2号航站楼","lon":"121.473502","lat":"31.248145","category":"500","category_name":"未知分类","address":"虹桥机场"},{"poiid":"B2094757D16AA7FA449E","title":"948路天目东路晋元路站","lon":"121.475117","lat":"31.246241","category":"500","category_name":"未知分类","address":"上海天目东路晋元路"},{"poiid":"B2094654DA6FA6F8499A","title":"阿七头酒店","lon":"121.47549","lat":"31.24458","category":"257","category_name":"中餐厅","address":"虹口区七浦路(浙江北路口西北面)"},{"poiid":"B2094757D169A1FE439F","title":"安庆路","lon":"121.47683573","lat":"31.247443667","category":"500","category_name":"未知分类","address":"上海安庆路康乐路"},{"poiid":"B2094654D56DA1F94899","title":"上海市闸北区第一中心小学","lon":"121.47623","lat":"31.24819","category":"56","category_name":"小学","address":"闸北区康乐路199号(近天目东路)"},{"poiid":"B2094654DA6FA2FF429A","title":"北站社区文化活动中心","lon":"121.47686","lat":"31.24664","category":"252","category_name":"楼宇机构","address":"康乐路101号"},{"poiid":"B2094655D269ABF84199","title":"相声大会弘春社","lon":"121.47685","lat":"31.24664","category":"247","category_name":"餐饮美食","address":"闸北区康乐路101号北站社区文化活动中心6楼剧场(海宁路口)"},{"poiid":"B2094654DA6FA2FF479C","title":"北高寿里","lon":"121.47555","lat":"31.247454","category":"47","category_name":"住宅区","address":"天目东路245弄"},{"poiid":"B2094757D56CA4F9419B","title":"百面玲珑","lon":"121.48121129673","lat":"31.245542027384","category":"247","category_name":"餐饮美食","address":"七浦路133号5F"},{"poiid":"B2094654DA6FA2FF409D","title":"德润坊","lon":"121.47644","lat":"31.24736","category":"47","category_name":"住宅区","address":"安庆路461弄"},{"poiid":"B2094757D06BAAFE429C","title":"新川专线","lon":"121.47561938","lat":"31.2443002","category":"38","category_name":"公交车站","address":"川沙镇—上海火车站"},{"poiid":"B2094655D26CAAFA4592","title":"祥新里(北门)","lon":"121.47605","lat":"31.24733","category":"47","category_name":"住宅区","address":"安庆路487弄"},{"poiid":"B2094654DA6FA6FA4199","title":"上海梦比服装有限公司","lon":"121.4764","lat":"31.24508","category":"141","category_name":"服装鞋帽皮具店","address":"七浦路470-176"},{"poiid":"B2094654DA6FA6F4429D","title":"七浦路服装批发市场(七浦路)","lon":"121.47849","lat":"31.24509","category":"141","category_name":"服装鞋帽皮具店","address":"闸北区七浦路303号(近河南北路)"},{"poiid":"B2094757D068A1F84993","title":"西藏北路海宁路","lon":"121.473038218","lat":"31.2452786409","category":"500","category_name":"未知分类","address":"上海西藏北路海宁路"},{"poiid":"B2094750DB6BA0F9439D","title":"江边城外（大悦城店）","lon":"121.474555","lat":"31.243404","category":"247","category_name":"餐饮美食","address":"大悦城"},{"poiid":"B209475CD564A7F84292","title":"上海滩新天地店","lon":"121.47463","lat":"31.22164","category":"119","category_name":"商场","address":"\"太仓路181弄新天地北里15号\r\n\""},{"poiid":"B209475CD564A7F8439E","title":"上海滩中信泰富店","lon":"121.45602","lat":"31.22851","category":"119","category_name":"商场","address":"\"南京西路1168号中信泰富广场，店铺号221.\r\n\""},{"poiid":"B209475CD564A7F84392","title":"上海滩浦东香格里拉店","lon":"121.50058","lat":"31.23634","category":"119","category_name":"商场","address":"浦东富成路33号香格里拉酒店内大堂层"},{"poiid":"B2094757D069A3FE4198","title":"闸北区图书馆","lon":"121.474","lat":"31.24822","category":"181","category_name":"图书馆","address":"闸北区天目中路6号(天目中路浙江北路)"},{"poiid":"B2094757D068A7FE419D","title":"上海滩新昌城","lon":"121.473","lat":"31.2443","category":"47","category_name":"住宅区","address":"上海市黄浦区新昌路477弄"},{"poiid":"B2094757DA69A2F54493","title":"金逸院线新恒星影城","lon":"121.47467","lat":"31.24432","category":"178","category_name":"电影院","address":"西藏北路166号大悦城10-11楼"},{"poiid":"B2094655D36CA7FB419C","title":"海宁路浙江北路","lon":"121.47581","lat":"31.24608","category":"38","category_name":"公交车站","address":""},{"poiid":"B2094654DB6BA3FA479C","title":"必胜客欢乐餐厅(四川北路)","lon":"121.4766","lat":"31.24862","category":"94","category_name":"西餐厅","address":"虹口区四川北路838号(近塘路路)"},{"poiid":"B2094757D064A7F4499E","title":"浙江北路天目路","lon":"121.47467","lat":"31.248947","category":"500","category_name":"未知分类","address":"上海浙江北路天目路"},{"poiid":"B2094757D069A0F94093","title":"焦叶(大悦城店)","lon":"121.47440831","lat":"31.245327969","category":"110","category_name":"其他亚洲菜","address":"上海大悦城7楼"},{"poiid":"B2094654DA68A3FA4499","title":"长新大楼","lon":"121.476","lat":"31.2446","category":"46","category_name":"楼宇","address":"静安区长寿路(万航渡路口)"},{"poiid":"B2094752D368A7FA479B","title":"星怡会","lon":"121.474488","lat":"31.245342","category":"247","category_name":"餐饮美食","address":"四川北路1360号中信泰富虹广场303单元"},{"poiid":"B2094757D069A6FB4398","title":"七浦路韩国馆","lon":"121.4782303","lat":"31.245244","category":"500","category_name":"未知分类","address":"上海七浦路批发市场"},{"poiid":"B2094654DA6FA2F8429C","title":"南高寿里","lon":"121.47594","lat":"31.246386","category":"47","category_name":"住宅区","address":"海宁路942弄"},{"poiid":"B2094750DB6CA4FE449D","title":"正大","lon":"121.475636","lat":"31.24442","category":"500","category_name":"未知分类","address":null},{"poiid":"B2094757DA6BA4FA429C","title":"长泰企业天地广场","lon":"121.476942","lat":"31.245884","category":"252","category_name":"楼宇机构","address":"城阳308国道西侧，华仙路北侧"},{"poiid":"B209475CD76CA3FF469C","title":"cafe lugo","lon":"121.473312","lat":"31.243223","category":"500","category_name":"未知分类","address":"上海市 上海市闸北区西藏北路166号大悦城一楼"},{"poiid":"B2094654DA6FA6F84999","title":"七浦商厦","lon":"121.47499","lat":"31.24441","category":"46","category_name":"楼宇","address":"七浦路535"},{"poiid":"B2094655D26CA4F5459C","title":"北站街道社区卫生服务中心(海宁路)","lon":"121.47467","lat":"31.24595","category":"162","category_name":"医院","address":"海宁路1020"},{"poiid":"B2094753DB6DA6F9439B","title":"海宁凯元国际酒店","lon":"121.4758564","lat":"31.2460623","category":"213","category_name":"五星级宾馆","address":"海宁海宁市火车站广场65号"},{"poiid":"B2094654DB6BABFC479D","title":"闽旺火锅楼 海宁店","lon":"121.47556112831","lat":"31.245693898904","category":"86","category_name":"火锅店","address":"虹口区海宁路977号(近浙江北路)"},{"poiid":"B2094757D465A0F44192","title":"吉祥馄饨 浙江北路店 Gll Wonton","lon":"121.474954054","lat":"31.247073793","category":"68","category_name":"快餐厅","address":"闸北区浙江北路354号(近天目东路)"},{"poiid":"B2094757D06BABF4489D","title":"北站派出所","lon":"121.474915","lat":"31.246779","category":"609","category_name":"警察局","address":"上海浙江北路321号"},{"poiid":"B2094757D068A5F8499B","title":"妯娌老鸭粉丝(七浦路店)","lon":"121.47583","lat":"31.24439","category":"257","category_name":"中餐厅","address":"上海虹口区七浦路  "},{"poiid":"B2094654DB65A0F54898","title":"茶风暴 七浦路店 Tea Storm","lon":"121.475365054","lat":"31.244604793","category":"113","category_name":"冷饮店","address":"虹口区七浦路486号(近浙江路)"},{"poiid":"B2094655D26CA4F54999","title":"好德No.262","lon":"121.47526","lat":"31.24549","category":"117","category_name":"便民商店/便利店","address":"海宁路975"},{"poiid":"B2094654DB6BA4F4439E","title":"福康里(东门)","lon":"121.47505","lat":"31.24643","category":"47","category_name":"住宅区","address":""},{"poiid":"B2094654DA6FA6F8479F","title":"上海休闲职业技能培训中心","lon":"121.4748","lat":"31.24538","category":"54","category_name":"职业技术学校","address":"海宁路999"},{"poiid":"B2094757D16CA0FA429B","title":"中油梅山 海宁路 加油站","lon":"121.47585063","lat":"31.245543644","category":"154","category_name":"加油加气站","address":"上海闸北区海宁路971号"},{"poiid":"B2094654DA6FA2FE469C","title":"六桂坊","lon":"121.47489","lat":"31.24666","category":"47","category_name":"住宅区","address":""},{"poiid":"B2094654DA6FA2FE489A","title":"良友金伴No.868","lon":"121.47511","lat":"31.24698","category":"117","category_name":"便民商店/便利店","address":"浙江北路328"},{"poiid":"B2094655D26DA7FE459C","title":"六桂坊(东门)","lon":"121.47495","lat":"31.2467","category":"47","category_name":"住宅区","address":""},{"poiid":"B2094654DA6FAAF44792","title":"四行仓库创意科技园区","lon":"121.478","lat":"31.2464","category":"45","category_name":"产业园区","address":"光复路1号老四行创意园5-6层"},{"poiid":"B2094654DA6FA6FB4293","title":"白马大厦(东楼)","lon":"121.47773","lat":"31.24554","category":"46","category_name":"楼宇","address":"塘沽路985号"},{"poiid":"B2094752D76BA2FD4593","title":"虹桥机场2号航站楼","lon":"121.473502","lat":"31.248145","category":"500","category_name":"未知分类","address":"虹桥机场"},{"poiid":"B2094757D16AA7FA449E","title":"948路天目东路晋元路站","lon":"121.475117","lat":"31.246241","category":"500","category_name":"未知分类","address":"上海天目东路晋元路"},{"poiid":"B2094654DA6FA6F8499A","title":"阿七头酒店","lon":"121.47549","lat":"31.24458","category":"257","category_name":"中餐厅","address":"虹口区七浦路(浙江北路口西北面)"},{"poiid":"B2094757D169A1FE439F","title":"安庆路","lon":"121.47683573","lat":"31.247443667","category":"500","category_name":"未知分类","address":"上海安庆路康乐路"},{"poiid":"B2094654D56DA1F94899","title":"上海市闸北区第一中心小学","lon":"121.47623","lat":"31.24819","category":"56","category_name":"小学","address":"闸北区康乐路199号(近天目东路)"},{"poiid":"B2094654DA6FA2FF429A","title":"北站社区文化活动中心","lon":"121.47686","lat":"31.24664","category":"252","category_name":"楼宇机构","address":"康乐路101号"},{"poiid":"B2094655D269ABF84199","title":"相声大会弘春社","lon":"121.47685","lat":"31.24664","category":"247","category_name":"餐饮美食","address":"闸北区康乐路101号北站社区文化活动中心6楼剧场(海宁路口)"},{"poiid":"B2094654DA6FA2FF479C","title":"北高寿里","lon":"121.47555","lat":"31.247454","category":"47","category_name":"住宅区","address":"天目东路245弄"},{"poiid":"B2094757D56CA4F9419B","title":"百面玲珑","lon":"121.48121129673","lat":"31.245542027384","category":"247","category_name":"餐饮美食","address":"七浦路133号5F"},{"poiid":"B2094654DA6FA2FF409D","title":"德润坊","lon":"121.47644","lat":"31.24736","category":"47","category_name":"住宅区","address":"安庆路461弄"},{"poiid":"B2094757D06BAAFE429C","title":"新川专线","lon":"121.47561938","lat":"31.2443002","category":"38","category_name":"公交车站","address":"川沙镇—上海火车站"},{"poiid":"B2094655D26CAAFA4592","title":"祥新里(北门)","lon":"121.47605","lat":"31.24733","category":"47","category_name":"住宅区","address":"安庆路487弄"},{"poiid":"B2094654DA6FA6FA4199","title":"上海梦比服装有限公司","lon":"121.4764","lat":"31.24508","category":"141","category_name":"服装鞋帽皮具店","address":"七浦路470-176"}]