[{"poiid":"B2094655D26CA4FB4499","title":"上海滩国际大厦","lon":"121.499","lat":"31.2502","category":"46","category_name":"楼宇","address":"丰台学城海鹰路1号,3号"},{"poiid":"B2094757D06FA7FE419F","title":"上海国际港务大厦","lon":"121.49573516","lat":"31.246837616","category":"46","category_name":"楼宇","address":"上海东大名路358号"},{"poiid":"B2094757D064ABF5479C","title":"Tavola Italian Dining","lon":"121.502135738","lat":"31.2423945594","category":"500","category_name":"未知分类","address":"上海浦东新区滨江大道2500号"},{"poiid":"B209475CD564A7F84392","title":"上海滩浦东香格里拉店","lon":"121.50058","lat":"31.23634","category":"119","category_name":"商场","address":"浦东富成路33号香格里拉酒店内大堂层"},{"poiid":"B2094654DA6FA7F8429F","title":"远洋海星旋转餐厅","lon":"121.49625","lat":"31.24696","category":"257","category_name":"中餐厅","address":"虹口区东大名路378号远洋大厦28楼(近旅顺路)"},{"poiid":"B2094757D068AAF9489B","title":"海逸海鲜(滨江大道店)","lon":"121.5021791","lat":"31.242800436","category":"72","category_name":"广东菜","address":"浦东新区滨江大道2450号(近星展银行大厦停车场)"},{"poiid":"B2094655D26DA3FF489B","title":"外滩12号大楼","lon":"121.497","lat":"31.2418","category":"46","category_name":"楼宇","address":"黄浦区中山东一路12号"},{"poiid":"B2094750D26AA6FB489F","title":"北外滩滨江绿地","lon":"121.499412","lat":"31.243846","category":"248","category_name":"生活娱乐","address":"东大名路新建路"},{"poiid":"B2094757D06AA1FC489E","title":"上海港","lon":"121.497051","lat":"31.247305","category":"500","category_name":"未知分类","address":"上海东大名路500号"},{"poiid":"B2094757D06FA6F54893","title":"上海港国际客运中心","lon":"121.50271","lat":"31.24954","category":"35","category_name":"长途汽车站","address":"虹口区东大名路800号(近高阳路)"},{"poiid":"B2094757D068A3F5469E","title":"海员医院(东长治路分院)","lon":"121.498129972","lat":"31.250511409","category":"162","category_name":"医院","address":"上海虹口区东长治路505号"},{"poiid":"B2094757D06FA4FE4999","title":"海湾大厦","lon":"121.498","lat":"31.2499","category":"46","category_name":"楼宇","address":"虹口区黄浦路53号(近外白渡桥)"},{"poiid":"B2094757D064A3F8429D","title":"上海建工集团总公司","lon":"121.501623103","lat":"31.2491349775","category":"263","category_name":"公司","address":"上海市虹口区东大名路666号"},{"poiid":"B2094757D068A6F4459F","title":"芳庭海鲜酒店","lon":"121.50299835","lat":"31.25","category":"88","category_name":"海鲜酒楼","address":"虹口区东大名路809号(近高阳路)"},{"poiid":"B2094757D168AAF44793","title":"Tavola","lon":"121.50140267","lat":"31.242693473","category":"94","category_name":"西餐厅","address":"浦东新区滨江大道2500号(近星展银行)"},{"poiid":"B2094752D66FA2F4479A","title":"蒗葶泰式酒吧餐厅","lon":"121.498146","lat":"31.241444","category":"256","category_name":"外国餐厅","address":"上海市 滨江大道2600号"},{"poiid":"B2094655D36CA6FB4992","title":"东大名路旅顺路","lon":"121.49738","lat":"31.24778","category":"38","category_name":"公交车站","address":""},{"poiid":"B2094757D069AAFF4192","title":"COSTA COFFEE (星展店)","lon":"121.50335442","lat":"31.241647043","category":"65","category_name":"咖啡厅","address":"浦东新区陆家嘴环路1318号星展银行大厦B104号商铺(近海洋水族馆)"},{"poiid":"B2094655D268A7FF449E","title":"上海北外滩白玉兰广场","lon":"121.49682","lat":"31.24851","category":"119","category_name":"商场","address":""},{"poiid":"B2094757D06BA4FC459F","title":"美年体检","lon":"121.49821","lat":"31.250433","category":"162","category_name":"医院","address":"虹口区东长治路505号"},{"poiid":"B2094752D069A2FF419A","title":"新白鹿","lon":"121.4996283","lat":"31.2488492","category":"247","category_name":"餐饮美食","address":"南京东路800号东方商厦9楼"},{"poiid":"B2094757D568A1FD429C","title":"上海港国际客运中心1号游艇码头","lon":"121.503768","lat":"31.248825","category":"35","category_name":"长途汽车站","address":"中国上海市虹口区"},{"poiid":"B2094757D06AA3FF499C","title":"中国海运","lon":"121.50300508","lat":"31.249953241","category":"46","category_name":"楼宇","address":"上海东大名路700号"},{"poiid":"B2094757D16FA3FE429D","title":"上海现代服务业联合会","lon":"121.49942873","lat":"31.242220555","category":"500","category_name":"未知分类","address":"上海市滨江大道2525弄5号A幢"},{"poiid":"B2094757DB69A6F84493","title":"hoF bar&brasserie","lon":"121.497146","lat":"31.241518","category":"247","category_name":"餐饮美食","address":"陆家嘴环路1318号"},{"poiid":"B2094757D06AA7FA409D","title":"东长治路","lon":"121.5008371","lat":"31.250816012","category":"500","category_name":"未知分类","address":"上海东长治路"},{"poiid":"B2094757D068A3FE4998","title":"火车头","lon":"121.50325071","lat":"31.241650306","category":"99","category_name":"泰国／越南菜品餐厅","address":"浦东新区陆家嘴环路1318号星展银行大厦B1楼02号(东园路陆家嘴环路)"},{"poiid":"B2094752D36BABF8459D","title":"星巴克(国际港务大厦店)","lon":"121.49583","lat":"31.2467","category":"247","category_name":"餐饮美食","address":"虹口区东大名路358号国际港务大厦内(近太平路)"},{"poiid":"B2094757D16CABFD429F","title":"浦江二号","lon":"121.5048131","lat":"31.248448963","category":"252","category_name":"楼宇机构","address":"上海市浦东新区滨江大道2050号"},{"poiid":"B2094655D26FAAF8489D","title":"港务大厦","lon":"121.504","lat":"31.2459","category":"46","category_name":"楼宇","address":"丰和路1号"},{"poiid":"B2094757DA69A1FC4098","title":"皇家加勒比国际游轮","lon":"121.49591","lat":"31.24677","category":"254","category_name":"售票处","address":"东大名路358号国际港务大厦"},{"poiid":"B2094757D069A4FB4792","title":"小红楼","lon":"121.49729584","lat":"31.247755583","category":"46","category_name":"楼宇","address":"上海东大名路388号"},{"poiid":"B2094757D16DA5F5469C","title":"DIESEL (国金中心店)","lon":"121.50080905","lat":"31.24400486","category":"500","category_name":"未知分类","address":"浦东新区世纪大道8号国金中心商场B1楼(近东泰路)"},{"poiid":"B2094655D26BA1FB479F","title":"旅顺路","lon":"121.49766","lat":"31.24784","category":"38","category_name":"公交车站","address":""},{"poiid":"B2094753D66AA5F4429C","title":"苏荷国际青年旅社（外滩店）","lon":"121.498199","lat":"31.244382","category":"500","category_name":"未知分类","address":"上海市 上海市虹口区大名路239号"},{"poiid":"B2094757D16AA7FE459C","title":"宜芝多(静安寺)","lon":"121.498605538","lat":"31.2444066023","category":"500","category_name":"未知分类","address":"上海静安寺"},{"poiid":"B209475CD36CA3F5439D","title":"远洋海皇","lon":"121.49665","lat":"31.24716","category":"76","category_name":"上海菜","address":"东大名路378号远洋大厦28楼(近旅顺路)"},{"poiid":"B2094752D064A6F84898","title":"上海东方明珠电视塔","lon":"121.500468","lat":"31.247754","category":"500","category_name":"未知分类","address":null},{"poiid":"B209475CD06BA3F8469E","title":"蒗葶泰式酒吧餐厅 滨江大道店","lon":"121.49945","lat":"31.24193","category":"99","category_name":"泰国／越南菜品餐厅","address":"陆家嘴滨江大道2600号(近东园路)"},{"poiid":"B2094655D264A5F94099","title":"中国移动通信国客中心营业厅","lon":"121.4988","lat":"31.24843","category":"151","category_name":"电讯营业厅","address":"东大名路500号B1层28室候船大厅内"},{"poiid":"B2094655D26DA2FE469E","title":"中欧陆家嘴国际金融研究院","lon":"121.50205","lat":"31.24154","category":"191","category_name":"科研机构","address":""},{"poiid":"B2094751DA65A0F8419A","title":"东方明珠塔267m旋转餐厅","lon":"121.500593","lat":"31.241033","category":"247","category_name":"餐饮美食","address":null},{"poiid":"B2094751D26AA3FA479F","title":"东方明珠电视塔","lon":"121.505035","lat":"31.245845","category":"250","category_name":"公园户外","address":"上海"},{"poiid":"B2094750D66AA0FB469A","title":"上海昆虫馆","lon":"121.501121","lat":"31.243379","category":"500","category_name":"未知分类","address":"陆家嘴丰和路1号"},{"poiid":"B2094750DB6CA1FB4199","title":"上海国际客运中心","lon":"121.496757","lat":"31.245241","category":"500","category_name":"未知分类","address":null},{"poiid":"B2094757D16AA3F94698","title":"上港花园","lon":"121.49710173","lat":"31.247776974","category":"47","category_name":"住宅区","address":"虹口区东大名路358号"},{"poiid":"B2094655D36CA6F4409E","title":"东大名路高阳路","lon":"121.50246","lat":"31.25008","category":"38","category_name":"公交车站","address":""},{"poiid":"B2094753D36EA2FD4299","title":"滨江3号","lon":"121.500732","lat":"31.24251","category":"47","category_name":"住宅区","address":"滨江大道2550号"},{"poiid":"B209475CD169A0FB419C","title":"浦东新区滨江大道","lon":"121.501388","lat":"31.243095","category":"500","category_name":"未知分类","address":"上海市 浦东新区滨江大道"},{"poiid":"B2094757DA6EABF84393","title":"宝钢资源大厦","lon":"121.499366700002","lat":"31.2487691999997","category":"252","category_name":"楼宇机构","address":"虹口区东大名路568号"},{"poiid":"B2094655D26CA4FB4499","title":"上海滩国际大厦","lon":"121.499","lat":"31.2502","category":"46","category_name":"楼宇","address":"丰台学城海鹰路1号,3号"},{"poiid":"B2094757D06FA7FE419F","title":"上海国际港务大厦","lon":"121.49573516","lat":"31.246837616","category":"46","category_name":"楼宇","address":"上海东大名路358号"},{"poiid":"B2094757D064ABF5479C","title":"Tavola Italian Dining","lon":"121.502135738","lat":"31.2423945594","category":"500","category_name":"未知分类","address":"上海浦东新区滨江大道2500号"},{"poiid":"B209475CD564A7F84392","title":"上海滩浦东香格里拉店","lon":"121.50058","lat":"31.23634","category":"119","category_name":"商场","address":"浦东富成路33号香格里拉酒店内大堂层"},{"poiid":"B2094654DA6FA7F8429F","title":"远洋海星旋转餐厅","lon":"121.49625","lat":"31.24696","category":"257","category_name":"中餐厅","address":"虹口区东大名路378号远洋大厦28楼(近旅顺路)"},{"poiid":"B2094757D068AAF9489B","title":"海逸海鲜(滨江大道店)","lon":"121.5021791","lat":"31.242800436","category":"72","category_name":"广东菜","address":"浦东新区滨江大道2450号(近星展银行大厦停车场)"},{"poiid":"B2094655D26DA3FF489B","title":"外滩12号大楼","lon":"121.497","lat":"31.2418","category":"46","category_name":"楼宇","address":"黄浦区中山东一路12号"},{"poiid":"B2094750D26AA6FB489F","title":"北外滩滨江绿地","lon":"121.499412","lat":"31.243846","category":"248","category_name":"生活娱乐","address":"东大名路新建路"},{"poiid":"B2094757D06AA1FC489E","title":"上海港","lon":"121.497051","lat":"31.247305","category":"500","category_name":"未知分类","address":"上海东大名路500号"},{"poiid":"B2094757D06FA6F54893","title":"上海港国际客运中心","lon":"121.50271","lat":"31.24954","category":"35","category_name":"长途汽车站","address":"虹口区东大名路800号(近高阳路)"},{"poiid":"B2094757D068A3F5469E","title":"海员医院(东长治路分院)","lon":"121.498129972","lat":"31.250511409","category":"162","category_name":"医院","address":"上海虹口区东长治路505号"},{"poiid":"B2094757D06FA4FE4999","title":"海湾大厦","lon":"121.498","lat":"31.2499","category":"46","category_name":"楼宇","address":"虹口区黄浦路53号(近外白渡桥)"},{"poiid":"B2094757D064A3F8429D","title":"上海建工集团总公司","lon":"121.501623103","lat":"31.2491349775","category":"263","category_name":"公司","address":"上海市虹口区东大名路666号"},{"poiid":"B2094757D068A6F4459F","title":"芳庭海鲜酒店","lon":"121.50299835","lat":"31.25","category":"88","category_name":"海鲜酒楼","address":"虹口区东大名路809号(近高阳路)"},{"poiid":"B2094757D168AAF44793","title":"Tavola","lon":"121.50140267","lat":"31.242693473","category":"94","category_name":"西餐厅","address":"浦东新区滨江大道2500号(近星展银行)"},{"poiid":"B2094752D66FA2F4479A","title":"蒗葶泰式酒吧餐厅","lon":"121.498146","lat":"31.241444","category":"256","category_name":"外国餐厅","address":"上海市 滨江大道2600号"},{"poiid":"B2094655D36CA6FB4992","title":"东大名路旅顺路","lon":"121.49738","lat":"31.24778","category":"38","category_name":"公交车站","address":""},{"poiid":"B2094757D069AAFF4192","title":"COSTA COFFEE (星展店)","lon":"121.50335442","lat":"31.241647043","category":"65","category_name":"咖啡厅","address":"浦东新区陆家嘴环路1318号星展银行大厦B104号商铺(近海洋水族馆)"},{"poiid":"B2094655D268A7FF449E","title":"上海北外滩白玉兰广场","lon":"121.49682","lat":"31.24851","category":"119","category_name":"商场","address":""},{"poiid":"B2094757D06BA4FC459F","title":"美年体检","lon":"121.49821","lat":"31.250433","category":"162","category_name":"医院","address":"虹口区东长治路505号"},{"poiid":"B2094752D069A2FF419A","title":"新白鹿","lon":"121.4996283","lat":"31.2488492","category":"247","category_name":"餐饮美食","address":"南京东路800号东方商厦9楼"},{"poiid":"B2094757D568A1FD429C","title":"上海港国际客运中心1号游艇码头","lon":"121.503768","lat":"31.248825","category":"35","category_name":"长途汽车站","address":"中国上海市虹口区"},{"poiid":"B2094757D06AA3FF499C","title":"中国海运","lon":"121.50300508","lat":"31.249953241","category":"46","category_name":"楼宇","address":"上海东大名路700号"},{"poiid":"B2094757D16FA3FE429D","title":"上海现代服务业联合会","lon":"121.49942873","lat":"31.242220555","category":"500","category_name":"未知分类","address":"上海市滨江大道2525弄5号A幢"},{"poiid":"B2094757DB69A6F84493","title":"hoF bar&brasserie","lon":"121.497146","lat":"31.241518","category":"247","category_name":"餐饮美食","address":"陆家嘴环路1318号"},{"poiid":"B2094757D06AA7FA409D","title":"东长治路","lon":"121.5008371","lat":"31.250816012","category":"500","category_name":"未知分类","address":"上海东长治路"},{"poiid":"B2094757D068A3FE4998","title":"火车头","lon":"121.50325071","lat":"31.241650306","category":"99","category_name":"泰国／越南菜品餐厅","address":"浦东新区陆家嘴环路1318号星展银行大厦B1楼02号(东园路陆家嘴环路)"},{"poiid":"B2094752D36BABF8459D","title":"星巴克(国际港务大厦店)","lon":"121.49583","lat":"31.2467","category":"247","category_name":"餐饮美食","address":"虹口区东大名路358号国际港务大厦内(近太平路)"},{"poiid":"B2094757D16CABFD429F","title":"浦江二号","lon":"121.5048131","lat":"31.248448963","category":"252","category_name":"楼宇机构","address":"上海市浦东新区滨江大道2050号"},{"poiid":"B2094655D26FAAF8489D","title":"港务大厦","lon":"121.504","lat":"31.2459","category":"46","category_name":"楼宇","address":"丰和路1号"},{"poiid":"B2094757DA69A1FC4098","title":"皇家加勒比国际游轮","lon":"121.49591","lat":"31.24677","category":"254","category_name":"售票处","address":"东大名路358号国际港务大厦"},{"poiid":"B2094757D069A4FB4792","title":"小红楼","lon":"121.49729584","lat":"31.247755583","category":"46","category_name":"楼宇","address":"上海东大名路388号"},{"poiid":"B2094757D16DA5F5469C","title":"DIESEL (国金中心店)","lon":"121.50080905","lat":"31.24400486","category":"500","category_name":"未知分类","address":"浦东新区世纪大道8号国金中心商场B1楼(近东泰路)"},{"poiid":"B2094655D26BA1FB479F","title":"旅顺路","lon":"121.49766","lat":"31.24784","category":"38","category_name":"公交车站","address":""},{"poiid":"B2094753D66AA5F4429C","title":"苏荷国际青年旅社（外滩店）","lon":"121.498199","lat":"31.244382","category":"500","category_name":"未知分类","address":"上海市 上海市虹口区大名路239号"},{"poiid":"B2094757D16AA7FE459C","title":"宜芝多(静安寺)","lon":"121.498605538","lat":"31.2444066023","category":"500","category_name":"未知分类","address":"上海静安寺"},{"poiid":"B209475CD36CA3F5439D","title":"远洋海皇","lon":"121.49665","lat":"31.24716","category":"76","category_name":"上海菜","address":"东大名路378号远洋大厦28楼(近旅顺路)"},{"poiid":"B2094752D064A6F84898","title":"上海东方明珠电视塔","lon":"121.500468","lat":"31.247754","category":"500","category_name":"未知分类","address":null},{"poiid":"B209475CD06BA3F8469E","title":"蒗葶泰式酒吧餐厅 滨江大道店","lon":"121.49945","lat":"31.24193","category":"99","category_name":"泰国／越南菜品餐厅","address":"陆家嘴滨江大道2600号(近东园路)"},{"poiid":"B2094655D264A5F94099","title":"中国移动通信国客中心营业厅","lon":"121.4988","lat":"31.24843","category":"151","category_name":"电讯营业厅","address":"东大名路500号B1层28室候船大厅内"},{"poiid":"B2094655D26DA2FE469E","title":"中欧陆家嘴国际金融研究院","lon":"121.50205","lat":"31.24154","category":"191","category_name":"科研机构","address":""},{"poiid":"B2094751DA65A0F8419A","title":"东方明珠塔267m旋转餐厅","lon":"121.500593","lat":"31.241033","category":"247","category_name":"餐饮美食","address":null},{"poiid":"B2094751D26AA3FA479F","title":"东方明珠电视塔","lon":"121.505035","lat":"31.245845","category":"250","category_name":"公园户外","address":"上海"},{"poiid":"B2094750D66AA0FB469A","title":"上海昆虫馆","lon":"121.501121","lat":"31.243379","category":"500","category_name":"未知分类","address":"陆家嘴丰和路1号"},{"poiid":"B2094750DB6CA1FB4199","title":"上海国际客运中心","lon":"121.496757","lat":"31.245241","category":"500","category_name":"未知分类","address":null},{"poiid":"B2094757D16AA3F94698","title":"上港花园","lon":"121.49710173","lat":"31.247776974","category":"47","category_name":"住宅区","address":"虹口区东大名路358号"},{"poiid":"B2094655D36CA6F4409E","title":"东大名路高阳路","lon":"121.50246","lat":"31.25008","category":"38","category_name":"公交车站","address":""},{"poiid":"B2094753D36EA2FD4299","title":"滨江3号","lon":"121.500732","lat":"31.24251","category":"47","category_name":"住宅区","address":"滨江大道2550号"},{"poiid":"B209475CD169A0FB419C","title":"浦东新区滨江大道","lon":"121.501388","lat":"31.243095","category":"500","category_name":"未知分类","address":"上海市 浦东新区滨江大道"},{"poiid":"B2094757DA6EABF84393","title":"宝钢资源大厦","lon":"121.499366700002","lat":"31.2487691999997","category":"252","category_name":"楼宇机构","address":"虹口区东大名路568号"},{"poiid":"B2094655D26CA4FB4499","title":"上海滩国际大厦","lon":"121.499","lat":"31.2502","category":"46","category_name":"楼宇","address":"丰台学城海鹰路1号,3号"},{"poiid":"B2094757D06FA7FE419F","title":"上海国际港务大厦","lon":"121.49573516","lat":"31.246837616","category":"46","category_name":"楼宇","address":"上海东大名路358号"},{"poiid":"B2094757D064ABF5479C","title":"Tavola Italian Dining","lon":"121.502135738","lat":"31.2423945594","category":"500","category_name":"未知分类","address":"上海浦东新区滨江大道2500号"},{"poiid":"B209475CD564A7F84392","title":"上海滩浦东香格里拉店","lon":"121.50058","lat":"31.23634","category":"119","category_name":"商场","address":"浦东富成路33号香格里拉酒店内大堂层"},{"poiid":"B2094654DA6FA7F8429F","title":"远洋海星旋转餐厅","lon":"121.49625","lat":"31.24696","category":"257","category_name":"中餐厅","address":"虹口区东大名路378号远洋大厦28楼(近旅顺路)"},{"poiid":"B2094757D068AAF9489B","title":"海逸海鲜(滨江大道店)","lon":"121.5021791","lat":"31.242800436","category":"72","category_name":"广东菜","address":"浦东新区滨江大道2450号(近星展银行大厦停车场)"},{"poiid":"B2094655D26DA3FF489B","title":"外滩12号大楼","lon":"121.497","lat":"31.2418","category":"46","category_name":"楼宇","address":"黄浦区中山东一路12号"},{"poiid":"B2094750D26AA6FB489F","title":"北外滩滨江绿地","lon":"121.499412","lat":"31.243846","category":"248","category_name":"生活娱乐","address":"东大名路新建路"},{"poiid":"B2094757D06AA1FC489E","title":"上海港","lon":"121.497051","lat":"31.247305","category":"500","category_name":"未知分类","address":"上海东大名路500号"},{"poiid":"B2094757D06FA6F54893","title":"上海港国际客运中心","lon":"121.50271","lat":"31.24954","category":"35","category_name":"长途汽车站","address":"虹口区东大名路800号(近高阳路)"},{"poiid":"B2094757D068A3F5469E","title":"海员医院(东长治路分院)","lon":"121.498129972","lat":"31.250511409","category":"162","category_name":"医院","address":"上海虹口区东长治路505号"},{"poiid":"B2094757D06FA4FE4999","title":"海湾大厦","lon":"121.498","lat":"31.2499","category":"46","category_name":"楼宇","address":"虹口区黄浦路53号(近外白渡桥)"},{"poiid":"B2094757D064A3F8429D","title":"上海建工集团总公司","lon":"121.501623103","lat":"31.2491349775","category":"263","category_name":"公司","address":"上海市虹口区东大名路666号"},{"poiid":"B2094757D068A6F4459F","title":"芳庭海鲜酒店","lon":"121.50299835","lat":"31.25","category":"88","category_name":"海鲜酒楼","address":"虹口区东大名路809号(近高阳路)"},{"poiid":"B2094757D168AAF44793","title":"Tavola","lon":"121.50140267","lat":"31.242693473","category":"94","category_name":"西餐厅","address":"浦东新区滨江大道2500号(近星展银行)"},{"poiid":"B2094752D66FA2F4479A","title":"蒗葶泰式酒吧餐厅","lon":"121.498146","lat":"31.241444","category":"256","category_name":"外国餐厅","address":"上海市 滨江大道2600号"},{"poiid":"B2094655D36CA6FB4992","title":"东大名路旅顺路","lon":"121.49738","lat":"31.24778","category":"38","category_name":"公交车站","address":""},{"poiid":"B2094757D069AAFF4192","title":"COSTA COFFEE (星展店)","lon":"121.50335442","lat":"31.241647043","category":"65","category_name":"咖啡厅","address":"浦东新区陆家嘴环路1318号星展银行大厦B104号商铺(近海洋水族馆)"},{"poiid":"B2094655D268A7FF449E","title":"上海北外滩白玉兰广场","lon":"121.49682","lat":"31.24851","category":"119","category_name":"商场","address":""},{"poiid":"B2094757D06BA4FC459F","title":"美年体检","lon":"121.49821","lat":"31.250433","category":"162","category_name":"医院","address":"虹口区东长治路505号"},{"poiid":"B2094752D069A2FF419A","title":"新白鹿","lon":"121.4996283","lat":"31.2488492","category":"247","category_name":"餐饮美食","address":"南京东路800号东方商厦9楼"},{"poiid":"B2094757D568A1FD429C","title":"上海港国际客运中心1号游艇码头","lon":"121.503768","lat":"31.248825","category":"35","category_name":"长途汽车站","address":"中国上海市虹口区"},{"poiid":"B2094757D06AA3FF499C","title":"中国海运","lon":"121.50300508","lat":"31.249953241","category":"46","category_name":"楼宇","address":"上海东大名路700号"},{"poiid":"B2094757D16FA3FE429D","title":"上海现代服务业联合会","lon":"121.49942873","lat":"31.242220555","category":"500","category_name":"未知分类","address":"上海市滨江大道2525弄5号A幢"},{"poiid":"B2094757DB69A6F84493","title":"hoF bar&brasserie","lon":"121.497146","lat":"31.241518","category":"247","category_name":"餐饮美食","address":"陆家嘴环路1318号"},{"poiid":"B2094757D06AA7FA409D","title":"东长治路","lon":"121.5008371","lat":"31.250816012","category":"500","category_name":"未知分类","address":"上海东长治路"},{"poiid":"B2094757D068A3FE4998","title":"火车头","lon":"121.50325071","lat":"31.241650306","category":"99","category_name":"泰国／越南菜品餐厅","address":"浦东新区陆家嘴环路1318号星展银行大厦B1楼02号(东园路陆家嘴环路)"},{"poiid":"B2094752D36BABF8459D","title":"星巴克(国际港务大厦店)","lon":"121.49583","lat":"31.2467","category":"247","category_name":"餐饮美食","address":"虹口区东大名路358号国际港务大厦内(近太平路)"},{"poiid":"B2094757D16CABFD429F","title":"浦江二号","lon":"121.5048131","lat":"31.248448963","category":"252","category_name":"楼宇机构","address":"上海市浦东新区滨江大道2050号"},{"poiid":"B2094655D26FAAF8489D","title":"港务大厦","lon":"121.504","lat":"31.2459","category":"46","category_name":"楼宇","address":"丰和路1号"},{"poiid":"B2094757DA69A1FC4098","title":"皇家加勒比国际游轮","lon":"121.49591","lat":"31.24677","category":"254","category_name":"售票处","address":"东大名路358号国际港务大厦"},{"poiid":"B2094757D069A4FB4792","title":"小红楼","lon":"121.49729584","lat":"31.247755583","category":"46","category_name":"楼宇","address":"上海东大名路388号"},{"poiid":"B2094757D16DA5F5469C","title":"DIESEL (国金中心店)","lon":"121.50080905","lat":"31.24400486","category":"500","category_name":"未知分类","address":"浦东新区世纪大道8号国金中心商场B1楼(近东泰路)"},{"poiid":"B2094655D26BA1FB479F","title":"旅顺路","lon":"121.49766","lat":"31.24784","category":"38","category_name":"公交车站","address":""},{"poiid":"B2094753D66AA5F4429C","title":"苏荷国际青年旅社（外滩店）","lon":"121.498199","lat":"31.244382","category":"500","category_name":"未知分类","address":"上海市 上海市虹口区大名路239号"},{"poiid":"B2094757D16AA7FE459C","title":"宜芝多(静安寺)","lon":"121.498605538","lat":"31.2444066023","category":"500","category_name":"未知分类","address":"上海静安寺"},{"poiid":"B209475CD36CA3F5439D","title":"远洋海皇","lon":"121.49665","lat":"31.24716","category":"76","category_name":"上海菜","address":"东大名路378号远洋大厦28楼(近旅顺路)"},{"poiid":"B2094752D064A6F84898","title":"上海东方明珠电视塔","lon":"121.500468","lat":"31.247754","category":"500","category_name":"未知分类","address":null},{"poiid":"B209475CD06BA3F8469E","title":"蒗葶泰式酒吧餐厅 滨江大道店","lon":"121.49945","lat":"31.24193","category":"99","category_name":"泰国／越南菜品餐厅","address":"陆家嘴滨江大道2600号(近东园路)"},{"poiid":"B2094655D264A5F94099","title":"中国移动通信国客中心营业厅","lon":"121.4988","lat":"31.24843","category":"151","category_name":"电讯营业厅","address":"东大名路500号B1层28室候船大厅内"},{"poiid":"B2094655D26DA2FE469E","title":"中欧陆家嘴国际金融研究院","lon":"121.50205","lat":"31.24154","category":"191","category_name":"科研机构","address":""},{"poiid":"B2094751DA65A0F8419A","title":"东方明珠塔267m旋转餐厅","lon":"121.500593","lat":"31.241033","category":"247","category_name":"餐饮美食","address":null},{"poiid":"B2094751D26AA3FA479F","title":"东方明珠电视塔","lon":"121.505035","lat":"31.245845","category":"250","category_name":"公园户外","address":"上海"},{"poiid":"B2094750D66AA0FB469A","title":"上海昆虫馆","lon":"121.501121","lat":"31.243379","category":"500","category_name":"未知分类","address":"陆家嘴丰和路1号"},{"poiid":"B2094750DB6CA1FB4199","title":"上海国际客运中心","lon":"121.496757","lat":"31.245241","category":"500","category_name":"未知分类","address":null},{"poiid":"B2094757D16AA3F94698","title":"上港花园","lon":"121.49710173","lat":"31.247776974","category":"47","category_name":"住宅区","address":"虹口区东大名路358号"},{"poiid":"B2094655D36CA6F4409E","title":"东大名路高阳路","lon":"121.50246","lat":"31.25008","category":"38","category_name":"公交车站","address":""},{"poiid":"B2094753D36EA2FD4299","title":"滨江3号","lon":"121.500732","lat":"31.24251","category":"47","category_name":"住宅区","address":"滨江大道2550号"},{"poiid":"B209475CD169A0FB419C","title":"浦东新区滨江大道","lon":"121.501388","lat":"31.243095","category":"500","category_name":"未知分类","address":"上海市 浦东新区滨江大道"},{"poiid":"B2094757DA6EABF84393","title":"宝钢资源大厦","lon":"121.499366700002","lat":"31.2487691999997","category":"252","category_name":"楼宇机构","address":"虹口区东大名路568号"}]