[{"poiid":"B2094654DB64A6FD4593","title":"大光明电影院","lon":"121.47128","lat":"31.23298","category":"178","category_name":"电影院","address":"黄浦区南京西路216号(黄河路南京西路)"},{"poiid":"B2094654DA68A3FD419B","title":"佳家汤包 黄河店","lon":"121.47105017344","lat":"31.233958297842","category":"68","category_name":"快餐厅","address":"黄浦区黄河路90号(近凤阳路)"},{"poiid":"B2094757D16FA6FF459C","title":"雅科","lon":"121.47077873","lat":"31.231950336","category":"76","category_name":"上海菜","address":"黄浦区南京西路248号大光明影院3楼屋顶花园(近黄河路)"},{"poiid":"B2094753D76FAAFA449C","title":"上海滩国泰旗舰店","lon":"121.466011","lat":"31.216125","category":"249","category_name":"购物服务","address":"淮海中路868号"},{"poiid":"B209475CD564A7F84292","title":"上海滩新天地店","lon":"121.47463","lat":"31.22164","category":"119","category_name":"商场","address":"\"太仓路181弄新天地北里15号\r\n\""},{"poiid":"B209475CD564A7F8439E","title":"上海滩中信泰富店","lon":"121.45602","lat":"31.22851","category":"119","category_name":"商场","address":"\"南京西路1168号中信泰富广场，店铺号221.\r\n\""},{"poiid":"B209475CD564A7F84392","title":"上海滩浦东香格里拉店","lon":"121.50058","lat":"31.23634","category":"119","category_name":"商场","address":"浦东富成路33号香格里拉酒店内大堂层"},{"poiid":"B2094757DA6EABFF499A","title":"爆爆椒香辣虾干锅三绝(人民广场店)","lon":"121.470959999998","lat":"31.2325700000003","category":"71","category_name":"四川菜","address":"黄浦区南京西路258号世茂商都5楼(近黄河路)"},{"poiid":"B2094757D06EAAFD4292","title":"老克勒上海菜 南京西路店","lon":"121.47031","lat":"31.23222","category":"76","category_name":"上海菜","address":"黄浦区南京西路288号创兴金融中心2楼(近新昌路)"},{"poiid":"B2094757D06AAAFA4192","title":"王鼎日本料理","lon":"121.471065738","lat":"31.2323493453","category":"500","category_name":"未知分类","address":"上海南京西路258世贸商都7-8"},{"poiid":"B2094757D06FA3F5439B","title":"香港仔码头茶餐厅(凤阳店)","lon":"121.47068","lat":"31.23366","category":"72","category_name":"广东菜","address":"黄浦区凤阳路280号(近黄河路)"},{"poiid":"B2094757D06FA3F94293","title":"悦来酒家","lon":"121.47086","lat":"31.23386","category":"76","category_name":"上海菜","address":"黄浦区黄河路81号(近凤阳路)"},{"poiid":"B2094654DA68A3FD479C","title":"天安中心","lon":"121.46978","lat":"31.23174","category":"46","category_name":"楼宇","address":"上海南京西路338号"},{"poiid":"B2094654DA6FAAF54499","title":"苔圣园(黄浦店)","lon":"121.47105","lat":"31.23409","category":"76","category_name":"上海菜","address":"黄浦区黄河路50号(近凤阳路)"},{"poiid":"B2094757D06BA1F84698","title":"杏花楼","lon":"121.471473738","lat":"31.2333003655","category":"72","category_name":"广东菜","address":"黄浦区黄河路21号鸿祥大厦3-4楼(近南京西路)"},{"poiid":"B2094757D06FA1F4489F","title":"黄河路美食街","lon":"121.47142","lat":"31.23348","category":"68","category_name":"快餐厅","address":"黄浦区黄河路(近新闸路)"},{"poiid":"B2094757D06FA5FF4098","title":"金八仙","lon":"121.47112","lat":"31.23428","category":"76","category_name":"上海菜","address":"上海黄浦区黄河路96-98号(近凤阳路)"},{"poiid":"B2094757D06FA7F9469B","title":"粤味馆(黃河路店)","lon":"121.47027","lat":"31.23506","category":"72","category_name":"广东菜","address":"黄浦区黄河路147号(近北京西路)"},{"poiid":"B209475DD06CA3FC419A","title":"南京大排档","lon":"121.470893","lat":"31.232265","category":"247","category_name":"餐饮美食","address":"上海市 南京西路258号世茂商都3楼(近新昌路)"},{"poiid":"B2094757D06FA1F9479C","title":"国际饭店西饼屋(黄河路店)","lon":"121.471436532","lat":"31.233682045","category":"112","category_name":"糕饼店","address":"黄浦区黄河路28号国际饭店内"},{"poiid":"B2094757D06FA3FE469D","title":"旺旺大厦","lon":"121.469","lat":"31.234","category":"46","category_name":"楼宇","address":"丰台学城海鹰路1号,3号"},{"poiid":"B2094654DA68A3FD409C","title":"乾隆美食","lon":"121.4711458394","lat":"31.234298079704","category":"76","category_name":"上海菜","address":"黄浦区黄河路72-76号(凤阳路口)"},{"poiid":"B2094757D06FA6FF4598","title":"晶采世纪大厦","lon":"121.468","lat":"31.2329","category":"46","category_name":"楼宇","address":"珠江新城华穗路与华利路交汇处"},{"poiid":"B209475DD06CA3FC469F","title":"南京大牌档","lon":"121.470848","lat":"31.232343","category":"500","category_name":"未知分类","address":"上海市 南京西路258号世茂商都3楼(近新昌路)"},{"poiid":"B209475DD56BAAFC4893","title":"南京大排档","lon":"121.470718","lat":"31.231937","category":"247","category_name":"餐饮美食","address":"上海市 南京西路258号世贸商都3楼"},{"poiid":"B2094750D568A3FE4098","title":"星巴克(西藏中路二店)","lon":"121.47","lat":"31.2353","category":"260","category_name":"其他","address":"黄浦区西藏中路289号(近九江路)"},{"poiid":"B2094757DB68A5FF449C","title":"上海 来福士","lon":"121.4678278181757","lat":"31.23394058782101","category":"247","category_name":"餐饮美食","address":"人民广场"},{"poiid":"B2094757D569A2FA4792","title":"雅科空中花园酒吧","lon":"121.4712956","lat":"31.23302417","category":"172","category_name":"酒吧","address":"南京西路216号大光明影院3层"},{"poiid":"B2094757DB65A2FD4093","title":"红料理（仙乐斯广场店）","lon":"121.469","lat":"31.2314","category":"257","category_name":"中餐厅","address":"上海黄浦区南京西路388号 仙乐斯广场地下一层"},{"poiid":"B2094757D06FA1FB439D","title":"85度C(南京西店)","lon":"121.471330475","lat":"31.2330760642","category":"112","category_name":"糕饼店","address":"黄浦区南京西路226号(近黄河路)"},{"poiid":"B2094757D06AA5F54592","title":"世贸商都","lon":"121.470635","lat":"31.232439","category":"119","category_name":"商场","address":"上海南京西路258号"},{"poiid":"B2094757DB6DA3F4449D","title":"三人行","lon":"121.469367","lat":"31.233615","category":"247","category_name":"餐饮美食","address":"世贸百联店"},{"poiid":"B2094757D664A6F9459E","title":"沪上一家辣肉面馆 黄河路店","lon":"121.470459054","lat":"31.235120793","category":"68","category_name":"快餐厅","address":"黄浦区黄河路142号(近牯岭路)"},{"poiid":"B2094654DA68A3FD4593","title":"半岛酒楼(黄河路)","lon":"121.47071","lat":"31.23435","category":"76","category_name":"上海菜","address":"黄浦区黄河路95号(近凤阳路)"},{"poiid":"B2094757D069A0FD469E","title":"博士蛙南京西路店","lon":"121.4711224","lat":"31.232378145","category":"500","category_name":"未知分类","address":"黄浦区南京西路258-280号世贸商都2-3楼(新昌路口)"},{"poiid":"B2094757D065A7F44593","title":"日月光中心 OLIVE DES OLIVE","lon":"121.46757623","lat":"31.232956358","category":"500","category_name":"未知分类","address":"上海打浦桥"},{"poiid":"B2094750D664ABFD409A","title":"功德林素食餐厅","lon":"121.471","lat":"31.2335","category":"89","category_name":"中式素餐馆","address":"黄浦区黄河路21号鸿祥大厦1楼"},{"poiid":"B2094752DA65A2FD439E","title":"上海明天广场JW万豪酒店","lon":"121.46729","lat":"31.233113","category":"500","category_name":"未知分类","address":"上海市 南京西路399号"},{"poiid":"B2094655D26DA3FF469E","title":"上海保时捷中心","lon":"121.47048","lat":"31.2321","category":"158","category_name":"汽车销售","address":"黄浦区南京西路288号创新金融中心1楼(近新昌路)"},{"poiid":"B2094654DA68A3FC469C","title":"智富广场","lon":"121.46977","lat":"31.23286","category":"46","category_name":"楼宇","address":"上海新昌路80号"},{"poiid":"B2094654DA68A3FC4893","title":"盛鑫面馆","lon":"121.470061054","lat":"31.233492793","category":"68","category_name":"快餐厅","address":"黄浦区凤阳路311号(近黄河路)"},{"poiid":"B2094757D16CA3FE479E","title":"baby land","lon":"121.47101973","lat":"31.232466347","category":"500","category_name":"未知分类","address":"上海市黄浦区南京路博士蛙3楼"},{"poiid":"B2094655D265A0F8459D","title":"老克勒","lon":"121.471","lat":"31.23423","category":"86","category_name":"火锅店","address":"黄河路82"},{"poiid":"B2094757D064A2FF449E","title":"斗牛士台湾牛肉面(仙乐斯店)","lon":"121.468935","lat":"31.231409","category":"68","category_name":"快餐厅","address":"静安区南京西路388号仙乐斯广场B1楼02号商铺(近黄陂北路)"},{"poiid":"B209475DD76EA3FA429B","title":"南京大排档","lon":"121.470855","lat":"31.232315","category":"247","category_name":"餐饮美食","address":"上海市 南京西路258号世贸商都3楼"},{"poiid":"B2094757DB6DA3FD4792","title":"迪美·芋贵人","lon":"121.469672","lat":"31.232782","category":"247","category_name":"餐饮美食","address":"人民广场·地下迪美"},{"poiid":"B2094750DA6CABF54899","title":"地铁一号线","lon":"121.470108","lat":"31.233215","category":"500","category_name":"未知分类","address":null},{"poiid":"B2094757D069ABFD409C","title":"人民广场上海歌城","lon":"121.470956","lat":"31.232594","category":"500","category_name":"未知分类","address":"上海人民广场"},{"poiid":"B2094757D069A2F4419E","title":"嘉厨小馆 新昌路店","lon":"121.469033","lat":"31.233784","category":"257","category_name":"中餐厅","address":"黄浦区新昌路77号(凤阳路新昌路)"},{"poiid":"B2094757D06FA3FC4693","title":"杯子布丁(来福士店)","lon":"121.47049944","lat":"31.232727132","category":"67","category_name":"甜品店","address":"黄浦区西藏中路268号来福士广场B1楼(近福州路)"},{"poiid":"B2094654DB64A6FD4593","title":"大光明电影院","lon":"121.47128","lat":"31.23298","category":"178","category_name":"电影院","address":"黄浦区南京西路216号(黄河路南京西路)"},{"poiid":"B2094654DA68A3FD419B","title":"佳家汤包 黄河店","lon":"121.47105017344","lat":"31.233958297842","category":"68","category_name":"快餐厅","address":"黄浦区黄河路90号(近凤阳路)"},{"poiid":"B2094757D16FA6FF459C","title":"雅科","lon":"121.47077873","lat":"31.231950336","category":"76","category_name":"上海菜","address":"黄浦区南京西路248号大光明影院3楼屋顶花园(近黄河路)"},{"poiid":"B2094753D76FAAFA449C","title":"上海滩国泰旗舰店","lon":"121.466011","lat":"31.216125","category":"249","category_name":"购物服务","address":"淮海中路868号"},{"poiid":"B209475CD564A7F84292","title":"上海滩新天地店","lon":"121.47463","lat":"31.22164","category":"119","category_name":"商场","address":"\"太仓路181弄新天地北里15号\r\n\""},{"poiid":"B209475CD564A7F8439E","title":"上海滩中信泰富店","lon":"121.45602","lat":"31.22851","category":"119","category_name":"商场","address":"\"南京西路1168号中信泰富广场，店铺号221.\r\n\""},{"poiid":"B209475CD564A7F84392","title":"上海滩浦东香格里拉店","lon":"121.50058","lat":"31.23634","category":"119","category_name":"商场","address":"浦东富成路33号香格里拉酒店内大堂层"},{"poiid":"B2094757DA6EABFF499A","title":"爆爆椒香辣虾干锅三绝(人民广场店)","lon":"121.470959999998","lat":"31.2325700000003","category":"71","category_name":"四川菜","address":"黄浦区南京西路258号世茂商都5楼(近黄河路)"},{"poiid":"B2094757D06EAAFD4292","title":"老克勒上海菜 南京西路店","lon":"121.47031","lat":"31.23222","category":"76","category_name":"上海菜","address":"黄浦区南京西路288号创兴金融中心2楼(近新昌路)"},{"poiid":"B2094757D06AAAFA4192","title":"王鼎日本料理","lon":"121.471065738","lat":"31.2323493453","category":"500","category_name":"未知分类","address":"上海南京西路258世贸商都7-8"},{"poiid":"B2094757D06FA3F5439B","title":"香港仔码头茶餐厅(凤阳店)","lon":"121.47068","lat":"31.23366","category":"72","category_name":"广东菜","address":"黄浦区凤阳路280号(近黄河路)"},{"poiid":"B2094757D06FA3F94293","title":"悦来酒家","lon":"121.47086","lat":"31.23386","category":"76","category_name":"上海菜","address":"黄浦区黄河路81号(近凤阳路)"},{"poiid":"B2094654DA68A3FD479C","title":"天安中心","lon":"121.46978","lat":"31.23174","category":"46","category_name":"楼宇","address":"上海南京西路338号"},{"poiid":"B2094654DA6FAAF54499","title":"苔圣园(黄浦店)","lon":"121.47105","lat":"31.23409","category":"76","category_name":"上海菜","address":"黄浦区黄河路50号(近凤阳路)"},{"poiid":"B2094757D06BA1F84698","title":"杏花楼","lon":"121.471473738","lat":"31.2333003655","category":"72","category_name":"广东菜","address":"黄浦区黄河路21号鸿祥大厦3-4楼(近南京西路)"},{"poiid":"B2094757D06FA1F4489F","title":"黄河路美食街","lon":"121.47142","lat":"31.23348","category":"68","category_name":"快餐厅","address":"黄浦区黄河路(近新闸路)"},{"poiid":"B2094757D06FA5FF4098","title":"金八仙","lon":"121.47112","lat":"31.23428","category":"76","category_name":"上海菜","address":"上海黄浦区黄河路96-98号(近凤阳路)"},{"poiid":"B2094757D06FA7F9469B","title":"粤味馆(黃河路店)","lon":"121.47027","lat":"31.23506","category":"72","category_name":"广东菜","address":"黄浦区黄河路147号(近北京西路)"},{"poiid":"B209475DD06CA3FC419A","title":"南京大排档","lon":"121.470893","lat":"31.232265","category":"247","category_name":"餐饮美食","address":"上海市 南京西路258号世茂商都3楼(近新昌路)"},{"poiid":"B2094757D06FA1F9479C","title":"国际饭店西饼屋(黄河路店)","lon":"121.471436532","lat":"31.233682045","category":"112","category_name":"糕饼店","address":"黄浦区黄河路28号国际饭店内"},{"poiid":"B2094757D06FA3FE469D","title":"旺旺大厦","lon":"121.469","lat":"31.234","category":"46","category_name":"楼宇","address":"丰台学城海鹰路1号,3号"},{"poiid":"B2094654DA68A3FD409C","title":"乾隆美食","lon":"121.4711458394","lat":"31.234298079704","category":"76","category_name":"上海菜","address":"黄浦区黄河路72-76号(凤阳路口)"},{"poiid":"B2094757D06FA6FF4598","title":"晶采世纪大厦","lon":"121.468","lat":"31.2329","category":"46","category_name":"楼宇","address":"珠江新城华穗路与华利路交汇处"},{"poiid":"B209475DD06CA3FC469F","title":"南京大牌档","lon":"121.470848","lat":"31.232343","category":"500","category_name":"未知分类","address":"上海市 南京西路258号世茂商都3楼(近新昌路)"},{"poiid":"B209475DD56BAAFC4893","title":"南京大排档","lon":"121.470718","lat":"31.231937","category":"247","category_name":"餐饮美食","address":"上海市 南京西路258号世贸商都3楼"},{"poiid":"B2094750D568A3FE4098","title":"星巴克(西藏中路二店)","lon":"121.47","lat":"31.2353","category":"260","category_name":"其他","address":"黄浦区西藏中路289号(近九江路)"},{"poiid":"B2094757DB68A5FF449C","title":"上海 来福士","lon":"121.4678278181757","lat":"31.23394058782101","category":"247","category_name":"餐饮美食","address":"人民广场"},{"poiid":"B2094757D569A2FA4792","title":"雅科空中花园酒吧","lon":"121.4712956","lat":"31.23302417","category":"172","category_name":"酒吧","address":"南京西路216号大光明影院3层"},{"poiid":"B2094757DB65A2FD4093","title":"红料理（仙乐斯广场店）","lon":"121.469","lat":"31.2314","category":"257","category_name":"中餐厅","address":"上海黄浦区南京西路388号 仙乐斯广场地下一层"},{"poiid":"B2094757D06FA1FB439D","title":"85度C(南京西店)","lon":"121.471330475","lat":"31.2330760642","category":"112","category_name":"糕饼店","address":"黄浦区南京西路226号(近黄河路)"},{"poiid":"B2094757D06AA5F54592","title":"世贸商都","lon":"121.470635","lat":"31.232439","category":"119","category_name":"商场","address":"上海南京西路258号"},{"poiid":"B2094757DB6DA3F4449D","title":"三人行","lon":"121.469367","lat":"31.233615","category":"247","category_name":"餐饮美食","address":"世贸百联店"},{"poiid":"B2094757D664A6F9459E","title":"沪上一家辣肉面馆 黄河路店","lon":"121.470459054","lat":"31.235120793","category":"68","category_name":"快餐厅","address":"黄浦区黄河路142号(近牯岭路)"},{"poiid":"B2094654DA68A3FD4593","title":"半岛酒楼(黄河路)","lon":"121.47071","lat":"31.23435","category":"76","category_name":"上海菜","address":"黄浦区黄河路95号(近凤阳路)"},{"poiid":"B2094757D069A0FD469E","title":"博士蛙南京西路店","lon":"121.4711224","lat":"31.232378145","category":"500","category_name":"未知分类","address":"黄浦区南京西路258-280号世贸商都2-3楼(新昌路口)"},{"poiid":"B2094757D065A7F44593","title":"日月光中心 OLIVE DES OLIVE","lon":"121.46757623","lat":"31.232956358","category":"500","category_name":"未知分类","address":"上海打浦桥"},{"poiid":"B2094750D664ABFD409A","title":"功德林素食餐厅","lon":"121.471","lat":"31.2335","category":"89","category_name":"中式素餐馆","address":"黄浦区黄河路21号鸿祥大厦1楼"},{"poiid":"B2094752DA65A2FD439E","title":"上海明天广场JW万豪酒店","lon":"121.46729","lat":"31.233113","category":"500","category_name":"未知分类","address":"上海市 南京西路399号"},{"poiid":"B2094655D26DA3FF469E","title":"上海保时捷中心","lon":"121.47048","lat":"31.2321","category":"158","category_name":"汽车销售","address":"黄浦区南京西路288号创新金融中心1楼(近新昌路)"},{"poiid":"B2094654DA68A3FC469C","title":"智富广场","lon":"121.46977","lat":"31.23286","category":"46","category_name":"楼宇","address":"上海新昌路80号"},{"poiid":"B2094654DA68A3FC4893","title":"盛鑫面馆","lon":"121.470061054","lat":"31.233492793","category":"68","category_name":"快餐厅","address":"黄浦区凤阳路311号(近黄河路)"},{"poiid":"B2094757D16CA3FE479E","title":"baby land","lon":"121.47101973","lat":"31.232466347","category":"500","category_name":"未知分类","address":"上海市黄浦区南京路博士蛙3楼"},{"poiid":"B2094655D265A0F8459D","title":"老克勒","lon":"121.471","lat":"31.23423","category":"86","category_name":"火锅店","address":"黄河路82"},{"poiid":"B2094757D064A2FF449E","title":"斗牛士台湾牛肉面(仙乐斯店)","lon":"121.468935","lat":"31.231409","category":"68","category_name":"快餐厅","address":"静安区南京西路388号仙乐斯广场B1楼02号商铺(近黄陂北路)"},{"poiid":"B209475DD76EA3FA429B","title":"南京大排档","lon":"121.470855","lat":"31.232315","category":"247","category_name":"餐饮美食","address":"上海市 南京西路258号世贸商都3楼"},{"poiid":"B2094757DB6DA3FD4792","title":"迪美·芋贵人","lon":"121.469672","lat":"31.232782","category":"247","category_name":"餐饮美食","address":"人民广场·地下迪美"},{"poiid":"B2094750DA6CABF54899","title":"地铁一号线","lon":"121.470108","lat":"31.233215","category":"500","category_name":"未知分类","address":null},{"poiid":"B2094757D069ABFD409C","title":"人民广场上海歌城","lon":"121.470956","lat":"31.232594","category":"500","category_name":"未知分类","address":"上海人民广场"},{"poiid":"B2094757D069A2F4419E","title":"嘉厨小馆 新昌路店","lon":"121.469033","lat":"31.233784","category":"257","category_name":"中餐厅","address":"黄浦区新昌路77号(凤阳路新昌路)"},{"poiid":"B2094757D06FA3FC4693","title":"杯子布丁(来福士店)","lon":"121.47049944","lat":"31.232727132","category":"67","category_name":"甜品店","address":"黄浦区西藏中路268号来福士广场B1楼(近福州路)"},{"poiid":"B2094654DB64A6FD4593","title":"大光明电影院","lon":"121.47128","lat":"31.23298","category":"178","category_name":"电影院","address":"黄浦区南京西路216号(黄河路南京西路)"},{"poiid":"B2094654DA68A3FD419B","title":"佳家汤包 黄河店","lon":"121.47105017344","lat":"31.233958297842","category":"68","category_name":"快餐厅","address":"黄浦区黄河路90号(近凤阳路)"},{"poiid":"B2094757D16FA6FF459C","title":"雅科","lon":"121.47077873","lat":"31.231950336","category":"76","category_name":"上海菜","address":"黄浦区南京西路248号大光明影院3楼屋顶花园(近黄河路)"},{"poiid":"B2094753D76FAAFA449C","title":"上海滩国泰旗舰店","lon":"121.466011","lat":"31.216125","category":"249","category_name":"购物服务","address":"淮海中路868号"},{"poiid":"B209475CD564A7F84292","title":"上海滩新天地店","lon":"121.47463","lat":"31.22164","category":"119","category_name":"商场","address":"\"太仓路181弄新天地北里15号\r\n\""},{"poiid":"B209475CD564A7F8439E","title":"上海滩中信泰富店","lon":"121.45602","lat":"31.22851","category":"119","category_name":"商场","address":"\"南京西路1168号中信泰富广场，店铺号221.\r\n\""},{"poiid":"B209475CD564A7F84392","title":"上海滩浦东香格里拉店","lon":"121.50058","lat":"31.23634","category":"119","category_name":"商场","address":"浦东富成路33号香格里拉酒店内大堂层"},{"poiid":"B2094757DA6EABFF499A","title":"爆爆椒香辣虾干锅三绝(人民广场店)","lon":"121.470959999998","lat":"31.2325700000003","category":"71","category_name":"四川菜","address":"黄浦区南京西路258号世茂商都5楼(近黄河路)"},{"poiid":"B2094757D06EAAFD4292","title":"老克勒上海菜 南京西路店","lon":"121.47031","lat":"31.23222","category":"76","category_name":"上海菜","address":"黄浦区南京西路288号创兴金融中心2楼(近新昌路)"},{"poiid":"B2094757D06AAAFA4192","title":"王鼎日本料理","lon":"121.471065738","lat":"31.2323493453","category":"500","category_name":"未知分类","address":"上海南京西路258世贸商都7-8"},{"poiid":"B2094757D06FA3F5439B","title":"香港仔码头茶餐厅(凤阳店)","lon":"121.47068","lat":"31.23366","category":"72","category_name":"广东菜","address":"黄浦区凤阳路280号(近黄河路)"},{"poiid":"B2094757D06FA3F94293","title":"悦来酒家","lon":"121.47086","lat":"31.23386","category":"76","category_name":"上海菜","address":"黄浦区黄河路81号(近凤阳路)"},{"poiid":"B2094654DA68A3FD479C","title":"天安中心","lon":"121.46978","lat":"31.23174","category":"46","category_name":"楼宇","address":"上海南京西路338号"},{"poiid":"B2094654DA6FAAF54499","title":"苔圣园(黄浦店)","lon":"121.47105","lat":"31.23409","category":"76","category_name":"上海菜","address":"黄浦区黄河路50号(近凤阳路)"},{"poiid":"B2094757D06BA1F84698","title":"杏花楼","lon":"121.471473738","lat":"31.2333003655","category":"72","category_name":"广东菜","address":"黄浦区黄河路21号鸿祥大厦3-4楼(近南京西路)"},{"poiid":"B2094757D06FA1F4489F","title":"黄河路美食街","lon":"121.47142","lat":"31.23348","category":"68","category_name":"快餐厅","address":"黄浦区黄河路(近新闸路)"},{"poiid":"B2094757D06FA5FF4098","title":"金八仙","lon":"121.47112","lat":"31.23428","category":"76","category_name":"上海菜","address":"上海黄浦区黄河路96-98号(近凤阳路)"},{"poiid":"B2094757D06FA7F9469B","title":"粤味馆(黃河路店)","lon":"121.47027","lat":"31.23506","category":"72","category_name":"广东菜","address":"黄浦区黄河路147号(近北京西路)"},{"poiid":"B209475DD06CA3FC419A","title":"南京大排档","lon":"121.470893","lat":"31.232265","category":"247","category_name":"餐饮美食","address":"上海市 南京西路258号世茂商都3楼(近新昌路)"},{"poiid":"B2094757D06FA1F9479C","title":"国际饭店西饼屋(黄河路店)","lon":"121.471436532","lat":"31.233682045","category":"112","category_name":"糕饼店","address":"黄浦区黄河路28号国际饭店内"},{"poiid":"B2094757D06FA3FE469D","title":"旺旺大厦","lon":"121.469","lat":"31.234","category":"46","category_name":"楼宇","address":"丰台学城海鹰路1号,3号"},{"poiid":"B2094654DA68A3FD409C","title":"乾隆美食","lon":"121.4711458394","lat":"31.234298079704","category":"76","category_name":"上海菜","address":"黄浦区黄河路72-76号(凤阳路口)"},{"poiid":"B2094757D06FA6FF4598","title":"晶采世纪大厦","lon":"121.468","lat":"31.2329","category":"46","category_name":"楼宇","address":"珠江新城华穗路与华利路交汇处"},{"poiid":"B209475DD06CA3FC469F","title":"南京大牌档","lon":"121.470848","lat":"31.232343","category":"500","category_name":"未知分类","address":"上海市 南京西路258号世茂商都3楼(近新昌路)"},{"poiid":"B209475DD56BAAFC4893","title":"南京大排档","lon":"121.470718","lat":"31.231937","category":"247","category_name":"餐饮美食","address":"上海市 南京西路258号世贸商都3楼"},{"poiid":"B2094750D568A3FE4098","title":"星巴克(西藏中路二店)","lon":"121.47","lat":"31.2353","category":"260","category_name":"其他","address":"黄浦区西藏中路289号(近九江路)"},{"poiid":"B2094757DB68A5FF449C","title":"上海 来福士","lon":"121.4678278181757","lat":"31.23394058782101","category":"247","category_name":"餐饮美食","address":"人民广场"},{"poiid":"B2094757D569A2FA4792","title":"雅科空中花园酒吧","lon":"121.4712956","lat":"31.23302417","category":"172","category_name":"酒吧","address":"南京西路216号大光明影院3层"},{"poiid":"B2094757DB65A2FD4093","title":"红料理（仙乐斯广场店）","lon":"121.469","lat":"31.2314","category":"257","category_name":"中餐厅","address":"上海黄浦区南京西路388号 仙乐斯广场地下一层"},{"poiid":"B2094757D06FA1FB439D","title":"85度C(南京西店)","lon":"121.471330475","lat":"31.2330760642","category":"112","category_name":"糕饼店","address":"黄浦区南京西路226号(近黄河路)"},{"poiid":"B2094757D06AA5F54592","title":"世贸商都","lon":"121.470635","lat":"31.232439","category":"119","category_name":"商场","address":"上海南京西路258号"},{"poiid":"B2094757DB6DA3F4449D","title":"三人行","lon":"121.469367","lat":"31.233615","category":"247","category_name":"餐饮美食","address":"世贸百联店"},{"poiid":"B2094757D664A6F9459E","title":"沪上一家辣肉面馆 黄河路店","lon":"121.470459054","lat":"31.235120793","category":"68","category_name":"快餐厅","address":"黄浦区黄河路142号(近牯岭路)"},{"poiid":"B2094654DA68A3FD4593","title":"半岛酒楼(黄河路)","lon":"121.47071","lat":"31.23435","category":"76","category_name":"上海菜","address":"黄浦区黄河路95号(近凤阳路)"},{"poiid":"B2094757D069A0FD469E","title":"博士蛙南京西路店","lon":"121.4711224","lat":"31.232378145","category":"500","category_name":"未知分类","address":"黄浦区南京西路258-280号世贸商都2-3楼(新昌路口)"},{"poiid":"B2094757D065A7F44593","title":"日月光中心 OLIVE DES OLIVE","lon":"121.46757623","lat":"31.232956358","category":"500","category_name":"未知分类","address":"上海打浦桥"},{"poiid":"B2094750D664ABFD409A","title":"功德林素食餐厅","lon":"121.471","lat":"31.2335","category":"89","category_name":"中式素餐馆","address":"黄浦区黄河路21号鸿祥大厦1楼"},{"poiid":"B2094752DA65A2FD439E","title":"上海明天广场JW万豪酒店","lon":"121.46729","lat":"31.233113","category":"500","category_name":"未知分类","address":"上海市 南京西路399号"},{"poiid":"B2094655D26DA3FF469E","title":"上海保时捷中心","lon":"121.47048","lat":"31.2321","category":"158","category_name":"汽车销售","address":"黄浦区南京西路288号创新金融中心1楼(近新昌路)"},{"poiid":"B2094654DA68A3FC469C","title":"智富广场","lon":"121.46977","lat":"31.23286","category":"46","category_name":"楼宇","address":"上海新昌路80号"},{"poiid":"B2094654DA68A3FC4893","title":"盛鑫面馆","lon":"121.470061054","lat":"31.233492793","category":"68","category_name":"快餐厅","address":"黄浦区凤阳路311号(近黄河路)"},{"poiid":"B2094757D16CA3FE479E","title":"baby land","lon":"121.47101973","lat":"31.232466347","category":"500","category_name":"未知分类","address":"上海市黄浦区南京路博士蛙3楼"},{"poiid":"B2094655D265A0F8459D","title":"老克勒","lon":"121.471","lat":"31.23423","category":"86","category_name":"火锅店","address":"黄河路82"},{"poiid":"B2094757D064A2FF449E","title":"斗牛士台湾牛肉面(仙乐斯店)","lon":"121.468935","lat":"31.231409","category":"68","category_name":"快餐厅","address":"静安区南京西路388号仙乐斯广场B1楼02号商铺(近黄陂北路)"},{"poiid":"B209475DD76EA3FA429B","title":"南京大排档","lon":"121.470855","lat":"31.232315","category":"247","category_name":"餐饮美食","address":"上海市 南京西路258号世贸商都3楼"},{"poiid":"B2094757DB6DA3FD4792","title":"迪美·芋贵人","lon":"121.469672","lat":"31.232782","category":"247","category_name":"餐饮美食","address":"人民广场·地下迪美"},{"poiid":"B2094750DA6CABF54899","title":"地铁一号线","lon":"121.470108","lat":"31.233215","category":"500","category_name":"未知分类","address":null},{"poiid":"B2094757D069ABFD409C","title":"人民广场上海歌城","lon":"121.470956","lat":"31.232594","category":"500","category_name":"未知分类","address":"上海人民广场"},{"poiid":"B2094757D069A2F4419E","title":"嘉厨小馆 新昌路店","lon":"121.469033","lat":"31.233784","category":"257","category_name":"中餐厅","address":"黄浦区新昌路77号(凤阳路新昌路)"},{"poiid":"B2094757D06FA3FC4693","title":"杯子布丁(来福士店)","lon":"121.47049944","lat":"31.232727132","category":"67","category_name":"甜品店","address":"黄浦区西藏中路268号来福士广场B1楼(近福州路)"},{"poiid":"B2094654DB64A6FD4593","title":"大光明电影院","lon":"121.47128","lat":"31.23298","category":"178","category_name":"电影院","address":"黄浦区南京西路216号(黄河路南京西路)"},{"poiid":"B2094654DA68A3FD419B","title":"佳家汤包 黄河店","lon":"121.47105017344","lat":"31.233958297842","category":"68","category_name":"快餐厅","address":"黄浦区黄河路90号(近凤阳路)"},{"poiid":"B2094757D16FA6FF459C","title":"雅科","lon":"121.47077873","lat":"31.231950336","category":"76","category_name":"上海菜","address":"黄浦区南京西路248号大光明影院3楼屋顶花园(近黄河路)"},{"poiid":"B2094753D76FAAFA449C","title":"上海滩国泰旗舰店","lon":"121.466011","lat":"31.216125","category":"249","category_name":"购物服务","address":"淮海中路868号"},{"poiid":"B209475CD564A7F84292","title":"上海滩新天地店","lon":"121.47463","lat":"31.22164","category":"119","category_name":"商场","address":"\"太仓路181弄新天地北里15号\r\n\""},{"poiid":"B209475CD564A7F8439E","title":"上海滩中信泰富店","lon":"121.45602","lat":"31.22851","category":"119","category_name":"商场","address":"\"南京西路1168号中信泰富广场，店铺号221.\r\n\""},{"poiid":"B209475CD564A7F84392","title":"上海滩浦东香格里拉店","lon":"121.50058","lat":"31.23634","category":"119","category_name":"商场","address":"浦东富成路33号香格里拉酒店内大堂层"},{"poiid":"B2094757DA6EABFF499A","title":"爆爆椒香辣虾干锅三绝(人民广场店)","lon":"121.470959999998","lat":"31.2325700000003","category":"71","category_name":"四川菜","address":"黄浦区南京西路258号世茂商都5楼(近黄河路)"},{"poiid":"B2094757D06EAAFD4292","title":"老克勒上海菜 南京西路店","lon":"121.47031","lat":"31.23222","category":"76","category_name":"上海菜","address":"黄浦区南京西路288号创兴金融中心2楼(近新昌路)"},{"poiid":"B2094757D06AAAFA4192","title":"王鼎日本料理","lon":"121.471065738","lat":"31.2323493453","category":"500","category_name":"未知分类","address":"上海南京西路258世贸商都7-8"},{"poiid":"B2094757D06FA3F5439B","title":"香港仔码头茶餐厅(凤阳店)","lon":"121.47068","lat":"31.23366","category":"72","category_name":"广东菜","address":"黄浦区凤阳路280号(近黄河路)"},{"poiid":"B2094757D06FA3F94293","title":"悦来酒家","lon":"121.47086","lat":"31.23386","category":"76","category_name":"上海菜","address":"黄浦区黄河路81号(近凤阳路)"},{"poiid":"B2094654DA68A3FD479C","title":"天安中心","lon":"121.46978","lat":"31.23174","category":"46","category_name":"楼宇","address":"上海南京西路338号"},{"poiid":"B2094654DA6FAAF54499","title":"苔圣园(黄浦店)","lon":"121.47105","lat":"31.23409","category":"76","category_name":"上海菜","address":"黄浦区黄河路50号(近凤阳路)"},{"poiid":"B2094757D06BA1F84698","title":"杏花楼","lon":"121.471473738","lat":"31.2333003655","category":"72","category_name":"广东菜","address":"黄浦区黄河路21号鸿祥大厦3-4楼(近南京西路)"},{"poiid":"B2094757D06FA1F4489F","title":"黄河路美食街","lon":"121.47142","lat":"31.23348","category":"68","category_name":"快餐厅","address":"黄浦区黄河路(近新闸路)"},{"poiid":"B2094757D06FA5FF4098","title":"金八仙","lon":"121.47112","lat":"31.23428","category":"76","category_name":"上海菜","address":"上海黄浦区黄河路96-98号(近凤阳路)"},{"poiid":"B2094757D06FA7F9469B","title":"粤味馆(黃河路店)","lon":"121.47027","lat":"31.23506","category":"72","category_name":"广东菜","address":"黄浦区黄河路147号(近北京西路)"},{"poiid":"B209475DD06CA3FC419A","title":"南京大排档","lon":"121.470893","lat":"31.232265","category":"247","category_name":"餐饮美食","address":"上海市 南京西路258号世茂商都3楼(近新昌路)"},{"poiid":"B2094757D06FA1F9479C","title":"国际饭店西饼屋(黄河路店)","lon":"121.471436532","lat":"31.233682045","category":"112","category_name":"糕饼店","address":"黄浦区黄河路28号国际饭店内"},{"poiid":"B2094757D06FA3FE469D","title":"旺旺大厦","lon":"121.469","lat":"31.234","category":"46","category_name":"楼宇","address":"丰台学城海鹰路1号,3号"},{"poiid":"B2094654DA68A3FD409C","title":"乾隆美食","lon":"121.4711458394","lat":"31.234298079704","category":"76","category_name":"上海菜","address":"黄浦区黄河路72-76号(凤阳路口)"},{"poiid":"B2094757D06FA6FF4598","title":"晶采世纪大厦","lon":"121.468","lat":"31.2329","category":"46","category_name":"楼宇","address":"珠江新城华穗路与华利路交汇处"},{"poiid":"B209475DD06CA3FC469F","title":"南京大牌档","lon":"121.470848","lat":"31.232343","category":"500","category_name":"未知分类","address":"上海市 南京西路258号世茂商都3楼(近新昌路)"},{"poiid":"B209475DD56BAAFC4893","title":"南京大排档","lon":"121.470718","lat":"31.231937","category":"247","category_name":"餐饮美食","address":"上海市 南京西路258号世贸商都3楼"},{"poiid":"B2094750D568A3FE4098","title":"星巴克(西藏中路二店)","lon":"121.47","lat":"31.2353","category":"260","category_name":"其他","address":"黄浦区西藏中路289号(近九江路)"},{"poiid":"B2094757DB68A5FF449C","title":"上海 来福士","lon":"121.4678278181757","lat":"31.23394058782101","category":"247","category_name":"餐饮美食","address":"人民广场"},{"poiid":"B2094757D569A2FA4792","title":"雅科空中花园酒吧","lon":"121.4712956","lat":"31.23302417","category":"172","category_name":"酒吧","address":"南京西路216号大光明影院3层"},{"poiid":"B2094757DB65A2FD4093","title":"红料理（仙乐斯广场店）","lon":"121.469","lat":"31.2314","category":"257","category_name":"中餐厅","address":"上海黄浦区南京西路388号 仙乐斯广场地下一层"},{"poiid":"B2094757D06FA1FB439D","title":"85度C(南京西店)","lon":"121.471330475","lat":"31.2330760642","category":"112","category_name":"糕饼店","address":"黄浦区南京西路226号(近黄河路)"},{"poiid":"B2094757D06AA5F54592","title":"世贸商都","lon":"121.470635","lat":"31.232439","category":"119","category_name":"商场","address":"上海南京西路258号"},{"poiid":"B2094757DB6DA3F4449D","title":"三人行","lon":"121.469367","lat":"31.233615","category":"247","category_name":"餐饮美食","address":"世贸百联店"},{"poiid":"B2094757D664A6F9459E","title":"沪上一家辣肉面馆 黄河路店","lon":"121.470459054","lat":"31.235120793","category":"68","category_name":"快餐厅","address":"黄浦区黄河路142号(近牯岭路)"},{"poiid":"B2094654DA68A3FD4593","title":"半岛酒楼(黄河路)","lon":"121.47071","lat":"31.23435","category":"76","category_name":"上海菜","address":"黄浦区黄河路95号(近凤阳路)"},{"poiid":"B2094757D069A0FD469E","title":"博士蛙南京西路店","lon":"121.4711224","lat":"31.232378145","category":"500","category_name":"未知分类","address":"黄浦区南京西路258-280号世贸商都2-3楼(新昌路口)"},{"poiid":"B2094757D065A7F44593","title":"日月光中心 OLIVE DES OLIVE","lon":"121.46757623","lat":"31.232956358","category":"500","category_name":"未知分类","address":"上海打浦桥"},{"poiid":"B2094750D664ABFD409A","title":"功德林素食餐厅","lon":"121.471","lat":"31.2335","category":"89","category_name":"中式素餐馆","address":"黄浦区黄河路21号鸿祥大厦1楼"},{"poiid":"B2094752DA65A2FD439E","title":"上海明天广场JW万豪酒店","lon":"121.46729","lat":"31.233113","category":"500","category_name":"未知分类","address":"上海市 南京西路399号"},{"poiid":"B2094655D26DA3FF469E","title":"上海保时捷中心","lon":"121.47048","lat":"31.2321","category":"158","category_name":"汽车销售","address":"黄浦区南京西路288号创新金融中心1楼(近新昌路)"},{"poiid":"B2094654DA68A3FC469C","title":"智富广场","lon":"121.46977","lat":"31.23286","category":"46","category_name":"楼宇","address":"上海新昌路80号"},{"poiid":"B2094654DA68A3FC4893","title":"盛鑫面馆","lon":"121.470061054","lat":"31.233492793","category":"68","category_name":"快餐厅","address":"黄浦区凤阳路311号(近黄河路)"},{"poiid":"B2094757D16CA3FE479E","title":"baby land","lon":"121.47101973","lat":"31.232466347","category":"500","category_name":"未知分类","address":"上海市黄浦区南京路博士蛙3楼"},{"poiid":"B2094655D265A0F8459D","title":"老克勒","lon":"121.471","lat":"31.23423","category":"86","category_name":"火锅店","address":"黄河路82"},{"poiid":"B2094757D064A2FF449E","title":"斗牛士台湾牛肉面(仙乐斯店)","lon":"121.468935","lat":"31.231409","category":"68","category_name":"快餐厅","address":"静安区南京西路388号仙乐斯广场B1楼02号商铺(近黄陂北路)"},{"poiid":"B209475DD76EA3FA429B","title":"南京大排档","lon":"121.470855","lat":"31.232315","category":"247","category_name":"餐饮美食","address":"上海市 南京西路258号世贸商都3楼"},{"poiid":"B2094757DB6DA3FD4792","title":"迪美·芋贵人","lon":"121.469672","lat":"31.232782","category":"247","category_name":"餐饮美食","address":"人民广场·地下迪美"},{"poiid":"B2094750DA6CABF54899","title":"地铁一号线","lon":"121.470108","lat":"31.233215","category":"500","category_name":"未知分类","address":null},{"poiid":"B2094757D069ABFD409C","title":"人民广场上海歌城","lon":"121.470956","lat":"31.232594","category":"500","category_name":"未知分类","address":"上海人民广场"},{"poiid":"B2094757D069A2F4419E","title":"嘉厨小馆 新昌路店","lon":"121.469033","lat":"31.233784","category":"257","category_name":"中餐厅","address":"黄浦区新昌路77号(凤阳路新昌路)"},{"poiid":"B2094757D06FA3FC4693","title":"杯子布丁(来福士店)","lon":"121.47049944","lat":"31.232727132","category":"67","category_name":"甜品店","address":"黄浦区西藏中路268号来福士广场B1楼(近福州路)"},{"poiid":"B2094654DB64A6FD4593","title":"大光明电影院","lon":"121.47128","lat":"31.23298","category":"178","category_name":"电影院","address":"黄浦区南京西路216号(黄河路南京西路)"},{"poiid":"B2094654DA68A3FD419B","title":"佳家汤包 黄河店","lon":"121.47105017344","lat":"31.233958297842","category":"68","category_name":"快餐厅","address":"黄浦区黄河路90号(近凤阳路)"},{"poiid":"B2094757D16FA6FF459C","title":"雅科","lon":"121.47077873","lat":"31.231950336","category":"76","category_name":"上海菜","address":"黄浦区南京西路248号大光明影院3楼屋顶花园(近黄河路)"},{"poiid":"B2094753D76FAAFA449C","title":"上海滩国泰旗舰店","lon":"121.466011","lat":"31.216125","category":"249","category_name":"购物服务","address":"淮海中路868号"},{"poiid":"B209475CD564A7F84292","title":"上海滩新天地店","lon":"121.47463","lat":"31.22164","category":"119","category_name":"商场","address":"\"太仓路181弄新天地北里15号\r\n\""},{"poiid":"B209475CD564A7F8439E","title":"上海滩中信泰富店","lon":"121.45602","lat":"31.22851","category":"119","category_name":"商场","address":"\"南京西路1168号中信泰富广场，店铺号221.\r\n\""},{"poiid":"B209475CD564A7F84392","title":"上海滩浦东香格里拉店","lon":"121.50058","lat":"31.23634","category":"119","category_name":"商场","address":"浦东富成路33号香格里拉酒店内大堂层"},{"poiid":"B2094757DA6EABFF499A","title":"爆爆椒香辣虾干锅三绝(人民广场店)","lon":"121.470959999998","lat":"31.2325700000003","category":"71","category_name":"四川菜","address":"黄浦区南京西路258号世茂商都5楼(近黄河路)"},{"poiid":"B2094757D06EAAFD4292","title":"老克勒上海菜 南京西路店","lon":"121.47031","lat":"31.23222","category":"76","category_name":"上海菜","address":"黄浦区南京西路288号创兴金融中心2楼(近新昌路)"},{"poiid":"B2094757D06AAAFA4192","title":"王鼎日本料理","lon":"121.471065738","lat":"31.2323493453","category":"500","category_name":"未知分类","address":"上海南京西路258世贸商都7-8"},{"poiid":"B2094757D06FA3F5439B","title":"香港仔码头茶餐厅(凤阳店)","lon":"121.47068","lat":"31.23366","category":"72","category_name":"广东菜","address":"黄浦区凤阳路280号(近黄河路)"},{"poiid":"B2094757D06FA3F94293","title":"悦来酒家","lon":"121.47086","lat":"31.23386","category":"76","category_name":"上海菜","address":"黄浦区黄河路81号(近凤阳路)"},{"poiid":"B2094654DA68A3FD479C","title":"天安中心","lon":"121.46978","lat":"31.23174","category":"46","category_name":"楼宇","address":"上海南京西路338号"},{"poiid":"B2094654DA6FAAF54499","title":"苔圣园(黄浦店)","lon":"121.47105","lat":"31.23409","category":"76","category_name":"上海菜","address":"黄浦区黄河路50号(近凤阳路)"},{"poiid":"B2094757D06BA1F84698","title":"杏花楼","lon":"121.471473738","lat":"31.2333003655","category":"72","category_name":"广东菜","address":"黄浦区黄河路21号鸿祥大厦3-4楼(近南京西路)"},{"poiid":"B2094757D06FA1F4489F","title":"黄河路美食街","lon":"121.47142","lat":"31.23348","category":"68","category_name":"快餐厅","address":"黄浦区黄河路(近新闸路)"},{"poiid":"B2094757D06FA5FF4098","title":"金八仙","lon":"121.47112","lat":"31.23428","category":"76","category_name":"上海菜","address":"上海黄浦区黄河路96-98号(近凤阳路)"},{"poiid":"B2094757D06FA7F9469B","title":"粤味馆(黃河路店)","lon":"121.47027","lat":"31.23506","category":"72","category_name":"广东菜","address":"黄浦区黄河路147号(近北京西路)"},{"poiid":"B209475DD06CA3FC419A","title":"南京大排档","lon":"121.470893","lat":"31.232265","category":"247","category_name":"餐饮美食","address":"上海市 南京西路258号世茂商都3楼(近新昌路)"},{"poiid":"B2094757D06FA1F9479C","title":"国际饭店西饼屋(黄河路店)","lon":"121.471436532","lat":"31.233682045","category":"112","category_name":"糕饼店","address":"黄浦区黄河路28号国际饭店内"},{"poiid":"B2094757D06FA3FE469D","title":"旺旺大厦","lon":"121.469","lat":"31.234","category":"46","category_name":"楼宇","address":"丰台学城海鹰路1号,3号"},{"poiid":"B2094654DA68A3FD409C","title":"乾隆美食","lon":"121.4711458394","lat":"31.234298079704","category":"76","category_name":"上海菜","address":"黄浦区黄河路72-76号(凤阳路口)"},{"poiid":"B2094757D06FA6FF4598","title":"晶采世纪大厦","lon":"121.468","lat":"31.2329","category":"46","category_name":"楼宇","address":"珠江新城华穗路与华利路交汇处"},{"poiid":"B209475DD06CA3FC469F","title":"南京大牌档","lon":"121.470848","lat":"31.232343","category":"500","category_name":"未知分类","address":"上海市 南京西路258号世茂商都3楼(近新昌路)"},{"poiid":"B209475DD56BAAFC4893","title":"南京大排档","lon":"121.470718","lat":"31.231937","category":"247","category_name":"餐饮美食","address":"上海市 南京西路258号世贸商都3楼"},{"poiid":"B2094750D568A3FE4098","title":"星巴克(西藏中路二店)","lon":"121.47","lat":"31.2353","category":"260","category_name":"其他","address":"黄浦区西藏中路289号(近九江路)"},{"poiid":"B2094757DB68A5FF449C","title":"上海 来福士","lon":"121.4678278181757","lat":"31.23394058782101","category":"247","category_name":"餐饮美食","address":"人民广场"},{"poiid":"B2094757D569A2FA4792","title":"雅科空中花园酒吧","lon":"121.4712956","lat":"31.23302417","category":"172","category_name":"酒吧","address":"南京西路216号大光明影院3层"},{"poiid":"B2094757DB65A2FD4093","title":"红料理（仙乐斯广场店）","lon":"121.469","lat":"31.2314","category":"257","category_name":"中餐厅","address":"上海黄浦区南京西路388号 仙乐斯广场地下一层"},{"poiid":"B2094757D06FA1FB439D","title":"85度C(南京西店)","lon":"121.471330475","lat":"31.2330760642","category":"112","category_name":"糕饼店","address":"黄浦区南京西路226号(近黄河路)"},{"poiid":"B2094757D06AA5F54592","title":"世贸商都","lon":"121.470635","lat":"31.232439","category":"119","category_name":"商场","address":"上海南京西路258号"},{"poiid":"B2094757DB6DA3F4449D","title":"三人行","lon":"121.469367","lat":"31.233615","category":"247","category_name":"餐饮美食","address":"世贸百联店"},{"poiid":"B2094757D664A6F9459E","title":"沪上一家辣肉面馆 黄河路店","lon":"121.470459054","lat":"31.235120793","category":"68","category_name":"快餐厅","address":"黄浦区黄河路142号(近牯岭路)"},{"poiid":"B2094654DA68A3FD4593","title":"半岛酒楼(黄河路)","lon":"121.47071","lat":"31.23435","category":"76","category_name":"上海菜","address":"黄浦区黄河路95号(近凤阳路)"},{"poiid":"B2094757D069A0FD469E","title":"博士蛙南京西路店","lon":"121.4711224","lat":"31.232378145","category":"500","category_name":"未知分类","address":"黄浦区南京西路258-280号世贸商都2-3楼(新昌路口)"},{"poiid":"B2094757D065A7F44593","title":"日月光中心 OLIVE DES OLIVE","lon":"121.46757623","lat":"31.232956358","category":"500","category_name":"未知分类","address":"上海打浦桥"},{"poiid":"B2094750D664ABFD409A","title":"功德林素食餐厅","lon":"121.471","lat":"31.2335","category":"89","category_name":"中式素餐馆","address":"黄浦区黄河路21号鸿祥大厦1楼"},{"poiid":"B2094752DA65A2FD439E","title":"上海明天广场JW万豪酒店","lon":"121.46729","lat":"31.233113","category":"500","category_name":"未知分类","address":"上海市 南京西路399号"},{"poiid":"B2094655D26DA3FF469E","title":"上海保时捷中心","lon":"121.47048","lat":"31.2321","category":"158","category_name":"汽车销售","address":"黄浦区南京西路288号创新金融中心1楼(近新昌路)"},{"poiid":"B2094654DA68A3FC469C","title":"智富广场","lon":"121.46977","lat":"31.23286","category":"46","category_name":"楼宇","address":"上海新昌路80号"},{"poiid":"B2094654DA68A3FC4893","title":"盛鑫面馆","lon":"121.470061054","lat":"31.233492793","category":"68","category_name":"快餐厅","address":"黄浦区凤阳路311号(近黄河路)"},{"poiid":"B2094757D16CA3FE479E","title":"baby land","lon":"121.47101973","lat":"31.232466347","category":"500","category_name":"未知分类","address":"上海市黄浦区南京路博士蛙3楼"},{"poiid":"B2094655D265A0F8459D","title":"老克勒","lon":"121.471","lat":"31.23423","category":"86","category_name":"火锅店","address":"黄河路82"},{"poiid":"B2094757D064A2FF449E","title":"斗牛士台湾牛肉面(仙乐斯店)","lon":"121.468935","lat":"31.231409","category":"68","category_name":"快餐厅","address":"静安区南京西路388号仙乐斯广场B1楼02号商铺(近黄陂北路)"},{"poiid":"B209475DD76EA3FA429B","title":"南京大排档","lon":"121.470855","lat":"31.232315","category":"247","category_name":"餐饮美食","address":"上海市 南京西路258号世贸商都3楼"},{"poiid":"B2094757DB6DA3FD4792","title":"迪美·芋贵人","lon":"121.469672","lat":"31.232782","category":"247","category_name":"餐饮美食","address":"人民广场·地下迪美"},{"poiid":"B2094750DA6CABF54899","title":"地铁一号线","lon":"121.470108","lat":"31.233215","category":"500","category_name":"未知分类","address":null},{"poiid":"B2094757D069ABFD409C","title":"人民广场上海歌城","lon":"121.470956","lat":"31.232594","category":"500","category_name":"未知分类","address":"上海人民广场"},{"poiid":"B2094757D069A2F4419E","title":"嘉厨小馆 新昌路店","lon":"121.469033","lat":"31.233784","category":"257","category_name":"中餐厅","address":"黄浦区新昌路77号(凤阳路新昌路)"},{"poiid":"B2094757D06FA3FC4693","title":"杯子布丁(来福士店)","lon":"121.47049944","lat":"31.232727132","category":"67","category_name":"甜品店","address":"黄浦区西藏中路268号来福士广场B1楼(近福州路)"}]