[{"poiid":"B2094654DB64A6F8419A","title":"星巴克(新天地店)","lon":"121.4746801","lat":"31.221476","category":"65","category_name":"咖啡厅","address":"卢湾区太仓路181弄新天地北里18号楼(近马当路)"},{"poiid":"B2094654DA6EABFC4292","title":"上海新天地(马当路)","lon":"121.47434","lat":"31.22081","category":"46","category_name":"楼宇","address":"太仓路181弄/兴业路123弄"},{"poiid":"B2094654DB64AAFC439E","title":"宝莱纳餐厅新天地餐厅","lon":"121.47386218823908","lat":"31.221275058883233","category":"257","category_name":"中餐厅","address":"卢湾区太仓路181弄新天地北里19-20号(近马当路)"},{"poiid":"B2094753D76FAAFA449C","title":"上海滩国泰旗舰店","lon":"121.466011","lat":"31.216125","category":"249","category_name":"购物服务","address":"淮海中路868号"},{"poiid":"B209475CD564A7F84292","title":"上海滩新天地店","lon":"121.47463","lat":"31.22164","category":"119","category_name":"商场","address":"\"太仓路181弄新天地北里15号\r\n\""},{"poiid":"B209475CD564A7F8439E","title":"上海滩中信泰富店","lon":"121.45602","lat":"31.22851","category":"119","category_name":"商场","address":"\"南京西路1168号中信泰富广场，店铺号221.\r\n\""},{"poiid":"B2094757D06EAAF5429D","title":"上海新天地朗廷酒店","lon":"121.474023342","lat":"31.2216057631","category":"217","category_name":"旅馆招待所","address":"上海市黄浦区马当路99号(近太仓路)"},{"poiid":"B2094757DB64A3F84892","title":"哈根达斯（上海新天地店）","lon":"121.474","lat":"31.2208","category":"113","category_name":"冷饮店","address":"卢湾区太仓路181号新天地北里22-23号楼02A单元(老第坊旁)"},{"poiid":"B2094757D068ABFA4998","title":"COVA 新天地店","lon":"121.474032898","lat":"31.2212762093","category":"67","category_name":"甜品店","address":"卢湾区太仓路181弄新天地北里内(近马当路)"},{"poiid":"B2094757D06FA6FC419C","title":"Wagas 中环广场店","lon":"121.47261473","lat":"31.22224613","category":"94","category_name":"西餐厅","address":"上海卢湾区淮海中路淡水路中环广场"},{"poiid":"B2094757D06FA3FC489D","title":"屋企汤馆 淮海店","lon":"121.4708246443","lat":"31.221864028321","category":"72","category_name":"广东菜","address":"卢湾区淮海中路438号2楼(近重庆南路)"},{"poiid":"B2094655D26BA3FC469D","title":"揽香精萃时尚餐厅","lon":"121.47306","lat":"31.2221","category":"260","category_name":"其他","address":"卢湾区淮海中路381号中环广场2-3楼(近重庆南路)"},{"poiid":"B2094757D06FA2F8489C","title":"金牛苑(淮海中路店)","lon":"121.47315","lat":"31.22208","category":"47","category_name":"住宅区","address":"卢湾区淮海中路381号中环广场3楼(近马当路)"},{"poiid":"B2094757D06EAAF4429C","title":"黄陂南路地铁站","lon":"121.473293","lat":"31.222725","category":"36","category_name":"地铁站","address":"上海轨道交通,一号线,轨交黄陂南路站,1"},{"poiid":"B2094750D56EA5F5419C","title":"say cheese 甜品.家","lon":"121.471335","lat":"31.220279","category":"247","category_name":"餐饮美食","address":"卢湾区重庆南路30弄1号(近淮海中路)"},{"poiid":"B2094757D16FA2FF499E","title":"颐东海港名厨","lon":"121.472683038","lat":"31.222152028","category":"72","category_name":"广东菜","address":"卢湾区淮海中路381号中环广场4楼(近淡水路)"},{"poiid":"B2094757D06FA1FF469A","title":"阿利与艾德咖啡西餐厅(淮太店)","lon":"121.47389","lat":"31.22227","category":"94","category_name":"西餐厅","address":"卢湾区淮海中路333号太平洋百货2楼(近马当路)"},{"poiid":"B2094751D56FABFF469F","title":"g  极食（上海K11店）","lon":"121.471882","lat":"31.220876","category":"247","category_name":"餐饮美食","address":"上海市 淮海中路300号上海K11购物艺术中心303"},{"poiid":"B2094750D76DA6F8449F","title":"新天地朗廷酒店凯旋餐厅","lon":"121.474","lat":"31.2214","category":"268","category_name":"自助","address":"卢湾区马当路99号新天地朗廷酒店1楼(近太仓路)"},{"poiid":"B2094757D06AA6FC4198","title":"香港广场M2","lon":"121.474451738","lat":"31.2206710964","category":"500","category_name":"未知分类","address":"上海市卢湾区"},{"poiid":"B2094757D168A5FB469D","title":"Initial新天地","lon":"121.47131183","lat":"31.221172036","category":"500","category_name":"未知分类","address":"上海新天地UME 1楼"},{"poiid":"B2094757D06FA2FC489D","title":"禾绿回转寿司(淮海店)","lon":"121.471866738","lat":"31.2220071249","category":"95","category_name":"日本料理","address":"卢湾区淮海中路352号(近马当路)"},{"poiid":"B2094757D068A2F5449F","title":"世纪巴士大厦","lon":"121.47163462","lat":"31.222440357","category":"46","category_name":"楼宇","address":"上海淮海中路398号"},{"poiid":"B2094655D26AAAF54398","title":"东田造型淮海中路店","lon":"121.47306","lat":"31.2221","category":"148","category_name":"美容美发店","address":"卢湾区淮海中路381号中环广场2楼208室(近马当路)"},{"poiid":"B2094757D06AA3F8489C","title":"中環廣場Delifrance","lon":"121.472848","lat":"31.222364","category":"119","category_name":"商场","address":"上海中環廣場"},{"poiid":"B2094654DB6BA4FA419F","title":"伊藤家(中环店)","lon":"121.47282","lat":"31.22196","category":"95","category_name":"日本料理","address":"卢湾区淮海中路381号中环广场3楼(近马当路)"},{"poiid":"B2094750D565A6FF4993","title":"多謝賞面","lon":"121.47396","lat":"31.219984","category":"247","category_name":"餐饮美食","address":"卢湾区兴业路156弄1号A11号铺(近马当路)"},{"poiid":"B2094757D069A4FF4699","title":"lv旗舰店","lon":"121.47127873","lat":"31.220801099","category":"500","category_name":"未知分类","address":"上海淮海路嵩山路"},{"poiid":"B2094757D068A3FD459F","title":"沧浪亭(重庆路店)","lon":"121.47132","lat":"31.2213","category":"87","category_name":"特色／地方风味餐厅","address":"卢湾区老重庆中路好乐迪对面(淮海中路口)"},{"poiid":"B2094757D16FA6FB459A","title":"雁荡路","lon":"121.47324523","lat":"31.222686139","category":"500","category_name":"未知分类","address":"上海雁荡路"},{"poiid":"B2094751D56FABFB4093","title":"Tuttimelon（上海K11店）","lon":"121.47274","lat":"31.221169","category":"247","category_name":"餐饮美食","address":"上海市 淮海中路300号上海K11购物艺术中心B213/B246"},{"poiid":"B2094757D16CAAF94992","title":"南昌路","lon":"121.47206173","lat":"31.221032104","category":"500","category_name":"未知分类","address":"上海卢湾区南昌路"},{"poiid":"B2094757D069A6F94393","title":"马当路","lon":"121.473116","lat":"31.222885","category":"500","category_name":"未知分类","address":"上海淮海中路马当路"},{"poiid":"B2094757D065A4F5419D","title":"Wagas","lon":"121.473691738","lat":"31.2212781093","category":"500","category_name":"未知分类","address":"上海ShanghaiLuwanJulu Rd"},{"poiid":"B2094757D06FA7F54399","title":"香黛广场","lon":"121.47153","lat":"31.2218","category":"249","category_name":"购物服务","address":"卢湾区淮海中路417号(近重庆南路)"},{"poiid":"B2094757D068A1FB419E","title":"上海滩(新天地店)","lon":"121.47434","lat":"31.22103","category":"141","category_name":"服装鞋帽皮具店","address":"卢湾区太仓路181弄新天地北里15号(近马当路)"},{"poiid":"B2094654DB65A5F9459C","title":"华万意 Va Bene","lon":"121.474229054","lat":"31.221022793","category":"94","category_name":"西餐厅","address":"卢湾区太仓路181弄新天地北里7号楼(近马当路)"},{"poiid":"B2094757D06EAAFE479E","title":"刘娟美甲(淮海中路一店)","lon":"121.47222","lat":"31.22163","category":"122","category_name":"个人用品/化妆品店","address":"卢湾区淮海中路417号香黛广场73号(近重庆南路)"},{"poiid":"B2094757D06AA5F44693","title":"10号线新天地站","lon":"121.473128738","lat":"31.22224613","category":"36","category_name":"地铁站","address":"上海市黄浦区延安中路"},{"poiid":"B2094654DA6EABFD4898","title":"帼苑桌球俱乐部","lon":"121.47306","lat":"31.2228","category":"171","category_name":"台球厅","address":"淮海中路344号3层"},{"poiid":"B2094757D16CABFA4098","title":"上海医药大厦","lon":"121.47355428","lat":"31.221216408","category":"46","category_name":"楼宇","address":"上海市静安区南京西路555号"},{"poiid":"B2094757D06FA6FF409F","title":"铂金大厦(原凯德·新茂大厦)","lon":"121.47360297","lat":"31.220712468","category":"46","category_name":"楼宇","address":"上海卢湾区太仓路233号(近马当路)"},{"poiid":"B2094757D068A0FA419F","title":"招商银行(淮中支行)","lon":"121.47235","lat":"31.2223","category":"46","category_name":"楼宇","address":"卢湾区淮海中路398号(淡水路淮海中路)"},{"poiid":"B2094751D56FABF44792","title":"Blink（上海K11店）","lon":"121.472225","lat":"31.219995","category":"247","category_name":"餐饮美食","address":"上海市 淮海中路300号上海K11购物艺术中心B234"},{"poiid":"B2094654DB64AAFB4299","title":"大旺旺特色馄饨 淮海中路店","lon":"121.473097054","lat":"31.222434793","category":"68","category_name":"快餐厅","address":"卢湾区淮海中路358弄20号(招商银行对面)"},{"poiid":"B2094750D76DA6F5439C","title":"阿姨虾肉馄饨","lon":"121.473","lat":"31.2228","category":"68","category_name":"快餐厅","address":"卢湾区淮海中路358弄28号(近热风)"},{"poiid":"B2094752DA6BAAFE469A","title":"100哆啦A梦秘密道具博览","lon":"121.474341","lat":"31.221236","category":"500","category_name":"未知分类","address":"上海市 新天地"},{"poiid":"B2094757D465A3F8489A","title":"俏江南 蒸-新天地二店 South Beauty -STEAM","lon":"121.474435054","lat":"31.221291793","category":"257","category_name":"中餐厅","address":"太仓路181弄新天地北里18号近马当路"},{"poiid":"B2094757D664A6FA489D","title":"新天地壹号会所","lon":"121.474195054","lat":"31.221067793","category":"94","category_name":"西餐厅","address":"卢湾区太仓路181弄新天地北里1号楼(近马当路)"},{"poiid":"B2094757D068A5FB419B","title":"Kevin造型(重庆南路店)","lon":"121.47165","lat":"31.21987","category":"148","category_name":"美容美发店","address":"卢湾区重庆南路22号(近淮海中路)"},{"poiid":"B2094654DB64A6F8419A","title":"星巴克(新天地店)","lon":"121.4746801","lat":"31.221476","category":"65","category_name":"咖啡厅","address":"卢湾区太仓路181弄新天地北里18号楼(近马当路)"},{"poiid":"B2094654DA6EABFC4292","title":"上海新天地(马当路)","lon":"121.47434","lat":"31.22081","category":"46","category_name":"楼宇","address":"太仓路181弄/兴业路123弄"},{"poiid":"B2094654DB64AAFC439E","title":"宝莱纳餐厅新天地餐厅","lon":"121.47386218823908","lat":"31.221275058883233","category":"257","category_name":"中餐厅","address":"卢湾区太仓路181弄新天地北里19-20号(近马当路)"},{"poiid":"B2094753D76FAAFA449C","title":"上海滩国泰旗舰店","lon":"121.466011","lat":"31.216125","category":"249","category_name":"购物服务","address":"淮海中路868号"},{"poiid":"B209475CD564A7F84292","title":"上海滩新天地店","lon":"121.47463","lat":"31.22164","category":"119","category_name":"商场","address":"\"太仓路181弄新天地北里15号\r\n\""},{"poiid":"B209475CD564A7F8439E","title":"上海滩中信泰富店","lon":"121.45602","lat":"31.22851","category":"119","category_name":"商场","address":"\"南京西路1168号中信泰富广场，店铺号221.\r\n\""},{"poiid":"B2094757D06EAAF5429D","title":"上海新天地朗廷酒店","lon":"121.474023342","lat":"31.2216057631","category":"217","category_name":"旅馆招待所","address":"上海市黄浦区马当路99号(近太仓路)"},{"poiid":"B2094757DB64A3F84892","title":"哈根达斯（上海新天地店）","lon":"121.474","lat":"31.2208","category":"113","category_name":"冷饮店","address":"卢湾区太仓路181号新天地北里22-23号楼02A单元(老第坊旁)"},{"poiid":"B2094757D068ABFA4998","title":"COVA 新天地店","lon":"121.474032898","lat":"31.2212762093","category":"67","category_name":"甜品店","address":"卢湾区太仓路181弄新天地北里内(近马当路)"},{"poiid":"B2094757D06FA6FC419C","title":"Wagas 中环广场店","lon":"121.47261473","lat":"31.22224613","category":"94","category_name":"西餐厅","address":"上海卢湾区淮海中路淡水路中环广场"},{"poiid":"B2094757D06FA3FC489D","title":"屋企汤馆 淮海店","lon":"121.4708246443","lat":"31.221864028321","category":"72","category_name":"广东菜","address":"卢湾区淮海中路438号2楼(近重庆南路)"},{"poiid":"B2094655D26BA3FC469D","title":"揽香精萃时尚餐厅","lon":"121.47306","lat":"31.2221","category":"260","category_name":"其他","address":"卢湾区淮海中路381号中环广场2-3楼(近重庆南路)"},{"poiid":"B2094757D06FA2F8489C","title":"金牛苑(淮海中路店)","lon":"121.47315","lat":"31.22208","category":"47","category_name":"住宅区","address":"卢湾区淮海中路381号中环广场3楼(近马当路)"},{"poiid":"B2094757D06EAAF4429C","title":"黄陂南路地铁站","lon":"121.473293","lat":"31.222725","category":"36","category_name":"地铁站","address":"上海轨道交通,一号线,轨交黄陂南路站,1"},{"poiid":"B2094750D56EA5F5419C","title":"say cheese 甜品.家","lon":"121.471335","lat":"31.220279","category":"247","category_name":"餐饮美食","address":"卢湾区重庆南路30弄1号(近淮海中路)"},{"poiid":"B2094757D16FA2FF499E","title":"颐东海港名厨","lon":"121.472683038","lat":"31.222152028","category":"72","category_name":"广东菜","address":"卢湾区淮海中路381号中环广场4楼(近淡水路)"},{"poiid":"B2094757D06FA1FF469A","title":"阿利与艾德咖啡西餐厅(淮太店)","lon":"121.47389","lat":"31.22227","category":"94","category_name":"西餐厅","address":"卢湾区淮海中路333号太平洋百货2楼(近马当路)"},{"poiid":"B2094751D56FABFF469F","title":"g  极食（上海K11店）","lon":"121.471882","lat":"31.220876","category":"247","category_name":"餐饮美食","address":"上海市 淮海中路300号上海K11购物艺术中心303"},{"poiid":"B2094750D76DA6F8449F","title":"新天地朗廷酒店凯旋餐厅","lon":"121.474","lat":"31.2214","category":"268","category_name":"自助","address":"卢湾区马当路99号新天地朗廷酒店1楼(近太仓路)"},{"poiid":"B2094757D06AA6FC4198","title":"香港广场M2","lon":"121.474451738","lat":"31.2206710964","category":"500","category_name":"未知分类","address":"上海市卢湾区"},{"poiid":"B2094757D168A5FB469D","title":"Initial新天地","lon":"121.47131183","lat":"31.221172036","category":"500","category_name":"未知分类","address":"上海新天地UME 1楼"},{"poiid":"B2094757D06FA2FC489D","title":"禾绿回转寿司(淮海店)","lon":"121.471866738","lat":"31.2220071249","category":"95","category_name":"日本料理","address":"卢湾区淮海中路352号(近马当路)"},{"poiid":"B2094757D068A2F5449F","title":"世纪巴士大厦","lon":"121.47163462","lat":"31.222440357","category":"46","category_name":"楼宇","address":"上海淮海中路398号"},{"poiid":"B2094655D26AAAF54398","title":"东田造型淮海中路店","lon":"121.47306","lat":"31.2221","category":"148","category_name":"美容美发店","address":"卢湾区淮海中路381号中环广场2楼208室(近马当路)"},{"poiid":"B2094757D06AA3F8489C","title":"中環廣場Delifrance","lon":"121.472848","lat":"31.222364","category":"119","category_name":"商场","address":"上海中環廣場"},{"poiid":"B2094654DB6BA4FA419F","title":"伊藤家(中环店)","lon":"121.47282","lat":"31.22196","category":"95","category_name":"日本料理","address":"卢湾区淮海中路381号中环广场3楼(近马当路)"},{"poiid":"B2094750D565A6FF4993","title":"多謝賞面","lon":"121.47396","lat":"31.219984","category":"247","category_name":"餐饮美食","address":"卢湾区兴业路156弄1号A11号铺(近马当路)"},{"poiid":"B2094757D069A4FF4699","title":"lv旗舰店","lon":"121.47127873","lat":"31.220801099","category":"500","category_name":"未知分类","address":"上海淮海路嵩山路"},{"poiid":"B2094757D068A3FD459F","title":"沧浪亭(重庆路店)","lon":"121.47132","lat":"31.2213","category":"87","category_name":"特色／地方风味餐厅","address":"卢湾区老重庆中路好乐迪对面(淮海中路口)"},{"poiid":"B2094757D16FA6FB459A","title":"雁荡路","lon":"121.47324523","lat":"31.222686139","category":"500","category_name":"未知分类","address":"上海雁荡路"},{"poiid":"B2094751D56FABFB4093","title":"Tuttimelon（上海K11店）","lon":"121.47274","lat":"31.221169","category":"247","category_name":"餐饮美食","address":"上海市 淮海中路300号上海K11购物艺术中心B213/B246"},{"poiid":"B2094757D16CAAF94992","title":"南昌路","lon":"121.47206173","lat":"31.221032104","category":"500","category_name":"未知分类","address":"上海卢湾区南昌路"},{"poiid":"B2094757D069A6F94393","title":"马当路","lon":"121.473116","lat":"31.222885","category":"500","category_name":"未知分类","address":"上海淮海中路马当路"},{"poiid":"B2094757D065A4F5419D","title":"Wagas","lon":"121.473691738","lat":"31.2212781093","category":"500","category_name":"未知分类","address":"上海ShanghaiLuwanJulu Rd"},{"poiid":"B2094757D06FA7F54399","title":"香黛广场","lon":"121.47153","lat":"31.2218","category":"249","category_name":"购物服务","address":"卢湾区淮海中路417号(近重庆南路)"},{"poiid":"B2094757D068A1FB419E","title":"上海滩(新天地店)","lon":"121.47434","lat":"31.22103","category":"141","category_name":"服装鞋帽皮具店","address":"卢湾区太仓路181弄新天地北里15号(近马当路)"},{"poiid":"B2094654DB65A5F9459C","title":"华万意 Va Bene","lon":"121.474229054","lat":"31.221022793","category":"94","category_name":"西餐厅","address":"卢湾区太仓路181弄新天地北里7号楼(近马当路)"},{"poiid":"B2094757D06EAAFE479E","title":"刘娟美甲(淮海中路一店)","lon":"121.47222","lat":"31.22163","category":"122","category_name":"个人用品/化妆品店","address":"卢湾区淮海中路417号香黛广场73号(近重庆南路)"},{"poiid":"B2094757D06AA5F44693","title":"10号线新天地站","lon":"121.473128738","lat":"31.22224613","category":"36","category_name":"地铁站","address":"上海市黄浦区延安中路"},{"poiid":"B2094654DA6EABFD4898","title":"帼苑桌球俱乐部","lon":"121.47306","lat":"31.2228","category":"171","category_name":"台球厅","address":"淮海中路344号3层"},{"poiid":"B2094757D16CABFA4098","title":"上海医药大厦","lon":"121.47355428","lat":"31.221216408","category":"46","category_name":"楼宇","address":"上海市静安区南京西路555号"},{"poiid":"B2094757D06FA6FF409F","title":"铂金大厦(原凯德·新茂大厦)","lon":"121.47360297","lat":"31.220712468","category":"46","category_name":"楼宇","address":"上海卢湾区太仓路233号(近马当路)"},{"poiid":"B2094757D068A0FA419F","title":"招商银行(淮中支行)","lon":"121.47235","lat":"31.2223","category":"46","category_name":"楼宇","address":"卢湾区淮海中路398号(淡水路淮海中路)"},{"poiid":"B2094751D56FABF44792","title":"Blink（上海K11店）","lon":"121.472225","lat":"31.219995","category":"247","category_name":"餐饮美食","address":"上海市 淮海中路300号上海K11购物艺术中心B234"},{"poiid":"B2094654DB64AAFB4299","title":"大旺旺特色馄饨 淮海中路店","lon":"121.473097054","lat":"31.222434793","category":"68","category_name":"快餐厅","address":"卢湾区淮海中路358弄20号(招商银行对面)"},{"poiid":"B2094750D76DA6F5439C","title":"阿姨虾肉馄饨","lon":"121.473","lat":"31.2228","category":"68","category_name":"快餐厅","address":"卢湾区淮海中路358弄28号(近热风)"},{"poiid":"B2094752DA6BAAFE469A","title":"100哆啦A梦秘密道具博览","lon":"121.474341","lat":"31.221236","category":"500","category_name":"未知分类","address":"上海市 新天地"},{"poiid":"B2094757D465A3F8489A","title":"俏江南 蒸-新天地二店 South Beauty -STEAM","lon":"121.474435054","lat":"31.221291793","category":"257","category_name":"中餐厅","address":"太仓路181弄新天地北里18号近马当路"},{"poiid":"B2094757D664A6FA489D","title":"新天地壹号会所","lon":"121.474195054","lat":"31.221067793","category":"94","category_name":"西餐厅","address":"卢湾区太仓路181弄新天地北里1号楼(近马当路)"},{"poiid":"B2094757D068A5FB419B","title":"Kevin造型(重庆南路店)","lon":"121.47165","lat":"31.21987","category":"148","category_name":"美容美发店","address":"卢湾区重庆南路22号(近淮海中路)"},{"poiid":"B2094654DB64A6F8419A","title":"星巴克(新天地店)","lon":"121.4746801","lat":"31.221476","category":"65","category_name":"咖啡厅","address":"卢湾区太仓路181弄新天地北里18号楼(近马当路)"},{"poiid":"B2094654DA6EABFC4292","title":"上海新天地(马当路)","lon":"121.47434","lat":"31.22081","category":"46","category_name":"楼宇","address":"太仓路181弄/兴业路123弄"},{"poiid":"B2094654DB64AAFC439E","title":"宝莱纳餐厅新天地餐厅","lon":"121.47386218823908","lat":"31.221275058883233","category":"257","category_name":"中餐厅","address":"卢湾区太仓路181弄新天地北里19-20号(近马当路)"},{"poiid":"B2094753D76FAAFA449C","title":"上海滩国泰旗舰店","lon":"121.466011","lat":"31.216125","category":"249","category_name":"购物服务","address":"淮海中路868号"},{"poiid":"B209475CD564A7F84292","title":"上海滩新天地店","lon":"121.47463","lat":"31.22164","category":"119","category_name":"商场","address":"\"太仓路181弄新天地北里15号\r\n\""},{"poiid":"B209475CD564A7F8439E","title":"上海滩中信泰富店","lon":"121.45602","lat":"31.22851","category":"119","category_name":"商场","address":"\"南京西路1168号中信泰富广场，店铺号221.\r\n\""},{"poiid":"B2094757D06EAAF5429D","title":"上海新天地朗廷酒店","lon":"121.474023342","lat":"31.2216057631","category":"217","category_name":"旅馆招待所","address":"上海市黄浦区马当路99号(近太仓路)"},{"poiid":"B2094757DB64A3F84892","title":"哈根达斯（上海新天地店）","lon":"121.474","lat":"31.2208","category":"113","category_name":"冷饮店","address":"卢湾区太仓路181号新天地北里22-23号楼02A单元(老第坊旁)"},{"poiid":"B2094757D068ABFA4998","title":"COVA 新天地店","lon":"121.474032898","lat":"31.2212762093","category":"67","category_name":"甜品店","address":"卢湾区太仓路181弄新天地北里内(近马当路)"},{"poiid":"B2094757D06FA6FC419C","title":"Wagas 中环广场店","lon":"121.47261473","lat":"31.22224613","category":"94","category_name":"西餐厅","address":"上海卢湾区淮海中路淡水路中环广场"},{"poiid":"B2094757D06FA3FC489D","title":"屋企汤馆 淮海店","lon":"121.4708246443","lat":"31.221864028321","category":"72","category_name":"广东菜","address":"卢湾区淮海中路438号2楼(近重庆南路)"},{"poiid":"B2094655D26BA3FC469D","title":"揽香精萃时尚餐厅","lon":"121.47306","lat":"31.2221","category":"260","category_name":"其他","address":"卢湾区淮海中路381号中环广场2-3楼(近重庆南路)"},{"poiid":"B2094757D06FA2F8489C","title":"金牛苑(淮海中路店)","lon":"121.47315","lat":"31.22208","category":"47","category_name":"住宅区","address":"卢湾区淮海中路381号中环广场3楼(近马当路)"},{"poiid":"B2094757D06EAAF4429C","title":"黄陂南路地铁站","lon":"121.473293","lat":"31.222725","category":"36","category_name":"地铁站","address":"上海轨道交通,一号线,轨交黄陂南路站,1"},{"poiid":"B2094750D56EA5F5419C","title":"say cheese 甜品.家","lon":"121.471335","lat":"31.220279","category":"247","category_name":"餐饮美食","address":"卢湾区重庆南路30弄1号(近淮海中路)"},{"poiid":"B2094757D16FA2FF499E","title":"颐东海港名厨","lon":"121.472683038","lat":"31.222152028","category":"72","category_name":"广东菜","address":"卢湾区淮海中路381号中环广场4楼(近淡水路)"},{"poiid":"B2094757D06FA1FF469A","title":"阿利与艾德咖啡西餐厅(淮太店)","lon":"121.47389","lat":"31.22227","category":"94","category_name":"西餐厅","address":"卢湾区淮海中路333号太平洋百货2楼(近马当路)"},{"poiid":"B2094751D56FABFF469F","title":"g  极食（上海K11店）","lon":"121.471882","lat":"31.220876","category":"247","category_name":"餐饮美食","address":"上海市 淮海中路300号上海K11购物艺术中心303"},{"poiid":"B2094750D76DA6F8449F","title":"新天地朗廷酒店凯旋餐厅","lon":"121.474","lat":"31.2214","category":"268","category_name":"自助","address":"卢湾区马当路99号新天地朗廷酒店1楼(近太仓路)"},{"poiid":"B2094757D06AA6FC4198","title":"香港广场M2","lon":"121.474451738","lat":"31.2206710964","category":"500","category_name":"未知分类","address":"上海市卢湾区"},{"poiid":"B2094757D168A5FB469D","title":"Initial新天地","lon":"121.47131183","lat":"31.221172036","category":"500","category_name":"未知分类","address":"上海新天地UME 1楼"},{"poiid":"B2094757D06FA2FC489D","title":"禾绿回转寿司(淮海店)","lon":"121.471866738","lat":"31.2220071249","category":"95","category_name":"日本料理","address":"卢湾区淮海中路352号(近马当路)"},{"poiid":"B2094757D068A2F5449F","title":"世纪巴士大厦","lon":"121.47163462","lat":"31.222440357","category":"46","category_name":"楼宇","address":"上海淮海中路398号"},{"poiid":"B2094655D26AAAF54398","title":"东田造型淮海中路店","lon":"121.47306","lat":"31.2221","category":"148","category_name":"美容美发店","address":"卢湾区淮海中路381号中环广场2楼208室(近马当路)"},{"poiid":"B2094757D06AA3F8489C","title":"中環廣場Delifrance","lon":"121.472848","lat":"31.222364","category":"119","category_name":"商场","address":"上海中環廣場"},{"poiid":"B2094654DB6BA4FA419F","title":"伊藤家(中环店)","lon":"121.47282","lat":"31.22196","category":"95","category_name":"日本料理","address":"卢湾区淮海中路381号中环广场3楼(近马当路)"},{"poiid":"B2094750D565A6FF4993","title":"多謝賞面","lon":"121.47396","lat":"31.219984","category":"247","category_name":"餐饮美食","address":"卢湾区兴业路156弄1号A11号铺(近马当路)"},{"poiid":"B2094757D069A4FF4699","title":"lv旗舰店","lon":"121.47127873","lat":"31.220801099","category":"500","category_name":"未知分类","address":"上海淮海路嵩山路"},{"poiid":"B2094757D068A3FD459F","title":"沧浪亭(重庆路店)","lon":"121.47132","lat":"31.2213","category":"87","category_name":"特色／地方风味餐厅","address":"卢湾区老重庆中路好乐迪对面(淮海中路口)"},{"poiid":"B2094757D16FA6FB459A","title":"雁荡路","lon":"121.47324523","lat":"31.222686139","category":"500","category_name":"未知分类","address":"上海雁荡路"},{"poiid":"B2094751D56FABFB4093","title":"Tuttimelon（上海K11店）","lon":"121.47274","lat":"31.221169","category":"247","category_name":"餐饮美食","address":"上海市 淮海中路300号上海K11购物艺术中心B213/B246"},{"poiid":"B2094757D16CAAF94992","title":"南昌路","lon":"121.47206173","lat":"31.221032104","category":"500","category_name":"未知分类","address":"上海卢湾区南昌路"},{"poiid":"B2094757D069A6F94393","title":"马当路","lon":"121.473116","lat":"31.222885","category":"500","category_name":"未知分类","address":"上海淮海中路马当路"},{"poiid":"B2094757D065A4F5419D","title":"Wagas","lon":"121.473691738","lat":"31.2212781093","category":"500","category_name":"未知分类","address":"上海ShanghaiLuwanJulu Rd"},{"poiid":"B2094757D06FA7F54399","title":"香黛广场","lon":"121.47153","lat":"31.2218","category":"249","category_name":"购物服务","address":"卢湾区淮海中路417号(近重庆南路)"},{"poiid":"B2094757D068A1FB419E","title":"上海滩(新天地店)","lon":"121.47434","lat":"31.22103","category":"141","category_name":"服装鞋帽皮具店","address":"卢湾区太仓路181弄新天地北里15号(近马当路)"},{"poiid":"B2094654DB65A5F9459C","title":"华万意 Va Bene","lon":"121.474229054","lat":"31.221022793","category":"94","category_name":"西餐厅","address":"卢湾区太仓路181弄新天地北里7号楼(近马当路)"},{"poiid":"B2094757D06EAAFE479E","title":"刘娟美甲(淮海中路一店)","lon":"121.47222","lat":"31.22163","category":"122","category_name":"个人用品/化妆品店","address":"卢湾区淮海中路417号香黛广场73号(近重庆南路)"},{"poiid":"B2094757D06AA5F44693","title":"10号线新天地站","lon":"121.473128738","lat":"31.22224613","category":"36","category_name":"地铁站","address":"上海市黄浦区延安中路"},{"poiid":"B2094654DA6EABFD4898","title":"帼苑桌球俱乐部","lon":"121.47306","lat":"31.2228","category":"171","category_name":"台球厅","address":"淮海中路344号3层"},{"poiid":"B2094757D16CABFA4098","title":"上海医药大厦","lon":"121.47355428","lat":"31.221216408","category":"46","category_name":"楼宇","address":"上海市静安区南京西路555号"},{"poiid":"B2094757D06FA6FF409F","title":"铂金大厦(原凯德·新茂大厦)","lon":"121.47360297","lat":"31.220712468","category":"46","category_name":"楼宇","address":"上海卢湾区太仓路233号(近马当路)"},{"poiid":"B2094757D068A0FA419F","title":"招商银行(淮中支行)","lon":"121.47235","lat":"31.2223","category":"46","category_name":"楼宇","address":"卢湾区淮海中路398号(淡水路淮海中路)"},{"poiid":"B2094751D56FABF44792","title":"Blink（上海K11店）","lon":"121.472225","lat":"31.219995","category":"247","category_name":"餐饮美食","address":"上海市 淮海中路300号上海K11购物艺术中心B234"},{"poiid":"B2094654DB64AAFB4299","title":"大旺旺特色馄饨 淮海中路店","lon":"121.473097054","lat":"31.222434793","category":"68","category_name":"快餐厅","address":"卢湾区淮海中路358弄20号(招商银行对面)"},{"poiid":"B2094750D76DA6F5439C","title":"阿姨虾肉馄饨","lon":"121.473","lat":"31.2228","category":"68","category_name":"快餐厅","address":"卢湾区淮海中路358弄28号(近热风)"},{"poiid":"B2094752DA6BAAFE469A","title":"100哆啦A梦秘密道具博览","lon":"121.474341","lat":"31.221236","category":"500","category_name":"未知分类","address":"上海市 新天地"},{"poiid":"B2094757D465A3F8489A","title":"俏江南 蒸-新天地二店 South Beauty -STEAM","lon":"121.474435054","lat":"31.221291793","category":"257","category_name":"中餐厅","address":"太仓路181弄新天地北里18号近马当路"},{"poiid":"B2094757D664A6FA489D","title":"新天地壹号会所","lon":"121.474195054","lat":"31.221067793","category":"94","category_name":"西餐厅","address":"卢湾区太仓路181弄新天地北里1号楼(近马当路)"},{"poiid":"B2094757D068A5FB419B","title":"Kevin造型(重庆南路店)","lon":"121.47165","lat":"31.21987","category":"148","category_name":"美容美发店","address":"卢湾区重庆南路22号(近淮海中路)"},{"poiid":"B2094654DB64A6F8419A","title":"星巴克(新天地店)","lon":"121.4746801","lat":"31.221476","category":"65","category_name":"咖啡厅","address":"卢湾区太仓路181弄新天地北里18号楼(近马当路)"},{"poiid":"B2094654DA6EABFC4292","title":"上海新天地(马当路)","lon":"121.47434","lat":"31.22081","category":"46","category_name":"楼宇","address":"太仓路181弄/兴业路123弄"},{"poiid":"B2094654DB64AAFC439E","title":"宝莱纳餐厅新天地餐厅","lon":"121.47386218823908","lat":"31.221275058883233","category":"257","category_name":"中餐厅","address":"卢湾区太仓路181弄新天地北里19-20号(近马当路)"},{"poiid":"B2094753D76FAAFA449C","title":"上海滩国泰旗舰店","lon":"121.466011","lat":"31.216125","category":"249","category_name":"购物服务","address":"淮海中路868号"},{"poiid":"B209475CD564A7F84292","title":"上海滩新天地店","lon":"121.47463","lat":"31.22164","category":"119","category_name":"商场","address":"\"太仓路181弄新天地北里15号\r\n\""},{"poiid":"B209475CD564A7F8439E","title":"上海滩中信泰富店","lon":"121.45602","lat":"31.22851","category":"119","category_name":"商场","address":"\"南京西路1168号中信泰富广场，店铺号221.\r\n\""},{"poiid":"B2094757D06EAAF5429D","title":"上海新天地朗廷酒店","lon":"121.474023342","lat":"31.2216057631","category":"217","category_name":"旅馆招待所","address":"上海市黄浦区马当路99号(近太仓路)"},{"poiid":"B2094757DB64A3F84892","title":"哈根达斯（上海新天地店）","lon":"121.474","lat":"31.2208","category":"113","category_name":"冷饮店","address":"卢湾区太仓路181号新天地北里22-23号楼02A单元(老第坊旁)"},{"poiid":"B2094757D068ABFA4998","title":"COVA 新天地店","lon":"121.474032898","lat":"31.2212762093","category":"67","category_name":"甜品店","address":"卢湾区太仓路181弄新天地北里内(近马当路)"},{"poiid":"B2094757D06FA6FC419C","title":"Wagas 中环广场店","lon":"121.47261473","lat":"31.22224613","category":"94","category_name":"西餐厅","address":"上海卢湾区淮海中路淡水路中环广场"},{"poiid":"B2094757D06FA3FC489D","title":"屋企汤馆 淮海店","lon":"121.4708246443","lat":"31.221864028321","category":"72","category_name":"广东菜","address":"卢湾区淮海中路438号2楼(近重庆南路)"},{"poiid":"B2094655D26BA3FC469D","title":"揽香精萃时尚餐厅","lon":"121.47306","lat":"31.2221","category":"260","category_name":"其他","address":"卢湾区淮海中路381号中环广场2-3楼(近重庆南路)"},{"poiid":"B2094757D06FA2F8489C","title":"金牛苑(淮海中路店)","lon":"121.47315","lat":"31.22208","category":"47","category_name":"住宅区","address":"卢湾区淮海中路381号中环广场3楼(近马当路)"},{"poiid":"B2094757D06EAAF4429C","title":"黄陂南路地铁站","lon":"121.473293","lat":"31.222725","category":"36","category_name":"地铁站","address":"上海轨道交通,一号线,轨交黄陂南路站,1"},{"poiid":"B2094750D56EA5F5419C","title":"say cheese 甜品.家","lon":"121.471335","lat":"31.220279","category":"247","category_name":"餐饮美食","address":"卢湾区重庆南路30弄1号(近淮海中路)"},{"poiid":"B2094757D16FA2FF499E","title":"颐东海港名厨","lon":"121.472683038","lat":"31.222152028","category":"72","category_name":"广东菜","address":"卢湾区淮海中路381号中环广场4楼(近淡水路)"},{"poiid":"B2094757D06FA1FF469A","title":"阿利与艾德咖啡西餐厅(淮太店)","lon":"121.47389","lat":"31.22227","category":"94","category_name":"西餐厅","address":"卢湾区淮海中路333号太平洋百货2楼(近马当路)"},{"poiid":"B2094751D56FABFF469F","title":"g  极食（上海K11店）","lon":"121.471882","lat":"31.220876","category":"247","category_name":"餐饮美食","address":"上海市 淮海中路300号上海K11购物艺术中心303"},{"poiid":"B2094750D76DA6F8449F","title":"新天地朗廷酒店凯旋餐厅","lon":"121.474","lat":"31.2214","category":"268","category_name":"自助","address":"卢湾区马当路99号新天地朗廷酒店1楼(近太仓路)"},{"poiid":"B2094757D06AA6FC4198","title":"香港广场M2","lon":"121.474451738","lat":"31.2206710964","category":"500","category_name":"未知分类","address":"上海市卢湾区"},{"poiid":"B2094757D168A5FB469D","title":"Initial新天地","lon":"121.47131183","lat":"31.221172036","category":"500","category_name":"未知分类","address":"上海新天地UME 1楼"},{"poiid":"B2094757D06FA2FC489D","title":"禾绿回转寿司(淮海店)","lon":"121.471866738","lat":"31.2220071249","category":"95","category_name":"日本料理","address":"卢湾区淮海中路352号(近马当路)"},{"poiid":"B2094757D068A2F5449F","title":"世纪巴士大厦","lon":"121.47163462","lat":"31.222440357","category":"46","category_name":"楼宇","address":"上海淮海中路398号"},{"poiid":"B2094655D26AAAF54398","title":"东田造型淮海中路店","lon":"121.47306","lat":"31.2221","category":"148","category_name":"美容美发店","address":"卢湾区淮海中路381号中环广场2楼208室(近马当路)"},{"poiid":"B2094757D06AA3F8489C","title":"中環廣場Delifrance","lon":"121.472848","lat":"31.222364","category":"119","category_name":"商场","address":"上海中環廣場"},{"poiid":"B2094654DB6BA4FA419F","title":"伊藤家(中环店)","lon":"121.47282","lat":"31.22196","category":"95","category_name":"日本料理","address":"卢湾区淮海中路381号中环广场3楼(近马当路)"},{"poiid":"B2094750D565A6FF4993","title":"多謝賞面","lon":"121.47396","lat":"31.219984","category":"247","category_name":"餐饮美食","address":"卢湾区兴业路156弄1号A11号铺(近马当路)"},{"poiid":"B2094757D069A4FF4699","title":"lv旗舰店","lon":"121.47127873","lat":"31.220801099","category":"500","category_name":"未知分类","address":"上海淮海路嵩山路"},{"poiid":"B2094757D068A3FD459F","title":"沧浪亭(重庆路店)","lon":"121.47132","lat":"31.2213","category":"87","category_name":"特色／地方风味餐厅","address":"卢湾区老重庆中路好乐迪对面(淮海中路口)"},{"poiid":"B2094757D16FA6FB459A","title":"雁荡路","lon":"121.47324523","lat":"31.222686139","category":"500","category_name":"未知分类","address":"上海雁荡路"},{"poiid":"B2094751D56FABFB4093","title":"Tuttimelon（上海K11店）","lon":"121.47274","lat":"31.221169","category":"247","category_name":"餐饮美食","address":"上海市 淮海中路300号上海K11购物艺术中心B213/B246"},{"poiid":"B2094757D16CAAF94992","title":"南昌路","lon":"121.47206173","lat":"31.221032104","category":"500","category_name":"未知分类","address":"上海卢湾区南昌路"},{"poiid":"B2094757D069A6F94393","title":"马当路","lon":"121.473116","lat":"31.222885","category":"500","category_name":"未知分类","address":"上海淮海中路马当路"},{"poiid":"B2094757D065A4F5419D","title":"Wagas","lon":"121.473691738","lat":"31.2212781093","category":"500","category_name":"未知分类","address":"上海ShanghaiLuwanJulu Rd"},{"poiid":"B2094757D06FA7F54399","title":"香黛广场","lon":"121.47153","lat":"31.2218","category":"249","category_name":"购物服务","address":"卢湾区淮海中路417号(近重庆南路)"},{"poiid":"B2094757D068A1FB419E","title":"上海滩(新天地店)","lon":"121.47434","lat":"31.22103","category":"141","category_name":"服装鞋帽皮具店","address":"卢湾区太仓路181弄新天地北里15号(近马当路)"},{"poiid":"B2094654DB65A5F9459C","title":"华万意 Va Bene","lon":"121.474229054","lat":"31.221022793","category":"94","category_name":"西餐厅","address":"卢湾区太仓路181弄新天地北里7号楼(近马当路)"},{"poiid":"B2094757D06EAAFE479E","title":"刘娟美甲(淮海中路一店)","lon":"121.47222","lat":"31.22163","category":"122","category_name":"个人用品/化妆品店","address":"卢湾区淮海中路417号香黛广场73号(近重庆南路)"},{"poiid":"B2094757D06AA5F44693","title":"10号线新天地站","lon":"121.473128738","lat":"31.22224613","category":"36","category_name":"地铁站","address":"上海市黄浦区延安中路"},{"poiid":"B2094654DA6EABFD4898","title":"帼苑桌球俱乐部","lon":"121.47306","lat":"31.2228","category":"171","category_name":"台球厅","address":"淮海中路344号3层"},{"poiid":"B2094757D16CABFA4098","title":"上海医药大厦","lon":"121.47355428","lat":"31.221216408","category":"46","category_name":"楼宇","address":"上海市静安区南京西路555号"},{"poiid":"B2094757D06FA6FF409F","title":"铂金大厦(原凯德·新茂大厦)","lon":"121.47360297","lat":"31.220712468","category":"46","category_name":"楼宇","address":"上海卢湾区太仓路233号(近马当路)"},{"poiid":"B2094757D068A0FA419F","title":"招商银行(淮中支行)","lon":"121.47235","lat":"31.2223","category":"46","category_name":"楼宇","address":"卢湾区淮海中路398号(淡水路淮海中路)"},{"poiid":"B2094751D56FABF44792","title":"Blink（上海K11店）","lon":"121.472225","lat":"31.219995","category":"247","category_name":"餐饮美食","address":"上海市 淮海中路300号上海K11购物艺术中心B234"},{"poiid":"B2094654DB64AAFB4299","title":"大旺旺特色馄饨 淮海中路店","lon":"121.473097054","lat":"31.222434793","category":"68","category_name":"快餐厅","address":"卢湾区淮海中路358弄20号(招商银行对面)"},{"poiid":"B2094750D76DA6F5439C","title":"阿姨虾肉馄饨","lon":"121.473","lat":"31.2228","category":"68","category_name":"快餐厅","address":"卢湾区淮海中路358弄28号(近热风)"},{"poiid":"B2094752DA6BAAFE469A","title":"100哆啦A梦秘密道具博览","lon":"121.474341","lat":"31.221236","category":"500","category_name":"未知分类","address":"上海市 新天地"},{"poiid":"B2094757D465A3F8489A","title":"俏江南 蒸-新天地二店 South Beauty -STEAM","lon":"121.474435054","lat":"31.221291793","category":"257","category_name":"中餐厅","address":"太仓路181弄新天地北里18号近马当路"},{"poiid":"B2094757D664A6FA489D","title":"新天地壹号会所","lon":"121.474195054","lat":"31.221067793","category":"94","category_name":"西餐厅","address":"卢湾区太仓路181弄新天地北里1号楼(近马当路)"},{"poiid":"B2094757D068A5FB419B","title":"Kevin造型(重庆南路店)","lon":"121.47165","lat":"31.21987","category":"148","category_name":"美容美发店","address":"卢湾区重庆南路22号(近淮海中路)"},{"poiid":"B2094654DB64A6F8419A","title":"星巴克(新天地店)","lon":"121.4746801","lat":"31.221476","category":"65","category_name":"咖啡厅","address":"卢湾区太仓路181弄新天地北里18号楼(近马当路)"},{"poiid":"B2094654DA6EABFC4292","title":"上海新天地(马当路)","lon":"121.47434","lat":"31.22081","category":"46","category_name":"楼宇","address":"太仓路181弄/兴业路123弄"},{"poiid":"B2094654DB64AAFC439E","title":"宝莱纳餐厅新天地餐厅","lon":"121.47386218823908","lat":"31.221275058883233","category":"257","category_name":"中餐厅","address":"卢湾区太仓路181弄新天地北里19-20号(近马当路)"},{"poiid":"B2094753D76FAAFA449C","title":"上海滩国泰旗舰店","lon":"121.466011","lat":"31.216125","category":"249","category_name":"购物服务","address":"淮海中路868号"},{"poiid":"B209475CD564A7F84292","title":"上海滩新天地店","lon":"121.47463","lat":"31.22164","category":"119","category_name":"商场","address":"\"太仓路181弄新天地北里15号\r\n\""},{"poiid":"B209475CD564A7F8439E","title":"上海滩中信泰富店","lon":"121.45602","lat":"31.22851","category":"119","category_name":"商场","address":"\"南京西路1168号中信泰富广场，店铺号221.\r\n\""},{"poiid":"B2094757D06EAAF5429D","title":"上海新天地朗廷酒店","lon":"121.474023342","lat":"31.2216057631","category":"217","category_name":"旅馆招待所","address":"上海市黄浦区马当路99号(近太仓路)"},{"poiid":"B2094757DB64A3F84892","title":"哈根达斯（上海新天地店）","lon":"121.474","lat":"31.2208","category":"113","category_name":"冷饮店","address":"卢湾区太仓路181号新天地北里22-23号楼02A单元(老第坊旁)"},{"poiid":"B2094757D068ABFA4998","title":"COVA 新天地店","lon":"121.474032898","lat":"31.2212762093","category":"67","category_name":"甜品店","address":"卢湾区太仓路181弄新天地北里内(近马当路)"},{"poiid":"B2094757D06FA6FC419C","title":"Wagas 中环广场店","lon":"121.47261473","lat":"31.22224613","category":"94","category_name":"西餐厅","address":"上海卢湾区淮海中路淡水路中环广场"},{"poiid":"B2094757D06FA3FC489D","title":"屋企汤馆 淮海店","lon":"121.4708246443","lat":"31.221864028321","category":"72","category_name":"广东菜","address":"卢湾区淮海中路438号2楼(近重庆南路)"},{"poiid":"B2094655D26BA3FC469D","title":"揽香精萃时尚餐厅","lon":"121.47306","lat":"31.2221","category":"260","category_name":"其他","address":"卢湾区淮海中路381号中环广场2-3楼(近重庆南路)"},{"poiid":"B2094757D06FA2F8489C","title":"金牛苑(淮海中路店)","lon":"121.47315","lat":"31.22208","category":"47","category_name":"住宅区","address":"卢湾区淮海中路381号中环广场3楼(近马当路)"},{"poiid":"B2094757D06EAAF4429C","title":"黄陂南路地铁站","lon":"121.473293","lat":"31.222725","category":"36","category_name":"地铁站","address":"上海轨道交通,一号线,轨交黄陂南路站,1"},{"poiid":"B2094750D56EA5F5419C","title":"say cheese 甜品.家","lon":"121.471335","lat":"31.220279","category":"247","category_name":"餐饮美食","address":"卢湾区重庆南路30弄1号(近淮海中路)"},{"poiid":"B2094757D16FA2FF499E","title":"颐东海港名厨","lon":"121.472683038","lat":"31.222152028","category":"72","category_name":"广东菜","address":"卢湾区淮海中路381号中环广场4楼(近淡水路)"},{"poiid":"B2094757D06FA1FF469A","title":"阿利与艾德咖啡西餐厅(淮太店)","lon":"121.47389","lat":"31.22227","category":"94","category_name":"西餐厅","address":"卢湾区淮海中路333号太平洋百货2楼(近马当路)"},{"poiid":"B2094751D56FABFF469F","title":"g  极食（上海K11店）","lon":"121.471882","lat":"31.220876","category":"247","category_name":"餐饮美食","address":"上海市 淮海中路300号上海K11购物艺术中心303"},{"poiid":"B2094750D76DA6F8449F","title":"新天地朗廷酒店凯旋餐厅","lon":"121.474","lat":"31.2214","category":"268","category_name":"自助","address":"卢湾区马当路99号新天地朗廷酒店1楼(近太仓路)"},{"poiid":"B2094757D06AA6FC4198","title":"香港广场M2","lon":"121.474451738","lat":"31.2206710964","category":"500","category_name":"未知分类","address":"上海市卢湾区"},{"poiid":"B2094757D168A5FB469D","title":"Initial新天地","lon":"121.47131183","lat":"31.221172036","category":"500","category_name":"未知分类","address":"上海新天地UME 1楼"},{"poiid":"B2094757D06FA2FC489D","title":"禾绿回转寿司(淮海店)","lon":"121.471866738","lat":"31.2220071249","category":"95","category_name":"日本料理","address":"卢湾区淮海中路352号(近马当路)"},{"poiid":"B2094757D068A2F5449F","title":"世纪巴士大厦","lon":"121.47163462","lat":"31.222440357","category":"46","category_name":"楼宇","address":"上海淮海中路398号"},{"poiid":"B2094655D26AAAF54398","title":"东田造型淮海中路店","lon":"121.47306","lat":"31.2221","category":"148","category_name":"美容美发店","address":"卢湾区淮海中路381号中环广场2楼208室(近马当路)"},{"poiid":"B2094757D06AA3F8489C","title":"中環廣場Delifrance","lon":"121.472848","lat":"31.222364","category":"119","category_name":"商场","address":"上海中環廣場"},{"poiid":"B2094654DB6BA4FA419F","title":"伊藤家(中环店)","lon":"121.47282","lat":"31.22196","category":"95","category_name":"日本料理","address":"卢湾区淮海中路381号中环广场3楼(近马当路)"},{"poiid":"B2094750D565A6FF4993","title":"多謝賞面","lon":"121.47396","lat":"31.219984","category":"247","category_name":"餐饮美食","address":"卢湾区兴业路156弄1号A11号铺(近马当路)"},{"poiid":"B2094757D069A4FF4699","title":"lv旗舰店","lon":"121.47127873","lat":"31.220801099","category":"500","category_name":"未知分类","address":"上海淮海路嵩山路"},{"poiid":"B2094757D068A3FD459F","title":"沧浪亭(重庆路店)","lon":"121.47132","lat":"31.2213","category":"87","category_name":"特色／地方风味餐厅","address":"卢湾区老重庆中路好乐迪对面(淮海中路口)"},{"poiid":"B2094757D16FA6FB459A","title":"雁荡路","lon":"121.47324523","lat":"31.222686139","category":"500","category_name":"未知分类","address":"上海雁荡路"},{"poiid":"B2094751D56FABFB4093","title":"Tuttimelon（上海K11店）","lon":"121.47274","lat":"31.221169","category":"247","category_name":"餐饮美食","address":"上海市 淮海中路300号上海K11购物艺术中心B213/B246"},{"poiid":"B2094757D16CAAF94992","title":"南昌路","lon":"121.47206173","lat":"31.221032104","category":"500","category_name":"未知分类","address":"上海卢湾区南昌路"},{"poiid":"B2094757D069A6F94393","title":"马当路","lon":"121.473116","lat":"31.222885","category":"500","category_name":"未知分类","address":"上海淮海中路马当路"},{"poiid":"B2094757D065A4F5419D","title":"Wagas","lon":"121.473691738","lat":"31.2212781093","category":"500","category_name":"未知分类","address":"上海ShanghaiLuwanJulu Rd"},{"poiid":"B2094757D06FA7F54399","title":"香黛广场","lon":"121.47153","lat":"31.2218","category":"249","category_name":"购物服务","address":"卢湾区淮海中路417号(近重庆南路)"},{"poiid":"B2094757D068A1FB419E","title":"上海滩(新天地店)","lon":"121.47434","lat":"31.22103","category":"141","category_name":"服装鞋帽皮具店","address":"卢湾区太仓路181弄新天地北里15号(近马当路)"},{"poiid":"B2094654DB65A5F9459C","title":"华万意 Va Bene","lon":"121.474229054","lat":"31.221022793","category":"94","category_name":"西餐厅","address":"卢湾区太仓路181弄新天地北里7号楼(近马当路)"},{"poiid":"B2094757D06EAAFE479E","title":"刘娟美甲(淮海中路一店)","lon":"121.47222","lat":"31.22163","category":"122","category_name":"个人用品/化妆品店","address":"卢湾区淮海中路417号香黛广场73号(近重庆南路)"},{"poiid":"B2094757D06AA5F44693","title":"10号线新天地站","lon":"121.473128738","lat":"31.22224613","category":"36","category_name":"地铁站","address":"上海市黄浦区延安中路"},{"poiid":"B2094654DA6EABFD4898","title":"帼苑桌球俱乐部","lon":"121.47306","lat":"31.2228","category":"171","category_name":"台球厅","address":"淮海中路344号3层"},{"poiid":"B2094757D16CABFA4098","title":"上海医药大厦","lon":"121.47355428","lat":"31.221216408","category":"46","category_name":"楼宇","address":"上海市静安区南京西路555号"},{"poiid":"B2094757D06FA6FF409F","title":"铂金大厦(原凯德·新茂大厦)","lon":"121.47360297","lat":"31.220712468","category":"46","category_name":"楼宇","address":"上海卢湾区太仓路233号(近马当路)"},{"poiid":"B2094757D068A0FA419F","title":"招商银行(淮中支行)","lon":"121.47235","lat":"31.2223","category":"46","category_name":"楼宇","address":"卢湾区淮海中路398号(淡水路淮海中路)"},{"poiid":"B2094751D56FABF44792","title":"Blink（上海K11店）","lon":"121.472225","lat":"31.219995","category":"247","category_name":"餐饮美食","address":"上海市 淮海中路300号上海K11购物艺术中心B234"},{"poiid":"B2094654DB64AAFB4299","title":"大旺旺特色馄饨 淮海中路店","lon":"121.473097054","lat":"31.222434793","category":"68","category_name":"快餐厅","address":"卢湾区淮海中路358弄20号(招商银行对面)"},{"poiid":"B2094750D76DA6F5439C","title":"阿姨虾肉馄饨","lon":"121.473","lat":"31.2228","category":"68","category_name":"快餐厅","address":"卢湾区淮海中路358弄28号(近热风)"},{"poiid":"B2094752DA6BAAFE469A","title":"100哆啦A梦秘密道具博览","lon":"121.474341","lat":"31.221236","category":"500","category_name":"未知分类","address":"上海市 新天地"},{"poiid":"B2094757D465A3F8489A","title":"俏江南 蒸-新天地二店 South Beauty -STEAM","lon":"121.474435054","lat":"31.221291793","category":"257","category_name":"中餐厅","address":"太仓路181弄新天地北里18号近马当路"},{"poiid":"B2094757D664A6FA489D","title":"新天地壹号会所","lon":"121.474195054","lat":"31.221067793","category":"94","category_name":"西餐厅","address":"卢湾区太仓路181弄新天地北里1号楼(近马当路)"},{"poiid":"B2094757D068A5FB419B","title":"Kevin造型(重庆南路店)","lon":"121.47165","lat":"31.21987","category":"148","category_name":"美容美发店","address":"卢湾区重庆南路22号(近淮海中路)"}]