[{"poiid":"B2094757D069A1FB439D","title":"航头镇","lon":"121.597077077","lat":"31.025183209","category":"500","category_name":"未知分类","address":"上海浦东新区航头镇"},{"poiid":"B2094655D36DA1F4449A","title":"下沙","lon":"121.58926","lat":"31.05154","category":"38","category_name":"公交车站","address":"上海浦东新区航头镇下沙(近下沙新街)"},{"poiid":"B2094757D664A3FA429E","title":"下沙德持烧卖店","lon":"121.58947","lat":"31.05064","category":"68","category_name":"快餐厅","address":"浦东新区下沙镇沪南公路5263号(沪南公路下沙新街)"},{"poiid":"B2094757D66AA5FD4992","title":"韶梦酒店 航头店","lon":"121.5972982","lat":"31.0340388","category":"76","category_name":"上海菜","address":"浦东新区沪南公路5455号汇力商务广场"},{"poiid":"B2094654DB6FA0FD489C","title":"国航大酒店","lon":"121.59471","lat":"31.04033","category":"76","category_name":"上海菜","address":"浦东新区南汇沪南公路5302号(沪南公路下沙新街)"},{"poiid":"B2094654DB69A6F9469D","title":"富康别墅","lon":"121.60274779916","lat":"31.037442308081","category":"47","category_name":"住宅区","address":"南汇区沪南路5888弄富田花园内"},{"poiid":"B2094655D36CA7FA429A","title":"航头农工商大卖场","lon":"121.59629","lat":"31.03662","category":"38","category_name":"公交车站","address":""},{"poiid":"B2094750D56AA2FB499A","title":"海洲桃花园","lon":"121.60027","lat":"31.035143","category":"47","category_name":"住宅区","address":"浦东沪南公路5469弄208号"},{"poiid":"B2094655D26EA6FC449B","title":"爱法奥朗新庄园","lon":"121.59198844874","lat":"31.038737699221","category":"47","category_name":"住宅区","address":"航头沪南路5588号"},{"poiid":"B2094757D56CA1F54093","title":"古鹤生态农庄","lon":"121.591777054","lat":"31.038607793","category":"76","category_name":"上海菜","address":"浦东新区航头镇航头路长达村666号(近沪南路)"},{"poiid":"B2094655D36CA7FA4299","title":"航头","lon":"121.59776","lat":"31.02757","category":"38","category_name":"公交车站","address":"上海航梅路"},{"poiid":"B2094757D568A0F5469C","title":"枫林雅苑","lon":"121.599908","lat":"31.036825","category":"47","category_name":"住宅区","address":"枫林雅苑位于浦东沪南公路5890号"},{"poiid":"B2094757D06BA3F44992","title":"东方夏威夷","lon":"121.59244537","lat":"31.027959823","category":"500","category_name":"未知分类","address":"上海沪南公路5388弄"},{"poiid":"B2094655D265A5FC4199","title":"锦江之星旅馆航头店","lon":"121.59139","lat":"31.04567","category":"216","category_name":"经济型连锁酒店","address":"浦东新区沪南公路5278号"},{"poiid":"B2094655D36CA6F5479E","title":"大中窑","lon":"121.59504","lat":"31.04019","category":"38","category_name":"公交车站","address":""},{"poiid":"B2094654DB69A6FE4399","title":"生茂养园","lon":"121.59311","lat":"31.04303","category":"47","category_name":"住宅区","address":"浦东新区沪南公路5288弄"},{"poiid":"B2094655D26BA1FE409E","title":"农工商大卖场(招呼站)","lon":"121.59602","lat":"31.03765","category":"38","category_name":"公交车站","address":""},{"poiid":"B2094757D064A7FB439D","title":"农工商(航头店)","lon":"121.59689008","lat":"31.031914012","category":"118","category_name":"超级市场","address":"浦东新区南汇航头沪南路5588号(沪南公路下沙新街)"},{"poiid":"B2094654DB64AAF9469E","title":"富田花苑","lon":"121.603","lat":"31.035","category":"47","category_name":"住宅区","address":"沪南路5889弄"},{"poiid":"B2094654DB6FA0F8499F","title":"航头镇社区卫生服务中心门诊部","lon":"121.59333","lat":"31.04479","category":"162","category_name":"医院","address":"南汇区沪南公路5395号"},{"poiid":"B2094757D168A2F84493","title":"沪南线大中窑站","lon":"121.595476","lat":"31.038932","category":"500","category_name":"未知分类","address":"上海大中窑"},{"poiid":"B2094654DB65A4F44798","title":"苏航家具大卖场","lon":"121.59651","lat":"31.03532","category":"123","category_name":"家具建材市场","address":""},{"poiid":"B2094757D568A7F4429B","title":"咸塘商业步行街","lon":"121.592583","lat":"31.033106","category":"47","category_name":"住宅区","address":"浦东新区沪南公路5469弄"},{"poiid":"B2094655D265A7FC459C","title":"金色航城商铺","lon":"121.59349","lat":"31.03274","category":"47","category_name":"住宅区","address":"航头镇航头路1137弄等"},{"poiid":"B2094654DB6FA0F9489C","title":"百联公寓","lon":"121.59671","lat":"31.033066","category":"47","category_name":"住宅区","address":"富航路105弄1-4幢"},{"poiid":"B2094655D36CA7FA419D","title":"航头卫生中心","lon":"121.59275","lat":"31.04495","category":"38","category_name":"公交车站","address":""},{"poiid":"B2094757D169A5F9439E","title":"沪南线航头卫生中心站","lon":"121.592896","lat":"31.044952","category":"500","category_name":"未知分类","address":"上海浦东新区航头镇沪南公路(近航三路)"},{"poiid":"B2094757D568A0F4469A","title":"南汇航头基地","lon":"121.591021","lat":"31.035921","category":"47","category_name":"住宅区","address":"上海市南汇区航头镇"},{"poiid":"B2094757D66CAAFA459F","title":"沪南线施能站","lon":"121.602724","lat":"31.033323","category":"500","category_name":"未知分类","address":"上海施能"},{"poiid":"B2094654DB6FA0FD449D","title":"苏航家具大卖场(航头路)","lon":"121.59645","lat":"31.03396","category":"123","category_name":"家具建材市场","address":"浦东新区沪南公路5588号(航头路沪南公路)"},{"poiid":"B2094655D26DA6FB4492","title":"聚鑫苑","lon":"121.59576","lat":"31.03286","category":"47","category_name":"住宅区","address":"航头路1027弄"},{"poiid":"B2094654DB6FA0FD459A","title":"池鑫苑","lon":"121.59336","lat":"31.03231","category":"47","category_name":"住宅区","address":"航头路1137弄"},{"poiid":"B2094757D568A7F5409A","title":"鹤鸣村社区文化活动服务中心","lon":"121.594037","lat":"31.04369873","category":"248","category_name":"生活娱乐","address":"中国上海市浦东新区沪南公路"},{"poiid":"B2094654DB69A4F8489E","title":"永乐电器(航头店)","lon":"121.59909","lat":"31.03091","category":"138","category_name":"家电电子卖场","address":"南汇区航头镇富航路17-19号"},{"poiid":"B2094757D16DABFF4793","title":"东升家园","lon":"121.605836682","lat":"31.0219210694","category":"500","category_name":"未知分类","address":"环镇东路185弄1-43号"},{"poiid":"B2094654DB6FA0F9429E","title":"航头镇下沙农副产品交易市场","lon":"121.5997","lat":"31.05023","category":"117","category_name":"便民商店/便利店","address":""},{"poiid":"B2094757D169A1F54499","title":"苏杭家具城","lon":"121.59582188","lat":"31.032505677","category":"249","category_name":"购物服务","address":"浦东新区航头沪南路5588号(农工商对面)"},{"poiid":"B2094655D36CA1FD4099","title":"施能","lon":"121.59799","lat":"31.03019","category":"38","category_name":"公交车站","address":""},{"poiid":"B2094654DB64A0F8469F","title":"航头镇综合服务中心","lon":"121.59573","lat":"31.03379","category":"248","category_name":"生活娱乐","address":""},{"poiid":"B2094757D568A4FA439C","title":"金海马家居","lon":"121.59210449","lat":"31.04618435","category":"123","category_name":"家具建材市场","address":"中国上海市浦东新区沪南公路"},{"poiid":"B2094654DB6FA0F9489D","title":"航头镇文化中心","lon":"121.58718","lat":"31.0301","category":"188","category_name":"文化宫","address":"航头镇"},{"poiid":"B2094655D26EAAFC449F","title":"上海农村商业银行航头支行","lon":"121.59484","lat":"31.03308","category":"150","category_name":"银行","address":""},{"poiid":"B2094655D36CA7FE479D","title":"沪南公路下沙","lon":"121.59022","lat":"31.04808","category":"38","category_name":"公交车站","address":""},{"poiid":"B2094654DB6FA0FD489E","title":"下沙学校","lon":"121.58946","lat":"31.04895","category":"55","category_name":"中学","address":"浦东新区南汇沪南公路5248号(下沙西街下沙新街)"},{"poiid":"B2094654DB6FA0FF4193","title":"中国电信(下沙新街)","lon":"121.59298","lat":"31.05036","category":"151","category_name":"电讯营业厅","address":"下沙新街94号"},{"poiid":"B2094654DB6FA0FD4892","title":"永乐生活电器(兴成路)","lon":"121.59773","lat":"31.029","category":"138","category_name":"家电电子卖场","address":""},{"poiid":"B2094654DB6FA0FD499A","title":"沪航公寓","lon":"121.59555","lat":"31.028458","category":"47","category_name":"住宅区","address":"浦东新区航头镇商城路48弄"},{"poiid":"B2094757D16AA6FF459D","title":"航轩大酒店","lon":"121.58748","lat":"31.03273","category":"76","category_name":"上海菜","address":"浦东新区南汇航头镇(近文化中心)"},{"poiid":"B2094654DB65A3FE499A","title":"鹤鸣新苑","lon":"121.58565","lat":"31.047745","category":"47","category_name":"住宅区","address":"航鹤路1700弄75支弄1-45号"},{"poiid":"B2094757D16FA4FA439B","title":"两河流域健身俱乐部","lon":"121.58266088","lat":"31.04165295","category":"500","category_name":"未知分类","address":"上海市浦东新区下沙西街"},{"poiid":"B2094757D069A1FB439D","title":"航头镇","lon":"121.597077077","lat":"31.025183209","category":"500","category_name":"未知分类","address":"上海浦东新区航头镇"},{"poiid":"B2094655D36DA1F4449A","title":"下沙","lon":"121.58926","lat":"31.05154","category":"38","category_name":"公交车站","address":"上海浦东新区航头镇下沙(近下沙新街)"},{"poiid":"B2094757D664A3FA429E","title":"下沙德持烧卖店","lon":"121.58947","lat":"31.05064","category":"68","category_name":"快餐厅","address":"浦东新区下沙镇沪南公路5263号(沪南公路下沙新街)"},{"poiid":"B2094757D66AA5FD4992","title":"韶梦酒店 航头店","lon":"121.5972982","lat":"31.0340388","category":"76","category_name":"上海菜","address":"浦东新区沪南公路5455号汇力商务广场"},{"poiid":"B2094654DB6FA0FD489C","title":"国航大酒店","lon":"121.59471","lat":"31.04033","category":"76","category_name":"上海菜","address":"浦东新区南汇沪南公路5302号(沪南公路下沙新街)"},{"poiid":"B2094654DB69A6F9469D","title":"富康别墅","lon":"121.60274779916","lat":"31.037442308081","category":"47","category_name":"住宅区","address":"南汇区沪南路5888弄富田花园内"},{"poiid":"B2094655D36CA7FA429A","title":"航头农工商大卖场","lon":"121.59629","lat":"31.03662","category":"38","category_name":"公交车站","address":""},{"poiid":"B2094750D56AA2FB499A","title":"海洲桃花园","lon":"121.60027","lat":"31.035143","category":"47","category_name":"住宅区","address":"浦东沪南公路5469弄208号"},{"poiid":"B2094655D26EA6FC449B","title":"爱法奥朗新庄园","lon":"121.59198844874","lat":"31.038737699221","category":"47","category_name":"住宅区","address":"航头沪南路5588号"},{"poiid":"B2094757D56CA1F54093","title":"古鹤生态农庄","lon":"121.591777054","lat":"31.038607793","category":"76","category_name":"上海菜","address":"浦东新区航头镇航头路长达村666号(近沪南路)"},{"poiid":"B2094655D36CA7FA4299","title":"航头","lon":"121.59776","lat":"31.02757","category":"38","category_name":"公交车站","address":"上海航梅路"},{"poiid":"B2094757D568A0F5469C","title":"枫林雅苑","lon":"121.599908","lat":"31.036825","category":"47","category_name":"住宅区","address":"枫林雅苑位于浦东沪南公路5890号"},{"poiid":"B2094757D06BA3F44992","title":"东方夏威夷","lon":"121.59244537","lat":"31.027959823","category":"500","category_name":"未知分类","address":"上海沪南公路5388弄"},{"poiid":"B2094655D265A5FC4199","title":"锦江之星旅馆航头店","lon":"121.59139","lat":"31.04567","category":"216","category_name":"经济型连锁酒店","address":"浦东新区沪南公路5278号"},{"poiid":"B2094655D36CA6F5479E","title":"大中窑","lon":"121.59504","lat":"31.04019","category":"38","category_name":"公交车站","address":""},{"poiid":"B2094654DB69A6FE4399","title":"生茂养园","lon":"121.59311","lat":"31.04303","category":"47","category_name":"住宅区","address":"浦东新区沪南公路5288弄"},{"poiid":"B2094655D26BA1FE409E","title":"农工商大卖场(招呼站)","lon":"121.59602","lat":"31.03765","category":"38","category_name":"公交车站","address":""},{"poiid":"B2094757D064A7FB439D","title":"农工商(航头店)","lon":"121.59689008","lat":"31.031914012","category":"118","category_name":"超级市场","address":"浦东新区南汇航头沪南路5588号(沪南公路下沙新街)"},{"poiid":"B2094654DB64AAF9469E","title":"富田花苑","lon":"121.603","lat":"31.035","category":"47","category_name":"住宅区","address":"沪南路5889弄"},{"poiid":"B2094654DB6FA0F8499F","title":"航头镇社区卫生服务中心门诊部","lon":"121.59333","lat":"31.04479","category":"162","category_name":"医院","address":"南汇区沪南公路5395号"},{"poiid":"B2094757D168A2F84493","title":"沪南线大中窑站","lon":"121.595476","lat":"31.038932","category":"500","category_name":"未知分类","address":"上海大中窑"},{"poiid":"B2094654DB65A4F44798","title":"苏航家具大卖场","lon":"121.59651","lat":"31.03532","category":"123","category_name":"家具建材市场","address":""},{"poiid":"B2094757D568A7F4429B","title":"咸塘商业步行街","lon":"121.592583","lat":"31.033106","category":"47","category_name":"住宅区","address":"浦东新区沪南公路5469弄"},{"poiid":"B2094655D265A7FC459C","title":"金色航城商铺","lon":"121.59349","lat":"31.03274","category":"47","category_name":"住宅区","address":"航头镇航头路1137弄等"},{"poiid":"B2094654DB6FA0F9489C","title":"百联公寓","lon":"121.59671","lat":"31.033066","category":"47","category_name":"住宅区","address":"富航路105弄1-4幢"},{"poiid":"B2094655D36CA7FA419D","title":"航头卫生中心","lon":"121.59275","lat":"31.04495","category":"38","category_name":"公交车站","address":""},{"poiid":"B2094757D169A5F9439E","title":"沪南线航头卫生中心站","lon":"121.592896","lat":"31.044952","category":"500","category_name":"未知分类","address":"上海浦东新区航头镇沪南公路(近航三路)"},{"poiid":"B2094757D568A0F4469A","title":"南汇航头基地","lon":"121.591021","lat":"31.035921","category":"47","category_name":"住宅区","address":"上海市南汇区航头镇"},{"poiid":"B2094757D66CAAFA459F","title":"沪南线施能站","lon":"121.602724","lat":"31.033323","category":"500","category_name":"未知分类","address":"上海施能"},{"poiid":"B2094654DB6FA0FD449D","title":"苏航家具大卖场(航头路)","lon":"121.59645","lat":"31.03396","category":"123","category_name":"家具建材市场","address":"浦东新区沪南公路5588号(航头路沪南公路)"},{"poiid":"B2094655D26DA6FB4492","title":"聚鑫苑","lon":"121.59576","lat":"31.03286","category":"47","category_name":"住宅区","address":"航头路1027弄"},{"poiid":"B2094654DB6FA0FD459A","title":"池鑫苑","lon":"121.59336","lat":"31.03231","category":"47","category_name":"住宅区","address":"航头路1137弄"},{"poiid":"B2094757D568A7F5409A","title":"鹤鸣村社区文化活动服务中心","lon":"121.594037","lat":"31.04369873","category":"248","category_name":"生活娱乐","address":"中国上海市浦东新区沪南公路"},{"poiid":"B2094654DB69A4F8489E","title":"永乐电器(航头店)","lon":"121.59909","lat":"31.03091","category":"138","category_name":"家电电子卖场","address":"南汇区航头镇富航路17-19号"},{"poiid":"B2094757D16DABFF4793","title":"东升家园","lon":"121.605836682","lat":"31.0219210694","category":"500","category_name":"未知分类","address":"环镇东路185弄1-43号"},{"poiid":"B2094654DB6FA0F9429E","title":"航头镇下沙农副产品交易市场","lon":"121.5997","lat":"31.05023","category":"117","category_name":"便民商店/便利店","address":""},{"poiid":"B2094757D169A1F54499","title":"苏杭家具城","lon":"121.59582188","lat":"31.032505677","category":"249","category_name":"购物服务","address":"浦东新区航头沪南路5588号(农工商对面)"},{"poiid":"B2094655D36CA1FD4099","title":"施能","lon":"121.59799","lat":"31.03019","category":"38","category_name":"公交车站","address":""},{"poiid":"B2094654DB64A0F8469F","title":"航头镇综合服务中心","lon":"121.59573","lat":"31.03379","category":"248","category_name":"生活娱乐","address":""},{"poiid":"B2094757D568A4FA439C","title":"金海马家居","lon":"121.59210449","lat":"31.04618435","category":"123","category_name":"家具建材市场","address":"中国上海市浦东新区沪南公路"},{"poiid":"B2094654DB6FA0F9489D","title":"航头镇文化中心","lon":"121.58718","lat":"31.0301","category":"188","category_name":"文化宫","address":"航头镇"},{"poiid":"B2094655D26EAAFC449F","title":"上海农村商业银行航头支行","lon":"121.59484","lat":"31.03308","category":"150","category_name":"银行","address":""},{"poiid":"B2094655D36CA7FE479D","title":"沪南公路下沙","lon":"121.59022","lat":"31.04808","category":"38","category_name":"公交车站","address":""},{"poiid":"B2094654DB6FA0FD489E","title":"下沙学校","lon":"121.58946","lat":"31.04895","category":"55","category_name":"中学","address":"浦东新区南汇沪南公路5248号(下沙西街下沙新街)"},{"poiid":"B2094654DB6FA0FF4193","title":"中国电信(下沙新街)","lon":"121.59298","lat":"31.05036","category":"151","category_name":"电讯营业厅","address":"下沙新街94号"},{"poiid":"B2094654DB6FA0FD4892","title":"永乐生活电器(兴成路)","lon":"121.59773","lat":"31.029","category":"138","category_name":"家电电子卖场","address":""},{"poiid":"B2094654DB6FA0FD499A","title":"沪航公寓","lon":"121.59555","lat":"31.028458","category":"47","category_name":"住宅区","address":"浦东新区航头镇商城路48弄"},{"poiid":"B2094757D16AA6FF459D","title":"航轩大酒店","lon":"121.58748","lat":"31.03273","category":"76","category_name":"上海菜","address":"浦东新区南汇航头镇(近文化中心)"},{"poiid":"B2094654DB65A3FE499A","title":"鹤鸣新苑","lon":"121.58565","lat":"31.047745","category":"47","category_name":"住宅区","address":"航鹤路1700弄75支弄1-45号"},{"poiid":"B2094757D16FA4FA439B","title":"两河流域健身俱乐部","lon":"121.58266088","lat":"31.04165295","category":"500","category_name":"未知分类","address":"上海市浦东新区下沙西街"},{"poiid":"B2094757D069A1FB439D","title":"航头镇","lon":"121.597077077","lat":"31.025183209","category":"500","category_name":"未知分类","address":"上海浦东新区航头镇"},{"poiid":"B2094655D36DA1F4449A","title":"下沙","lon":"121.58926","lat":"31.05154","category":"38","category_name":"公交车站","address":"上海浦东新区航头镇下沙(近下沙新街)"},{"poiid":"B2094757D664A3FA429E","title":"下沙德持烧卖店","lon":"121.58947","lat":"31.05064","category":"68","category_name":"快餐厅","address":"浦东新区下沙镇沪南公路5263号(沪南公路下沙新街)"},{"poiid":"B2094757D66AA5FD4992","title":"韶梦酒店 航头店","lon":"121.5972982","lat":"31.0340388","category":"76","category_name":"上海菜","address":"浦东新区沪南公路5455号汇力商务广场"},{"poiid":"B2094654DB6FA0FD489C","title":"国航大酒店","lon":"121.59471","lat":"31.04033","category":"76","category_name":"上海菜","address":"浦东新区南汇沪南公路5302号(沪南公路下沙新街)"},{"poiid":"B2094654DB69A6F9469D","title":"富康别墅","lon":"121.60274779916","lat":"31.037442308081","category":"47","category_name":"住宅区","address":"南汇区沪南路5888弄富田花园内"},{"poiid":"B2094655D36CA7FA429A","title":"航头农工商大卖场","lon":"121.59629","lat":"31.03662","category":"38","category_name":"公交车站","address":""},{"poiid":"B2094750D56AA2FB499A","title":"海洲桃花园","lon":"121.60027","lat":"31.035143","category":"47","category_name":"住宅区","address":"浦东沪南公路5469弄208号"},{"poiid":"B2094655D26EA6FC449B","title":"爱法奥朗新庄园","lon":"121.59198844874","lat":"31.038737699221","category":"47","category_name":"住宅区","address":"航头沪南路5588号"},{"poiid":"B2094757D56CA1F54093","title":"古鹤生态农庄","lon":"121.591777054","lat":"31.038607793","category":"76","category_name":"上海菜","address":"浦东新区航头镇航头路长达村666号(近沪南路)"},{"poiid":"B2094655D36CA7FA4299","title":"航头","lon":"121.59776","lat":"31.02757","category":"38","category_name":"公交车站","address":"上海航梅路"},{"poiid":"B2094757D568A0F5469C","title":"枫林雅苑","lon":"121.599908","lat":"31.036825","category":"47","category_name":"住宅区","address":"枫林雅苑位于浦东沪南公路5890号"},{"poiid":"B2094757D06BA3F44992","title":"东方夏威夷","lon":"121.59244537","lat":"31.027959823","category":"500","category_name":"未知分类","address":"上海沪南公路5388弄"},{"poiid":"B2094655D265A5FC4199","title":"锦江之星旅馆航头店","lon":"121.59139","lat":"31.04567","category":"216","category_name":"经济型连锁酒店","address":"浦东新区沪南公路5278号"},{"poiid":"B2094655D36CA6F5479E","title":"大中窑","lon":"121.59504","lat":"31.04019","category":"38","category_name":"公交车站","address":""},{"poiid":"B2094654DB69A6FE4399","title":"生茂养园","lon":"121.59311","lat":"31.04303","category":"47","category_name":"住宅区","address":"浦东新区沪南公路5288弄"},{"poiid":"B2094655D26BA1FE409E","title":"农工商大卖场(招呼站)","lon":"121.59602","lat":"31.03765","category":"38","category_name":"公交车站","address":""},{"poiid":"B2094757D064A7FB439D","title":"农工商(航头店)","lon":"121.59689008","lat":"31.031914012","category":"118","category_name":"超级市场","address":"浦东新区南汇航头沪南路5588号(沪南公路下沙新街)"},{"poiid":"B2094654DB64AAF9469E","title":"富田花苑","lon":"121.603","lat":"31.035","category":"47","category_name":"住宅区","address":"沪南路5889弄"},{"poiid":"B2094654DB6FA0F8499F","title":"航头镇社区卫生服务中心门诊部","lon":"121.59333","lat":"31.04479","category":"162","category_name":"医院","address":"南汇区沪南公路5395号"},{"poiid":"B2094757D168A2F84493","title":"沪南线大中窑站","lon":"121.595476","lat":"31.038932","category":"500","category_name":"未知分类","address":"上海大中窑"},{"poiid":"B2094654DB65A4F44798","title":"苏航家具大卖场","lon":"121.59651","lat":"31.03532","category":"123","category_name":"家具建材市场","address":""},{"poiid":"B2094757D568A7F4429B","title":"咸塘商业步行街","lon":"121.592583","lat":"31.033106","category":"47","category_name":"住宅区","address":"浦东新区沪南公路5469弄"},{"poiid":"B2094655D265A7FC459C","title":"金色航城商铺","lon":"121.59349","lat":"31.03274","category":"47","category_name":"住宅区","address":"航头镇航头路1137弄等"},{"poiid":"B2094654DB6FA0F9489C","title":"百联公寓","lon":"121.59671","lat":"31.033066","category":"47","category_name":"住宅区","address":"富航路105弄1-4幢"},{"poiid":"B2094655D36CA7FA419D","title":"航头卫生中心","lon":"121.59275","lat":"31.04495","category":"38","category_name":"公交车站","address":""},{"poiid":"B2094757D169A5F9439E","title":"沪南线航头卫生中心站","lon":"121.592896","lat":"31.044952","category":"500","category_name":"未知分类","address":"上海浦东新区航头镇沪南公路(近航三路)"},{"poiid":"B2094757D568A0F4469A","title":"南汇航头基地","lon":"121.591021","lat":"31.035921","category":"47","category_name":"住宅区","address":"上海市南汇区航头镇"},{"poiid":"B2094757D66CAAFA459F","title":"沪南线施能站","lon":"121.602724","lat":"31.033323","category":"500","category_name":"未知分类","address":"上海施能"},{"poiid":"B2094654DB6FA0FD449D","title":"苏航家具大卖场(航头路)","lon":"121.59645","lat":"31.03396","category":"123","category_name":"家具建材市场","address":"浦东新区沪南公路5588号(航头路沪南公路)"},{"poiid":"B2094655D26DA6FB4492","title":"聚鑫苑","lon":"121.59576","lat":"31.03286","category":"47","category_name":"住宅区","address":"航头路1027弄"},{"poiid":"B2094654DB6FA0FD459A","title":"池鑫苑","lon":"121.59336","lat":"31.03231","category":"47","category_name":"住宅区","address":"航头路1137弄"},{"poiid":"B2094757D568A7F5409A","title":"鹤鸣村社区文化活动服务中心","lon":"121.594037","lat":"31.04369873","category":"248","category_name":"生活娱乐","address":"中国上海市浦东新区沪南公路"},{"poiid":"B2094654DB69A4F8489E","title":"永乐电器(航头店)","lon":"121.59909","lat":"31.03091","category":"138","category_name":"家电电子卖场","address":"南汇区航头镇富航路17-19号"},{"poiid":"B2094757D16DABFF4793","title":"东升家园","lon":"121.605836682","lat":"31.0219210694","category":"500","category_name":"未知分类","address":"环镇东路185弄1-43号"},{"poiid":"B2094654DB6FA0F9429E","title":"航头镇下沙农副产品交易市场","lon":"121.5997","lat":"31.05023","category":"117","category_name":"便民商店/便利店","address":""},{"poiid":"B2094757D169A1F54499","title":"苏杭家具城","lon":"121.59582188","lat":"31.032505677","category":"249","category_name":"购物服务","address":"浦东新区航头沪南路5588号(农工商对面)"},{"poiid":"B2094655D36CA1FD4099","title":"施能","lon":"121.59799","lat":"31.03019","category":"38","category_name":"公交车站","address":""},{"poiid":"B2094654DB64A0F8469F","title":"航头镇综合服务中心","lon":"121.59573","lat":"31.03379","category":"248","category_name":"生活娱乐","address":""},{"poiid":"B2094757D568A4FA439C","title":"金海马家居","lon":"121.59210449","lat":"31.04618435","category":"123","category_name":"家具建材市场","address":"中国上海市浦东新区沪南公路"},{"poiid":"B2094654DB6FA0F9489D","title":"航头镇文化中心","lon":"121.58718","lat":"31.0301","category":"188","category_name":"文化宫","address":"航头镇"},{"poiid":"B2094655D26EAAFC449F","title":"上海农村商业银行航头支行","lon":"121.59484","lat":"31.03308","category":"150","category_name":"银行","address":""},{"poiid":"B2094655D36CA7FE479D","title":"沪南公路下沙","lon":"121.59022","lat":"31.04808","category":"38","category_name":"公交车站","address":""},{"poiid":"B2094654DB6FA0FD489E","title":"下沙学校","lon":"121.58946","lat":"31.04895","category":"55","category_name":"中学","address":"浦东新区南汇沪南公路5248号(下沙西街下沙新街)"},{"poiid":"B2094654DB6FA0FF4193","title":"中国电信(下沙新街)","lon":"121.59298","lat":"31.05036","category":"151","category_name":"电讯营业厅","address":"下沙新街94号"},{"poiid":"B2094654DB6FA0FD4892","title":"永乐生活电器(兴成路)","lon":"121.59773","lat":"31.029","category":"138","category_name":"家电电子卖场","address":""},{"poiid":"B2094654DB6FA0FD499A","title":"沪航公寓","lon":"121.59555","lat":"31.028458","category":"47","category_name":"住宅区","address":"浦东新区航头镇商城路48弄"},{"poiid":"B2094757D16AA6FF459D","title":"航轩大酒店","lon":"121.58748","lat":"31.03273","category":"76","category_name":"上海菜","address":"浦东新区南汇航头镇(近文化中心)"},{"poiid":"B2094654DB65A3FE499A","title":"鹤鸣新苑","lon":"121.58565","lat":"31.047745","category":"47","category_name":"住宅区","address":"航鹤路1700弄75支弄1-45号"},{"poiid":"B2094757D16FA4FA439B","title":"两河流域健身俱乐部","lon":"121.58266088","lat":"31.04165295","category":"500","category_name":"未知分类","address":"上海市浦东新区下沙西街"}]