[{"poiid":"B2094757DB6FA6F54198","title":"浦东国际机场T2航站楼","lon":"121.6343438046359","lat":"31.1825049223668","category":"500","category_name":"未知分类","address":"浦东国际机场T2航站楼"},{"poiid":"B2094757D169A3F5489D","title":"浦东国际机场T1航站楼","lon":"121.637789975","lat":"31.1776968325","category":"21","category_name":"飞机场","address":"上海市浦东新区"},{"poiid":"B2094655D36DA7FD4493","title":"张江路华夏中路","lon":"121.62987","lat":"31.18766","category":"38","category_name":"公交车站","address":""},{"poiid":"B2094654DA6AA4FE4793","title":"玉兰香苑","lon":"121.63323","lat":"31.200127","category":"47","category_name":"住宅区","address":"上海市浦东新区益江路126弄、益江路286弄"},{"poiid":"B2094757D069A2FC469B","title":"川杨新苑三期","lon":"121.636383","lat":"31.188532","category":"47","category_name":"住宅区","address":"上海中科路2500弄"},{"poiid":"B2094750D26FA7FB4593","title":"浦东机场T2航站楼","lon":"121.637809","lat":"31.177707","category":"500","category_name":"未知分类","address":null},{"poiid":"B2094654DB69A6F94799","title":"长城中环别墅","lon":"121.63105","lat":"31.18334","category":"47","category_name":"住宅区","address":"浦东新区高木桥路219弄"},{"poiid":"B2094757D068A6FD419E","title":"孙桥现代农业开发区","lon":"121.63107","lat":"31.17052","category":"260","category_name":"其他","address":"上海浦东新区孙桥沔北路185号  "},{"poiid":"B2094655D26BA2FA4892","title":"孙桥镇","lon":"121.63003","lat":"31.17707","category":"38","category_name":"公交车站","address":"上海孙环路长美路"},{"poiid":"B2094757D16BABF8499A","title":"张衡公园","lon":"121.63056797","lat":"31.195238242","category":"196","category_name":"公园","address":"浦东新区张衡路2380号(近益江路)"},{"poiid":"B2094757D46BA5FE4492","title":"妈妈糖休闲咖啡馆 张东路店","lon":"121.6361072","lat":"31.2006146","category":"65","category_name":"咖啡厅","address":"浦东新区张东路1387号集电子社区中心2楼"},{"poiid":"B2094757D069A5F9449B","title":"孙桥花鸟市场","lon":"121.63124","lat":"31.17471","category":"249","category_name":"购物服务","address":"上海浦东新区孙桥路600号  "},{"poiid":"B2094750D76DAAFC469F","title":"蜀膳传火锅传奇(孙桥路店)","lon":"121.631","lat":"31.1849","category":"86","category_name":"火锅店","address":"浦东新区孙桥路100号"},{"poiid":"B2094757D16CA3F8409C","title":"川杨二期","lon":"121.625099975","lat":"31.1855870168","category":"500","category_name":"未知分类","address":"上海顺和路126号"},{"poiid":"B2094757D069A4FB439F","title":"紫晶苑","lon":"121.62564","lat":"31.176443","category":"252","category_name":"楼宇机构","address":"上海市浦东新区孙农路398弄"},{"poiid":"B2094757D66AABFF439F","title":"大家品鱼酒楼","lon":"121.63061","lat":"31.1844","category":"71","category_name":"四川菜","address":"浦东新区孙桥路128号(近华夏西路)"},{"poiid":"B2094757D16DA6FC459E","title":"S1高速公路","lon":"121.646461375","lat":"31.1899818195","category":"500","category_name":"未知分类","address":"上海S1高速公路"},{"poiid":"B2094655D36DA0F54292","title":"玉兰香苑二期A块","lon":"121.63422596141","lat":"31.202460117491","category":"38","category_name":"公交车站","address":"益江路511弄"},{"poiid":"B2094654DA6AA6FF4293","title":"玫瑰湾","lon":"121.62824","lat":"31.181089","category":"47","category_name":"住宅区","address":"上海市浦东新区孙桥路202号"},{"poiid":"B2094655D36DA7F8409B","title":"中科路孙环路","lon":"121.636","lat":"31.18978","category":"38","category_name":"公交车站","address":""},{"poiid":"B2094757D169A4F8489E","title":"上岛咖啡 孙桥店 UBC Coffee","lon":"121.630768","lat":"31.182903","category":"260","category_name":"其他","address":"浦东新区孙桥路38号(近高木桥路)"},{"poiid":"B2094655D26BA2FB4099","title":"孙环路华夏中路","lon":"121.63666","lat":"31.18693","category":"38","category_name":"公交车站","address":""},{"poiid":"B2094655D36CA0F4439A","title":"黄浦花园","lon":"121.63068","lat":"31.18337","category":"47","category_name":"住宅区","address":""},{"poiid":"B2094750D16BA4FD479E","title":"川杨新苑一期","lon":"121.628181","lat":"31.188941","category":"47","category_name":"住宅区","address":"张江路中科路2166弄"},{"poiid":"B2094757D06FAAFB449D","title":"玉兰香苑一期","lon":"121.633535","lat":"31.200113","category":"47","category_name":"住宅区","address":"上海浦东新区益江路126弄"},{"poiid":"B2094757D064A5FE489F","title":"浦东新区看守所","lon":"121.639726975","lat":"31.1923481748","category":"500","category_name":"未知分类","address":"上海华益路351号"},{"poiid":"B2094757D664AAF8489D","title":"茗缘酒楼","lon":"121.63077","lat":"31.18123","category":"76","category_name":"上海菜","address":"浦东新区孙桥路268号(近孙建路)"},{"poiid":"B2094654DA6AA4FC479C","title":"孙桥文化公园","lon":"121.63129","lat":"31.18348","category":"196","category_name":"公园","address":"横河港路"},{"poiid":"B2094654DA6AA4FE409B","title":"孙桥花苑","lon":"121.637","lat":"31.1858","category":"47","category_name":"住宅区","address":"上海孙桥路306弄"},{"poiid":"B2094654DA6BA2F94992","title":"马贵野味火锅","lon":"121.63083","lat":"31.18495","category":"86","category_name":"火锅店","address":""},{"poiid":"B2094655D26BA2FA499E","title":"孙桥","lon":"121.63094","lat":"31.17845","category":"38","category_name":"公交车站","address":"上海新多路"},{"poiid":"B2094654DA6AA4FD419F","title":"农工商超市NO.155","lon":"121.63092","lat":"31.18256","category":"118","category_name":"超级市场","address":"孙桥镇"},{"poiid":"B2094654DA6BA2F8449D","title":"永乐手机专卖孙桥店","lon":"121.63048","lat":"31.1829","category":"138","category_name":"家电电子卖场","address":""},{"poiid":"B2094757D16DA4F44393","title":"中环线  杨高南路","lon":"121.62673977","lat":"31.184518191","category":"500","category_name":"未知分类","address":"上海杨高南路下匝道"},{"poiid":"B2094757D66FA6FF479C","title":"虾蟹鱼府","lon":"121.62715097","lat":"31.185098005","category":"247","category_name":"餐饮美食","address":"上海市浦东新区华夏高架路出口"},{"poiid":"B2094757DB6CA5FC499F","title":"宜家北蔡店","lon":"121.631133","lat":"31.184012","category":"249","category_name":"购物服务","address":"沪南路华夏西路"},{"poiid":"B2094655D265A4FA409E","title":"东郊紫园","lon":"121.62326","lat":"31.179136","category":"47","category_name":"住宅区","address":"浦东新区孙农路200弄"},{"poiid":"B2094654DA6AA4FE459F","title":"孙桥公寓","lon":"121.63143","lat":"31.18117","category":"47","category_name":"住宅区","address":"高木桥路北门235弄"},{"poiid":"B2094757D66BA3F5499C","title":"本帮汇","lon":"121.6272509","lat":"31.1887567","category":"76","category_name":"上海菜","address":"浦东新区中科路2229号2楼"},{"poiid":"B2094757D168A7F5439F","title":"上海农商银行孙桥支行","lon":"121.630832","lat":"31.185617","category":"150","category_name":"银行","address":"上海孙桥路35号"},{"poiid":"B2094654DA6AA4FC499E","title":"中国农业银行孙桥现代农业开发区支行","lon":"121.63078","lat":"31.18588","category":"150","category_name":"银行","address":"孙桥路11"},{"poiid":"B2094757D16DA0F4419E","title":"陆家大桥","lon":"121.63405609","lat":"31.186544418","category":"500","category_name":"未知分类","address":"上海张江路(华益路)"},{"poiid":"B2094655D36CA1FD429B","title":"十村","lon":"121.63719","lat":"31.18762","category":"38","category_name":"公交车站","address":"上海,上海市,中科路2500弄71号"},{"poiid":"B2094757D064A5F8489C","title":"阿玛达量贩式歌城","lon":"121.63179397","lat":"31.199798349","category":"170","category_name":"KTV","address":"浦东新区盛夏路1053号(近休闲广场)"},{"poiid":"B2094654DA6BA2F4409F","title":"孙桥工业气体供应站","lon":"121.62982","lat":"31.1881","category":"45","category_name":"产业园区","address":""},{"poiid":"B2094654DB64A3F44398","title":"孙桥派出所(横沔江路)","lon":"121.63274","lat":"31.18282","category":"248","category_name":"生活娱乐","address":"孙桥镇横沔江路52号"},{"poiid":"B2094654DA6AA4FE4492","title":"张江镇环西小区","lon":"121.64129","lat":"31.17754","category":"47","category_name":"住宅区","address":"孙环路601弄1-98号临"},{"poiid":"B2094654DA6AA4FE409A","title":"联华超市(孙桥路)","lon":"121.63101","lat":"31.18039","category":"118","category_name":"超级市场","address":""},{"poiid":"B2094757D06BA1F9419D","title":"川杨新苑","lon":"121.634","lat":"31.1944","category":"47","category_name":"住宅区","address":"上海市浦东新区中科路2195弄,2166弄,2566弄,2500弄,顺和路60弄,126弄,236弄"},{"poiid":"B2094757D069A3FC499C","title":"玉兰香苑2期","lon":"121.628673","lat":"31.199725","category":"47","category_name":"住宅区","address":"上海浦东张江益江路511弄"},{"poiid":"B2094757DB6FA6F54198","title":"浦东国际机场T2航站楼","lon":"121.6343438046359","lat":"31.1825049223668","category":"500","category_name":"未知分类","address":"浦东国际机场T2航站楼"},{"poiid":"B2094757D169A3F5489D","title":"浦东国际机场T1航站楼","lon":"121.637789975","lat":"31.1776968325","category":"21","category_name":"飞机场","address":"上海市浦东新区"},{"poiid":"B2094655D36DA7FD4493","title":"张江路华夏中路","lon":"121.62987","lat":"31.18766","category":"38","category_name":"公交车站","address":""},{"poiid":"B2094654DA6AA4FE4793","title":"玉兰香苑","lon":"121.63323","lat":"31.200127","category":"47","category_name":"住宅区","address":"上海市浦东新区益江路126弄、益江路286弄"},{"poiid":"B2094757D069A2FC469B","title":"川杨新苑三期","lon":"121.636383","lat":"31.188532","category":"47","category_name":"住宅区","address":"上海中科路2500弄"},{"poiid":"B2094750D26FA7FB4593","title":"浦东机场T2航站楼","lon":"121.637809","lat":"31.177707","category":"500","category_name":"未知分类","address":null},{"poiid":"B2094654DB69A6F94799","title":"长城中环别墅","lon":"121.63105","lat":"31.18334","category":"47","category_name":"住宅区","address":"浦东新区高木桥路219弄"},{"poiid":"B2094757D068A6FD419E","title":"孙桥现代农业开发区","lon":"121.63107","lat":"31.17052","category":"260","category_name":"其他","address":"上海浦东新区孙桥沔北路185号  "},{"poiid":"B2094655D26BA2FA4892","title":"孙桥镇","lon":"121.63003","lat":"31.17707","category":"38","category_name":"公交车站","address":"上海孙环路长美路"},{"poiid":"B2094757D16BABF8499A","title":"张衡公园","lon":"121.63056797","lat":"31.195238242","category":"196","category_name":"公园","address":"浦东新区张衡路2380号(近益江路)"},{"poiid":"B2094757D46BA5FE4492","title":"妈妈糖休闲咖啡馆 张东路店","lon":"121.6361072","lat":"31.2006146","category":"65","category_name":"咖啡厅","address":"浦东新区张东路1387号集电子社区中心2楼"},{"poiid":"B2094757D069A5F9449B","title":"孙桥花鸟市场","lon":"121.63124","lat":"31.17471","category":"249","category_name":"购物服务","address":"上海浦东新区孙桥路600号  "},{"poiid":"B2094750D76DAAFC469F","title":"蜀膳传火锅传奇(孙桥路店)","lon":"121.631","lat":"31.1849","category":"86","category_name":"火锅店","address":"浦东新区孙桥路100号"},{"poiid":"B2094757D16CA3F8409C","title":"川杨二期","lon":"121.625099975","lat":"31.1855870168","category":"500","category_name":"未知分类","address":"上海顺和路126号"},{"poiid":"B2094757D069A4FB439F","title":"紫晶苑","lon":"121.62564","lat":"31.176443","category":"252","category_name":"楼宇机构","address":"上海市浦东新区孙农路398弄"},{"poiid":"B2094757D66AABFF439F","title":"大家品鱼酒楼","lon":"121.63061","lat":"31.1844","category":"71","category_name":"四川菜","address":"浦东新区孙桥路128号(近华夏西路)"},{"poiid":"B2094757D16DA6FC459E","title":"S1高速公路","lon":"121.646461375","lat":"31.1899818195","category":"500","category_name":"未知分类","address":"上海S1高速公路"},{"poiid":"B2094655D36DA0F54292","title":"玉兰香苑二期A块","lon":"121.63422596141","lat":"31.202460117491","category":"38","category_name":"公交车站","address":"益江路511弄"},{"poiid":"B2094654DA6AA6FF4293","title":"玫瑰湾","lon":"121.62824","lat":"31.181089","category":"47","category_name":"住宅区","address":"上海市浦东新区孙桥路202号"},{"poiid":"B2094655D36DA7F8409B","title":"中科路孙环路","lon":"121.636","lat":"31.18978","category":"38","category_name":"公交车站","address":""},{"poiid":"B2094757D169A4F8489E","title":"上岛咖啡 孙桥店 UBC Coffee","lon":"121.630768","lat":"31.182903","category":"260","category_name":"其他","address":"浦东新区孙桥路38号(近高木桥路)"},{"poiid":"B2094655D26BA2FB4099","title":"孙环路华夏中路","lon":"121.63666","lat":"31.18693","category":"38","category_name":"公交车站","address":""},{"poiid":"B2094655D36CA0F4439A","title":"黄浦花园","lon":"121.63068","lat":"31.18337","category":"47","category_name":"住宅区","address":""},{"poiid":"B2094750D16BA4FD479E","title":"川杨新苑一期","lon":"121.628181","lat":"31.188941","category":"47","category_name":"住宅区","address":"张江路中科路2166弄"},{"poiid":"B2094757D06FAAFB449D","title":"玉兰香苑一期","lon":"121.633535","lat":"31.200113","category":"47","category_name":"住宅区","address":"上海浦东新区益江路126弄"},{"poiid":"B2094757D064A5FE489F","title":"浦东新区看守所","lon":"121.639726975","lat":"31.1923481748","category":"500","category_name":"未知分类","address":"上海华益路351号"},{"poiid":"B2094757D664AAF8489D","title":"茗缘酒楼","lon":"121.63077","lat":"31.18123","category":"76","category_name":"上海菜","address":"浦东新区孙桥路268号(近孙建路)"},{"poiid":"B2094654DA6AA4FC479C","title":"孙桥文化公园","lon":"121.63129","lat":"31.18348","category":"196","category_name":"公园","address":"横河港路"},{"poiid":"B2094654DA6AA4FE409B","title":"孙桥花苑","lon":"121.637","lat":"31.1858","category":"47","category_name":"住宅区","address":"上海孙桥路306弄"},{"poiid":"B2094654DA6BA2F94992","title":"马贵野味火锅","lon":"121.63083","lat":"31.18495","category":"86","category_name":"火锅店","address":""},{"poiid":"B2094655D26BA2FA499E","title":"孙桥","lon":"121.63094","lat":"31.17845","category":"38","category_name":"公交车站","address":"上海新多路"},{"poiid":"B2094654DA6AA4FD419F","title":"农工商超市NO.155","lon":"121.63092","lat":"31.18256","category":"118","category_name":"超级市场","address":"孙桥镇"},{"poiid":"B2094654DA6BA2F8449D","title":"永乐手机专卖孙桥店","lon":"121.63048","lat":"31.1829","category":"138","category_name":"家电电子卖场","address":""},{"poiid":"B2094757D16DA4F44393","title":"中环线  杨高南路","lon":"121.62673977","lat":"31.184518191","category":"500","category_name":"未知分类","address":"上海杨高南路下匝道"},{"poiid":"B2094757D66FA6FF479C","title":"虾蟹鱼府","lon":"121.62715097","lat":"31.185098005","category":"247","category_name":"餐饮美食","address":"上海市浦东新区华夏高架路出口"},{"poiid":"B2094757DB6CA5FC499F","title":"宜家北蔡店","lon":"121.631133","lat":"31.184012","category":"249","category_name":"购物服务","address":"沪南路华夏西路"},{"poiid":"B2094655D265A4FA409E","title":"东郊紫园","lon":"121.62326","lat":"31.179136","category":"47","category_name":"住宅区","address":"浦东新区孙农路200弄"},{"poiid":"B2094654DA6AA4FE459F","title":"孙桥公寓","lon":"121.63143","lat":"31.18117","category":"47","category_name":"住宅区","address":"高木桥路北门235弄"},{"poiid":"B2094757D66BA3F5499C","title":"本帮汇","lon":"121.6272509","lat":"31.1887567","category":"76","category_name":"上海菜","address":"浦东新区中科路2229号2楼"},{"poiid":"B2094757D168A7F5439F","title":"上海农商银行孙桥支行","lon":"121.630832","lat":"31.185617","category":"150","category_name":"银行","address":"上海孙桥路35号"},{"poiid":"B2094654DA6AA4FC499E","title":"中国农业银行孙桥现代农业开发区支行","lon":"121.63078","lat":"31.18588","category":"150","category_name":"银行","address":"孙桥路11"},{"poiid":"B2094757D16DA0F4419E","title":"陆家大桥","lon":"121.63405609","lat":"31.186544418","category":"500","category_name":"未知分类","address":"上海张江路(华益路)"},{"poiid":"B2094655D36CA1FD429B","title":"十村","lon":"121.63719","lat":"31.18762","category":"38","category_name":"公交车站","address":"上海,上海市,中科路2500弄71号"},{"poiid":"B2094757D064A5F8489C","title":"阿玛达量贩式歌城","lon":"121.63179397","lat":"31.199798349","category":"170","category_name":"KTV","address":"浦东新区盛夏路1053号(近休闲广场)"},{"poiid":"B2094654DA6BA2F4409F","title":"孙桥工业气体供应站","lon":"121.62982","lat":"31.1881","category":"45","category_name":"产业园区","address":""},{"poiid":"B2094654DB64A3F44398","title":"孙桥派出所(横沔江路)","lon":"121.63274","lat":"31.18282","category":"248","category_name":"生活娱乐","address":"孙桥镇横沔江路52号"},{"poiid":"B2094654DA6AA4FE4492","title":"张江镇环西小区","lon":"121.64129","lat":"31.17754","category":"47","category_name":"住宅区","address":"孙环路601弄1-98号临"},{"poiid":"B2094654DA6AA4FE409A","title":"联华超市(孙桥路)","lon":"121.63101","lat":"31.18039","category":"118","category_name":"超级市场","address":""},{"poiid":"B2094757D06BA1F9419D","title":"川杨新苑","lon":"121.634","lat":"31.1944","category":"47","category_name":"住宅区","address":"上海市浦东新区中科路2195弄,2166弄,2566弄,2500弄,顺和路60弄,126弄,236弄"},{"poiid":"B2094757D069A3FC499C","title":"玉兰香苑2期","lon":"121.628673","lat":"31.199725","category":"47","category_name":"住宅区","address":"上海浦东张江益江路511弄"},{"poiid":"B2094757DB6FA6F54198","title":"浦东国际机场T2航站楼","lon":"121.6343438046359","lat":"31.1825049223668","category":"500","category_name":"未知分类","address":"浦东国际机场T2航站楼"},{"poiid":"B2094757D169A3F5489D","title":"浦东国际机场T1航站楼","lon":"121.637789975","lat":"31.1776968325","category":"21","category_name":"飞机场","address":"上海市浦东新区"},{"poiid":"B2094655D36DA7FD4493","title":"张江路华夏中路","lon":"121.62987","lat":"31.18766","category":"38","category_name":"公交车站","address":""},{"poiid":"B2094654DA6AA4FE4793","title":"玉兰香苑","lon":"121.63323","lat":"31.200127","category":"47","category_name":"住宅区","address":"上海市浦东新区益江路126弄、益江路286弄"},{"poiid":"B2094757D069A2FC469B","title":"川杨新苑三期","lon":"121.636383","lat":"31.188532","category":"47","category_name":"住宅区","address":"上海中科路2500弄"},{"poiid":"B2094750D26FA7FB4593","title":"浦东机场T2航站楼","lon":"121.637809","lat":"31.177707","category":"500","category_name":"未知分类","address":null},{"poiid":"B2094654DB69A6F94799","title":"长城中环别墅","lon":"121.63105","lat":"31.18334","category":"47","category_name":"住宅区","address":"浦东新区高木桥路219弄"},{"poiid":"B2094757D068A6FD419E","title":"孙桥现代农业开发区","lon":"121.63107","lat":"31.17052","category":"260","category_name":"其他","address":"上海浦东新区孙桥沔北路185号  "},{"poiid":"B2094655D26BA2FA4892","title":"孙桥镇","lon":"121.63003","lat":"31.17707","category":"38","category_name":"公交车站","address":"上海孙环路长美路"},{"poiid":"B2094757D16BABF8499A","title":"张衡公园","lon":"121.63056797","lat":"31.195238242","category":"196","category_name":"公园","address":"浦东新区张衡路2380号(近益江路)"},{"poiid":"B2094757D46BA5FE4492","title":"妈妈糖休闲咖啡馆 张东路店","lon":"121.6361072","lat":"31.2006146","category":"65","category_name":"咖啡厅","address":"浦东新区张东路1387号集电子社区中心2楼"},{"poiid":"B2094757D069A5F9449B","title":"孙桥花鸟市场","lon":"121.63124","lat":"31.17471","category":"249","category_name":"购物服务","address":"上海浦东新区孙桥路600号  "},{"poiid":"B2094750D76DAAFC469F","title":"蜀膳传火锅传奇(孙桥路店)","lon":"121.631","lat":"31.1849","category":"86","category_name":"火锅店","address":"浦东新区孙桥路100号"},{"poiid":"B2094757D16CA3F8409C","title":"川杨二期","lon":"121.625099975","lat":"31.1855870168","category":"500","category_name":"未知分类","address":"上海顺和路126号"},{"poiid":"B2094757D069A4FB439F","title":"紫晶苑","lon":"121.62564","lat":"31.176443","category":"252","category_name":"楼宇机构","address":"上海市浦东新区孙农路398弄"},{"poiid":"B2094757D66AABFF439F","title":"大家品鱼酒楼","lon":"121.63061","lat":"31.1844","category":"71","category_name":"四川菜","address":"浦东新区孙桥路128号(近华夏西路)"},{"poiid":"B2094757D16DA6FC459E","title":"S1高速公路","lon":"121.646461375","lat":"31.1899818195","category":"500","category_name":"未知分类","address":"上海S1高速公路"},{"poiid":"B2094655D36DA0F54292","title":"玉兰香苑二期A块","lon":"121.63422596141","lat":"31.202460117491","category":"38","category_name":"公交车站","address":"益江路511弄"},{"poiid":"B2094654DA6AA6FF4293","title":"玫瑰湾","lon":"121.62824","lat":"31.181089","category":"47","category_name":"住宅区","address":"上海市浦东新区孙桥路202号"},{"poiid":"B2094655D36DA7F8409B","title":"中科路孙环路","lon":"121.636","lat":"31.18978","category":"38","category_name":"公交车站","address":""},{"poiid":"B2094757D169A4F8489E","title":"上岛咖啡 孙桥店 UBC Coffee","lon":"121.630768","lat":"31.182903","category":"260","category_name":"其他","address":"浦东新区孙桥路38号(近高木桥路)"},{"poiid":"B2094655D26BA2FB4099","title":"孙环路华夏中路","lon":"121.63666","lat":"31.18693","category":"38","category_name":"公交车站","address":""},{"poiid":"B2094655D36CA0F4439A","title":"黄浦花园","lon":"121.63068","lat":"31.18337","category":"47","category_name":"住宅区","address":""},{"poiid":"B2094750D16BA4FD479E","title":"川杨新苑一期","lon":"121.628181","lat":"31.188941","category":"47","category_name":"住宅区","address":"张江路中科路2166弄"},{"poiid":"B2094757D06FAAFB449D","title":"玉兰香苑一期","lon":"121.633535","lat":"31.200113","category":"47","category_name":"住宅区","address":"上海浦东新区益江路126弄"},{"poiid":"B2094757D064A5FE489F","title":"浦东新区看守所","lon":"121.639726975","lat":"31.1923481748","category":"500","category_name":"未知分类","address":"上海华益路351号"},{"poiid":"B2094757D664AAF8489D","title":"茗缘酒楼","lon":"121.63077","lat":"31.18123","category":"76","category_name":"上海菜","address":"浦东新区孙桥路268号(近孙建路)"},{"poiid":"B2094654DA6AA4FC479C","title":"孙桥文化公园","lon":"121.63129","lat":"31.18348","category":"196","category_name":"公园","address":"横河港路"},{"poiid":"B2094654DA6AA4FE409B","title":"孙桥花苑","lon":"121.637","lat":"31.1858","category":"47","category_name":"住宅区","address":"上海孙桥路306弄"},{"poiid":"B2094654DA6BA2F94992","title":"马贵野味火锅","lon":"121.63083","lat":"31.18495","category":"86","category_name":"火锅店","address":""},{"poiid":"B2094655D26BA2FA499E","title":"孙桥","lon":"121.63094","lat":"31.17845","category":"38","category_name":"公交车站","address":"上海新多路"},{"poiid":"B2094654DA6AA4FD419F","title":"农工商超市NO.155","lon":"121.63092","lat":"31.18256","category":"118","category_name":"超级市场","address":"孙桥镇"},{"poiid":"B2094654DA6BA2F8449D","title":"永乐手机专卖孙桥店","lon":"121.63048","lat":"31.1829","category":"138","category_name":"家电电子卖场","address":""},{"poiid":"B2094757D16DA4F44393","title":"中环线  杨高南路","lon":"121.62673977","lat":"31.184518191","category":"500","category_name":"未知分类","address":"上海杨高南路下匝道"},{"poiid":"B2094757D66FA6FF479C","title":"虾蟹鱼府","lon":"121.62715097","lat":"31.185098005","category":"247","category_name":"餐饮美食","address":"上海市浦东新区华夏高架路出口"},{"poiid":"B2094757DB6CA5FC499F","title":"宜家北蔡店","lon":"121.631133","lat":"31.184012","category":"249","category_name":"购物服务","address":"沪南路华夏西路"},{"poiid":"B2094655D265A4FA409E","title":"东郊紫园","lon":"121.62326","lat":"31.179136","category":"47","category_name":"住宅区","address":"浦东新区孙农路200弄"},{"poiid":"B2094654DA6AA4FE459F","title":"孙桥公寓","lon":"121.63143","lat":"31.18117","category":"47","category_name":"住宅区","address":"高木桥路北门235弄"},{"poiid":"B2094757D66BA3F5499C","title":"本帮汇","lon":"121.6272509","lat":"31.1887567","category":"76","category_name":"上海菜","address":"浦东新区中科路2229号2楼"},{"poiid":"B2094757D168A7F5439F","title":"上海农商银行孙桥支行","lon":"121.630832","lat":"31.185617","category":"150","category_name":"银行","address":"上海孙桥路35号"},{"poiid":"B2094654DA6AA4FC499E","title":"中国农业银行孙桥现代农业开发区支行","lon":"121.63078","lat":"31.18588","category":"150","category_name":"银行","address":"孙桥路11"},{"poiid":"B2094757D16DA0F4419E","title":"陆家大桥","lon":"121.63405609","lat":"31.186544418","category":"500","category_name":"未知分类","address":"上海张江路(华益路)"},{"poiid":"B2094655D36CA1FD429B","title":"十村","lon":"121.63719","lat":"31.18762","category":"38","category_name":"公交车站","address":"上海,上海市,中科路2500弄71号"},{"poiid":"B2094757D064A5F8489C","title":"阿玛达量贩式歌城","lon":"121.63179397","lat":"31.199798349","category":"170","category_name":"KTV","address":"浦东新区盛夏路1053号(近休闲广场)"},{"poiid":"B2094654DA6BA2F4409F","title":"孙桥工业气体供应站","lon":"121.62982","lat":"31.1881","category":"45","category_name":"产业园区","address":""},{"poiid":"B2094654DB64A3F44398","title":"孙桥派出所(横沔江路)","lon":"121.63274","lat":"31.18282","category":"248","category_name":"生活娱乐","address":"孙桥镇横沔江路52号"},{"poiid":"B2094654DA6AA4FE4492","title":"张江镇环西小区","lon":"121.64129","lat":"31.17754","category":"47","category_name":"住宅区","address":"孙环路601弄1-98号临"},{"poiid":"B2094654DA6AA4FE409A","title":"联华超市(孙桥路)","lon":"121.63101","lat":"31.18039","category":"118","category_name":"超级市场","address":""},{"poiid":"B2094757D06BA1F9419D","title":"川杨新苑","lon":"121.634","lat":"31.1944","category":"47","category_name":"住宅区","address":"上海市浦东新区中科路2195弄,2166弄,2566弄,2500弄,顺和路60弄,126弄,236弄"},{"poiid":"B2094757D069A3FC499C","title":"玉兰香苑2期","lon":"121.628673","lat":"31.199725","category":"47","category_name":"住宅区","address":"上海浦东张江益江路511弄"},{"poiid":"B2094757DB6FA6F54198","title":"浦东国际机场T2航站楼","lon":"121.6343438046359","lat":"31.1825049223668","category":"500","category_name":"未知分类","address":"浦东国际机场T2航站楼"},{"poiid":"B2094757D169A3F5489D","title":"浦东国际机场T1航站楼","lon":"121.637789975","lat":"31.1776968325","category":"21","category_name":"飞机场","address":"上海市浦东新区"},{"poiid":"B2094655D36DA7FD4493","title":"张江路华夏中路","lon":"121.62987","lat":"31.18766","category":"38","category_name":"公交车站","address":""},{"poiid":"B2094654DA6AA4FE4793","title":"玉兰香苑","lon":"121.63323","lat":"31.200127","category":"47","category_name":"住宅区","address":"上海市浦东新区益江路126弄、益江路286弄"},{"poiid":"B2094757D069A2FC469B","title":"川杨新苑三期","lon":"121.636383","lat":"31.188532","category":"47","category_name":"住宅区","address":"上海中科路2500弄"},{"poiid":"B2094750D26FA7FB4593","title":"浦东机场T2航站楼","lon":"121.637809","lat":"31.177707","category":"500","category_name":"未知分类","address":null},{"poiid":"B2094654DB69A6F94799","title":"长城中环别墅","lon":"121.63105","lat":"31.18334","category":"47","category_name":"住宅区","address":"浦东新区高木桥路219弄"},{"poiid":"B2094757D068A6FD419E","title":"孙桥现代农业开发区","lon":"121.63107","lat":"31.17052","category":"260","category_name":"其他","address":"上海浦东新区孙桥沔北路185号  "},{"poiid":"B2094655D26BA2FA4892","title":"孙桥镇","lon":"121.63003","lat":"31.17707","category":"38","category_name":"公交车站","address":"上海孙环路长美路"},{"poiid":"B2094757D16BABF8499A","title":"张衡公园","lon":"121.63056797","lat":"31.195238242","category":"196","category_name":"公园","address":"浦东新区张衡路2380号(近益江路)"},{"poiid":"B2094757D46BA5FE4492","title":"妈妈糖休闲咖啡馆 张东路店","lon":"121.6361072","lat":"31.2006146","category":"65","category_name":"咖啡厅","address":"浦东新区张东路1387号集电子社区中心2楼"},{"poiid":"B2094757D069A5F9449B","title":"孙桥花鸟市场","lon":"121.63124","lat":"31.17471","category":"249","category_name":"购物服务","address":"上海浦东新区孙桥路600号  "},{"poiid":"B2094750D76DAAFC469F","title":"蜀膳传火锅传奇(孙桥路店)","lon":"121.631","lat":"31.1849","category":"86","category_name":"火锅店","address":"浦东新区孙桥路100号"},{"poiid":"B2094757D16CA3F8409C","title":"川杨二期","lon":"121.625099975","lat":"31.1855870168","category":"500","category_name":"未知分类","address":"上海顺和路126号"},{"poiid":"B2094757D069A4FB439F","title":"紫晶苑","lon":"121.62564","lat":"31.176443","category":"252","category_name":"楼宇机构","address":"上海市浦东新区孙农路398弄"},{"poiid":"B2094757D66AABFF439F","title":"大家品鱼酒楼","lon":"121.63061","lat":"31.1844","category":"71","category_name":"四川菜","address":"浦东新区孙桥路128号(近华夏西路)"},{"poiid":"B2094757D16DA6FC459E","title":"S1高速公路","lon":"121.646461375","lat":"31.1899818195","category":"500","category_name":"未知分类","address":"上海S1高速公路"},{"poiid":"B2094655D36DA0F54292","title":"玉兰香苑二期A块","lon":"121.63422596141","lat":"31.202460117491","category":"38","category_name":"公交车站","address":"益江路511弄"},{"poiid":"B2094654DA6AA6FF4293","title":"玫瑰湾","lon":"121.62824","lat":"31.181089","category":"47","category_name":"住宅区","address":"上海市浦东新区孙桥路202号"},{"poiid":"B2094655D36DA7F8409B","title":"中科路孙环路","lon":"121.636","lat":"31.18978","category":"38","category_name":"公交车站","address":""},{"poiid":"B2094757D169A4F8489E","title":"上岛咖啡 孙桥店 UBC Coffee","lon":"121.630768","lat":"31.182903","category":"260","category_name":"其他","address":"浦东新区孙桥路38号(近高木桥路)"},{"poiid":"B2094655D26BA2FB4099","title":"孙环路华夏中路","lon":"121.63666","lat":"31.18693","category":"38","category_name":"公交车站","address":""},{"poiid":"B2094655D36CA0F4439A","title":"黄浦花园","lon":"121.63068","lat":"31.18337","category":"47","category_name":"住宅区","address":""},{"poiid":"B2094750D16BA4FD479E","title":"川杨新苑一期","lon":"121.628181","lat":"31.188941","category":"47","category_name":"住宅区","address":"张江路中科路2166弄"},{"poiid":"B2094757D06FAAFB449D","title":"玉兰香苑一期","lon":"121.633535","lat":"31.200113","category":"47","category_name":"住宅区","address":"上海浦东新区益江路126弄"},{"poiid":"B2094757D064A5FE489F","title":"浦东新区看守所","lon":"121.639726975","lat":"31.1923481748","category":"500","category_name":"未知分类","address":"上海华益路351号"},{"poiid":"B2094757D664AAF8489D","title":"茗缘酒楼","lon":"121.63077","lat":"31.18123","category":"76","category_name":"上海菜","address":"浦东新区孙桥路268号(近孙建路)"},{"poiid":"B2094654DA6AA4FC479C","title":"孙桥文化公园","lon":"121.63129","lat":"31.18348","category":"196","category_name":"公园","address":"横河港路"},{"poiid":"B2094654DA6AA4FE409B","title":"孙桥花苑","lon":"121.637","lat":"31.1858","category":"47","category_name":"住宅区","address":"上海孙桥路306弄"},{"poiid":"B2094654DA6BA2F94992","title":"马贵野味火锅","lon":"121.63083","lat":"31.18495","category":"86","category_name":"火锅店","address":""},{"poiid":"B2094655D26BA2FA499E","title":"孙桥","lon":"121.63094","lat":"31.17845","category":"38","category_name":"公交车站","address":"上海新多路"},{"poiid":"B2094654DA6AA4FD419F","title":"农工商超市NO.155","lon":"121.63092","lat":"31.18256","category":"118","category_name":"超级市场","address":"孙桥镇"},{"poiid":"B2094654DA6BA2F8449D","title":"永乐手机专卖孙桥店","lon":"121.63048","lat":"31.1829","category":"138","category_name":"家电电子卖场","address":""},{"poiid":"B2094757D16DA4F44393","title":"中环线  杨高南路","lon":"121.62673977","lat":"31.184518191","category":"500","category_name":"未知分类","address":"上海杨高南路下匝道"},{"poiid":"B2094757D66FA6FF479C","title":"虾蟹鱼府","lon":"121.62715097","lat":"31.185098005","category":"247","category_name":"餐饮美食","address":"上海市浦东新区华夏高架路出口"},{"poiid":"B2094757DB6CA5FC499F","title":"宜家北蔡店","lon":"121.631133","lat":"31.184012","category":"249","category_name":"购物服务","address":"沪南路华夏西路"},{"poiid":"B2094655D265A4FA409E","title":"东郊紫园","lon":"121.62326","lat":"31.179136","category":"47","category_name":"住宅区","address":"浦东新区孙农路200弄"},{"poiid":"B2094654DA6AA4FE459F","title":"孙桥公寓","lon":"121.63143","lat":"31.18117","category":"47","category_name":"住宅区","address":"高木桥路北门235弄"},{"poiid":"B2094757D66BA3F5499C","title":"本帮汇","lon":"121.6272509","lat":"31.1887567","category":"76","category_name":"上海菜","address":"浦东新区中科路2229号2楼"},{"poiid":"B2094757D168A7F5439F","title":"上海农商银行孙桥支行","lon":"121.630832","lat":"31.185617","category":"150","category_name":"银行","address":"上海孙桥路35号"},{"poiid":"B2094654DA6AA4FC499E","title":"中国农业银行孙桥现代农业开发区支行","lon":"121.63078","lat":"31.18588","category":"150","category_name":"银行","address":"孙桥路11"},{"poiid":"B2094757D16DA0F4419E","title":"陆家大桥","lon":"121.63405609","lat":"31.186544418","category":"500","category_name":"未知分类","address":"上海张江路(华益路)"},{"poiid":"B2094655D36CA1FD429B","title":"十村","lon":"121.63719","lat":"31.18762","category":"38","category_name":"公交车站","address":"上海,上海市,中科路2500弄71号"},{"poiid":"B2094757D064A5F8489C","title":"阿玛达量贩式歌城","lon":"121.63179397","lat":"31.199798349","category":"170","category_name":"KTV","address":"浦东新区盛夏路1053号(近休闲广场)"},{"poiid":"B2094654DA6BA2F4409F","title":"孙桥工业气体供应站","lon":"121.62982","lat":"31.1881","category":"45","category_name":"产业园区","address":""},{"poiid":"B2094654DB64A3F44398","title":"孙桥派出所(横沔江路)","lon":"121.63274","lat":"31.18282","category":"248","category_name":"生活娱乐","address":"孙桥镇横沔江路52号"},{"poiid":"B2094654DA6AA4FE4492","title":"张江镇环西小区","lon":"121.64129","lat":"31.17754","category":"47","category_name":"住宅区","address":"孙环路601弄1-98号临"},{"poiid":"B2094654DA6AA4FE409A","title":"联华超市(孙桥路)","lon":"121.63101","lat":"31.18039","category":"118","category_name":"超级市场","address":""},{"poiid":"B2094757D06BA1F9419D","title":"川杨新苑","lon":"121.634","lat":"31.1944","category":"47","category_name":"住宅区","address":"上海市浦东新区中科路2195弄,2166弄,2566弄,2500弄,顺和路60弄,126弄,236弄"},{"poiid":"B2094757D069A3FC499C","title":"玉兰香苑2期","lon":"121.628673","lat":"31.199725","category":"47","category_name":"住宅区","address":"上海浦东张江益江路511弄"}]