[{"poiid":"B2094757D06EAAFA489B","title":"百盛购物中心(莘庄店)","lon":"121.38757485","lat":"31.106196486","category":"119","category_name":"商场","address":"上海闵行区都市路5001号仲盛世界商城1-3F(近莘庄地铁站南广场)"},{"poiid":"B2094757D568A7F8409A","title":"好乐迪(闵城路)","lon":"121.38731283","lat":"31.10717882","category":"170","category_name":"KTV","address":"闵行区都市路5001号仲盛世界商城4楼(近莘庄地铁南广场)"},{"poiid":"B2094757DB69A0F94293","title":"外婆家 仲盛广场店","lon":"121.3877248764","lat":"31.107900442917","category":"74","category_name":"江苏菜","address":"都市路5001号仲盛世界商城4楼近莘庄地铁南广场"},{"poiid":"B2094750D26EA2F8469F","title":"57度湘 仲盛店","lon":"121.38637304306","lat":"31.10749625872","category":"77","category_name":"湖南菜","address":"闵行区都市路5001号仲盛世界商场4楼17C铺(近名都路)"},{"poiid":"B2094750DB65A5F8479F","title":"伊秀手握寿司（仲盛店）","lon":"121.38619","lat":"31.10776","category":"95","category_name":"日本料理","address":"闵行区莘庄地铁站内"},{"poiid":"B2094757D06FA2F94499","title":"豆捞坊(莘庄仲盛店)","lon":"121.38644","lat":"31.10676","category":"86","category_name":"火锅店","address":"闵行区都市路5001号仲盛世界商城4楼(近莘庄地铁站南广场)"},{"poiid":"B2094757D06FA3F5429C","title":"避风塘(莘庄仲盛店)","lon":"121.38778778","lat":"31.107847205","category":"72","category_name":"广东菜","address":"闵行区都市路5001号仲盛世界商城4楼(近莘庄地铁南广场)"},{"poiid":"B2094757D06FABFD489B","title":"赤坂亭(莘庄仲盛店)","lon":"121.38726","lat":"31.10715","category":"95","category_name":"日本料理","address":"闵行区都市路5001号仲盛世界商城4楼7-9号商铺(近莘朱路)"},{"poiid":"B2094757D06FA6F9439D","title":"星期八小镇","lon":"121.387811","lat":"31.107845","category":"248","category_name":"生活娱乐","address":"闵行区都市路5001号莘庄仲盛五楼"},{"poiid":"B2094655D268A3F44693","title":"哈根达斯 莘朱路店 Haagen-Dazs","lon":"121.385122054","lat":"31.106921793","category":"113","category_name":"冷饮店","address":"闵行区莘朱路168号1楼GF-11商铺(近仲盛世界商城)"},{"poiid":"B2094757D06FA0F44492","title":"釜山料理 都市路店 Pankoo","lon":"121.386751054","lat":"31.107269793","category":"96","category_name":"韩国料理","address":"闵行区都市路5001号仲盛世界商城4楼14号(近莘庄地铁南广场)"},{"poiid":"B2094757DA6FA3F9439B","title":"莘庄仲盛南广场","lon":"121.386192","lat":"31.1077689999998","category":"249","category_name":"购物服务","address":"闵行区都市路5001号"},{"poiid":"B2094757DA6FA3FD4299","title":"花亭日本料理","lon":"121.386192","lat":"31.1077689999998","category":"95","category_name":"日本料理","address":"上海闵行区都市路5001号仲盛世界广场5楼"},{"poiid":"B2094757D06AA0F4479C","title":"霖 上海味道","lon":"121.387078857","lat":"31.107042503","category":"76","category_name":"上海菜","address":"闵行区都市路5001号仲盛世界商城4楼(近莘庄地铁站)"},{"poiid":"B2094757DA6FA3F4449A","title":"赤坂亭(莘庄龙之梦店)","lon":"121.380429267886","lat":"31.1055304292266","category":"269","category_name":"烧烤","address":"闵行区沪闵路6088号莘庄凯德龙之梦购物中心4楼24-27号(近莘建路)"},{"poiid":"B2094750D26BA3FE469B","title":"健康煮 仲盛店","lon":"121.386192","lat":"31.107769","category":"86","category_name":"火锅店","address":"闵行区都市路5001号仲盛世界商城5楼13号商铺(近莘庄地铁南广场)"},{"poiid":"B2094757D06FABFF4192","title":"哈根达斯(莘庄仲盛店)","lon":"121.38690185","lat":"31.10841953","category":"113","category_name":"冷饮店","address":"上海闵行区都市路5001号仲盛世界商城1楼GF-11商铺"},{"poiid":"B2094757D068A6FA459E","title":"莘城中央公园","lon":"121.38701","lat":"31.10496","category":"196","category_name":"公园","address":"闵行区闵城路180号(近珠城路)"},{"poiid":"B2094750D76FA3FA489A","title":"代官山","lon":"121.387","lat":"31.1081","category":"96","category_name":"韩国料理","address":"闵行区莘庄站南广场(近莘庄地铁站)"},{"poiid":"B2094757D06FA2F8459D","title":"家乐福(莘庄店)","lon":"121.387001","lat":"31.106349693","category":"118","category_name":"超级市场","address":"闵行区都市路5001号仲盛世界商场B1楼(近莘庄地铁南广场)"},{"poiid":"B2094757D06AA6FE489B","title":"好世鹿鸣苑","lon":"121.38392","lat":"31.105864","category":"500","category_name":"未知分类","address":"上海市闵行区闵城路199弄"},{"poiid":"B2094757D06BA4F5489F","title":"重庆临江门老火锅(莘庄店)","lon":"121.38712385","lat":"31.106368039","category":"86","category_name":"火锅店","address":"闵行区都市路5001号仲盛世界商城4楼30号商铺(近莘庄地铁南广场)"},{"poiid":"B2094757DB69A6FF4793","title":"新贝乐意式休闲餐厅 莘庄仲盛店","lon":"121.386192","lat":"31.107769","category":"94","category_name":"西餐厅","address":"闵行区都市路5001号仲盛世界商城B1楼(近莘庄地铁南广场)"},{"poiid":"B2094757D06FABFC4793","title":"禾绿回转寿司 莘庄店","lon":"121.386740054","lat":"31.107234793","category":"95","category_name":"日本料理","address":"闵行区都市路5001号仲盛世界商城4楼(近莘庄地铁南广场)"},{"poiid":"B2094757D664A1F9449D","title":"597素餐厅","lon":"121.386883","lat":"31.107371","category":"89","category_name":"中式素餐馆","address":"闵行区都市路5001号仲盛世界商城5楼10号(近莘庄地铁南广场)"},{"poiid":"B2094757DB69AAFD4992","title":"　coco壱番屋","lon":"121.38759","lat":"31.10799","category":"95","category_name":"日本料理","address":"闵行区都市路5001号仲盛世界商城B1楼(近绝味鸭脖)"},{"poiid":"B2094753D36FA0F5479B","title":"maan coffee","lon":"121.385062","lat":"31.107086","category":"500","category_name":"未知分类","address":"上海市 珠城路158号(近富都路)"},{"poiid":"B2094750D165A1F8489C","title":"尚一汤(莘庄仲盛店)","lon":"121.387008","lat":"31.107591","category":"247","category_name":"餐饮美食","address":"闵行区都市路5001号仲盛世界商城4楼33室(近莘朱路)"},{"poiid":"B2094753D268A7FF4798","title":"居食屋和民","lon":"121.38634","lat":"31.106742","category":"247","category_name":"餐饮美食","address":"上海市 都市路5001号仲盛世界商城4楼(近莘庄地铁站)"},{"poiid":"B2094757D06FA0F5499A","title":"呷哺呷哺(莘庄仲盛店)","lon":"121.38770798","lat":"31.10778429","category":"86","category_name":"火锅店","address":"闵行区闵行区都市路5001号仲盛世界商城B1楼07-08商铺(梅陇西路莘朱路)"},{"poiid":"B2094757D064A1F8479C","title":"味千拉面(仲盛店)","lon":"121.38691785","lat":"31.108258527","category":"247","category_name":"餐饮美食","address":"上海仲盛世界商城"},{"poiid":"B2094757D16DA2FA479B","title":"藏魅 私房菜","lon":"121.386983857","lat":"31.1066484951","category":"76","category_name":"上海菜","address":"闵行区都市路5001号仲盛世界商城4楼20号商铺(近莘庄地铁南广场)"},{"poiid":"B2094757D568A7FD499A","title":"山间堂瓦罐煨汤莘庄店","lon":"121.38732259","lat":"31.10718479","category":"257","category_name":"中餐厅","address":"都市路5001号仲盛世界商城4层15室"},{"poiid":"B2094751DA6AA6F54193","title":"宝珠奶酪 仲盛店","lon":"121.387329","lat":"31.106171","category":"247","category_name":"餐饮美食","address":null},{"poiid":"B2094757D168A3F84893","title":"莘莊仲盛","lon":"121.386985857","lat":"31.1083305288","category":"500","category_name":"未知分类","address":"上海市闵行区莘建东路"},{"poiid":"B2094757D16EA7F54293","title":"达加马巴西烤肉(莘庄仲盛店)","lon":"121.386576524","lat":"31.1069188338","category":"94","category_name":"西餐厅","address":"闵行区都市路5001号仲盛世界商城4楼(近莘庄地铁南广场)"},{"poiid":"B2094757D66AA6F94992","title":"余记小菜","lon":"121.386692054","lat":"31.107262793","category":"76","category_name":"上海菜","address":"闵行区都市路5001号仲盛世界商城4楼(近莘庄地铁南广场)"},{"poiid":"B2094757D06FA4F94598","title":"麦当劳(莘庄仲盛店)","lon":"121.38765","lat":"31.10726","category":"68","category_name":"快餐厅","address":"闵行区都市路5001号仲盛世界商城B1楼(近莘庄地铁南广场)"},{"poiid":"B2094757D06FA4FF489C","title":"DQ冰雪皇后(仲盛店)","lon":"121.38769","lat":"31.10733","category":"113","category_name":"冷饮店","address":"闵行区都市路5001号仲盛世界商城B1楼02号(近莘庄地铁南广场)"},{"poiid":"B2094757D068A0F84998","title":"一兆韦德(莘庄仲盛会所)","lon":"121.38801","lat":"31.10581","category":"221","category_name":"健身中心","address":"闵行区都市路5001号仲盛世界商城内(近莘庄地铁南广场)"},{"poiid":"B2094757D46FA7FF4498","title":"汉堡王 都市路店 Burger King","lon":"121.386724054","lat":"31.107221793","category":"68","category_name":"快餐厅","address":"闵行区都市路5001号仲盛世界商城B1楼(近莘庄地铁南广场)"},{"poiid":"B2094757D06AA7F9429D","title":"翼立运动俱乐部","lon":"121.38538","lat":"31.10464","category":"148","category_name":"美容美发店","address":"闵行区闵城路265号(近莘朱路)"},{"poiid":"B2094751D269A4F84192","title":"赤板亭","lon":"121.383094","lat":"31.10605","category":"247","category_name":"餐饮美食","address":"莘庄龙之梦"},{"poiid":"B209475DD26DA1F44693","title":"小辉哥火锅（仲盛店）","lon":"121.38655","lat":"31.106878","category":"247","category_name":"餐饮美食","address":"上海市 都市路5001号仲盛世界商城5F14B"},{"poiid":"B2094757D069AAFC4798","title":"棒约翰比萨 仲盛店 Papa John's Pizza","lon":"121.386740054","lat":"31.107234793","category":"94","category_name":"西餐厅","address":"闵行区都市路5001号仲盛世界商城4楼(近莘庄地铁南广场)"},{"poiid":"B2094750D66CA1FA489B","title":"上影CGV国际影城","lon":"121.385162","lat":"31.108039","category":"178","category_name":"电影院","address":"仲盛商场"},{"poiid":"B2094757D06FA0F5409F","title":"85度C(莘朱店)","lon":"121.3871","lat":"31.10862","category":"112","category_name":"糕饼店","address":"闵行区莘朱路270弄23号(近地铁莘庄站南广场)"},{"poiid":"B2094753D765AAFB479B","title":"caffebene","lon":"121.38301","lat":"31.106201","category":"500","category_name":"未知分类","address":"上海市 莘庄龙之梦"},{"poiid":"B2094751D56DA7F54893","title":"芋贵人甜品店(莘庄仲盛店)","lon":"121.38619","lat":"31.10776","category":"67","category_name":"甜品店","address":"闵行区都市路5001号仲盛世界商城B1楼45号铺(近莘城中央公园)"},{"poiid":"B2094757D06FA7F9439B","title":"超级鸡车(莘朱路店)","lon":"121.386578","lat":"31.109122","category":"68","category_name":"快餐厅","address":"闵行区莘朱路270弄27号(近地铁莘庄站南广场)"},{"poiid":"B2094757D06EAAFA489B","title":"百盛购物中心(莘庄店)","lon":"121.38757485","lat":"31.106196486","category":"119","category_name":"商场","address":"上海闵行区都市路5001号仲盛世界商城1-3F(近莘庄地铁站南广场)"},{"poiid":"B2094757D568A7F8409A","title":"好乐迪(闵城路)","lon":"121.38731283","lat":"31.10717882","category":"170","category_name":"KTV","address":"闵行区都市路5001号仲盛世界商城4楼(近莘庄地铁南广场)"},{"poiid":"B2094757DB69A0F94293","title":"外婆家 仲盛广场店","lon":"121.3877248764","lat":"31.107900442917","category":"74","category_name":"江苏菜","address":"都市路5001号仲盛世界商城4楼近莘庄地铁南广场"},{"poiid":"B2094750D26EA2F8469F","title":"57度湘 仲盛店","lon":"121.38637304306","lat":"31.10749625872","category":"77","category_name":"湖南菜","address":"闵行区都市路5001号仲盛世界商场4楼17C铺(近名都路)"},{"poiid":"B2094750DB65A5F8479F","title":"伊秀手握寿司（仲盛店）","lon":"121.38619","lat":"31.10776","category":"95","category_name":"日本料理","address":"闵行区莘庄地铁站内"},{"poiid":"B2094757D06FA2F94499","title":"豆捞坊(莘庄仲盛店)","lon":"121.38644","lat":"31.10676","category":"86","category_name":"火锅店","address":"闵行区都市路5001号仲盛世界商城4楼(近莘庄地铁站南广场)"},{"poiid":"B2094757D06FA3F5429C","title":"避风塘(莘庄仲盛店)","lon":"121.38778778","lat":"31.107847205","category":"72","category_name":"广东菜","address":"闵行区都市路5001号仲盛世界商城4楼(近莘庄地铁南广场)"},{"poiid":"B2094757D06FABFD489B","title":"赤坂亭(莘庄仲盛店)","lon":"121.38726","lat":"31.10715","category":"95","category_name":"日本料理","address":"闵行区都市路5001号仲盛世界商城4楼7-9号商铺(近莘朱路)"},{"poiid":"B2094757D06FA6F9439D","title":"星期八小镇","lon":"121.387811","lat":"31.107845","category":"248","category_name":"生活娱乐","address":"闵行区都市路5001号莘庄仲盛五楼"},{"poiid":"B2094655D268A3F44693","title":"哈根达斯 莘朱路店 Haagen-Dazs","lon":"121.385122054","lat":"31.106921793","category":"113","category_name":"冷饮店","address":"闵行区莘朱路168号1楼GF-11商铺(近仲盛世界商城)"},{"poiid":"B2094757D06FA0F44492","title":"釜山料理 都市路店 Pankoo","lon":"121.386751054","lat":"31.107269793","category":"96","category_name":"韩国料理","address":"闵行区都市路5001号仲盛世界商城4楼14号(近莘庄地铁南广场)"},{"poiid":"B2094757DA6FA3F9439B","title":"莘庄仲盛南广场","lon":"121.386192","lat":"31.1077689999998","category":"249","category_name":"购物服务","address":"闵行区都市路5001号"},{"poiid":"B2094757DA6FA3FD4299","title":"花亭日本料理","lon":"121.386192","lat":"31.1077689999998","category":"95","category_name":"日本料理","address":"上海闵行区都市路5001号仲盛世界广场5楼"},{"poiid":"B2094757D06AA0F4479C","title":"霖 上海味道","lon":"121.387078857","lat":"31.107042503","category":"76","category_name":"上海菜","address":"闵行区都市路5001号仲盛世界商城4楼(近莘庄地铁站)"},{"poiid":"B2094757DA6FA3F4449A","title":"赤坂亭(莘庄龙之梦店)","lon":"121.380429267886","lat":"31.1055304292266","category":"269","category_name":"烧烤","address":"闵行区沪闵路6088号莘庄凯德龙之梦购物中心4楼24-27号(近莘建路)"},{"poiid":"B2094750D26BA3FE469B","title":"健康煮 仲盛店","lon":"121.386192","lat":"31.107769","category":"86","category_name":"火锅店","address":"闵行区都市路5001号仲盛世界商城5楼13号商铺(近莘庄地铁南广场)"},{"poiid":"B2094757D06FABFF4192","title":"哈根达斯(莘庄仲盛店)","lon":"121.38690185","lat":"31.10841953","category":"113","category_name":"冷饮店","address":"上海闵行区都市路5001号仲盛世界商城1楼GF-11商铺"},{"poiid":"B2094757D068A6FA459E","title":"莘城中央公园","lon":"121.38701","lat":"31.10496","category":"196","category_name":"公园","address":"闵行区闵城路180号(近珠城路)"},{"poiid":"B2094750D76FA3FA489A","title":"代官山","lon":"121.387","lat":"31.1081","category":"96","category_name":"韩国料理","address":"闵行区莘庄站南广场(近莘庄地铁站)"},{"poiid":"B2094757D06FA2F8459D","title":"家乐福(莘庄店)","lon":"121.387001","lat":"31.106349693","category":"118","category_name":"超级市场","address":"闵行区都市路5001号仲盛世界商场B1楼(近莘庄地铁南广场)"},{"poiid":"B2094757D06AA6FE489B","title":"好世鹿鸣苑","lon":"121.38392","lat":"31.105864","category":"500","category_name":"未知分类","address":"上海市闵行区闵城路199弄"},{"poiid":"B2094757D06BA4F5489F","title":"重庆临江门老火锅(莘庄店)","lon":"121.38712385","lat":"31.106368039","category":"86","category_name":"火锅店","address":"闵行区都市路5001号仲盛世界商城4楼30号商铺(近莘庄地铁南广场)"},{"poiid":"B2094757DB69A6FF4793","title":"新贝乐意式休闲餐厅 莘庄仲盛店","lon":"121.386192","lat":"31.107769","category":"94","category_name":"西餐厅","address":"闵行区都市路5001号仲盛世界商城B1楼(近莘庄地铁南广场)"},{"poiid":"B2094757D06FABFC4793","title":"禾绿回转寿司 莘庄店","lon":"121.386740054","lat":"31.107234793","category":"95","category_name":"日本料理","address":"闵行区都市路5001号仲盛世界商城4楼(近莘庄地铁南广场)"},{"poiid":"B2094757D664A1F9449D","title":"597素餐厅","lon":"121.386883","lat":"31.107371","category":"89","category_name":"中式素餐馆","address":"闵行区都市路5001号仲盛世界商城5楼10号(近莘庄地铁南广场)"},{"poiid":"B2094757DB69AAFD4992","title":"　coco壱番屋","lon":"121.38759","lat":"31.10799","category":"95","category_name":"日本料理","address":"闵行区都市路5001号仲盛世界商城B1楼(近绝味鸭脖)"},{"poiid":"B2094753D36FA0F5479B","title":"maan coffee","lon":"121.385062","lat":"31.107086","category":"500","category_name":"未知分类","address":"上海市 珠城路158号(近富都路)"},{"poiid":"B2094750D165A1F8489C","title":"尚一汤(莘庄仲盛店)","lon":"121.387008","lat":"31.107591","category":"247","category_name":"餐饮美食","address":"闵行区都市路5001号仲盛世界商城4楼33室(近莘朱路)"},{"poiid":"B2094753D268A7FF4798","title":"居食屋和民","lon":"121.38634","lat":"31.106742","category":"247","category_name":"餐饮美食","address":"上海市 都市路5001号仲盛世界商城4楼(近莘庄地铁站)"},{"poiid":"B2094757D06FA0F5499A","title":"呷哺呷哺(莘庄仲盛店)","lon":"121.38770798","lat":"31.10778429","category":"86","category_name":"火锅店","address":"闵行区闵行区都市路5001号仲盛世界商城B1楼07-08商铺(梅陇西路莘朱路)"},{"poiid":"B2094757D064A1F8479C","title":"味千拉面(仲盛店)","lon":"121.38691785","lat":"31.108258527","category":"247","category_name":"餐饮美食","address":"上海仲盛世界商城"},{"poiid":"B2094757D16DA2FA479B","title":"藏魅 私房菜","lon":"121.386983857","lat":"31.1066484951","category":"76","category_name":"上海菜","address":"闵行区都市路5001号仲盛世界商城4楼20号商铺(近莘庄地铁南广场)"},{"poiid":"B2094757D568A7FD499A","title":"山间堂瓦罐煨汤莘庄店","lon":"121.38732259","lat":"31.10718479","category":"257","category_name":"中餐厅","address":"都市路5001号仲盛世界商城4层15室"},{"poiid":"B2094751DA6AA6F54193","title":"宝珠奶酪 仲盛店","lon":"121.387329","lat":"31.106171","category":"247","category_name":"餐饮美食","address":null},{"poiid":"B2094757D168A3F84893","title":"莘莊仲盛","lon":"121.386985857","lat":"31.1083305288","category":"500","category_name":"未知分类","address":"上海市闵行区莘建东路"},{"poiid":"B2094757D16EA7F54293","title":"达加马巴西烤肉(莘庄仲盛店)","lon":"121.386576524","lat":"31.1069188338","category":"94","category_name":"西餐厅","address":"闵行区都市路5001号仲盛世界商城4楼(近莘庄地铁南广场)"},{"poiid":"B2094757D66AA6F94992","title":"余记小菜","lon":"121.386692054","lat":"31.107262793","category":"76","category_name":"上海菜","address":"闵行区都市路5001号仲盛世界商城4楼(近莘庄地铁南广场)"},{"poiid":"B2094757D06FA4F94598","title":"麦当劳(莘庄仲盛店)","lon":"121.38765","lat":"31.10726","category":"68","category_name":"快餐厅","address":"闵行区都市路5001号仲盛世界商城B1楼(近莘庄地铁南广场)"},{"poiid":"B2094757D06FA4FF489C","title":"DQ冰雪皇后(仲盛店)","lon":"121.38769","lat":"31.10733","category":"113","category_name":"冷饮店","address":"闵行区都市路5001号仲盛世界商城B1楼02号(近莘庄地铁南广场)"},{"poiid":"B2094757D068A0F84998","title":"一兆韦德(莘庄仲盛会所)","lon":"121.38801","lat":"31.10581","category":"221","category_name":"健身中心","address":"闵行区都市路5001号仲盛世界商城内(近莘庄地铁南广场)"},{"poiid":"B2094757D46FA7FF4498","title":"汉堡王 都市路店 Burger King","lon":"121.386724054","lat":"31.107221793","category":"68","category_name":"快餐厅","address":"闵行区都市路5001号仲盛世界商城B1楼(近莘庄地铁南广场)"},{"poiid":"B2094757D06AA7F9429D","title":"翼立运动俱乐部","lon":"121.38538","lat":"31.10464","category":"148","category_name":"美容美发店","address":"闵行区闵城路265号(近莘朱路)"},{"poiid":"B2094751D269A4F84192","title":"赤板亭","lon":"121.383094","lat":"31.10605","category":"247","category_name":"餐饮美食","address":"莘庄龙之梦"},{"poiid":"B209475DD26DA1F44693","title":"小辉哥火锅（仲盛店）","lon":"121.38655","lat":"31.106878","category":"247","category_name":"餐饮美食","address":"上海市 都市路5001号仲盛世界商城5F14B"},{"poiid":"B2094757D069AAFC4798","title":"棒约翰比萨 仲盛店 Papa John's Pizza","lon":"121.386740054","lat":"31.107234793","category":"94","category_name":"西餐厅","address":"闵行区都市路5001号仲盛世界商城4楼(近莘庄地铁南广场)"},{"poiid":"B2094750D66CA1FA489B","title":"上影CGV国际影城","lon":"121.385162","lat":"31.108039","category":"178","category_name":"电影院","address":"仲盛商场"},{"poiid":"B2094757D06FA0F5409F","title":"85度C(莘朱店)","lon":"121.3871","lat":"31.10862","category":"112","category_name":"糕饼店","address":"闵行区莘朱路270弄23号(近地铁莘庄站南广场)"},{"poiid":"B2094753D765AAFB479B","title":"caffebene","lon":"121.38301","lat":"31.106201","category":"500","category_name":"未知分类","address":"上海市 莘庄龙之梦"},{"poiid":"B2094751D56DA7F54893","title":"芋贵人甜品店(莘庄仲盛店)","lon":"121.38619","lat":"31.10776","category":"67","category_name":"甜品店","address":"闵行区都市路5001号仲盛世界商城B1楼45号铺(近莘城中央公园)"},{"poiid":"B2094757D06FA7F9439B","title":"超级鸡车(莘朱路店)","lon":"121.386578","lat":"31.109122","category":"68","category_name":"快餐厅","address":"闵行区莘朱路270弄27号(近地铁莘庄站南广场)"},{"poiid":"B2094757D06EAAFA489B","title":"百盛购物中心(莘庄店)","lon":"121.38757485","lat":"31.106196486","category":"119","category_name":"商场","address":"上海闵行区都市路5001号仲盛世界商城1-3F(近莘庄地铁站南广场)"},{"poiid":"B2094757D568A7F8409A","title":"好乐迪(闵城路)","lon":"121.38731283","lat":"31.10717882","category":"170","category_name":"KTV","address":"闵行区都市路5001号仲盛世界商城4楼(近莘庄地铁南广场)"},{"poiid":"B2094757DB69A0F94293","title":"外婆家 仲盛广场店","lon":"121.3877248764","lat":"31.107900442917","category":"74","category_name":"江苏菜","address":"都市路5001号仲盛世界商城4楼近莘庄地铁南广场"},{"poiid":"B2094750D26EA2F8469F","title":"57度湘 仲盛店","lon":"121.38637304306","lat":"31.10749625872","category":"77","category_name":"湖南菜","address":"闵行区都市路5001号仲盛世界商场4楼17C铺(近名都路)"},{"poiid":"B2094750DB65A5F8479F","title":"伊秀手握寿司（仲盛店）","lon":"121.38619","lat":"31.10776","category":"95","category_name":"日本料理","address":"闵行区莘庄地铁站内"},{"poiid":"B2094757D06FA2F94499","title":"豆捞坊(莘庄仲盛店)","lon":"121.38644","lat":"31.10676","category":"86","category_name":"火锅店","address":"闵行区都市路5001号仲盛世界商城4楼(近莘庄地铁站南广场)"},{"poiid":"B2094757D06FA3F5429C","title":"避风塘(莘庄仲盛店)","lon":"121.38778778","lat":"31.107847205","category":"72","category_name":"广东菜","address":"闵行区都市路5001号仲盛世界商城4楼(近莘庄地铁南广场)"},{"poiid":"B2094757D06FABFD489B","title":"赤坂亭(莘庄仲盛店)","lon":"121.38726","lat":"31.10715","category":"95","category_name":"日本料理","address":"闵行区都市路5001号仲盛世界商城4楼7-9号商铺(近莘朱路)"},{"poiid":"B2094757D06FA6F9439D","title":"星期八小镇","lon":"121.387811","lat":"31.107845","category":"248","category_name":"生活娱乐","address":"闵行区都市路5001号莘庄仲盛五楼"},{"poiid":"B2094655D268A3F44693","title":"哈根达斯 莘朱路店 Haagen-Dazs","lon":"121.385122054","lat":"31.106921793","category":"113","category_name":"冷饮店","address":"闵行区莘朱路168号1楼GF-11商铺(近仲盛世界商城)"},{"poiid":"B2094757D06FA0F44492","title":"釜山料理 都市路店 Pankoo","lon":"121.386751054","lat":"31.107269793","category":"96","category_name":"韩国料理","address":"闵行区都市路5001号仲盛世界商城4楼14号(近莘庄地铁南广场)"},{"poiid":"B2094757DA6FA3F9439B","title":"莘庄仲盛南广场","lon":"121.386192","lat":"31.1077689999998","category":"249","category_name":"购物服务","address":"闵行区都市路5001号"},{"poiid":"B2094757DA6FA3FD4299","title":"花亭日本料理","lon":"121.386192","lat":"31.1077689999998","category":"95","category_name":"日本料理","address":"上海闵行区都市路5001号仲盛世界广场5楼"},{"poiid":"B2094757D06AA0F4479C","title":"霖 上海味道","lon":"121.387078857","lat":"31.107042503","category":"76","category_name":"上海菜","address":"闵行区都市路5001号仲盛世界商城4楼(近莘庄地铁站)"},{"poiid":"B2094757DA6FA3F4449A","title":"赤坂亭(莘庄龙之梦店)","lon":"121.380429267886","lat":"31.1055304292266","category":"269","category_name":"烧烤","address":"闵行区沪闵路6088号莘庄凯德龙之梦购物中心4楼24-27号(近莘建路)"},{"poiid":"B2094750D26BA3FE469B","title":"健康煮 仲盛店","lon":"121.386192","lat":"31.107769","category":"86","category_name":"火锅店","address":"闵行区都市路5001号仲盛世界商城5楼13号商铺(近莘庄地铁南广场)"},{"poiid":"B2094757D06FABFF4192","title":"哈根达斯(莘庄仲盛店)","lon":"121.38690185","lat":"31.10841953","category":"113","category_name":"冷饮店","address":"上海闵行区都市路5001号仲盛世界商城1楼GF-11商铺"},{"poiid":"B2094757D068A6FA459E","title":"莘城中央公园","lon":"121.38701","lat":"31.10496","category":"196","category_name":"公园","address":"闵行区闵城路180号(近珠城路)"},{"poiid":"B2094750D76FA3FA489A","title":"代官山","lon":"121.387","lat":"31.1081","category":"96","category_name":"韩国料理","address":"闵行区莘庄站南广场(近莘庄地铁站)"},{"poiid":"B2094757D06FA2F8459D","title":"家乐福(莘庄店)","lon":"121.387001","lat":"31.106349693","category":"118","category_name":"超级市场","address":"闵行区都市路5001号仲盛世界商场B1楼(近莘庄地铁南广场)"},{"poiid":"B2094757D06AA6FE489B","title":"好世鹿鸣苑","lon":"121.38392","lat":"31.105864","category":"500","category_name":"未知分类","address":"上海市闵行区闵城路199弄"},{"poiid":"B2094757D06BA4F5489F","title":"重庆临江门老火锅(莘庄店)","lon":"121.38712385","lat":"31.106368039","category":"86","category_name":"火锅店","address":"闵行区都市路5001号仲盛世界商城4楼30号商铺(近莘庄地铁南广场)"},{"poiid":"B2094757DB69A6FF4793","title":"新贝乐意式休闲餐厅 莘庄仲盛店","lon":"121.386192","lat":"31.107769","category":"94","category_name":"西餐厅","address":"闵行区都市路5001号仲盛世界商城B1楼(近莘庄地铁南广场)"},{"poiid":"B2094757D06FABFC4793","title":"禾绿回转寿司 莘庄店","lon":"121.386740054","lat":"31.107234793","category":"95","category_name":"日本料理","address":"闵行区都市路5001号仲盛世界商城4楼(近莘庄地铁南广场)"},{"poiid":"B2094757D664A1F9449D","title":"597素餐厅","lon":"121.386883","lat":"31.107371","category":"89","category_name":"中式素餐馆","address":"闵行区都市路5001号仲盛世界商城5楼10号(近莘庄地铁南广场)"},{"poiid":"B2094757DB69AAFD4992","title":"　coco壱番屋","lon":"121.38759","lat":"31.10799","category":"95","category_name":"日本料理","address":"闵行区都市路5001号仲盛世界商城B1楼(近绝味鸭脖)"},{"poiid":"B2094753D36FA0F5479B","title":"maan coffee","lon":"121.385062","lat":"31.107086","category":"500","category_name":"未知分类","address":"上海市 珠城路158号(近富都路)"},{"poiid":"B2094750D165A1F8489C","title":"尚一汤(莘庄仲盛店)","lon":"121.387008","lat":"31.107591","category":"247","category_name":"餐饮美食","address":"闵行区都市路5001号仲盛世界商城4楼33室(近莘朱路)"},{"poiid":"B2094753D268A7FF4798","title":"居食屋和民","lon":"121.38634","lat":"31.106742","category":"247","category_name":"餐饮美食","address":"上海市 都市路5001号仲盛世界商城4楼(近莘庄地铁站)"},{"poiid":"B2094757D06FA0F5499A","title":"呷哺呷哺(莘庄仲盛店)","lon":"121.38770798","lat":"31.10778429","category":"86","category_name":"火锅店","address":"闵行区闵行区都市路5001号仲盛世界商城B1楼07-08商铺(梅陇西路莘朱路)"},{"poiid":"B2094757D064A1F8479C","title":"味千拉面(仲盛店)","lon":"121.38691785","lat":"31.108258527","category":"247","category_name":"餐饮美食","address":"上海仲盛世界商城"},{"poiid":"B2094757D16DA2FA479B","title":"藏魅 私房菜","lon":"121.386983857","lat":"31.1066484951","category":"76","category_name":"上海菜","address":"闵行区都市路5001号仲盛世界商城4楼20号商铺(近莘庄地铁南广场)"},{"poiid":"B2094757D568A7FD499A","title":"山间堂瓦罐煨汤莘庄店","lon":"121.38732259","lat":"31.10718479","category":"257","category_name":"中餐厅","address":"都市路5001号仲盛世界商城4层15室"},{"poiid":"B2094751DA6AA6F54193","title":"宝珠奶酪 仲盛店","lon":"121.387329","lat":"31.106171","category":"247","category_name":"餐饮美食","address":null},{"poiid":"B2094757D168A3F84893","title":"莘莊仲盛","lon":"121.386985857","lat":"31.1083305288","category":"500","category_name":"未知分类","address":"上海市闵行区莘建东路"},{"poiid":"B2094757D16EA7F54293","title":"达加马巴西烤肉(莘庄仲盛店)","lon":"121.386576524","lat":"31.1069188338","category":"94","category_name":"西餐厅","address":"闵行区都市路5001号仲盛世界商城4楼(近莘庄地铁南广场)"},{"poiid":"B2094757D66AA6F94992","title":"余记小菜","lon":"121.386692054","lat":"31.107262793","category":"76","category_name":"上海菜","address":"闵行区都市路5001号仲盛世界商城4楼(近莘庄地铁南广场)"},{"poiid":"B2094757D06FA4F94598","title":"麦当劳(莘庄仲盛店)","lon":"121.38765","lat":"31.10726","category":"68","category_name":"快餐厅","address":"闵行区都市路5001号仲盛世界商城B1楼(近莘庄地铁南广场)"},{"poiid":"B2094757D06FA4FF489C","title":"DQ冰雪皇后(仲盛店)","lon":"121.38769","lat":"31.10733","category":"113","category_name":"冷饮店","address":"闵行区都市路5001号仲盛世界商城B1楼02号(近莘庄地铁南广场)"},{"poiid":"B2094757D068A0F84998","title":"一兆韦德(莘庄仲盛会所)","lon":"121.38801","lat":"31.10581","category":"221","category_name":"健身中心","address":"闵行区都市路5001号仲盛世界商城内(近莘庄地铁南广场)"},{"poiid":"B2094757D46FA7FF4498","title":"汉堡王 都市路店 Burger King","lon":"121.386724054","lat":"31.107221793","category":"68","category_name":"快餐厅","address":"闵行区都市路5001号仲盛世界商城B1楼(近莘庄地铁南广场)"},{"poiid":"B2094757D06AA7F9429D","title":"翼立运动俱乐部","lon":"121.38538","lat":"31.10464","category":"148","category_name":"美容美发店","address":"闵行区闵城路265号(近莘朱路)"},{"poiid":"B2094751D269A4F84192","title":"赤板亭","lon":"121.383094","lat":"31.10605","category":"247","category_name":"餐饮美食","address":"莘庄龙之梦"},{"poiid":"B209475DD26DA1F44693","title":"小辉哥火锅（仲盛店）","lon":"121.38655","lat":"31.106878","category":"247","category_name":"餐饮美食","address":"上海市 都市路5001号仲盛世界商城5F14B"},{"poiid":"B2094757D069AAFC4798","title":"棒约翰比萨 仲盛店 Papa John's Pizza","lon":"121.386740054","lat":"31.107234793","category":"94","category_name":"西餐厅","address":"闵行区都市路5001号仲盛世界商城4楼(近莘庄地铁南广场)"},{"poiid":"B2094750D66CA1FA489B","title":"上影CGV国际影城","lon":"121.385162","lat":"31.108039","category":"178","category_name":"电影院","address":"仲盛商场"},{"poiid":"B2094757D06FA0F5409F","title":"85度C(莘朱店)","lon":"121.3871","lat":"31.10862","category":"112","category_name":"糕饼店","address":"闵行区莘朱路270弄23号(近地铁莘庄站南广场)"},{"poiid":"B2094753D765AAFB479B","title":"caffebene","lon":"121.38301","lat":"31.106201","category":"500","category_name":"未知分类","address":"上海市 莘庄龙之梦"},{"poiid":"B2094751D56DA7F54893","title":"芋贵人甜品店(莘庄仲盛店)","lon":"121.38619","lat":"31.10776","category":"67","category_name":"甜品店","address":"闵行区都市路5001号仲盛世界商城B1楼45号铺(近莘城中央公园)"},{"poiid":"B2094757D06FA7F9439B","title":"超级鸡车(莘朱路店)","lon":"121.386578","lat":"31.109122","category":"68","category_name":"快餐厅","address":"闵行区莘朱路270弄27号(近地铁莘庄站南广场)"},{"poiid":"B2094757D06EAAFA489B","title":"百盛购物中心(莘庄店)","lon":"121.38757485","lat":"31.106196486","category":"119","category_name":"商场","address":"上海闵行区都市路5001号仲盛世界商城1-3F(近莘庄地铁站南广场)"},{"poiid":"B2094757D568A7F8409A","title":"好乐迪(闵城路)","lon":"121.38731283","lat":"31.10717882","category":"170","category_name":"KTV","address":"闵行区都市路5001号仲盛世界商城4楼(近莘庄地铁南广场)"},{"poiid":"B2094757DB69A0F94293","title":"外婆家 仲盛广场店","lon":"121.3877248764","lat":"31.107900442917","category":"74","category_name":"江苏菜","address":"都市路5001号仲盛世界商城4楼近莘庄地铁南广场"},{"poiid":"B2094750D26EA2F8469F","title":"57度湘 仲盛店","lon":"121.38637304306","lat":"31.10749625872","category":"77","category_name":"湖南菜","address":"闵行区都市路5001号仲盛世界商场4楼17C铺(近名都路)"},{"poiid":"B2094750DB65A5F8479F","title":"伊秀手握寿司（仲盛店）","lon":"121.38619","lat":"31.10776","category":"95","category_name":"日本料理","address":"闵行区莘庄地铁站内"},{"poiid":"B2094757D06FA2F94499","title":"豆捞坊(莘庄仲盛店)","lon":"121.38644","lat":"31.10676","category":"86","category_name":"火锅店","address":"闵行区都市路5001号仲盛世界商城4楼(近莘庄地铁站南广场)"},{"poiid":"B2094757D06FA3F5429C","title":"避风塘(莘庄仲盛店)","lon":"121.38778778","lat":"31.107847205","category":"72","category_name":"广东菜","address":"闵行区都市路5001号仲盛世界商城4楼(近莘庄地铁南广场)"},{"poiid":"B2094757D06FABFD489B","title":"赤坂亭(莘庄仲盛店)","lon":"121.38726","lat":"31.10715","category":"95","category_name":"日本料理","address":"闵行区都市路5001号仲盛世界商城4楼7-9号商铺(近莘朱路)"},{"poiid":"B2094757D06FA6F9439D","title":"星期八小镇","lon":"121.387811","lat":"31.107845","category":"248","category_name":"生活娱乐","address":"闵行区都市路5001号莘庄仲盛五楼"},{"poiid":"B2094655D268A3F44693","title":"哈根达斯 莘朱路店 Haagen-Dazs","lon":"121.385122054","lat":"31.106921793","category":"113","category_name":"冷饮店","address":"闵行区莘朱路168号1楼GF-11商铺(近仲盛世界商城)"},{"poiid":"B2094757D06FA0F44492","title":"釜山料理 都市路店 Pankoo","lon":"121.386751054","lat":"31.107269793","category":"96","category_name":"韩国料理","address":"闵行区都市路5001号仲盛世界商城4楼14号(近莘庄地铁南广场)"},{"poiid":"B2094757DA6FA3F9439B","title":"莘庄仲盛南广场","lon":"121.386192","lat":"31.1077689999998","category":"249","category_name":"购物服务","address":"闵行区都市路5001号"},{"poiid":"B2094757DA6FA3FD4299","title":"花亭日本料理","lon":"121.386192","lat":"31.1077689999998","category":"95","category_name":"日本料理","address":"上海闵行区都市路5001号仲盛世界广场5楼"},{"poiid":"B2094757D06AA0F4479C","title":"霖 上海味道","lon":"121.387078857","lat":"31.107042503","category":"76","category_name":"上海菜","address":"闵行区都市路5001号仲盛世界商城4楼(近莘庄地铁站)"},{"poiid":"B2094757DA6FA3F4449A","title":"赤坂亭(莘庄龙之梦店)","lon":"121.380429267886","lat":"31.1055304292266","category":"269","category_name":"烧烤","address":"闵行区沪闵路6088号莘庄凯德龙之梦购物中心4楼24-27号(近莘建路)"},{"poiid":"B2094750D26BA3FE469B","title":"健康煮 仲盛店","lon":"121.386192","lat":"31.107769","category":"86","category_name":"火锅店","address":"闵行区都市路5001号仲盛世界商城5楼13号商铺(近莘庄地铁南广场)"},{"poiid":"B2094757D06FABFF4192","title":"哈根达斯(莘庄仲盛店)","lon":"121.38690185","lat":"31.10841953","category":"113","category_name":"冷饮店","address":"上海闵行区都市路5001号仲盛世界商城1楼GF-11商铺"},{"poiid":"B2094757D068A6FA459E","title":"莘城中央公园","lon":"121.38701","lat":"31.10496","category":"196","category_name":"公园","address":"闵行区闵城路180号(近珠城路)"},{"poiid":"B2094750D76FA3FA489A","title":"代官山","lon":"121.387","lat":"31.1081","category":"96","category_name":"韩国料理","address":"闵行区莘庄站南广场(近莘庄地铁站)"},{"poiid":"B2094757D06FA2F8459D","title":"家乐福(莘庄店)","lon":"121.387001","lat":"31.106349693","category":"118","category_name":"超级市场","address":"闵行区都市路5001号仲盛世界商场B1楼(近莘庄地铁南广场)"},{"poiid":"B2094757D06AA6FE489B","title":"好世鹿鸣苑","lon":"121.38392","lat":"31.105864","category":"500","category_name":"未知分类","address":"上海市闵行区闵城路199弄"},{"poiid":"B2094757D06BA4F5489F","title":"重庆临江门老火锅(莘庄店)","lon":"121.38712385","lat":"31.106368039","category":"86","category_name":"火锅店","address":"闵行区都市路5001号仲盛世界商城4楼30号商铺(近莘庄地铁南广场)"},{"poiid":"B2094757DB69A6FF4793","title":"新贝乐意式休闲餐厅 莘庄仲盛店","lon":"121.386192","lat":"31.107769","category":"94","category_name":"西餐厅","address":"闵行区都市路5001号仲盛世界商城B1楼(近莘庄地铁南广场)"},{"poiid":"B2094757D06FABFC4793","title":"禾绿回转寿司 莘庄店","lon":"121.386740054","lat":"31.107234793","category":"95","category_name":"日本料理","address":"闵行区都市路5001号仲盛世界商城4楼(近莘庄地铁南广场)"},{"poiid":"B2094757D664A1F9449D","title":"597素餐厅","lon":"121.386883","lat":"31.107371","category":"89","category_name":"中式素餐馆","address":"闵行区都市路5001号仲盛世界商城5楼10号(近莘庄地铁南广场)"},{"poiid":"B2094757DB69AAFD4992","title":"　coco壱番屋","lon":"121.38759","lat":"31.10799","category":"95","category_name":"日本料理","address":"闵行区都市路5001号仲盛世界商城B1楼(近绝味鸭脖)"},{"poiid":"B2094753D36FA0F5479B","title":"maan coffee","lon":"121.385062","lat":"31.107086","category":"500","category_name":"未知分类","address":"上海市 珠城路158号(近富都路)"},{"poiid":"B2094750D165A1F8489C","title":"尚一汤(莘庄仲盛店)","lon":"121.387008","lat":"31.107591","category":"247","category_name":"餐饮美食","address":"闵行区都市路5001号仲盛世界商城4楼33室(近莘朱路)"},{"poiid":"B2094753D268A7FF4798","title":"居食屋和民","lon":"121.38634","lat":"31.106742","category":"247","category_name":"餐饮美食","address":"上海市 都市路5001号仲盛世界商城4楼(近莘庄地铁站)"},{"poiid":"B2094757D06FA0F5499A","title":"呷哺呷哺(莘庄仲盛店)","lon":"121.38770798","lat":"31.10778429","category":"86","category_name":"火锅店","address":"闵行区闵行区都市路5001号仲盛世界商城B1楼07-08商铺(梅陇西路莘朱路)"},{"poiid":"B2094757D064A1F8479C","title":"味千拉面(仲盛店)","lon":"121.38691785","lat":"31.108258527","category":"247","category_name":"餐饮美食","address":"上海仲盛世界商城"},{"poiid":"B2094757D16DA2FA479B","title":"藏魅 私房菜","lon":"121.386983857","lat":"31.1066484951","category":"76","category_name":"上海菜","address":"闵行区都市路5001号仲盛世界商城4楼20号商铺(近莘庄地铁南广场)"},{"poiid":"B2094757D568A7FD499A","title":"山间堂瓦罐煨汤莘庄店","lon":"121.38732259","lat":"31.10718479","category":"257","category_name":"中餐厅","address":"都市路5001号仲盛世界商城4层15室"},{"poiid":"B2094751DA6AA6F54193","title":"宝珠奶酪 仲盛店","lon":"121.387329","lat":"31.106171","category":"247","category_name":"餐饮美食","address":null},{"poiid":"B2094757D168A3F84893","title":"莘莊仲盛","lon":"121.386985857","lat":"31.1083305288","category":"500","category_name":"未知分类","address":"上海市闵行区莘建东路"},{"poiid":"B2094757D16EA7F54293","title":"达加马巴西烤肉(莘庄仲盛店)","lon":"121.386576524","lat":"31.1069188338","category":"94","category_name":"西餐厅","address":"闵行区都市路5001号仲盛世界商城4楼(近莘庄地铁南广场)"},{"poiid":"B2094757D66AA6F94992","title":"余记小菜","lon":"121.386692054","lat":"31.107262793","category":"76","category_name":"上海菜","address":"闵行区都市路5001号仲盛世界商城4楼(近莘庄地铁南广场)"},{"poiid":"B2094757D06FA4F94598","title":"麦当劳(莘庄仲盛店)","lon":"121.38765","lat":"31.10726","category":"68","category_name":"快餐厅","address":"闵行区都市路5001号仲盛世界商城B1楼(近莘庄地铁南广场)"},{"poiid":"B2094757D06FA4FF489C","title":"DQ冰雪皇后(仲盛店)","lon":"121.38769","lat":"31.10733","category":"113","category_name":"冷饮店","address":"闵行区都市路5001号仲盛世界商城B1楼02号(近莘庄地铁南广场)"},{"poiid":"B2094757D068A0F84998","title":"一兆韦德(莘庄仲盛会所)","lon":"121.38801","lat":"31.10581","category":"221","category_name":"健身中心","address":"闵行区都市路5001号仲盛世界商城内(近莘庄地铁南广场)"},{"poiid":"B2094757D46FA7FF4498","title":"汉堡王 都市路店 Burger King","lon":"121.386724054","lat":"31.107221793","category":"68","category_name":"快餐厅","address":"闵行区都市路5001号仲盛世界商城B1楼(近莘庄地铁南广场)"},{"poiid":"B2094757D06AA7F9429D","title":"翼立运动俱乐部","lon":"121.38538","lat":"31.10464","category":"148","category_name":"美容美发店","address":"闵行区闵城路265号(近莘朱路)"},{"poiid":"B2094751D269A4F84192","title":"赤板亭","lon":"121.383094","lat":"31.10605","category":"247","category_name":"餐饮美食","address":"莘庄龙之梦"},{"poiid":"B209475DD26DA1F44693","title":"小辉哥火锅（仲盛店）","lon":"121.38655","lat":"31.106878","category":"247","category_name":"餐饮美食","address":"上海市 都市路5001号仲盛世界商城5F14B"},{"poiid":"B2094757D069AAFC4798","title":"棒约翰比萨 仲盛店 Papa John's Pizza","lon":"121.386740054","lat":"31.107234793","category":"94","category_name":"西餐厅","address":"闵行区都市路5001号仲盛世界商城4楼(近莘庄地铁南广场)"},{"poiid":"B2094750D66CA1FA489B","title":"上影CGV国际影城","lon":"121.385162","lat":"31.108039","category":"178","category_name":"电影院","address":"仲盛商场"},{"poiid":"B2094757D06FA0F5409F","title":"85度C(莘朱店)","lon":"121.3871","lat":"31.10862","category":"112","category_name":"糕饼店","address":"闵行区莘朱路270弄23号(近地铁莘庄站南广场)"},{"poiid":"B2094753D765AAFB479B","title":"caffebene","lon":"121.38301","lat":"31.106201","category":"500","category_name":"未知分类","address":"上海市 莘庄龙之梦"},{"poiid":"B2094751D56DA7F54893","title":"芋贵人甜品店(莘庄仲盛店)","lon":"121.38619","lat":"31.10776","category":"67","category_name":"甜品店","address":"闵行区都市路5001号仲盛世界商城B1楼45号铺(近莘城中央公园)"},{"poiid":"B2094757D06FA7F9439B","title":"超级鸡车(莘朱路店)","lon":"121.386578","lat":"31.109122","category":"68","category_name":"快餐厅","address":"闵行区莘朱路270弄27号(近地铁莘庄站南广场)"}]