[{"poiid":"B2094757D06EAAF94092","title":"凯德·龙之梦购物中心(莘庄·闵行广场)","lon":"121.3791786","lat":"31.1089444","category":"119","category_name":"商场","address":"闵行区沪闵路6088号"},{"poiid":"B2094757D06FA1F4489B","title":"好乐迪量贩式KTV(莘庄龙之梦店)","lon":"121.37820585","lat":"31.108289528","category":"170","category_name":"KTV","address":"闵行区沪闵路6088号莘庄凯德龙之梦购物中心内(近莘建路)"},{"poiid":"B2094757D764A5F4489E","title":"星巴克(莘庄龙之梦店)","lon":"121.3794493","lat":"31.1101617","category":"260","category_name":"其他","address":"闵行区沪闵路6088号莘庄凯德龙之梦购物中心(近莘建路)"},{"poiid":"B2094750DB65A5F8479F","title":"伊秀手握寿司（仲盛店）","lon":"121.38619","lat":"31.10776","category":"95","category_name":"日本料理","address":"闵行区莘庄地铁站内"},{"poiid":"B2094757DA64A2F9449D","title":"外婆家","lon":"121.38041168","lat":"31.11016523","category":"247","category_name":"餐饮美食","address":"闵行区都市路5001号仲盛世界商城4楼(近莘庄地铁南广场)"},{"poiid":"B2094757D068A6FF459D","title":"新辣道鱼火锅(莘庄龙之梦店)","lon":"121.37954385","lat":"31.107809518","category":"86","category_name":"火锅店","address":"闵行区沪闵路6088号莘庄凯德龙之梦购物中心4楼(近莘建路)"},{"poiid":"B2094757D06FA1F4449F","title":"西贝莜面村(莘庄龙之梦店)","lon":"121.37950732","lat":"31.107391861","category":"257","category_name":"中餐厅","address":"闵行区沪闵路6088号莘庄凯德龙之梦购物中心B2楼(近莘建路)"},{"poiid":"B2094757D46CA7FB449C","title":"哈根达斯 莘庄龙之梦店","lon":"121.3791786","lat":"31.1089444","category":"113","category_name":"冷饮店","address":"闵行区沪闵路6088号莘庄凯德龙之梦购物中心1楼1-49商铺(近莘松路)"},{"poiid":"B2094757DA6FA3F4449A","title":"赤坂亭(莘庄龙之梦店)","lon":"121.380429267886","lat":"31.1055304292266","category":"269","category_name":"烧烤","address":"闵行区沪闵路6088号莘庄凯德龙之梦购物中心4楼24-27号(近莘建路)"},{"poiid":"B2094757D468A4FC499C","title":"斗牛士 莘庄龙之梦店","lon":"121.3791786","lat":"31.1089444","category":"94","category_name":"西餐厅","address":"闵行区沪闵路6088号莘庄凯德龙之梦购物中心B2楼(近莘建路)"},{"poiid":"B2094757DA6FA3FD4299","title":"花亭日本料理","lon":"121.386192","lat":"31.1077689999998","category":"95","category_name":"日本料理","address":"上海闵行区都市路5001号仲盛世界广场5楼"},{"poiid":"B2094757D764AAFA479D","title":"家有好面 莘庄龙之梦店","lon":"121.3791786","lat":"31.1089444","category":"68","category_name":"快餐厅","address":"闵行区沪闵路6088号莘庄凯德龙之梦购物中心B1楼54号(近莘建路)"},{"poiid":"B2094757D16EA0F94899","title":"斗牛士(凯得龙之梦)","lon":"121.37839885","lat":"31.107270507","category":"500","category_name":"未知分类","address":"上海市闵行区莘凌路"},{"poiid":"B2094757D068A4FC409A","title":"呀咪咖喱屋(莘庄龙之梦店)","lon":"121.37817085","lat":"31.108225526","category":"94","category_name":"西餐厅","address":"上海闵行区沪闵路6088号莘庄凯德龙之梦购物中心B1楼(近莘建路)"},{"poiid":"B2094757D069A0F9469C","title":"自由港量贩式KTV(莘庄店)","lon":"121.37836","lat":"31.10617","category":"170","category_name":"KTV","address":"闵行区莘东路100号(近莘浜路)"},{"poiid":"B2094750D76FAAFF439C","title":"PANKOO釜山料理(莘庄龙之梦店)","lon":"121.379","lat":"31.1089","category":"96","category_name":"韩国料理","address":"闵行区沪闵路6088号莘庄凯德龙之梦购物中心4楼(近莘建路)"},{"poiid":"B2094757D06AA6FE489B","title":"好世鹿鸣苑","lon":"121.38392","lat":"31.105864","category":"500","category_name":"未知分类","address":"上海市闵行区闵城路199弄"},{"poiid":"B2094757D06AA3F4409F","title":"呷哺呷哺(莘庄龙之梦店)","lon":"121.37854785","lat":"31.108207526","category":"86","category_name":"火锅店","address":"闵行区沪闵路6088号莘庄凯德龙之梦购物中心B2楼(近莘建路)"},{"poiid":"B2094757D16BA1FE479F","title":"荔餐厅(莘庄龙之梦店)","lon":"121.37898685","lat":"31.109076843","category":"500","category_name":"未知分类","address":"闵行区沪闵路6088号莘庄凯德龙之梦2楼32号(近莘建路)"},{"poiid":"B2094757D06AA0FA449B","title":"小巴辣子(莘庄龙之梦店)","lon":"121.37890105","lat":"31.109096444","category":"247","category_name":"餐饮美食","address":"上海闵行区沪闵路6088号莘庄凯德龙之梦购物中心3楼03-22号"},{"poiid":"B2094753D36FA0F5479B","title":"maan coffee","lon":"121.385062","lat":"31.107086","category":"500","category_name":"未知分类","address":"上海市 珠城路158号(近富都路)"},{"poiid":"B2094750D268A7FE489F","title":"威尔士健身中心莘庄龙之梦店","lon":"121.378494","lat":"31.10869","category":"248","category_name":"生活娱乐","address":"沪闵路6088号凯德龙之梦商务楼6楼"},{"poiid":"B2094757D06AA1F84499","title":"南翔1900(莘庄龙之梦店)","lon":"121.37819785","lat":"31.108182525","category":"68","category_name":"快餐厅","address":"闵行区沪闵路6088号莘庄凯德龙之梦购物中心3楼(近莘建路)"},{"poiid":"B2094757D06BA5FE489D","title":"DQ冰雪皇后(莘庄龙之梦店)","lon":"121.37827885","lat":"31.108152525","category":"113","category_name":"冷饮店","address":"长宁区仙霞西路88号百联西郊购物中心1楼(近哈密路)"},{"poiid":"B2094753D268A7FF4798","title":"居食屋和民","lon":"121.38634","lat":"31.106742","category":"247","category_name":"餐饮美食","address":"上海市 都市路5001号仲盛世界商城4楼(近莘庄地铁站)"},{"poiid":"B2094757D069A4FF4492","title":"点沁(莘庄龙之梦店)","lon":"121.37888285","lat":"31.108895206","category":"68","category_name":"快餐厅","address":"闵行区沪闵路6088号凯德龙之梦2楼29号"},{"poiid":"B2094757D469A7FB4092","title":"霖上海菜 莘庄龙之梦店","lon":"121.3791786","lat":"31.1089444","category":"76","category_name":"上海菜","address":"闵行区沪闵路6088号莘庄凯德龙之梦购物中心B1楼(近莘建路)"},{"poiid":"B2094757D465A5FF469E","title":"时光角落咖啡馆 Corner Cafe","lon":"121.38153971456","lat":"31.109362670664","category":"65","category_name":"咖啡厅","address":"闵行区莘建东路399弄26支弄54号(近莘庄地铁站北广场)"},{"poiid":"B2094757D16DA0FE449E","title":"铁板先生 凯德龙之梦店","lon":"121.3791792","lat":"31.1089446","category":"269","category_name":"烧烤","address":"闵行区沪闵路6088号莘庄凯德龙之梦购物中心B1楼(近莘建路)"},{"poiid":"B209475CD46FAAF5459F","title":"鱼酷活鱼现烤","lon":"121.378715","lat":"31.10803","category":"247","category_name":"餐饮美食","address":"上海市 莘庄凯德龙之梦B1"},{"poiid":"B2094757D16EA1F5489B","title":"味千拉面(莘庄龙之梦店)","lon":"121.38062575","lat":"31.109819058","category":"95","category_name":"日本料理","address":"闵行区沪闵路6088号莘庄凯德龙之梦购物中心内(近莘建路)"},{"poiid":"B2094751D269A4F84192","title":"赤板亭","lon":"121.383094","lat":"31.10605","category":"247","category_name":"餐饮美食","address":"莘庄龙之梦"},{"poiid":"B2094757D465A3FF4993","title":"元利香辣蟹 莘庄龙之梦店","lon":"121.3791786","lat":"31.1089444","category":"71","category_name":"四川菜","address":"闵行区沪闵路6088号莘庄凯德龙之梦购物中心3楼(近莘建路)"},{"poiid":"B2094750D26DA0F4479E","title":"奥妙趣玩具王国","lon":"121.380441","lat":"31.108907","category":"248","category_name":"生活娱乐","address":"闵行区都市路5001号仲盛世界商城2-23号(近莘庄地铁站)"},{"poiid":"B209475DD26DA5F5409A","title":"糖纸甜品","lon":"121.38272","lat":"31.106723","category":"247","category_name":"餐饮美食","address":"上海市 上海市闵行区莘庄龙之梦B2"},{"poiid":"B2094757D06AA7F9429D","title":"翼立运动俱乐部","lon":"121.38538","lat":"31.10464","category":"148","category_name":"美容美发店","address":"闵行区闵城路265号(近莘朱路)"},{"poiid":"B2094757D16CA5F5469B","title":"肯德基 KFC(莘庄龙之梦店)","lon":"121.378955857","lat":"31.1082485271","category":"68","category_name":"快餐厅","address":"闵行区沪闵路6088号莘庄凯德龙之梦购物中心(近莘建路)"},{"poiid":"B2094753D765AAFB479B","title":"caffebene","lon":"121.38301","lat":"31.106201","category":"500","category_name":"未知分类","address":"上海市 莘庄龙之梦"},{"poiid":"B2094757D164A5FC429A","title":"箸家三样菜(莘庄龙之梦店)","lon":"121.378885857","lat":"31.1083725296","category":"247","category_name":"餐饮美食","address":"上海市闵行区沪闵路6088号凯德龙之梦B2"},{"poiid":"B2094750D66CA1FA489B","title":"上影CGV国际影城","lon":"121.385162","lat":"31.108039","category":"178","category_name":"电影院","address":"仲盛商场"},{"poiid":"B2094757D06FA4F4469A","title":"85度C(莘建店)","lon":"121.37843","lat":"31.10652","category":"112","category_name":"糕饼店","address":"闵行区莘建路71号(近莘东路)"},{"poiid":"B2094750D26CA6FB4193","title":"釜山料理","lon":"121.379203","lat":"31.10824","category":"247","category_name":"餐饮美食","address":"莘庄龙之梦"},{"poiid":"B2094757D16CA2F9419F","title":"汉堡王(莘庄龙之梦店)","lon":"121.37944575","lat":"31.108537632","category":"68","category_name":"快餐厅","address":"闵行区沪闵路6088号莘庄凯德龙之梦购物中心内(近莘建路)"},{"poiid":"B2094757D764A5FA4693","title":"三商巧福 莘庄龙之梦店","lon":"121.3791786","lat":"31.1089444","category":"68","category_name":"快餐厅","address":"闵行区沪闵路6088号莘庄凯德龙之梦购物中心B2楼57号(近莘建路)"},{"poiid":"B2094753D16DA4FA489C","title":"漫咖啡莘庄店","lon":"121.381522","lat":"31.109003","category":"500","category_name":"未知分类","address":"上海市 都市路4855号"},{"poiid":"B2094757D064A3FE479D","title":"牛蛙风暴(莘庄龙之梦店)","lon":"121.37850685","lat":"31.108364529","category":"71","category_name":"四川菜","address":"闵行区沪闵路6088号凯德龙之梦B1楼15室"},{"poiid":"B2094753D36FA7FD489F","title":"maan coffee","lon":"121.383476","lat":"31.106957","category":"500","category_name":"未知分类","address":"上海市 闵行区珠城路158号解放大厦三座一楼"},{"poiid":"B2094753D564A0F4439C","title":"CaffeBene","lon":"121.38134","lat":"31.10589","category":"500","category_name":"未知分类","address":"上海市 莘庄凯德龙之梦"},{"poiid":"B2094654DB6CAAF94592","title":"开城新村","lon":"121.38173","lat":"31.107679","category":"47","category_name":"住宅区","address":"莘朱路81弄"},{"poiid":"B2094757D66DABFB489D","title":"喜多丽韩国料理","lon":"121.37845075","lat":"31.108738136","category":"96","category_name":"韩国料理","address":"闵行区沪闵路6088号凯德龙之梦B1楼16-17号(近莘建路)"},{"poiid":"B2094757D06EAAF94092","title":"凯德·龙之梦购物中心(莘庄·闵行广场)","lon":"121.3791786","lat":"31.1089444","category":"119","category_name":"商场","address":"闵行区沪闵路6088号"},{"poiid":"B2094757D06FA1F4489B","title":"好乐迪量贩式KTV(莘庄龙之梦店)","lon":"121.37820585","lat":"31.108289528","category":"170","category_name":"KTV","address":"闵行区沪闵路6088号莘庄凯德龙之梦购物中心内(近莘建路)"},{"poiid":"B2094757D764A5F4489E","title":"星巴克(莘庄龙之梦店)","lon":"121.3794493","lat":"31.1101617","category":"260","category_name":"其他","address":"闵行区沪闵路6088号莘庄凯德龙之梦购物中心(近莘建路)"},{"poiid":"B2094750DB65A5F8479F","title":"伊秀手握寿司（仲盛店）","lon":"121.38619","lat":"31.10776","category":"95","category_name":"日本料理","address":"闵行区莘庄地铁站内"},{"poiid":"B2094757DA64A2F9449D","title":"外婆家","lon":"121.38041168","lat":"31.11016523","category":"247","category_name":"餐饮美食","address":"闵行区都市路5001号仲盛世界商城4楼(近莘庄地铁南广场)"},{"poiid":"B2094757D068A6FF459D","title":"新辣道鱼火锅(莘庄龙之梦店)","lon":"121.37954385","lat":"31.107809518","category":"86","category_name":"火锅店","address":"闵行区沪闵路6088号莘庄凯德龙之梦购物中心4楼(近莘建路)"},{"poiid":"B2094757D06FA1F4449F","title":"西贝莜面村(莘庄龙之梦店)","lon":"121.37950732","lat":"31.107391861","category":"257","category_name":"中餐厅","address":"闵行区沪闵路6088号莘庄凯德龙之梦购物中心B2楼(近莘建路)"},{"poiid":"B2094757D46CA7FB449C","title":"哈根达斯 莘庄龙之梦店","lon":"121.3791786","lat":"31.1089444","category":"113","category_name":"冷饮店","address":"闵行区沪闵路6088号莘庄凯德龙之梦购物中心1楼1-49商铺(近莘松路)"},{"poiid":"B2094757DA6FA3F4449A","title":"赤坂亭(莘庄龙之梦店)","lon":"121.380429267886","lat":"31.1055304292266","category":"269","category_name":"烧烤","address":"闵行区沪闵路6088号莘庄凯德龙之梦购物中心4楼24-27号(近莘建路)"},{"poiid":"B2094757D468A4FC499C","title":"斗牛士 莘庄龙之梦店","lon":"121.3791786","lat":"31.1089444","category":"94","category_name":"西餐厅","address":"闵行区沪闵路6088号莘庄凯德龙之梦购物中心B2楼(近莘建路)"},{"poiid":"B2094757DA6FA3FD4299","title":"花亭日本料理","lon":"121.386192","lat":"31.1077689999998","category":"95","category_name":"日本料理","address":"上海闵行区都市路5001号仲盛世界广场5楼"},{"poiid":"B2094757D764AAFA479D","title":"家有好面 莘庄龙之梦店","lon":"121.3791786","lat":"31.1089444","category":"68","category_name":"快餐厅","address":"闵行区沪闵路6088号莘庄凯德龙之梦购物中心B1楼54号(近莘建路)"},{"poiid":"B2094757D16EA0F94899","title":"斗牛士(凯得龙之梦)","lon":"121.37839885","lat":"31.107270507","category":"500","category_name":"未知分类","address":"上海市闵行区莘凌路"},{"poiid":"B2094757D068A4FC409A","title":"呀咪咖喱屋(莘庄龙之梦店)","lon":"121.37817085","lat":"31.108225526","category":"94","category_name":"西餐厅","address":"上海闵行区沪闵路6088号莘庄凯德龙之梦购物中心B1楼(近莘建路)"},{"poiid":"B2094757D069A0F9469C","title":"自由港量贩式KTV(莘庄店)","lon":"121.37836","lat":"31.10617","category":"170","category_name":"KTV","address":"闵行区莘东路100号(近莘浜路)"},{"poiid":"B2094750D76FAAFF439C","title":"PANKOO釜山料理(莘庄龙之梦店)","lon":"121.379","lat":"31.1089","category":"96","category_name":"韩国料理","address":"闵行区沪闵路6088号莘庄凯德龙之梦购物中心4楼(近莘建路)"},{"poiid":"B2094757D06AA6FE489B","title":"好世鹿鸣苑","lon":"121.38392","lat":"31.105864","category":"500","category_name":"未知分类","address":"上海市闵行区闵城路199弄"},{"poiid":"B2094757D06AA3F4409F","title":"呷哺呷哺(莘庄龙之梦店)","lon":"121.37854785","lat":"31.108207526","category":"86","category_name":"火锅店","address":"闵行区沪闵路6088号莘庄凯德龙之梦购物中心B2楼(近莘建路)"},{"poiid":"B2094757D16BA1FE479F","title":"荔餐厅(莘庄龙之梦店)","lon":"121.37898685","lat":"31.109076843","category":"500","category_name":"未知分类","address":"闵行区沪闵路6088号莘庄凯德龙之梦2楼32号(近莘建路)"},{"poiid":"B2094757D06AA0FA449B","title":"小巴辣子(莘庄龙之梦店)","lon":"121.37890105","lat":"31.109096444","category":"247","category_name":"餐饮美食","address":"上海闵行区沪闵路6088号莘庄凯德龙之梦购物中心3楼03-22号"},{"poiid":"B2094753D36FA0F5479B","title":"maan coffee","lon":"121.385062","lat":"31.107086","category":"500","category_name":"未知分类","address":"上海市 珠城路158号(近富都路)"},{"poiid":"B2094750D268A7FE489F","title":"威尔士健身中心莘庄龙之梦店","lon":"121.378494","lat":"31.10869","category":"248","category_name":"生活娱乐","address":"沪闵路6088号凯德龙之梦商务楼6楼"},{"poiid":"B2094757D06AA1F84499","title":"南翔1900(莘庄龙之梦店)","lon":"121.37819785","lat":"31.108182525","category":"68","category_name":"快餐厅","address":"闵行区沪闵路6088号莘庄凯德龙之梦购物中心3楼(近莘建路)"},{"poiid":"B2094757D06BA5FE489D","title":"DQ冰雪皇后(莘庄龙之梦店)","lon":"121.37827885","lat":"31.108152525","category":"113","category_name":"冷饮店","address":"长宁区仙霞西路88号百联西郊购物中心1楼(近哈密路)"},{"poiid":"B2094753D268A7FF4798","title":"居食屋和民","lon":"121.38634","lat":"31.106742","category":"247","category_name":"餐饮美食","address":"上海市 都市路5001号仲盛世界商城4楼(近莘庄地铁站)"},{"poiid":"B2094757D069A4FF4492","title":"点沁(莘庄龙之梦店)","lon":"121.37888285","lat":"31.108895206","category":"68","category_name":"快餐厅","address":"闵行区沪闵路6088号凯德龙之梦2楼29号"},{"poiid":"B2094757D469A7FB4092","title":"霖上海菜 莘庄龙之梦店","lon":"121.3791786","lat":"31.1089444","category":"76","category_name":"上海菜","address":"闵行区沪闵路6088号莘庄凯德龙之梦购物中心B1楼(近莘建路)"},{"poiid":"B2094757D465A5FF469E","title":"时光角落咖啡馆 Corner Cafe","lon":"121.38153971456","lat":"31.109362670664","category":"65","category_name":"咖啡厅","address":"闵行区莘建东路399弄26支弄54号(近莘庄地铁站北广场)"},{"poiid":"B2094757D16DA0FE449E","title":"铁板先生 凯德龙之梦店","lon":"121.3791792","lat":"31.1089446","category":"269","category_name":"烧烤","address":"闵行区沪闵路6088号莘庄凯德龙之梦购物中心B1楼(近莘建路)"},{"poiid":"B209475CD46FAAF5459F","title":"鱼酷活鱼现烤","lon":"121.378715","lat":"31.10803","category":"247","category_name":"餐饮美食","address":"上海市 莘庄凯德龙之梦B1"},{"poiid":"B2094757D16EA1F5489B","title":"味千拉面(莘庄龙之梦店)","lon":"121.38062575","lat":"31.109819058","category":"95","category_name":"日本料理","address":"闵行区沪闵路6088号莘庄凯德龙之梦购物中心内(近莘建路)"},{"poiid":"B2094751D269A4F84192","title":"赤板亭","lon":"121.383094","lat":"31.10605","category":"247","category_name":"餐饮美食","address":"莘庄龙之梦"},{"poiid":"B2094757D465A3FF4993","title":"元利香辣蟹 莘庄龙之梦店","lon":"121.3791786","lat":"31.1089444","category":"71","category_name":"四川菜","address":"闵行区沪闵路6088号莘庄凯德龙之梦购物中心3楼(近莘建路)"},{"poiid":"B2094750D26DA0F4479E","title":"奥妙趣玩具王国","lon":"121.380441","lat":"31.108907","category":"248","category_name":"生活娱乐","address":"闵行区都市路5001号仲盛世界商城2-23号(近莘庄地铁站)"},{"poiid":"B209475DD26DA5F5409A","title":"糖纸甜品","lon":"121.38272","lat":"31.106723","category":"247","category_name":"餐饮美食","address":"上海市 上海市闵行区莘庄龙之梦B2"},{"poiid":"B2094757D06AA7F9429D","title":"翼立运动俱乐部","lon":"121.38538","lat":"31.10464","category":"148","category_name":"美容美发店","address":"闵行区闵城路265号(近莘朱路)"},{"poiid":"B2094757D16CA5F5469B","title":"肯德基 KFC(莘庄龙之梦店)","lon":"121.378955857","lat":"31.1082485271","category":"68","category_name":"快餐厅","address":"闵行区沪闵路6088号莘庄凯德龙之梦购物中心(近莘建路)"},{"poiid":"B2094753D765AAFB479B","title":"caffebene","lon":"121.38301","lat":"31.106201","category":"500","category_name":"未知分类","address":"上海市 莘庄龙之梦"},{"poiid":"B2094757D164A5FC429A","title":"箸家三样菜(莘庄龙之梦店)","lon":"121.378885857","lat":"31.1083725296","category":"247","category_name":"餐饮美食","address":"上海市闵行区沪闵路6088号凯德龙之梦B2"},{"poiid":"B2094750D66CA1FA489B","title":"上影CGV国际影城","lon":"121.385162","lat":"31.108039","category":"178","category_name":"电影院","address":"仲盛商场"},{"poiid":"B2094757D06FA4F4469A","title":"85度C(莘建店)","lon":"121.37843","lat":"31.10652","category":"112","category_name":"糕饼店","address":"闵行区莘建路71号(近莘东路)"},{"poiid":"B2094750D26CA6FB4193","title":"釜山料理","lon":"121.379203","lat":"31.10824","category":"247","category_name":"餐饮美食","address":"莘庄龙之梦"},{"poiid":"B2094757D16CA2F9419F","title":"汉堡王(莘庄龙之梦店)","lon":"121.37944575","lat":"31.108537632","category":"68","category_name":"快餐厅","address":"闵行区沪闵路6088号莘庄凯德龙之梦购物中心内(近莘建路)"},{"poiid":"B2094757D764A5FA4693","title":"三商巧福 莘庄龙之梦店","lon":"121.3791786","lat":"31.1089444","category":"68","category_name":"快餐厅","address":"闵行区沪闵路6088号莘庄凯德龙之梦购物中心B2楼57号(近莘建路)"},{"poiid":"B2094753D16DA4FA489C","title":"漫咖啡莘庄店","lon":"121.381522","lat":"31.109003","category":"500","category_name":"未知分类","address":"上海市 都市路4855号"},{"poiid":"B2094757D064A3FE479D","title":"牛蛙风暴(莘庄龙之梦店)","lon":"121.37850685","lat":"31.108364529","category":"71","category_name":"四川菜","address":"闵行区沪闵路6088号凯德龙之梦B1楼15室"},{"poiid":"B2094753D36FA7FD489F","title":"maan coffee","lon":"121.383476","lat":"31.106957","category":"500","category_name":"未知分类","address":"上海市 闵行区珠城路158号解放大厦三座一楼"},{"poiid":"B2094753D564A0F4439C","title":"CaffeBene","lon":"121.38134","lat":"31.10589","category":"500","category_name":"未知分类","address":"上海市 莘庄凯德龙之梦"},{"poiid":"B2094654DB6CAAF94592","title":"开城新村","lon":"121.38173","lat":"31.107679","category":"47","category_name":"住宅区","address":"莘朱路81弄"},{"poiid":"B2094757D66DABFB489D","title":"喜多丽韩国料理","lon":"121.37845075","lat":"31.108738136","category":"96","category_name":"韩国料理","address":"闵行区沪闵路6088号凯德龙之梦B1楼16-17号(近莘建路)"},{"poiid":"B2094757D06EAAF94092","title":"凯德·龙之梦购物中心(莘庄·闵行广场)","lon":"121.3791786","lat":"31.1089444","category":"119","category_name":"商场","address":"闵行区沪闵路6088号"},{"poiid":"B2094757D06FA1F4489B","title":"好乐迪量贩式KTV(莘庄龙之梦店)","lon":"121.37820585","lat":"31.108289528","category":"170","category_name":"KTV","address":"闵行区沪闵路6088号莘庄凯德龙之梦购物中心内(近莘建路)"},{"poiid":"B2094757D764A5F4489E","title":"星巴克(莘庄龙之梦店)","lon":"121.3794493","lat":"31.1101617","category":"260","category_name":"其他","address":"闵行区沪闵路6088号莘庄凯德龙之梦购物中心(近莘建路)"},{"poiid":"B2094750DB65A5F8479F","title":"伊秀手握寿司（仲盛店）","lon":"121.38619","lat":"31.10776","category":"95","category_name":"日本料理","address":"闵行区莘庄地铁站内"},{"poiid":"B2094757DA64A2F9449D","title":"外婆家","lon":"121.38041168","lat":"31.11016523","category":"247","category_name":"餐饮美食","address":"闵行区都市路5001号仲盛世界商城4楼(近莘庄地铁南广场)"},{"poiid":"B2094757D068A6FF459D","title":"新辣道鱼火锅(莘庄龙之梦店)","lon":"121.37954385","lat":"31.107809518","category":"86","category_name":"火锅店","address":"闵行区沪闵路6088号莘庄凯德龙之梦购物中心4楼(近莘建路)"},{"poiid":"B2094757D06FA1F4449F","title":"西贝莜面村(莘庄龙之梦店)","lon":"121.37950732","lat":"31.107391861","category":"257","category_name":"中餐厅","address":"闵行区沪闵路6088号莘庄凯德龙之梦购物中心B2楼(近莘建路)"},{"poiid":"B2094757D46CA7FB449C","title":"哈根达斯 莘庄龙之梦店","lon":"121.3791786","lat":"31.1089444","category":"113","category_name":"冷饮店","address":"闵行区沪闵路6088号莘庄凯德龙之梦购物中心1楼1-49商铺(近莘松路)"},{"poiid":"B2094757DA6FA3F4449A","title":"赤坂亭(莘庄龙之梦店)","lon":"121.380429267886","lat":"31.1055304292266","category":"269","category_name":"烧烤","address":"闵行区沪闵路6088号莘庄凯德龙之梦购物中心4楼24-27号(近莘建路)"},{"poiid":"B2094757D468A4FC499C","title":"斗牛士 莘庄龙之梦店","lon":"121.3791786","lat":"31.1089444","category":"94","category_name":"西餐厅","address":"闵行区沪闵路6088号莘庄凯德龙之梦购物中心B2楼(近莘建路)"},{"poiid":"B2094757DA6FA3FD4299","title":"花亭日本料理","lon":"121.386192","lat":"31.1077689999998","category":"95","category_name":"日本料理","address":"上海闵行区都市路5001号仲盛世界广场5楼"},{"poiid":"B2094757D764AAFA479D","title":"家有好面 莘庄龙之梦店","lon":"121.3791786","lat":"31.1089444","category":"68","category_name":"快餐厅","address":"闵行区沪闵路6088号莘庄凯德龙之梦购物中心B1楼54号(近莘建路)"},{"poiid":"B2094757D16EA0F94899","title":"斗牛士(凯得龙之梦)","lon":"121.37839885","lat":"31.107270507","category":"500","category_name":"未知分类","address":"上海市闵行区莘凌路"},{"poiid":"B2094757D068A4FC409A","title":"呀咪咖喱屋(莘庄龙之梦店)","lon":"121.37817085","lat":"31.108225526","category":"94","category_name":"西餐厅","address":"上海闵行区沪闵路6088号莘庄凯德龙之梦购物中心B1楼(近莘建路)"},{"poiid":"B2094757D069A0F9469C","title":"自由港量贩式KTV(莘庄店)","lon":"121.37836","lat":"31.10617","category":"170","category_name":"KTV","address":"闵行区莘东路100号(近莘浜路)"},{"poiid":"B2094750D76FAAFF439C","title":"PANKOO釜山料理(莘庄龙之梦店)","lon":"121.379","lat":"31.1089","category":"96","category_name":"韩国料理","address":"闵行区沪闵路6088号莘庄凯德龙之梦购物中心4楼(近莘建路)"},{"poiid":"B2094757D06AA6FE489B","title":"好世鹿鸣苑","lon":"121.38392","lat":"31.105864","category":"500","category_name":"未知分类","address":"上海市闵行区闵城路199弄"},{"poiid":"B2094757D06AA3F4409F","title":"呷哺呷哺(莘庄龙之梦店)","lon":"121.37854785","lat":"31.108207526","category":"86","category_name":"火锅店","address":"闵行区沪闵路6088号莘庄凯德龙之梦购物中心B2楼(近莘建路)"},{"poiid":"B2094757D16BA1FE479F","title":"荔餐厅(莘庄龙之梦店)","lon":"121.37898685","lat":"31.109076843","category":"500","category_name":"未知分类","address":"闵行区沪闵路6088号莘庄凯德龙之梦2楼32号(近莘建路)"},{"poiid":"B2094757D06AA0FA449B","title":"小巴辣子(莘庄龙之梦店)","lon":"121.37890105","lat":"31.109096444","category":"247","category_name":"餐饮美食","address":"上海闵行区沪闵路6088号莘庄凯德龙之梦购物中心3楼03-22号"},{"poiid":"B2094753D36FA0F5479B","title":"maan coffee","lon":"121.385062","lat":"31.107086","category":"500","category_name":"未知分类","address":"上海市 珠城路158号(近富都路)"},{"poiid":"B2094750D268A7FE489F","title":"威尔士健身中心莘庄龙之梦店","lon":"121.378494","lat":"31.10869","category":"248","category_name":"生活娱乐","address":"沪闵路6088号凯德龙之梦商务楼6楼"},{"poiid":"B2094757D06AA1F84499","title":"南翔1900(莘庄龙之梦店)","lon":"121.37819785","lat":"31.108182525","category":"68","category_name":"快餐厅","address":"闵行区沪闵路6088号莘庄凯德龙之梦购物中心3楼(近莘建路)"},{"poiid":"B2094757D06BA5FE489D","title":"DQ冰雪皇后(莘庄龙之梦店)","lon":"121.37827885","lat":"31.108152525","category":"113","category_name":"冷饮店","address":"长宁区仙霞西路88号百联西郊购物中心1楼(近哈密路)"},{"poiid":"B2094753D268A7FF4798","title":"居食屋和民","lon":"121.38634","lat":"31.106742","category":"247","category_name":"餐饮美食","address":"上海市 都市路5001号仲盛世界商城4楼(近莘庄地铁站)"},{"poiid":"B2094757D069A4FF4492","title":"点沁(莘庄龙之梦店)","lon":"121.37888285","lat":"31.108895206","category":"68","category_name":"快餐厅","address":"闵行区沪闵路6088号凯德龙之梦2楼29号"},{"poiid":"B2094757D469A7FB4092","title":"霖上海菜 莘庄龙之梦店","lon":"121.3791786","lat":"31.1089444","category":"76","category_name":"上海菜","address":"闵行区沪闵路6088号莘庄凯德龙之梦购物中心B1楼(近莘建路)"},{"poiid":"B2094757D465A5FF469E","title":"时光角落咖啡馆 Corner Cafe","lon":"121.38153971456","lat":"31.109362670664","category":"65","category_name":"咖啡厅","address":"闵行区莘建东路399弄26支弄54号(近莘庄地铁站北广场)"},{"poiid":"B2094757D16DA0FE449E","title":"铁板先生 凯德龙之梦店","lon":"121.3791792","lat":"31.1089446","category":"269","category_name":"烧烤","address":"闵行区沪闵路6088号莘庄凯德龙之梦购物中心B1楼(近莘建路)"},{"poiid":"B209475CD46FAAF5459F","title":"鱼酷活鱼现烤","lon":"121.378715","lat":"31.10803","category":"247","category_name":"餐饮美食","address":"上海市 莘庄凯德龙之梦B1"},{"poiid":"B2094757D16EA1F5489B","title":"味千拉面(莘庄龙之梦店)","lon":"121.38062575","lat":"31.109819058","category":"95","category_name":"日本料理","address":"闵行区沪闵路6088号莘庄凯德龙之梦购物中心内(近莘建路)"},{"poiid":"B2094751D269A4F84192","title":"赤板亭","lon":"121.383094","lat":"31.10605","category":"247","category_name":"餐饮美食","address":"莘庄龙之梦"},{"poiid":"B2094757D465A3FF4993","title":"元利香辣蟹 莘庄龙之梦店","lon":"121.3791786","lat":"31.1089444","category":"71","category_name":"四川菜","address":"闵行区沪闵路6088号莘庄凯德龙之梦购物中心3楼(近莘建路)"},{"poiid":"B2094750D26DA0F4479E","title":"奥妙趣玩具王国","lon":"121.380441","lat":"31.108907","category":"248","category_name":"生活娱乐","address":"闵行区都市路5001号仲盛世界商城2-23号(近莘庄地铁站)"},{"poiid":"B209475DD26DA5F5409A","title":"糖纸甜品","lon":"121.38272","lat":"31.106723","category":"247","category_name":"餐饮美食","address":"上海市 上海市闵行区莘庄龙之梦B2"},{"poiid":"B2094757D06AA7F9429D","title":"翼立运动俱乐部","lon":"121.38538","lat":"31.10464","category":"148","category_name":"美容美发店","address":"闵行区闵城路265号(近莘朱路)"},{"poiid":"B2094757D16CA5F5469B","title":"肯德基 KFC(莘庄龙之梦店)","lon":"121.378955857","lat":"31.1082485271","category":"68","category_name":"快餐厅","address":"闵行区沪闵路6088号莘庄凯德龙之梦购物中心(近莘建路)"},{"poiid":"B2094753D765AAFB479B","title":"caffebene","lon":"121.38301","lat":"31.106201","category":"500","category_name":"未知分类","address":"上海市 莘庄龙之梦"},{"poiid":"B2094757D164A5FC429A","title":"箸家三样菜(莘庄龙之梦店)","lon":"121.378885857","lat":"31.1083725296","category":"247","category_name":"餐饮美食","address":"上海市闵行区沪闵路6088号凯德龙之梦B2"},{"poiid":"B2094750D66CA1FA489B","title":"上影CGV国际影城","lon":"121.385162","lat":"31.108039","category":"178","category_name":"电影院","address":"仲盛商场"},{"poiid":"B2094757D06FA4F4469A","title":"85度C(莘建店)","lon":"121.37843","lat":"31.10652","category":"112","category_name":"糕饼店","address":"闵行区莘建路71号(近莘东路)"},{"poiid":"B2094750D26CA6FB4193","title":"釜山料理","lon":"121.379203","lat":"31.10824","category":"247","category_name":"餐饮美食","address":"莘庄龙之梦"},{"poiid":"B2094757D16CA2F9419F","title":"汉堡王(莘庄龙之梦店)","lon":"121.37944575","lat":"31.108537632","category":"68","category_name":"快餐厅","address":"闵行区沪闵路6088号莘庄凯德龙之梦购物中心内(近莘建路)"},{"poiid":"B2094757D764A5FA4693","title":"三商巧福 莘庄龙之梦店","lon":"121.3791786","lat":"31.1089444","category":"68","category_name":"快餐厅","address":"闵行区沪闵路6088号莘庄凯德龙之梦购物中心B2楼57号(近莘建路)"},{"poiid":"B2094753D16DA4FA489C","title":"漫咖啡莘庄店","lon":"121.381522","lat":"31.109003","category":"500","category_name":"未知分类","address":"上海市 都市路4855号"},{"poiid":"B2094757D064A3FE479D","title":"牛蛙风暴(莘庄龙之梦店)","lon":"121.37850685","lat":"31.108364529","category":"71","category_name":"四川菜","address":"闵行区沪闵路6088号凯德龙之梦B1楼15室"},{"poiid":"B2094753D36FA7FD489F","title":"maan coffee","lon":"121.383476","lat":"31.106957","category":"500","category_name":"未知分类","address":"上海市 闵行区珠城路158号解放大厦三座一楼"},{"poiid":"B2094753D564A0F4439C","title":"CaffeBene","lon":"121.38134","lat":"31.10589","category":"500","category_name":"未知分类","address":"上海市 莘庄凯德龙之梦"},{"poiid":"B2094654DB6CAAF94592","title":"开城新村","lon":"121.38173","lat":"31.107679","category":"47","category_name":"住宅区","address":"莘朱路81弄"},{"poiid":"B2094757D66DABFB489D","title":"喜多丽韩国料理","lon":"121.37845075","lat":"31.108738136","category":"96","category_name":"韩国料理","address":"闵行区沪闵路6088号凯德龙之梦B1楼16-17号(近莘建路)"},{"poiid":"B2094757D06EAAF94092","title":"凯德·龙之梦购物中心(莘庄·闵行广场)","lon":"121.3791786","lat":"31.1089444","category":"119","category_name":"商场","address":"闵行区沪闵路6088号"},{"poiid":"B2094757D06FA1F4489B","title":"好乐迪量贩式KTV(莘庄龙之梦店)","lon":"121.37820585","lat":"31.108289528","category":"170","category_name":"KTV","address":"闵行区沪闵路6088号莘庄凯德龙之梦购物中心内(近莘建路)"},{"poiid":"B2094757D764A5F4489E","title":"星巴克(莘庄龙之梦店)","lon":"121.3794493","lat":"31.1101617","category":"260","category_name":"其他","address":"闵行区沪闵路6088号莘庄凯德龙之梦购物中心(近莘建路)"},{"poiid":"B2094750DB65A5F8479F","title":"伊秀手握寿司（仲盛店）","lon":"121.38619","lat":"31.10776","category":"95","category_name":"日本料理","address":"闵行区莘庄地铁站内"},{"poiid":"B2094757DA64A2F9449D","title":"外婆家","lon":"121.38041168","lat":"31.11016523","category":"247","category_name":"餐饮美食","address":"闵行区都市路5001号仲盛世界商城4楼(近莘庄地铁南广场)"},{"poiid":"B2094757D068A6FF459D","title":"新辣道鱼火锅(莘庄龙之梦店)","lon":"121.37954385","lat":"31.107809518","category":"86","category_name":"火锅店","address":"闵行区沪闵路6088号莘庄凯德龙之梦购物中心4楼(近莘建路)"},{"poiid":"B2094757D06FA1F4449F","title":"西贝莜面村(莘庄龙之梦店)","lon":"121.37950732","lat":"31.107391861","category":"257","category_name":"中餐厅","address":"闵行区沪闵路6088号莘庄凯德龙之梦购物中心B2楼(近莘建路)"},{"poiid":"B2094757D46CA7FB449C","title":"哈根达斯 莘庄龙之梦店","lon":"121.3791786","lat":"31.1089444","category":"113","category_name":"冷饮店","address":"闵行区沪闵路6088号莘庄凯德龙之梦购物中心1楼1-49商铺(近莘松路)"},{"poiid":"B2094757DA6FA3F4449A","title":"赤坂亭(莘庄龙之梦店)","lon":"121.380429267886","lat":"31.1055304292266","category":"269","category_name":"烧烤","address":"闵行区沪闵路6088号莘庄凯德龙之梦购物中心4楼24-27号(近莘建路)"},{"poiid":"B2094757D468A4FC499C","title":"斗牛士 莘庄龙之梦店","lon":"121.3791786","lat":"31.1089444","category":"94","category_name":"西餐厅","address":"闵行区沪闵路6088号莘庄凯德龙之梦购物中心B2楼(近莘建路)"},{"poiid":"B2094757DA6FA3FD4299","title":"花亭日本料理","lon":"121.386192","lat":"31.1077689999998","category":"95","category_name":"日本料理","address":"上海闵行区都市路5001号仲盛世界广场5楼"},{"poiid":"B2094757D764AAFA479D","title":"家有好面 莘庄龙之梦店","lon":"121.3791786","lat":"31.1089444","category":"68","category_name":"快餐厅","address":"闵行区沪闵路6088号莘庄凯德龙之梦购物中心B1楼54号(近莘建路)"},{"poiid":"B2094757D16EA0F94899","title":"斗牛士(凯得龙之梦)","lon":"121.37839885","lat":"31.107270507","category":"500","category_name":"未知分类","address":"上海市闵行区莘凌路"},{"poiid":"B2094757D068A4FC409A","title":"呀咪咖喱屋(莘庄龙之梦店)","lon":"121.37817085","lat":"31.108225526","category":"94","category_name":"西餐厅","address":"上海闵行区沪闵路6088号莘庄凯德龙之梦购物中心B1楼(近莘建路)"},{"poiid":"B2094757D069A0F9469C","title":"自由港量贩式KTV(莘庄店)","lon":"121.37836","lat":"31.10617","category":"170","category_name":"KTV","address":"闵行区莘东路100号(近莘浜路)"},{"poiid":"B2094750D76FAAFF439C","title":"PANKOO釜山料理(莘庄龙之梦店)","lon":"121.379","lat":"31.1089","category":"96","category_name":"韩国料理","address":"闵行区沪闵路6088号莘庄凯德龙之梦购物中心4楼(近莘建路)"},{"poiid":"B2094757D06AA6FE489B","title":"好世鹿鸣苑","lon":"121.38392","lat":"31.105864","category":"500","category_name":"未知分类","address":"上海市闵行区闵城路199弄"},{"poiid":"B2094757D06AA3F4409F","title":"呷哺呷哺(莘庄龙之梦店)","lon":"121.37854785","lat":"31.108207526","category":"86","category_name":"火锅店","address":"闵行区沪闵路6088号莘庄凯德龙之梦购物中心B2楼(近莘建路)"},{"poiid":"B2094757D16BA1FE479F","title":"荔餐厅(莘庄龙之梦店)","lon":"121.37898685","lat":"31.109076843","category":"500","category_name":"未知分类","address":"闵行区沪闵路6088号莘庄凯德龙之梦2楼32号(近莘建路)"},{"poiid":"B2094757D06AA0FA449B","title":"小巴辣子(莘庄龙之梦店)","lon":"121.37890105","lat":"31.109096444","category":"247","category_name":"餐饮美食","address":"上海闵行区沪闵路6088号莘庄凯德龙之梦购物中心3楼03-22号"},{"poiid":"B2094753D36FA0F5479B","title":"maan coffee","lon":"121.385062","lat":"31.107086","category":"500","category_name":"未知分类","address":"上海市 珠城路158号(近富都路)"},{"poiid":"B2094750D268A7FE489F","title":"威尔士健身中心莘庄龙之梦店","lon":"121.378494","lat":"31.10869","category":"248","category_name":"生活娱乐","address":"沪闵路6088号凯德龙之梦商务楼6楼"},{"poiid":"B2094757D06AA1F84499","title":"南翔1900(莘庄龙之梦店)","lon":"121.37819785","lat":"31.108182525","category":"68","category_name":"快餐厅","address":"闵行区沪闵路6088号莘庄凯德龙之梦购物中心3楼(近莘建路)"},{"poiid":"B2094757D06BA5FE489D","title":"DQ冰雪皇后(莘庄龙之梦店)","lon":"121.37827885","lat":"31.108152525","category":"113","category_name":"冷饮店","address":"长宁区仙霞西路88号百联西郊购物中心1楼(近哈密路)"},{"poiid":"B2094753D268A7FF4798","title":"居食屋和民","lon":"121.38634","lat":"31.106742","category":"247","category_name":"餐饮美食","address":"上海市 都市路5001号仲盛世界商城4楼(近莘庄地铁站)"},{"poiid":"B2094757D069A4FF4492","title":"点沁(莘庄龙之梦店)","lon":"121.37888285","lat":"31.108895206","category":"68","category_name":"快餐厅","address":"闵行区沪闵路6088号凯德龙之梦2楼29号"},{"poiid":"B2094757D469A7FB4092","title":"霖上海菜 莘庄龙之梦店","lon":"121.3791786","lat":"31.1089444","category":"76","category_name":"上海菜","address":"闵行区沪闵路6088号莘庄凯德龙之梦购物中心B1楼(近莘建路)"},{"poiid":"B2094757D465A5FF469E","title":"时光角落咖啡馆 Corner Cafe","lon":"121.38153971456","lat":"31.109362670664","category":"65","category_name":"咖啡厅","address":"闵行区莘建东路399弄26支弄54号(近莘庄地铁站北广场)"},{"poiid":"B2094757D16DA0FE449E","title":"铁板先生 凯德龙之梦店","lon":"121.3791792","lat":"31.1089446","category":"269","category_name":"烧烤","address":"闵行区沪闵路6088号莘庄凯德龙之梦购物中心B1楼(近莘建路)"},{"poiid":"B209475CD46FAAF5459F","title":"鱼酷活鱼现烤","lon":"121.378715","lat":"31.10803","category":"247","category_name":"餐饮美食","address":"上海市 莘庄凯德龙之梦B1"},{"poiid":"B2094757D16EA1F5489B","title":"味千拉面(莘庄龙之梦店)","lon":"121.38062575","lat":"31.109819058","category":"95","category_name":"日本料理","address":"闵行区沪闵路6088号莘庄凯德龙之梦购物中心内(近莘建路)"},{"poiid":"B2094751D269A4F84192","title":"赤板亭","lon":"121.383094","lat":"31.10605","category":"247","category_name":"餐饮美食","address":"莘庄龙之梦"},{"poiid":"B2094757D465A3FF4993","title":"元利香辣蟹 莘庄龙之梦店","lon":"121.3791786","lat":"31.1089444","category":"71","category_name":"四川菜","address":"闵行区沪闵路6088号莘庄凯德龙之梦购物中心3楼(近莘建路)"},{"poiid":"B2094750D26DA0F4479E","title":"奥妙趣玩具王国","lon":"121.380441","lat":"31.108907","category":"248","category_name":"生活娱乐","address":"闵行区都市路5001号仲盛世界商城2-23号(近莘庄地铁站)"},{"poiid":"B209475DD26DA5F5409A","title":"糖纸甜品","lon":"121.38272","lat":"31.106723","category":"247","category_name":"餐饮美食","address":"上海市 上海市闵行区莘庄龙之梦B2"},{"poiid":"B2094757D06AA7F9429D","title":"翼立运动俱乐部","lon":"121.38538","lat":"31.10464","category":"148","category_name":"美容美发店","address":"闵行区闵城路265号(近莘朱路)"},{"poiid":"B2094757D16CA5F5469B","title":"肯德基 KFC(莘庄龙之梦店)","lon":"121.378955857","lat":"31.1082485271","category":"68","category_name":"快餐厅","address":"闵行区沪闵路6088号莘庄凯德龙之梦购物中心(近莘建路)"},{"poiid":"B2094753D765AAFB479B","title":"caffebene","lon":"121.38301","lat":"31.106201","category":"500","category_name":"未知分类","address":"上海市 莘庄龙之梦"},{"poiid":"B2094757D164A5FC429A","title":"箸家三样菜(莘庄龙之梦店)","lon":"121.378885857","lat":"31.1083725296","category":"247","category_name":"餐饮美食","address":"上海市闵行区沪闵路6088号凯德龙之梦B2"},{"poiid":"B2094750D66CA1FA489B","title":"上影CGV国际影城","lon":"121.385162","lat":"31.108039","category":"178","category_name":"电影院","address":"仲盛商场"},{"poiid":"B2094757D06FA4F4469A","title":"85度C(莘建店)","lon":"121.37843","lat":"31.10652","category":"112","category_name":"糕饼店","address":"闵行区莘建路71号(近莘东路)"},{"poiid":"B2094750D26CA6FB4193","title":"釜山料理","lon":"121.379203","lat":"31.10824","category":"247","category_name":"餐饮美食","address":"莘庄龙之梦"},{"poiid":"B2094757D16CA2F9419F","title":"汉堡王(莘庄龙之梦店)","lon":"121.37944575","lat":"31.108537632","category":"68","category_name":"快餐厅","address":"闵行区沪闵路6088号莘庄凯德龙之梦购物中心内(近莘建路)"},{"poiid":"B2094757D764A5FA4693","title":"三商巧福 莘庄龙之梦店","lon":"121.3791786","lat":"31.1089444","category":"68","category_name":"快餐厅","address":"闵行区沪闵路6088号莘庄凯德龙之梦购物中心B2楼57号(近莘建路)"},{"poiid":"B2094753D16DA4FA489C","title":"漫咖啡莘庄店","lon":"121.381522","lat":"31.109003","category":"500","category_name":"未知分类","address":"上海市 都市路4855号"},{"poiid":"B2094757D064A3FE479D","title":"牛蛙风暴(莘庄龙之梦店)","lon":"121.37850685","lat":"31.108364529","category":"71","category_name":"四川菜","address":"闵行区沪闵路6088号凯德龙之梦B1楼15室"},{"poiid":"B2094753D36FA7FD489F","title":"maan coffee","lon":"121.383476","lat":"31.106957","category":"500","category_name":"未知分类","address":"上海市 闵行区珠城路158号解放大厦三座一楼"},{"poiid":"B2094753D564A0F4439C","title":"CaffeBene","lon":"121.38134","lat":"31.10589","category":"500","category_name":"未知分类","address":"上海市 莘庄凯德龙之梦"},{"poiid":"B2094654DB6CAAF94592","title":"开城新村","lon":"121.38173","lat":"31.107679","category":"47","category_name":"住宅区","address":"莘朱路81弄"},{"poiid":"B2094757D66DABFB489D","title":"喜多丽韩国料理","lon":"121.37845075","lat":"31.108738136","category":"96","category_name":"韩国料理","address":"闵行区沪闵路6088号凯德龙之梦B1楼16-17号(近莘建路)"}]