[{"poiid":"B2094654DA69ABFA479F","title":"世茂滨江花园(潍坊西路)","lon":"121.51457","lat":"31.22077","category":"47","category_name":"住宅区","address":"潍坊西路2弄1-18号"},{"poiid":"B2094655D26BA2F54498","title":"浦东南路浦电路","lon":"121.51896","lat":"31.21941","category":"38","category_name":"公交车站","address":""},{"poiid":"B2094655D26BA2F54393","title":"浦东南路潍坊路","lon":"121.5181","lat":"31.22198","category":"38","category_name":"公交车站","address":""},{"poiid":"B209475CD564A7F84392","title":"上海滩浦东香格里拉店","lon":"121.50058","lat":"31.23634","category":"119","category_name":"商场","address":"浦东富成路33号香格里拉酒店内大堂层"},{"poiid":"B2094757D06EAAFC429E","title":"国家电网上海市电力公司浦东供电公司","lon":"121.519832","lat":"31.21794","category":"46","category_name":"楼宇","address":"上海浦东新区浦电路111号"},{"poiid":"B2094655D265A0F54793","title":"小南国世茂滨江店","lon":"121.51357","lat":"31.22296","category":"247","category_name":"餐饮美食","address":"浦东新区潍坊西路1弄18号世茂滨江内(近浦城路)"},{"poiid":"B2094757D068A3FD4198","title":"浦东大酒店","lon":"121.5177363","lat":"31.215603318","category":"217","category_name":"旅馆招待所","address":"上海浦东南路1888号"},{"poiid":"B2094654DB64A3FE429F","title":"锦江之星(陆家嘴店)","lon":"121.51617","lat":"31.21726","category":"216","category_name":"经济型连锁酒店","address":"上海市浦东新区浦电路57号(近浦城路)"},{"poiid":"B2094654DB64A3FD419D","title":"上海吉瑞酒店公寓","lon":"121.5201","lat":"31.21858","category":"214","category_name":"四星级宾馆","address":"浦东新区浦电路110号(浦东南路口)"},{"poiid":"B2094757D064A7FB419C","title":"世贸滨江","lon":"121.51353927","lat":"31.222660133","category":"47","category_name":"住宅区","address":"上海世贸滨江"},{"poiid":"B2094757D06EAAFE4493","title":"幸福码头创意园区","lon":"121.5111","lat":"31.216562","category":"45","category_name":"产业园区","address":"上海中山南路1029号"},{"poiid":"B2094654DB65A0F8479D","title":"莫泰168连锁旅店(浦东南路店)","lon":"121.5186","lat":"31.21701","category":"216","category_name":"经济型连锁酒店","address":"上海市浦东新区浦东南路1758号（近北张家浜路）"},{"poiid":"B2094757D068A2F8499F","title":"潍坊二村","lon":"121.51987","lat":"31.219891","category":"47","category_name":"住宅区","address":"浦东南路1533号"},{"poiid":"B2094654DB64A3FE4199","title":"上海市商贸旅游学校","lon":"121.5173","lat":"31.22112","category":"54","category_name":"职业技术学校","address":"浦东新区浦东南路1548号(潍坊路潍坊西路)"},{"poiid":"B2094654DA69ABF44193","title":"世茂滨江花园(南边门)","lon":"121.51452","lat":"31.21726","category":"47","category_name":"住宅区","address":""},{"poiid":"B2094757D469A7F4409F","title":"JSTONE","lon":"121.516112","lat":"31.222485","category":"94","category_name":"西餐厅","address":"浦东新区潍坊西路88号(近浦城路)"},{"poiid":"B2094757D16FA3F4469F","title":"OT 欧堤餐厅酒吧","lon":"121.514390738","lat":"31.2198190783","category":"247","category_name":"餐饮美食","address":"黄浦区外马路601号2栋3号楼110A-B室(近中山东一路)"},{"poiid":"B2094655D26BA2F5499C","title":"浦城路浦电路","lon":"121.51636","lat":"31.21848","category":"38","category_name":"公交车站","address":""},{"poiid":"B2094654DA69ABFA4593","title":"蒋老大羊肉家常菜","lon":"121.51681","lat":"31.21805","category":"76","category_name":"上海菜","address":"浦东新区浦城路900号(近湘旺阁)"},{"poiid":"B2094654DB6AA6F8429B","title":"上海华君酒店","lon":"121.51938","lat":"31.21864","category":"214","category_name":"四星级宾馆","address":"上海市浦东新区浦东南路1607号"},{"poiid":"B2094750D76CABF54799","title":"招财金煲","lon":"121.518","lat":"31.2183","category":"71","category_name":"四川菜","address":"浦东新区浦电路68号(近浦东南路)"},{"poiid":"B2094757D66BA0FE4099","title":"九卓堂","lon":"121.517141","lat":"31.2230009","category":"76","category_name":"上海菜","address":"浦东新区潍坊西路73号(潍坊路潍坊西路)"},{"poiid":"B2094654DA69ABF44199","title":"滨江大楼","lon":"121.51524","lat":"31.216516","category":"47","category_name":"住宅区","address":"浦电路29弄1-35号"},{"poiid":"B2094757D06BA6FC489A","title":"飞奔疯人院","lon":"121.517381738","lat":"31.2173150249","category":"500","category_name":"未知分类","address":"上海市浦东新区浦城路浦电路"},{"poiid":"B2094757DA6FA2FD439B","title":"新亚大包(浦电路店)","lon":"121.516269999999","lat":"31.2172890000001","category":"68","category_name":"快餐厅","address":"浦东新区浦电路57号(近浦城路)"},{"poiid":"B2094655D26AA7FB4898","title":"世贸滨江花园热带风情会所","lon":"121.51357","lat":"31.22296","category":"247","category_name":"餐饮美食","address":"浦东新区潍坊西路1弄世茂滨江花园16号(近浦城路)"},{"poiid":"B2094752DA65A4F5459E","title":"杨高中路地铁站","lon":"121.51657","lat":"31.219286","category":"36","category_name":"地铁站","address":"上海市 杨高中路"},{"poiid":"B2094654DA69ABF4439C","title":"上海市黄浦区精神卫生分中心","lon":"121.51716","lat":"31.2164","category":"162","category_name":"医院","address":"张家浜路39弄5"},{"poiid":"B2094654DB6AA7FE469A","title":"73家房客(浦东南路店)","lon":"121.51921","lat":"31.21891","category":"247","category_name":"餐饮美食","address":"浦东新区浦东南路1607号2楼(浦电路口)"},{"poiid":"B2094654DA69ABFA4192","title":"蔚蓝海岸天科苑","lon":"121.51779","lat":"31.22054","category":"47","category_name":"住宅区","address":"上海市浦东新区浦东南路1550号"},{"poiid":"B209475DD56CA1FC4899","title":"西塘古镇","lon":"121.516632","lat":"31.216506","category":"250","category_name":"公园户外","address":"上海市 浙江省嘉兴市嘉善县西塘"},{"poiid":"B2094654DB6AA6F8429F","title":"上海久阳滨江酒店","lon":"121.51708","lat":"31.22245","category":"214","category_name":"四星级宾馆","address":"浦东新区浦东南路1436号(近潍坊西路)"},{"poiid":"B2094654DA69ABF4449C","title":"又来亭","lon":"121.5188209973","lat":"31.217899894236","category":"96","category_name":"韩国料理","address":"浦东新区浦东南路1818号(浦电路峨山路间)"},{"poiid":"B2094655D26BABF5459E","title":"集成大厦(西门)","lon":"121.5164","lat":"31.21886","category":"47","category_name":"住宅区","address":"浦城路868临"},{"poiid":"B2094654DA69ABF4409B","title":"众盛公寓(北门)","lon":"121.51616","lat":"31.21725","category":"47","category_name":"住宅区","address":"浦电路53弄5-16号"},{"poiid":"B2094655D26DA1FB4398","title":"上海鸿酒店","lon":"121.51611","lat":"31.22248","category":"250","category_name":"公园户外","address":"浦东新区潍坊西路88号(近浦城路)"},{"poiid":"B2094757D069A6F8449B","title":"华联超市(浦电路店)","lon":"121.51668","lat":"31.21704","category":"118","category_name":"超级市场","address":"浦东新区浦电路57号(近浦城路)"},{"poiid":"B2094757D065A5F5459B","title":"帕酷雅专业美车机构","lon":"121.514825738","lat":"31.2172520236","category":"500","category_name":"未知分类","address":"上海市浦东新区浦明路"},{"poiid":"B2094757D568A6FF4299","title":"菡香美容养生会所","lon":"121.51510634","lat":"31.21706923","category":"148","category_name":"美容美发店","address":"浦东新区浦电路31号(近第一八佰伴)"},{"poiid":"B2094654DA69ABF4409A","title":"众盛公寓","lon":"121.51619","lat":"31.216702","category":"47","category_name":"住宅区","address":"浦电路53弄5-16号"},{"poiid":"B2094655D26BA3F44299","title":"绿凯","lon":"121.51627","lat":"31.21728","category":"141","category_name":"服装鞋帽皮具店","address":"浦东新区浦电路57号(近浦城路)"},{"poiid":"B2094655D26BA0F4429D","title":"集成大厦","lon":"121.51656","lat":"31.21915","category":"47","category_name":"住宅区","address":"浦城路868临"},{"poiid":"B2094757D568A4F4479A","title":"紫云SPA会所","lon":"121.5162519","lat":"31.2192768","category":"148","category_name":"美容美发店","address":"浦东新区南泉路20号(近潍坊路)"},{"poiid":"B2094757D568ABF9499C","title":"新苗幼儿园","lon":"121.51491645","lat":"31.21655328","category":"57","category_name":"幼儿园","address":"浦电路29弄9"},{"poiid":"B2094654DA69ABFA439E","title":"谢家宅小区","lon":"121.51735","lat":"31.21881","category":"47","category_name":"住宅区","address":"浦电路48弄1-20号"},{"poiid":"B2094654DA69ABFA479B","title":"滨江兰庭","lon":"121.51628","lat":"31.220039","category":"47","category_name":"住宅区","address":"浦城路786弄"},{"poiid":"B2094654DA69A6F54799","title":"爱家·东旅大厦","lon":"121.51913","lat":"31.21537","category":"46","category_name":"楼宇","address":"南开滨海高新技术产业开发区华苑产业区兰苑路2号西侧(海泰大厦对面)"},{"poiid":"B2094654DA69ABF9499B","title":"百富达公寓","lon":"121.51849","lat":"31.21917","category":"47","category_name":"住宅区","address":"百富达公寓位于浦东浦东南路1650弄"},{"poiid":"B2094757D16CA1FB429B","title":"帕酷雅车炫坊","lon":"121.51479473","lat":"31.217530029","category":"500","category_name":"未知分类","address":"上海浦电路25号"},{"poiid":"B2094757D569A7FE499D","title":"资美·惠子特色美容","lon":"121.51479845","lat":"31.21681803","category":"148","category_name":"美容美发店","address":"浦电路29弄1号楼101室"},{"poiid":"B2094654DA69ABFA479F","title":"世茂滨江花园(潍坊西路)","lon":"121.51457","lat":"31.22077","category":"47","category_name":"住宅区","address":"潍坊西路2弄1-18号"},{"poiid":"B2094655D26BA2F54498","title":"浦东南路浦电路","lon":"121.51896","lat":"31.21941","category":"38","category_name":"公交车站","address":""},{"poiid":"B2094655D26BA2F54393","title":"浦东南路潍坊路","lon":"121.5181","lat":"31.22198","category":"38","category_name":"公交车站","address":""},{"poiid":"B209475CD564A7F84392","title":"上海滩浦东香格里拉店","lon":"121.50058","lat":"31.23634","category":"119","category_name":"商场","address":"浦东富成路33号香格里拉酒店内大堂层"},{"poiid":"B2094757D06EAAFC429E","title":"国家电网上海市电力公司浦东供电公司","lon":"121.519832","lat":"31.21794","category":"46","category_name":"楼宇","address":"上海浦东新区浦电路111号"},{"poiid":"B2094655D265A0F54793","title":"小南国世茂滨江店","lon":"121.51357","lat":"31.22296","category":"247","category_name":"餐饮美食","address":"浦东新区潍坊西路1弄18号世茂滨江内(近浦城路)"},{"poiid":"B2094757D068A3FD4198","title":"浦东大酒店","lon":"121.5177363","lat":"31.215603318","category":"217","category_name":"旅馆招待所","address":"上海浦东南路1888号"},{"poiid":"B2094654DB64A3FE429F","title":"锦江之星(陆家嘴店)","lon":"121.51617","lat":"31.21726","category":"216","category_name":"经济型连锁酒店","address":"上海市浦东新区浦电路57号(近浦城路)"},{"poiid":"B2094654DB64A3FD419D","title":"上海吉瑞酒店公寓","lon":"121.5201","lat":"31.21858","category":"214","category_name":"四星级宾馆","address":"浦东新区浦电路110号(浦东南路口)"},{"poiid":"B2094757D064A7FB419C","title":"世贸滨江","lon":"121.51353927","lat":"31.222660133","category":"47","category_name":"住宅区","address":"上海世贸滨江"},{"poiid":"B2094757D06EAAFE4493","title":"幸福码头创意园区","lon":"121.5111","lat":"31.216562","category":"45","category_name":"产业园区","address":"上海中山南路1029号"},{"poiid":"B2094654DB65A0F8479D","title":"莫泰168连锁旅店(浦东南路店)","lon":"121.5186","lat":"31.21701","category":"216","category_name":"经济型连锁酒店","address":"上海市浦东新区浦东南路1758号（近北张家浜路）"},{"poiid":"B2094757D068A2F8499F","title":"潍坊二村","lon":"121.51987","lat":"31.219891","category":"47","category_name":"住宅区","address":"浦东南路1533号"},{"poiid":"B2094654DB64A3FE4199","title":"上海市商贸旅游学校","lon":"121.5173","lat":"31.22112","category":"54","category_name":"职业技术学校","address":"浦东新区浦东南路1548号(潍坊路潍坊西路)"},{"poiid":"B2094654DA69ABF44193","title":"世茂滨江花园(南边门)","lon":"121.51452","lat":"31.21726","category":"47","category_name":"住宅区","address":""},{"poiid":"B2094757D469A7F4409F","title":"JSTONE","lon":"121.516112","lat":"31.222485","category":"94","category_name":"西餐厅","address":"浦东新区潍坊西路88号(近浦城路)"},{"poiid":"B2094757D16FA3F4469F","title":"OT 欧堤餐厅酒吧","lon":"121.514390738","lat":"31.2198190783","category":"247","category_name":"餐饮美食","address":"黄浦区外马路601号2栋3号楼110A-B室(近中山东一路)"},{"poiid":"B2094655D26BA2F5499C","title":"浦城路浦电路","lon":"121.51636","lat":"31.21848","category":"38","category_name":"公交车站","address":""},{"poiid":"B2094654DA69ABFA4593","title":"蒋老大羊肉家常菜","lon":"121.51681","lat":"31.21805","category":"76","category_name":"上海菜","address":"浦东新区浦城路900号(近湘旺阁)"},{"poiid":"B2094654DB6AA6F8429B","title":"上海华君酒店","lon":"121.51938","lat":"31.21864","category":"214","category_name":"四星级宾馆","address":"上海市浦东新区浦东南路1607号"},{"poiid":"B2094750D76CABF54799","title":"招财金煲","lon":"121.518","lat":"31.2183","category":"71","category_name":"四川菜","address":"浦东新区浦电路68号(近浦东南路)"},{"poiid":"B2094757D66BA0FE4099","title":"九卓堂","lon":"121.517141","lat":"31.2230009","category":"76","category_name":"上海菜","address":"浦东新区潍坊西路73号(潍坊路潍坊西路)"},{"poiid":"B2094654DA69ABF44199","title":"滨江大楼","lon":"121.51524","lat":"31.216516","category":"47","category_name":"住宅区","address":"浦电路29弄1-35号"},{"poiid":"B2094757D06BA6FC489A","title":"飞奔疯人院","lon":"121.517381738","lat":"31.2173150249","category":"500","category_name":"未知分类","address":"上海市浦东新区浦城路浦电路"},{"poiid":"B2094757DA6FA2FD439B","title":"新亚大包(浦电路店)","lon":"121.516269999999","lat":"31.2172890000001","category":"68","category_name":"快餐厅","address":"浦东新区浦电路57号(近浦城路)"},{"poiid":"B2094655D26AA7FB4898","title":"世贸滨江花园热带风情会所","lon":"121.51357","lat":"31.22296","category":"247","category_name":"餐饮美食","address":"浦东新区潍坊西路1弄世茂滨江花园16号(近浦城路)"},{"poiid":"B2094752DA65A4F5459E","title":"杨高中路地铁站","lon":"121.51657","lat":"31.219286","category":"36","category_name":"地铁站","address":"上海市 杨高中路"},{"poiid":"B2094654DA69ABF4439C","title":"上海市黄浦区精神卫生分中心","lon":"121.51716","lat":"31.2164","category":"162","category_name":"医院","address":"张家浜路39弄5"},{"poiid":"B2094654DB6AA7FE469A","title":"73家房客(浦东南路店)","lon":"121.51921","lat":"31.21891","category":"247","category_name":"餐饮美食","address":"浦东新区浦东南路1607号2楼(浦电路口)"},{"poiid":"B2094654DA69ABFA4192","title":"蔚蓝海岸天科苑","lon":"121.51779","lat":"31.22054","category":"47","category_name":"住宅区","address":"上海市浦东新区浦东南路1550号"},{"poiid":"B209475DD56CA1FC4899","title":"西塘古镇","lon":"121.516632","lat":"31.216506","category":"250","category_name":"公园户外","address":"上海市 浙江省嘉兴市嘉善县西塘"},{"poiid":"B2094654DB6AA6F8429F","title":"上海久阳滨江酒店","lon":"121.51708","lat":"31.22245","category":"214","category_name":"四星级宾馆","address":"浦东新区浦东南路1436号(近潍坊西路)"},{"poiid":"B2094654DA69ABF4449C","title":"又来亭","lon":"121.5188209973","lat":"31.217899894236","category":"96","category_name":"韩国料理","address":"浦东新区浦东南路1818号(浦电路峨山路间)"},{"poiid":"B2094655D26BABF5459E","title":"集成大厦(西门)","lon":"121.5164","lat":"31.21886","category":"47","category_name":"住宅区","address":"浦城路868临"},{"poiid":"B2094654DA69ABF4409B","title":"众盛公寓(北门)","lon":"121.51616","lat":"31.21725","category":"47","category_name":"住宅区","address":"浦电路53弄5-16号"},{"poiid":"B2094655D26DA1FB4398","title":"上海鸿酒店","lon":"121.51611","lat":"31.22248","category":"250","category_name":"公园户外","address":"浦东新区潍坊西路88号(近浦城路)"},{"poiid":"B2094757D069A6F8449B","title":"华联超市(浦电路店)","lon":"121.51668","lat":"31.21704","category":"118","category_name":"超级市场","address":"浦东新区浦电路57号(近浦城路)"},{"poiid":"B2094757D065A5F5459B","title":"帕酷雅专业美车机构","lon":"121.514825738","lat":"31.2172520236","category":"500","category_name":"未知分类","address":"上海市浦东新区浦明路"},{"poiid":"B2094757D568A6FF4299","title":"菡香美容养生会所","lon":"121.51510634","lat":"31.21706923","category":"148","category_name":"美容美发店","address":"浦东新区浦电路31号(近第一八佰伴)"},{"poiid":"B2094654DA69ABF4409A","title":"众盛公寓","lon":"121.51619","lat":"31.216702","category":"47","category_name":"住宅区","address":"浦电路53弄5-16号"},{"poiid":"B2094655D26BA3F44299","title":"绿凯","lon":"121.51627","lat":"31.21728","category":"141","category_name":"服装鞋帽皮具店","address":"浦东新区浦电路57号(近浦城路)"},{"poiid":"B2094655D26BA0F4429D","title":"集成大厦","lon":"121.51656","lat":"31.21915","category":"47","category_name":"住宅区","address":"浦城路868临"},{"poiid":"B2094757D568A4F4479A","title":"紫云SPA会所","lon":"121.5162519","lat":"31.2192768","category":"148","category_name":"美容美发店","address":"浦东新区南泉路20号(近潍坊路)"},{"poiid":"B2094757D568ABF9499C","title":"新苗幼儿园","lon":"121.51491645","lat":"31.21655328","category":"57","category_name":"幼儿园","address":"浦电路29弄9"},{"poiid":"B2094654DA69ABFA439E","title":"谢家宅小区","lon":"121.51735","lat":"31.21881","category":"47","category_name":"住宅区","address":"浦电路48弄1-20号"},{"poiid":"B2094654DA69ABFA479B","title":"滨江兰庭","lon":"121.51628","lat":"31.220039","category":"47","category_name":"住宅区","address":"浦城路786弄"},{"poiid":"B2094654DA69A6F54799","title":"爱家·东旅大厦","lon":"121.51913","lat":"31.21537","category":"46","category_name":"楼宇","address":"南开滨海高新技术产业开发区华苑产业区兰苑路2号西侧(海泰大厦对面)"},{"poiid":"B2094654DA69ABF9499B","title":"百富达公寓","lon":"121.51849","lat":"31.21917","category":"47","category_name":"住宅区","address":"百富达公寓位于浦东浦东南路1650弄"},{"poiid":"B2094757D16CA1FB429B","title":"帕酷雅车炫坊","lon":"121.51479473","lat":"31.217530029","category":"500","category_name":"未知分类","address":"上海浦电路25号"},{"poiid":"B2094757D569A7FE499D","title":"资美·惠子特色美容","lon":"121.51479845","lat":"31.21681803","category":"148","category_name":"美容美发店","address":"浦电路29弄1号楼101室"},{"poiid":"B2094654DA69ABFA479F","title":"世茂滨江花园(潍坊西路)","lon":"121.51457","lat":"31.22077","category":"47","category_name":"住宅区","address":"潍坊西路2弄1-18号"},{"poiid":"B2094655D26BA2F54498","title":"浦东南路浦电路","lon":"121.51896","lat":"31.21941","category":"38","category_name":"公交车站","address":""},{"poiid":"B2094655D26BA2F54393","title":"浦东南路潍坊路","lon":"121.5181","lat":"31.22198","category":"38","category_name":"公交车站","address":""},{"poiid":"B209475CD564A7F84392","title":"上海滩浦东香格里拉店","lon":"121.50058","lat":"31.23634","category":"119","category_name":"商场","address":"浦东富成路33号香格里拉酒店内大堂层"},{"poiid":"B2094757D06EAAFC429E","title":"国家电网上海市电力公司浦东供电公司","lon":"121.519832","lat":"31.21794","category":"46","category_name":"楼宇","address":"上海浦东新区浦电路111号"},{"poiid":"B2094655D265A0F54793","title":"小南国世茂滨江店","lon":"121.51357","lat":"31.22296","category":"247","category_name":"餐饮美食","address":"浦东新区潍坊西路1弄18号世茂滨江内(近浦城路)"},{"poiid":"B2094757D068A3FD4198","title":"浦东大酒店","lon":"121.5177363","lat":"31.215603318","category":"217","category_name":"旅馆招待所","address":"上海浦东南路1888号"},{"poiid":"B2094654DB64A3FE429F","title":"锦江之星(陆家嘴店)","lon":"121.51617","lat":"31.21726","category":"216","category_name":"经济型连锁酒店","address":"上海市浦东新区浦电路57号(近浦城路)"},{"poiid":"B2094654DB64A3FD419D","title":"上海吉瑞酒店公寓","lon":"121.5201","lat":"31.21858","category":"214","category_name":"四星级宾馆","address":"浦东新区浦电路110号(浦东南路口)"},{"poiid":"B2094757D064A7FB419C","title":"世贸滨江","lon":"121.51353927","lat":"31.222660133","category":"47","category_name":"住宅区","address":"上海世贸滨江"},{"poiid":"B2094757D06EAAFE4493","title":"幸福码头创意园区","lon":"121.5111","lat":"31.216562","category":"45","category_name":"产业园区","address":"上海中山南路1029号"},{"poiid":"B2094654DB65A0F8479D","title":"莫泰168连锁旅店(浦东南路店)","lon":"121.5186","lat":"31.21701","category":"216","category_name":"经济型连锁酒店","address":"上海市浦东新区浦东南路1758号（近北张家浜路）"},{"poiid":"B2094757D068A2F8499F","title":"潍坊二村","lon":"121.51987","lat":"31.219891","category":"47","category_name":"住宅区","address":"浦东南路1533号"},{"poiid":"B2094654DB64A3FE4199","title":"上海市商贸旅游学校","lon":"121.5173","lat":"31.22112","category":"54","category_name":"职业技术学校","address":"浦东新区浦东南路1548号(潍坊路潍坊西路)"},{"poiid":"B2094654DA69ABF44193","title":"世茂滨江花园(南边门)","lon":"121.51452","lat":"31.21726","category":"47","category_name":"住宅区","address":""},{"poiid":"B2094757D469A7F4409F","title":"JSTONE","lon":"121.516112","lat":"31.222485","category":"94","category_name":"西餐厅","address":"浦东新区潍坊西路88号(近浦城路)"},{"poiid":"B2094757D16FA3F4469F","title":"OT 欧堤餐厅酒吧","lon":"121.514390738","lat":"31.2198190783","category":"247","category_name":"餐饮美食","address":"黄浦区外马路601号2栋3号楼110A-B室(近中山东一路)"},{"poiid":"B2094655D26BA2F5499C","title":"浦城路浦电路","lon":"121.51636","lat":"31.21848","category":"38","category_name":"公交车站","address":""},{"poiid":"B2094654DA69ABFA4593","title":"蒋老大羊肉家常菜","lon":"121.51681","lat":"31.21805","category":"76","category_name":"上海菜","address":"浦东新区浦城路900号(近湘旺阁)"},{"poiid":"B2094654DB6AA6F8429B","title":"上海华君酒店","lon":"121.51938","lat":"31.21864","category":"214","category_name":"四星级宾馆","address":"上海市浦东新区浦东南路1607号"},{"poiid":"B2094750D76CABF54799","title":"招财金煲","lon":"121.518","lat":"31.2183","category":"71","category_name":"四川菜","address":"浦东新区浦电路68号(近浦东南路)"},{"poiid":"B2094757D66BA0FE4099","title":"九卓堂","lon":"121.517141","lat":"31.2230009","category":"76","category_name":"上海菜","address":"浦东新区潍坊西路73号(潍坊路潍坊西路)"},{"poiid":"B2094654DA69ABF44199","title":"滨江大楼","lon":"121.51524","lat":"31.216516","category":"47","category_name":"住宅区","address":"浦电路29弄1-35号"},{"poiid":"B2094757D06BA6FC489A","title":"飞奔疯人院","lon":"121.517381738","lat":"31.2173150249","category":"500","category_name":"未知分类","address":"上海市浦东新区浦城路浦电路"},{"poiid":"B2094757DA6FA2FD439B","title":"新亚大包(浦电路店)","lon":"121.516269999999","lat":"31.2172890000001","category":"68","category_name":"快餐厅","address":"浦东新区浦电路57号(近浦城路)"},{"poiid":"B2094655D26AA7FB4898","title":"世贸滨江花园热带风情会所","lon":"121.51357","lat":"31.22296","category":"247","category_name":"餐饮美食","address":"浦东新区潍坊西路1弄世茂滨江花园16号(近浦城路)"},{"poiid":"B2094752DA65A4F5459E","title":"杨高中路地铁站","lon":"121.51657","lat":"31.219286","category":"36","category_name":"地铁站","address":"上海市 杨高中路"},{"poiid":"B2094654DA69ABF4439C","title":"上海市黄浦区精神卫生分中心","lon":"121.51716","lat":"31.2164","category":"162","category_name":"医院","address":"张家浜路39弄5"},{"poiid":"B2094654DB6AA7FE469A","title":"73家房客(浦东南路店)","lon":"121.51921","lat":"31.21891","category":"247","category_name":"餐饮美食","address":"浦东新区浦东南路1607号2楼(浦电路口)"},{"poiid":"B2094654DA69ABFA4192","title":"蔚蓝海岸天科苑","lon":"121.51779","lat":"31.22054","category":"47","category_name":"住宅区","address":"上海市浦东新区浦东南路1550号"},{"poiid":"B209475DD56CA1FC4899","title":"西塘古镇","lon":"121.516632","lat":"31.216506","category":"250","category_name":"公园户外","address":"上海市 浙江省嘉兴市嘉善县西塘"},{"poiid":"B2094654DB6AA6F8429F","title":"上海久阳滨江酒店","lon":"121.51708","lat":"31.22245","category":"214","category_name":"四星级宾馆","address":"浦东新区浦东南路1436号(近潍坊西路)"},{"poiid":"B2094654DA69ABF4449C","title":"又来亭","lon":"121.5188209973","lat":"31.217899894236","category":"96","category_name":"韩国料理","address":"浦东新区浦东南路1818号(浦电路峨山路间)"},{"poiid":"B2094655D26BABF5459E","title":"集成大厦(西门)","lon":"121.5164","lat":"31.21886","category":"47","category_name":"住宅区","address":"浦城路868临"},{"poiid":"B2094654DA69ABF4409B","title":"众盛公寓(北门)","lon":"121.51616","lat":"31.21725","category":"47","category_name":"住宅区","address":"浦电路53弄5-16号"},{"poiid":"B2094655D26DA1FB4398","title":"上海鸿酒店","lon":"121.51611","lat":"31.22248","category":"250","category_name":"公园户外","address":"浦东新区潍坊西路88号(近浦城路)"},{"poiid":"B2094757D069A6F8449B","title":"华联超市(浦电路店)","lon":"121.51668","lat":"31.21704","category":"118","category_name":"超级市场","address":"浦东新区浦电路57号(近浦城路)"},{"poiid":"B2094757D065A5F5459B","title":"帕酷雅专业美车机构","lon":"121.514825738","lat":"31.2172520236","category":"500","category_name":"未知分类","address":"上海市浦东新区浦明路"},{"poiid":"B2094757D568A6FF4299","title":"菡香美容养生会所","lon":"121.51510634","lat":"31.21706923","category":"148","category_name":"美容美发店","address":"浦东新区浦电路31号(近第一八佰伴)"},{"poiid":"B2094654DA69ABF4409A","title":"众盛公寓","lon":"121.51619","lat":"31.216702","category":"47","category_name":"住宅区","address":"浦电路53弄5-16号"},{"poiid":"B2094655D26BA3F44299","title":"绿凯","lon":"121.51627","lat":"31.21728","category":"141","category_name":"服装鞋帽皮具店","address":"浦东新区浦电路57号(近浦城路)"},{"poiid":"B2094655D26BA0F4429D","title":"集成大厦","lon":"121.51656","lat":"31.21915","category":"47","category_name":"住宅区","address":"浦城路868临"},{"poiid":"B2094757D568A4F4479A","title":"紫云SPA会所","lon":"121.5162519","lat":"31.2192768","category":"148","category_name":"美容美发店","address":"浦东新区南泉路20号(近潍坊路)"},{"poiid":"B2094757D568ABF9499C","title":"新苗幼儿园","lon":"121.51491645","lat":"31.21655328","category":"57","category_name":"幼儿园","address":"浦电路29弄9"},{"poiid":"B2094654DA69ABFA439E","title":"谢家宅小区","lon":"121.51735","lat":"31.21881","category":"47","category_name":"住宅区","address":"浦电路48弄1-20号"},{"poiid":"B2094654DA69ABFA479B","title":"滨江兰庭","lon":"121.51628","lat":"31.220039","category":"47","category_name":"住宅区","address":"浦城路786弄"},{"poiid":"B2094654DA69A6F54799","title":"爱家·东旅大厦","lon":"121.51913","lat":"31.21537","category":"46","category_name":"楼宇","address":"南开滨海高新技术产业开发区华苑产业区兰苑路2号西侧(海泰大厦对面)"},{"poiid":"B2094654DA69ABF9499B","title":"百富达公寓","lon":"121.51849","lat":"31.21917","category":"47","category_name":"住宅区","address":"百富达公寓位于浦东浦东南路1650弄"},{"poiid":"B2094757D16CA1FB429B","title":"帕酷雅车炫坊","lon":"121.51479473","lat":"31.217530029","category":"500","category_name":"未知分类","address":"上海浦电路25号"},{"poiid":"B2094757D569A7FE499D","title":"资美·惠子特色美容","lon":"121.51479845","lat":"31.21681803","category":"148","category_name":"美容美发店","address":"浦电路29弄1号楼101室"},{"poiid":"B2094654DA69ABFA479F","title":"世茂滨江花园(潍坊西路)","lon":"121.51457","lat":"31.22077","category":"47","category_name":"住宅区","address":"潍坊西路2弄1-18号"},{"poiid":"B2094655D26BA2F54498","title":"浦东南路浦电路","lon":"121.51896","lat":"31.21941","category":"38","category_name":"公交车站","address":""},{"poiid":"B2094655D26BA2F54393","title":"浦东南路潍坊路","lon":"121.5181","lat":"31.22198","category":"38","category_name":"公交车站","address":""},{"poiid":"B209475CD564A7F84392","title":"上海滩浦东香格里拉店","lon":"121.50058","lat":"31.23634","category":"119","category_name":"商场","address":"浦东富成路33号香格里拉酒店内大堂层"},{"poiid":"B2094757D06EAAFC429E","title":"国家电网上海市电力公司浦东供电公司","lon":"121.519832","lat":"31.21794","category":"46","category_name":"楼宇","address":"上海浦东新区浦电路111号"},{"poiid":"B2094655D265A0F54793","title":"小南国世茂滨江店","lon":"121.51357","lat":"31.22296","category":"247","category_name":"餐饮美食","address":"浦东新区潍坊西路1弄18号世茂滨江内(近浦城路)"},{"poiid":"B2094757D068A3FD4198","title":"浦东大酒店","lon":"121.5177363","lat":"31.215603318","category":"217","category_name":"旅馆招待所","address":"上海浦东南路1888号"},{"poiid":"B2094654DB64A3FE429F","title":"锦江之星(陆家嘴店)","lon":"121.51617","lat":"31.21726","category":"216","category_name":"经济型连锁酒店","address":"上海市浦东新区浦电路57号(近浦城路)"},{"poiid":"B2094654DB64A3FD419D","title":"上海吉瑞酒店公寓","lon":"121.5201","lat":"31.21858","category":"214","category_name":"四星级宾馆","address":"浦东新区浦电路110号(浦东南路口)"},{"poiid":"B2094757D064A7FB419C","title":"世贸滨江","lon":"121.51353927","lat":"31.222660133","category":"47","category_name":"住宅区","address":"上海世贸滨江"},{"poiid":"B2094757D06EAAFE4493","title":"幸福码头创意园区","lon":"121.5111","lat":"31.216562","category":"45","category_name":"产业园区","address":"上海中山南路1029号"},{"poiid":"B2094654DB65A0F8479D","title":"莫泰168连锁旅店(浦东南路店)","lon":"121.5186","lat":"31.21701","category":"216","category_name":"经济型连锁酒店","address":"上海市浦东新区浦东南路1758号（近北张家浜路）"},{"poiid":"B2094757D068A2F8499F","title":"潍坊二村","lon":"121.51987","lat":"31.219891","category":"47","category_name":"住宅区","address":"浦东南路1533号"},{"poiid":"B2094654DB64A3FE4199","title":"上海市商贸旅游学校","lon":"121.5173","lat":"31.22112","category":"54","category_name":"职业技术学校","address":"浦东新区浦东南路1548号(潍坊路潍坊西路)"},{"poiid":"B2094654DA69ABF44193","title":"世茂滨江花园(南边门)","lon":"121.51452","lat":"31.21726","category":"47","category_name":"住宅区","address":""},{"poiid":"B2094757D469A7F4409F","title":"JSTONE","lon":"121.516112","lat":"31.222485","category":"94","category_name":"西餐厅","address":"浦东新区潍坊西路88号(近浦城路)"},{"poiid":"B2094757D16FA3F4469F","title":"OT 欧堤餐厅酒吧","lon":"121.514390738","lat":"31.2198190783","category":"247","category_name":"餐饮美食","address":"黄浦区外马路601号2栋3号楼110A-B室(近中山东一路)"},{"poiid":"B2094655D26BA2F5499C","title":"浦城路浦电路","lon":"121.51636","lat":"31.21848","category":"38","category_name":"公交车站","address":""},{"poiid":"B2094654DA69ABFA4593","title":"蒋老大羊肉家常菜","lon":"121.51681","lat":"31.21805","category":"76","category_name":"上海菜","address":"浦东新区浦城路900号(近湘旺阁)"},{"poiid":"B2094654DB6AA6F8429B","title":"上海华君酒店","lon":"121.51938","lat":"31.21864","category":"214","category_name":"四星级宾馆","address":"上海市浦东新区浦东南路1607号"},{"poiid":"B2094750D76CABF54799","title":"招财金煲","lon":"121.518","lat":"31.2183","category":"71","category_name":"四川菜","address":"浦东新区浦电路68号(近浦东南路)"},{"poiid":"B2094757D66BA0FE4099","title":"九卓堂","lon":"121.517141","lat":"31.2230009","category":"76","category_name":"上海菜","address":"浦东新区潍坊西路73号(潍坊路潍坊西路)"},{"poiid":"B2094654DA69ABF44199","title":"滨江大楼","lon":"121.51524","lat":"31.216516","category":"47","category_name":"住宅区","address":"浦电路29弄1-35号"},{"poiid":"B2094757D06BA6FC489A","title":"飞奔疯人院","lon":"121.517381738","lat":"31.2173150249","category":"500","category_name":"未知分类","address":"上海市浦东新区浦城路浦电路"},{"poiid":"B2094757DA6FA2FD439B","title":"新亚大包(浦电路店)","lon":"121.516269999999","lat":"31.2172890000001","category":"68","category_name":"快餐厅","address":"浦东新区浦电路57号(近浦城路)"},{"poiid":"B2094655D26AA7FB4898","title":"世贸滨江花园热带风情会所","lon":"121.51357","lat":"31.22296","category":"247","category_name":"餐饮美食","address":"浦东新区潍坊西路1弄世茂滨江花园16号(近浦城路)"},{"poiid":"B2094752DA65A4F5459E","title":"杨高中路地铁站","lon":"121.51657","lat":"31.219286","category":"36","category_name":"地铁站","address":"上海市 杨高中路"},{"poiid":"B2094654DA69ABF4439C","title":"上海市黄浦区精神卫生分中心","lon":"121.51716","lat":"31.2164","category":"162","category_name":"医院","address":"张家浜路39弄5"},{"poiid":"B2094654DB6AA7FE469A","title":"73家房客(浦东南路店)","lon":"121.51921","lat":"31.21891","category":"247","category_name":"餐饮美食","address":"浦东新区浦东南路1607号2楼(浦电路口)"},{"poiid":"B2094654DA69ABFA4192","title":"蔚蓝海岸天科苑","lon":"121.51779","lat":"31.22054","category":"47","category_name":"住宅区","address":"上海市浦东新区浦东南路1550号"},{"poiid":"B209475DD56CA1FC4899","title":"西塘古镇","lon":"121.516632","lat":"31.216506","category":"250","category_name":"公园户外","address":"上海市 浙江省嘉兴市嘉善县西塘"},{"poiid":"B2094654DB6AA6F8429F","title":"上海久阳滨江酒店","lon":"121.51708","lat":"31.22245","category":"214","category_name":"四星级宾馆","address":"浦东新区浦东南路1436号(近潍坊西路)"},{"poiid":"B2094654DA69ABF4449C","title":"又来亭","lon":"121.5188209973","lat":"31.217899894236","category":"96","category_name":"韩国料理","address":"浦东新区浦东南路1818号(浦电路峨山路间)"},{"poiid":"B2094655D26BABF5459E","title":"集成大厦(西门)","lon":"121.5164","lat":"31.21886","category":"47","category_name":"住宅区","address":"浦城路868临"},{"poiid":"B2094654DA69ABF4409B","title":"众盛公寓(北门)","lon":"121.51616","lat":"31.21725","category":"47","category_name":"住宅区","address":"浦电路53弄5-16号"},{"poiid":"B2094655D26DA1FB4398","title":"上海鸿酒店","lon":"121.51611","lat":"31.22248","category":"250","category_name":"公园户外","address":"浦东新区潍坊西路88号(近浦城路)"},{"poiid":"B2094757D069A6F8449B","title":"华联超市(浦电路店)","lon":"121.51668","lat":"31.21704","category":"118","category_name":"超级市场","address":"浦东新区浦电路57号(近浦城路)"},{"poiid":"B2094757D065A5F5459B","title":"帕酷雅专业美车机构","lon":"121.514825738","lat":"31.2172520236","category":"500","category_name":"未知分类","address":"上海市浦东新区浦明路"},{"poiid":"B2094757D568A6FF4299","title":"菡香美容养生会所","lon":"121.51510634","lat":"31.21706923","category":"148","category_name":"美容美发店","address":"浦东新区浦电路31号(近第一八佰伴)"},{"poiid":"B2094654DA69ABF4409A","title":"众盛公寓","lon":"121.51619","lat":"31.216702","category":"47","category_name":"住宅区","address":"浦电路53弄5-16号"},{"poiid":"B2094655D26BA3F44299","title":"绿凯","lon":"121.51627","lat":"31.21728","category":"141","category_name":"服装鞋帽皮具店","address":"浦东新区浦电路57号(近浦城路)"},{"poiid":"B2094655D26BA0F4429D","title":"集成大厦","lon":"121.51656","lat":"31.21915","category":"47","category_name":"住宅区","address":"浦城路868临"},{"poiid":"B2094757D568A4F4479A","title":"紫云SPA会所","lon":"121.5162519","lat":"31.2192768","category":"148","category_name":"美容美发店","address":"浦东新区南泉路20号(近潍坊路)"},{"poiid":"B2094757D568ABF9499C","title":"新苗幼儿园","lon":"121.51491645","lat":"31.21655328","category":"57","category_name":"幼儿园","address":"浦电路29弄9"},{"poiid":"B2094654DA69ABFA439E","title":"谢家宅小区","lon":"121.51735","lat":"31.21881","category":"47","category_name":"住宅区","address":"浦电路48弄1-20号"},{"poiid":"B2094654DA69ABFA479B","title":"滨江兰庭","lon":"121.51628","lat":"31.220039","category":"47","category_name":"住宅区","address":"浦城路786弄"},{"poiid":"B2094654DA69A6F54799","title":"爱家·东旅大厦","lon":"121.51913","lat":"31.21537","category":"46","category_name":"楼宇","address":"南开滨海高新技术产业开发区华苑产业区兰苑路2号西侧(海泰大厦对面)"},{"poiid":"B2094654DA69ABF9499B","title":"百富达公寓","lon":"121.51849","lat":"31.21917","category":"47","category_name":"住宅区","address":"百富达公寓位于浦东浦东南路1650弄"},{"poiid":"B2094757D16CA1FB429B","title":"帕酷雅车炫坊","lon":"121.51479473","lat":"31.217530029","category":"500","category_name":"未知分类","address":"上海浦电路25号"},{"poiid":"B2094757D569A7FE499D","title":"资美·惠子特色美容","lon":"121.51479845","lat":"31.21681803","category":"148","category_name":"美容美发店","address":"浦电路29弄1号楼101室"},{"poiid":"B2094654DA69ABFA479F","title":"世茂滨江花园(潍坊西路)","lon":"121.51457","lat":"31.22077","category":"47","category_name":"住宅区","address":"潍坊西路2弄1-18号"},{"poiid":"B2094655D26BA2F54498","title":"浦东南路浦电路","lon":"121.51896","lat":"31.21941","category":"38","category_name":"公交车站","address":""},{"poiid":"B2094655D26BA2F54393","title":"浦东南路潍坊路","lon":"121.5181","lat":"31.22198","category":"38","category_name":"公交车站","address":""},{"poiid":"B209475CD564A7F84392","title":"上海滩浦东香格里拉店","lon":"121.50058","lat":"31.23634","category":"119","category_name":"商场","address":"浦东富成路33号香格里拉酒店内大堂层"},{"poiid":"B2094757D06EAAFC429E","title":"国家电网上海市电力公司浦东供电公司","lon":"121.519832","lat":"31.21794","category":"46","category_name":"楼宇","address":"上海浦东新区浦电路111号"},{"poiid":"B2094655D265A0F54793","title":"小南国世茂滨江店","lon":"121.51357","lat":"31.22296","category":"247","category_name":"餐饮美食","address":"浦东新区潍坊西路1弄18号世茂滨江内(近浦城路)"},{"poiid":"B2094757D068A3FD4198","title":"浦东大酒店","lon":"121.5177363","lat":"31.215603318","category":"217","category_name":"旅馆招待所","address":"上海浦东南路1888号"},{"poiid":"B2094654DB64A3FE429F","title":"锦江之星(陆家嘴店)","lon":"121.51617","lat":"31.21726","category":"216","category_name":"经济型连锁酒店","address":"上海市浦东新区浦电路57号(近浦城路)"},{"poiid":"B2094654DB64A3FD419D","title":"上海吉瑞酒店公寓","lon":"121.5201","lat":"31.21858","category":"214","category_name":"四星级宾馆","address":"浦东新区浦电路110号(浦东南路口)"},{"poiid":"B2094757D064A7FB419C","title":"世贸滨江","lon":"121.51353927","lat":"31.222660133","category":"47","category_name":"住宅区","address":"上海世贸滨江"},{"poiid":"B2094757D06EAAFE4493","title":"幸福码头创意园区","lon":"121.5111","lat":"31.216562","category":"45","category_name":"产业园区","address":"上海中山南路1029号"},{"poiid":"B2094654DB65A0F8479D","title":"莫泰168连锁旅店(浦东南路店)","lon":"121.5186","lat":"31.21701","category":"216","category_name":"经济型连锁酒店","address":"上海市浦东新区浦东南路1758号（近北张家浜路）"},{"poiid":"B2094757D068A2F8499F","title":"潍坊二村","lon":"121.51987","lat":"31.219891","category":"47","category_name":"住宅区","address":"浦东南路1533号"},{"poiid":"B2094654DB64A3FE4199","title":"上海市商贸旅游学校","lon":"121.5173","lat":"31.22112","category":"54","category_name":"职业技术学校","address":"浦东新区浦东南路1548号(潍坊路潍坊西路)"},{"poiid":"B2094654DA69ABF44193","title":"世茂滨江花园(南边门)","lon":"121.51452","lat":"31.21726","category":"47","category_name":"住宅区","address":""},{"poiid":"B2094757D469A7F4409F","title":"JSTONE","lon":"121.516112","lat":"31.222485","category":"94","category_name":"西餐厅","address":"浦东新区潍坊西路88号(近浦城路)"},{"poiid":"B2094757D16FA3F4469F","title":"OT 欧堤餐厅酒吧","lon":"121.514390738","lat":"31.2198190783","category":"247","category_name":"餐饮美食","address":"黄浦区外马路601号2栋3号楼110A-B室(近中山东一路)"},{"poiid":"B2094655D26BA2F5499C","title":"浦城路浦电路","lon":"121.51636","lat":"31.21848","category":"38","category_name":"公交车站","address":""},{"poiid":"B2094654DA69ABFA4593","title":"蒋老大羊肉家常菜","lon":"121.51681","lat":"31.21805","category":"76","category_name":"上海菜","address":"浦东新区浦城路900号(近湘旺阁)"},{"poiid":"B2094654DB6AA6F8429B","title":"上海华君酒店","lon":"121.51938","lat":"31.21864","category":"214","category_name":"四星级宾馆","address":"上海市浦东新区浦东南路1607号"},{"poiid":"B2094750D76CABF54799","title":"招财金煲","lon":"121.518","lat":"31.2183","category":"71","category_name":"四川菜","address":"浦东新区浦电路68号(近浦东南路)"},{"poiid":"B2094757D66BA0FE4099","title":"九卓堂","lon":"121.517141","lat":"31.2230009","category":"76","category_name":"上海菜","address":"浦东新区潍坊西路73号(潍坊路潍坊西路)"},{"poiid":"B2094654DA69ABF44199","title":"滨江大楼","lon":"121.51524","lat":"31.216516","category":"47","category_name":"住宅区","address":"浦电路29弄1-35号"},{"poiid":"B2094757D06BA6FC489A","title":"飞奔疯人院","lon":"121.517381738","lat":"31.2173150249","category":"500","category_name":"未知分类","address":"上海市浦东新区浦城路浦电路"},{"poiid":"B2094757DA6FA2FD439B","title":"新亚大包(浦电路店)","lon":"121.516269999999","lat":"31.2172890000001","category":"68","category_name":"快餐厅","address":"浦东新区浦电路57号(近浦城路)"},{"poiid":"B2094655D26AA7FB4898","title":"世贸滨江花园热带风情会所","lon":"121.51357","lat":"31.22296","category":"247","category_name":"餐饮美食","address":"浦东新区潍坊西路1弄世茂滨江花园16号(近浦城路)"},{"poiid":"B2094752DA65A4F5459E","title":"杨高中路地铁站","lon":"121.51657","lat":"31.219286","category":"36","category_name":"地铁站","address":"上海市 杨高中路"},{"poiid":"B2094654DA69ABF4439C","title":"上海市黄浦区精神卫生分中心","lon":"121.51716","lat":"31.2164","category":"162","category_name":"医院","address":"张家浜路39弄5"},{"poiid":"B2094654DB6AA7FE469A","title":"73家房客(浦东南路店)","lon":"121.51921","lat":"31.21891","category":"247","category_name":"餐饮美食","address":"浦东新区浦东南路1607号2楼(浦电路口)"},{"poiid":"B2094654DA69ABFA4192","title":"蔚蓝海岸天科苑","lon":"121.51779","lat":"31.22054","category":"47","category_name":"住宅区","address":"上海市浦东新区浦东南路1550号"},{"poiid":"B209475DD56CA1FC4899","title":"西塘古镇","lon":"121.516632","lat":"31.216506","category":"250","category_name":"公园户外","address":"上海市 浙江省嘉兴市嘉善县西塘"},{"poiid":"B2094654DB6AA6F8429F","title":"上海久阳滨江酒店","lon":"121.51708","lat":"31.22245","category":"214","category_name":"四星级宾馆","address":"浦东新区浦东南路1436号(近潍坊西路)"},{"poiid":"B2094654DA69ABF4449C","title":"又来亭","lon":"121.5188209973","lat":"31.217899894236","category":"96","category_name":"韩国料理","address":"浦东新区浦东南路1818号(浦电路峨山路间)"},{"poiid":"B2094655D26BABF5459E","title":"集成大厦(西门)","lon":"121.5164","lat":"31.21886","category":"47","category_name":"住宅区","address":"浦城路868临"},{"poiid":"B2094654DA69ABF4409B","title":"众盛公寓(北门)","lon":"121.51616","lat":"31.21725","category":"47","category_name":"住宅区","address":"浦电路53弄5-16号"},{"poiid":"B2094655D26DA1FB4398","title":"上海鸿酒店","lon":"121.51611","lat":"31.22248","category":"250","category_name":"公园户外","address":"浦东新区潍坊西路88号(近浦城路)"},{"poiid":"B2094757D069A6F8449B","title":"华联超市(浦电路店)","lon":"121.51668","lat":"31.21704","category":"118","category_name":"超级市场","address":"浦东新区浦电路57号(近浦城路)"},{"poiid":"B2094757D065A5F5459B","title":"帕酷雅专业美车机构","lon":"121.514825738","lat":"31.2172520236","category":"500","category_name":"未知分类","address":"上海市浦东新区浦明路"},{"poiid":"B2094757D568A6FF4299","title":"菡香美容养生会所","lon":"121.51510634","lat":"31.21706923","category":"148","category_name":"美容美发店","address":"浦东新区浦电路31号(近第一八佰伴)"},{"poiid":"B2094654DA69ABF4409A","title":"众盛公寓","lon":"121.51619","lat":"31.216702","category":"47","category_name":"住宅区","address":"浦电路53弄5-16号"},{"poiid":"B2094655D26BA3F44299","title":"绿凯","lon":"121.51627","lat":"31.21728","category":"141","category_name":"服装鞋帽皮具店","address":"浦东新区浦电路57号(近浦城路)"},{"poiid":"B2094655D26BA0F4429D","title":"集成大厦","lon":"121.51656","lat":"31.21915","category":"47","category_name":"住宅区","address":"浦城路868临"},{"poiid":"B2094757D568A4F4479A","title":"紫云SPA会所","lon":"121.5162519","lat":"31.2192768","category":"148","category_name":"美容美发店","address":"浦东新区南泉路20号(近潍坊路)"},{"poiid":"B2094757D568ABF9499C","title":"新苗幼儿园","lon":"121.51491645","lat":"31.21655328","category":"57","category_name":"幼儿园","address":"浦电路29弄9"},{"poiid":"B2094654DA69ABFA439E","title":"谢家宅小区","lon":"121.51735","lat":"31.21881","category":"47","category_name":"住宅区","address":"浦电路48弄1-20号"},{"poiid":"B2094654DA69ABFA479B","title":"滨江兰庭","lon":"121.51628","lat":"31.220039","category":"47","category_name":"住宅区","address":"浦城路786弄"},{"poiid":"B2094654DA69A6F54799","title":"爱家·东旅大厦","lon":"121.51913","lat":"31.21537","category":"46","category_name":"楼宇","address":"南开滨海高新技术产业开发区华苑产业区兰苑路2号西侧(海泰大厦对面)"},{"poiid":"B2094654DA69ABF9499B","title":"百富达公寓","lon":"121.51849","lat":"31.21917","category":"47","category_name":"住宅区","address":"百富达公寓位于浦东浦东南路1650弄"},{"poiid":"B2094757D16CA1FB429B","title":"帕酷雅车炫坊","lon":"121.51479473","lat":"31.217530029","category":"500","category_name":"未知分类","address":"上海浦电路25号"},{"poiid":"B2094757D569A7FE499D","title":"资美·惠子特色美容","lon":"121.51479845","lat":"31.21681803","category":"148","category_name":"美容美发店","address":"浦电路29弄1号楼101室"}]