[{"poiid":"B2094757DA6EA7FB479F","title":"G Water Front","lon":"121.507171000002","lat":"31.2175409999998","category":"247","category_name":"餐饮美食","address":"黄浦区外马路601号老码头沃弗3号库112室、206室"},{"poiid":"B2094757D168A6FC439E","title":"奥斯卡会所&薇丝酒吧","lon":"121.507143738","lat":"31.2182860456","category":"174","category_name":"迪厅","address":"上海外滩"},{"poiid":"B2094757DA69A1F9469A","title":"尚九外滩店","lon":"121.50774328047","lat":"31.216663643904","category":"111","category_name":"休闲餐饮场所","address":"黄浦区外马路653号4号库5楼(近王家码头路)"},{"poiid":"B209475CD564A7F84392","title":"上海滩浦东香格里拉店","lon":"121.50058","lat":"31.23634","category":"119","category_name":"商场","address":"浦东富成路33号香格里拉酒店内大堂层"},{"poiid":"B2094757D06FA3FF489B","title":"南外滩轻纺面料市场","lon":"121.50607078218","lat":"31.217393516946","category":"249","category_name":"购物服务","address":"黄浦区陆家浜路399号(近南仓街)"},{"poiid":"B2094757D16AA7F44893","title":"Sigma Film Club","lon":"121.507247738","lat":"31.2176420319","category":"72","category_name":"广东菜","address":"黄浦区外马路601号3号库3A楼(近老码头)"},{"poiid":"B2094757D465ABFE419E","title":"濠芭 The Steak and Oyster Bar","lon":"121.50754451752","lat":"31.216563470075","category":"88","category_name":"海鲜酒楼","address":"黄浦区老码头外马路653号宏基2期四号库105号商铺"},{"poiid":"B2094757DA6EAAF9489A","title":"纽约客匹萨(老码头店)","lon":"121.507447900002","lat":"31.2164712999997","category":"94","category_name":"西餐厅","address":"黄浦区外马路653号4库106室"},{"poiid":"B2094757D66BA1FC4793","title":"峯铁板烧","lon":"121.5069581","lat":"31.2178715","category":"269","category_name":"烧烤","address":"黄浦区外马路579号2号库302室"},{"poiid":"B2094757D468AAFA4393","title":"锘瓦 老码头店 NOVA","lon":"121.5074508","lat":"31.2164635","category":"94","category_name":"西餐厅","address":"黄浦区外马路653号4号库2楼(近王家码头路)"},{"poiid":"B2094752D269A1FE439F","title":"满记甜品","lon":"121.51564","lat":"31.210876","category":"247","category_name":"餐饮美食","address":"浦建路巴黎春天"},{"poiid":"B2094757D169ABFE449D","title":"巴富仕游艇会","lon":"121.505978738","lat":"31.2121359146","category":"500","category_name":"未知分类","address":"上海市黄浦区幸福码头创意园区"},{"poiid":"B2094655D268A1FA459F","title":"东江高尔夫会所","lon":"121.51033","lat":"31.2083","category":"206","category_name":"高尔夫相关","address":"小南码头路5号"},{"poiid":"B2094757D06EAAFE4493","title":"幸福码头创意园区","lon":"121.5111","lat":"31.216562","category":"45","category_name":"产业园区","address":"上海中山南路1029号"},{"poiid":"B2094757D168A2FF4999","title":"Rico Rico","lon":"121.507503738","lat":"31.2178780369","category":"500","category_name":"未知分类","address":"上海外滩奥斯卡"},{"poiid":"B2094654DB64A3FE429F","title":"锦江之星(陆家嘴店)","lon":"121.51617","lat":"31.21726","category":"216","category_name":"经济型连锁酒店","address":"上海市浦东新区浦电路57号(近浦城路)"},{"poiid":"B2094751D36AA4FF4993","title":"景汇酒店","lon":"121.50783","lat":"31.21542","category":"72","category_name":"广东菜","address":"黄浦区外马路725号老码头二期五号库5-6楼"},{"poiid":"B2094750D664A1FB489D","title":"外滩奥斯卡","lon":"121.507","lat":"31.2179","category":"260","category_name":"其他","address":"黄浦区外马路579号(近阳光沙滩)"},{"poiid":"B2094654DB6BABF44892","title":"上海南外滩大楼","lon":"121.50641","lat":"31.21476","category":"46","category_name":"楼宇","address":"浦东新区金湘路225弄"},{"poiid":"B2094654DA6EA4FF4892","title":"华普科技大厦","lon":"121.508","lat":"31.2161","category":"46","category_name":"楼宇","address":"徐汇区田林路300号"},{"poiid":"B2094757D068A4FA419F","title":"董家渡路轮渡","lon":"121.50824447","lat":"31.214948531","category":"35","category_name":"长途汽车站","address":"上海外马路737号"},{"poiid":"B2094654DA68AAF84599","title":"谷泰滨江大厦","lon":"121.50619","lat":"31.213778","category":"46","category_name":"楼宇","address":"朝阳京城大厦西100米路北(新源里14号)"},{"poiid":"B2094757D06AA2F44792","title":"仁恒广场","lon":"121.51391","lat":"31.209261","category":"46","category_name":"楼宇","address":"上海茂兴路90号"},{"poiid":"B2094757D16FA7F8409F","title":"外马路601号","lon":"121.505543238","lat":"31.2164155057","category":"500","category_name":"未知分类","address":"上海外马路601号"},{"poiid":"B2094654DA6EA4F84692","title":"南浦大厦","lon":"121.51","lat":"31.2171","category":"46","category_name":"楼宇","address":"丰台学城海鹰路1号,3号"},{"poiid":"B2094655D264A4F5479E","title":"中国人民财产保险公司大厦","lon":"121.50608","lat":"31.21533","category":"46","category_name":"楼宇","address":"行宫位于沈河北站一路41号"},{"poiid":"B2094753D26BABF84899","title":"梅赛德斯奔驰文化中心","lon":"121.511778","lat":"31.210557","category":"500","category_name":"未知分类","address":"上海市 上海浦东世博大道1200号"},{"poiid":"B2094757DB69A0F94398","title":"孔乙己月明楼","lon":"121.50743","lat":"31.21646","category":"72","category_name":"广东菜","address":"外马路653号四号库3楼近毛家园路"},{"poiid":"B2094757D465A4FA4193","title":"逦可餐厅 Rico Rico","lon":"121.507171","lat":"31.217541","category":"100","category_name":"地中海风格菜品","address":"黄浦区南外滩外马路601号114室(复兴轮渡南侧)"},{"poiid":"B2094655D268A1FA4699","title":"如家快捷酒店上海南外滩店","lon":"121.50653","lat":"31.21198","category":"216","category_name":"经济型连锁酒店","address":"黄浦区中山南路943号(董家渡口)"},{"poiid":"B2094750D56FA4F94798","title":"x密室","lon":"121.505592","lat":"31.21318","category":"248","category_name":"生活娱乐","address":null},{"poiid":"B2094655D264A5FA469A","title":"世博服务区上海馆A楼(移动援博办公楼)","lon":"121.51207","lat":"31.21234","category":"185","category_name":"会展中心","address":"塘桥新路78号"},{"poiid":"B2094654DA69ABF44193","title":"世茂滨江花园(南边门)","lon":"121.51452","lat":"31.21726","category":"47","category_name":"住宅区","address":""},{"poiid":"B2094655D26FA6F94399","title":"香园(浦明路)","lon":"121.51418","lat":"31.21349","category":"47","category_name":"住宅区","address":"上海浦明路1188弄-1228弄"},{"poiid":"B2094757DB69A5FD4192","title":"小南国 上海码头店","lon":"121.506884","lat":"31.218189","category":"247","category_name":"餐饮美食","address":"外马路579号4楼近新码头街"},{"poiid":"B2094750D76CABF4409B","title":"Bubba'sTexas-styleBBQ(老码头店)","lon":"121.507","lat":"31.2165","category":"94","category_name":"西餐厅","address":"黄浦区外马路653号103室(近码头路)"},{"poiid":"B2094655D26BA2F44998","title":"浦明路塘桥新路","lon":"121.51326","lat":"31.21196","category":"38","category_name":"公交车站","address":""},{"poiid":"B2094753D56AA0F94399","title":"小黑裙-法式西點La Petite Robe Noire","lon":"121.514472","lat":"31.214263","category":"247","category_name":"餐饮美食","address":"外馬路601號沃弗3號庫105"},{"poiid":"B2094757D168ABFC439A","title":"家化滨江苑","lon":"121.51449","lat":"31.21438","category":"47","category_name":"住宅区","address":"上海市浦东新区浦明路1188弄"},{"poiid":"B2094757D064A1FE4393","title":"嘉轩大酒店","lon":"121.50651","lat":"31.21271","category":"72","category_name":"广东菜","address":"黄浦区中山南路891号(近赖义码头街)"},{"poiid":"B2094757D168A2FD409D","title":"OT 歐堤餐廳酒吧","lon":"121.507375738","lat":"31.2176690324","category":"247","category_name":"餐饮美食","address":"上海黄浦区外馬路601號2號樓110A"},{"poiid":"B2094757D66EA0FD4293","title":"家化滨江苑会所","lon":"121.51391433","lat":"31.21477567","category":"500","category_name":"未知分类","address":"上海浦明路1188号"},{"poiid":"B2094655D36CA6FA4393","title":"董家渡","lon":"121.50658","lat":"31.21535","category":"38","category_name":"公交车站","address":""},{"poiid":"B2094752D06CA5FE4293","title":"景汇Vista","lon":"121.507089","lat":"31.215709","category":"247","category_name":"餐饮美食","address":"外马路729号五层六层"},{"poiid":"B2094757D064A3F44998","title":"塘桥轮渡站","lon":"121.51180901","lat":"31.212446273","category":"260","category_name":"其他","address":"上海浦东新区塘桥路1号"},{"poiid":"B2094654DA68AAF84298","title":"张江商务大厦","lon":"121.50686","lat":"31.21231","category":"46","category_name":"楼宇","address":"沈河北站路与北京街的交汇处"},{"poiid":"B2094757D064ABFB459C","title":"国家税务局三分局","lon":"121.507158","lat":"31.213001","category":"500","category_name":"未知分类","address":"上海中山南路865号"},{"poiid":"B2094750D26BA0FD409D","title":"Bravo意大利餐厅酒吧","lon":"121.50716213491819","lat":"31.217520040380812","category":"94","category_name":"西餐厅","address":"黄浦区外马路601号1楼111室"},{"poiid":"B2094757D06FA7F54792","title":"中国人民财产保险股份有限公司上海市分公司","lon":"121.505528","lat":"31.215226","category":"46","category_name":"楼宇","address":"上海中山南路700号"},{"poiid":"B2094757D16EA4FA4592","title":"The Water House At South Bund","lon":"121.51007843","lat":"31.2181015015","category":"500","category_name":"未知分类","address":"上海毛家园路1-3"},{"poiid":"B2094757DA6EA7FB479F","title":"G Water Front","lon":"121.507171000002","lat":"31.2175409999998","category":"247","category_name":"餐饮美食","address":"黄浦区外马路601号老码头沃弗3号库112室、206室"},{"poiid":"B2094757D168A6FC439E","title":"奥斯卡会所&薇丝酒吧","lon":"121.507143738","lat":"31.2182860456","category":"174","category_name":"迪厅","address":"上海外滩"},{"poiid":"B2094757DA69A1F9469A","title":"尚九外滩店","lon":"121.50774328047","lat":"31.216663643904","category":"111","category_name":"休闲餐饮场所","address":"黄浦区外马路653号4号库5楼(近王家码头路)"},{"poiid":"B209475CD564A7F84392","title":"上海滩浦东香格里拉店","lon":"121.50058","lat":"31.23634","category":"119","category_name":"商场","address":"浦东富成路33号香格里拉酒店内大堂层"},{"poiid":"B2094757D06FA3FF489B","title":"南外滩轻纺面料市场","lon":"121.50607078218","lat":"31.217393516946","category":"249","category_name":"购物服务","address":"黄浦区陆家浜路399号(近南仓街)"},{"poiid":"B2094757D16AA7F44893","title":"Sigma Film Club","lon":"121.507247738","lat":"31.2176420319","category":"72","category_name":"广东菜","address":"黄浦区外马路601号3号库3A楼(近老码头)"},{"poiid":"B2094757D465ABFE419E","title":"濠芭 The Steak and Oyster Bar","lon":"121.50754451752","lat":"31.216563470075","category":"88","category_name":"海鲜酒楼","address":"黄浦区老码头外马路653号宏基2期四号库105号商铺"},{"poiid":"B2094757DA6EAAF9489A","title":"纽约客匹萨(老码头店)","lon":"121.507447900002","lat":"31.2164712999997","category":"94","category_name":"西餐厅","address":"黄浦区外马路653号4库106室"},{"poiid":"B2094757D66BA1FC4793","title":"峯铁板烧","lon":"121.5069581","lat":"31.2178715","category":"269","category_name":"烧烤","address":"黄浦区外马路579号2号库302室"},{"poiid":"B2094757D468AAFA4393","title":"锘瓦 老码头店 NOVA","lon":"121.5074508","lat":"31.2164635","category":"94","category_name":"西餐厅","address":"黄浦区外马路653号4号库2楼(近王家码头路)"},{"poiid":"B2094752D269A1FE439F","title":"满记甜品","lon":"121.51564","lat":"31.210876","category":"247","category_name":"餐饮美食","address":"浦建路巴黎春天"},{"poiid":"B2094757D169ABFE449D","title":"巴富仕游艇会","lon":"121.505978738","lat":"31.2121359146","category":"500","category_name":"未知分类","address":"上海市黄浦区幸福码头创意园区"},{"poiid":"B2094655D268A1FA459F","title":"东江高尔夫会所","lon":"121.51033","lat":"31.2083","category":"206","category_name":"高尔夫相关","address":"小南码头路5号"},{"poiid":"B2094757D06EAAFE4493","title":"幸福码头创意园区","lon":"121.5111","lat":"31.216562","category":"45","category_name":"产业园区","address":"上海中山南路1029号"},{"poiid":"B2094757D168A2FF4999","title":"Rico Rico","lon":"121.507503738","lat":"31.2178780369","category":"500","category_name":"未知分类","address":"上海外滩奥斯卡"},{"poiid":"B2094654DB64A3FE429F","title":"锦江之星(陆家嘴店)","lon":"121.51617","lat":"31.21726","category":"216","category_name":"经济型连锁酒店","address":"上海市浦东新区浦电路57号(近浦城路)"},{"poiid":"B2094751D36AA4FF4993","title":"景汇酒店","lon":"121.50783","lat":"31.21542","category":"72","category_name":"广东菜","address":"黄浦区外马路725号老码头二期五号库5-6楼"},{"poiid":"B2094750D664A1FB489D","title":"外滩奥斯卡","lon":"121.507","lat":"31.2179","category":"260","category_name":"其他","address":"黄浦区外马路579号(近阳光沙滩)"},{"poiid":"B2094654DB6BABF44892","title":"上海南外滩大楼","lon":"121.50641","lat":"31.21476","category":"46","category_name":"楼宇","address":"浦东新区金湘路225弄"},{"poiid":"B2094654DA6EA4FF4892","title":"华普科技大厦","lon":"121.508","lat":"31.2161","category":"46","category_name":"楼宇","address":"徐汇区田林路300号"},{"poiid":"B2094757D068A4FA419F","title":"董家渡路轮渡","lon":"121.50824447","lat":"31.214948531","category":"35","category_name":"长途汽车站","address":"上海外马路737号"},{"poiid":"B2094654DA68AAF84599","title":"谷泰滨江大厦","lon":"121.50619","lat":"31.213778","category":"46","category_name":"楼宇","address":"朝阳京城大厦西100米路北(新源里14号)"},{"poiid":"B2094757D06AA2F44792","title":"仁恒广场","lon":"121.51391","lat":"31.209261","category":"46","category_name":"楼宇","address":"上海茂兴路90号"},{"poiid":"B2094757D16FA7F8409F","title":"外马路601号","lon":"121.505543238","lat":"31.2164155057","category":"500","category_name":"未知分类","address":"上海外马路601号"},{"poiid":"B2094654DA6EA4F84692","title":"南浦大厦","lon":"121.51","lat":"31.2171","category":"46","category_name":"楼宇","address":"丰台学城海鹰路1号,3号"},{"poiid":"B2094655D264A4F5479E","title":"中国人民财产保险公司大厦","lon":"121.50608","lat":"31.21533","category":"46","category_name":"楼宇","address":"行宫位于沈河北站一路41号"},{"poiid":"B2094753D26BABF84899","title":"梅赛德斯奔驰文化中心","lon":"121.511778","lat":"31.210557","category":"500","category_name":"未知分类","address":"上海市 上海浦东世博大道1200号"},{"poiid":"B2094757DB69A0F94398","title":"孔乙己月明楼","lon":"121.50743","lat":"31.21646","category":"72","category_name":"广东菜","address":"外马路653号四号库3楼近毛家园路"},{"poiid":"B2094757D465A4FA4193","title":"逦可餐厅 Rico Rico","lon":"121.507171","lat":"31.217541","category":"100","category_name":"地中海风格菜品","address":"黄浦区南外滩外马路601号114室(复兴轮渡南侧)"},{"poiid":"B2094655D268A1FA4699","title":"如家快捷酒店上海南外滩店","lon":"121.50653","lat":"31.21198","category":"216","category_name":"经济型连锁酒店","address":"黄浦区中山南路943号(董家渡口)"},{"poiid":"B2094750D56FA4F94798","title":"x密室","lon":"121.505592","lat":"31.21318","category":"248","category_name":"生活娱乐","address":null},{"poiid":"B2094655D264A5FA469A","title":"世博服务区上海馆A楼(移动援博办公楼)","lon":"121.51207","lat":"31.21234","category":"185","category_name":"会展中心","address":"塘桥新路78号"},{"poiid":"B2094654DA69ABF44193","title":"世茂滨江花园(南边门)","lon":"121.51452","lat":"31.21726","category":"47","category_name":"住宅区","address":""},{"poiid":"B2094655D26FA6F94399","title":"香园(浦明路)","lon":"121.51418","lat":"31.21349","category":"47","category_name":"住宅区","address":"上海浦明路1188弄-1228弄"},{"poiid":"B2094757DB69A5FD4192","title":"小南国 上海码头店","lon":"121.506884","lat":"31.218189","category":"247","category_name":"餐饮美食","address":"外马路579号4楼近新码头街"},{"poiid":"B2094750D76CABF4409B","title":"Bubba'sTexas-styleBBQ(老码头店)","lon":"121.507","lat":"31.2165","category":"94","category_name":"西餐厅","address":"黄浦区外马路653号103室(近码头路)"},{"poiid":"B2094655D26BA2F44998","title":"浦明路塘桥新路","lon":"121.51326","lat":"31.21196","category":"38","category_name":"公交车站","address":""},{"poiid":"B2094753D56AA0F94399","title":"小黑裙-法式西點La Petite Robe Noire","lon":"121.514472","lat":"31.214263","category":"247","category_name":"餐饮美食","address":"外馬路601號沃弗3號庫105"},{"poiid":"B2094757D168ABFC439A","title":"家化滨江苑","lon":"121.51449","lat":"31.21438","category":"47","category_name":"住宅区","address":"上海市浦东新区浦明路1188弄"},{"poiid":"B2094757D064A1FE4393","title":"嘉轩大酒店","lon":"121.50651","lat":"31.21271","category":"72","category_name":"广东菜","address":"黄浦区中山南路891号(近赖义码头街)"},{"poiid":"B2094757D168A2FD409D","title":"OT 歐堤餐廳酒吧","lon":"121.507375738","lat":"31.2176690324","category":"247","category_name":"餐饮美食","address":"上海黄浦区外馬路601號2號樓110A"},{"poiid":"B2094757D66EA0FD4293","title":"家化滨江苑会所","lon":"121.51391433","lat":"31.21477567","category":"500","category_name":"未知分类","address":"上海浦明路1188号"},{"poiid":"B2094655D36CA6FA4393","title":"董家渡","lon":"121.50658","lat":"31.21535","category":"38","category_name":"公交车站","address":""},{"poiid":"B2094752D06CA5FE4293","title":"景汇Vista","lon":"121.507089","lat":"31.215709","category":"247","category_name":"餐饮美食","address":"外马路729号五层六层"},{"poiid":"B2094757D064A3F44998","title":"塘桥轮渡站","lon":"121.51180901","lat":"31.212446273","category":"260","category_name":"其他","address":"上海浦东新区塘桥路1号"},{"poiid":"B2094654DA68AAF84298","title":"张江商务大厦","lon":"121.50686","lat":"31.21231","category":"46","category_name":"楼宇","address":"沈河北站路与北京街的交汇处"},{"poiid":"B2094757D064ABFB459C","title":"国家税务局三分局","lon":"121.507158","lat":"31.213001","category":"500","category_name":"未知分类","address":"上海中山南路865号"},{"poiid":"B2094750D26BA0FD409D","title":"Bravo意大利餐厅酒吧","lon":"121.50716213491819","lat":"31.217520040380812","category":"94","category_name":"西餐厅","address":"黄浦区外马路601号1楼111室"},{"poiid":"B2094757D06FA7F54792","title":"中国人民财产保险股份有限公司上海市分公司","lon":"121.505528","lat":"31.215226","category":"46","category_name":"楼宇","address":"上海中山南路700号"},{"poiid":"B2094757D16EA4FA4592","title":"The Water House At South Bund","lon":"121.51007843","lat":"31.2181015015","category":"500","category_name":"未知分类","address":"上海毛家园路1-3"},{"poiid":"B2094757DA6EA7FB479F","title":"G Water Front","lon":"121.507171000002","lat":"31.2175409999998","category":"247","category_name":"餐饮美食","address":"黄浦区外马路601号老码头沃弗3号库112室、206室"},{"poiid":"B2094757D168A6FC439E","title":"奥斯卡会所&薇丝酒吧","lon":"121.507143738","lat":"31.2182860456","category":"174","category_name":"迪厅","address":"上海外滩"},{"poiid":"B2094757DA69A1F9469A","title":"尚九外滩店","lon":"121.50774328047","lat":"31.216663643904","category":"111","category_name":"休闲餐饮场所","address":"黄浦区外马路653号4号库5楼(近王家码头路)"},{"poiid":"B209475CD564A7F84392","title":"上海滩浦东香格里拉店","lon":"121.50058","lat":"31.23634","category":"119","category_name":"商场","address":"浦东富成路33号香格里拉酒店内大堂层"},{"poiid":"B2094757D06FA3FF489B","title":"南外滩轻纺面料市场","lon":"121.50607078218","lat":"31.217393516946","category":"249","category_name":"购物服务","address":"黄浦区陆家浜路399号(近南仓街)"},{"poiid":"B2094757D16AA7F44893","title":"Sigma Film Club","lon":"121.507247738","lat":"31.2176420319","category":"72","category_name":"广东菜","address":"黄浦区外马路601号3号库3A楼(近老码头)"},{"poiid":"B2094757D465ABFE419E","title":"濠芭 The Steak and Oyster Bar","lon":"121.50754451752","lat":"31.216563470075","category":"88","category_name":"海鲜酒楼","address":"黄浦区老码头外马路653号宏基2期四号库105号商铺"},{"poiid":"B2094757DA6EAAF9489A","title":"纽约客匹萨(老码头店)","lon":"121.507447900002","lat":"31.2164712999997","category":"94","category_name":"西餐厅","address":"黄浦区外马路653号4库106室"},{"poiid":"B2094757D66BA1FC4793","title":"峯铁板烧","lon":"121.5069581","lat":"31.2178715","category":"269","category_name":"烧烤","address":"黄浦区外马路579号2号库302室"},{"poiid":"B2094757D468AAFA4393","title":"锘瓦 老码头店 NOVA","lon":"121.5074508","lat":"31.2164635","category":"94","category_name":"西餐厅","address":"黄浦区外马路653号4号库2楼(近王家码头路)"},{"poiid":"B2094752D269A1FE439F","title":"满记甜品","lon":"121.51564","lat":"31.210876","category":"247","category_name":"餐饮美食","address":"浦建路巴黎春天"},{"poiid":"B2094757D169ABFE449D","title":"巴富仕游艇会","lon":"121.505978738","lat":"31.2121359146","category":"500","category_name":"未知分类","address":"上海市黄浦区幸福码头创意园区"},{"poiid":"B2094655D268A1FA459F","title":"东江高尔夫会所","lon":"121.51033","lat":"31.2083","category":"206","category_name":"高尔夫相关","address":"小南码头路5号"},{"poiid":"B2094757D06EAAFE4493","title":"幸福码头创意园区","lon":"121.5111","lat":"31.216562","category":"45","category_name":"产业园区","address":"上海中山南路1029号"},{"poiid":"B2094757D168A2FF4999","title":"Rico Rico","lon":"121.507503738","lat":"31.2178780369","category":"500","category_name":"未知分类","address":"上海外滩奥斯卡"},{"poiid":"B2094654DB64A3FE429F","title":"锦江之星(陆家嘴店)","lon":"121.51617","lat":"31.21726","category":"216","category_name":"经济型连锁酒店","address":"上海市浦东新区浦电路57号(近浦城路)"},{"poiid":"B2094751D36AA4FF4993","title":"景汇酒店","lon":"121.50783","lat":"31.21542","category":"72","category_name":"广东菜","address":"黄浦区外马路725号老码头二期五号库5-6楼"},{"poiid":"B2094750D664A1FB489D","title":"外滩奥斯卡","lon":"121.507","lat":"31.2179","category":"260","category_name":"其他","address":"黄浦区外马路579号(近阳光沙滩)"},{"poiid":"B2094654DB6BABF44892","title":"上海南外滩大楼","lon":"121.50641","lat":"31.21476","category":"46","category_name":"楼宇","address":"浦东新区金湘路225弄"},{"poiid":"B2094654DA6EA4FF4892","title":"华普科技大厦","lon":"121.508","lat":"31.2161","category":"46","category_name":"楼宇","address":"徐汇区田林路300号"},{"poiid":"B2094757D068A4FA419F","title":"董家渡路轮渡","lon":"121.50824447","lat":"31.214948531","category":"35","category_name":"长途汽车站","address":"上海外马路737号"},{"poiid":"B2094654DA68AAF84599","title":"谷泰滨江大厦","lon":"121.50619","lat":"31.213778","category":"46","category_name":"楼宇","address":"朝阳京城大厦西100米路北(新源里14号)"},{"poiid":"B2094757D06AA2F44792","title":"仁恒广场","lon":"121.51391","lat":"31.209261","category":"46","category_name":"楼宇","address":"上海茂兴路90号"},{"poiid":"B2094757D16FA7F8409F","title":"外马路601号","lon":"121.505543238","lat":"31.2164155057","category":"500","category_name":"未知分类","address":"上海外马路601号"},{"poiid":"B2094654DA6EA4F84692","title":"南浦大厦","lon":"121.51","lat":"31.2171","category":"46","category_name":"楼宇","address":"丰台学城海鹰路1号,3号"},{"poiid":"B2094655D264A4F5479E","title":"中国人民财产保险公司大厦","lon":"121.50608","lat":"31.21533","category":"46","category_name":"楼宇","address":"行宫位于沈河北站一路41号"},{"poiid":"B2094753D26BABF84899","title":"梅赛德斯奔驰文化中心","lon":"121.511778","lat":"31.210557","category":"500","category_name":"未知分类","address":"上海市 上海浦东世博大道1200号"},{"poiid":"B2094757DB69A0F94398","title":"孔乙己月明楼","lon":"121.50743","lat":"31.21646","category":"72","category_name":"广东菜","address":"外马路653号四号库3楼近毛家园路"},{"poiid":"B2094757D465A4FA4193","title":"逦可餐厅 Rico Rico","lon":"121.507171","lat":"31.217541","category":"100","category_name":"地中海风格菜品","address":"黄浦区南外滩外马路601号114室(复兴轮渡南侧)"},{"poiid":"B2094655D268A1FA4699","title":"如家快捷酒店上海南外滩店","lon":"121.50653","lat":"31.21198","category":"216","category_name":"经济型连锁酒店","address":"黄浦区中山南路943号(董家渡口)"},{"poiid":"B2094750D56FA4F94798","title":"x密室","lon":"121.505592","lat":"31.21318","category":"248","category_name":"生活娱乐","address":null},{"poiid":"B2094655D264A5FA469A","title":"世博服务区上海馆A楼(移动援博办公楼)","lon":"121.51207","lat":"31.21234","category":"185","category_name":"会展中心","address":"塘桥新路78号"},{"poiid":"B2094654DA69ABF44193","title":"世茂滨江花园(南边门)","lon":"121.51452","lat":"31.21726","category":"47","category_name":"住宅区","address":""},{"poiid":"B2094655D26FA6F94399","title":"香园(浦明路)","lon":"121.51418","lat":"31.21349","category":"47","category_name":"住宅区","address":"上海浦明路1188弄-1228弄"},{"poiid":"B2094757DB69A5FD4192","title":"小南国 上海码头店","lon":"121.506884","lat":"31.218189","category":"247","category_name":"餐饮美食","address":"外马路579号4楼近新码头街"},{"poiid":"B2094750D76CABF4409B","title":"Bubba'sTexas-styleBBQ(老码头店)","lon":"121.507","lat":"31.2165","category":"94","category_name":"西餐厅","address":"黄浦区外马路653号103室(近码头路)"},{"poiid":"B2094655D26BA2F44998","title":"浦明路塘桥新路","lon":"121.51326","lat":"31.21196","category":"38","category_name":"公交车站","address":""},{"poiid":"B2094753D56AA0F94399","title":"小黑裙-法式西點La Petite Robe Noire","lon":"121.514472","lat":"31.214263","category":"247","category_name":"餐饮美食","address":"外馬路601號沃弗3號庫105"},{"poiid":"B2094757D168ABFC439A","title":"家化滨江苑","lon":"121.51449","lat":"31.21438","category":"47","category_name":"住宅区","address":"上海市浦东新区浦明路1188弄"},{"poiid":"B2094757D064A1FE4393","title":"嘉轩大酒店","lon":"121.50651","lat":"31.21271","category":"72","category_name":"广东菜","address":"黄浦区中山南路891号(近赖义码头街)"},{"poiid":"B2094757D168A2FD409D","title":"OT 歐堤餐廳酒吧","lon":"121.507375738","lat":"31.2176690324","category":"247","category_name":"餐饮美食","address":"上海黄浦区外馬路601號2號樓110A"},{"poiid":"B2094757D66EA0FD4293","title":"家化滨江苑会所","lon":"121.51391433","lat":"31.21477567","category":"500","category_name":"未知分类","address":"上海浦明路1188号"},{"poiid":"B2094655D36CA6FA4393","title":"董家渡","lon":"121.50658","lat":"31.21535","category":"38","category_name":"公交车站","address":""},{"poiid":"B2094752D06CA5FE4293","title":"景汇Vista","lon":"121.507089","lat":"31.215709","category":"247","category_name":"餐饮美食","address":"外马路729号五层六层"},{"poiid":"B2094757D064A3F44998","title":"塘桥轮渡站","lon":"121.51180901","lat":"31.212446273","category":"260","category_name":"其他","address":"上海浦东新区塘桥路1号"},{"poiid":"B2094654DA68AAF84298","title":"张江商务大厦","lon":"121.50686","lat":"31.21231","category":"46","category_name":"楼宇","address":"沈河北站路与北京街的交汇处"},{"poiid":"B2094757D064ABFB459C","title":"国家税务局三分局","lon":"121.507158","lat":"31.213001","category":"500","category_name":"未知分类","address":"上海中山南路865号"},{"poiid":"B2094750D26BA0FD409D","title":"Bravo意大利餐厅酒吧","lon":"121.50716213491819","lat":"31.217520040380812","category":"94","category_name":"西餐厅","address":"黄浦区外马路601号1楼111室"},{"poiid":"B2094757D06FA7F54792","title":"中国人民财产保险股份有限公司上海市分公司","lon":"121.505528","lat":"31.215226","category":"46","category_name":"楼宇","address":"上海中山南路700号"},{"poiid":"B2094757D16EA4FA4592","title":"The Water House At South Bund","lon":"121.51007843","lat":"31.2181015015","category":"500","category_name":"未知分类","address":"上海毛家园路1-3"},{"poiid":"B2094757DA6EA7FB479F","title":"G Water Front","lon":"121.507171000002","lat":"31.2175409999998","category":"247","category_name":"餐饮美食","address":"黄浦区外马路601号老码头沃弗3号库112室、206室"},{"poiid":"B2094757D168A6FC439E","title":"奥斯卡会所&薇丝酒吧","lon":"121.507143738","lat":"31.2182860456","category":"174","category_name":"迪厅","address":"上海外滩"},{"poiid":"B2094757DA69A1F9469A","title":"尚九外滩店","lon":"121.50774328047","lat":"31.216663643904","category":"111","category_name":"休闲餐饮场所","address":"黄浦区外马路653号4号库5楼(近王家码头路)"},{"poiid":"B209475CD564A7F84392","title":"上海滩浦东香格里拉店","lon":"121.50058","lat":"31.23634","category":"119","category_name":"商场","address":"浦东富成路33号香格里拉酒店内大堂层"},{"poiid":"B2094757D06FA3FF489B","title":"南外滩轻纺面料市场","lon":"121.50607078218","lat":"31.217393516946","category":"249","category_name":"购物服务","address":"黄浦区陆家浜路399号(近南仓街)"},{"poiid":"B2094757D16AA7F44893","title":"Sigma Film Club","lon":"121.507247738","lat":"31.2176420319","category":"72","category_name":"广东菜","address":"黄浦区外马路601号3号库3A楼(近老码头)"},{"poiid":"B2094757D465ABFE419E","title":"濠芭 The Steak and Oyster Bar","lon":"121.50754451752","lat":"31.216563470075","category":"88","category_name":"海鲜酒楼","address":"黄浦区老码头外马路653号宏基2期四号库105号商铺"},{"poiid":"B2094757DA6EAAF9489A","title":"纽约客匹萨(老码头店)","lon":"121.507447900002","lat":"31.2164712999997","category":"94","category_name":"西餐厅","address":"黄浦区外马路653号4库106室"},{"poiid":"B2094757D66BA1FC4793","title":"峯铁板烧","lon":"121.5069581","lat":"31.2178715","category":"269","category_name":"烧烤","address":"黄浦区外马路579号2号库302室"},{"poiid":"B2094757D468AAFA4393","title":"锘瓦 老码头店 NOVA","lon":"121.5074508","lat":"31.2164635","category":"94","category_name":"西餐厅","address":"黄浦区外马路653号4号库2楼(近王家码头路)"},{"poiid":"B2094752D269A1FE439F","title":"满记甜品","lon":"121.51564","lat":"31.210876","category":"247","category_name":"餐饮美食","address":"浦建路巴黎春天"},{"poiid":"B2094757D169ABFE449D","title":"巴富仕游艇会","lon":"121.505978738","lat":"31.2121359146","category":"500","category_name":"未知分类","address":"上海市黄浦区幸福码头创意园区"},{"poiid":"B2094655D268A1FA459F","title":"东江高尔夫会所","lon":"121.51033","lat":"31.2083","category":"206","category_name":"高尔夫相关","address":"小南码头路5号"},{"poiid":"B2094757D06EAAFE4493","title":"幸福码头创意园区","lon":"121.5111","lat":"31.216562","category":"45","category_name":"产业园区","address":"上海中山南路1029号"},{"poiid":"B2094757D168A2FF4999","title":"Rico Rico","lon":"121.507503738","lat":"31.2178780369","category":"500","category_name":"未知分类","address":"上海外滩奥斯卡"},{"poiid":"B2094654DB64A3FE429F","title":"锦江之星(陆家嘴店)","lon":"121.51617","lat":"31.21726","category":"216","category_name":"经济型连锁酒店","address":"上海市浦东新区浦电路57号(近浦城路)"},{"poiid":"B2094751D36AA4FF4993","title":"景汇酒店","lon":"121.50783","lat":"31.21542","category":"72","category_name":"广东菜","address":"黄浦区外马路725号老码头二期五号库5-6楼"},{"poiid":"B2094750D664A1FB489D","title":"外滩奥斯卡","lon":"121.507","lat":"31.2179","category":"260","category_name":"其他","address":"黄浦区外马路579号(近阳光沙滩)"},{"poiid":"B2094654DB6BABF44892","title":"上海南外滩大楼","lon":"121.50641","lat":"31.21476","category":"46","category_name":"楼宇","address":"浦东新区金湘路225弄"},{"poiid":"B2094654DA6EA4FF4892","title":"华普科技大厦","lon":"121.508","lat":"31.2161","category":"46","category_name":"楼宇","address":"徐汇区田林路300号"},{"poiid":"B2094757D068A4FA419F","title":"董家渡路轮渡","lon":"121.50824447","lat":"31.214948531","category":"35","category_name":"长途汽车站","address":"上海外马路737号"},{"poiid":"B2094654DA68AAF84599","title":"谷泰滨江大厦","lon":"121.50619","lat":"31.213778","category":"46","category_name":"楼宇","address":"朝阳京城大厦西100米路北(新源里14号)"},{"poiid":"B2094757D06AA2F44792","title":"仁恒广场","lon":"121.51391","lat":"31.209261","category":"46","category_name":"楼宇","address":"上海茂兴路90号"},{"poiid":"B2094757D16FA7F8409F","title":"外马路601号","lon":"121.505543238","lat":"31.2164155057","category":"500","category_name":"未知分类","address":"上海外马路601号"},{"poiid":"B2094654DA6EA4F84692","title":"南浦大厦","lon":"121.51","lat":"31.2171","category":"46","category_name":"楼宇","address":"丰台学城海鹰路1号,3号"},{"poiid":"B2094655D264A4F5479E","title":"中国人民财产保险公司大厦","lon":"121.50608","lat":"31.21533","category":"46","category_name":"楼宇","address":"行宫位于沈河北站一路41号"},{"poiid":"B2094753D26BABF84899","title":"梅赛德斯奔驰文化中心","lon":"121.511778","lat":"31.210557","category":"500","category_name":"未知分类","address":"上海市 上海浦东世博大道1200号"},{"poiid":"B2094757DB69A0F94398","title":"孔乙己月明楼","lon":"121.50743","lat":"31.21646","category":"72","category_name":"广东菜","address":"外马路653号四号库3楼近毛家园路"},{"poiid":"B2094757D465A4FA4193","title":"逦可餐厅 Rico Rico","lon":"121.507171","lat":"31.217541","category":"100","category_name":"地中海风格菜品","address":"黄浦区南外滩外马路601号114室(复兴轮渡南侧)"},{"poiid":"B2094655D268A1FA4699","title":"如家快捷酒店上海南外滩店","lon":"121.50653","lat":"31.21198","category":"216","category_name":"经济型连锁酒店","address":"黄浦区中山南路943号(董家渡口)"},{"poiid":"B2094750D56FA4F94798","title":"x密室","lon":"121.505592","lat":"31.21318","category":"248","category_name":"生活娱乐","address":null},{"poiid":"B2094655D264A5FA469A","title":"世博服务区上海馆A楼(移动援博办公楼)","lon":"121.51207","lat":"31.21234","category":"185","category_name":"会展中心","address":"塘桥新路78号"},{"poiid":"B2094654DA69ABF44193","title":"世茂滨江花园(南边门)","lon":"121.51452","lat":"31.21726","category":"47","category_name":"住宅区","address":""},{"poiid":"B2094655D26FA6F94399","title":"香园(浦明路)","lon":"121.51418","lat":"31.21349","category":"47","category_name":"住宅区","address":"上海浦明路1188弄-1228弄"},{"poiid":"B2094757DB69A5FD4192","title":"小南国 上海码头店","lon":"121.506884","lat":"31.218189","category":"247","category_name":"餐饮美食","address":"外马路579号4楼近新码头街"},{"poiid":"B2094750D76CABF4409B","title":"Bubba'sTexas-styleBBQ(老码头店)","lon":"121.507","lat":"31.2165","category":"94","category_name":"西餐厅","address":"黄浦区外马路653号103室(近码头路)"},{"poiid":"B2094655D26BA2F44998","title":"浦明路塘桥新路","lon":"121.51326","lat":"31.21196","category":"38","category_name":"公交车站","address":""},{"poiid":"B2094753D56AA0F94399","title":"小黑裙-法式西點La Petite Robe Noire","lon":"121.514472","lat":"31.214263","category":"247","category_name":"餐饮美食","address":"外馬路601號沃弗3號庫105"},{"poiid":"B2094757D168ABFC439A","title":"家化滨江苑","lon":"121.51449","lat":"31.21438","category":"47","category_name":"住宅区","address":"上海市浦东新区浦明路1188弄"},{"poiid":"B2094757D064A1FE4393","title":"嘉轩大酒店","lon":"121.50651","lat":"31.21271","category":"72","category_name":"广东菜","address":"黄浦区中山南路891号(近赖义码头街)"},{"poiid":"B2094757D168A2FD409D","title":"OT 歐堤餐廳酒吧","lon":"121.507375738","lat":"31.2176690324","category":"247","category_name":"餐饮美食","address":"上海黄浦区外馬路601號2號樓110A"},{"poiid":"B2094757D66EA0FD4293","title":"家化滨江苑会所","lon":"121.51391433","lat":"31.21477567","category":"500","category_name":"未知分类","address":"上海浦明路1188号"},{"poiid":"B2094655D36CA6FA4393","title":"董家渡","lon":"121.50658","lat":"31.21535","category":"38","category_name":"公交车站","address":""},{"poiid":"B2094752D06CA5FE4293","title":"景汇Vista","lon":"121.507089","lat":"31.215709","category":"247","category_name":"餐饮美食","address":"外马路729号五层六层"},{"poiid":"B2094757D064A3F44998","title":"塘桥轮渡站","lon":"121.51180901","lat":"31.212446273","category":"260","category_name":"其他","address":"上海浦东新区塘桥路1号"},{"poiid":"B2094654DA68AAF84298","title":"张江商务大厦","lon":"121.50686","lat":"31.21231","category":"46","category_name":"楼宇","address":"沈河北站路与北京街的交汇处"},{"poiid":"B2094757D064ABFB459C","title":"国家税务局三分局","lon":"121.507158","lat":"31.213001","category":"500","category_name":"未知分类","address":"上海中山南路865号"},{"poiid":"B2094750D26BA0FD409D","title":"Bravo意大利餐厅酒吧","lon":"121.50716213491819","lat":"31.217520040380812","category":"94","category_name":"西餐厅","address":"黄浦区外马路601号1楼111室"},{"poiid":"B2094757D06FA7F54792","title":"中国人民财产保险股份有限公司上海市分公司","lon":"121.505528","lat":"31.215226","category":"46","category_name":"楼宇","address":"上海中山南路700号"},{"poiid":"B2094757D16EA4FA4592","title":"The Water House At South Bund","lon":"121.51007843","lat":"31.2181015015","category":"500","category_name":"未知分类","address":"上海毛家园路1-3"}]