[{"poiid":"B2094654DA6DA0F5499B","title":"上海游泳馆","lon":"121.44073","lat":"31.17904","category":"231","category_name":"游泳馆","address":"徐汇区中山南二路1300号(近上海体育场)"},{"poiid":"B2094654DA6DA0F5469D","title":"鸿瑞兴徐汇店","lon":"121.44014","lat":"31.17986","category":"76","category_name":"上海菜","address":"徐汇区中山南二路1500号东亚体育宾馆1-3楼(上海体育场运动员之家内)"},{"poiid":"B2094752DB68A2FD449B","title":"上上谦串串香火锅","lon":"121.441544","lat":"31.177963","category":"247","category_name":"餐饮美食","address":"上海市 龙华西路565号"},{"poiid":"B2094655D26EA0F4449B","title":"富豪东亚酒店","lon":"121.44073","lat":"31.18144","category":"214","category_name":"四星级宾馆","address":"上海徐汇区零陵路800号(近八万人体育场)"},{"poiid":"B2094757D06FA2F4409D","title":"Club GaGa","lon":"121.44122458","lat":"31.180111451","category":"172","category_name":"酒吧","address":"徐汇区天钥桥路666号八万人体育场内(近5号通道)"},{"poiid":"B2094654DA6DA1FD419B","title":"麦乐迪KTV","lon":"121.44126","lat":"31.17724","category":"170","category_name":"KTV","address":"徐汇区龙华西路585号华富大厦1-3楼(近上海游泳馆)"},{"poiid":"B2094655D26EABF94192","title":"世纪联华体育场店","lon":"121.44331","lat":"31.181","category":"118","category_name":"超级市场","address":"徐汇区天钥桥路666号八万人体育场内(近中山南二路)"},{"poiid":"B2094654DA6DA7FE449B","title":"徐汇苑大厦","lon":"121.443064","lat":"31.178863","category":"46","category_name":"楼宇","address":"徐汇区中山南二路1089号"},{"poiid":"B2094752DB6CABF44798","title":"上上谦","lon":"121.440554","lat":"31.177278","category":"500","category_name":"未知分类","address":"上海市 龙华西路565号"},{"poiid":"B2094654DB65A6FA4298","title":"上海奥林匹克俱乐部","lon":"121.43959","lat":"31.18069","category":"260","category_name":"其他","address":"中山南二路1800号(近上海游泳馆)"},{"poiid":"B2094757D06FA1FE409E","title":"宋记香辣蟹(天钥桥路店)","lon":"121.44487","lat":"31.17894","category":"71","category_name":"四川菜","address":"徐汇区天钥桥路898号(近中山南二路)"},{"poiid":"B2094654DB65A1FA489E","title":"扎西达娲藏族演艺餐厅","lon":"121.44264","lat":"31.18043","category":"257","category_name":"中餐厅","address":"上海市天钥桥路666号(八万人体育场5号阶梯,旅游集散中心对面)"},{"poiid":"B2094757D06EAAFD4599","title":"鲜芋仙 万体馆店","lon":"121.442313","lat":"31.182856","category":"67","category_name":"甜品店","address":"徐汇区天钥桥路580号星游城B1楼"},{"poiid":"B2094654DA6DA7FC419F","title":"八万人撞球馆","lon":"121.44305","lat":"31.18026","category":"171","category_name":"台球厅","address":"徐汇区天钥桥路666号八万人体育场内(近中山南二路)"},{"poiid":"B2094752DB68A1FC4693","title":"上上谦串串香火锅(龙华西路店)","lon":"121.439194","lat":"31.180206","category":"247","category_name":"餐饮美食","address":"上海市 龙华西路565号(近中山南二路)"},{"poiid":"B2094654DB6AA6F8469D","title":"上海东亚体育宾馆","lon":"121.44016","lat":"31.17974","category":"250","category_name":"公园户外","address":"上海市徐汇区中山南二路1500号(八万人体育场旁)"},{"poiid":"B2094757D068A3F54593","title":"航天大厦","lon":"121.441","lat":"31.1779","category":"46","category_name":"楼宇","address":"北一环与亳州路交叉口(庐阳区政府对面)"},{"poiid":"B2094757D064A2F54692","title":"新石器烤肉•石锅拌饭(上海体育场店)","lon":"121.443159542","lat":"31.1804486708","category":"500","category_name":"未知分类","address":"天钥桥路666号上海体育场5号楼梯旁"},{"poiid":"B2094750DB6BA1F4479D","title":"宜家家居IKEA","lon":"121.443565","lat":"31.17851","category":"249","category_name":"购物服务","address":"漕溪北路中山西路"},{"poiid":"B2094654DB65A1F9499B","title":"上海旅游集散中心(上海市徐汇区漕河泾市容管理所西)","lon":"121.43862","lat":"31.17817","category":"248","category_name":"生活娱乐","address":"中山南二路2419"},{"poiid":"B2094757D06FA1FE449A","title":"Mvuke Tokyo 布歌东京","lon":"121.443679336","lat":"31.1812833347","category":"67","category_name":"甜品店","address":"徐汇区天钥桥路666号世纪联华超市内"},{"poiid":"B2094757D06FA5FC4393","title":"望族城","lon":"121.442","lat":"31.1767","category":"47","category_name":"住宅区","address":"上海徐汇区漕溪路251弄"},{"poiid":"B2094757D06AA4F9439C","title":"名嘉酒楼","lon":"121.441122586","lat":"31.1782584151","category":"247","category_name":"餐饮美食","address":"上海中山南二路1500号(上海体育场内)"},{"poiid":"B2094752DB69A6F5479E","title":"上上谦串串香时尚火锅","lon":"121.440654","lat":"31.177033","category":"247","category_name":"餐饮美食","address":"上海市 上海市徐汇区龙华西路565号"},{"poiid":"B2094757D06BA7FD4393","title":"扎西达娲西藏演艺餐厅","lon":"121.442103261","lat":"31.1800885308","category":"500","category_name":"未知分类","address":"上海八万人体育场"},{"poiid":"B2094757D16EA3FA449C","title":"麦当劳八万人体育场店","lon":"121.44260958","lat":"31.179808445","category":"500","category_name":"未知分类","address":"上海市徐汇区体育馆环路"},{"poiid":"B2094757D06AA2F5449A","title":"新石器烤肉","lon":"121.442313","lat":"31.182856","category":"68","category_name":"快餐厅","address":"徐汇区天钥桥路666号上海体育场5号楼旁边(近中山南二路世纪联华超市)"},{"poiid":"B2094655D26BA3F4459E","title":"上海体育场攀岩运动中心","lon":"121.442","lat":"31.18149","category":"220","category_name":"运动场所","address":"徐汇区天钥桥路666号八万人体育场内(近中山南二路)"},{"poiid":"B2094655D26EA2FE4393","title":"八万人体育场NIKE足球公园","lon":"121.44091","lat":"31.18133","category":"196","category_name":"公园","address":"上海市徐汇区零陵路800号"},{"poiid":"B2094751D364AAFE409B","title":"星巴克徐汇苑店","lon":"121.442021","lat":"31.179721","category":"247","category_name":"餐饮美食","address":"上海市中山南二路1089号1层101室"},{"poiid":"B2094757D068A1FB419B","title":"银海大楼","lon":"121.44","lat":"31.1766","category":"46","category_name":"楼宇","address":"上海徐汇区漕溪路250号"},{"poiid":"B2094654DA6DA0F54693","title":"上海旅游集散中心(上海体育场南)","lon":"121.44239","lat":"31.17993","category":"248","category_name":"生活娱乐","address":"徐汇区内环高架路附近"},{"poiid":"B2094757D06FAAF8459F","title":"徐汇苑","lon":"121.44469","lat":"31.176945","category":"47","category_name":"住宅区","address":"上海市徐汇区天钥桥路968号"},{"poiid":"B2094654DB64AAFD499E","title":"奥林泰园村鱼翅","lon":"121.43974","lat":"31.18008","category":"72","category_name":"广东菜","address":"徐汇区中山南二路1800号奥林匹克宾馆2楼(近漕溪路)"},{"poiid":"B2094750D16AA2F54799","title":"上海富豪东亚酒店","lon":"121.44091","lat":"31.18133","category":"72","category_name":"广东菜","address":"徐汇区零陵路800号上海富豪东亚酒店1楼(近上海游泳馆)"},{"poiid":"B2094655D26EA4F94193","title":"八万人体育馆羽毛球场","lon":"121.442","lat":"31.18149","category":"220","category_name":"运动场所","address":"徐汇区天钥桥路666号"},{"poiid":"B209475DD669A4FB4899","title":"PLAZA PIZZA","lon":"121.442878","lat":"31.178936","category":"247","category_name":"餐饮美食","address":"上海市 徐汇区中山南二路1089号徐汇苑大厦一楼"},{"poiid":"B2094757D069A6F4419A","title":"吉祥日本料理(徐汇店)","lon":"121.44157","lat":"31.17851","category":"95","category_name":"日本料理","address":"徐汇区中山南二路1800号奥林匹克俱乐部1楼(近漕溪路)"},{"poiid":"B2094654DB65A4FC4392","title":"神舟商旅酒店(上海徐汇店)","lon":"121.44316","lat":"31.17587","category":"250","category_name":"公园户外","address":"上海市徐汇区龙华西路501号(近中山南二路)"},{"poiid":"B2094655D26EA2FC489A","title":"富豪东亚咖啡厅","lon":"121.44218733275","lat":"31.183862376152","category":"268","category_name":"自助","address":"徐汇区零陵路800号上海富豪东亚酒店1楼(近上海游泳馆)"},{"poiid":"B2094753D768A2FE499F","title":"小辉哥火锅（港汇店）","lon":"121.442184","lat":"31.179322","category":"247","category_name":"餐饮美食","address":"上海市徐汇区虹桥路1号5F538室"},{"poiid":"B2094655D268A4F5459F","title":"申航小区(北门)","lon":"121.44174","lat":"31.1781","category":"47","category_name":"住宅区","address":"中山南二路2001"},{"poiid":"B2094757D169A6F5439D","title":"上海天钥桥路徐汇苑","lon":"121.441633","lat":"31.176863","category":"500","category_name":"未知分类","address":"上海市徐汇区天钥桥路徐汇苑"},{"poiid":"B2094655D26BA7F8439D","title":"可的超市(中山南店)","lon":"121.44132","lat":"31.17808","category":"117","category_name":"便民商店/便利店","address":"中山南二路446号"},{"poiid":"B2094654DA6DA7FE449A","title":"申航小区","lon":"121.44285","lat":"31.17797","category":"47","category_name":"住宅区","address":"中山南二路2001,2031"},{"poiid":"B2094752DB6FA7F9489A","title":"上上谦火锅","lon":"121.440933","lat":"31.177673","category":"247","category_name":"餐饮美食","address":"上海市 徐汇区中山南二路"},{"poiid":"B2094655D268A2F44999","title":"上海体育场(十四号门)","lon":"121.43943","lat":"31.17903","category":"224","category_name":"综合体育馆","address":""},{"poiid":"B2094757D16FA3F84893","title":"中国银行上海市徐汇苑支行","lon":"121.442506586","lat":"31.1787404245","category":"500","category_name":"未知分类","address":"上海市徐汇区中山南二路1089号徐汇苑大厦1F"},{"poiid":"B2094750D36EAAF4499C","title":"八万人体育场（17号看台）","lon":"121.44284","lat":"31.181451","category":"500","category_name":"未知分类","address":null},{"poiid":"B2094752DB6BA4F54692","title":"上上谦串串香火锅","lon":"121.441194","lat":"31.177686","category":"247","category_name":"餐饮美食","address":"上海市 龙华西路565号"},{"poiid":"B2094654DA6DA0F5499B","title":"上海游泳馆","lon":"121.44073","lat":"31.17904","category":"231","category_name":"游泳馆","address":"徐汇区中山南二路1300号(近上海体育场)"},{"poiid":"B2094654DA6DA0F5469D","title":"鸿瑞兴徐汇店","lon":"121.44014","lat":"31.17986","category":"76","category_name":"上海菜","address":"徐汇区中山南二路1500号东亚体育宾馆1-3楼(上海体育场运动员之家内)"},{"poiid":"B2094752DB68A2FD449B","title":"上上谦串串香火锅","lon":"121.441544","lat":"31.177963","category":"247","category_name":"餐饮美食","address":"上海市 龙华西路565号"},{"poiid":"B2094655D26EA0F4449B","title":"富豪东亚酒店","lon":"121.44073","lat":"31.18144","category":"214","category_name":"四星级宾馆","address":"上海徐汇区零陵路800号(近八万人体育场)"},{"poiid":"B2094757D06FA2F4409D","title":"Club GaGa","lon":"121.44122458","lat":"31.180111451","category":"172","category_name":"酒吧","address":"徐汇区天钥桥路666号八万人体育场内(近5号通道)"},{"poiid":"B2094654DA6DA1FD419B","title":"麦乐迪KTV","lon":"121.44126","lat":"31.17724","category":"170","category_name":"KTV","address":"徐汇区龙华西路585号华富大厦1-3楼(近上海游泳馆)"},{"poiid":"B2094655D26EABF94192","title":"世纪联华体育场店","lon":"121.44331","lat":"31.181","category":"118","category_name":"超级市场","address":"徐汇区天钥桥路666号八万人体育场内(近中山南二路)"},{"poiid":"B2094654DA6DA7FE449B","title":"徐汇苑大厦","lon":"121.443064","lat":"31.178863","category":"46","category_name":"楼宇","address":"徐汇区中山南二路1089号"},{"poiid":"B2094752DB6CABF44798","title":"上上谦","lon":"121.440554","lat":"31.177278","category":"500","category_name":"未知分类","address":"上海市 龙华西路565号"},{"poiid":"B2094654DB65A6FA4298","title":"上海奥林匹克俱乐部","lon":"121.43959","lat":"31.18069","category":"260","category_name":"其他","address":"中山南二路1800号(近上海游泳馆)"},{"poiid":"B2094757D06FA1FE409E","title":"宋记香辣蟹(天钥桥路店)","lon":"121.44487","lat":"31.17894","category":"71","category_name":"四川菜","address":"徐汇区天钥桥路898号(近中山南二路)"},{"poiid":"B2094654DB65A1FA489E","title":"扎西达娲藏族演艺餐厅","lon":"121.44264","lat":"31.18043","category":"257","category_name":"中餐厅","address":"上海市天钥桥路666号(八万人体育场5号阶梯,旅游集散中心对面)"},{"poiid":"B2094757D06EAAFD4599","title":"鲜芋仙 万体馆店","lon":"121.442313","lat":"31.182856","category":"67","category_name":"甜品店","address":"徐汇区天钥桥路580号星游城B1楼"},{"poiid":"B2094654DA6DA7FC419F","title":"八万人撞球馆","lon":"121.44305","lat":"31.18026","category":"171","category_name":"台球厅","address":"徐汇区天钥桥路666号八万人体育场内(近中山南二路)"},{"poiid":"B2094752DB68A1FC4693","title":"上上谦串串香火锅(龙华西路店)","lon":"121.439194","lat":"31.180206","category":"247","category_name":"餐饮美食","address":"上海市 龙华西路565号(近中山南二路)"},{"poiid":"B2094654DB6AA6F8469D","title":"上海东亚体育宾馆","lon":"121.44016","lat":"31.17974","category":"250","category_name":"公园户外","address":"上海市徐汇区中山南二路1500号(八万人体育场旁)"},{"poiid":"B2094757D068A3F54593","title":"航天大厦","lon":"121.441","lat":"31.1779","category":"46","category_name":"楼宇","address":"北一环与亳州路交叉口(庐阳区政府对面)"},{"poiid":"B2094757D064A2F54692","title":"新石器烤肉•石锅拌饭(上海体育场店)","lon":"121.443159542","lat":"31.1804486708","category":"500","category_name":"未知分类","address":"天钥桥路666号上海体育场5号楼梯旁"},{"poiid":"B2094750DB6BA1F4479D","title":"宜家家居IKEA","lon":"121.443565","lat":"31.17851","category":"249","category_name":"购物服务","address":"漕溪北路中山西路"},{"poiid":"B2094654DB65A1F9499B","title":"上海旅游集散中心(上海市徐汇区漕河泾市容管理所西)","lon":"121.43862","lat":"31.17817","category":"248","category_name":"生活娱乐","address":"中山南二路2419"},{"poiid":"B2094757D06FA1FE449A","title":"Mvuke Tokyo 布歌东京","lon":"121.443679336","lat":"31.1812833347","category":"67","category_name":"甜品店","address":"徐汇区天钥桥路666号世纪联华超市内"},{"poiid":"B2094757D06FA5FC4393","title":"望族城","lon":"121.442","lat":"31.1767","category":"47","category_name":"住宅区","address":"上海徐汇区漕溪路251弄"},{"poiid":"B2094757D06AA4F9439C","title":"名嘉酒楼","lon":"121.441122586","lat":"31.1782584151","category":"247","category_name":"餐饮美食","address":"上海中山南二路1500号(上海体育场内)"},{"poiid":"B2094752DB69A6F5479E","title":"上上谦串串香时尚火锅","lon":"121.440654","lat":"31.177033","category":"247","category_name":"餐饮美食","address":"上海市 上海市徐汇区龙华西路565号"},{"poiid":"B2094757D06BA7FD4393","title":"扎西达娲西藏演艺餐厅","lon":"121.442103261","lat":"31.1800885308","category":"500","category_name":"未知分类","address":"上海八万人体育场"},{"poiid":"B2094757D16EA3FA449C","title":"麦当劳八万人体育场店","lon":"121.44260958","lat":"31.179808445","category":"500","category_name":"未知分类","address":"上海市徐汇区体育馆环路"},{"poiid":"B2094757D06AA2F5449A","title":"新石器烤肉","lon":"121.442313","lat":"31.182856","category":"68","category_name":"快餐厅","address":"徐汇区天钥桥路666号上海体育场5号楼旁边(近中山南二路世纪联华超市)"},{"poiid":"B2094655D26BA3F4459E","title":"上海体育场攀岩运动中心","lon":"121.442","lat":"31.18149","category":"220","category_name":"运动场所","address":"徐汇区天钥桥路666号八万人体育场内(近中山南二路)"},{"poiid":"B2094655D26EA2FE4393","title":"八万人体育场NIKE足球公园","lon":"121.44091","lat":"31.18133","category":"196","category_name":"公园","address":"上海市徐汇区零陵路800号"},{"poiid":"B2094751D364AAFE409B","title":"星巴克徐汇苑店","lon":"121.442021","lat":"31.179721","category":"247","category_name":"餐饮美食","address":"上海市中山南二路1089号1层101室"},{"poiid":"B2094757D068A1FB419B","title":"银海大楼","lon":"121.44","lat":"31.1766","category":"46","category_name":"楼宇","address":"上海徐汇区漕溪路250号"},{"poiid":"B2094654DA6DA0F54693","title":"上海旅游集散中心(上海体育场南)","lon":"121.44239","lat":"31.17993","category":"248","category_name":"生活娱乐","address":"徐汇区内环高架路附近"},{"poiid":"B2094757D06FAAF8459F","title":"徐汇苑","lon":"121.44469","lat":"31.176945","category":"47","category_name":"住宅区","address":"上海市徐汇区天钥桥路968号"},{"poiid":"B2094654DB64AAFD499E","title":"奥林泰园村鱼翅","lon":"121.43974","lat":"31.18008","category":"72","category_name":"广东菜","address":"徐汇区中山南二路1800号奥林匹克宾馆2楼(近漕溪路)"},{"poiid":"B2094750D16AA2F54799","title":"上海富豪东亚酒店","lon":"121.44091","lat":"31.18133","category":"72","category_name":"广东菜","address":"徐汇区零陵路800号上海富豪东亚酒店1楼(近上海游泳馆)"},{"poiid":"B2094655D26EA4F94193","title":"八万人体育馆羽毛球场","lon":"121.442","lat":"31.18149","category":"220","category_name":"运动场所","address":"徐汇区天钥桥路666号"},{"poiid":"B209475DD669A4FB4899","title":"PLAZA PIZZA","lon":"121.442878","lat":"31.178936","category":"247","category_name":"餐饮美食","address":"上海市 徐汇区中山南二路1089号徐汇苑大厦一楼"},{"poiid":"B2094757D069A6F4419A","title":"吉祥日本料理(徐汇店)","lon":"121.44157","lat":"31.17851","category":"95","category_name":"日本料理","address":"徐汇区中山南二路1800号奥林匹克俱乐部1楼(近漕溪路)"},{"poiid":"B2094654DB65A4FC4392","title":"神舟商旅酒店(上海徐汇店)","lon":"121.44316","lat":"31.17587","category":"250","category_name":"公园户外","address":"上海市徐汇区龙华西路501号(近中山南二路)"},{"poiid":"B2094655D26EA2FC489A","title":"富豪东亚咖啡厅","lon":"121.44218733275","lat":"31.183862376152","category":"268","category_name":"自助","address":"徐汇区零陵路800号上海富豪东亚酒店1楼(近上海游泳馆)"},{"poiid":"B2094753D768A2FE499F","title":"小辉哥火锅（港汇店）","lon":"121.442184","lat":"31.179322","category":"247","category_name":"餐饮美食","address":"上海市徐汇区虹桥路1号5F538室"},{"poiid":"B2094655D268A4F5459F","title":"申航小区(北门)","lon":"121.44174","lat":"31.1781","category":"47","category_name":"住宅区","address":"中山南二路2001"},{"poiid":"B2094757D169A6F5439D","title":"上海天钥桥路徐汇苑","lon":"121.441633","lat":"31.176863","category":"500","category_name":"未知分类","address":"上海市徐汇区天钥桥路徐汇苑"},{"poiid":"B2094655D26BA7F8439D","title":"可的超市(中山南店)","lon":"121.44132","lat":"31.17808","category":"117","category_name":"便民商店/便利店","address":"中山南二路446号"},{"poiid":"B2094654DA6DA7FE449A","title":"申航小区","lon":"121.44285","lat":"31.17797","category":"47","category_name":"住宅区","address":"中山南二路2001,2031"},{"poiid":"B2094752DB6FA7F9489A","title":"上上谦火锅","lon":"121.440933","lat":"31.177673","category":"247","category_name":"餐饮美食","address":"上海市 徐汇区中山南二路"},{"poiid":"B2094655D268A2F44999","title":"上海体育场(十四号门)","lon":"121.43943","lat":"31.17903","category":"224","category_name":"综合体育馆","address":""},{"poiid":"B2094757D16FA3F84893","title":"中国银行上海市徐汇苑支行","lon":"121.442506586","lat":"31.1787404245","category":"500","category_name":"未知分类","address":"上海市徐汇区中山南二路1089号徐汇苑大厦1F"},{"poiid":"B2094750D36EAAF4499C","title":"八万人体育场（17号看台）","lon":"121.44284","lat":"31.181451","category":"500","category_name":"未知分类","address":null},{"poiid":"B2094752DB6BA4F54692","title":"上上谦串串香火锅","lon":"121.441194","lat":"31.177686","category":"247","category_name":"餐饮美食","address":"上海市 龙华西路565号"},{"poiid":"B2094654DA6DA0F5499B","title":"上海游泳馆","lon":"121.44073","lat":"31.17904","category":"231","category_name":"游泳馆","address":"徐汇区中山南二路1300号(近上海体育场)"},{"poiid":"B2094654DA6DA0F5469D","title":"鸿瑞兴徐汇店","lon":"121.44014","lat":"31.17986","category":"76","category_name":"上海菜","address":"徐汇区中山南二路1500号东亚体育宾馆1-3楼(上海体育场运动员之家内)"},{"poiid":"B2094752DB68A2FD449B","title":"上上谦串串香火锅","lon":"121.441544","lat":"31.177963","category":"247","category_name":"餐饮美食","address":"上海市 龙华西路565号"},{"poiid":"B2094655D26EA0F4449B","title":"富豪东亚酒店","lon":"121.44073","lat":"31.18144","category":"214","category_name":"四星级宾馆","address":"上海徐汇区零陵路800号(近八万人体育场)"},{"poiid":"B2094757D06FA2F4409D","title":"Club GaGa","lon":"121.44122458","lat":"31.180111451","category":"172","category_name":"酒吧","address":"徐汇区天钥桥路666号八万人体育场内(近5号通道)"},{"poiid":"B2094654DA6DA1FD419B","title":"麦乐迪KTV","lon":"121.44126","lat":"31.17724","category":"170","category_name":"KTV","address":"徐汇区龙华西路585号华富大厦1-3楼(近上海游泳馆)"},{"poiid":"B2094655D26EABF94192","title":"世纪联华体育场店","lon":"121.44331","lat":"31.181","category":"118","category_name":"超级市场","address":"徐汇区天钥桥路666号八万人体育场内(近中山南二路)"},{"poiid":"B2094654DA6DA7FE449B","title":"徐汇苑大厦","lon":"121.443064","lat":"31.178863","category":"46","category_name":"楼宇","address":"徐汇区中山南二路1089号"},{"poiid":"B2094752DB6CABF44798","title":"上上谦","lon":"121.440554","lat":"31.177278","category":"500","category_name":"未知分类","address":"上海市 龙华西路565号"},{"poiid":"B2094654DB65A6FA4298","title":"上海奥林匹克俱乐部","lon":"121.43959","lat":"31.18069","category":"260","category_name":"其他","address":"中山南二路1800号(近上海游泳馆)"},{"poiid":"B2094757D06FA1FE409E","title":"宋记香辣蟹(天钥桥路店)","lon":"121.44487","lat":"31.17894","category":"71","category_name":"四川菜","address":"徐汇区天钥桥路898号(近中山南二路)"},{"poiid":"B2094654DB65A1FA489E","title":"扎西达娲藏族演艺餐厅","lon":"121.44264","lat":"31.18043","category":"257","category_name":"中餐厅","address":"上海市天钥桥路666号(八万人体育场5号阶梯,旅游集散中心对面)"},{"poiid":"B2094757D06EAAFD4599","title":"鲜芋仙 万体馆店","lon":"121.442313","lat":"31.182856","category":"67","category_name":"甜品店","address":"徐汇区天钥桥路580号星游城B1楼"},{"poiid":"B2094654DA6DA7FC419F","title":"八万人撞球馆","lon":"121.44305","lat":"31.18026","category":"171","category_name":"台球厅","address":"徐汇区天钥桥路666号八万人体育场内(近中山南二路)"},{"poiid":"B2094752DB68A1FC4693","title":"上上谦串串香火锅(龙华西路店)","lon":"121.439194","lat":"31.180206","category":"247","category_name":"餐饮美食","address":"上海市 龙华西路565号(近中山南二路)"},{"poiid":"B2094654DB6AA6F8469D","title":"上海东亚体育宾馆","lon":"121.44016","lat":"31.17974","category":"250","category_name":"公园户外","address":"上海市徐汇区中山南二路1500号(八万人体育场旁)"},{"poiid":"B2094757D068A3F54593","title":"航天大厦","lon":"121.441","lat":"31.1779","category":"46","category_name":"楼宇","address":"北一环与亳州路交叉口(庐阳区政府对面)"},{"poiid":"B2094757D064A2F54692","title":"新石器烤肉•石锅拌饭(上海体育场店)","lon":"121.443159542","lat":"31.1804486708","category":"500","category_name":"未知分类","address":"天钥桥路666号上海体育场5号楼梯旁"},{"poiid":"B2094750DB6BA1F4479D","title":"宜家家居IKEA","lon":"121.443565","lat":"31.17851","category":"249","category_name":"购物服务","address":"漕溪北路中山西路"},{"poiid":"B2094654DB65A1F9499B","title":"上海旅游集散中心(上海市徐汇区漕河泾市容管理所西)","lon":"121.43862","lat":"31.17817","category":"248","category_name":"生活娱乐","address":"中山南二路2419"},{"poiid":"B2094757D06FA1FE449A","title":"Mvuke Tokyo 布歌东京","lon":"121.443679336","lat":"31.1812833347","category":"67","category_name":"甜品店","address":"徐汇区天钥桥路666号世纪联华超市内"},{"poiid":"B2094757D06FA5FC4393","title":"望族城","lon":"121.442","lat":"31.1767","category":"47","category_name":"住宅区","address":"上海徐汇区漕溪路251弄"},{"poiid":"B2094757D06AA4F9439C","title":"名嘉酒楼","lon":"121.441122586","lat":"31.1782584151","category":"247","category_name":"餐饮美食","address":"上海中山南二路1500号(上海体育场内)"},{"poiid":"B2094752DB69A6F5479E","title":"上上谦串串香时尚火锅","lon":"121.440654","lat":"31.177033","category":"247","category_name":"餐饮美食","address":"上海市 上海市徐汇区龙华西路565号"},{"poiid":"B2094757D06BA7FD4393","title":"扎西达娲西藏演艺餐厅","lon":"121.442103261","lat":"31.1800885308","category":"500","category_name":"未知分类","address":"上海八万人体育场"},{"poiid":"B2094757D16EA3FA449C","title":"麦当劳八万人体育场店","lon":"121.44260958","lat":"31.179808445","category":"500","category_name":"未知分类","address":"上海市徐汇区体育馆环路"},{"poiid":"B2094757D06AA2F5449A","title":"新石器烤肉","lon":"121.442313","lat":"31.182856","category":"68","category_name":"快餐厅","address":"徐汇区天钥桥路666号上海体育场5号楼旁边(近中山南二路世纪联华超市)"},{"poiid":"B2094655D26BA3F4459E","title":"上海体育场攀岩运动中心","lon":"121.442","lat":"31.18149","category":"220","category_name":"运动场所","address":"徐汇区天钥桥路666号八万人体育场内(近中山南二路)"},{"poiid":"B2094655D26EA2FE4393","title":"八万人体育场NIKE足球公园","lon":"121.44091","lat":"31.18133","category":"196","category_name":"公园","address":"上海市徐汇区零陵路800号"},{"poiid":"B2094751D364AAFE409B","title":"星巴克徐汇苑店","lon":"121.442021","lat":"31.179721","category":"247","category_name":"餐饮美食","address":"上海市中山南二路1089号1层101室"},{"poiid":"B2094757D068A1FB419B","title":"银海大楼","lon":"121.44","lat":"31.1766","category":"46","category_name":"楼宇","address":"上海徐汇区漕溪路250号"},{"poiid":"B2094654DA6DA0F54693","title":"上海旅游集散中心(上海体育场南)","lon":"121.44239","lat":"31.17993","category":"248","category_name":"生活娱乐","address":"徐汇区内环高架路附近"},{"poiid":"B2094757D06FAAF8459F","title":"徐汇苑","lon":"121.44469","lat":"31.176945","category":"47","category_name":"住宅区","address":"上海市徐汇区天钥桥路968号"},{"poiid":"B2094654DB64AAFD499E","title":"奥林泰园村鱼翅","lon":"121.43974","lat":"31.18008","category":"72","category_name":"广东菜","address":"徐汇区中山南二路1800号奥林匹克宾馆2楼(近漕溪路)"},{"poiid":"B2094750D16AA2F54799","title":"上海富豪东亚酒店","lon":"121.44091","lat":"31.18133","category":"72","category_name":"广东菜","address":"徐汇区零陵路800号上海富豪东亚酒店1楼(近上海游泳馆)"},{"poiid":"B2094655D26EA4F94193","title":"八万人体育馆羽毛球场","lon":"121.442","lat":"31.18149","category":"220","category_name":"运动场所","address":"徐汇区天钥桥路666号"},{"poiid":"B209475DD669A4FB4899","title":"PLAZA PIZZA","lon":"121.442878","lat":"31.178936","category":"247","category_name":"餐饮美食","address":"上海市 徐汇区中山南二路1089号徐汇苑大厦一楼"},{"poiid":"B2094757D069A6F4419A","title":"吉祥日本料理(徐汇店)","lon":"121.44157","lat":"31.17851","category":"95","category_name":"日本料理","address":"徐汇区中山南二路1800号奥林匹克俱乐部1楼(近漕溪路)"},{"poiid":"B2094654DB65A4FC4392","title":"神舟商旅酒店(上海徐汇店)","lon":"121.44316","lat":"31.17587","category":"250","category_name":"公园户外","address":"上海市徐汇区龙华西路501号(近中山南二路)"},{"poiid":"B2094655D26EA2FC489A","title":"富豪东亚咖啡厅","lon":"121.44218733275","lat":"31.183862376152","category":"268","category_name":"自助","address":"徐汇区零陵路800号上海富豪东亚酒店1楼(近上海游泳馆)"},{"poiid":"B2094753D768A2FE499F","title":"小辉哥火锅（港汇店）","lon":"121.442184","lat":"31.179322","category":"247","category_name":"餐饮美食","address":"上海市徐汇区虹桥路1号5F538室"},{"poiid":"B2094655D268A4F5459F","title":"申航小区(北门)","lon":"121.44174","lat":"31.1781","category":"47","category_name":"住宅区","address":"中山南二路2001"},{"poiid":"B2094757D169A6F5439D","title":"上海天钥桥路徐汇苑","lon":"121.441633","lat":"31.176863","category":"500","category_name":"未知分类","address":"上海市徐汇区天钥桥路徐汇苑"},{"poiid":"B2094655D26BA7F8439D","title":"可的超市(中山南店)","lon":"121.44132","lat":"31.17808","category":"117","category_name":"便民商店/便利店","address":"中山南二路446号"},{"poiid":"B2094654DA6DA7FE449A","title":"申航小区","lon":"121.44285","lat":"31.17797","category":"47","category_name":"住宅区","address":"中山南二路2001,2031"},{"poiid":"B2094752DB6FA7F9489A","title":"上上谦火锅","lon":"121.440933","lat":"31.177673","category":"247","category_name":"餐饮美食","address":"上海市 徐汇区中山南二路"},{"poiid":"B2094655D268A2F44999","title":"上海体育场(十四号门)","lon":"121.43943","lat":"31.17903","category":"224","category_name":"综合体育馆","address":""},{"poiid":"B2094757D16FA3F84893","title":"中国银行上海市徐汇苑支行","lon":"121.442506586","lat":"31.1787404245","category":"500","category_name":"未知分类","address":"上海市徐汇区中山南二路1089号徐汇苑大厦1F"},{"poiid":"B2094750D36EAAF4499C","title":"八万人体育场（17号看台）","lon":"121.44284","lat":"31.181451","category":"500","category_name":"未知分类","address":null},{"poiid":"B2094752DB6BA4F54692","title":"上上谦串串香火锅","lon":"121.441194","lat":"31.177686","category":"247","category_name":"餐饮美食","address":"上海市 龙华西路565号"},{"poiid":"B2094654DA6DA0F5499B","title":"上海游泳馆","lon":"121.44073","lat":"31.17904","category":"231","category_name":"游泳馆","address":"徐汇区中山南二路1300号(近上海体育场)"},{"poiid":"B2094654DA6DA0F5469D","title":"鸿瑞兴徐汇店","lon":"121.44014","lat":"31.17986","category":"76","category_name":"上海菜","address":"徐汇区中山南二路1500号东亚体育宾馆1-3楼(上海体育场运动员之家内)"},{"poiid":"B2094752DB68A2FD449B","title":"上上谦串串香火锅","lon":"121.441544","lat":"31.177963","category":"247","category_name":"餐饮美食","address":"上海市 龙华西路565号"},{"poiid":"B2094655D26EA0F4449B","title":"富豪东亚酒店","lon":"121.44073","lat":"31.18144","category":"214","category_name":"四星级宾馆","address":"上海徐汇区零陵路800号(近八万人体育场)"},{"poiid":"B2094757D06FA2F4409D","title":"Club GaGa","lon":"121.44122458","lat":"31.180111451","category":"172","category_name":"酒吧","address":"徐汇区天钥桥路666号八万人体育场内(近5号通道)"},{"poiid":"B2094654DA6DA1FD419B","title":"麦乐迪KTV","lon":"121.44126","lat":"31.17724","category":"170","category_name":"KTV","address":"徐汇区龙华西路585号华富大厦1-3楼(近上海游泳馆)"},{"poiid":"B2094655D26EABF94192","title":"世纪联华体育场店","lon":"121.44331","lat":"31.181","category":"118","category_name":"超级市场","address":"徐汇区天钥桥路666号八万人体育场内(近中山南二路)"},{"poiid":"B2094654DA6DA7FE449B","title":"徐汇苑大厦","lon":"121.443064","lat":"31.178863","category":"46","category_name":"楼宇","address":"徐汇区中山南二路1089号"},{"poiid":"B2094752DB6CABF44798","title":"上上谦","lon":"121.440554","lat":"31.177278","category":"500","category_name":"未知分类","address":"上海市 龙华西路565号"},{"poiid":"B2094654DB65A6FA4298","title":"上海奥林匹克俱乐部","lon":"121.43959","lat":"31.18069","category":"260","category_name":"其他","address":"中山南二路1800号(近上海游泳馆)"},{"poiid":"B2094757D06FA1FE409E","title":"宋记香辣蟹(天钥桥路店)","lon":"121.44487","lat":"31.17894","category":"71","category_name":"四川菜","address":"徐汇区天钥桥路898号(近中山南二路)"},{"poiid":"B2094654DB65A1FA489E","title":"扎西达娲藏族演艺餐厅","lon":"121.44264","lat":"31.18043","category":"257","category_name":"中餐厅","address":"上海市天钥桥路666号(八万人体育场5号阶梯,旅游集散中心对面)"},{"poiid":"B2094757D06EAAFD4599","title":"鲜芋仙 万体馆店","lon":"121.442313","lat":"31.182856","category":"67","category_name":"甜品店","address":"徐汇区天钥桥路580号星游城B1楼"},{"poiid":"B2094654DA6DA7FC419F","title":"八万人撞球馆","lon":"121.44305","lat":"31.18026","category":"171","category_name":"台球厅","address":"徐汇区天钥桥路666号八万人体育场内(近中山南二路)"},{"poiid":"B2094752DB68A1FC4693","title":"上上谦串串香火锅(龙华西路店)","lon":"121.439194","lat":"31.180206","category":"247","category_name":"餐饮美食","address":"上海市 龙华西路565号(近中山南二路)"},{"poiid":"B2094654DB6AA6F8469D","title":"上海东亚体育宾馆","lon":"121.44016","lat":"31.17974","category":"250","category_name":"公园户外","address":"上海市徐汇区中山南二路1500号(八万人体育场旁)"},{"poiid":"B2094757D068A3F54593","title":"航天大厦","lon":"121.441","lat":"31.1779","category":"46","category_name":"楼宇","address":"北一环与亳州路交叉口(庐阳区政府对面)"},{"poiid":"B2094757D064A2F54692","title":"新石器烤肉•石锅拌饭(上海体育场店)","lon":"121.443159542","lat":"31.1804486708","category":"500","category_name":"未知分类","address":"天钥桥路666号上海体育场5号楼梯旁"},{"poiid":"B2094750DB6BA1F4479D","title":"宜家家居IKEA","lon":"121.443565","lat":"31.17851","category":"249","category_name":"购物服务","address":"漕溪北路中山西路"},{"poiid":"B2094654DB65A1F9499B","title":"上海旅游集散中心(上海市徐汇区漕河泾市容管理所西)","lon":"121.43862","lat":"31.17817","category":"248","category_name":"生活娱乐","address":"中山南二路2419"},{"poiid":"B2094757D06FA1FE449A","title":"Mvuke Tokyo 布歌东京","lon":"121.443679336","lat":"31.1812833347","category":"67","category_name":"甜品店","address":"徐汇区天钥桥路666号世纪联华超市内"},{"poiid":"B2094757D06FA5FC4393","title":"望族城","lon":"121.442","lat":"31.1767","category":"47","category_name":"住宅区","address":"上海徐汇区漕溪路251弄"},{"poiid":"B2094757D06AA4F9439C","title":"名嘉酒楼","lon":"121.441122586","lat":"31.1782584151","category":"247","category_name":"餐饮美食","address":"上海中山南二路1500号(上海体育场内)"},{"poiid":"B2094752DB69A6F5479E","title":"上上谦串串香时尚火锅","lon":"121.440654","lat":"31.177033","category":"247","category_name":"餐饮美食","address":"上海市 上海市徐汇区龙华西路565号"},{"poiid":"B2094757D06BA7FD4393","title":"扎西达娲西藏演艺餐厅","lon":"121.442103261","lat":"31.1800885308","category":"500","category_name":"未知分类","address":"上海八万人体育场"},{"poiid":"B2094757D16EA3FA449C","title":"麦当劳八万人体育场店","lon":"121.44260958","lat":"31.179808445","category":"500","category_name":"未知分类","address":"上海市徐汇区体育馆环路"},{"poiid":"B2094757D06AA2F5449A","title":"新石器烤肉","lon":"121.442313","lat":"31.182856","category":"68","category_name":"快餐厅","address":"徐汇区天钥桥路666号上海体育场5号楼旁边(近中山南二路世纪联华超市)"},{"poiid":"B2094655D26BA3F4459E","title":"上海体育场攀岩运动中心","lon":"121.442","lat":"31.18149","category":"220","category_name":"运动场所","address":"徐汇区天钥桥路666号八万人体育场内(近中山南二路)"},{"poiid":"B2094655D26EA2FE4393","title":"八万人体育场NIKE足球公园","lon":"121.44091","lat":"31.18133","category":"196","category_name":"公园","address":"上海市徐汇区零陵路800号"},{"poiid":"B2094751D364AAFE409B","title":"星巴克徐汇苑店","lon":"121.442021","lat":"31.179721","category":"247","category_name":"餐饮美食","address":"上海市中山南二路1089号1层101室"},{"poiid":"B2094757D068A1FB419B","title":"银海大楼","lon":"121.44","lat":"31.1766","category":"46","category_name":"楼宇","address":"上海徐汇区漕溪路250号"},{"poiid":"B2094654DA6DA0F54693","title":"上海旅游集散中心(上海体育场南)","lon":"121.44239","lat":"31.17993","category":"248","category_name":"生活娱乐","address":"徐汇区内环高架路附近"},{"poiid":"B2094757D06FAAF8459F","title":"徐汇苑","lon":"121.44469","lat":"31.176945","category":"47","category_name":"住宅区","address":"上海市徐汇区天钥桥路968号"},{"poiid":"B2094654DB64AAFD499E","title":"奥林泰园村鱼翅","lon":"121.43974","lat":"31.18008","category":"72","category_name":"广东菜","address":"徐汇区中山南二路1800号奥林匹克宾馆2楼(近漕溪路)"},{"poiid":"B2094750D16AA2F54799","title":"上海富豪东亚酒店","lon":"121.44091","lat":"31.18133","category":"72","category_name":"广东菜","address":"徐汇区零陵路800号上海富豪东亚酒店1楼(近上海游泳馆)"},{"poiid":"B2094655D26EA4F94193","title":"八万人体育馆羽毛球场","lon":"121.442","lat":"31.18149","category":"220","category_name":"运动场所","address":"徐汇区天钥桥路666号"},{"poiid":"B209475DD669A4FB4899","title":"PLAZA PIZZA","lon":"121.442878","lat":"31.178936","category":"247","category_name":"餐饮美食","address":"上海市 徐汇区中山南二路1089号徐汇苑大厦一楼"},{"poiid":"B2094757D069A6F4419A","title":"吉祥日本料理(徐汇店)","lon":"121.44157","lat":"31.17851","category":"95","category_name":"日本料理","address":"徐汇区中山南二路1800号奥林匹克俱乐部1楼(近漕溪路)"},{"poiid":"B2094654DB65A4FC4392","title":"神舟商旅酒店(上海徐汇店)","lon":"121.44316","lat":"31.17587","category":"250","category_name":"公园户外","address":"上海市徐汇区龙华西路501号(近中山南二路)"},{"poiid":"B2094655D26EA2FC489A","title":"富豪东亚咖啡厅","lon":"121.44218733275","lat":"31.183862376152","category":"268","category_name":"自助","address":"徐汇区零陵路800号上海富豪东亚酒店1楼(近上海游泳馆)"},{"poiid":"B2094753D768A2FE499F","title":"小辉哥火锅（港汇店）","lon":"121.442184","lat":"31.179322","category":"247","category_name":"餐饮美食","address":"上海市徐汇区虹桥路1号5F538室"},{"poiid":"B2094655D268A4F5459F","title":"申航小区(北门)","lon":"121.44174","lat":"31.1781","category":"47","category_name":"住宅区","address":"中山南二路2001"},{"poiid":"B2094757D169A6F5439D","title":"上海天钥桥路徐汇苑","lon":"121.441633","lat":"31.176863","category":"500","category_name":"未知分类","address":"上海市徐汇区天钥桥路徐汇苑"},{"poiid":"B2094655D26BA7F8439D","title":"可的超市(中山南店)","lon":"121.44132","lat":"31.17808","category":"117","category_name":"便民商店/便利店","address":"中山南二路446号"},{"poiid":"B2094654DA6DA7FE449A","title":"申航小区","lon":"121.44285","lat":"31.17797","category":"47","category_name":"住宅区","address":"中山南二路2001,2031"},{"poiid":"B2094752DB6FA7F9489A","title":"上上谦火锅","lon":"121.440933","lat":"31.177673","category":"247","category_name":"餐饮美食","address":"上海市 徐汇区中山南二路"},{"poiid":"B2094655D268A2F44999","title":"上海体育场(十四号门)","lon":"121.43943","lat":"31.17903","category":"224","category_name":"综合体育馆","address":""},{"poiid":"B2094757D16FA3F84893","title":"中国银行上海市徐汇苑支行","lon":"121.442506586","lat":"31.1787404245","category":"500","category_name":"未知分类","address":"上海市徐汇区中山南二路1089号徐汇苑大厦1F"},{"poiid":"B2094750D36EAAF4499C","title":"八万人体育场（17号看台）","lon":"121.44284","lat":"31.181451","category":"500","category_name":"未知分类","address":null},{"poiid":"B2094752DB6BA4F54692","title":"上上谦串串香火锅","lon":"121.441194","lat":"31.177686","category":"247","category_name":"餐饮美食","address":"上海市 龙华西路565号"}]