[{"poiid":"B2094654DB6AA6F8419D","title":"上海东锦江希尔顿逸林酒店","lon":"121.53461","lat":"31.21125","category":"213","category_name":"五星级宾馆","address":"浦东新区杨高南路889号东锦江希尔顿逸林酒店41楼(近蓝村路)"},{"poiid":"B2094751D565AAFE409B","title":"纽斯汉蒸spa会所","lon":"121.536595","lat":"31.210135","category":"248","category_name":"生活娱乐","address":"上海市东绣路288号"},{"poiid":"B2094757D06EAAFE479B","title":"蓝村路地铁站","lon":"121.528271","lat":"31.211821","category":"36","category_name":"地铁站","address":"上海轨道交通 四号线 六号线 轨交蓝村路站 轻轨 4 6"},{"poiid":"B2094757D06FA7FC489B","title":"上海绿城","lon":"121.53364","lat":"31.205667","category":"47","category_name":"住宅区","address":"上海浦东新区锦和路99弄"},{"poiid":"B2094655D26DA7FB4199","title":"卜蜂莲花购物中心(杨高南路)","lon":"121.53021","lat":"31.20626","category":"118","category_name":"超级市场","address":"浦东新区杨高南路1126-1128号(近浦建路)"},{"poiid":"B2094757D068A7FF409E","title":"丽晟假日酒店","lon":"121.528429325","lat":"31.2068004771","category":"217","category_name":"旅馆招待所","address":"上海市浦东新区环龙路55号(近浦建路)"},{"poiid":"B2094757D465A1FE4899","title":"东锦江大酒店法式旋转餐厅 X  Sensation","lon":"121.53331202737","lat":"31.210789080806","category":"97","category_name":"法式菜品餐厅","address":"浦东新区杨高南路889号(近蓝村路)"},{"poiid":"B2094655D26AA6FC4892","title":"双季花艺园艺市场","lon":"121.52958","lat":"31.20749","category":"247","category_name":"餐饮美食","address":"浦东新区浦建路620号(近杨高南路)"},{"poiid":"B2094757D06FA2FB4892","title":"新新潘晓婷撞球馆(杨高南路店)","lon":"121.53098","lat":"31.20649","category":"171","category_name":"台球厅","address":"浦东新区杨高南路1122号双季花艺4楼(浦建路口)"},{"poiid":"B2094757D06BA4F54692","title":"杨高南路浦建路","lon":"121.53193973","lat":"31.207346812","category":"500","category_name":"未知分类","address":"上海市浦东新区东方路"},{"poiid":"B2094750D36FA3FE459F","title":"陆家嘴","lon":"121.528472","lat":"31.207599","category":"500","category_name":"未知分类","address":null},{"poiid":"B2094757D06FABF5469F","title":"兰村大厦","lon":"121.52819973","lat":"31.211880909","category":"46","category_name":"楼宇","address":"盛和大厦位于崂山商务一区，即海尔路西侧。青医附院崂山分院南侧"},{"poiid":"B2094757D169ABFF489B","title":"仁济医院东院二号楼一楼PET-CT","lon":"121.52850073","lat":"31.2067958","category":"162","category_name":"医院","address":"上海东方路1630号"},{"poiid":"B2094757D068A0FF419B","title":"爱婴室(浦建路店)","lon":"121.52985","lat":"31.20722","category":"128","category_name":"儿童用品店","address":"浦东新区浦建路620号双季花艺西区3楼(近杨高南路)"},{"poiid":"B2094655D36DA0FA469B","title":"易初莲花","lon":"121.53076","lat":"31.20785","category":"38","category_name":"公交车站","address":""},{"poiid":"B2094757D069A4F8419E","title":"苏宁电器(浦建路店)","lon":"121.529882","lat":"31.207768","category":"138","category_name":"家电电子卖场","address":"浦东新区浦建路620号(近东方路)"},{"poiid":"B2094757D065A3F84299","title":"东锦江大酒店","lon":"121.53396723","lat":"31.211128561","category":"217","category_name":"旅馆招待所","address":"杨高南路889号东锦江大酒店46-47楼近蓝村路"},{"poiid":"B2094750D76FA3FC419B","title":"滇道橡木餐厅酒吧(环龙路店)","lon":"121.528","lat":"31.2064","category":"269","category_name":"烧烤","address":"环龙路65弄111号(近交通银行)"},{"poiid":"B2094654DA69A6F44093","title":"兰高小区","lon":"121.53134","lat":"31.21101","category":"47","category_name":"住宅区","address":"蓝村路30弄1-51号"},{"poiid":"B2094757D068A7F5419A","title":"海富花园","lon":"121.53044","lat":"31.213524","category":"47","category_name":"住宅区","address":"上海市杨浦区内江路168号(长阳路内江路口)"},{"poiid":"B2094757D064A3FF439A","title":"塘桥社区文化中心","lon":"121.530563438","lat":"31.2102128736","category":"500","category_name":"未知分类","address":"上海蓝村路86号"},{"poiid":"B209475CDA6DA5FD409C","title":"麻省理工烤鱼头创始人","lon":"121.531761","lat":"31.209421","category":"500","category_name":"未知分类","address":"上海市 东方路1486号2楼"},{"poiid":"B2094750D66EA5F44999","title":"碧云路","lon":"121.532073","lat":"31.208927","category":"247","category_name":"餐饮美食","address":null},{"poiid":"B2094655D26DA1FA439B","title":"锦南花苑","lon":"121.53099","lat":"31.20925","category":"47","category_name":"住宅区","address":"锦南花苑位于浦东浦建路725弄"},{"poiid":"B2094655D264A1FB409E","title":"世博东座酒店公寓","lon":"121.53068","lat":"31.20831","category":"47","category_name":"住宅区","address":"浦东新区浦建路727号(杨高南路口)"},{"poiid":"B2094757D169A0FE489C","title":"东方金座","lon":"121.53086","lat":"31.208364","category":"46","category_name":"楼宇","address":"上海市浦东新区浦建路727号"},{"poiid":"B2094654DA69A6F94398","title":"双季花艺","lon":"121.53101","lat":"31.20693","category":"117","category_name":"便民商店/便利店","address":"杨高南路1122号"},{"poiid":"B2094655D26EAAFB499E","title":"锦丰阁","lon":"121.53736352052","lat":"31.208361019645","category":"75","category_name":"浙江菜","address":"浦东新区东绣路588号绿城会所内(东绣路锦安西路)"},{"poiid":"B2094654DA69A6F9439C","title":"吉野家  杨高店","lon":"121.5302","lat":"31.20651","category":"95","category_name":"日本料理","address":"浦东新区杨高南路1126号卜蜂莲花2楼(近浦建路)"},{"poiid":"B2094757D064A4F54498","title":"仕嘉名苑","lon":"121.530885","lat":"31.212285","category":"47","category_name":"住宅区","address":"上海市浦东新区兰村路55弄3号"},{"poiid":"B2094751DA68A0F84193","title":"纽斯桑拿会所浦东店","lon":"121.534704","lat":"31.209241","category":"500","category_name":"未知分类","address":"浦东新区东绣路288号"},{"poiid":"B209475CD564A3FA429C","title":"麻省理功招牌烤鱼","lon":"121.527603","lat":"31.21145","category":"500","category_name":"未知分类","address":"上海市 上海市东方路1468号2楼"},{"poiid":"B2094753DA6BA5F8499F","title":"世纪大道","lon":"121.531593","lat":"31.20956","category":"500","category_name":"未知分类","address":"上海市 世纪大道"},{"poiid":"B2094655D265A2FC4498","title":"浦江之星旅店","lon":"121.53266","lat":"31.21112","category":"216","category_name":"经济型连锁酒店","address":"浦东新区蓝村路2号(近东方路)"},{"poiid":"B2094757D66DA7F8449E","title":"浦南幼儿园","lon":"121.53245663","lat":"31.207463615","category":"57","category_name":"幼儿园","address":"上海东绣路锦安西路"},{"poiid":"B2094757D069A4F5499C","title":"乔顿花园","lon":"121.535","lat":"31.2108","category":"47","category_name":"住宅区","address":"上海市浦东新区浦建路588号"},{"poiid":"B2094752D764ABFF479A","title":"来福士广场","lon":"121.530823","lat":"31.210861","category":"248","category_name":"生活娱乐","address":"上海市人民广场"},{"poiid":"B2094757D16EA5FC469F","title":"东方路兰村路","lon":"121.52833173","lat":"31.212515922","category":"500","category_name":"未知分类","address":"上海浦东新区东方路兰村路"},{"poiid":"B2094654DA69A6FA419F","title":"新都花园","lon":"121.532","lat":"31.21323","category":"47","category_name":"住宅区","address":"蓝村路31弄1-13号"},{"poiid":"B2094750DA6DA3FA4392","title":"南京东路","lon":"121.52964","lat":"31.208757","category":"500","category_name":"未知分类","address":null},{"poiid":"B209475CD369AAFC499B","title":"世博东座酒店西餐厅","lon":"121.53062","lat":"31.20823","category":"94","category_name":"西餐厅","address":"浦建路727号(杨高南路口)"},{"poiid":"B2094757D068A0F9449B","title":"国美电器(东方路店)","lon":"121.527978","lat":"31.207394","category":"138","category_name":"家电电子卖场","address":"上海市浦东新区浦建路348号"},{"poiid":"B2094750DA64A7FC4699","title":"人民广场地铁","lon":"121.532783","lat":"31.211862","category":"500","category_name":"未知分类","address":null},{"poiid":"B2094654DA68A4FC4192","title":"UPS Supply Chain Solutions","lon":"121.53701","lat":"31.20694","category":"248","category_name":"生活娱乐","address":"浦建路1000号"},{"poiid":"B2094654DA69A6F4409C","title":"永琪美容美发(蓝村路)","lon":"121.53128","lat":"31.21133","category":"148","category_name":"美容美发店","address":"蓝村路36-2识别"},{"poiid":"B2094655D26DAAF9409B","title":"东方金座(西门)入口","lon":"121.53057","lat":"31.20858","category":"47","category_name":"住宅区","address":""},{"poiid":"B2094654DB69A7FA449C","title":"上海市严桥第二中学","lon":"121.5314","lat":"31.20787","category":"55","category_name":"中学","address":"浦东新区浦建路433号"},{"poiid":"B2094654DA69A6F44298","title":"上海证券报社","lon":"121.53128","lat":"31.20831","category":"61","category_name":"报社","address":"杨高南路1100号"},{"poiid":"B2094757D065A4F8479F","title":"MIyou's 窝窝","lon":"121.531100738","lat":"31.2107643854","category":"247","category_name":"餐饮美食","address":null},{"poiid":"B2094654DA69A6F44092","title":"好德便利No.696","lon":"121.53151","lat":"31.21132","category":"117","category_name":"便民商店/便利店","address":"蓝村路34"},{"poiid":"B2094654DB6AA6F8419D","title":"上海东锦江希尔顿逸林酒店","lon":"121.53461","lat":"31.21125","category":"213","category_name":"五星级宾馆","address":"浦东新区杨高南路889号东锦江希尔顿逸林酒店41楼(近蓝村路)"},{"poiid":"B2094751D565AAFE409B","title":"纽斯汉蒸spa会所","lon":"121.536595","lat":"31.210135","category":"248","category_name":"生活娱乐","address":"上海市东绣路288号"},{"poiid":"B2094757D06EAAFE479B","title":"蓝村路地铁站","lon":"121.528271","lat":"31.211821","category":"36","category_name":"地铁站","address":"上海轨道交通 四号线 六号线 轨交蓝村路站 轻轨 4 6"},{"poiid":"B2094757D06FA7FC489B","title":"上海绿城","lon":"121.53364","lat":"31.205667","category":"47","category_name":"住宅区","address":"上海浦东新区锦和路99弄"},{"poiid":"B2094655D26DA7FB4199","title":"卜蜂莲花购物中心(杨高南路)","lon":"121.53021","lat":"31.20626","category":"118","category_name":"超级市场","address":"浦东新区杨高南路1126-1128号(近浦建路)"},{"poiid":"B2094757D068A7FF409E","title":"丽晟假日酒店","lon":"121.528429325","lat":"31.2068004771","category":"217","category_name":"旅馆招待所","address":"上海市浦东新区环龙路55号(近浦建路)"},{"poiid":"B2094757D465A1FE4899","title":"东锦江大酒店法式旋转餐厅 X  Sensation","lon":"121.53331202737","lat":"31.210789080806","category":"97","category_name":"法式菜品餐厅","address":"浦东新区杨高南路889号(近蓝村路)"},{"poiid":"B2094655D26AA6FC4892","title":"双季花艺园艺市场","lon":"121.52958","lat":"31.20749","category":"247","category_name":"餐饮美食","address":"浦东新区浦建路620号(近杨高南路)"},{"poiid":"B2094757D06FA2FB4892","title":"新新潘晓婷撞球馆(杨高南路店)","lon":"121.53098","lat":"31.20649","category":"171","category_name":"台球厅","address":"浦东新区杨高南路1122号双季花艺4楼(浦建路口)"},{"poiid":"B2094757D06BA4F54692","title":"杨高南路浦建路","lon":"121.53193973","lat":"31.207346812","category":"500","category_name":"未知分类","address":"上海市浦东新区东方路"},{"poiid":"B2094750D36FA3FE459F","title":"陆家嘴","lon":"121.528472","lat":"31.207599","category":"500","category_name":"未知分类","address":null},{"poiid":"B2094757D06FABF5469F","title":"兰村大厦","lon":"121.52819973","lat":"31.211880909","category":"46","category_name":"楼宇","address":"盛和大厦位于崂山商务一区，即海尔路西侧。青医附院崂山分院南侧"},{"poiid":"B2094757D169ABFF489B","title":"仁济医院东院二号楼一楼PET-CT","lon":"121.52850073","lat":"31.2067958","category":"162","category_name":"医院","address":"上海东方路1630号"},{"poiid":"B2094757D068A0FF419B","title":"爱婴室(浦建路店)","lon":"121.52985","lat":"31.20722","category":"128","category_name":"儿童用品店","address":"浦东新区浦建路620号双季花艺西区3楼(近杨高南路)"},{"poiid":"B2094655D36DA0FA469B","title":"易初莲花","lon":"121.53076","lat":"31.20785","category":"38","category_name":"公交车站","address":""},{"poiid":"B2094757D069A4F8419E","title":"苏宁电器(浦建路店)","lon":"121.529882","lat":"31.207768","category":"138","category_name":"家电电子卖场","address":"浦东新区浦建路620号(近东方路)"},{"poiid":"B2094757D065A3F84299","title":"东锦江大酒店","lon":"121.53396723","lat":"31.211128561","category":"217","category_name":"旅馆招待所","address":"杨高南路889号东锦江大酒店46-47楼近蓝村路"},{"poiid":"B2094750D76FA3FC419B","title":"滇道橡木餐厅酒吧(环龙路店)","lon":"121.528","lat":"31.2064","category":"269","category_name":"烧烤","address":"环龙路65弄111号(近交通银行)"},{"poiid":"B2094654DA69A6F44093","title":"兰高小区","lon":"121.53134","lat":"31.21101","category":"47","category_name":"住宅区","address":"蓝村路30弄1-51号"},{"poiid":"B2094757D068A7F5419A","title":"海富花园","lon":"121.53044","lat":"31.213524","category":"47","category_name":"住宅区","address":"上海市杨浦区内江路168号(长阳路内江路口)"},{"poiid":"B2094757D064A3FF439A","title":"塘桥社区文化中心","lon":"121.530563438","lat":"31.2102128736","category":"500","category_name":"未知分类","address":"上海蓝村路86号"},{"poiid":"B209475CDA6DA5FD409C","title":"麻省理工烤鱼头创始人","lon":"121.531761","lat":"31.209421","category":"500","category_name":"未知分类","address":"上海市 东方路1486号2楼"},{"poiid":"B2094750D66EA5F44999","title":"碧云路","lon":"121.532073","lat":"31.208927","category":"247","category_name":"餐饮美食","address":null},{"poiid":"B2094655D26DA1FA439B","title":"锦南花苑","lon":"121.53099","lat":"31.20925","category":"47","category_name":"住宅区","address":"锦南花苑位于浦东浦建路725弄"},{"poiid":"B2094655D264A1FB409E","title":"世博东座酒店公寓","lon":"121.53068","lat":"31.20831","category":"47","category_name":"住宅区","address":"浦东新区浦建路727号(杨高南路口)"},{"poiid":"B2094757D169A0FE489C","title":"东方金座","lon":"121.53086","lat":"31.208364","category":"46","category_name":"楼宇","address":"上海市浦东新区浦建路727号"},{"poiid":"B2094654DA69A6F94398","title":"双季花艺","lon":"121.53101","lat":"31.20693","category":"117","category_name":"便民商店/便利店","address":"杨高南路1122号"},{"poiid":"B2094655D26EAAFB499E","title":"锦丰阁","lon":"121.53736352052","lat":"31.208361019645","category":"75","category_name":"浙江菜","address":"浦东新区东绣路588号绿城会所内(东绣路锦安西路)"},{"poiid":"B2094654DA69A6F9439C","title":"吉野家  杨高店","lon":"121.5302","lat":"31.20651","category":"95","category_name":"日本料理","address":"浦东新区杨高南路1126号卜蜂莲花2楼(近浦建路)"},{"poiid":"B2094757D064A4F54498","title":"仕嘉名苑","lon":"121.530885","lat":"31.212285","category":"47","category_name":"住宅区","address":"上海市浦东新区兰村路55弄3号"},{"poiid":"B2094751DA68A0F84193","title":"纽斯桑拿会所浦东店","lon":"121.534704","lat":"31.209241","category":"500","category_name":"未知分类","address":"浦东新区东绣路288号"},{"poiid":"B209475CD564A3FA429C","title":"麻省理功招牌烤鱼","lon":"121.527603","lat":"31.21145","category":"500","category_name":"未知分类","address":"上海市 上海市东方路1468号2楼"},{"poiid":"B2094753DA6BA5F8499F","title":"世纪大道","lon":"121.531593","lat":"31.20956","category":"500","category_name":"未知分类","address":"上海市 世纪大道"},{"poiid":"B2094655D265A2FC4498","title":"浦江之星旅店","lon":"121.53266","lat":"31.21112","category":"216","category_name":"经济型连锁酒店","address":"浦东新区蓝村路2号(近东方路)"},{"poiid":"B2094757D66DA7F8449E","title":"浦南幼儿园","lon":"121.53245663","lat":"31.207463615","category":"57","category_name":"幼儿园","address":"上海东绣路锦安西路"},{"poiid":"B2094757D069A4F5499C","title":"乔顿花园","lon":"121.535","lat":"31.2108","category":"47","category_name":"住宅区","address":"上海市浦东新区浦建路588号"},{"poiid":"B2094752D764ABFF479A","title":"来福士广场","lon":"121.530823","lat":"31.210861","category":"248","category_name":"生活娱乐","address":"上海市人民广场"},{"poiid":"B2094757D16EA5FC469F","title":"东方路兰村路","lon":"121.52833173","lat":"31.212515922","category":"500","category_name":"未知分类","address":"上海浦东新区东方路兰村路"},{"poiid":"B2094654DA69A6FA419F","title":"新都花园","lon":"121.532","lat":"31.21323","category":"47","category_name":"住宅区","address":"蓝村路31弄1-13号"},{"poiid":"B2094750DA6DA3FA4392","title":"南京东路","lon":"121.52964","lat":"31.208757","category":"500","category_name":"未知分类","address":null},{"poiid":"B209475CD369AAFC499B","title":"世博东座酒店西餐厅","lon":"121.53062","lat":"31.20823","category":"94","category_name":"西餐厅","address":"浦建路727号(杨高南路口)"},{"poiid":"B2094757D068A0F9449B","title":"国美电器(东方路店)","lon":"121.527978","lat":"31.207394","category":"138","category_name":"家电电子卖场","address":"上海市浦东新区浦建路348号"},{"poiid":"B2094750DA64A7FC4699","title":"人民广场地铁","lon":"121.532783","lat":"31.211862","category":"500","category_name":"未知分类","address":null},{"poiid":"B2094654DA68A4FC4192","title":"UPS Supply Chain Solutions","lon":"121.53701","lat":"31.20694","category":"248","category_name":"生活娱乐","address":"浦建路1000号"},{"poiid":"B2094654DA69A6F4409C","title":"永琪美容美发(蓝村路)","lon":"121.53128","lat":"31.21133","category":"148","category_name":"美容美发店","address":"蓝村路36-2识别"},{"poiid":"B2094655D26DAAF9409B","title":"东方金座(西门)入口","lon":"121.53057","lat":"31.20858","category":"47","category_name":"住宅区","address":""},{"poiid":"B2094654DB69A7FA449C","title":"上海市严桥第二中学","lon":"121.5314","lat":"31.20787","category":"55","category_name":"中学","address":"浦东新区浦建路433号"},{"poiid":"B2094654DA69A6F44298","title":"上海证券报社","lon":"121.53128","lat":"31.20831","category":"61","category_name":"报社","address":"杨高南路1100号"},{"poiid":"B2094757D065A4F8479F","title":"MIyou's 窝窝","lon":"121.531100738","lat":"31.2107643854","category":"247","category_name":"餐饮美食","address":null},{"poiid":"B2094654DA69A6F44092","title":"好德便利No.696","lon":"121.53151","lat":"31.21132","category":"117","category_name":"便民商店/便利店","address":"蓝村路34"},{"poiid":"B2094654DB6AA6F8419D","title":"上海东锦江希尔顿逸林酒店","lon":"121.53461","lat":"31.21125","category":"213","category_name":"五星级宾馆","address":"浦东新区杨高南路889号东锦江希尔顿逸林酒店41楼(近蓝村路)"},{"poiid":"B2094751D565AAFE409B","title":"纽斯汉蒸spa会所","lon":"121.536595","lat":"31.210135","category":"248","category_name":"生活娱乐","address":"上海市东绣路288号"},{"poiid":"B2094757D06EAAFE479B","title":"蓝村路地铁站","lon":"121.528271","lat":"31.211821","category":"36","category_name":"地铁站","address":"上海轨道交通 四号线 六号线 轨交蓝村路站 轻轨 4 6"},{"poiid":"B2094757D06FA7FC489B","title":"上海绿城","lon":"121.53364","lat":"31.205667","category":"47","category_name":"住宅区","address":"上海浦东新区锦和路99弄"},{"poiid":"B2094655D26DA7FB4199","title":"卜蜂莲花购物中心(杨高南路)","lon":"121.53021","lat":"31.20626","category":"118","category_name":"超级市场","address":"浦东新区杨高南路1126-1128号(近浦建路)"},{"poiid":"B2094757D068A7FF409E","title":"丽晟假日酒店","lon":"121.528429325","lat":"31.2068004771","category":"217","category_name":"旅馆招待所","address":"上海市浦东新区环龙路55号(近浦建路)"},{"poiid":"B2094757D465A1FE4899","title":"东锦江大酒店法式旋转餐厅 X  Sensation","lon":"121.53331202737","lat":"31.210789080806","category":"97","category_name":"法式菜品餐厅","address":"浦东新区杨高南路889号(近蓝村路)"},{"poiid":"B2094655D26AA6FC4892","title":"双季花艺园艺市场","lon":"121.52958","lat":"31.20749","category":"247","category_name":"餐饮美食","address":"浦东新区浦建路620号(近杨高南路)"},{"poiid":"B2094757D06FA2FB4892","title":"新新潘晓婷撞球馆(杨高南路店)","lon":"121.53098","lat":"31.20649","category":"171","category_name":"台球厅","address":"浦东新区杨高南路1122号双季花艺4楼(浦建路口)"},{"poiid":"B2094757D06BA4F54692","title":"杨高南路浦建路","lon":"121.53193973","lat":"31.207346812","category":"500","category_name":"未知分类","address":"上海市浦东新区东方路"},{"poiid":"B2094750D36FA3FE459F","title":"陆家嘴","lon":"121.528472","lat":"31.207599","category":"500","category_name":"未知分类","address":null},{"poiid":"B2094757D06FABF5469F","title":"兰村大厦","lon":"121.52819973","lat":"31.211880909","category":"46","category_name":"楼宇","address":"盛和大厦位于崂山商务一区，即海尔路西侧。青医附院崂山分院南侧"},{"poiid":"B2094757D169ABFF489B","title":"仁济医院东院二号楼一楼PET-CT","lon":"121.52850073","lat":"31.2067958","category":"162","category_name":"医院","address":"上海东方路1630号"},{"poiid":"B2094757D068A0FF419B","title":"爱婴室(浦建路店)","lon":"121.52985","lat":"31.20722","category":"128","category_name":"儿童用品店","address":"浦东新区浦建路620号双季花艺西区3楼(近杨高南路)"},{"poiid":"B2094655D36DA0FA469B","title":"易初莲花","lon":"121.53076","lat":"31.20785","category":"38","category_name":"公交车站","address":""},{"poiid":"B2094757D069A4F8419E","title":"苏宁电器(浦建路店)","lon":"121.529882","lat":"31.207768","category":"138","category_name":"家电电子卖场","address":"浦东新区浦建路620号(近东方路)"},{"poiid":"B2094757D065A3F84299","title":"东锦江大酒店","lon":"121.53396723","lat":"31.211128561","category":"217","category_name":"旅馆招待所","address":"杨高南路889号东锦江大酒店46-47楼近蓝村路"},{"poiid":"B2094750D76FA3FC419B","title":"滇道橡木餐厅酒吧(环龙路店)","lon":"121.528","lat":"31.2064","category":"269","category_name":"烧烤","address":"环龙路65弄111号(近交通银行)"},{"poiid":"B2094654DA69A6F44093","title":"兰高小区","lon":"121.53134","lat":"31.21101","category":"47","category_name":"住宅区","address":"蓝村路30弄1-51号"},{"poiid":"B2094757D068A7F5419A","title":"海富花园","lon":"121.53044","lat":"31.213524","category":"47","category_name":"住宅区","address":"上海市杨浦区内江路168号(长阳路内江路口)"},{"poiid":"B2094757D064A3FF439A","title":"塘桥社区文化中心","lon":"121.530563438","lat":"31.2102128736","category":"500","category_name":"未知分类","address":"上海蓝村路86号"},{"poiid":"B209475CDA6DA5FD409C","title":"麻省理工烤鱼头创始人","lon":"121.531761","lat":"31.209421","category":"500","category_name":"未知分类","address":"上海市 东方路1486号2楼"},{"poiid":"B2094750D66EA5F44999","title":"碧云路","lon":"121.532073","lat":"31.208927","category":"247","category_name":"餐饮美食","address":null},{"poiid":"B2094655D26DA1FA439B","title":"锦南花苑","lon":"121.53099","lat":"31.20925","category":"47","category_name":"住宅区","address":"锦南花苑位于浦东浦建路725弄"},{"poiid":"B2094655D264A1FB409E","title":"世博东座酒店公寓","lon":"121.53068","lat":"31.20831","category":"47","category_name":"住宅区","address":"浦东新区浦建路727号(杨高南路口)"},{"poiid":"B2094757D169A0FE489C","title":"东方金座","lon":"121.53086","lat":"31.208364","category":"46","category_name":"楼宇","address":"上海市浦东新区浦建路727号"},{"poiid":"B2094654DA69A6F94398","title":"双季花艺","lon":"121.53101","lat":"31.20693","category":"117","category_name":"便民商店/便利店","address":"杨高南路1122号"},{"poiid":"B2094655D26EAAFB499E","title":"锦丰阁","lon":"121.53736352052","lat":"31.208361019645","category":"75","category_name":"浙江菜","address":"浦东新区东绣路588号绿城会所内(东绣路锦安西路)"},{"poiid":"B2094654DA69A6F9439C","title":"吉野家  杨高店","lon":"121.5302","lat":"31.20651","category":"95","category_name":"日本料理","address":"浦东新区杨高南路1126号卜蜂莲花2楼(近浦建路)"},{"poiid":"B2094757D064A4F54498","title":"仕嘉名苑","lon":"121.530885","lat":"31.212285","category":"47","category_name":"住宅区","address":"上海市浦东新区兰村路55弄3号"},{"poiid":"B2094751DA68A0F84193","title":"纽斯桑拿会所浦东店","lon":"121.534704","lat":"31.209241","category":"500","category_name":"未知分类","address":"浦东新区东绣路288号"},{"poiid":"B209475CD564A3FA429C","title":"麻省理功招牌烤鱼","lon":"121.527603","lat":"31.21145","category":"500","category_name":"未知分类","address":"上海市 上海市东方路1468号2楼"},{"poiid":"B2094753DA6BA5F8499F","title":"世纪大道","lon":"121.531593","lat":"31.20956","category":"500","category_name":"未知分类","address":"上海市 世纪大道"},{"poiid":"B2094655D265A2FC4498","title":"浦江之星旅店","lon":"121.53266","lat":"31.21112","category":"216","category_name":"经济型连锁酒店","address":"浦东新区蓝村路2号(近东方路)"},{"poiid":"B2094757D66DA7F8449E","title":"浦南幼儿园","lon":"121.53245663","lat":"31.207463615","category":"57","category_name":"幼儿园","address":"上海东绣路锦安西路"},{"poiid":"B2094757D069A4F5499C","title":"乔顿花园","lon":"121.535","lat":"31.2108","category":"47","category_name":"住宅区","address":"上海市浦东新区浦建路588号"},{"poiid":"B2094752D764ABFF479A","title":"来福士广场","lon":"121.530823","lat":"31.210861","category":"248","category_name":"生活娱乐","address":"上海市人民广场"},{"poiid":"B2094757D16EA5FC469F","title":"东方路兰村路","lon":"121.52833173","lat":"31.212515922","category":"500","category_name":"未知分类","address":"上海浦东新区东方路兰村路"},{"poiid":"B2094654DA69A6FA419F","title":"新都花园","lon":"121.532","lat":"31.21323","category":"47","category_name":"住宅区","address":"蓝村路31弄1-13号"},{"poiid":"B2094750DA6DA3FA4392","title":"南京东路","lon":"121.52964","lat":"31.208757","category":"500","category_name":"未知分类","address":null},{"poiid":"B209475CD369AAFC499B","title":"世博东座酒店西餐厅","lon":"121.53062","lat":"31.20823","category":"94","category_name":"西餐厅","address":"浦建路727号(杨高南路口)"},{"poiid":"B2094757D068A0F9449B","title":"国美电器(东方路店)","lon":"121.527978","lat":"31.207394","category":"138","category_name":"家电电子卖场","address":"上海市浦东新区浦建路348号"},{"poiid":"B2094750DA64A7FC4699","title":"人民广场地铁","lon":"121.532783","lat":"31.211862","category":"500","category_name":"未知分类","address":null},{"poiid":"B2094654DA68A4FC4192","title":"UPS Supply Chain Solutions","lon":"121.53701","lat":"31.20694","category":"248","category_name":"生活娱乐","address":"浦建路1000号"},{"poiid":"B2094654DA69A6F4409C","title":"永琪美容美发(蓝村路)","lon":"121.53128","lat":"31.21133","category":"148","category_name":"美容美发店","address":"蓝村路36-2识别"},{"poiid":"B2094655D26DAAF9409B","title":"东方金座(西门)入口","lon":"121.53057","lat":"31.20858","category":"47","category_name":"住宅区","address":""},{"poiid":"B2094654DB69A7FA449C","title":"上海市严桥第二中学","lon":"121.5314","lat":"31.20787","category":"55","category_name":"中学","address":"浦东新区浦建路433号"},{"poiid":"B2094654DA69A6F44298","title":"上海证券报社","lon":"121.53128","lat":"31.20831","category":"61","category_name":"报社","address":"杨高南路1100号"},{"poiid":"B2094757D065A4F8479F","title":"MIyou's 窝窝","lon":"121.531100738","lat":"31.2107643854","category":"247","category_name":"餐饮美食","address":null},{"poiid":"B2094654DA69A6F44092","title":"好德便利No.696","lon":"121.53151","lat":"31.21132","category":"117","category_name":"便民商店/便利店","address":"蓝村路34"},{"poiid":"B2094654DB6AA6F8419D","title":"上海东锦江希尔顿逸林酒店","lon":"121.53461","lat":"31.21125","category":"213","category_name":"五星级宾馆","address":"浦东新区杨高南路889号东锦江希尔顿逸林酒店41楼(近蓝村路)"},{"poiid":"B2094751D565AAFE409B","title":"纽斯汉蒸spa会所","lon":"121.536595","lat":"31.210135","category":"248","category_name":"生活娱乐","address":"上海市东绣路288号"},{"poiid":"B2094757D06EAAFE479B","title":"蓝村路地铁站","lon":"121.528271","lat":"31.211821","category":"36","category_name":"地铁站","address":"上海轨道交通 四号线 六号线 轨交蓝村路站 轻轨 4 6"},{"poiid":"B2094757D06FA7FC489B","title":"上海绿城","lon":"121.53364","lat":"31.205667","category":"47","category_name":"住宅区","address":"上海浦东新区锦和路99弄"},{"poiid":"B2094655D26DA7FB4199","title":"卜蜂莲花购物中心(杨高南路)","lon":"121.53021","lat":"31.20626","category":"118","category_name":"超级市场","address":"浦东新区杨高南路1126-1128号(近浦建路)"},{"poiid":"B2094757D068A7FF409E","title":"丽晟假日酒店","lon":"121.528429325","lat":"31.2068004771","category":"217","category_name":"旅馆招待所","address":"上海市浦东新区环龙路55号(近浦建路)"},{"poiid":"B2094757D465A1FE4899","title":"东锦江大酒店法式旋转餐厅 X  Sensation","lon":"121.53331202737","lat":"31.210789080806","category":"97","category_name":"法式菜品餐厅","address":"浦东新区杨高南路889号(近蓝村路)"},{"poiid":"B2094655D26AA6FC4892","title":"双季花艺园艺市场","lon":"121.52958","lat":"31.20749","category":"247","category_name":"餐饮美食","address":"浦东新区浦建路620号(近杨高南路)"},{"poiid":"B2094757D06FA2FB4892","title":"新新潘晓婷撞球馆(杨高南路店)","lon":"121.53098","lat":"31.20649","category":"171","category_name":"台球厅","address":"浦东新区杨高南路1122号双季花艺4楼(浦建路口)"},{"poiid":"B2094757D06BA4F54692","title":"杨高南路浦建路","lon":"121.53193973","lat":"31.207346812","category":"500","category_name":"未知分类","address":"上海市浦东新区东方路"},{"poiid":"B2094750D36FA3FE459F","title":"陆家嘴","lon":"121.528472","lat":"31.207599","category":"500","category_name":"未知分类","address":null},{"poiid":"B2094757D06FABF5469F","title":"兰村大厦","lon":"121.52819973","lat":"31.211880909","category":"46","category_name":"楼宇","address":"盛和大厦位于崂山商务一区，即海尔路西侧。青医附院崂山分院南侧"},{"poiid":"B2094757D169ABFF489B","title":"仁济医院东院二号楼一楼PET-CT","lon":"121.52850073","lat":"31.2067958","category":"162","category_name":"医院","address":"上海东方路1630号"},{"poiid":"B2094757D068A0FF419B","title":"爱婴室(浦建路店)","lon":"121.52985","lat":"31.20722","category":"128","category_name":"儿童用品店","address":"浦东新区浦建路620号双季花艺西区3楼(近杨高南路)"},{"poiid":"B2094655D36DA0FA469B","title":"易初莲花","lon":"121.53076","lat":"31.20785","category":"38","category_name":"公交车站","address":""},{"poiid":"B2094757D069A4F8419E","title":"苏宁电器(浦建路店)","lon":"121.529882","lat":"31.207768","category":"138","category_name":"家电电子卖场","address":"浦东新区浦建路620号(近东方路)"},{"poiid":"B2094757D065A3F84299","title":"东锦江大酒店","lon":"121.53396723","lat":"31.211128561","category":"217","category_name":"旅馆招待所","address":"杨高南路889号东锦江大酒店46-47楼近蓝村路"},{"poiid":"B2094750D76FA3FC419B","title":"滇道橡木餐厅酒吧(环龙路店)","lon":"121.528","lat":"31.2064","category":"269","category_name":"烧烤","address":"环龙路65弄111号(近交通银行)"},{"poiid":"B2094654DA69A6F44093","title":"兰高小区","lon":"121.53134","lat":"31.21101","category":"47","category_name":"住宅区","address":"蓝村路30弄1-51号"},{"poiid":"B2094757D068A7F5419A","title":"海富花园","lon":"121.53044","lat":"31.213524","category":"47","category_name":"住宅区","address":"上海市杨浦区内江路168号(长阳路内江路口)"},{"poiid":"B2094757D064A3FF439A","title":"塘桥社区文化中心","lon":"121.530563438","lat":"31.2102128736","category":"500","category_name":"未知分类","address":"上海蓝村路86号"},{"poiid":"B209475CDA6DA5FD409C","title":"麻省理工烤鱼头创始人","lon":"121.531761","lat":"31.209421","category":"500","category_name":"未知分类","address":"上海市 东方路1486号2楼"},{"poiid":"B2094750D66EA5F44999","title":"碧云路","lon":"121.532073","lat":"31.208927","category":"247","category_name":"餐饮美食","address":null},{"poiid":"B2094655D26DA1FA439B","title":"锦南花苑","lon":"121.53099","lat":"31.20925","category":"47","category_name":"住宅区","address":"锦南花苑位于浦东浦建路725弄"},{"poiid":"B2094655D264A1FB409E","title":"世博东座酒店公寓","lon":"121.53068","lat":"31.20831","category":"47","category_name":"住宅区","address":"浦东新区浦建路727号(杨高南路口)"},{"poiid":"B2094757D169A0FE489C","title":"东方金座","lon":"121.53086","lat":"31.208364","category":"46","category_name":"楼宇","address":"上海市浦东新区浦建路727号"},{"poiid":"B2094654DA69A6F94398","title":"双季花艺","lon":"121.53101","lat":"31.20693","category":"117","category_name":"便民商店/便利店","address":"杨高南路1122号"},{"poiid":"B2094655D26EAAFB499E","title":"锦丰阁","lon":"121.53736352052","lat":"31.208361019645","category":"75","category_name":"浙江菜","address":"浦东新区东绣路588号绿城会所内(东绣路锦安西路)"},{"poiid":"B2094654DA69A6F9439C","title":"吉野家  杨高店","lon":"121.5302","lat":"31.20651","category":"95","category_name":"日本料理","address":"浦东新区杨高南路1126号卜蜂莲花2楼(近浦建路)"},{"poiid":"B2094757D064A4F54498","title":"仕嘉名苑","lon":"121.530885","lat":"31.212285","category":"47","category_name":"住宅区","address":"上海市浦东新区兰村路55弄3号"},{"poiid":"B2094751DA68A0F84193","title":"纽斯桑拿会所浦东店","lon":"121.534704","lat":"31.209241","category":"500","category_name":"未知分类","address":"浦东新区东绣路288号"},{"poiid":"B209475CD564A3FA429C","title":"麻省理功招牌烤鱼","lon":"121.527603","lat":"31.21145","category":"500","category_name":"未知分类","address":"上海市 上海市东方路1468号2楼"},{"poiid":"B2094753DA6BA5F8499F","title":"世纪大道","lon":"121.531593","lat":"31.20956","category":"500","category_name":"未知分类","address":"上海市 世纪大道"},{"poiid":"B2094655D265A2FC4498","title":"浦江之星旅店","lon":"121.53266","lat":"31.21112","category":"216","category_name":"经济型连锁酒店","address":"浦东新区蓝村路2号(近东方路)"},{"poiid":"B2094757D66DA7F8449E","title":"浦南幼儿园","lon":"121.53245663","lat":"31.207463615","category":"57","category_name":"幼儿园","address":"上海东绣路锦安西路"},{"poiid":"B2094757D069A4F5499C","title":"乔顿花园","lon":"121.535","lat":"31.2108","category":"47","category_name":"住宅区","address":"上海市浦东新区浦建路588号"},{"poiid":"B2094752D764ABFF479A","title":"来福士广场","lon":"121.530823","lat":"31.210861","category":"248","category_name":"生活娱乐","address":"上海市人民广场"},{"poiid":"B2094757D16EA5FC469F","title":"东方路兰村路","lon":"121.52833173","lat":"31.212515922","category":"500","category_name":"未知分类","address":"上海浦东新区东方路兰村路"},{"poiid":"B2094654DA69A6FA419F","title":"新都花园","lon":"121.532","lat":"31.21323","category":"47","category_name":"住宅区","address":"蓝村路31弄1-13号"},{"poiid":"B2094750DA6DA3FA4392","title":"南京东路","lon":"121.52964","lat":"31.208757","category":"500","category_name":"未知分类","address":null},{"poiid":"B209475CD369AAFC499B","title":"世博东座酒店西餐厅","lon":"121.53062","lat":"31.20823","category":"94","category_name":"西餐厅","address":"浦建路727号(杨高南路口)"},{"poiid":"B2094757D068A0F9449B","title":"国美电器(东方路店)","lon":"121.527978","lat":"31.207394","category":"138","category_name":"家电电子卖场","address":"上海市浦东新区浦建路348号"},{"poiid":"B2094750DA64A7FC4699","title":"人民广场地铁","lon":"121.532783","lat":"31.211862","category":"500","category_name":"未知分类","address":null},{"poiid":"B2094654DA68A4FC4192","title":"UPS Supply Chain Solutions","lon":"121.53701","lat":"31.20694","category":"248","category_name":"生活娱乐","address":"浦建路1000号"},{"poiid":"B2094654DA69A6F4409C","title":"永琪美容美发(蓝村路)","lon":"121.53128","lat":"31.21133","category":"148","category_name":"美容美发店","address":"蓝村路36-2识别"},{"poiid":"B2094655D26DAAF9409B","title":"东方金座(西门)入口","lon":"121.53057","lat":"31.20858","category":"47","category_name":"住宅区","address":""},{"poiid":"B2094654DB69A7FA449C","title":"上海市严桥第二中学","lon":"121.5314","lat":"31.20787","category":"55","category_name":"中学","address":"浦东新区浦建路433号"},{"poiid":"B2094654DA69A6F44298","title":"上海证券报社","lon":"121.53128","lat":"31.20831","category":"61","category_name":"报社","address":"杨高南路1100号"},{"poiid":"B2094757D065A4F8479F","title":"MIyou's 窝窝","lon":"121.531100738","lat":"31.2107643854","category":"247","category_name":"餐饮美食","address":null},{"poiid":"B2094654DA69A6F44092","title":"好德便利No.696","lon":"121.53151","lat":"31.21132","category":"117","category_name":"便民商店/便利店","address":"蓝村路34"}]