[{"poiid":"B2094757D06AAAFD479A","title":"浦东机场一号航站楼24号登机口","lon":"121.757336","lat":"31.153572","category":"21","category_name":"飞机场","address":"上海浦东新区机场镇启航路900号"},{"poiid":"B2094757D16EA3F94293","title":"浦东机场2号航站楼C94登机口","lon":"121.75227818","lat":"31.152032508","category":"21","category_name":"飞机场","address":"上海浦东国际机场"},{"poiid":"B2094757D66CA4FF499B","title":"浦东新区机场镇","lon":"121.754978992","lat":"31.1632029709","category":"500","category_name":"未知分类","address":"上海浦东机场附近"},{"poiid":"B2094757D16CA7FF409A","title":"浦东丽豪国际大酒店","lon":"121.75841599","lat":"31.147969639","category":"217","category_name":"旅馆招待所","address":"浦东新区施新路958号(近川南奉公路)"},{"poiid":"B2094757D069A1FC449E","title":"施湾镇","lon":"121.757073","lat":"31.153482","category":"500","category_name":"未知分类","address":"上海施湾镇"},{"poiid":"B2094655D36CA1FF419E","title":"思凡小区","lon":"121.74662","lat":"31.14536","category":"47","category_name":"住宅区","address":"浦东新区施湾二路1026弄"},{"poiid":"B2094757D16CA4FE429E","title":"美聚汇(机场店)","lon":"121.75619","lat":"31.15479","category":"76","category_name":"上海菜","address":"浦东新区航城路508号(川南奉公路口)"},{"poiid":"B2094655D36CA5FE4293","title":"川南奉公路施新路","lon":"121.75815","lat":"31.14926","category":"38","category_name":"公交车站","address":""},{"poiid":"B2094757D168A7FA449F","title":"盛世联弈苑","lon":"121.75737019","lat":"31.15350696","category":"500","category_name":"未知分类","address":"上海市浦东新区机场镇航城三路675弄"},{"poiid":"B2094757D169A6FE4399","title":"浦東機場工作區","lon":"121.77396149","lat":"31.155401301","category":"500","category_name":"未知分类","address":"上海基地三路"},{"poiid":"B2094757D065A2FA4692","title":"上海浦东国际机场海关第二监管仓库","lon":"121.767762792","lat":"31.1565497262","category":"46","category_name":"楼宇","address":"上海机场大道180号"},{"poiid":"B2094757D16AA0FC4598","title":"沃尔玛","lon":"121.75665026","lat":"31.144802068","category":"500","category_name":"未知分类","address":"上海市浦东新区施新路"},{"poiid":"B2094655D36CA0FB469D","title":"机场镇","lon":"121.75746","lat":"31.15179","category":"38","category_name":"公交车站","address":"上海,上海市,机场镇航城五路施湾二路"},{"poiid":"B2094757D065AAF54593","title":"航城园","lon":"121.74971","lat":"31.146696","category":"500","category_name":"未知分类","address":"上海市浦东新区施新路555弄"},{"poiid":"B2094655D26DA0FA4899","title":"施湾家园","lon":"121.75668","lat":"31.145536","category":"47","category_name":"住宅区","address":"上海市浦东新区施镇路"},{"poiid":"B2094757DA65A5FB4098","title":"景悦99客栈（上海浦东机场施湾店）","lon":"121.760053","lat":"31.15575195","category":"216","category_name":"经济型连锁酒店","address":"上海市浦东新区航城路60号（近施湾路）"},{"poiid":"B2094654DB6DA5FF409D","title":"豪客来酒家","lon":"121.75775","lat":"31.15213","category":"76","category_name":"上海菜","address":"浦东新区川南奉公路3271号(施湾车站对面)"},{"poiid":"B2094757D168A4F54799","title":"中國檢驗檢疫","lon":"121.761442992","lat":"31.1540357715","category":"500","category_name":"未知分类","address":"上海航航路666號"},{"poiid":"B2094655D36CA1FD409F","title":"施湾","lon":"121.75676","lat":"31.15364","category":"38","category_name":"公交车站","address":""},{"poiid":"B2094750D66AA1FD4593","title":"恒纬家苑","lon":"121.755905","lat":"31.151874","category":"47","category_name":"住宅区","address":"航城三路692弄"},{"poiid":"B2094654DB64A1F4409A","title":"施宏小区(施宏路)","lon":"121.76086","lat":"31.1526","category":"47","category_name":"住宅区","address":"施宏路501、539弄"},{"poiid":"B2094655D36CA1FD4093","title":"施湾五路施新路","lon":"121.75527","lat":"31.14674","category":"38","category_name":"公交车站","address":""},{"poiid":"B2094654DB6DA5FC499A","title":"浦东新区施湾中心小学","lon":"121.75695","lat":"31.15253","category":"56","category_name":"小学","address":"浦东新区机场镇川南奉公路3250号(川南奉公路施宏路)"},{"poiid":"B2094654DB69ABFF409D","title":"农工商超市(机场店)","lon":"121.76051","lat":"31.15202","category":"118","category_name":"超级市场","address":"浦东新区机场镇施宏路480号"},{"poiid":"B2094655D26DA6FD4092","title":"金湾佳园","lon":"121.75761","lat":"31.141705","category":"47","category_name":"住宅区","address":"航城七路450弄1-89号"},{"poiid":"B2094655D36CA5FE4298","title":"川南奉公路远航路","lon":"121.7603","lat":"31.14197","category":"38","category_name":"公交车站","address":""},{"poiid":"B2094654DB64A6FD489B","title":"上海市施湾中学(川南奉公路)","lon":"121.75779","lat":"31.15343","category":"55","category_name":"中学","address":"浦东新区川南奉公路3211弄8号(川南奉公路中圩路)"},{"poiid":"B2094654DB6DA5FE4092","title":"养和堂施湾医药商店","lon":"121.76171","lat":"31.15232","category":"162","category_name":"医院","address":"浦东新区施宏路536号"},{"poiid":"B2094654DB64ABF8449F","title":"思凡南苑(施湾三路)","lon":"121.752","lat":"31.13994","category":"47","category_name":"住宅区","address":"施湾三路1106弄1-62号"},{"poiid":"B2094757D66EA7FC4499","title":"美聚会民间瓦罐煨汤","lon":"121.757360992","lat":"31.1546217842","category":"500","category_name":"未知分类","address":"上海浦东施湾航城路"},{"poiid":"B2094655D36CA5FE4392","title":"川南奉公路航城路","lon":"121.75534","lat":"31.15566","category":"38","category_name":"公交车站","address":""},{"poiid":"B2094655D26FA5FC4492","title":"航城港海鲜大酒店","lon":"121.76196","lat":"31.15545","category":"88","category_name":"海鲜酒楼","address":"浦东新区航程路288号"},{"poiid":"B2094654DB6DA5FE419B","title":"浦东新区机场镇第二敬老院","lon":"121.76051","lat":"31.15114","category":"615","category_name":"敬老院","address":"水闸南路200"},{"poiid":"B2094750D26DA1FA409C","title":"浦东机场停机坪","lon":"121.7659946","lat":"31.1554582","category":"500","category_name":"未知分类","address":null},{"poiid":"B2094757D66CA6FF499C","title":"地质博物馆翔远大酒店","lon":"121.76004","lat":"31.14669","category":"217","category_name":"旅馆招待所","address":"浦东新区川沙机场镇江镇路(近华洲路上海地质博物馆)  "},{"poiid":"B2094757D065ABFE4999","title":"沪渝农庄","lon":"121.74183","lat":"31.1569","category":"71","category_name":"四川菜","address":"浦东新区川六公路2386号尹塘路桥头"},{"poiid":"B2094654DB6DA6F9489D","title":"浦东新区东港幼儿园","lon":"121.75089","lat":"31.14449","category":"57","category_name":"幼儿园","address":""},{"poiid":"B2094655D26EA1FE489B","title":"上海浦东游泳馆思凡分馆","lon":"121.75172","lat":"31.14205","category":"231","category_name":"游泳馆","address":""},{"poiid":"B2094655D36CA6F5419B","title":"邓镇","lon":"121.76049","lat":"31.14136","category":"38","category_name":"公交车站","address":""},{"poiid":"B2094655D36CA7FA459D","title":"航城园站","lon":"121.75081","lat":"31.14648","category":"38","category_name":"公交车站","address":""},{"poiid":"B2094654DB6DA6F94893","title":"爱金华大酒店","lon":"121.75051","lat":"31.14724","category":"215","category_name":"三星级宾馆","address":"浦东新区机场镇施新路551号(施湾三路施新路)"},{"poiid":"B2094655D36CA7FA459C","title":"航城五路施湾二路","lon":"121.75008","lat":"31.14325","category":"38","category_name":"公交车站","address":""},{"poiid":"B2094654DB6DA5FE419D","title":"浦东新区川沙新镇望三村文化广场","lon":"121.7657","lat":"31.15306","category":"201","category_name":"城市广场","address":""},{"poiid":"B2094757D165A7FE459B","title":"雪域餐厅","lon":"121.76109366","lat":"31.144795968","category":"500","category_name":"未知分类","address":"拉萨藏医院路雪域餐厅"},{"poiid":"B2094655D36CA1FD419E","title":"施新路","lon":"121.75025","lat":"31.14582","category":"38","category_name":"公交车站","address":""},{"poiid":"B2094750DA68A1FE449D","title":"张闻天故居","lon":"121.759719","lat":"31.139444","category":"252","category_name":"楼宇机构","address":"浦东新区川沙新镇闻居路50号(周祝公路祝惠路)"},{"poiid":"B2094655D26FA4FA409B","title":"金湾佳园(西北门)","lon":"121.75881","lat":"31.14222","category":"47","category_name":"住宅区","address":""},{"poiid":"B2094757D66EA6FE429D","title":"GAX","lon":"121.75189435","lat":"31.146925751","category":"249","category_name":"购物服务","address":"上海市浦东新区航城园"},{"poiid":"B2094655D36DA7F94393","title":"中圩","lon":"121.75366","lat":"31.15735","category":"38","category_name":"公交车站","address":""},{"poiid":"B2094757D16EAAFA429A","title":"川南奉公路航程路","lon":"121.755033992","lat":"31.1553267996","category":"500","category_name":"未知分类","address":"上海川南奉公路航程路"},{"poiid":"B2094757D06AAAFD479A","title":"浦东机场一号航站楼24号登机口","lon":"121.757336","lat":"31.153572","category":"21","category_name":"飞机场","address":"上海浦东新区机场镇启航路900号"},{"poiid":"B2094757D16EA3F94293","title":"浦东机场2号航站楼C94登机口","lon":"121.75227818","lat":"31.152032508","category":"21","category_name":"飞机场","address":"上海浦东国际机场"},{"poiid":"B2094757D66CA4FF499B","title":"浦东新区机场镇","lon":"121.754978992","lat":"31.1632029709","category":"500","category_name":"未知分类","address":"上海浦东机场附近"},{"poiid":"B2094757D16CA7FF409A","title":"浦东丽豪国际大酒店","lon":"121.75841599","lat":"31.147969639","category":"217","category_name":"旅馆招待所","address":"浦东新区施新路958号(近川南奉公路)"},{"poiid":"B2094757D069A1FC449E","title":"施湾镇","lon":"121.757073","lat":"31.153482","category":"500","category_name":"未知分类","address":"上海施湾镇"},{"poiid":"B2094655D36CA1FF419E","title":"思凡小区","lon":"121.74662","lat":"31.14536","category":"47","category_name":"住宅区","address":"浦东新区施湾二路1026弄"},{"poiid":"B2094757D16CA4FE429E","title":"美聚汇(机场店)","lon":"121.75619","lat":"31.15479","category":"76","category_name":"上海菜","address":"浦东新区航城路508号(川南奉公路口)"},{"poiid":"B2094655D36CA5FE4293","title":"川南奉公路施新路","lon":"121.75815","lat":"31.14926","category":"38","category_name":"公交车站","address":""},{"poiid":"B2094757D168A7FA449F","title":"盛世联弈苑","lon":"121.75737019","lat":"31.15350696","category":"500","category_name":"未知分类","address":"上海市浦东新区机场镇航城三路675弄"},{"poiid":"B2094757D169A6FE4399","title":"浦東機場工作區","lon":"121.77396149","lat":"31.155401301","category":"500","category_name":"未知分类","address":"上海基地三路"},{"poiid":"B2094757D065A2FA4692","title":"上海浦东国际机场海关第二监管仓库","lon":"121.767762792","lat":"31.1565497262","category":"46","category_name":"楼宇","address":"上海机场大道180号"},{"poiid":"B2094757D16AA0FC4598","title":"沃尔玛","lon":"121.75665026","lat":"31.144802068","category":"500","category_name":"未知分类","address":"上海市浦东新区施新路"},{"poiid":"B2094655D36CA0FB469D","title":"机场镇","lon":"121.75746","lat":"31.15179","category":"38","category_name":"公交车站","address":"上海,上海市,机场镇航城五路施湾二路"},{"poiid":"B2094757D065AAF54593","title":"航城园","lon":"121.74971","lat":"31.146696","category":"500","category_name":"未知分类","address":"上海市浦东新区施新路555弄"},{"poiid":"B2094655D26DA0FA4899","title":"施湾家园","lon":"121.75668","lat":"31.145536","category":"47","category_name":"住宅区","address":"上海市浦东新区施镇路"},{"poiid":"B2094757DA65A5FB4098","title":"景悦99客栈（上海浦东机场施湾店）","lon":"121.760053","lat":"31.15575195","category":"216","category_name":"经济型连锁酒店","address":"上海市浦东新区航城路60号（近施湾路）"},{"poiid":"B2094654DB6DA5FF409D","title":"豪客来酒家","lon":"121.75775","lat":"31.15213","category":"76","category_name":"上海菜","address":"浦东新区川南奉公路3271号(施湾车站对面)"},{"poiid":"B2094757D168A4F54799","title":"中國檢驗檢疫","lon":"121.761442992","lat":"31.1540357715","category":"500","category_name":"未知分类","address":"上海航航路666號"},{"poiid":"B2094655D36CA1FD409F","title":"施湾","lon":"121.75676","lat":"31.15364","category":"38","category_name":"公交车站","address":""},{"poiid":"B2094750D66AA1FD4593","title":"恒纬家苑","lon":"121.755905","lat":"31.151874","category":"47","category_name":"住宅区","address":"航城三路692弄"},{"poiid":"B2094654DB64A1F4409A","title":"施宏小区(施宏路)","lon":"121.76086","lat":"31.1526","category":"47","category_name":"住宅区","address":"施宏路501、539弄"},{"poiid":"B2094655D36CA1FD4093","title":"施湾五路施新路","lon":"121.75527","lat":"31.14674","category":"38","category_name":"公交车站","address":""},{"poiid":"B2094654DB6DA5FC499A","title":"浦东新区施湾中心小学","lon":"121.75695","lat":"31.15253","category":"56","category_name":"小学","address":"浦东新区机场镇川南奉公路3250号(川南奉公路施宏路)"},{"poiid":"B2094654DB69ABFF409D","title":"农工商超市(机场店)","lon":"121.76051","lat":"31.15202","category":"118","category_name":"超级市场","address":"浦东新区机场镇施宏路480号"},{"poiid":"B2094655D26DA6FD4092","title":"金湾佳园","lon":"121.75761","lat":"31.141705","category":"47","category_name":"住宅区","address":"航城七路450弄1-89号"},{"poiid":"B2094655D36CA5FE4298","title":"川南奉公路远航路","lon":"121.7603","lat":"31.14197","category":"38","category_name":"公交车站","address":""},{"poiid":"B2094654DB64A6FD489B","title":"上海市施湾中学(川南奉公路)","lon":"121.75779","lat":"31.15343","category":"55","category_name":"中学","address":"浦东新区川南奉公路3211弄8号(川南奉公路中圩路)"},{"poiid":"B2094654DB6DA5FE4092","title":"养和堂施湾医药商店","lon":"121.76171","lat":"31.15232","category":"162","category_name":"医院","address":"浦东新区施宏路536号"},{"poiid":"B2094654DB64ABF8449F","title":"思凡南苑(施湾三路)","lon":"121.752","lat":"31.13994","category":"47","category_name":"住宅区","address":"施湾三路1106弄1-62号"},{"poiid":"B2094757D66EA7FC4499","title":"美聚会民间瓦罐煨汤","lon":"121.757360992","lat":"31.1546217842","category":"500","category_name":"未知分类","address":"上海浦东施湾航城路"},{"poiid":"B2094655D36CA5FE4392","title":"川南奉公路航城路","lon":"121.75534","lat":"31.15566","category":"38","category_name":"公交车站","address":""},{"poiid":"B2094655D26FA5FC4492","title":"航城港海鲜大酒店","lon":"121.76196","lat":"31.15545","category":"88","category_name":"海鲜酒楼","address":"浦东新区航程路288号"},{"poiid":"B2094654DB6DA5FE419B","title":"浦东新区机场镇第二敬老院","lon":"121.76051","lat":"31.15114","category":"615","category_name":"敬老院","address":"水闸南路200"},{"poiid":"B2094750D26DA1FA409C","title":"浦东机场停机坪","lon":"121.7659946","lat":"31.1554582","category":"500","category_name":"未知分类","address":null},{"poiid":"B2094757D66CA6FF499C","title":"地质博物馆翔远大酒店","lon":"121.76004","lat":"31.14669","category":"217","category_name":"旅馆招待所","address":"浦东新区川沙机场镇江镇路(近华洲路上海地质博物馆)  "},{"poiid":"B2094757D065ABFE4999","title":"沪渝农庄","lon":"121.74183","lat":"31.1569","category":"71","category_name":"四川菜","address":"浦东新区川六公路2386号尹塘路桥头"},{"poiid":"B2094654DB6DA6F9489D","title":"浦东新区东港幼儿园","lon":"121.75089","lat":"31.14449","category":"57","category_name":"幼儿园","address":""},{"poiid":"B2094655D26EA1FE489B","title":"上海浦东游泳馆思凡分馆","lon":"121.75172","lat":"31.14205","category":"231","category_name":"游泳馆","address":""},{"poiid":"B2094655D36CA6F5419B","title":"邓镇","lon":"121.76049","lat":"31.14136","category":"38","category_name":"公交车站","address":""},{"poiid":"B2094655D36CA7FA459D","title":"航城园站","lon":"121.75081","lat":"31.14648","category":"38","category_name":"公交车站","address":""},{"poiid":"B2094654DB6DA6F94893","title":"爱金华大酒店","lon":"121.75051","lat":"31.14724","category":"215","category_name":"三星级宾馆","address":"浦东新区机场镇施新路551号(施湾三路施新路)"},{"poiid":"B2094655D36CA7FA459C","title":"航城五路施湾二路","lon":"121.75008","lat":"31.14325","category":"38","category_name":"公交车站","address":""},{"poiid":"B2094654DB6DA5FE419D","title":"浦东新区川沙新镇望三村文化广场","lon":"121.7657","lat":"31.15306","category":"201","category_name":"城市广场","address":""},{"poiid":"B2094757D165A7FE459B","title":"雪域餐厅","lon":"121.76109366","lat":"31.144795968","category":"500","category_name":"未知分类","address":"拉萨藏医院路雪域餐厅"},{"poiid":"B2094655D36CA1FD419E","title":"施新路","lon":"121.75025","lat":"31.14582","category":"38","category_name":"公交车站","address":""},{"poiid":"B2094750DA68A1FE449D","title":"张闻天故居","lon":"121.759719","lat":"31.139444","category":"252","category_name":"楼宇机构","address":"浦东新区川沙新镇闻居路50号(周祝公路祝惠路)"},{"poiid":"B2094655D26FA4FA409B","title":"金湾佳园(西北门)","lon":"121.75881","lat":"31.14222","category":"47","category_name":"住宅区","address":""},{"poiid":"B2094757D66EA6FE429D","title":"GAX","lon":"121.75189435","lat":"31.146925751","category":"249","category_name":"购物服务","address":"上海市浦东新区航城园"},{"poiid":"B2094655D36DA7F94393","title":"中圩","lon":"121.75366","lat":"31.15735","category":"38","category_name":"公交车站","address":""},{"poiid":"B2094757D16EAAFA429A","title":"川南奉公路航程路","lon":"121.755033992","lat":"31.1553267996","category":"500","category_name":"未知分类","address":"上海川南奉公路航程路"}]