[{"poiid":"B2094655D26AA1FA4998","title":"黄浦旅游集散站","lon":"121.50134","lat":"31.20778","category":"35","category_name":"长途汽车站","address":"黄浦区外马路1588号"},{"poiid":"B2094655D36DA6FE419E","title":"南浦大桥","lon":"121.49934","lat":"31.20845","category":"38","category_name":"公交车站","address":"黄浦区南马路1410号"},{"poiid":"B2094655D264A7FA4899","title":"幸福码头","lon":"121.50506","lat":"31.21097","category":"47","category_name":"住宅区","address":"黄浦区中山南路1029号幸福码头5号楼(近多稼路)"},{"poiid":"B2094757D06FA4F4429B","title":"上海市第二人民医院","lon":"121.50425317","lat":"31.210314152","category":"162","category_name":"医院","address":"黄浦区多稼路1号(近中山南路)"},{"poiid":"B2094757D06FA2F54399","title":"陆家浜路海潮路","lon":"121.499351","lat":"31.211211","category":"500","category_name":"未知分类","address":"上海陆家浜路海潮路"},{"poiid":"B2094757D06FA3F4459F","title":"南浦大桥地铁站","lon":"121.49936726","lat":"31.20842377","category":"36","category_name":"地铁站","address":"上海轨道交通 四号线 轨交南浦大桥站 轻轨 4"},{"poiid":"B2094757D16CA2FD469D","title":"上海亚廷游艇会","lon":"121.505592","lat":"31.209361","category":"260","category_name":"其他","address":"黄浦区外马路1162号(近南浦大桥浦西桥墩)"},{"poiid":"B2094757D064A5FC4492","title":"鼎中鼎澳门豆捞","lon":"121.499069738","lat":"31.2114468999","category":"86","category_name":"火锅店","address":"黄浦区陆家浜路428号(海潮路口)"},{"poiid":"B2094757DB68A5FA409B","title":"罗曼园高级婚礼会馆 外滩雅致英伦馆","lon":"121.50477647781","lat":"31.210635939807","category":"247","category_name":"餐饮美食","address":"长宁区中山西路1011号(近虹桥路)查看地图"},{"poiid":"B2094757D169ABFE449D","title":"巴富仕游艇会","lon":"121.505978738","lat":"31.2121359146","category":"500","category_name":"未知分类","address":"上海市黄浦区幸福码头创意园区"},{"poiid":"B2094750DB69A3FD4993","title":"镭战大联盟","lon":"121.501408","lat":"31.204725","category":"248","category_name":"生活娱乐","address":"黄浦区外马路1353号(近南浦大桥)"},{"poiid":"B2094757D065A6FC4692","title":"HAVEN","lon":"121.50305603","lat":"31.211066691","category":"97","category_name":"法式菜品餐厅","address":"黄浦区中山南路1029号幸福码头3号楼(近多稼路)"},{"poiid":"B2094654DA68A0FD469D","title":"帝龙海鲜舫","lon":"121.50427282682","lat":"31.206678575885","category":"76","category_name":"上海菜","address":"黄浦区外马路1333号(近南浦大桥)"},{"poiid":"B2094654DA68A0FD4592","title":"上海南浦大桥长途旅游客运站","lon":"121.50129","lat":"31.20767","category":"35","category_name":"长途汽车站","address":"黄浦区外马路1588号(近陆家浜路)"},{"poiid":"B2094757D06AA3F9469D","title":"中福花苑青年汇酒店式公寓","lon":"121.49864","lat":"31.21044","category":"217","category_name":"旅馆招待所","address":"上海黄浦区海潮路93弄(近陆家浜路)  "},{"poiid":"B2094757D068A5FE409F","title":"黄浦区旅游集散中心 二楼携程VIP","lon":"121.501064","lat":"31.207764","category":"260","category_name":"其他","address":"上海外马路1588号"},{"poiid":"B2094757D064A0F94999","title":"黄浦区交警队","lon":"121.502949","lat":"31.208994","category":"500","category_name":"未知分类","address":"上海丰记码头街78号"},{"poiid":"B2094757D06FA4FE479A","title":"沃尔玛(陆家浜路店)","lon":"121.498621598","lat":"31.2110543569","category":"118","category_name":"超级市场","address":"黄浦区陆家浜路436号(近海潮路)"},{"poiid":"B2094757D16CA4FF4198","title":"外码头上海创意产业聚集区","lon":"121.505065","lat":"31.208697","category":"46","category_name":"楼宇","address":"上海黄浦区外马路1178号"},{"poiid":"B2094757D068A5F8419F","title":"黄浦区社会保险事业管理中心","lon":"121.501153","lat":"31.210839","category":"252","category_name":"楼宇机构","address":"上海黄浦区陆家浜路265号"},{"poiid":"B2094655D265A0F5439E","title":"幸福码头(西门)","lon":"121.50463","lat":"31.21119","category":"47","category_name":"住宅区","address":"中山南路1029号"},{"poiid":"B2094654DA68A0FD4698","title":"海狮大厦","lon":"121.50265","lat":"31.20692","category":"46","category_name":"楼宇","address":"徐汇区田林路300号"},{"poiid":"B2094757D064AAFE499B","title":"上海市城市交通运输管理处","lon":"121.502473","lat":"31.209617","category":"500","category_name":"未知分类","address":"上海市中山南路1155号"},{"poiid":"B2094655D268ABFF4093","title":"内环南浦大桥立交桥","lon":"121.50024","lat":"31.20819","category":"250","category_name":"公园户外","address":""},{"poiid":"B2094654DB6AA7F5499A","title":"凇园大厦","lon":"121.502","lat":"31.209","category":"46","category_name":"楼宇","address":"黄浦区半凇园路698弄1号"},{"poiid":"B2094654DA68A0FD469E","title":"黄浦公安分局交警支队业务接待受理点","lon":"121.50264","lat":"31.20692","category":"248","category_name":"生活娱乐","address":"陆家浜路88号海狮大厦"},{"poiid":"B2094757D068A3F5429F","title":"董家渡轻纺市场","lon":"121.49964141","lat":"31.21169281","category":"249","category_name":"购物服务","address":"上海陆家浜路399号"},{"poiid":"B2094655D269ABFD439E","title":"摩登假日沐浴","lon":"121.50235","lat":"31.20932","category":"247","category_name":"餐饮美食","address":"黄浦区中山南路1157号"},{"poiid":"B2094757D16DA2FE4598","title":"阳光里","lon":"121.50111","lat":"31.211866","category":"500","category_name":"未知分类","address":"上海市黄浦区陆家浜路305弄"},{"poiid":"B2094752DA6AA5FB409F","title":"浦东国际机场","lon":"121.50087","lat":"31.209503","category":"500","category_name":"未知分类","address":"上海市 浦东国际机场T2航站楼"},{"poiid":"B2094654DA68A0FD4299","title":"万有全食品配送中心南浦大桥分部","lon":"121.5039","lat":"31.2088","category":"117","category_name":"便民商店/便利店","address":"外马路1218号上海南浦大桥食品批发交易市场34"},{"poiid":"B2094753D56AAAF44498","title":"世博中心","lon":"121.504013","lat":"31.209514","category":"500","category_name":"未知分类","address":"上海市 世博大道"},{"poiid":"B2094757D464A7FE4999","title":"川妹渔庄 多稼路店","lon":"121.50066","lat":"31.21272","category":"76","category_name":"上海菜","address":"黄浦区多稼路234号(近海潮路)"},{"poiid":"B2094655D268A0F94498","title":"小东门派出所(丰记码头街)","lon":"121.50373","lat":"31.20994","category":"248","category_name":"生活娱乐","address":"丰记码头街116号"},{"poiid":"B2094750D76FA3F8409F","title":"小辫子大酒楼","lon":"121.502","lat":"31.2113","category":"76","category_name":"上海菜","address":"黄浦区薛家浜路218号(近多稼路)"},{"poiid":"B2094654DA68A0FD459D","title":"小东门社区公共体育中心","lon":"121.50191","lat":"31.20886","category":"220","category_name":"运动场所","address":"陆家浜路89号"},{"poiid":"B2094654DA68A0FC4698","title":"雾晓大楼","lon":"121.501","lat":"31.2099","category":"46","category_name":"楼宇","address":"中山南路1701号"},{"poiid":"B2094757D16AA6FE459A","title":"ZudemDACH 智同道合 文化传播","lon":"121.505297938","lat":"31.2090959498","category":"46","category_name":"楼宇","address":"上海黄浦区外马路1178号2-C座外码头创意产业园(近南浦大桥)"},{"poiid":"B2094654DA68A1FA419F","title":"新地大厦","lon":"121.504","lat":"31.2135","category":"46","category_name":"楼宇","address":"泰业公寓位于虹口四川北路1856弄20-22号"},{"poiid":"B2094655D268A4FB459D","title":"上海第二人民医院急诊","lon":"121.50534","lat":"31.20958","category":"162","category_name":"医院","address":"多稼路1"},{"poiid":"B2094655D268A3FE439A","title":"丰记码头街小区(东门)","lon":"121.50424","lat":"31.20954","category":"47","category_name":"住宅区","address":"丰记码头街66"},{"poiid":"B2094655D268A1FA4699","title":"如家快捷酒店上海南外滩店","lon":"121.50653","lat":"31.21198","category":"216","category_name":"经济型连锁酒店","address":"黄浦区中山南路943号(董家渡口)"},{"poiid":"B209475DD66AA7FE429C","title":"Pulupulu主题游戏馆","lon":"121.500289","lat":"31.205091","category":"248","category_name":"生活娱乐","address":"上海市 黄浦区苗江路139号"},{"poiid":"B2094655D36CA6F9489A","title":"多稼路","lon":"121.50361","lat":"31.21053","category":"38","category_name":"公交车站","address":""},{"poiid":"B2094655D26BA4FC459F","title":"开泰里(南门)","lon":"121.50411","lat":"31.20982","category":"47","category_name":"住宅区","address":"丰记码头街95弄1-18号"},{"poiid":"B2094655D269AAF9459F","title":"乐惠米业","lon":"121.50163","lat":"31.21048","category":"247","category_name":"餐饮美食","address":"黄浦区中山南路1228号(近南浦大桥)"},{"poiid":"B2094654DA68A0FD469F","title":"帝龙","lon":"121.50285","lat":"31.20672","category":"170","category_name":"KTV","address":"陆家浜路18号"},{"poiid":"B2094750D06CA2FE489C","title":"巴富仕","lon":"121.502471","lat":"31.207853","category":"249","category_name":"购物服务","address":null},{"poiid":"B2094752D36FA0F9479D","title":"上海第九人民医院","lon":"121.501624","lat":"31.2093662","category":"162","category_name":"医院","address":null},{"poiid":"B2094655D26BA6FF4593","title":"开泰里","lon":"121.50427","lat":"31.20996","category":"47","category_name":"住宅区","address":"丰记码头街95弄1-18号"},{"poiid":"B2094655D26AA1FA4998","title":"黄浦旅游集散站","lon":"121.50134","lat":"31.20778","category":"35","category_name":"长途汽车站","address":"黄浦区外马路1588号"},{"poiid":"B2094655D36DA6FE419E","title":"南浦大桥","lon":"121.49934","lat":"31.20845","category":"38","category_name":"公交车站","address":"黄浦区南马路1410号"},{"poiid":"B2094655D264A7FA4899","title":"幸福码头","lon":"121.50506","lat":"31.21097","category":"47","category_name":"住宅区","address":"黄浦区中山南路1029号幸福码头5号楼(近多稼路)"},{"poiid":"B2094757D06FA4F4429B","title":"上海市第二人民医院","lon":"121.50425317","lat":"31.210314152","category":"162","category_name":"医院","address":"黄浦区多稼路1号(近中山南路)"},{"poiid":"B2094757D06FA2F54399","title":"陆家浜路海潮路","lon":"121.499351","lat":"31.211211","category":"500","category_name":"未知分类","address":"上海陆家浜路海潮路"},{"poiid":"B2094757D06FA3F4459F","title":"南浦大桥地铁站","lon":"121.49936726","lat":"31.20842377","category":"36","category_name":"地铁站","address":"上海轨道交通 四号线 轨交南浦大桥站 轻轨 4"},{"poiid":"B2094757D16CA2FD469D","title":"上海亚廷游艇会","lon":"121.505592","lat":"31.209361","category":"260","category_name":"其他","address":"黄浦区外马路1162号(近南浦大桥浦西桥墩)"},{"poiid":"B2094757D064A5FC4492","title":"鼎中鼎澳门豆捞","lon":"121.499069738","lat":"31.2114468999","category":"86","category_name":"火锅店","address":"黄浦区陆家浜路428号(海潮路口)"},{"poiid":"B2094757DB68A5FA409B","title":"罗曼园高级婚礼会馆 外滩雅致英伦馆","lon":"121.50477647781","lat":"31.210635939807","category":"247","category_name":"餐饮美食","address":"长宁区中山西路1011号(近虹桥路)查看地图"},{"poiid":"B2094757D169ABFE449D","title":"巴富仕游艇会","lon":"121.505978738","lat":"31.2121359146","category":"500","category_name":"未知分类","address":"上海市黄浦区幸福码头创意园区"},{"poiid":"B2094750DB69A3FD4993","title":"镭战大联盟","lon":"121.501408","lat":"31.204725","category":"248","category_name":"生活娱乐","address":"黄浦区外马路1353号(近南浦大桥)"},{"poiid":"B2094757D065A6FC4692","title":"HAVEN","lon":"121.50305603","lat":"31.211066691","category":"97","category_name":"法式菜品餐厅","address":"黄浦区中山南路1029号幸福码头3号楼(近多稼路)"},{"poiid":"B2094654DA68A0FD469D","title":"帝龙海鲜舫","lon":"121.50427282682","lat":"31.206678575885","category":"76","category_name":"上海菜","address":"黄浦区外马路1333号(近南浦大桥)"},{"poiid":"B2094654DA68A0FD4592","title":"上海南浦大桥长途旅游客运站","lon":"121.50129","lat":"31.20767","category":"35","category_name":"长途汽车站","address":"黄浦区外马路1588号(近陆家浜路)"},{"poiid":"B2094757D06AA3F9469D","title":"中福花苑青年汇酒店式公寓","lon":"121.49864","lat":"31.21044","category":"217","category_name":"旅馆招待所","address":"上海黄浦区海潮路93弄(近陆家浜路)  "},{"poiid":"B2094757D068A5FE409F","title":"黄浦区旅游集散中心 二楼携程VIP","lon":"121.501064","lat":"31.207764","category":"260","category_name":"其他","address":"上海外马路1588号"},{"poiid":"B2094757D064A0F94999","title":"黄浦区交警队","lon":"121.502949","lat":"31.208994","category":"500","category_name":"未知分类","address":"上海丰记码头街78号"},{"poiid":"B2094757D06FA4FE479A","title":"沃尔玛(陆家浜路店)","lon":"121.498621598","lat":"31.2110543569","category":"118","category_name":"超级市场","address":"黄浦区陆家浜路436号(近海潮路)"},{"poiid":"B2094757D16CA4FF4198","title":"外码头上海创意产业聚集区","lon":"121.505065","lat":"31.208697","category":"46","category_name":"楼宇","address":"上海黄浦区外马路1178号"},{"poiid":"B2094757D068A5F8419F","title":"黄浦区社会保险事业管理中心","lon":"121.501153","lat":"31.210839","category":"252","category_name":"楼宇机构","address":"上海黄浦区陆家浜路265号"},{"poiid":"B2094655D265A0F5439E","title":"幸福码头(西门)","lon":"121.50463","lat":"31.21119","category":"47","category_name":"住宅区","address":"中山南路1029号"},{"poiid":"B2094654DA68A0FD4698","title":"海狮大厦","lon":"121.50265","lat":"31.20692","category":"46","category_name":"楼宇","address":"徐汇区田林路300号"},{"poiid":"B2094757D064AAFE499B","title":"上海市城市交通运输管理处","lon":"121.502473","lat":"31.209617","category":"500","category_name":"未知分类","address":"上海市中山南路1155号"},{"poiid":"B2094655D268ABFF4093","title":"内环南浦大桥立交桥","lon":"121.50024","lat":"31.20819","category":"250","category_name":"公园户外","address":""},{"poiid":"B2094654DB6AA7F5499A","title":"凇园大厦","lon":"121.502","lat":"31.209","category":"46","category_name":"楼宇","address":"黄浦区半凇园路698弄1号"},{"poiid":"B2094654DA68A0FD469E","title":"黄浦公安分局交警支队业务接待受理点","lon":"121.50264","lat":"31.20692","category":"248","category_name":"生活娱乐","address":"陆家浜路88号海狮大厦"},{"poiid":"B2094757D068A3F5429F","title":"董家渡轻纺市场","lon":"121.49964141","lat":"31.21169281","category":"249","category_name":"购物服务","address":"上海陆家浜路399号"},{"poiid":"B2094655D269ABFD439E","title":"摩登假日沐浴","lon":"121.50235","lat":"31.20932","category":"247","category_name":"餐饮美食","address":"黄浦区中山南路1157号"},{"poiid":"B2094757D16DA2FE4598","title":"阳光里","lon":"121.50111","lat":"31.211866","category":"500","category_name":"未知分类","address":"上海市黄浦区陆家浜路305弄"},{"poiid":"B2094752DA6AA5FB409F","title":"浦东国际机场","lon":"121.50087","lat":"31.209503","category":"500","category_name":"未知分类","address":"上海市 浦东国际机场T2航站楼"},{"poiid":"B2094654DA68A0FD4299","title":"万有全食品配送中心南浦大桥分部","lon":"121.5039","lat":"31.2088","category":"117","category_name":"便民商店/便利店","address":"外马路1218号上海南浦大桥食品批发交易市场34"},{"poiid":"B2094753D56AAAF44498","title":"世博中心","lon":"121.504013","lat":"31.209514","category":"500","category_name":"未知分类","address":"上海市 世博大道"},{"poiid":"B2094757D464A7FE4999","title":"川妹渔庄 多稼路店","lon":"121.50066","lat":"31.21272","category":"76","category_name":"上海菜","address":"黄浦区多稼路234号(近海潮路)"},{"poiid":"B2094655D268A0F94498","title":"小东门派出所(丰记码头街)","lon":"121.50373","lat":"31.20994","category":"248","category_name":"生活娱乐","address":"丰记码头街116号"},{"poiid":"B2094750D76FA3F8409F","title":"小辫子大酒楼","lon":"121.502","lat":"31.2113","category":"76","category_name":"上海菜","address":"黄浦区薛家浜路218号(近多稼路)"},{"poiid":"B2094654DA68A0FD459D","title":"小东门社区公共体育中心","lon":"121.50191","lat":"31.20886","category":"220","category_name":"运动场所","address":"陆家浜路89号"},{"poiid":"B2094654DA68A0FC4698","title":"雾晓大楼","lon":"121.501","lat":"31.2099","category":"46","category_name":"楼宇","address":"中山南路1701号"},{"poiid":"B2094757D16AA6FE459A","title":"ZudemDACH 智同道合 文化传播","lon":"121.505297938","lat":"31.2090959498","category":"46","category_name":"楼宇","address":"上海黄浦区外马路1178号2-C座外码头创意产业园(近南浦大桥)"},{"poiid":"B2094654DA68A1FA419F","title":"新地大厦","lon":"121.504","lat":"31.2135","category":"46","category_name":"楼宇","address":"泰业公寓位于虹口四川北路1856弄20-22号"},{"poiid":"B2094655D268A4FB459D","title":"上海第二人民医院急诊","lon":"121.50534","lat":"31.20958","category":"162","category_name":"医院","address":"多稼路1"},{"poiid":"B2094655D268A3FE439A","title":"丰记码头街小区(东门)","lon":"121.50424","lat":"31.20954","category":"47","category_name":"住宅区","address":"丰记码头街66"},{"poiid":"B2094655D268A1FA4699","title":"如家快捷酒店上海南外滩店","lon":"121.50653","lat":"31.21198","category":"216","category_name":"经济型连锁酒店","address":"黄浦区中山南路943号(董家渡口)"},{"poiid":"B209475DD66AA7FE429C","title":"Pulupulu主题游戏馆","lon":"121.500289","lat":"31.205091","category":"248","category_name":"生活娱乐","address":"上海市 黄浦区苗江路139号"},{"poiid":"B2094655D36CA6F9489A","title":"多稼路","lon":"121.50361","lat":"31.21053","category":"38","category_name":"公交车站","address":""},{"poiid":"B2094655D26BA4FC459F","title":"开泰里(南门)","lon":"121.50411","lat":"31.20982","category":"47","category_name":"住宅区","address":"丰记码头街95弄1-18号"},{"poiid":"B2094655D269AAF9459F","title":"乐惠米业","lon":"121.50163","lat":"31.21048","category":"247","category_name":"餐饮美食","address":"黄浦区中山南路1228号(近南浦大桥)"},{"poiid":"B2094654DA68A0FD469F","title":"帝龙","lon":"121.50285","lat":"31.20672","category":"170","category_name":"KTV","address":"陆家浜路18号"},{"poiid":"B2094750D06CA2FE489C","title":"巴富仕","lon":"121.502471","lat":"31.207853","category":"249","category_name":"购物服务","address":null},{"poiid":"B2094752D36FA0F9479D","title":"上海第九人民医院","lon":"121.501624","lat":"31.2093662","category":"162","category_name":"医院","address":null},{"poiid":"B2094655D26BA6FF4593","title":"开泰里","lon":"121.50427","lat":"31.20996","category":"47","category_name":"住宅区","address":"丰记码头街95弄1-18号"},{"poiid":"B2094655D26AA1FA4998","title":"黄浦旅游集散站","lon":"121.50134","lat":"31.20778","category":"35","category_name":"长途汽车站","address":"黄浦区外马路1588号"},{"poiid":"B2094655D36DA6FE419E","title":"南浦大桥","lon":"121.49934","lat":"31.20845","category":"38","category_name":"公交车站","address":"黄浦区南马路1410号"},{"poiid":"B2094655D264A7FA4899","title":"幸福码头","lon":"121.50506","lat":"31.21097","category":"47","category_name":"住宅区","address":"黄浦区中山南路1029号幸福码头5号楼(近多稼路)"},{"poiid":"B2094757D06FA4F4429B","title":"上海市第二人民医院","lon":"121.50425317","lat":"31.210314152","category":"162","category_name":"医院","address":"黄浦区多稼路1号(近中山南路)"},{"poiid":"B2094757D06FA2F54399","title":"陆家浜路海潮路","lon":"121.499351","lat":"31.211211","category":"500","category_name":"未知分类","address":"上海陆家浜路海潮路"},{"poiid":"B2094757D06FA3F4459F","title":"南浦大桥地铁站","lon":"121.49936726","lat":"31.20842377","category":"36","category_name":"地铁站","address":"上海轨道交通 四号线 轨交南浦大桥站 轻轨 4"},{"poiid":"B2094757D16CA2FD469D","title":"上海亚廷游艇会","lon":"121.505592","lat":"31.209361","category":"260","category_name":"其他","address":"黄浦区外马路1162号(近南浦大桥浦西桥墩)"},{"poiid":"B2094757D064A5FC4492","title":"鼎中鼎澳门豆捞","lon":"121.499069738","lat":"31.2114468999","category":"86","category_name":"火锅店","address":"黄浦区陆家浜路428号(海潮路口)"},{"poiid":"B2094757DB68A5FA409B","title":"罗曼园高级婚礼会馆 外滩雅致英伦馆","lon":"121.50477647781","lat":"31.210635939807","category":"247","category_name":"餐饮美食","address":"长宁区中山西路1011号(近虹桥路)查看地图"},{"poiid":"B2094757D169ABFE449D","title":"巴富仕游艇会","lon":"121.505978738","lat":"31.2121359146","category":"500","category_name":"未知分类","address":"上海市黄浦区幸福码头创意园区"},{"poiid":"B2094750DB69A3FD4993","title":"镭战大联盟","lon":"121.501408","lat":"31.204725","category":"248","category_name":"生活娱乐","address":"黄浦区外马路1353号(近南浦大桥)"},{"poiid":"B2094757D065A6FC4692","title":"HAVEN","lon":"121.50305603","lat":"31.211066691","category":"97","category_name":"法式菜品餐厅","address":"黄浦区中山南路1029号幸福码头3号楼(近多稼路)"},{"poiid":"B2094654DA68A0FD469D","title":"帝龙海鲜舫","lon":"121.50427282682","lat":"31.206678575885","category":"76","category_name":"上海菜","address":"黄浦区外马路1333号(近南浦大桥)"},{"poiid":"B2094654DA68A0FD4592","title":"上海南浦大桥长途旅游客运站","lon":"121.50129","lat":"31.20767","category":"35","category_name":"长途汽车站","address":"黄浦区外马路1588号(近陆家浜路)"},{"poiid":"B2094757D06AA3F9469D","title":"中福花苑青年汇酒店式公寓","lon":"121.49864","lat":"31.21044","category":"217","category_name":"旅馆招待所","address":"上海黄浦区海潮路93弄(近陆家浜路)  "},{"poiid":"B2094757D068A5FE409F","title":"黄浦区旅游集散中心 二楼携程VIP","lon":"121.501064","lat":"31.207764","category":"260","category_name":"其他","address":"上海外马路1588号"},{"poiid":"B2094757D064A0F94999","title":"黄浦区交警队","lon":"121.502949","lat":"31.208994","category":"500","category_name":"未知分类","address":"上海丰记码头街78号"},{"poiid":"B2094757D06FA4FE479A","title":"沃尔玛(陆家浜路店)","lon":"121.498621598","lat":"31.2110543569","category":"118","category_name":"超级市场","address":"黄浦区陆家浜路436号(近海潮路)"},{"poiid":"B2094757D16CA4FF4198","title":"外码头上海创意产业聚集区","lon":"121.505065","lat":"31.208697","category":"46","category_name":"楼宇","address":"上海黄浦区外马路1178号"},{"poiid":"B2094757D068A5F8419F","title":"黄浦区社会保险事业管理中心","lon":"121.501153","lat":"31.210839","category":"252","category_name":"楼宇机构","address":"上海黄浦区陆家浜路265号"},{"poiid":"B2094655D265A0F5439E","title":"幸福码头(西门)","lon":"121.50463","lat":"31.21119","category":"47","category_name":"住宅区","address":"中山南路1029号"},{"poiid":"B2094654DA68A0FD4698","title":"海狮大厦","lon":"121.50265","lat":"31.20692","category":"46","category_name":"楼宇","address":"徐汇区田林路300号"},{"poiid":"B2094757D064AAFE499B","title":"上海市城市交通运输管理处","lon":"121.502473","lat":"31.209617","category":"500","category_name":"未知分类","address":"上海市中山南路1155号"},{"poiid":"B2094655D268ABFF4093","title":"内环南浦大桥立交桥","lon":"121.50024","lat":"31.20819","category":"250","category_name":"公园户外","address":""},{"poiid":"B2094654DB6AA7F5499A","title":"凇园大厦","lon":"121.502","lat":"31.209","category":"46","category_name":"楼宇","address":"黄浦区半凇园路698弄1号"},{"poiid":"B2094654DA68A0FD469E","title":"黄浦公安分局交警支队业务接待受理点","lon":"121.50264","lat":"31.20692","category":"248","category_name":"生活娱乐","address":"陆家浜路88号海狮大厦"},{"poiid":"B2094757D068A3F5429F","title":"董家渡轻纺市场","lon":"121.49964141","lat":"31.21169281","category":"249","category_name":"购物服务","address":"上海陆家浜路399号"},{"poiid":"B2094655D269ABFD439E","title":"摩登假日沐浴","lon":"121.50235","lat":"31.20932","category":"247","category_name":"餐饮美食","address":"黄浦区中山南路1157号"},{"poiid":"B2094757D16DA2FE4598","title":"阳光里","lon":"121.50111","lat":"31.211866","category":"500","category_name":"未知分类","address":"上海市黄浦区陆家浜路305弄"},{"poiid":"B2094752DA6AA5FB409F","title":"浦东国际机场","lon":"121.50087","lat":"31.209503","category":"500","category_name":"未知分类","address":"上海市 浦东国际机场T2航站楼"},{"poiid":"B2094654DA68A0FD4299","title":"万有全食品配送中心南浦大桥分部","lon":"121.5039","lat":"31.2088","category":"117","category_name":"便民商店/便利店","address":"外马路1218号上海南浦大桥食品批发交易市场34"},{"poiid":"B2094753D56AAAF44498","title":"世博中心","lon":"121.504013","lat":"31.209514","category":"500","category_name":"未知分类","address":"上海市 世博大道"},{"poiid":"B2094757D464A7FE4999","title":"川妹渔庄 多稼路店","lon":"121.50066","lat":"31.21272","category":"76","category_name":"上海菜","address":"黄浦区多稼路234号(近海潮路)"},{"poiid":"B2094655D268A0F94498","title":"小东门派出所(丰记码头街)","lon":"121.50373","lat":"31.20994","category":"248","category_name":"生活娱乐","address":"丰记码头街116号"},{"poiid":"B2094750D76FA3F8409F","title":"小辫子大酒楼","lon":"121.502","lat":"31.2113","category":"76","category_name":"上海菜","address":"黄浦区薛家浜路218号(近多稼路)"},{"poiid":"B2094654DA68A0FD459D","title":"小东门社区公共体育中心","lon":"121.50191","lat":"31.20886","category":"220","category_name":"运动场所","address":"陆家浜路89号"},{"poiid":"B2094654DA68A0FC4698","title":"雾晓大楼","lon":"121.501","lat":"31.2099","category":"46","category_name":"楼宇","address":"中山南路1701号"},{"poiid":"B2094757D16AA6FE459A","title":"ZudemDACH 智同道合 文化传播","lon":"121.505297938","lat":"31.2090959498","category":"46","category_name":"楼宇","address":"上海黄浦区外马路1178号2-C座外码头创意产业园(近南浦大桥)"},{"poiid":"B2094654DA68A1FA419F","title":"新地大厦","lon":"121.504","lat":"31.2135","category":"46","category_name":"楼宇","address":"泰业公寓位于虹口四川北路1856弄20-22号"},{"poiid":"B2094655D268A4FB459D","title":"上海第二人民医院急诊","lon":"121.50534","lat":"31.20958","category":"162","category_name":"医院","address":"多稼路1"},{"poiid":"B2094655D268A3FE439A","title":"丰记码头街小区(东门)","lon":"121.50424","lat":"31.20954","category":"47","category_name":"住宅区","address":"丰记码头街66"},{"poiid":"B2094655D268A1FA4699","title":"如家快捷酒店上海南外滩店","lon":"121.50653","lat":"31.21198","category":"216","category_name":"经济型连锁酒店","address":"黄浦区中山南路943号(董家渡口)"},{"poiid":"B209475DD66AA7FE429C","title":"Pulupulu主题游戏馆","lon":"121.500289","lat":"31.205091","category":"248","category_name":"生活娱乐","address":"上海市 黄浦区苗江路139号"},{"poiid":"B2094655D36CA6F9489A","title":"多稼路","lon":"121.50361","lat":"31.21053","category":"38","category_name":"公交车站","address":""},{"poiid":"B2094655D26BA4FC459F","title":"开泰里(南门)","lon":"121.50411","lat":"31.20982","category":"47","category_name":"住宅区","address":"丰记码头街95弄1-18号"},{"poiid":"B2094655D269AAF9459F","title":"乐惠米业","lon":"121.50163","lat":"31.21048","category":"247","category_name":"餐饮美食","address":"黄浦区中山南路1228号(近南浦大桥)"},{"poiid":"B2094654DA68A0FD469F","title":"帝龙","lon":"121.50285","lat":"31.20672","category":"170","category_name":"KTV","address":"陆家浜路18号"},{"poiid":"B2094750D06CA2FE489C","title":"巴富仕","lon":"121.502471","lat":"31.207853","category":"249","category_name":"购物服务","address":null},{"poiid":"B2094752D36FA0F9479D","title":"上海第九人民医院","lon":"121.501624","lat":"31.2093662","category":"162","category_name":"医院","address":null},{"poiid":"B2094655D26BA6FF4593","title":"开泰里","lon":"121.50427","lat":"31.20996","category":"47","category_name":"住宅区","address":"丰记码头街95弄1-18号"},{"poiid":"B2094655D26AA1FA4998","title":"黄浦旅游集散站","lon":"121.50134","lat":"31.20778","category":"35","category_name":"长途汽车站","address":"黄浦区外马路1588号"},{"poiid":"B2094655D36DA6FE419E","title":"南浦大桥","lon":"121.49934","lat":"31.20845","category":"38","category_name":"公交车站","address":"黄浦区南马路1410号"},{"poiid":"B2094655D264A7FA4899","title":"幸福码头","lon":"121.50506","lat":"31.21097","category":"47","category_name":"住宅区","address":"黄浦区中山南路1029号幸福码头5号楼(近多稼路)"},{"poiid":"B2094757D06FA4F4429B","title":"上海市第二人民医院","lon":"121.50425317","lat":"31.210314152","category":"162","category_name":"医院","address":"黄浦区多稼路1号(近中山南路)"},{"poiid":"B2094757D06FA2F54399","title":"陆家浜路海潮路","lon":"121.499351","lat":"31.211211","category":"500","category_name":"未知分类","address":"上海陆家浜路海潮路"},{"poiid":"B2094757D06FA3F4459F","title":"南浦大桥地铁站","lon":"121.49936726","lat":"31.20842377","category":"36","category_name":"地铁站","address":"上海轨道交通 四号线 轨交南浦大桥站 轻轨 4"},{"poiid":"B2094757D16CA2FD469D","title":"上海亚廷游艇会","lon":"121.505592","lat":"31.209361","category":"260","category_name":"其他","address":"黄浦区外马路1162号(近南浦大桥浦西桥墩)"},{"poiid":"B2094757D064A5FC4492","title":"鼎中鼎澳门豆捞","lon":"121.499069738","lat":"31.2114468999","category":"86","category_name":"火锅店","address":"黄浦区陆家浜路428号(海潮路口)"},{"poiid":"B2094757DB68A5FA409B","title":"罗曼园高级婚礼会馆 外滩雅致英伦馆","lon":"121.50477647781","lat":"31.210635939807","category":"247","category_name":"餐饮美食","address":"长宁区中山西路1011号(近虹桥路)查看地图"},{"poiid":"B2094757D169ABFE449D","title":"巴富仕游艇会","lon":"121.505978738","lat":"31.2121359146","category":"500","category_name":"未知分类","address":"上海市黄浦区幸福码头创意园区"},{"poiid":"B2094750DB69A3FD4993","title":"镭战大联盟","lon":"121.501408","lat":"31.204725","category":"248","category_name":"生活娱乐","address":"黄浦区外马路1353号(近南浦大桥)"},{"poiid":"B2094757D065A6FC4692","title":"HAVEN","lon":"121.50305603","lat":"31.211066691","category":"97","category_name":"法式菜品餐厅","address":"黄浦区中山南路1029号幸福码头3号楼(近多稼路)"},{"poiid":"B2094654DA68A0FD469D","title":"帝龙海鲜舫","lon":"121.50427282682","lat":"31.206678575885","category":"76","category_name":"上海菜","address":"黄浦区外马路1333号(近南浦大桥)"},{"poiid":"B2094654DA68A0FD4592","title":"上海南浦大桥长途旅游客运站","lon":"121.50129","lat":"31.20767","category":"35","category_name":"长途汽车站","address":"黄浦区外马路1588号(近陆家浜路)"},{"poiid":"B2094757D06AA3F9469D","title":"中福花苑青年汇酒店式公寓","lon":"121.49864","lat":"31.21044","category":"217","category_name":"旅馆招待所","address":"上海黄浦区海潮路93弄(近陆家浜路)  "},{"poiid":"B2094757D068A5FE409F","title":"黄浦区旅游集散中心 二楼携程VIP","lon":"121.501064","lat":"31.207764","category":"260","category_name":"其他","address":"上海外马路1588号"},{"poiid":"B2094757D064A0F94999","title":"黄浦区交警队","lon":"121.502949","lat":"31.208994","category":"500","category_name":"未知分类","address":"上海丰记码头街78号"},{"poiid":"B2094757D06FA4FE479A","title":"沃尔玛(陆家浜路店)","lon":"121.498621598","lat":"31.2110543569","category":"118","category_name":"超级市场","address":"黄浦区陆家浜路436号(近海潮路)"},{"poiid":"B2094757D16CA4FF4198","title":"外码头上海创意产业聚集区","lon":"121.505065","lat":"31.208697","category":"46","category_name":"楼宇","address":"上海黄浦区外马路1178号"},{"poiid":"B2094757D068A5F8419F","title":"黄浦区社会保险事业管理中心","lon":"121.501153","lat":"31.210839","category":"252","category_name":"楼宇机构","address":"上海黄浦区陆家浜路265号"},{"poiid":"B2094655D265A0F5439E","title":"幸福码头(西门)","lon":"121.50463","lat":"31.21119","category":"47","category_name":"住宅区","address":"中山南路1029号"},{"poiid":"B2094654DA68A0FD4698","title":"海狮大厦","lon":"121.50265","lat":"31.20692","category":"46","category_name":"楼宇","address":"徐汇区田林路300号"},{"poiid":"B2094757D064AAFE499B","title":"上海市城市交通运输管理处","lon":"121.502473","lat":"31.209617","category":"500","category_name":"未知分类","address":"上海市中山南路1155号"},{"poiid":"B2094655D268ABFF4093","title":"内环南浦大桥立交桥","lon":"121.50024","lat":"31.20819","category":"250","category_name":"公园户外","address":""},{"poiid":"B2094654DB6AA7F5499A","title":"凇园大厦","lon":"121.502","lat":"31.209","category":"46","category_name":"楼宇","address":"黄浦区半凇园路698弄1号"},{"poiid":"B2094654DA68A0FD469E","title":"黄浦公安分局交警支队业务接待受理点","lon":"121.50264","lat":"31.20692","category":"248","category_name":"生活娱乐","address":"陆家浜路88号海狮大厦"},{"poiid":"B2094757D068A3F5429F","title":"董家渡轻纺市场","lon":"121.49964141","lat":"31.21169281","category":"249","category_name":"购物服务","address":"上海陆家浜路399号"},{"poiid":"B2094655D269ABFD439E","title":"摩登假日沐浴","lon":"121.50235","lat":"31.20932","category":"247","category_name":"餐饮美食","address":"黄浦区中山南路1157号"},{"poiid":"B2094757D16DA2FE4598","title":"阳光里","lon":"121.50111","lat":"31.211866","category":"500","category_name":"未知分类","address":"上海市黄浦区陆家浜路305弄"},{"poiid":"B2094752DA6AA5FB409F","title":"浦东国际机场","lon":"121.50087","lat":"31.209503","category":"500","category_name":"未知分类","address":"上海市 浦东国际机场T2航站楼"},{"poiid":"B2094654DA68A0FD4299","title":"万有全食品配送中心南浦大桥分部","lon":"121.5039","lat":"31.2088","category":"117","category_name":"便民商店/便利店","address":"外马路1218号上海南浦大桥食品批发交易市场34"},{"poiid":"B2094753D56AAAF44498","title":"世博中心","lon":"121.504013","lat":"31.209514","category":"500","category_name":"未知分类","address":"上海市 世博大道"},{"poiid":"B2094757D464A7FE4999","title":"川妹渔庄 多稼路店","lon":"121.50066","lat":"31.21272","category":"76","category_name":"上海菜","address":"黄浦区多稼路234号(近海潮路)"},{"poiid":"B2094655D268A0F94498","title":"小东门派出所(丰记码头街)","lon":"121.50373","lat":"31.20994","category":"248","category_name":"生活娱乐","address":"丰记码头街116号"},{"poiid":"B2094750D76FA3F8409F","title":"小辫子大酒楼","lon":"121.502","lat":"31.2113","category":"76","category_name":"上海菜","address":"黄浦区薛家浜路218号(近多稼路)"},{"poiid":"B2094654DA68A0FD459D","title":"小东门社区公共体育中心","lon":"121.50191","lat":"31.20886","category":"220","category_name":"运动场所","address":"陆家浜路89号"},{"poiid":"B2094654DA68A0FC4698","title":"雾晓大楼","lon":"121.501","lat":"31.2099","category":"46","category_name":"楼宇","address":"中山南路1701号"},{"poiid":"B2094757D16AA6FE459A","title":"ZudemDACH 智同道合 文化传播","lon":"121.505297938","lat":"31.2090959498","category":"46","category_name":"楼宇","address":"上海黄浦区外马路1178号2-C座外码头创意产业园(近南浦大桥)"},{"poiid":"B2094654DA68A1FA419F","title":"新地大厦","lon":"121.504","lat":"31.2135","category":"46","category_name":"楼宇","address":"泰业公寓位于虹口四川北路1856弄20-22号"},{"poiid":"B2094655D268A4FB459D","title":"上海第二人民医院急诊","lon":"121.50534","lat":"31.20958","category":"162","category_name":"医院","address":"多稼路1"},{"poiid":"B2094655D268A3FE439A","title":"丰记码头街小区(东门)","lon":"121.50424","lat":"31.20954","category":"47","category_name":"住宅区","address":"丰记码头街66"},{"poiid":"B2094655D268A1FA4699","title":"如家快捷酒店上海南外滩店","lon":"121.50653","lat":"31.21198","category":"216","category_name":"经济型连锁酒店","address":"黄浦区中山南路943号(董家渡口)"},{"poiid":"B209475DD66AA7FE429C","title":"Pulupulu主题游戏馆","lon":"121.500289","lat":"31.205091","category":"248","category_name":"生活娱乐","address":"上海市 黄浦区苗江路139号"},{"poiid":"B2094655D36CA6F9489A","title":"多稼路","lon":"121.50361","lat":"31.21053","category":"38","category_name":"公交车站","address":""},{"poiid":"B2094655D26BA4FC459F","title":"开泰里(南门)","lon":"121.50411","lat":"31.20982","category":"47","category_name":"住宅区","address":"丰记码头街95弄1-18号"},{"poiid":"B2094655D269AAF9459F","title":"乐惠米业","lon":"121.50163","lat":"31.21048","category":"247","category_name":"餐饮美食","address":"黄浦区中山南路1228号(近南浦大桥)"},{"poiid":"B2094654DA68A0FD469F","title":"帝龙","lon":"121.50285","lat":"31.20672","category":"170","category_name":"KTV","address":"陆家浜路18号"},{"poiid":"B2094750D06CA2FE489C","title":"巴富仕","lon":"121.502471","lat":"31.207853","category":"249","category_name":"购物服务","address":null},{"poiid":"B2094752D36FA0F9479D","title":"上海第九人民医院","lon":"121.501624","lat":"31.2093662","category":"162","category_name":"医院","address":null},{"poiid":"B2094655D26BA6FF4593","title":"开泰里","lon":"121.50427","lat":"31.20996","category":"47","category_name":"住宅区","address":"丰记码头街95弄1-18号"}]