[{"poiid":"B2094757D169A3F5489D","title":"浦东国际机场T1航站楼","lon":"121.637789975","lat":"31.1776968325","category":"21","category_name":"飞机场","address":"上海市浦东新区"},{"poiid":"B2094757DB6FA6F54198","title":"浦东国际机场T2航站楼","lon":"121.6343438046359","lat":"31.1825049223668","category":"500","category_name":"未知分类","address":"浦东国际机场T2航站楼"},{"poiid":"B2094757D06FA7FA439F","title":"美特斯邦威集团","lon":"121.61739265","lat":"31.155516802","category":"46","category_name":"楼宇","address":"上海康桥东路800号"},{"poiid":"B2094757D068A6FD419E","title":"孙桥现代农业开发区","lon":"121.63107","lat":"31.17052","category":"260","category_name":"其他","address":"上海浦东新区孙桥沔北路185号  "},{"poiid":"B2094750D26FA7FB4593","title":"浦东机场T2航站楼","lon":"121.637809","lat":"31.177707","category":"500","category_name":"未知分类","address":null},{"poiid":"B2094654DB64A1FF499F","title":"上海中侨职业技术学院(川周公路)","lon":"121.62335","lat":"31.14542","category":"671","category_name":"高校中心点","address":"川周公路2788号"},{"poiid":"B2094757D06BA0FE429D","title":"和记小菜(孙桥农业开发区)","lon":"121.618694642","lat":"31.1659332243","category":"75","category_name":"浙江菜","address":"上海孙桥农业开发区"},{"poiid":"B2094757D069A5F9449B","title":"孙桥花鸟市场","lon":"121.63124","lat":"31.17471","category":"249","category_name":"购物服务","address":"上海浦东新区孙桥路600号  "},{"poiid":"B2094655D26BA2FA4892","title":"孙桥镇","lon":"121.63003","lat":"31.17707","category":"38","category_name":"公交车站","address":"上海孙环路长美路"},{"poiid":"B2094654DB6DA6FD439D","title":"康桥工业区(康桥东路)","lon":"121.63565","lat":"31.16045","category":"45","category_name":"产业园区","address":"康桥东路1365弄1-32号"},{"poiid":"B2094757D069A4FB439F","title":"紫晶苑","lon":"121.62564","lat":"31.176443","category":"252","category_name":"楼宇机构","address":"上海市浦东新区孙农路398弄"},{"poiid":"B2094757D064A4FC4198","title":"外环线申江路出口","lon":"121.626492","lat":"31.153867","category":"500","category_name":"未知分类","address":"上海外环线申江路"},{"poiid":"B2094655D26BA2FA499A","title":"孙桥农业园区","lon":"121.62261","lat":"31.16351","category":"38","category_name":"公交车站","address":"浦东新区张江镇孙桥沔北路185号。"},{"poiid":"B2094757D16CA2FC4993","title":"利君绿苑酒家","lon":"121.63072","lat":"31.16855","category":"76","category_name":"上海菜","address":"上海浦东新区沔北路185号(近孙桥农业园)  "},{"poiid":"B2094655D264A0FA4292","title":"墅外金柳湾","lon":"121.621567","lat":"31.145622","category":"47","category_name":"住宅区","address":"浦东新区康桥镇川周公路2828弄"},{"poiid":"B2094654DB6DA1F44099","title":"高西民营小区","lon":"121.629","lat":"31.1651","category":"47","category_name":"住宅区","address":"康桥东路905弄28号"},{"poiid":"B2094654DB69A6F94799","title":"长城中环别墅","lon":"121.63105","lat":"31.18334","category":"47","category_name":"住宅区","address":"浦东新区高木桥路219弄"},{"poiid":"B2094654DB6DA1F94298","title":"上海安太祥机械设备有限公司","lon":"121.62684","lat":"31.16351","category":"263","category_name":"公司","address":""},{"poiid":"B2094654DA6AA6FF4292","title":"上海广特水电安装服务有限公司","lon":"121.62659","lat":"31.16568","category":"263","category_name":"公司","address":"沔北路555"},{"poiid":"B2094654DB6DA1F9429F","title":"上海晨龙橡塑线缆厂","lon":"121.62744","lat":"31.16203","category":"263","category_name":"公司","address":"沔北村唐家宅58号"},{"poiid":"B2094655D26BA2FA4999","title":"孙桥路科农路","lon":"121.6311","lat":"31.17046","category":"38","category_name":"公交车站","address":""},{"poiid":"B2094654DA6AA4FD4792","title":"上海烟草集团牡丹香精香料有限公司","lon":"121.63151","lat":"31.16694","category":"263","category_name":"公司","address":""},{"poiid":"B2094757D66CA3F8439D","title":"上海乐来汽车分析测试有限公司","lon":"121.630175","lat":"31.159897","category":"263","category_name":"公司","address":"上海市浦东新区康桥东路1365弄12A"},{"poiid":"B2094654DA6AA4FD4799","title":"上海市孙桥中学","lon":"121.63123","lat":"31.17281","category":"55","category_name":"中学","address":"浦东新区孙桥镇孙桥路705号"},{"poiid":"B2094654DB6DA1F9419B","title":"高西村民营企业小区","lon":"121.62217","lat":"31.15803","category":"47","category_name":"住宅区","address":""},{"poiid":"B2094655D265A4FA409E","title":"东郊紫园","lon":"121.62326","lat":"31.179136","category":"47","category_name":"住宅区","address":"浦东新区孙农路200弄"},{"poiid":"B2094654DB6DA6FD4392","title":"金旅客车上海基地","lon":"121.63206","lat":"31.16007","category":"263","category_name":"公司","address":"康桥东路1159弄105"},{"poiid":"B2094654DB6DA6FD449B","title":"JOST","lon":"121.63032","lat":"31.15947","category":"248","category_name":"生活娱乐","address":"康桥东路1159-81"},{"poiid":"B2094654DB6DA6FD4393","title":"上海申龙客车有限公司","lon":"121.63185","lat":"31.16004","category":"263","category_name":"公司","address":"康桥东路1159弄105"},{"poiid":"B2094757D068A0F5479A","title":"华夏高架路","lon":"121.61191608","lat":"31.176733945","category":"500","category_name":"未知分类","address":"上海华夏高架路"},{"poiid":"B2094655D36DA7F4479F","title":"沔北路军民路","lon":"121.6173","lat":"31.16174","category":"38","category_name":"公交车站","address":""},{"poiid":"B2094654DB6DA1FB499C","title":"红蜻蜓集团·上海鞋业","lon":"121.62834","lat":"31.15659","category":"263","category_name":"公司","address":"康桥东路1088号"},{"poiid":"B2094757D16CA2F4429E","title":"奥琪羊毛","lon":"121.62351256","lat":"31.158886883","category":"249","category_name":"购物服务","address":"上海横沔江路538号"},{"poiid":"B2094654DA6AA6FF459B","title":"航空公司华教通用上海基地","lon":"121.62593","lat":"31.17081","category":"263","category_name":"公司","address":"勤政路185"},{"poiid":"B2094654DA6AA4FC4993","title":"上海市殷浜中学","lon":"121.63242","lat":"31.1726","category":"55","category_name":"中学","address":""},{"poiid":"B2094757D16BA6FA479D","title":"康桥东路","lon":"121.63665797","lat":"31.162679481","category":"500","category_name":"未知分类","address":"上海市浦东新区康桥东路1365弄"},{"poiid":"B2094654DB6DA1F8499B","title":"美特斯·邦威(康桥东路)","lon":"121.61742","lat":"31.15553","category":"141","category_name":"服装鞋帽皮具店","address":"浦东新区康桥东路800号"},{"poiid":"B2094654DB6DA6F5479E","title":"上海江森自控汽车电子有限公司","lon":"121.63281","lat":"31.15745","category":"263","category_name":"公司","address":""},{"poiid":"B2094654DA6AA6FF4293","title":"玫瑰湾","lon":"121.62824","lat":"31.181089","category":"47","category_name":"住宅区","address":"上海市浦东新区孙桥路202号"},{"poiid":"B2094654DB6DA6FC439B","title":"同济大学耐候实验室","lon":"121.63333","lat":"31.15796","category":"253","category_name":"校园生活","address":"康桥东路1221号"},{"poiid":"B2094655D26BA2FA499E","title":"孙桥","lon":"121.63094","lat":"31.17845","category":"38","category_name":"公交车站","address":"上海新多路"},{"poiid":"B2094654DA6AA6FF4299","title":"上海绿色地带食品有限公司","lon":"121.62493","lat":"31.17214","category":"263","category_name":"公司","address":"勤政路48"},{"poiid":"B2094654DA6AA4FE469B","title":"浦东新区孙桥镇卫生院","lon":"121.63327","lat":"31.17443","category":"162","category_name":"医院","address":"横沔江路274"},{"poiid":"B2094654DA6AA4FE4492","title":"张江镇环西小区","lon":"121.64129","lat":"31.17754","category":"47","category_name":"住宅区","address":"孙环路601弄1-98号临"},{"poiid":"B2094654DB6DA6FD4099","title":"上海西美工具进出口有限公司","lon":"121.63589","lat":"31.15974","category":"263","category_name":"公司","address":"康桥东路1369号"},{"poiid":"B2094654DB6DA7F54993","title":"上海市第二精神病医院","lon":"121.63709","lat":"31.15025","category":"162","category_name":"医院","address":"南汇区川周公路"},{"poiid":"B2094654DA6AA6FD4099","title":"同济大学学生素质教育孙桥实践基地","lon":"121.61495","lat":"31.16859","category":"45","category_name":"产业园区","address":""},{"poiid":"B2094757D568A6F5489E","title":"上海孙桥农业科技股份有限公司","lon":"121.6308008","lat":"31.17079361","category":"260","category_name":"其他","address":"孙桥沔北路185号"},{"poiid":"B2094654DB6DA6FD4098","title":"上海汇洋机械制造有限公司","lon":"121.6359","lat":"31.15975","category":"263","category_name":"公司","address":"康桥东路1369号"},{"poiid":"B2094654DB6DA6FC4399","title":"上海川湘食品厂","lon":"121.63511","lat":"31.1583","category":"263","category_name":"公司","address":""},{"poiid":"B2094757D06BA0FF409A","title":"上海邦购信息科技有限公司","lon":"121.61717764","lat":"31.154522043","category":"46","category_name":"楼宇","address":"上海市浦东新区康桥东路700号"},{"poiid":"B2094655D36DA2FD4193","title":"申江路跨线桥","lon":"121.6245","lat":"31.15376","category":"250","category_name":"公园户外","address":""},{"poiid":"B2094757D165A1F4459D","title":"Michael's home","lon":"121.62503727","lat":"31.17545358","category":"500","category_name":"未知分类","address":null},{"poiid":"B2094654DB6DA6FC4398","title":"上海东风泰利福莫尔斯","lon":"121.63439","lat":"31.15755","category":"248","category_name":"生活娱乐","address":"康桥东路1288"},{"poiid":"B2094654DA6AA6FC4993","title":"向华医院","lon":"121.6141","lat":"31.16842","category":"162","category_name":"医院","address":"向华北路;军民公路"},{"poiid":"B2094757D16DABF5449B","title":"哈挺机床(上海)有限公司","lon":"121.63733497","lat":"31.158612386","category":"249","category_name":"购物服务","address":"上海市南汇区康桥东路3880号"},{"poiid":"B2094654DB6DA6FC499B","title":"上海科泰运输制冷设备有限公司","lon":"121.63213","lat":"31.15554","category":"263","category_name":"公司","address":""},{"poiid":"B2094757D16FA2F84898","title":"康桥东路1300","lon":"121.635722","lat":"31.156165","category":"500","category_name":"未知分类","address":"上海康桥东路1300号"},{"poiid":"B2094757D16CA7F9479D","title":"康桥东路","lon":"121.62065124","lat":"31.153776168","category":"500","category_name":"未知分类","address":"上海康桥东路800"},{"poiid":"B2094655D36CA7F9419C","title":"横沔","lon":"121.63975","lat":"31.15187","category":"38","category_name":"公交车站","address":""},{"poiid":"B2094757D06BAAF5489A","title":"美特斯邦威大学","lon":"121.61649097","lat":"31.155532314","category":"253","category_name":"校园生活","address":"上海市浦东新区康桥东路800号 一阶、二阶、三阶"},{"poiid":"B2094654DB64A1FB4499","title":"上海浦新砌块厂(横沔江路)","lon":"121.63937","lat":"31.1622","category":"263","category_name":"公司","address":""},{"poiid":"B2094654DB6DA3FD449C","title":"上海善能机械有限公司","lon":"121.61991","lat":"31.15571","category":"263","category_name":"公司","address":"康桥东路889"},{"poiid":"B2094654DA6BA2F8449F","title":"浦东新区孙桥小学","lon":"121.62964","lat":"31.17781","category":"56","category_name":"小学","address":"军民路158号"},{"poiid":"B2094654DA6AA4FE459C","title":"孙桥幼儿园","lon":"121.6296","lat":"31.17861","category":"57","category_name":"幼儿园","address":""},{"poiid":"B2094757D664AAF8489D","title":"茗缘酒楼","lon":"121.63077","lat":"31.18123","category":"76","category_name":"上海菜","address":"浦东新区孙桥路268号(近孙建路)"},{"poiid":"B2094654DA6AA6FC499B","title":"孙桥地块住宅小区","lon":"121.62734","lat":"31.17832","category":"47","category_name":"住宅区","address":""},{"poiid":"B2094654DB6DA3FD4492","title":"上海神汇汽车转向器有限公司","lon":"121.62036","lat":"31.15463","category":"263","category_name":"公司","address":"康桥东路888"},{"poiid":"B2094655D36DA2FB4893","title":"孙农路北殷家浜桥","lon":"121.62598","lat":"31.17758","category":"250","category_name":"公园户外","address":""},{"poiid":"B2094757D16FA3F94092","title":"浦东发展银行锦绣支行","lon":"121.61679797","lat":"31.15664134","category":"150","category_name":"银行","address":"上海市浦东新区锦延路342号"},{"poiid":"B2094654DA6AA4FD4798","title":"孙桥小学","lon":"121.63002","lat":"31.17872","category":"56","category_name":"小学","address":"浦东新区张江镇殷北路468号(孙农路殷北路)"},{"poiid":"B2094654DA6BA2F9419B","title":"快客NO.6468","lon":"121.63076","lat":"31.17852","category":"117","category_name":"便民商店/便利店","address":"孙桥镇"},{"poiid":"B2094654DA6AA6FF479C","title":"劳动居委社区卫生服务站","lon":"121.62874","lat":"31.17866","category":"162","category_name":"医院","address":""},{"poiid":"B2094654DA6AA4FC4593","title":"上海市浦东新区孙桥镇广播电视站","lon":"121.63294","lat":"31.17779","category":"59","category_name":"电视台","address":"孙桥镇横沔江路56号"},{"poiid":"B2094654DB64A6FF479B","title":"中国移动孙桥镇营业厅","lon":"121.6308","lat":"31.17885","category":"151","category_name":"电讯营业厅","address":"浦东新区孙桥路401-405号"},{"poiid":"B2094654DA6AA5F54499","title":"鼎新商场","lon":"121.6322","lat":"31.17896","category":"119","category_name":"商场","address":"乐安镇32号"},{"poiid":"B2094757D069A0FD439D","title":"上海市民政第二精神病院","lon":"121.643251","lat":"31.153094","category":"162","category_name":"医院","address":"上海市南汇区川周公路2607号"},{"poiid":"B2094757D66FA1F44892","title":"乐天幼儿园","lon":"121.63379995","lat":"31.151112474","category":"57","category_name":"幼儿园","address":"长沙德馨园"},{"poiid":"B2094654DA6BA2F94093","title":"梦菲酒店","lon":"121.63074","lat":"31.17866","category":"250","category_name":"公园户外","address":"孙桥路388号"},{"poiid":"B2094655D36CA0F4439A","title":"黄浦花园","lon":"121.63068","lat":"31.18337","category":"47","category_name":"住宅区","address":""},{"poiid":"B2094655D36CA5FD459B","title":"川周公路申江路","lon":"121.62559","lat":"31.14469","category":"38","category_name":"公交车站","address":""},{"poiid":"B2094655D36DA2FE4598","title":"横沔港桥","lon":"121.64047","lat":"31.15221","category":"250","category_name":"公园户外","address":""},{"poiid":"B2094654DA6AA4FE459F","title":"孙桥公寓","lon":"121.63143","lat":"31.18117","category":"47","category_name":"住宅区","address":"高木桥路北门235弄"},{"poiid":"B2094654DA6BA2F9499C","title":"华联超市(孙环路)","lon":"121.64286","lat":"31.17398","category":"118","category_name":"超级市场","address":""},{"poiid":"B2094654DA6AA4FE469F","title":"上海雅达针织制衣有限公司","lon":"121.63473","lat":"31.17684","category":"263","category_name":"公司","address":"孙桥镇三灶路69临"},{"poiid":"B2094654DB6DA6FD4493","title":"华联超市No.1870(沔青村)","lon":"121.63825","lat":"31.15132","category":"118","category_name":"超级市场","address":""},{"poiid":"B2094654DA6AA4FE409A","title":"联华超市(孙桥路)","lon":"121.63101","lat":"31.18039","category":"118","category_name":"超级市场","address":""},{"poiid":"B2094654DA6BA2F9459E","title":"格林阁","lon":"121.63107","lat":"31.17972","category":"141","category_name":"服装鞋帽皮具店","address":"孙桥路359"},{"poiid":"B2094655D26BA2FB4098","title":"孙环路三灶路","lon":"121.63973","lat":"31.18001","category":"38","category_name":"公交车站","address":""},{"poiid":"B2094757D068A1F4429F","title":"云游天地","lon":"121.6164815","lat":"31.1796722","category":"46","category_name":"楼宇","address":"浦东新区华夏中路958弄60号(近金科路)"},{"poiid":"B2094655D26BA2FB409F","title":"孙环路(环西小区)","lon":"121.64046","lat":"31.17873","category":"38","category_name":"公交车站","address":""},{"poiid":"B2094655D36CA2FF489B","title":"秦镇","lon":"121.61575","lat":"31.17891","category":"38","category_name":"公交车站","address":""},{"poiid":"B2094654DB6DA3FD459A","title":"上海双基药业有限公司","lon":"121.61475","lat":"31.15462","category":"263","category_name":"公司","address":"康桥东路585号"},{"poiid":"B2094757D569A3F8409E","title":"东交紫园","lon":"121.6253689","lat":"31.18159889","category":"47","category_name":"住宅区","address":"孙农路200弄"},{"poiid":"B2094655D36CA7F9429B","title":"横西桥","lon":"121.62608","lat":"31.14495","category":"38","category_name":"公交车站","address":""},{"poiid":"B2094654DA6AA4FC479C","title":"孙桥文化公园","lon":"121.63129","lat":"31.18348","category":"196","category_name":"公园","address":"横河港路"},{"poiid":"B2094655D36DA2FE459E","title":"沔青桥","lon":"121.63151","lat":"31.14659","category":"250","category_name":"公园户外","address":""},{"poiid":"B2094757D66CA3FD4493","title":"太空舱","lon":"121.622850246","lat":"31.146467602","category":"500","category_name":"未知分类","address":null},{"poiid":"B2094654DA6BA2FA499B","title":"张江镇环西居委会卫生服务站","lon":"121.64133","lat":"31.1775","category":"162","category_name":"医院","address":""},{"poiid":"B2094654DA6AA4FD419F","title":"农工商超市NO.155","lon":"121.63092","lat":"31.18256","category":"118","category_name":"超级市场","address":"孙桥镇"},{"poiid":"B2094654DA6BA2F8449D","title":"永乐手机专卖孙桥店","lon":"121.63048","lat":"31.1829","category":"138","category_name":"家电电子卖场","address":""},{"poiid":"B2094753D46CA3F8449F","title":"东方体育中心","lon":"121.619651","lat":"31.148101","category":"500","category_name":"未知分类","address":"上海市 东方体育中心地铁站"},{"poiid":"B2094757D065ABF5439D","title":"上海电力公司康桥220kv变电站","lon":"121.643841","lat":"31.155828","category":"500","category_name":"未知分类","address":"上海浦东川周公路4032号"},{"poiid":"B2094654DB6DA5FC409B","title":"上海峥嵘工程机械配件厂","lon":"121.63864","lat":"31.15113","category":"263","category_name":"公司","address":""},{"poiid":"B2094757D169A0FF4192","title":"小6长两米.宽90公分的床上","lon":"121.62206234","lat":"31.146286197","category":"253","category_name":"校园生活","address":null},{"poiid":"B2094654DB6DA3FE499C","title":"上海巴克斯酒业有限公司","lon":"121.61215","lat":"31.15375","category":"263","category_name":"公司","address":"康桥东路558"},{"poiid":"B2094654DB6DA3FD459B","title":"上海百润香精香料有限公司","lon":"121.61214","lat":"31.15375","category":"263","category_name":"公司","address":"康桥东路558"},{"poiid":"B2094757D169A2FE439A","title":"上海中侨学院2号楼","lon":"121.624069246","lat":"31.1451235699","category":"500","category_name":"未知分类","address":"上海川周公路2788号"},{"poiid":"B2094757DB6CA5FC499F","title":"宜家北蔡店","lon":"121.631133","lat":"31.184012","category":"249","category_name":"购物服务","address":"沪南路华夏西路"},{"poiid":"B2094757D164A5FD4999","title":"罗森(中侨学院店)","lon":"121.625935","lat":"31.146775","category":"249","category_name":"购物服务","address":"上海浦东新区中侨学院"},{"poiid":"B2094654DB6DA3FF4292","title":"上海汉斯精细化工有限公司","lon":"121.61133","lat":"31.154","category":"263","category_name":"公司","address":"康桥东路355"},{"poiid":"B2094757D169A6FA489F","title":"11路公交","lon":"121.622184246","lat":"31.1459365893","category":"500","category_name":"未知分类","address":"兰州到和平"},{"poiid":"B2094654DB64A3F44398","title":"孙桥派出所(横沔江路)","lon":"121.63274","lat":"31.18282","category":"248","category_name":"生活娱乐","address":"孙桥镇横沔江路52号"},{"poiid":"B2094654DA6BA2F84899","title":"游艺厅(孙建路)","lon":"121.63006","lat":"31.18117","category":"173","category_name":"游戏厅","address":""}]