[{"poiid":"B2094757D06FA5FD419A","title":"万科四季花城","lon":"121.45309448","lat":"31.379444122","category":"500","category_name":"未知分类","address":"上海宝山镇泰路111弄"},{"poiid":"B2094757D068A5FE469D","title":"江杨北路水产批发市场","lon":"121.45541","lat":"31.35853","category":"249","category_name":"购物服务","address":"上海宝山区江杨北路(近泰和路)"},{"poiid":"B2094655D36CA1FE469C","title":"水产路铁山路","lon":"121.46445","lat":"31.37388","category":"38","category_name":"公交车站","address":""},{"poiid":"B2094655D36DA1F8429A","title":"浅弄河桥","lon":"121.46277","lat":"31.37396","category":"250","category_name":"公园户外","address":""},{"poiid":"B2094757D069A7FA4593","title":"CETC23","lon":"121.46291238","lat":"31.374771782","category":"500","category_name":"未知分类","address":"上海铁山路230号"},{"poiid":"B2094757D16CABFF409D","title":"一个下着雨的早晨","lon":"121.465363781","lat":"31.3694105553","category":"247","category_name":"餐饮美食","address":"上海的某一天"},{"poiid":"B2094655D26BA2FA4593","title":"泰和路江杨北路","lon":"121.46172","lat":"31.36384","category":"38","category_name":"公交车站","address":""},{"poiid":"B209475DD66DA4FF4199","title":"森谷美食公园","lon":"121.469474","lat":"31.36627","category":"247","category_name":"餐饮美食","address":"上海市 宝山区泰和路1088号"},{"poiid":"B2094757D568ABF9479E","title":"二十三所","lon":"121.45496","lat":"31.37782","category":"46","category_name":"楼宇","address":"铁山路260号"},{"poiid":"B2094757D068A6FE449E","title":"宝湾国际物流中心","lon":"121.470803","lat":"31.381641","category":"500","category_name":"未知分类","address":"上海宝山区铁力路388号"},{"poiid":"B2094757D169AAFD4199","title":"崇明建设镇","lon":"121.463345165","lat":"31.3704395765","category":"260","category_name":"其他","address":"上海富安村"},{"poiid":"B2094654D469AAF44093","title":"上海中集汽车测修理有限公司","lon":"121.4634","lat":"31.37928","category":"159","category_name":"汽车维修","address":"宝山区水产路1699号F栋(近铁山路)"},{"poiid":"B2094757D16AA4F94892","title":"Shanghai Echo","lon":"121.45618753","lat":"31.372122611","category":"500","category_name":"未知分类","address":"上海铁山路166号"},{"poiid":"B2094757D16DABFC4098","title":"杨行中学B座","lon":"121.451511679","lat":"31.3738075256","category":"55","category_name":"中学","address":"上海宝山区宝杨路2888号"},{"poiid":"B2094757D16BA4FE409B","title":"北洋仓储(上海海关第六监管处)","lon":"121.460457831","lat":"31.3795627646","category":"500","category_name":"未知分类","address":"上海铁山路258号"},{"poiid":"B2094654D469AAF4409D","title":"上海中集车辆物流装备园","lon":"121.46748","lat":"31.37659","category":"248","category_name":"生活娱乐","address":""},{"poiid":"B2094655D36CA2FB419D","title":"三汀沟","lon":"121.46823","lat":"31.366","category":"38","category_name":"公交车站","address":""},{"poiid":"B2094757D16DA3FC409F","title":"江杨农产品批发市场","lon":"121.456358831","lat":"31.3570273","category":"500","category_name":"未知分类","address":"上海市宝山区江杨北路【铁谊路】"},{"poiid":"B2094654D469AAF44098","title":"上海米其林回力轮胎股份有限公司钢丝厂","lon":"121.46609","lat":"31.3677","category":"263","category_name":"公司","address":"铁山路129号"},{"poiid":"B2094757D06BABFC439E","title":"宝杨大酒店","lon":"121.46847660497","lat":"31.390072080258","category":"76","category_name":"上海菜","address":"宝山区宝杨路2019号(近铁力路)"},{"poiid":"B2094757D06BA7FF4698","title":"杨行中学体育馆","lon":"121.446953679","lat":"31.3761716315","category":"253","category_name":"校园生活","address":"宝山区宝杨路2888号华东师范大学附属杨行中学内(近蕴川路)"},{"poiid":"B2094654D46AA0FA4192","title":"上海宝临电气集团","lon":"121.46976","lat":"31.37119","category":"263","category_name":"公司","address":"铁峰路447"},{"poiid":"B2094757D06BABFE459F","title":"禄德华苑","lon":"121.45065","lat":"31.371355","category":"500","category_name":"未知分类","address":"上海杨鑫路98弄"},{"poiid":"B2094757DA6BAAFC4592","title":"春江美庐","lon":"121.449137","lat":"31.365144","category":"47","category_name":"住宅区","address":"水产路2196号近江杨北路"},{"poiid":"B2094757D568A2F5489C","title":"杨泰二村","lon":"121.44263","lat":"31.37023","category":"47","category_name":"住宅区","address":"上海市宝山区杨泰二村76号"},{"poiid":"B2094757D168A0FC499E","title":"泰和路铁山路","lon":"121.46144633","lat":"31.363442432","category":"500","category_name":"未知分类","address":"上海泰和路铁山路"},{"poiid":"B2094654D469AAF4419B","title":"上海外服服饰检整有限公司","lon":"121.4627","lat":"31.37952","category":"263","category_name":"公司","address":"兰岗路9号"},{"poiid":"B2094654D46AA7FC4592","title":"亚东国际物流","lon":"121.45812","lat":"31.36544","category":"248","category_name":"生活娱乐","address":"泰和路1421"},{"poiid":"B2094654D469AAFB499F","title":"宝钢小额站坯料库","lon":"121.45379","lat":"31.37493","category":"263","category_name":"公司","address":""},{"poiid":"B2094757D66EA0FD4899","title":"招商局物流集团上海有限公司","lon":"121.470178","lat":"31.378067","category":"500","category_name":"未知分类","address":"上海宝山区铁山路219号"},{"poiid":"B2094655D36CA1FF4293","title":"司安桥","lon":"121.45885","lat":"31.38479","category":"38","category_name":"公交车站","address":""},{"poiid":"B2094757D16EA3F84999","title":"电信牡丹江路营业厅","lon":"121.46410267","lat":"31.363326746","category":"500","category_name":"未知分类","address":"上海宝山区牡丹江路1011号"},{"poiid":"B2094757D16AA3F4489C","title":"上海交运沪北物流发展有限公司","lon":"121.46711578","lat":"31.364349623","category":"263","category_name":"公司","address":"上海市宝山区铁山路38号"},{"poiid":"B2094654D46AA3FA4892","title":"上海台高商务中心","lon":"121.45613","lat":"31.38365","category":"46","category_name":"楼宇","address":""},{"poiid":"B2094757D568A0FB4798","title":"钢领上海国际钢铁服务中心","lon":"121.4532567","lat":"31.37994667","category":"248","category_name":"生活娱乐","address":"宝山区友谊路1588弄"},{"poiid":"B2094757D064A6F4489D","title":"中铝上铜","lon":"121.472629","lat":"31.366676","category":"500","category_name":"未知分类","address":"上海宝山区泰和路1010号"},{"poiid":"B2094654D469AAF4439B","title":"上海市公安局宝山分局交警支队","lon":"121.46417","lat":"31.38837","category":"248","category_name":"生活娱乐","address":"宝杨路2031"},{"poiid":"B2094654DB6AA5FF439C","title":"宝启花园","lon":"121.444393","lat":"31.37773","category":"47","category_name":"住宅区","address":"宝杨路3288弄"},{"poiid":"B2094757D66CA1F94899","title":"S20水产路下匝道","lon":"121.45685583","lat":"31.362768018","category":"500","category_name":"未知分类","address":"上海S20水产路下匝道"},{"poiid":"B2094654D469ABFB479F","title":"杨行地段医院","lon":"121.444","lat":"31.37114","category":"162","category_name":"医院","address":"宝山区杨泰路239号"},{"poiid":"B2094655D36DA0F9439B","title":"杨泰路","lon":"121.44769","lat":"31.3676","category":"38","category_name":"公交车站","address":""},{"poiid":"B2094654D46AA0FA409D","title":"上海神鹰物流有限公司","lon":"121.47325","lat":"31.3705","category":"248","category_name":"生活娱乐","address":"南汀路200"},{"poiid":"B2094655D36DA1FE459C","title":"江杨北路黄泥塘桥","lon":"121.457","lat":"31.36159","category":"250","category_name":"公园户外","address":""},{"poiid":"B2094757D16BA2F8439C","title":"交运沪北","lon":"121.467716","lat":"31.362833","category":"500","category_name":"未知分类","address":"上海铁山路38号"},{"poiid":"B2094654D46AA3FA4998","title":"美饰家(宝杨路)","lon":"121.45462","lat":"31.38275","category":"123","category_name":"家具建材市场","address":""},{"poiid":"B2094757D16BA4F8489D","title":"水产路铁力路","lon":"121.475536","lat":"31.377878","category":"500","category_name":"未知分类","address":"上海水产路2864"},{"poiid":"B2094654D46AA3FA479D","title":"兰州牛肉面馆","lon":"121.46318","lat":"31.38674","category":"84","category_name":"西北菜","address":""},{"poiid":"B2094654D469AAFA479F","title":"杨行镇社区卫生服务中心","lon":"121.444","lat":"31.37114","category":"162","category_name":"医院","address":"宝山区杨泰路239号(近杨鑫路)"},{"poiid":"B2094757D164A2F94493","title":"宝山交警大队事故科","lon":"121.46367513","lat":"31.387243923","category":"500","category_name":"未知分类","address":"上海宝杨路2031号"},{"poiid":"B2094655D36CA2FD419F","title":"基督教杨行堂","lon":"121.4489","lat":"31.36361","category":"245","category_name":"教堂","address":"宝山区杨行镇杨泰路510弄5号"},{"poiid":"B2094654D469AAF4429D","title":"杨东学校","lon":"121.4635","lat":"31.38746","category":"55","category_name":"中学","address":""},{"poiid":"B2094655D36DA1F84193","title":"深水浜桥","lon":"121.44835","lat":"31.3788","category":"250","category_name":"公园户外","address":""},{"poiid":"B2094655D264A0FF4093","title":"万业紫辰苑","lon":"121.45894","lat":"31.35661","category":"47","category_name":"住宅区","address":"江杨北路1568弄1号"},{"poiid":"B2094655D26BA6FB409E","title":"杨泰阳光苑","lon":"121.44483","lat":"31.36913","category":"47","category_name":"住宅区","address":"上海市宝山区杨泰路268弄"},{"poiid":"B2094757D169A1F94099","title":"外环同济路出口","lon":"121.48193264","lat":"31.369623576","category":"500","category_name":"未知分类","address":"上海外环同济路出口"},{"poiid":"B2094654D469AAF4429B","title":"宝山区职业技术培训中心","lon":"121.4605","lat":"31.3859","category":"190","category_name":"培训机构","address":""},{"poiid":"B2094654D46AA7FC4699","title":"上海江杨农产品批发市场经营管理有限公司卫生室","lon":"121.45656","lat":"31.3579","category":"162","category_name":"医院","address":""},{"poiid":"B2094757D76BABF4409A","title":"韩风源","lon":"121.44607","lat":"31.37767","category":"68","category_name":"快餐厅","address":"宝山区松兰路888弄四季花城2期4区(近镇泰路)"},{"poiid":"B2094757D66DA2FA439F","title":"美饰佳建材市场化","lon":"121.45362767","lat":"31.384004718","category":"500","category_name":"未知分类","address":"上海宝杨路2231号"},{"poiid":"B2094655D36CA1FE4693","title":"水产路杨泰路","lon":"121.4449","lat":"31.36664","category":"38","category_name":"公交车站","address":""},{"poiid":"B2094757D165A4FA499F","title":"华师大附属宝山分校","lon":"121.446979","lat":"31.376135","category":"500","category_name":"未知分类","address":"上海长临路长江西路口"},{"poiid":"B2094757D16DAAFC489A","title":"杨泰一村","lon":"121.446","lat":"31.3787","category":"500","category_name":"未知分类","address":"上海杨泰路338弄"},{"poiid":"B2094654D46AA2F4489A","title":"淞港码头","lon":"121.46559","lat":"31.35684","category":"34","category_name":"港口码头","address":""},{"poiid":"B2094654D469ABF5429F","title":"宝山区交警支队","lon":"121.46539","lat":"31.38909","category":"250","category_name":"公园户外","address":"湄浦路331号"},{"poiid":"B2094757D065A2FA4198","title":"杨行镇社区中心","lon":"121.444188","lat":"31.371213","category":"500","category_name":"未知分类","address":"上海松兰路826号"},{"poiid":"B2094654DB6AA5FE489D","title":"车居佳汽车快修","lon":"121.46224","lat":"31.38625","category":"159","category_name":"汽车维修","address":""},{"poiid":"B2094757D568A6FD419E","title":"杨泰二村(东门)","lon":"121.44336344","lat":"31.37098389","category":"47","category_name":"住宅区","address":"中国上海市宝山区"},{"poiid":"B2094757D164A3F54998","title":"宝山养路费征收站","lon":"121.45493983","lat":"31.359841358","category":"500","category_name":"未知分类","address":"上海市宝山区江杨北路218号"},{"poiid":"B2094654D469ABFB409C","title":"上海宝钢钢铁资源有限公司(铁山路)","lon":"121.46863","lat":"31.35996","category":"263","category_name":"公司","address":"铁山路6号"},{"poiid":"B2094655D264A0FB4693","title":"杨行镇图书馆","lon":"121.44361","lat":"31.36892","category":"181","category_name":"图书馆","address":"宝山区杨鑫路6号(杨泰路杨鑫路)"},{"poiid":"B2094655D26BA2F84298","title":"铁山路铁通路","lon":"121.45327","lat":"31.39038","category":"38","category_name":"公交车站","address":""},{"poiid":"B2094654D469AAFA4599","title":"杨行派出所","lon":"121.44522","lat":"31.36787","category":"609","category_name":"警察局","address":"杨泰路238号"},{"poiid":"B2094655D36CA5F5489B","title":"宝杨路(招呼站)","lon":"121.44273","lat":"31.37232","category":"38","category_name":"公交车站","address":""},{"poiid":"B2094757D16BA6FD439C","title":"中储股份","lon":"121.455401","lat":"31.386749","category":"263","category_name":"公司","address":"上海宝山铁山路495号"},{"poiid":"B2094757D66DA5FB499B","title":"宁波象山海鲜大排档","lon":"121.48140183","lat":"31.376764706","category":"247","category_name":"餐饮美食","address":"上海宝山区共江路"},{"poiid":"B2094654D469AAFA499F","title":"光明批发部","lon":"121.44385","lat":"31.37921","category":"117","category_name":"便民商店/便利店","address":""},{"poiid":"B2094654DB65A5FB489F","title":"上海宝山太平货柜有限公司","lon":"121.46472","lat":"31.38768","category":"263","category_name":"公司","address":"宝山区宝杨路2020号"},{"poiid":"B2094654DB6AA5FF449E","title":"上海交运大件物流有限公司","lon":"121.46276","lat":"31.38704","category":"248","category_name":"生活娱乐","address":"宝杨路2045号"},{"poiid":"B2094654DB6AA5FE4892","title":"宝山烟草","lon":"121.46279","lat":"31.38653","category":"136","category_name":"烟酒专卖店","address":"双城路560"},{"poiid":"B2094757D164A6FD499D","title":"吉祥馄饨杨桃路店","lon":"121.447331679","lat":"31.3640073407","category":"500","category_name":"未知分类","address":"上海宝山区杨行镇杨桃路近杨泰路"},{"poiid":"B2094757D66FA0FB4893","title":"杨鑫路","lon":"121.442615879","lat":"31.3707347676","category":"500","category_name":"未知分类","address":"上海杨鑫路"},{"poiid":"B2094654D46AA7FC4693","title":"上海海山水产批发行","lon":"121.45349","lat":"31.35742","category":"117","category_name":"便民商店/便利店","address":"江杨北路98号"},{"poiid":"B2094757D168A7FA439B","title":"人民大道","lon":"121.44463277","lat":"31.379174926","category":"500","category_name":"未知分类","address":"上海人民大道"},{"poiid":"B2094753D768ABF5489B","title":"国金中心","lon":"121.475761","lat":"31.385227","category":"500","category_name":"未知分类","address":"上海市 浦东新区陆家嘴国金中心"},{"poiid":"B2094654D469ABF54493","title":"宝钢集团上海钢铁研究所","lon":"121.48138","lat":"31.37004","category":"191","category_name":"科研机构","address":"泰和路1001"},{"poiid":"B2094757D169A7FA469B","title":"阿英煲(同泰北路)","lon":"121.481051831","lat":"31.376525702","category":"500","category_name":"未知分类","address":"上海宝山区同泰北路"},{"poiid":"B2094654D46AA7FC4698","title":"上海江杨农产品经营管理有限公司","lon":"121.45656","lat":"31.3579","category":"263","category_name":"公司","address":""},{"poiid":"B2094757D66DA6F94699","title":"宝交休息室饭堂","lon":"121.47081283","lat":"31.39050499","category":"247","category_name":"餐饮美食","address":null},{"poiid":"B2094654D46AA7FD439C","title":"蔬菜交易区","lon":"121.45597","lat":"31.35593","category":"117","category_name":"便民商店/便利店","address":""},{"poiid":"B2094655D26BA0FF489C","title":"江杨北路桥","lon":"121.45996","lat":"31.35437","category":"250","category_name":"公园户外","address":""},{"poiid":"B2094757D16FA3FE489B","title":"沪宁高速","lon":"121.444932679","lat":"31.3814006688","category":"500","category_name":"未知分类","address":"沪宁高速上海段"},{"poiid":"B2094757D06BA7FD429F","title":"温馨の家","lon":"121.44274167","lat":"31.369583445","category":"500","category_name":"未知分类","address":null},{"poiid":"B2094757D16CA4F94892","title":"張議文の巢","lon":"121.44513167","lat":"31.380860658","category":"500","category_name":"未知分类","address":"上海vk"},{"poiid":"B2094654D46AA0F94993","title":"上海油汇实业有限公司","lon":"121.48081","lat":"31.36678","category":"263","category_name":"公司","address":"铁力路61号"},{"poiid":"B2094654D46AA7FC469C","title":"杨行派出所治安办公室","lon":"121.45466","lat":"31.35688","category":"248","category_name":"生活娱乐","address":"宝山区杨泰路198号"},{"poiid":"B2094757D169A2FD4599","title":"制氢站","lon":"121.46485523","lat":"31.354951957","category":"500","category_name":"未知分类","address":"上海蕴藻南路"},{"poiid":"B2094654D469AAFC4192","title":"宝钢集团上海第一钢铁有限公司(蕴藻南路)","lon":"121.47003","lat":"31.35593","category":"263","category_name":"公司","address":""},{"poiid":"B2094757D069A2FB449A","title":"吴淞码头","lon":"121.44257167","lat":"31.370668466","category":"260","category_name":"其他","address":"上海宝山区"}]