[{"poiid":"B2094655D36DA6FF4992","title":"上海金逸院线新恒星影城","lon":"121.46933","lat":"31.25147","category":"178","category_name":"电影院","address":"上海市闸北区西藏北路166号大悦城10-11楼"},{"poiid":"B2094757DB6EA6FE469C","title":"上海铭德大酒店","lon":"121.470063329","lat":"31.251024786","category":"213","category_name":"五星级宾馆","address":"上海市闸北区西藏北路558号(上海火车站地区,近虬江路)"},{"poiid":"B2094757D06FA1FD419F","title":"铭德莱星顿广场酒店","lon":"121.47000877","lat":"31.251120658","category":"213","category_name":"五星级宾馆","address":"上海闸北区西藏北路558号(虬江路口)"},{"poiid":"B209475CD564A7F8439E","title":"上海滩中信泰富店","lon":"121.45602","lat":"31.22851","category":"119","category_name":"商场","address":"\"南京西路1168号中信泰富广场，店铺号221.\r\n\""},{"poiid":"B2094757D06FA6F9489D","title":"市北中学","lon":"121.47051","lat":"31.25192","category":"55","category_name":"中学","address":"闸北区永兴路365号(民德路永兴路)"},{"poiid":"B2094757D168A5F4409F","title":"地铁三、四号线上海站","lon":"121.4723053","lat":"31.249360982","category":"500","category_name":"未知分类","address":"上海地铁三、四号线上海站"},{"poiid":"B2094654DA6FAAF9499B","title":"凯旋门大厦","lon":"121.473","lat":"31.2497","category":"46","category_name":"楼宇","address":"龙蟠南路33号(龙蟠南路与秦虹路交汇处,秦淮区政府对面)"},{"poiid":"B2094751D46EA3FA479F","title":"捞王猪肚鸡","lon":"121.4721395","lat":"31.2521098","category":"247","category_name":"餐饮美食","address":"虹口区四川北路1318号盛邦国际大厦3楼(近武进路)"},{"poiid":"B2094757D06AA6FF4699","title":"宝山路","lon":"121.4729591","lat":"31.24928998","category":"500","category_name":"未知分类","address":"上海宝山路"},{"poiid":"B2094757D06AA2F5499C","title":"铁路博物馆","lon":"121.4764058","lat":"31.25003058","category":"182","category_name":"博物馆","address":"闸北区天目东路200号(近三号线宝山路站)"},{"poiid":"B2094757D06AABFE4993","title":"铁路文化宫","lon":"121.47159","lat":"31.24968","category":"179","category_name":"音乐厅","address":"闸北区王家宅路164号(民德路王家宅路)"},{"poiid":"B2094757D069A3FE4198","title":"闸北区图书馆","lon":"121.474","lat":"31.24822","category":"181","category_name":"图书馆","address":"闸北区天目中路6号(天目中路浙江北路)"},{"poiid":"B2094757D068A3FD4492","title":"水上威尼斯(永兴路会所)","lon":"121.473073966","lat":"31.2533929252","category":"149","category_name":"洗浴推拿场所","address":"上海闸北区永兴路258弄1号(近会文路)"},{"poiid":"B2094757D06FABFC409A","title":"新梅大厦","lon":"121.47","lat":"31.2509","category":"46","category_name":"楼宇","address":"铁西卫工南街8―5号"},{"poiid":"B2094654D56DA1F4449B","title":"聚源大厦","lon":"121.473545","lat":"31.251552","category":"46","category_name":"楼宇","address":"上海市普陀区中山北路1777号"},{"poiid":"B2094757D064A7F4499E","title":"浙江北路天目路","lon":"121.47467","lat":"31.248947","category":"500","category_name":"未知分类","address":"上海浙江北路天目路"},{"poiid":"B2094757D068A3FD4398","title":"唯一视觉(西藏北路店)","lon":"121.4732623","lat":"31.250697831","category":"249","category_name":"购物服务","address":"上海西藏北路605号兴中心c座2楼"},{"poiid":"B2094757D068ABFE459D","title":"上海铁路局上海客运段","lon":"121.472104","lat":"31.249152","category":"260","category_name":"其他","address":"上海闸北区民德路31号"},{"poiid":"B2094654D56DA1F5489A","title":"上海楚天大酒店","lon":"121.47308","lat":"31.25211","category":"76","category_name":"上海菜","address":"闸北区虬江路1011号(近西藏北路)"},{"poiid":"B2094757D06BA2FB499B","title":"New BoBo(原BOBO'S BAR)","lon":"121.473081","lat":"31.25211","category":"172","category_name":"酒吧","address":"上海 閘北區 虬江路1011號 坦福酒店三樓(近會文璐)"},{"poiid":"B2094757D068A5F9449C","title":"SOMI(大悦城店)","lon":"121.46940193","lat":"31.251404648","category":"67","category_name":"甜品店","address":"上海闸北区西藏北路180号大悦城7F-08"},{"poiid":"B2094654DB69AAF8429C","title":"水上威尼斯浴场餐厅","lon":"121.4735","lat":"31.25266","category":"76","category_name":"上海菜","address":"上海市闸北区永兴路258号弄1号"},{"poiid":"B2094654D56DA1FB449A","title":"上海纺织工业职工大学针织分校","lon":"121.47204","lat":"31.25109","category":"52","category_name":"高等院校","address":"闸北区虬江路1078号"},{"poiid":"B2094752D76BA2FD4593","title":"虹桥机场2号航站楼","lon":"121.473502","lat":"31.248145","category":"500","category_name":"未知分类","address":"虹桥机场"},{"poiid":"B2094654D56DA1F44699","title":"上海会都大酒店","lon":"121.47373","lat":"31.25089","category":"68","category_name":"快餐厅","address":"闸北区会文路2号"},{"poiid":"B2094752D16BA4FC449A","title":"东宝兴路地铁站","lon":"121.473479","lat":"31.250141","category":"36","category_name":"地铁站","address":null},{"poiid":"B2094750D66CABFA4093","title":"大悦城 板长寿司","lon":"121.473594","lat":"31.249837","category":"500","category_name":"未知分类","address":"西藏北路"},{"poiid":"B2094654DB64A7F4439A","title":"绿地海悦酒店公寓","lon":"121.473","lat":"31.2489","category":"214","category_name":"四星级宾馆","address":"闸北区乌镇路118号"},{"poiid":"B2094757DB69A1F94099","title":"上海铁路局","lon":"121.473663","lat":"31.252436","category":"252","category_name":"楼宇机构","address":"闸北区天目东路80号"},{"poiid":"B2094655D265A7F4459B","title":"中铁24局集团公司办公大楼","lon":"121.47359","lat":"31.25108","category":"46","category_name":"楼宇","address":"会文路2号"},{"poiid":"B2094654D56DA1FB4199","title":"红厦公寓","lon":"121.47144","lat":"31.249865","category":"47","category_name":"住宅区","address":"闸北区名德路59号"},{"poiid":"B2094655D265A6F4449F","title":"功立餐厅老干部部","lon":"121.472","lat":"31.24958","category":"257","category_name":"中餐厅","address":""},{"poiid":"B2094757D169A0F44793","title":"南星大楼","lon":"121.47179706951","lat":"31.249361507226","category":"47","category_name":"住宅区","address":"上海市闸北区天目中路"},{"poiid":"B2094757D16FA7F5489D","title":"会文路3号","lon":"121.473611103","lat":"31.2503580031","category":"47","category_name":"住宅区","address":null},{"poiid":"B2094654D56DA1FB409A","title":"上海铁路印刷有限公司","lon":"121.47236","lat":"31.2501","category":"263","category_name":"公司","address":"虬江路1150号局东村21号"},{"poiid":"B2094757D169A2FF439D","title":"罗森便利(武昌路店)","lon":"121.473372934","lat":"31.2496077274","category":"117","category_name":"便民商店/便利店","address":"上海虹口区武昌路537弄3号  "},{"poiid":"B2094654D56DA1FA4993","title":"上海铁路局上海工务段","lon":"121.47276","lat":"31.24956","category":"263","category_name":"公司","address":""},{"poiid":"B2094757D06AA4F84092","title":"虬江路1150号局西村","lon":"121.472364","lat":"31.250103","category":"500","category_name":"未知分类","address":"上海虬江路1150号"},{"poiid":"B2094655D26FA6F8479A","title":"7天连锁酒店(宝山路店)","lon":"121.47512","lat":"31.25132","category":"216","category_name":"经济型连锁酒店","address":"闸北区交通路40号(近虬江路)"},{"poiid":"B2094655D26FA6FA4293","title":"上海纺织工业职工大学针织分校(北门)","lon":"121.47203","lat":"31.2511","category":"52","category_name":"高等院校","address":"虬江路1078号"},{"poiid":"B2094654D56DA1FB4298","title":"上海铁路红厦实业有限公司王家宅公寓","lon":"121.47142","lat":"31.25018","category":"47","category_name":"住宅区","address":"王家宅路121号"},{"poiid":"B2094654DA6FA2FC459C","title":"天目大楼","lon":"121.476","lat":"31.2518","category":"46","category_name":"楼宇","address":"浦东区崂山东路410号"},{"poiid":"B2094654DB64A4FC429A","title":"上海市第十人民医院第二门诊部","lon":"121.47235","lat":"31.2517","category":"162","category_name":"医院","address":"虬江路1057号"},{"poiid":"B2094655D26FA7FA479A","title":"上海铁路红厦实业有限公司王家宅公寓(东门)","lon":"121.47146","lat":"31.25016","category":"47","category_name":"住宅区","address":"王家宅路121"},{"poiid":"B2094654D56DA1FB4292","title":"虬江大楼","lon":"121.47118","lat":"31.250402","category":"47","category_name":"住宅区","address":"虬江路1120号"},{"poiid":"B2094757D064A3FF4399","title":"招商银行(天目支行)","lon":"121.47402191","lat":"31.249061584","category":"150","category_name":"银行","address":"闸北区天目西路451-469号(长寿路天目西路)"},{"poiid":"B2094757D66EAAFE449D","title":"上海客运段客技站拉萨车","lon":"121.472366603","lat":"31.2494327837","category":"500","category_name":"未知分类","address":null},{"poiid":"B2094654D56DA1FB4293","title":"快客No.835","lon":"121.47113","lat":"31.25058","category":"117","category_name":"便民商店/便利店","address":"虬江路1130"},{"poiid":"B2094654DA6FA2FE419B","title":"小肖烧烤","lon":"121.47401","lat":"31.24805","category":"68","category_name":"快餐厅","address":"闸北区浙江北路403弄弄堂口(塘沽路浙江北路)"},{"poiid":"B2094655D26FA7F8479F","title":"闸北区第三中心小学","lon":"121.47289","lat":"31.25379","category":"56","category_name":"小学","address":"闸北区永兴路211号(公兴路永兴路)"},{"poiid":"B2094655D36DA6FF4992","title":"上海金逸院线新恒星影城","lon":"121.46933","lat":"31.25147","category":"178","category_name":"电影院","address":"上海市闸北区西藏北路166号大悦城10-11楼"},{"poiid":"B2094757DB6EA6FE469C","title":"上海铭德大酒店","lon":"121.470063329","lat":"31.251024786","category":"213","category_name":"五星级宾馆","address":"上海市闸北区西藏北路558号(上海火车站地区,近虬江路)"},{"poiid":"B2094757D06FA1FD419F","title":"铭德莱星顿广场酒店","lon":"121.47000877","lat":"31.251120658","category":"213","category_name":"五星级宾馆","address":"上海闸北区西藏北路558号(虬江路口)"},{"poiid":"B209475CD564A7F8439E","title":"上海滩中信泰富店","lon":"121.45602","lat":"31.22851","category":"119","category_name":"商场","address":"\"南京西路1168号中信泰富广场，店铺号221.\r\n\""},{"poiid":"B2094757D06FA6F9489D","title":"市北中学","lon":"121.47051","lat":"31.25192","category":"55","category_name":"中学","address":"闸北区永兴路365号(民德路永兴路)"},{"poiid":"B2094757D168A5F4409F","title":"地铁三、四号线上海站","lon":"121.4723053","lat":"31.249360982","category":"500","category_name":"未知分类","address":"上海地铁三、四号线上海站"},{"poiid":"B2094654DA6FAAF9499B","title":"凯旋门大厦","lon":"121.473","lat":"31.2497","category":"46","category_name":"楼宇","address":"龙蟠南路33号(龙蟠南路与秦虹路交汇处,秦淮区政府对面)"},{"poiid":"B2094751D46EA3FA479F","title":"捞王猪肚鸡","lon":"121.4721395","lat":"31.2521098","category":"247","category_name":"餐饮美食","address":"虹口区四川北路1318号盛邦国际大厦3楼(近武进路)"},{"poiid":"B2094757D06AA6FF4699","title":"宝山路","lon":"121.4729591","lat":"31.24928998","category":"500","category_name":"未知分类","address":"上海宝山路"},{"poiid":"B2094757D06AA2F5499C","title":"铁路博物馆","lon":"121.4764058","lat":"31.25003058","category":"182","category_name":"博物馆","address":"闸北区天目东路200号(近三号线宝山路站)"},{"poiid":"B2094757D06AABFE4993","title":"铁路文化宫","lon":"121.47159","lat":"31.24968","category":"179","category_name":"音乐厅","address":"闸北区王家宅路164号(民德路王家宅路)"},{"poiid":"B2094757D069A3FE4198","title":"闸北区图书馆","lon":"121.474","lat":"31.24822","category":"181","category_name":"图书馆","address":"闸北区天目中路6号(天目中路浙江北路)"},{"poiid":"B2094757D068A3FD4492","title":"水上威尼斯(永兴路会所)","lon":"121.473073966","lat":"31.2533929252","category":"149","category_name":"洗浴推拿场所","address":"上海闸北区永兴路258弄1号(近会文路)"},{"poiid":"B2094757D06FABFC409A","title":"新梅大厦","lon":"121.47","lat":"31.2509","category":"46","category_name":"楼宇","address":"铁西卫工南街8―5号"},{"poiid":"B2094654D56DA1F4449B","title":"聚源大厦","lon":"121.473545","lat":"31.251552","category":"46","category_name":"楼宇","address":"上海市普陀区中山北路1777号"},{"poiid":"B2094757D064A7F4499E","title":"浙江北路天目路","lon":"121.47467","lat":"31.248947","category":"500","category_name":"未知分类","address":"上海浙江北路天目路"},{"poiid":"B2094757D068A3FD4398","title":"唯一视觉(西藏北路店)","lon":"121.4732623","lat":"31.250697831","category":"249","category_name":"购物服务","address":"上海西藏北路605号兴中心c座2楼"},{"poiid":"B2094757D068ABFE459D","title":"上海铁路局上海客运段","lon":"121.472104","lat":"31.249152","category":"260","category_name":"其他","address":"上海闸北区民德路31号"},{"poiid":"B2094654D56DA1F5489A","title":"上海楚天大酒店","lon":"121.47308","lat":"31.25211","category":"76","category_name":"上海菜","address":"闸北区虬江路1011号(近西藏北路)"},{"poiid":"B2094757D06BA2FB499B","title":"New BoBo(原BOBO'S BAR)","lon":"121.473081","lat":"31.25211","category":"172","category_name":"酒吧","address":"上海 閘北區 虬江路1011號 坦福酒店三樓(近會文璐)"},{"poiid":"B2094757D068A5F9449C","title":"SOMI(大悦城店)","lon":"121.46940193","lat":"31.251404648","category":"67","category_name":"甜品店","address":"上海闸北区西藏北路180号大悦城7F-08"},{"poiid":"B2094654DB69AAF8429C","title":"水上威尼斯浴场餐厅","lon":"121.4735","lat":"31.25266","category":"76","category_name":"上海菜","address":"上海市闸北区永兴路258号弄1号"},{"poiid":"B2094654D56DA1FB449A","title":"上海纺织工业职工大学针织分校","lon":"121.47204","lat":"31.25109","category":"52","category_name":"高等院校","address":"闸北区虬江路1078号"},{"poiid":"B2094752D76BA2FD4593","title":"虹桥机场2号航站楼","lon":"121.473502","lat":"31.248145","category":"500","category_name":"未知分类","address":"虹桥机场"},{"poiid":"B2094654D56DA1F44699","title":"上海会都大酒店","lon":"121.47373","lat":"31.25089","category":"68","category_name":"快餐厅","address":"闸北区会文路2号"},{"poiid":"B2094752D16BA4FC449A","title":"东宝兴路地铁站","lon":"121.473479","lat":"31.250141","category":"36","category_name":"地铁站","address":null},{"poiid":"B2094750D66CABFA4093","title":"大悦城 板长寿司","lon":"121.473594","lat":"31.249837","category":"500","category_name":"未知分类","address":"西藏北路"},{"poiid":"B2094654DB64A7F4439A","title":"绿地海悦酒店公寓","lon":"121.473","lat":"31.2489","category":"214","category_name":"四星级宾馆","address":"闸北区乌镇路118号"},{"poiid":"B2094757DB69A1F94099","title":"上海铁路局","lon":"121.473663","lat":"31.252436","category":"252","category_name":"楼宇机构","address":"闸北区天目东路80号"},{"poiid":"B2094655D265A7F4459B","title":"中铁24局集团公司办公大楼","lon":"121.47359","lat":"31.25108","category":"46","category_name":"楼宇","address":"会文路2号"},{"poiid":"B2094654D56DA1FB4199","title":"红厦公寓","lon":"121.47144","lat":"31.249865","category":"47","category_name":"住宅区","address":"闸北区名德路59号"},{"poiid":"B2094655D265A6F4449F","title":"功立餐厅老干部部","lon":"121.472","lat":"31.24958","category":"257","category_name":"中餐厅","address":""},{"poiid":"B2094757D169A0F44793","title":"南星大楼","lon":"121.47179706951","lat":"31.249361507226","category":"47","category_name":"住宅区","address":"上海市闸北区天目中路"},{"poiid":"B2094757D16FA7F5489D","title":"会文路3号","lon":"121.473611103","lat":"31.2503580031","category":"47","category_name":"住宅区","address":null},{"poiid":"B2094654D56DA1FB409A","title":"上海铁路印刷有限公司","lon":"121.47236","lat":"31.2501","category":"263","category_name":"公司","address":"虬江路1150号局东村21号"},{"poiid":"B2094757D169A2FF439D","title":"罗森便利(武昌路店)","lon":"121.473372934","lat":"31.2496077274","category":"117","category_name":"便民商店/便利店","address":"上海虹口区武昌路537弄3号  "},{"poiid":"B2094654D56DA1FA4993","title":"上海铁路局上海工务段","lon":"121.47276","lat":"31.24956","category":"263","category_name":"公司","address":""},{"poiid":"B2094757D06AA4F84092","title":"虬江路1150号局西村","lon":"121.472364","lat":"31.250103","category":"500","category_name":"未知分类","address":"上海虬江路1150号"},{"poiid":"B2094655D26FA6F8479A","title":"7天连锁酒店(宝山路店)","lon":"121.47512","lat":"31.25132","category":"216","category_name":"经济型连锁酒店","address":"闸北区交通路40号(近虬江路)"},{"poiid":"B2094655D26FA6FA4293","title":"上海纺织工业职工大学针织分校(北门)","lon":"121.47203","lat":"31.2511","category":"52","category_name":"高等院校","address":"虬江路1078号"},{"poiid":"B2094654D56DA1FB4298","title":"上海铁路红厦实业有限公司王家宅公寓","lon":"121.47142","lat":"31.25018","category":"47","category_name":"住宅区","address":"王家宅路121号"},{"poiid":"B2094654DA6FA2FC459C","title":"天目大楼","lon":"121.476","lat":"31.2518","category":"46","category_name":"楼宇","address":"浦东区崂山东路410号"},{"poiid":"B2094654DB64A4FC429A","title":"上海市第十人民医院第二门诊部","lon":"121.47235","lat":"31.2517","category":"162","category_name":"医院","address":"虬江路1057号"},{"poiid":"B2094655D26FA7FA479A","title":"上海铁路红厦实业有限公司王家宅公寓(东门)","lon":"121.47146","lat":"31.25016","category":"47","category_name":"住宅区","address":"王家宅路121"},{"poiid":"B2094654D56DA1FB4292","title":"虬江大楼","lon":"121.47118","lat":"31.250402","category":"47","category_name":"住宅区","address":"虬江路1120号"},{"poiid":"B2094757D064A3FF4399","title":"招商银行(天目支行)","lon":"121.47402191","lat":"31.249061584","category":"150","category_name":"银行","address":"闸北区天目西路451-469号(长寿路天目西路)"},{"poiid":"B2094757D66EAAFE449D","title":"上海客运段客技站拉萨车","lon":"121.472366603","lat":"31.2494327837","category":"500","category_name":"未知分类","address":null},{"poiid":"B2094654D56DA1FB4293","title":"快客No.835","lon":"121.47113","lat":"31.25058","category":"117","category_name":"便民商店/便利店","address":"虬江路1130"},{"poiid":"B2094654DA6FA2FE419B","title":"小肖烧烤","lon":"121.47401","lat":"31.24805","category":"68","category_name":"快餐厅","address":"闸北区浙江北路403弄弄堂口(塘沽路浙江北路)"},{"poiid":"B2094655D26FA7F8479F","title":"闸北区第三中心小学","lon":"121.47289","lat":"31.25379","category":"56","category_name":"小学","address":"闸北区永兴路211号(公兴路永兴路)"},{"poiid":"B2094655D36DA6FF4992","title":"上海金逸院线新恒星影城","lon":"121.46933","lat":"31.25147","category":"178","category_name":"电影院","address":"上海市闸北区西藏北路166号大悦城10-11楼"},{"poiid":"B2094757DB6EA6FE469C","title":"上海铭德大酒店","lon":"121.470063329","lat":"31.251024786","category":"213","category_name":"五星级宾馆","address":"上海市闸北区西藏北路558号(上海火车站地区,近虬江路)"},{"poiid":"B2094757D06FA1FD419F","title":"铭德莱星顿广场酒店","lon":"121.47000877","lat":"31.251120658","category":"213","category_name":"五星级宾馆","address":"上海闸北区西藏北路558号(虬江路口)"},{"poiid":"B209475CD564A7F8439E","title":"上海滩中信泰富店","lon":"121.45602","lat":"31.22851","category":"119","category_name":"商场","address":"\"南京西路1168号中信泰富广场，店铺号221.\r\n\""},{"poiid":"B2094757D06FA6F9489D","title":"市北中学","lon":"121.47051","lat":"31.25192","category":"55","category_name":"中学","address":"闸北区永兴路365号(民德路永兴路)"},{"poiid":"B2094757D168A5F4409F","title":"地铁三、四号线上海站","lon":"121.4723053","lat":"31.249360982","category":"500","category_name":"未知分类","address":"上海地铁三、四号线上海站"},{"poiid":"B2094654DA6FAAF9499B","title":"凯旋门大厦","lon":"121.473","lat":"31.2497","category":"46","category_name":"楼宇","address":"龙蟠南路33号(龙蟠南路与秦虹路交汇处,秦淮区政府对面)"},{"poiid":"B2094751D46EA3FA479F","title":"捞王猪肚鸡","lon":"121.4721395","lat":"31.2521098","category":"247","category_name":"餐饮美食","address":"虹口区四川北路1318号盛邦国际大厦3楼(近武进路)"},{"poiid":"B2094757D06AA6FF4699","title":"宝山路","lon":"121.4729591","lat":"31.24928998","category":"500","category_name":"未知分类","address":"上海宝山路"},{"poiid":"B2094757D06AA2F5499C","title":"铁路博物馆","lon":"121.4764058","lat":"31.25003058","category":"182","category_name":"博物馆","address":"闸北区天目东路200号(近三号线宝山路站)"},{"poiid":"B2094757D06AABFE4993","title":"铁路文化宫","lon":"121.47159","lat":"31.24968","category":"179","category_name":"音乐厅","address":"闸北区王家宅路164号(民德路王家宅路)"},{"poiid":"B2094757D069A3FE4198","title":"闸北区图书馆","lon":"121.474","lat":"31.24822","category":"181","category_name":"图书馆","address":"闸北区天目中路6号(天目中路浙江北路)"},{"poiid":"B2094757D068A3FD4492","title":"水上威尼斯(永兴路会所)","lon":"121.473073966","lat":"31.2533929252","category":"149","category_name":"洗浴推拿场所","address":"上海闸北区永兴路258弄1号(近会文路)"},{"poiid":"B2094757D06FABFC409A","title":"新梅大厦","lon":"121.47","lat":"31.2509","category":"46","category_name":"楼宇","address":"铁西卫工南街8―5号"},{"poiid":"B2094654D56DA1F4449B","title":"聚源大厦","lon":"121.473545","lat":"31.251552","category":"46","category_name":"楼宇","address":"上海市普陀区中山北路1777号"},{"poiid":"B2094757D064A7F4499E","title":"浙江北路天目路","lon":"121.47467","lat":"31.248947","category":"500","category_name":"未知分类","address":"上海浙江北路天目路"},{"poiid":"B2094757D068A3FD4398","title":"唯一视觉(西藏北路店)","lon":"121.4732623","lat":"31.250697831","category":"249","category_name":"购物服务","address":"上海西藏北路605号兴中心c座2楼"},{"poiid":"B2094757D068ABFE459D","title":"上海铁路局上海客运段","lon":"121.472104","lat":"31.249152","category":"260","category_name":"其他","address":"上海闸北区民德路31号"},{"poiid":"B2094654D56DA1F5489A","title":"上海楚天大酒店","lon":"121.47308","lat":"31.25211","category":"76","category_name":"上海菜","address":"闸北区虬江路1011号(近西藏北路)"},{"poiid":"B2094757D06BA2FB499B","title":"New BoBo(原BOBO'S BAR)","lon":"121.473081","lat":"31.25211","category":"172","category_name":"酒吧","address":"上海 閘北區 虬江路1011號 坦福酒店三樓(近會文璐)"},{"poiid":"B2094757D068A5F9449C","title":"SOMI(大悦城店)","lon":"121.46940193","lat":"31.251404648","category":"67","category_name":"甜品店","address":"上海闸北区西藏北路180号大悦城7F-08"},{"poiid":"B2094654DB69AAF8429C","title":"水上威尼斯浴场餐厅","lon":"121.4735","lat":"31.25266","category":"76","category_name":"上海菜","address":"上海市闸北区永兴路258号弄1号"},{"poiid":"B2094654D56DA1FB449A","title":"上海纺织工业职工大学针织分校","lon":"121.47204","lat":"31.25109","category":"52","category_name":"高等院校","address":"闸北区虬江路1078号"},{"poiid":"B2094752D76BA2FD4593","title":"虹桥机场2号航站楼","lon":"121.473502","lat":"31.248145","category":"500","category_name":"未知分类","address":"虹桥机场"},{"poiid":"B2094654D56DA1F44699","title":"上海会都大酒店","lon":"121.47373","lat":"31.25089","category":"68","category_name":"快餐厅","address":"闸北区会文路2号"},{"poiid":"B2094752D16BA4FC449A","title":"东宝兴路地铁站","lon":"121.473479","lat":"31.250141","category":"36","category_name":"地铁站","address":null},{"poiid":"B2094750D66CABFA4093","title":"大悦城 板长寿司","lon":"121.473594","lat":"31.249837","category":"500","category_name":"未知分类","address":"西藏北路"},{"poiid":"B2094654DB64A7F4439A","title":"绿地海悦酒店公寓","lon":"121.473","lat":"31.2489","category":"214","category_name":"四星级宾馆","address":"闸北区乌镇路118号"},{"poiid":"B2094757DB69A1F94099","title":"上海铁路局","lon":"121.473663","lat":"31.252436","category":"252","category_name":"楼宇机构","address":"闸北区天目东路80号"},{"poiid":"B2094655D265A7F4459B","title":"中铁24局集团公司办公大楼","lon":"121.47359","lat":"31.25108","category":"46","category_name":"楼宇","address":"会文路2号"},{"poiid":"B2094654D56DA1FB4199","title":"红厦公寓","lon":"121.47144","lat":"31.249865","category":"47","category_name":"住宅区","address":"闸北区名德路59号"},{"poiid":"B2094655D265A6F4449F","title":"功立餐厅老干部部","lon":"121.472","lat":"31.24958","category":"257","category_name":"中餐厅","address":""},{"poiid":"B2094757D169A0F44793","title":"南星大楼","lon":"121.47179706951","lat":"31.249361507226","category":"47","category_name":"住宅区","address":"上海市闸北区天目中路"},{"poiid":"B2094757D16FA7F5489D","title":"会文路3号","lon":"121.473611103","lat":"31.2503580031","category":"47","category_name":"住宅区","address":null},{"poiid":"B2094654D56DA1FB409A","title":"上海铁路印刷有限公司","lon":"121.47236","lat":"31.2501","category":"263","category_name":"公司","address":"虬江路1150号局东村21号"},{"poiid":"B2094757D169A2FF439D","title":"罗森便利(武昌路店)","lon":"121.473372934","lat":"31.2496077274","category":"117","category_name":"便民商店/便利店","address":"上海虹口区武昌路537弄3号  "},{"poiid":"B2094654D56DA1FA4993","title":"上海铁路局上海工务段","lon":"121.47276","lat":"31.24956","category":"263","category_name":"公司","address":""},{"poiid":"B2094757D06AA4F84092","title":"虬江路1150号局西村","lon":"121.472364","lat":"31.250103","category":"500","category_name":"未知分类","address":"上海虬江路1150号"},{"poiid":"B2094655D26FA6F8479A","title":"7天连锁酒店(宝山路店)","lon":"121.47512","lat":"31.25132","category":"216","category_name":"经济型连锁酒店","address":"闸北区交通路40号(近虬江路)"},{"poiid":"B2094655D26FA6FA4293","title":"上海纺织工业职工大学针织分校(北门)","lon":"121.47203","lat":"31.2511","category":"52","category_name":"高等院校","address":"虬江路1078号"},{"poiid":"B2094654D56DA1FB4298","title":"上海铁路红厦实业有限公司王家宅公寓","lon":"121.47142","lat":"31.25018","category":"47","category_name":"住宅区","address":"王家宅路121号"},{"poiid":"B2094654DA6FA2FC459C","title":"天目大楼","lon":"121.476","lat":"31.2518","category":"46","category_name":"楼宇","address":"浦东区崂山东路410号"},{"poiid":"B2094654DB64A4FC429A","title":"上海市第十人民医院第二门诊部","lon":"121.47235","lat":"31.2517","category":"162","category_name":"医院","address":"虬江路1057号"},{"poiid":"B2094655D26FA7FA479A","title":"上海铁路红厦实业有限公司王家宅公寓(东门)","lon":"121.47146","lat":"31.25016","category":"47","category_name":"住宅区","address":"王家宅路121"},{"poiid":"B2094654D56DA1FB4292","title":"虬江大楼","lon":"121.47118","lat":"31.250402","category":"47","category_name":"住宅区","address":"虬江路1120号"},{"poiid":"B2094757D064A3FF4399","title":"招商银行(天目支行)","lon":"121.47402191","lat":"31.249061584","category":"150","category_name":"银行","address":"闸北区天目西路451-469号(长寿路天目西路)"},{"poiid":"B2094757D66EAAFE449D","title":"上海客运段客技站拉萨车","lon":"121.472366603","lat":"31.2494327837","category":"500","category_name":"未知分类","address":null},{"poiid":"B2094654D56DA1FB4293","title":"快客No.835","lon":"121.47113","lat":"31.25058","category":"117","category_name":"便民商店/便利店","address":"虬江路1130"},{"poiid":"B2094654DA6FA2FE419B","title":"小肖烧烤","lon":"121.47401","lat":"31.24805","category":"68","category_name":"快餐厅","address":"闸北区浙江北路403弄弄堂口(塘沽路浙江北路)"},{"poiid":"B2094655D26FA7F8479F","title":"闸北区第三中心小学","lon":"121.47289","lat":"31.25379","category":"56","category_name":"小学","address":"闸北区永兴路211号(公兴路永兴路)"},{"poiid":"B2094655D36DA6FF4992","title":"上海金逸院线新恒星影城","lon":"121.46933","lat":"31.25147","category":"178","category_name":"电影院","address":"上海市闸北区西藏北路166号大悦城10-11楼"},{"poiid":"B2094757DB6EA6FE469C","title":"上海铭德大酒店","lon":"121.470063329","lat":"31.251024786","category":"213","category_name":"五星级宾馆","address":"上海市闸北区西藏北路558号(上海火车站地区,近虬江路)"},{"poiid":"B2094757D06FA1FD419F","title":"铭德莱星顿广场酒店","lon":"121.47000877","lat":"31.251120658","category":"213","category_name":"五星级宾馆","address":"上海闸北区西藏北路558号(虬江路口)"},{"poiid":"B209475CD564A7F8439E","title":"上海滩中信泰富店","lon":"121.45602","lat":"31.22851","category":"119","category_name":"商场","address":"\"南京西路1168号中信泰富广场，店铺号221.\r\n\""},{"poiid":"B2094757D06FA6F9489D","title":"市北中学","lon":"121.47051","lat":"31.25192","category":"55","category_name":"中学","address":"闸北区永兴路365号(民德路永兴路)"},{"poiid":"B2094757D168A5F4409F","title":"地铁三、四号线上海站","lon":"121.4723053","lat":"31.249360982","category":"500","category_name":"未知分类","address":"上海地铁三、四号线上海站"},{"poiid":"B2094654DA6FAAF9499B","title":"凯旋门大厦","lon":"121.473","lat":"31.2497","category":"46","category_name":"楼宇","address":"龙蟠南路33号(龙蟠南路与秦虹路交汇处,秦淮区政府对面)"},{"poiid":"B2094751D46EA3FA479F","title":"捞王猪肚鸡","lon":"121.4721395","lat":"31.2521098","category":"247","category_name":"餐饮美食","address":"虹口区四川北路1318号盛邦国际大厦3楼(近武进路)"},{"poiid":"B2094757D06AA6FF4699","title":"宝山路","lon":"121.4729591","lat":"31.24928998","category":"500","category_name":"未知分类","address":"上海宝山路"},{"poiid":"B2094757D06AA2F5499C","title":"铁路博物馆","lon":"121.4764058","lat":"31.25003058","category":"182","category_name":"博物馆","address":"闸北区天目东路200号(近三号线宝山路站)"},{"poiid":"B2094757D06AABFE4993","title":"铁路文化宫","lon":"121.47159","lat":"31.24968","category":"179","category_name":"音乐厅","address":"闸北区王家宅路164号(民德路王家宅路)"},{"poiid":"B2094757D069A3FE4198","title":"闸北区图书馆","lon":"121.474","lat":"31.24822","category":"181","category_name":"图书馆","address":"闸北区天目中路6号(天目中路浙江北路)"},{"poiid":"B2094757D068A3FD4492","title":"水上威尼斯(永兴路会所)","lon":"121.473073966","lat":"31.2533929252","category":"149","category_name":"洗浴推拿场所","address":"上海闸北区永兴路258弄1号(近会文路)"},{"poiid":"B2094757D06FABFC409A","title":"新梅大厦","lon":"121.47","lat":"31.2509","category":"46","category_name":"楼宇","address":"铁西卫工南街8―5号"},{"poiid":"B2094654D56DA1F4449B","title":"聚源大厦","lon":"121.473545","lat":"31.251552","category":"46","category_name":"楼宇","address":"上海市普陀区中山北路1777号"},{"poiid":"B2094757D064A7F4499E","title":"浙江北路天目路","lon":"121.47467","lat":"31.248947","category":"500","category_name":"未知分类","address":"上海浙江北路天目路"},{"poiid":"B2094757D068A3FD4398","title":"唯一视觉(西藏北路店)","lon":"121.4732623","lat":"31.250697831","category":"249","category_name":"购物服务","address":"上海西藏北路605号兴中心c座2楼"},{"poiid":"B2094757D068ABFE459D","title":"上海铁路局上海客运段","lon":"121.472104","lat":"31.249152","category":"260","category_name":"其他","address":"上海闸北区民德路31号"},{"poiid":"B2094654D56DA1F5489A","title":"上海楚天大酒店","lon":"121.47308","lat":"31.25211","category":"76","category_name":"上海菜","address":"闸北区虬江路1011号(近西藏北路)"},{"poiid":"B2094757D06BA2FB499B","title":"New BoBo(原BOBO'S BAR)","lon":"121.473081","lat":"31.25211","category":"172","category_name":"酒吧","address":"上海 閘北區 虬江路1011號 坦福酒店三樓(近會文璐)"},{"poiid":"B2094757D068A5F9449C","title":"SOMI(大悦城店)","lon":"121.46940193","lat":"31.251404648","category":"67","category_name":"甜品店","address":"上海闸北区西藏北路180号大悦城7F-08"},{"poiid":"B2094654DB69AAF8429C","title":"水上威尼斯浴场餐厅","lon":"121.4735","lat":"31.25266","category":"76","category_name":"上海菜","address":"上海市闸北区永兴路258号弄1号"},{"poiid":"B2094654D56DA1FB449A","title":"上海纺织工业职工大学针织分校","lon":"121.47204","lat":"31.25109","category":"52","category_name":"高等院校","address":"闸北区虬江路1078号"},{"poiid":"B2094752D76BA2FD4593","title":"虹桥机场2号航站楼","lon":"121.473502","lat":"31.248145","category":"500","category_name":"未知分类","address":"虹桥机场"},{"poiid":"B2094654D56DA1F44699","title":"上海会都大酒店","lon":"121.47373","lat":"31.25089","category":"68","category_name":"快餐厅","address":"闸北区会文路2号"},{"poiid":"B2094752D16BA4FC449A","title":"东宝兴路地铁站","lon":"121.473479","lat":"31.250141","category":"36","category_name":"地铁站","address":null},{"poiid":"B2094750D66CABFA4093","title":"大悦城 板长寿司","lon":"121.473594","lat":"31.249837","category":"500","category_name":"未知分类","address":"西藏北路"},{"poiid":"B2094654DB64A7F4439A","title":"绿地海悦酒店公寓","lon":"121.473","lat":"31.2489","category":"214","category_name":"四星级宾馆","address":"闸北区乌镇路118号"},{"poiid":"B2094757DB69A1F94099","title":"上海铁路局","lon":"121.473663","lat":"31.252436","category":"252","category_name":"楼宇机构","address":"闸北区天目东路80号"},{"poiid":"B2094655D265A7F4459B","title":"中铁24局集团公司办公大楼","lon":"121.47359","lat":"31.25108","category":"46","category_name":"楼宇","address":"会文路2号"},{"poiid":"B2094654D56DA1FB4199","title":"红厦公寓","lon":"121.47144","lat":"31.249865","category":"47","category_name":"住宅区","address":"闸北区名德路59号"},{"poiid":"B2094655D265A6F4449F","title":"功立餐厅老干部部","lon":"121.472","lat":"31.24958","category":"257","category_name":"中餐厅","address":""},{"poiid":"B2094757D169A0F44793","title":"南星大楼","lon":"121.47179706951","lat":"31.249361507226","category":"47","category_name":"住宅区","address":"上海市闸北区天目中路"},{"poiid":"B2094757D16FA7F5489D","title":"会文路3号","lon":"121.473611103","lat":"31.2503580031","category":"47","category_name":"住宅区","address":null},{"poiid":"B2094654D56DA1FB409A","title":"上海铁路印刷有限公司","lon":"121.47236","lat":"31.2501","category":"263","category_name":"公司","address":"虬江路1150号局东村21号"},{"poiid":"B2094757D169A2FF439D","title":"罗森便利(武昌路店)","lon":"121.473372934","lat":"31.2496077274","category":"117","category_name":"便民商店/便利店","address":"上海虹口区武昌路537弄3号  "},{"poiid":"B2094654D56DA1FA4993","title":"上海铁路局上海工务段","lon":"121.47276","lat":"31.24956","category":"263","category_name":"公司","address":""},{"poiid":"B2094757D06AA4F84092","title":"虬江路1150号局西村","lon":"121.472364","lat":"31.250103","category":"500","category_name":"未知分类","address":"上海虬江路1150号"},{"poiid":"B2094655D26FA6F8479A","title":"7天连锁酒店(宝山路店)","lon":"121.47512","lat":"31.25132","category":"216","category_name":"经济型连锁酒店","address":"闸北区交通路40号(近虬江路)"},{"poiid":"B2094655D26FA6FA4293","title":"上海纺织工业职工大学针织分校(北门)","lon":"121.47203","lat":"31.2511","category":"52","category_name":"高等院校","address":"虬江路1078号"},{"poiid":"B2094654D56DA1FB4298","title":"上海铁路红厦实业有限公司王家宅公寓","lon":"121.47142","lat":"31.25018","category":"47","category_name":"住宅区","address":"王家宅路121号"},{"poiid":"B2094654DA6FA2FC459C","title":"天目大楼","lon":"121.476","lat":"31.2518","category":"46","category_name":"楼宇","address":"浦东区崂山东路410号"},{"poiid":"B2094654DB64A4FC429A","title":"上海市第十人民医院第二门诊部","lon":"121.47235","lat":"31.2517","category":"162","category_name":"医院","address":"虬江路1057号"},{"poiid":"B2094655D26FA7FA479A","title":"上海铁路红厦实业有限公司王家宅公寓(东门)","lon":"121.47146","lat":"31.25016","category":"47","category_name":"住宅区","address":"王家宅路121"},{"poiid":"B2094654D56DA1FB4292","title":"虬江大楼","lon":"121.47118","lat":"31.250402","category":"47","category_name":"住宅区","address":"虬江路1120号"},{"poiid":"B2094757D064A3FF4399","title":"招商银行(天目支行)","lon":"121.47402191","lat":"31.249061584","category":"150","category_name":"银行","address":"闸北区天目西路451-469号(长寿路天目西路)"},{"poiid":"B2094757D66EAAFE449D","title":"上海客运段客技站拉萨车","lon":"121.472366603","lat":"31.2494327837","category":"500","category_name":"未知分类","address":null},{"poiid":"B2094654D56DA1FB4293","title":"快客No.835","lon":"121.47113","lat":"31.25058","category":"117","category_name":"便民商店/便利店","address":"虬江路1130"},{"poiid":"B2094654DA6FA2FE419B","title":"小肖烧烤","lon":"121.47401","lat":"31.24805","category":"68","category_name":"快餐厅","address":"闸北区浙江北路403弄弄堂口(塘沽路浙江北路)"},{"poiid":"B2094655D26FA7F8479F","title":"闸北区第三中心小学","lon":"121.47289","lat":"31.25379","category":"56","category_name":"小学","address":"闸北区永兴路211号(公兴路永兴路)"}]