[{"poiid":"B2094757D06FABF8449F","title":"美年健康(天山路店)","lon":"121.3779","lat":"31.21599","category":"162","category_name":"医院","address":"长宁区天山路8号(近哈密路)"},{"poiid":"B2094655D26BA2F84793","title":"天山路威宁路","lon":"121.387424","lat":"31.214728","category":"38","category_name":"公交车站","address":""},{"poiid":"B2094757D06FA1FB4693","title":"大城小爱","lon":"121.38532554","lat":"31.215015353","category":"253","category_name":"校园生活","address":"上海威宁路341号缤谷广场三楼"},{"poiid":"B2094655D26EA1F44193","title":"天涯海角","lon":"121.38126","lat":"31.21603","category":"149","category_name":"洗浴推拿场所","address":"长宁区天山路186-192号(近北虹路)"},{"poiid":"B2094757D068ABFC4193","title":"元化门诊体检中心","lon":"121.37857","lat":"31.21568","category":"162","category_name":"医院","address":"长宁区天山路30号3楼(近哈密路)"},{"poiid":"B2094757D06FA1FA449E","title":"巴黎贝甜(天山路店)","lon":"121.38536688","lat":"31.214406154","category":"67","category_name":"甜品店","address":"长宁区天山路341号缤谷文化休闲广场1楼西首(近威宁路)"},{"poiid":"B2094655D26BA6FB439F","title":"天山怡景苑","lon":"121.38357","lat":"31.218071","category":"47","category_name":"住宅区","address":"上海市长宁区威宁路511弄"},{"poiid":"B2094757D068A1FC489A","title":"元丰天山花园河风丽景","lon":"121.378892586","lat":"31.2177991879","category":"500","category_name":"未知分类","address":"上海市长宁区天山路88弄"},{"poiid":"B2094752D36DA3F8419A","title":"17.5北虹广场影城","lon":"121.37678951025009","lat":"31.21515273321473","category":"178","category_name":"电影院","address":"上海长宁区北虹路1068号第四层B区(世纪联华)"},{"poiid":"B2094654DB69A5FF4293","title":"莫泰168连锁旅店(天山路店)","lon":"121.37976","lat":"31.21633","category":"216","category_name":"经济型连锁酒店","address":"长宁区天山路78号(近哈密路)"},{"poiid":"B2094757D068A6F94599","title":"长宁区社保中心","lon":"121.379334","lat":"31.216286","category":"500","category_name":"未知分类","address":"长宁区天山路38号(近哈密路)"},{"poiid":"B2094757D069AAFF469F","title":"仙霞大郡","lon":"121.38","lat":"31.2159","category":"47","category_name":"住宅区","address":"仙霞大郡位于长宁仙霞路1225弄"},{"poiid":"B2094757D168A5F4439E","title":"上海蓝山国际青年旅舍虹桥店","lon":"121.377748","lat":"31.218365","category":"500","category_name":"未知分类","address":"上海市长宁区哈密路108号(近长宁路)"},{"poiid":"B2094757D069A1FA419D","title":"大桶大足浴(天山店)","lon":"121.382177586","lat":"31.2170111725","category":"149","category_name":"洗浴推拿场所","address":"长宁区双流路271号(近长宁路)"},{"poiid":"B2094757D16FA3F8439B","title":"天山路哈密路","lon":"121.375707586","lat":"31.2166701658","category":"500","category_name":"未知分类","address":"上海市长宁区天山西路"},{"poiid":"B2094757D169A7FE439D","title":"天山新苑","lon":"121.38212","lat":"31.217104","category":"47","category_name":"住宅区","address":"上海市长宁区天山路202弄"},{"poiid":"B2094654D56BA6FD419D","title":"南洋新都","lon":"121.38235","lat":"31.214426","category":"47","category_name":"住宅区","address":"上海市长宁区天山路177弄"},{"poiid":"B2094757D06FA6FE419B","title":"世纪联华(天山店)","lon":"121.37688663","lat":"31.214867087","category":"118","category_name":"超级市场","address":"长宁区北虹路1068号(北虹路哈密路)"},{"poiid":"B209475CD16CAAFA499C","title":"丰收日大酒店 天山路店","lon":"121.37991","lat":"31.21615","category":"76","category_name":"上海菜","address":"天山路78号1-2楼近哈密路"},{"poiid":"B2094757D06FA3F94192","title":"JEANSTOPSALON(京世天山店)","lon":"121.37752","lat":"31.21582","category":"148","category_name":"美容美发店","address":"上海长宁区北渔路70-72号(近天山西路)"},{"poiid":"B2094757D06BA5F94599","title":"荷风轩","lon":"121.38569478","lat":"31.215802882","category":"247","category_name":"餐饮美食","address":"上海长宁区天山路341号缤谷文化休闲广场4楼"},{"poiid":"B2094654D56BA1FD4293","title":"绿康公寓","lon":"121.38139","lat":"31.216751","category":"47","category_name":"住宅区","address":"上海市长宁区天山路198弄"},{"poiid":"B2094752D268AAFD4592","title":"smiley peat斯比特意大利休闲餐厅","lon":"121.381003","lat":"31.218191","category":"247","category_name":"餐饮美食","address":"天山路341号缤谷文化休闲广场210单元"},{"poiid":"B2094654D56BA1FD4393","title":"元丰天山花园","lon":"121.3798","lat":"31.21747","category":"47","category_name":"住宅区","address":"双流路289"},{"poiid":"B2094757D16FA5FC449A","title":"天山路威宁路公交站","lon":"121.37989168","lat":"31.216061053","category":"38","category_name":"公交车站","address":"上海长宁区天山路(近威宁路)"},{"poiid":"B2094655D26BA0FA499D","title":"海逸综合大厦","lon":"121.37988","lat":"31.21588","category":"46","category_name":"楼宇","address":"天山路80号"},{"poiid":"B2094757D46BA4F94798","title":"图门烧烤 天山路店","lon":"121.37876","lat":"31.21589","category":"68","category_name":"快餐厅","address":"长宁区天山路55号(哈密路天山路)"},{"poiid":"B2094655D26BAAFE489D","title":"天山一期商务楼","lon":"121.37965","lat":"31.21631","category":"46","category_name":"楼宇","address":"天山路78弄"},{"poiid":"B2094654D56BA6FD429B","title":"宝地新品居","lon":"121.3811","lat":"31.21493","category":"47","category_name":"住宅区","address":"上海市长宁区双流路188弄"},{"poiid":"B2094757D16DA2F9429F","title":"丸子家","lon":"121.38152358","lat":"31.216940171","category":"247","category_name":"餐饮美食","address":null},{"poiid":"B2094757D768A4FF499A","title":"赛百味 天山路店 SUBWAY","lon":"121.38557","lat":"31.215048","category":"94","category_name":"西餐厅","address":"长宁区天山路341号缤谷文化休闲广场1楼(近威宁路)"},{"poiid":"B2094752D669AAFD4499","title":"外滩三号","lon":"121.380127","lat":"31.214615","category":"247","category_name":"餐饮美食","address":"黄浦区中山东路一号"},{"poiid":"B2094757D069A0FF4093","title":"日本流行屋","lon":"121.38071","lat":"31.2156","category":"141","category_name":"服装鞋帽皮具店","address":"上海长宁区天山路919号虹桥天都117-1商铺(近遵义路)"},{"poiid":"B2094654D56BA1FC469A","title":"海逸公寓","lon":"121.38379","lat":"31.216658","category":"47","category_name":"住宅区","address":"天山路288弄"},{"poiid":"B2094655D265A1FC449D","title":"可的超市(小金更店)","lon":"121.3819","lat":"31.2159","category":"117","category_name":"便民商店/便利店","address":"长宁区天山路204号(双流路天山路)"},{"poiid":"B2094757D165A0FC4498","title":"姚氏特色面","lon":"121.38063158","lat":"31.217556183","category":"247","category_name":"餐饮美食","address":"上海市长宁区北翟路"},{"poiid":"B2094752D56CA3FB479D","title":"BONNE STOCK","lon":"121.380855","lat":"31.218087","category":"247","category_name":"餐饮美食","address":"天山路356號長寧圖書館1樓"},{"poiid":"B2094654D56BA1FD4599","title":"快客No.6790","lon":"121.38107","lat":"31.21765","category":"117","category_name":"便民商店/便利店","address":"双流路330"},{"poiid":"B2094655D26EA1F94698","title":"河风丽景","lon":"121.37893","lat":"31.216497","category":"47","category_name":"住宅区","address":"河风丽景位于长宁天山路88弄(双流路口)"},{"poiid":"B2094654DB6BA0FC4392","title":"兆益科技园东楼","lon":"121.37812","lat":"31.21649","category":"46","category_name":"楼宇","address":"天山路18"},{"poiid":"B2094655D36CA1FE449E","title":"双流路天山路","lon":"121.38058","lat":"31.21396","category":"38","category_name":"公交车站","address":""},{"poiid":"B2094757D16FA0F8409B","title":"溢口香麻辣烫","lon":"121.3756","lat":"31.21615","category":"68","category_name":"快餐厅","address":"长宁区天山西路115号(北虹路天山西路)"},{"poiid":"B2094751DA6CA0FA409D","title":"高岛屋百货","lon":"121.3812520584906","lat":"31.21748431834925","category":"249","category_name":"购物服务","address":"长宁区虹桥路1438号"},{"poiid":"B2094654DB69A5FA4798","title":"中国电信(天山路营业厅)","lon":"121.38207","lat":"31.21546","category":"151","category_name":"电讯营业厅","address":"长宁区天山路169号(双流路口)"},{"poiid":"B2094757D16EA4FA409F","title":"香榭园","lon":"121.38273","lat":"31.21559","category":"162","category_name":"医院","address":"长宁区天山路185号(近威宁路)"},{"poiid":"B2094654D56BA6FD4393","title":"好德便利No.561","lon":"121.38247","lat":"31.21541","category":"117","category_name":"便民商店/便利店","address":"天山路181"},{"poiid":"B2094757D66EABFF429A","title":"长宁新实验幼儿园","lon":"121.38253558","lat":"31.217619184","category":"57","category_name":"幼儿园","address":"长宁区双流路380号(近长宁路)"},{"poiid":"B2094757D16EA7FE4193","title":"麦莱芙面包坊","lon":"121.385558","lat":"31.214928","category":"112","category_name":"糕饼店","address":"长宁区天山路341号缤谷文化休闲广场1楼104室(近威宁路)"},{"poiid":"B2094655D26FA0F44098","title":"兆益科技园西楼","lon":"121.37777","lat":"31.21648","category":"46","category_name":"楼宇","address":"天山路8"},{"poiid":"B2094757D16BA5FF469D","title":"香榭园宠物有限公司","lon":"121.38242258","lat":"31.216092154","category":"263","category_name":"公司","address":"上海天山路185号"},{"poiid":"B2094757D06FABF8449F","title":"美年健康(天山路店)","lon":"121.3779","lat":"31.21599","category":"162","category_name":"医院","address":"长宁区天山路8号(近哈密路)"},{"poiid":"B2094655D26BA2F84793","title":"天山路威宁路","lon":"121.387424","lat":"31.214728","category":"38","category_name":"公交车站","address":""},{"poiid":"B2094757D06FA1FB4693","title":"大城小爱","lon":"121.38532554","lat":"31.215015353","category":"253","category_name":"校园生活","address":"上海威宁路341号缤谷广场三楼"},{"poiid":"B2094655D26EA1F44193","title":"天涯海角","lon":"121.38126","lat":"31.21603","category":"149","category_name":"洗浴推拿场所","address":"长宁区天山路186-192号(近北虹路)"},{"poiid":"B2094757D068ABFC4193","title":"元化门诊体检中心","lon":"121.37857","lat":"31.21568","category":"162","category_name":"医院","address":"长宁区天山路30号3楼(近哈密路)"},{"poiid":"B2094757D06FA1FA449E","title":"巴黎贝甜(天山路店)","lon":"121.38536688","lat":"31.214406154","category":"67","category_name":"甜品店","address":"长宁区天山路341号缤谷文化休闲广场1楼西首(近威宁路)"},{"poiid":"B2094655D26BA6FB439F","title":"天山怡景苑","lon":"121.38357","lat":"31.218071","category":"47","category_name":"住宅区","address":"上海市长宁区威宁路511弄"},{"poiid":"B2094757D068A1FC489A","title":"元丰天山花园河风丽景","lon":"121.378892586","lat":"31.2177991879","category":"500","category_name":"未知分类","address":"上海市长宁区天山路88弄"},{"poiid":"B2094752D36DA3F8419A","title":"17.5北虹广场影城","lon":"121.37678951025009","lat":"31.21515273321473","category":"178","category_name":"电影院","address":"上海长宁区北虹路1068号第四层B区(世纪联华)"},{"poiid":"B2094654DB69A5FF4293","title":"莫泰168连锁旅店(天山路店)","lon":"121.37976","lat":"31.21633","category":"216","category_name":"经济型连锁酒店","address":"长宁区天山路78号(近哈密路)"},{"poiid":"B2094757D068A6F94599","title":"长宁区社保中心","lon":"121.379334","lat":"31.216286","category":"500","category_name":"未知分类","address":"长宁区天山路38号(近哈密路)"},{"poiid":"B2094757D069AAFF469F","title":"仙霞大郡","lon":"121.38","lat":"31.2159","category":"47","category_name":"住宅区","address":"仙霞大郡位于长宁仙霞路1225弄"},{"poiid":"B2094757D168A5F4439E","title":"上海蓝山国际青年旅舍虹桥店","lon":"121.377748","lat":"31.218365","category":"500","category_name":"未知分类","address":"上海市长宁区哈密路108号(近长宁路)"},{"poiid":"B2094757D069A1FA419D","title":"大桶大足浴(天山店)","lon":"121.382177586","lat":"31.2170111725","category":"149","category_name":"洗浴推拿场所","address":"长宁区双流路271号(近长宁路)"},{"poiid":"B2094757D16FA3F8439B","title":"天山路哈密路","lon":"121.375707586","lat":"31.2166701658","category":"500","category_name":"未知分类","address":"上海市长宁区天山西路"},{"poiid":"B2094757D169A7FE439D","title":"天山新苑","lon":"121.38212","lat":"31.217104","category":"47","category_name":"住宅区","address":"上海市长宁区天山路202弄"},{"poiid":"B2094654D56BA6FD419D","title":"南洋新都","lon":"121.38235","lat":"31.214426","category":"47","category_name":"住宅区","address":"上海市长宁区天山路177弄"},{"poiid":"B2094757D06FA6FE419B","title":"世纪联华(天山店)","lon":"121.37688663","lat":"31.214867087","category":"118","category_name":"超级市场","address":"长宁区北虹路1068号(北虹路哈密路)"},{"poiid":"B209475CD16CAAFA499C","title":"丰收日大酒店 天山路店","lon":"121.37991","lat":"31.21615","category":"76","category_name":"上海菜","address":"天山路78号1-2楼近哈密路"},{"poiid":"B2094757D06FA3F94192","title":"JEANSTOPSALON(京世天山店)","lon":"121.37752","lat":"31.21582","category":"148","category_name":"美容美发店","address":"上海长宁区北渔路70-72号(近天山西路)"},{"poiid":"B2094757D06BA5F94599","title":"荷风轩","lon":"121.38569478","lat":"31.215802882","category":"247","category_name":"餐饮美食","address":"上海长宁区天山路341号缤谷文化休闲广场4楼"},{"poiid":"B2094654D56BA1FD4293","title":"绿康公寓","lon":"121.38139","lat":"31.216751","category":"47","category_name":"住宅区","address":"上海市长宁区天山路198弄"},{"poiid":"B2094752D268AAFD4592","title":"smiley peat斯比特意大利休闲餐厅","lon":"121.381003","lat":"31.218191","category":"247","category_name":"餐饮美食","address":"天山路341号缤谷文化休闲广场210单元"},{"poiid":"B2094654D56BA1FD4393","title":"元丰天山花园","lon":"121.3798","lat":"31.21747","category":"47","category_name":"住宅区","address":"双流路289"},{"poiid":"B2094757D16FA5FC449A","title":"天山路威宁路公交站","lon":"121.37989168","lat":"31.216061053","category":"38","category_name":"公交车站","address":"上海长宁区天山路(近威宁路)"},{"poiid":"B2094655D26BA0FA499D","title":"海逸综合大厦","lon":"121.37988","lat":"31.21588","category":"46","category_name":"楼宇","address":"天山路80号"},{"poiid":"B2094757D46BA4F94798","title":"图门烧烤 天山路店","lon":"121.37876","lat":"31.21589","category":"68","category_name":"快餐厅","address":"长宁区天山路55号(哈密路天山路)"},{"poiid":"B2094655D26BAAFE489D","title":"天山一期商务楼","lon":"121.37965","lat":"31.21631","category":"46","category_name":"楼宇","address":"天山路78弄"},{"poiid":"B2094654D56BA6FD429B","title":"宝地新品居","lon":"121.3811","lat":"31.21493","category":"47","category_name":"住宅区","address":"上海市长宁区双流路188弄"},{"poiid":"B2094757D16DA2F9429F","title":"丸子家","lon":"121.38152358","lat":"31.216940171","category":"247","category_name":"餐饮美食","address":null},{"poiid":"B2094757D768A4FF499A","title":"赛百味 天山路店 SUBWAY","lon":"121.38557","lat":"31.215048","category":"94","category_name":"西餐厅","address":"长宁区天山路341号缤谷文化休闲广场1楼(近威宁路)"},{"poiid":"B2094752D669AAFD4499","title":"外滩三号","lon":"121.380127","lat":"31.214615","category":"247","category_name":"餐饮美食","address":"黄浦区中山东路一号"},{"poiid":"B2094757D069A0FF4093","title":"日本流行屋","lon":"121.38071","lat":"31.2156","category":"141","category_name":"服装鞋帽皮具店","address":"上海长宁区天山路919号虹桥天都117-1商铺(近遵义路)"},{"poiid":"B2094654D56BA1FC469A","title":"海逸公寓","lon":"121.38379","lat":"31.216658","category":"47","category_name":"住宅区","address":"天山路288弄"},{"poiid":"B2094655D265A1FC449D","title":"可的超市(小金更店)","lon":"121.3819","lat":"31.2159","category":"117","category_name":"便民商店/便利店","address":"长宁区天山路204号(双流路天山路)"},{"poiid":"B2094757D165A0FC4498","title":"姚氏特色面","lon":"121.38063158","lat":"31.217556183","category":"247","category_name":"餐饮美食","address":"上海市长宁区北翟路"},{"poiid":"B2094752D56CA3FB479D","title":"BONNE STOCK","lon":"121.380855","lat":"31.218087","category":"247","category_name":"餐饮美食","address":"天山路356號長寧圖書館1樓"},{"poiid":"B2094654D56BA1FD4599","title":"快客No.6790","lon":"121.38107","lat":"31.21765","category":"117","category_name":"便民商店/便利店","address":"双流路330"},{"poiid":"B2094655D26EA1F94698","title":"河风丽景","lon":"121.37893","lat":"31.216497","category":"47","category_name":"住宅区","address":"河风丽景位于长宁天山路88弄(双流路口)"},{"poiid":"B2094654DB6BA0FC4392","title":"兆益科技园东楼","lon":"121.37812","lat":"31.21649","category":"46","category_name":"楼宇","address":"天山路18"},{"poiid":"B2094655D36CA1FE449E","title":"双流路天山路","lon":"121.38058","lat":"31.21396","category":"38","category_name":"公交车站","address":""},{"poiid":"B2094757D16FA0F8409B","title":"溢口香麻辣烫","lon":"121.3756","lat":"31.21615","category":"68","category_name":"快餐厅","address":"长宁区天山西路115号(北虹路天山西路)"},{"poiid":"B2094751DA6CA0FA409D","title":"高岛屋百货","lon":"121.3812520584906","lat":"31.21748431834925","category":"249","category_name":"购物服务","address":"长宁区虹桥路1438号"},{"poiid":"B2094654DB69A5FA4798","title":"中国电信(天山路营业厅)","lon":"121.38207","lat":"31.21546","category":"151","category_name":"电讯营业厅","address":"长宁区天山路169号(双流路口)"},{"poiid":"B2094757D16EA4FA409F","title":"香榭园","lon":"121.38273","lat":"31.21559","category":"162","category_name":"医院","address":"长宁区天山路185号(近威宁路)"},{"poiid":"B2094654D56BA6FD4393","title":"好德便利No.561","lon":"121.38247","lat":"31.21541","category":"117","category_name":"便民商店/便利店","address":"天山路181"},{"poiid":"B2094757D66EABFF429A","title":"长宁新实验幼儿园","lon":"121.38253558","lat":"31.217619184","category":"57","category_name":"幼儿园","address":"长宁区双流路380号(近长宁路)"},{"poiid":"B2094757D16EA7FE4193","title":"麦莱芙面包坊","lon":"121.385558","lat":"31.214928","category":"112","category_name":"糕饼店","address":"长宁区天山路341号缤谷文化休闲广场1楼104室(近威宁路)"},{"poiid":"B2094655D26FA0F44098","title":"兆益科技园西楼","lon":"121.37777","lat":"31.21648","category":"46","category_name":"楼宇","address":"天山路8"},{"poiid":"B2094757D16BA5FF469D","title":"香榭园宠物有限公司","lon":"121.38242258","lat":"31.216092154","category":"263","category_name":"公司","address":"上海天山路185号"},{"poiid":"B2094757D06FABF8449F","title":"美年健康(天山路店)","lon":"121.3779","lat":"31.21599","category":"162","category_name":"医院","address":"长宁区天山路8号(近哈密路)"},{"poiid":"B2094655D26BA2F84793","title":"天山路威宁路","lon":"121.387424","lat":"31.214728","category":"38","category_name":"公交车站","address":""},{"poiid":"B2094757D06FA1FB4693","title":"大城小爱","lon":"121.38532554","lat":"31.215015353","category":"253","category_name":"校园生活","address":"上海威宁路341号缤谷广场三楼"},{"poiid":"B2094655D26EA1F44193","title":"天涯海角","lon":"121.38126","lat":"31.21603","category":"149","category_name":"洗浴推拿场所","address":"长宁区天山路186-192号(近北虹路)"},{"poiid":"B2094757D068ABFC4193","title":"元化门诊体检中心","lon":"121.37857","lat":"31.21568","category":"162","category_name":"医院","address":"长宁区天山路30号3楼(近哈密路)"},{"poiid":"B2094757D06FA1FA449E","title":"巴黎贝甜(天山路店)","lon":"121.38536688","lat":"31.214406154","category":"67","category_name":"甜品店","address":"长宁区天山路341号缤谷文化休闲广场1楼西首(近威宁路)"},{"poiid":"B2094655D26BA6FB439F","title":"天山怡景苑","lon":"121.38357","lat":"31.218071","category":"47","category_name":"住宅区","address":"上海市长宁区威宁路511弄"},{"poiid":"B2094757D068A1FC489A","title":"元丰天山花园河风丽景","lon":"121.378892586","lat":"31.2177991879","category":"500","category_name":"未知分类","address":"上海市长宁区天山路88弄"},{"poiid":"B2094752D36DA3F8419A","title":"17.5北虹广场影城","lon":"121.37678951025009","lat":"31.21515273321473","category":"178","category_name":"电影院","address":"上海长宁区北虹路1068号第四层B区(世纪联华)"},{"poiid":"B2094654DB69A5FF4293","title":"莫泰168连锁旅店(天山路店)","lon":"121.37976","lat":"31.21633","category":"216","category_name":"经济型连锁酒店","address":"长宁区天山路78号(近哈密路)"},{"poiid":"B2094757D068A6F94599","title":"长宁区社保中心","lon":"121.379334","lat":"31.216286","category":"500","category_name":"未知分类","address":"长宁区天山路38号(近哈密路)"},{"poiid":"B2094757D069AAFF469F","title":"仙霞大郡","lon":"121.38","lat":"31.2159","category":"47","category_name":"住宅区","address":"仙霞大郡位于长宁仙霞路1225弄"},{"poiid":"B2094757D168A5F4439E","title":"上海蓝山国际青年旅舍虹桥店","lon":"121.377748","lat":"31.218365","category":"500","category_name":"未知分类","address":"上海市长宁区哈密路108号(近长宁路)"},{"poiid":"B2094757D069A1FA419D","title":"大桶大足浴(天山店)","lon":"121.382177586","lat":"31.2170111725","category":"149","category_name":"洗浴推拿场所","address":"长宁区双流路271号(近长宁路)"},{"poiid":"B2094757D16FA3F8439B","title":"天山路哈密路","lon":"121.375707586","lat":"31.2166701658","category":"500","category_name":"未知分类","address":"上海市长宁区天山西路"},{"poiid":"B2094757D169A7FE439D","title":"天山新苑","lon":"121.38212","lat":"31.217104","category":"47","category_name":"住宅区","address":"上海市长宁区天山路202弄"},{"poiid":"B2094654D56BA6FD419D","title":"南洋新都","lon":"121.38235","lat":"31.214426","category":"47","category_name":"住宅区","address":"上海市长宁区天山路177弄"},{"poiid":"B2094757D06FA6FE419B","title":"世纪联华(天山店)","lon":"121.37688663","lat":"31.214867087","category":"118","category_name":"超级市场","address":"长宁区北虹路1068号(北虹路哈密路)"},{"poiid":"B209475CD16CAAFA499C","title":"丰收日大酒店 天山路店","lon":"121.37991","lat":"31.21615","category":"76","category_name":"上海菜","address":"天山路78号1-2楼近哈密路"},{"poiid":"B2094757D06FA3F94192","title":"JEANSTOPSALON(京世天山店)","lon":"121.37752","lat":"31.21582","category":"148","category_name":"美容美发店","address":"上海长宁区北渔路70-72号(近天山西路)"},{"poiid":"B2094757D06BA5F94599","title":"荷风轩","lon":"121.38569478","lat":"31.215802882","category":"247","category_name":"餐饮美食","address":"上海长宁区天山路341号缤谷文化休闲广场4楼"},{"poiid":"B2094654D56BA1FD4293","title":"绿康公寓","lon":"121.38139","lat":"31.216751","category":"47","category_name":"住宅区","address":"上海市长宁区天山路198弄"},{"poiid":"B2094752D268AAFD4592","title":"smiley peat斯比特意大利休闲餐厅","lon":"121.381003","lat":"31.218191","category":"247","category_name":"餐饮美食","address":"天山路341号缤谷文化休闲广场210单元"},{"poiid":"B2094654D56BA1FD4393","title":"元丰天山花园","lon":"121.3798","lat":"31.21747","category":"47","category_name":"住宅区","address":"双流路289"},{"poiid":"B2094757D16FA5FC449A","title":"天山路威宁路公交站","lon":"121.37989168","lat":"31.216061053","category":"38","category_name":"公交车站","address":"上海长宁区天山路(近威宁路)"},{"poiid":"B2094655D26BA0FA499D","title":"海逸综合大厦","lon":"121.37988","lat":"31.21588","category":"46","category_name":"楼宇","address":"天山路80号"},{"poiid":"B2094757D46BA4F94798","title":"图门烧烤 天山路店","lon":"121.37876","lat":"31.21589","category":"68","category_name":"快餐厅","address":"长宁区天山路55号(哈密路天山路)"},{"poiid":"B2094655D26BAAFE489D","title":"天山一期商务楼","lon":"121.37965","lat":"31.21631","category":"46","category_name":"楼宇","address":"天山路78弄"},{"poiid":"B2094654D56BA6FD429B","title":"宝地新品居","lon":"121.3811","lat":"31.21493","category":"47","category_name":"住宅区","address":"上海市长宁区双流路188弄"},{"poiid":"B2094757D16DA2F9429F","title":"丸子家","lon":"121.38152358","lat":"31.216940171","category":"247","category_name":"餐饮美食","address":null},{"poiid":"B2094757D768A4FF499A","title":"赛百味 天山路店 SUBWAY","lon":"121.38557","lat":"31.215048","category":"94","category_name":"西餐厅","address":"长宁区天山路341号缤谷文化休闲广场1楼(近威宁路)"},{"poiid":"B2094752D669AAFD4499","title":"外滩三号","lon":"121.380127","lat":"31.214615","category":"247","category_name":"餐饮美食","address":"黄浦区中山东路一号"},{"poiid":"B2094757D069A0FF4093","title":"日本流行屋","lon":"121.38071","lat":"31.2156","category":"141","category_name":"服装鞋帽皮具店","address":"上海长宁区天山路919号虹桥天都117-1商铺(近遵义路)"},{"poiid":"B2094654D56BA1FC469A","title":"海逸公寓","lon":"121.38379","lat":"31.216658","category":"47","category_name":"住宅区","address":"天山路288弄"},{"poiid":"B2094655D265A1FC449D","title":"可的超市(小金更店)","lon":"121.3819","lat":"31.2159","category":"117","category_name":"便民商店/便利店","address":"长宁区天山路204号(双流路天山路)"},{"poiid":"B2094757D165A0FC4498","title":"姚氏特色面","lon":"121.38063158","lat":"31.217556183","category":"247","category_name":"餐饮美食","address":"上海市长宁区北翟路"},{"poiid":"B2094752D56CA3FB479D","title":"BONNE STOCK","lon":"121.380855","lat":"31.218087","category":"247","category_name":"餐饮美食","address":"天山路356號長寧圖書館1樓"},{"poiid":"B2094654D56BA1FD4599","title":"快客No.6790","lon":"121.38107","lat":"31.21765","category":"117","category_name":"便民商店/便利店","address":"双流路330"},{"poiid":"B2094655D26EA1F94698","title":"河风丽景","lon":"121.37893","lat":"31.216497","category":"47","category_name":"住宅区","address":"河风丽景位于长宁天山路88弄(双流路口)"},{"poiid":"B2094654DB6BA0FC4392","title":"兆益科技园东楼","lon":"121.37812","lat":"31.21649","category":"46","category_name":"楼宇","address":"天山路18"},{"poiid":"B2094655D36CA1FE449E","title":"双流路天山路","lon":"121.38058","lat":"31.21396","category":"38","category_name":"公交车站","address":""},{"poiid":"B2094757D16FA0F8409B","title":"溢口香麻辣烫","lon":"121.3756","lat":"31.21615","category":"68","category_name":"快餐厅","address":"长宁区天山西路115号(北虹路天山西路)"},{"poiid":"B2094751DA6CA0FA409D","title":"高岛屋百货","lon":"121.3812520584906","lat":"31.21748431834925","category":"249","category_name":"购物服务","address":"长宁区虹桥路1438号"},{"poiid":"B2094654DB69A5FA4798","title":"中国电信(天山路营业厅)","lon":"121.38207","lat":"31.21546","category":"151","category_name":"电讯营业厅","address":"长宁区天山路169号(双流路口)"},{"poiid":"B2094757D16EA4FA409F","title":"香榭园","lon":"121.38273","lat":"31.21559","category":"162","category_name":"医院","address":"长宁区天山路185号(近威宁路)"},{"poiid":"B2094654D56BA6FD4393","title":"好德便利No.561","lon":"121.38247","lat":"31.21541","category":"117","category_name":"便民商店/便利店","address":"天山路181"},{"poiid":"B2094757D66EABFF429A","title":"长宁新实验幼儿园","lon":"121.38253558","lat":"31.217619184","category":"57","category_name":"幼儿园","address":"长宁区双流路380号(近长宁路)"},{"poiid":"B2094757D16EA7FE4193","title":"麦莱芙面包坊","lon":"121.385558","lat":"31.214928","category":"112","category_name":"糕饼店","address":"长宁区天山路341号缤谷文化休闲广场1楼104室(近威宁路)"},{"poiid":"B2094655D26FA0F44098","title":"兆益科技园西楼","lon":"121.37777","lat":"31.21648","category":"46","category_name":"楼宇","address":"天山路8"},{"poiid":"B2094757D16BA5FF469D","title":"香榭园宠物有限公司","lon":"121.38242258","lat":"31.216092154","category":"263","category_name":"公司","address":"上海天山路185号"},{"poiid":"B2094757D06FABF8449F","title":"美年健康(天山路店)","lon":"121.3779","lat":"31.21599","category":"162","category_name":"医院","address":"长宁区天山路8号(近哈密路)"},{"poiid":"B2094655D26BA2F84793","title":"天山路威宁路","lon":"121.387424","lat":"31.214728","category":"38","category_name":"公交车站","address":""},{"poiid":"B2094757D06FA1FB4693","title":"大城小爱","lon":"121.38532554","lat":"31.215015353","category":"253","category_name":"校园生活","address":"上海威宁路341号缤谷广场三楼"},{"poiid":"B2094655D26EA1F44193","title":"天涯海角","lon":"121.38126","lat":"31.21603","category":"149","category_name":"洗浴推拿场所","address":"长宁区天山路186-192号(近北虹路)"},{"poiid":"B2094757D068ABFC4193","title":"元化门诊体检中心","lon":"121.37857","lat":"31.21568","category":"162","category_name":"医院","address":"长宁区天山路30号3楼(近哈密路)"},{"poiid":"B2094757D06FA1FA449E","title":"巴黎贝甜(天山路店)","lon":"121.38536688","lat":"31.214406154","category":"67","category_name":"甜品店","address":"长宁区天山路341号缤谷文化休闲广场1楼西首(近威宁路)"},{"poiid":"B2094655D26BA6FB439F","title":"天山怡景苑","lon":"121.38357","lat":"31.218071","category":"47","category_name":"住宅区","address":"上海市长宁区威宁路511弄"},{"poiid":"B2094757D068A1FC489A","title":"元丰天山花园河风丽景","lon":"121.378892586","lat":"31.2177991879","category":"500","category_name":"未知分类","address":"上海市长宁区天山路88弄"},{"poiid":"B2094752D36DA3F8419A","title":"17.5北虹广场影城","lon":"121.37678951025009","lat":"31.21515273321473","category":"178","category_name":"电影院","address":"上海长宁区北虹路1068号第四层B区(世纪联华)"},{"poiid":"B2094654DB69A5FF4293","title":"莫泰168连锁旅店(天山路店)","lon":"121.37976","lat":"31.21633","category":"216","category_name":"经济型连锁酒店","address":"长宁区天山路78号(近哈密路)"},{"poiid":"B2094757D068A6F94599","title":"长宁区社保中心","lon":"121.379334","lat":"31.216286","category":"500","category_name":"未知分类","address":"长宁区天山路38号(近哈密路)"},{"poiid":"B2094757D069AAFF469F","title":"仙霞大郡","lon":"121.38","lat":"31.2159","category":"47","category_name":"住宅区","address":"仙霞大郡位于长宁仙霞路1225弄"},{"poiid":"B2094757D168A5F4439E","title":"上海蓝山国际青年旅舍虹桥店","lon":"121.377748","lat":"31.218365","category":"500","category_name":"未知分类","address":"上海市长宁区哈密路108号(近长宁路)"},{"poiid":"B2094757D069A1FA419D","title":"大桶大足浴(天山店)","lon":"121.382177586","lat":"31.2170111725","category":"149","category_name":"洗浴推拿场所","address":"长宁区双流路271号(近长宁路)"},{"poiid":"B2094757D16FA3F8439B","title":"天山路哈密路","lon":"121.375707586","lat":"31.2166701658","category":"500","category_name":"未知分类","address":"上海市长宁区天山西路"},{"poiid":"B2094757D169A7FE439D","title":"天山新苑","lon":"121.38212","lat":"31.217104","category":"47","category_name":"住宅区","address":"上海市长宁区天山路202弄"},{"poiid":"B2094654D56BA6FD419D","title":"南洋新都","lon":"121.38235","lat":"31.214426","category":"47","category_name":"住宅区","address":"上海市长宁区天山路177弄"},{"poiid":"B2094757D06FA6FE419B","title":"世纪联华(天山店)","lon":"121.37688663","lat":"31.214867087","category":"118","category_name":"超级市场","address":"长宁区北虹路1068号(北虹路哈密路)"},{"poiid":"B209475CD16CAAFA499C","title":"丰收日大酒店 天山路店","lon":"121.37991","lat":"31.21615","category":"76","category_name":"上海菜","address":"天山路78号1-2楼近哈密路"},{"poiid":"B2094757D06FA3F94192","title":"JEANSTOPSALON(京世天山店)","lon":"121.37752","lat":"31.21582","category":"148","category_name":"美容美发店","address":"上海长宁区北渔路70-72号(近天山西路)"},{"poiid":"B2094757D06BA5F94599","title":"荷风轩","lon":"121.38569478","lat":"31.215802882","category":"247","category_name":"餐饮美食","address":"上海长宁区天山路341号缤谷文化休闲广场4楼"},{"poiid":"B2094654D56BA1FD4293","title":"绿康公寓","lon":"121.38139","lat":"31.216751","category":"47","category_name":"住宅区","address":"上海市长宁区天山路198弄"},{"poiid":"B2094752D268AAFD4592","title":"smiley peat斯比特意大利休闲餐厅","lon":"121.381003","lat":"31.218191","category":"247","category_name":"餐饮美食","address":"天山路341号缤谷文化休闲广场210单元"},{"poiid":"B2094654D56BA1FD4393","title":"元丰天山花园","lon":"121.3798","lat":"31.21747","category":"47","category_name":"住宅区","address":"双流路289"},{"poiid":"B2094757D16FA5FC449A","title":"天山路威宁路公交站","lon":"121.37989168","lat":"31.216061053","category":"38","category_name":"公交车站","address":"上海长宁区天山路(近威宁路)"},{"poiid":"B2094655D26BA0FA499D","title":"海逸综合大厦","lon":"121.37988","lat":"31.21588","category":"46","category_name":"楼宇","address":"天山路80号"},{"poiid":"B2094757D46BA4F94798","title":"图门烧烤 天山路店","lon":"121.37876","lat":"31.21589","category":"68","category_name":"快餐厅","address":"长宁区天山路55号(哈密路天山路)"},{"poiid":"B2094655D26BAAFE489D","title":"天山一期商务楼","lon":"121.37965","lat":"31.21631","category":"46","category_name":"楼宇","address":"天山路78弄"},{"poiid":"B2094654D56BA6FD429B","title":"宝地新品居","lon":"121.3811","lat":"31.21493","category":"47","category_name":"住宅区","address":"上海市长宁区双流路188弄"},{"poiid":"B2094757D16DA2F9429F","title":"丸子家","lon":"121.38152358","lat":"31.216940171","category":"247","category_name":"餐饮美食","address":null},{"poiid":"B2094757D768A4FF499A","title":"赛百味 天山路店 SUBWAY","lon":"121.38557","lat":"31.215048","category":"94","category_name":"西餐厅","address":"长宁区天山路341号缤谷文化休闲广场1楼(近威宁路)"},{"poiid":"B2094752D669AAFD4499","title":"外滩三号","lon":"121.380127","lat":"31.214615","category":"247","category_name":"餐饮美食","address":"黄浦区中山东路一号"},{"poiid":"B2094757D069A0FF4093","title":"日本流行屋","lon":"121.38071","lat":"31.2156","category":"141","category_name":"服装鞋帽皮具店","address":"上海长宁区天山路919号虹桥天都117-1商铺(近遵义路)"},{"poiid":"B2094654D56BA1FC469A","title":"海逸公寓","lon":"121.38379","lat":"31.216658","category":"47","category_name":"住宅区","address":"天山路288弄"},{"poiid":"B2094655D265A1FC449D","title":"可的超市(小金更店)","lon":"121.3819","lat":"31.2159","category":"117","category_name":"便民商店/便利店","address":"长宁区天山路204号(双流路天山路)"},{"poiid":"B2094757D165A0FC4498","title":"姚氏特色面","lon":"121.38063158","lat":"31.217556183","category":"247","category_name":"餐饮美食","address":"上海市长宁区北翟路"},{"poiid":"B2094752D56CA3FB479D","title":"BONNE STOCK","lon":"121.380855","lat":"31.218087","category":"247","category_name":"餐饮美食","address":"天山路356號長寧圖書館1樓"},{"poiid":"B2094654D56BA1FD4599","title":"快客No.6790","lon":"121.38107","lat":"31.21765","category":"117","category_name":"便民商店/便利店","address":"双流路330"},{"poiid":"B2094655D26EA1F94698","title":"河风丽景","lon":"121.37893","lat":"31.216497","category":"47","category_name":"住宅区","address":"河风丽景位于长宁天山路88弄(双流路口)"},{"poiid":"B2094654DB6BA0FC4392","title":"兆益科技园东楼","lon":"121.37812","lat":"31.21649","category":"46","category_name":"楼宇","address":"天山路18"},{"poiid":"B2094655D36CA1FE449E","title":"双流路天山路","lon":"121.38058","lat":"31.21396","category":"38","category_name":"公交车站","address":""},{"poiid":"B2094757D16FA0F8409B","title":"溢口香麻辣烫","lon":"121.3756","lat":"31.21615","category":"68","category_name":"快餐厅","address":"长宁区天山西路115号(北虹路天山西路)"},{"poiid":"B2094751DA6CA0FA409D","title":"高岛屋百货","lon":"121.3812520584906","lat":"31.21748431834925","category":"249","category_name":"购物服务","address":"长宁区虹桥路1438号"},{"poiid":"B2094654DB69A5FA4798","title":"中国电信(天山路营业厅)","lon":"121.38207","lat":"31.21546","category":"151","category_name":"电讯营业厅","address":"长宁区天山路169号(双流路口)"},{"poiid":"B2094757D16EA4FA409F","title":"香榭园","lon":"121.38273","lat":"31.21559","category":"162","category_name":"医院","address":"长宁区天山路185号(近威宁路)"},{"poiid":"B2094654D56BA6FD4393","title":"好德便利No.561","lon":"121.38247","lat":"31.21541","category":"117","category_name":"便民商店/便利店","address":"天山路181"},{"poiid":"B2094757D66EABFF429A","title":"长宁新实验幼儿园","lon":"121.38253558","lat":"31.217619184","category":"57","category_name":"幼儿园","address":"长宁区双流路380号(近长宁路)"},{"poiid":"B2094757D16EA7FE4193","title":"麦莱芙面包坊","lon":"121.385558","lat":"31.214928","category":"112","category_name":"糕饼店","address":"长宁区天山路341号缤谷文化休闲广场1楼104室(近威宁路)"},{"poiid":"B2094655D26FA0F44098","title":"兆益科技园西楼","lon":"121.37777","lat":"31.21648","category":"46","category_name":"楼宇","address":"天山路8"},{"poiid":"B2094757D16BA5FF469D","title":"香榭园宠物有限公司","lon":"121.38242258","lat":"31.216092154","category":"263","category_name":"公司","address":"上海天山路185号"}]