[{"poiid":"B2094757D06FA3F54899","title":"复旦大学南苑学生生活园区","lon":"121.500366","lat":"31.291772","category":"253","category_name":"校园生活","address":"上海杨浦区松花江路2500弄复旦大学南区内"},{"poiid":"B2094655D26CA1F9419D","title":"复旦大学南区","lon":"121.50035","lat":"31.29176","category":"52","category_name":"高等院校","address":"松花江路2500"},{"poiid":"B2094757D06FA7FA479F","title":"同济大学大礼堂","lon":"121.500160217","lat":"31.2851141341","category":"260","category_name":"其他","address":"上海杨浦区四平路1239号同济大学内(近赤峰路)"},{"poiid":"B2094757D06FA5F8489E","title":"盛鸿楼","lon":"121.49638175","lat":"31.287764874","category":"76","category_name":"上海菜","address":"虹口区中山北二路1800号(近曲阳商务中心)"},{"poiid":"B2094757D068ABFE4593","title":"复旦科技园体育中心","lon":"121.50234","lat":"31.28847","category":"220","category_name":"运动场所","address":"虹口区密云路1018号(近复旦大学)"},{"poiid":"B2094757D06AA4FE489D","title":"新港悦大酒店","lon":"121.49858975","lat":"31.290297582","category":"72","category_name":"广东菜","address":"虹口区辉河路106号(近运光路)"},{"poiid":"B2094654DB64A6FF409B","title":"汉庭快捷酒店(上海复旦店)","lon":"121.49862","lat":"31.29256","category":"216","category_name":"经济型连锁酒店","address":"虹口区松花江路2628号(近邯郸路)"},{"poiid":"B2094750D365A0FD419A","title":"虹口区婚姻登记中心","lon":"121.495216","lat":"31.288152","category":"248","category_name":"生活娱乐","address":"巴林路76号"},{"poiid":"B2094751D368AAFC4792","title":"鱼酷","lon":"121.4985885248064","lat":"31.2881874239465","category":"247","category_name":"餐饮美食","address":"特力屋四楼"},{"poiid":"B2094654D56DA0FF439E","title":"大秦富贵(松花江路)","lon":"121.49863","lat":"31.29273","category":"68","category_name":"快餐厅","address":"杨浦区松花江路2628号(近邯郸路)"},{"poiid":"B2094757D065ABF4499C","title":"同济大学国康路校门","lon":"121.50315618","lat":"31.286369013","category":"52","category_name":"高等院校","address":"上海杨浦区国康路"},{"poiid":"B2094757D06FA5FB449F","title":"复旦大学南区食堂","lon":"121.50031781","lat":"31.29187341","category":"68","category_name":"快餐厅","address":"杨浦区邯郸路220号复旦大学内(近国权路)"},{"poiid":"B2094654DB6AAAF8409C","title":"大庆石油大厦","lon":"121.502326","lat":"31.291046","category":"46","category_name":"楼宇","address":"中山北二路1514号"},{"poiid":"B2094757D069A0FF4898","title":"同济西北食堂","lon":"121.50083","lat":"31.28313","category":"68","category_name":"快餐厅","address":"杨浦区四平路1239号同济大学内(近彰武路)"},{"poiid":"B2094757D06AA3F5469B","title":"复旦大学南区篮球场","lon":"121.50212016","lat":"31.290066708","category":"253","category_name":"校园生活","address":"杨浦区国权路580弄复旦大学南区内(近政肃路)"},{"poiid":"B2094654D56CA1FB459B","title":"邮政曲阳大楼","lon":"121.5","lat":"31.2908","category":"46","category_name":"楼宇","address":"中山北二路1631号"},{"poiid":"B2094654D56DA0F4419E","title":"密云花苑","lon":"121.50068","lat":"31.289328","category":"47","category_name":"住宅区","address":"密云路665弄"},{"poiid":"B2094757D16BA2F8419F","title":"辉河路烧烤摊","lon":"121.49817442","lat":"31.288515635","category":"68","category_name":"快餐厅","address":"虹口区辉河路47号门口(近巴林路)"},{"poiid":"B2094757D068AAFC449B","title":"复旦大学吴文政报告厅","lon":"121.502889624","lat":"31.2905047921","category":"260","category_name":"其他","address":"上海邯郸路220号复旦大学光华楼东辅楼202"},{"poiid":"B2094655D26FA0FB499C","title":"松花小区","lon":"121.50025","lat":"31.28983","category":"47","category_name":"住宅区","address":"松花江路2501弄近辉河路"},{"poiid":"B2094757D168A0F4409E","title":"同济大学学三楼","lon":"121.50025177","lat":"31.28775978","category":"253","category_name":"校园生活","address":"上海杨浦区四平路1239号同济大学四平路校区"},{"poiid":"B2094655D265AAFC499D","title":"密云路611弄小区","lon":"121.49934","lat":"31.28833","category":"47","category_name":"住宅区","address":"密云路611弄1-18号"},{"poiid":"B2094757D06BA1FA4992","title":"巴林小区","lon":"121.49617","lat":"31.287172","category":"47","category_name":"住宅区","address":"巴林路61弄1-25号"},{"poiid":"B2094655D264AAFE4298","title":"辉河路40弄小区","lon":"121.49919","lat":"31.28976","category":"47","category_name":"住宅区","address":"辉河路40弄1-40号边弄"},{"poiid":"B2094654D56DA0F44293","title":"上海市虹口区运光第一幼儿园","lon":"121.49848","lat":"31.28867","category":"57","category_name":"幼儿园","address":"虹口区辉河路30号(近巴林路)"},{"poiid":"B2094655D26CA1FA4892","title":"辉河路43弄小区(辉河路)","lon":"121.49773","lat":"31.28858","category":"47","category_name":"住宅区","address":"辉河路43弄1-3号"},{"poiid":"B2094655D36CA0F44092","title":"辉河路中山北二路","lon":"121.49846","lat":"31.28791","category":"38","category_name":"公交车站","address":""},{"poiid":"B2094757D665A5F4479A","title":"福来面馆 巴林路店","lon":"121.49719576593","lat":"31.288322627241","category":"247","category_name":"餐饮美食","address":"虹口区辉河路58号甲(近巴林路)"},{"poiid":"B2094654D56CA1F8489F","title":"峰华大楼","lon":"121.502","lat":"31.2876","category":"46","category_name":"楼宇","address":"昌平区回龙观镇国际信息产业基地高新二街"},{"poiid":"B2094757DB68A5F9419F","title":"谷雅 gooya!","lon":"121.50505","lat":"31.28693","category":"72","category_name":"广东菜","address":"杨浦区中山北二路1137号(近四平路)"},{"poiid":"B2094655D26BA2FB469D","title":"松花江路邯郸路","lon":"121.49844","lat":"31.29328","category":"38","category_name":"公交车站","address":"上海松花江路,邯郸路"},{"poiid":"B2094654D56DA0F4439A","title":"林云小区(西门)","lon":"121.49839","lat":"31.28881","category":"47","category_name":"住宅区","address":"辉河路40弄1-40号"},{"poiid":"B2094757D06AA1F4419F","title":"上海市虹口实验学校","lon":"121.49673656","lat":"31.2896219","category":"500","category_name":"未知分类","address":"虹口区运光路(近辉河路)"},{"poiid":"B2094654DB6BA3FD4899","title":"好德No.826(林云小区北)","lon":"121.49837","lat":"31.28971","category":"117","category_name":"便民商店/便利店","address":"辉河路66"},{"poiid":"B2094655D26FA6FD4998","title":"上海市虹口区运光第一小学","lon":"121.49848","lat":"31.28877","category":"56","category_name":"小学","address":"虹口区辉河路40弄40号(辉河路运光路)"},{"poiid":"B2094757D16CA3F8419E","title":"雷允上药房(辉河路店)","lon":"121.498342","lat":"31.289201","category":"162","category_name":"医院","address":"上海辉河路56号"},{"poiid":"B2094655D26BAAF8409F","title":"密云路611弄小区(南门)","lon":"121.50011","lat":"31.28784","category":"47","category_name":"住宅区","address":"密云路611弄1-18号"},{"poiid":"B2094757D16BA4F9489F","title":"玛瑙奇石博物馆","lon":"121.49777","lat":"31.28773","category":"179","category_name":"音乐厅","address":"虹口区巴林路21弄6号(近伊敏河路)"},{"poiid":"B2094757D16AA3FB4593","title":"河南拉面","lon":"121.49811004","lat":"31.28899224","category":"247","category_name":"餐饮美食","address":"上海虹口区辉河路三角地菜场对面"},{"poiid":"B2094757D168ABFA499E","title":"碎叫","lon":"121.5003541","lat":"31.290236836","category":"247","category_name":"餐饮美食","address":null},{"poiid":"B2094654D56DA0F4459C","title":"可的(辉河路)","lon":"121.498","lat":"31.2895","category":"117","category_name":"便民商店/便利店","address":"虹口区辉河路65号(近运光路)"},{"poiid":"B2094654D56DA0F4419B","title":"辉华大楼","lon":"121.49861","lat":"31.290745","category":"47","category_name":"住宅区","address":"辉河路118号"},{"poiid":"B2094757D164A5FE429E","title":"达人秀-实在高包子","lon":"121.4982751","lat":"31.289778826","category":"247","category_name":"餐饮美食","address":"上海市新港路60号"},{"poiid":"B2094654DB6BA3FD489A","title":"松花小区(北门)","lon":"121.50033","lat":"31.29036","category":"47","category_name":"住宅区","address":"松花江路2501弄"},{"poiid":"B2094655D26DA5F4469F","title":"辉河路59弄小区(东门)","lon":"121.49803","lat":"31.28918","category":"47","category_name":"住宅区","address":"辉河路59弄1-9号"},{"poiid":"B2094655D26BA0FC4499","title":"辉河路40弄小区(西门)","lon":"121.49839","lat":"31.28996","category":"47","category_name":"住宅区","address":"辉河路40弄1-40号边弄"},{"poiid":"B2094757D168A2F8409A","title":"余记传菜","lon":"121.49835","lat":"31.28773","category":"257","category_name":"中餐厅","address":"辉河路27号近巴林路"},{"poiid":"B2094654DB65A6F4449E","title":"上海市运光第二中学","lon":"121.49758","lat":"31.28949","category":"55","category_name":"中学","address":"辉河路65"},{"poiid":"B2094757D06AA7FA419E","title":"同济大学 学五楼","lon":"121.5027291","lat":"31.286002747","category":"253","category_name":"校园生活","address":"上海杨浦区四平路1239号同济大学四平路校区"},{"poiid":"B2094655D26FA0F4499C","title":"原林小区(东门)","lon":"121.49842","lat":"31.28767","category":"47","category_name":"住宅区","address":"辉河路25弄3-7号"},{"poiid":"B2094757D06FA3F54899","title":"复旦大学南苑学生生活园区","lon":"121.500366","lat":"31.291772","category":"253","category_name":"校园生活","address":"上海杨浦区松花江路2500弄复旦大学南区内"},{"poiid":"B2094655D26CA1F9419D","title":"复旦大学南区","lon":"121.50035","lat":"31.29176","category":"52","category_name":"高等院校","address":"松花江路2500"},{"poiid":"B2094757D06FA7FA479F","title":"同济大学大礼堂","lon":"121.500160217","lat":"31.2851141341","category":"260","category_name":"其他","address":"上海杨浦区四平路1239号同济大学内(近赤峰路)"},{"poiid":"B2094757D06FA5F8489E","title":"盛鸿楼","lon":"121.49638175","lat":"31.287764874","category":"76","category_name":"上海菜","address":"虹口区中山北二路1800号(近曲阳商务中心)"},{"poiid":"B2094757D068ABFE4593","title":"复旦科技园体育中心","lon":"121.50234","lat":"31.28847","category":"220","category_name":"运动场所","address":"虹口区密云路1018号(近复旦大学)"},{"poiid":"B2094757D06AA4FE489D","title":"新港悦大酒店","lon":"121.49858975","lat":"31.290297582","category":"72","category_name":"广东菜","address":"虹口区辉河路106号(近运光路)"},{"poiid":"B2094654DB64A6FF409B","title":"汉庭快捷酒店(上海复旦店)","lon":"121.49862","lat":"31.29256","category":"216","category_name":"经济型连锁酒店","address":"虹口区松花江路2628号(近邯郸路)"},{"poiid":"B2094750D365A0FD419A","title":"虹口区婚姻登记中心","lon":"121.495216","lat":"31.288152","category":"248","category_name":"生活娱乐","address":"巴林路76号"},{"poiid":"B2094751D368AAFC4792","title":"鱼酷","lon":"121.4985885248064","lat":"31.2881874239465","category":"247","category_name":"餐饮美食","address":"特力屋四楼"},{"poiid":"B2094654D56DA0FF439E","title":"大秦富贵(松花江路)","lon":"121.49863","lat":"31.29273","category":"68","category_name":"快餐厅","address":"杨浦区松花江路2628号(近邯郸路)"},{"poiid":"B2094757D065ABF4499C","title":"同济大学国康路校门","lon":"121.50315618","lat":"31.286369013","category":"52","category_name":"高等院校","address":"上海杨浦区国康路"},{"poiid":"B2094757D06FA5FB449F","title":"复旦大学南区食堂","lon":"121.50031781","lat":"31.29187341","category":"68","category_name":"快餐厅","address":"杨浦区邯郸路220号复旦大学内(近国权路)"},{"poiid":"B2094654DB6AAAF8409C","title":"大庆石油大厦","lon":"121.502326","lat":"31.291046","category":"46","category_name":"楼宇","address":"中山北二路1514号"},{"poiid":"B2094757D069A0FF4898","title":"同济西北食堂","lon":"121.50083","lat":"31.28313","category":"68","category_name":"快餐厅","address":"杨浦区四平路1239号同济大学内(近彰武路)"},{"poiid":"B2094757D06AA3F5469B","title":"复旦大学南区篮球场","lon":"121.50212016","lat":"31.290066708","category":"253","category_name":"校园生活","address":"杨浦区国权路580弄复旦大学南区内(近政肃路)"},{"poiid":"B2094654D56CA1FB459B","title":"邮政曲阳大楼","lon":"121.5","lat":"31.2908","category":"46","category_name":"楼宇","address":"中山北二路1631号"},{"poiid":"B2094654D56DA0F4419E","title":"密云花苑","lon":"121.50068","lat":"31.289328","category":"47","category_name":"住宅区","address":"密云路665弄"},{"poiid":"B2094757D16BA2F8419F","title":"辉河路烧烤摊","lon":"121.49817442","lat":"31.288515635","category":"68","category_name":"快餐厅","address":"虹口区辉河路47号门口(近巴林路)"},{"poiid":"B2094757D068AAFC449B","title":"复旦大学吴文政报告厅","lon":"121.502889624","lat":"31.2905047921","category":"260","category_name":"其他","address":"上海邯郸路220号复旦大学光华楼东辅楼202"},{"poiid":"B2094655D26FA0FB499C","title":"松花小区","lon":"121.50025","lat":"31.28983","category":"47","category_name":"住宅区","address":"松花江路2501弄近辉河路"},{"poiid":"B2094757D168A0F4409E","title":"同济大学学三楼","lon":"121.50025177","lat":"31.28775978","category":"253","category_name":"校园生活","address":"上海杨浦区四平路1239号同济大学四平路校区"},{"poiid":"B2094655D265AAFC499D","title":"密云路611弄小区","lon":"121.49934","lat":"31.28833","category":"47","category_name":"住宅区","address":"密云路611弄1-18号"},{"poiid":"B2094757D06BA1FA4992","title":"巴林小区","lon":"121.49617","lat":"31.287172","category":"47","category_name":"住宅区","address":"巴林路61弄1-25号"},{"poiid":"B2094655D264AAFE4298","title":"辉河路40弄小区","lon":"121.49919","lat":"31.28976","category":"47","category_name":"住宅区","address":"辉河路40弄1-40号边弄"},{"poiid":"B2094654D56DA0F44293","title":"上海市虹口区运光第一幼儿园","lon":"121.49848","lat":"31.28867","category":"57","category_name":"幼儿园","address":"虹口区辉河路30号(近巴林路)"},{"poiid":"B2094655D26CA1FA4892","title":"辉河路43弄小区(辉河路)","lon":"121.49773","lat":"31.28858","category":"47","category_name":"住宅区","address":"辉河路43弄1-3号"},{"poiid":"B2094655D36CA0F44092","title":"辉河路中山北二路","lon":"121.49846","lat":"31.28791","category":"38","category_name":"公交车站","address":""},{"poiid":"B2094757D665A5F4479A","title":"福来面馆 巴林路店","lon":"121.49719576593","lat":"31.288322627241","category":"247","category_name":"餐饮美食","address":"虹口区辉河路58号甲(近巴林路)"},{"poiid":"B2094654D56CA1F8489F","title":"峰华大楼","lon":"121.502","lat":"31.2876","category":"46","category_name":"楼宇","address":"昌平区回龙观镇国际信息产业基地高新二街"},{"poiid":"B2094757DB68A5F9419F","title":"谷雅 gooya!","lon":"121.50505","lat":"31.28693","category":"72","category_name":"广东菜","address":"杨浦区中山北二路1137号(近四平路)"},{"poiid":"B2094655D26BA2FB469D","title":"松花江路邯郸路","lon":"121.49844","lat":"31.29328","category":"38","category_name":"公交车站","address":"上海松花江路,邯郸路"},{"poiid":"B2094654D56DA0F4439A","title":"林云小区(西门)","lon":"121.49839","lat":"31.28881","category":"47","category_name":"住宅区","address":"辉河路40弄1-40号"},{"poiid":"B2094757D06AA1F4419F","title":"上海市虹口实验学校","lon":"121.49673656","lat":"31.2896219","category":"500","category_name":"未知分类","address":"虹口区运光路(近辉河路)"},{"poiid":"B2094654DB6BA3FD4899","title":"好德No.826(林云小区北)","lon":"121.49837","lat":"31.28971","category":"117","category_name":"便民商店/便利店","address":"辉河路66"},{"poiid":"B2094655D26FA6FD4998","title":"上海市虹口区运光第一小学","lon":"121.49848","lat":"31.28877","category":"56","category_name":"小学","address":"虹口区辉河路40弄40号(辉河路运光路)"},{"poiid":"B2094757D16CA3F8419E","title":"雷允上药房(辉河路店)","lon":"121.498342","lat":"31.289201","category":"162","category_name":"医院","address":"上海辉河路56号"},{"poiid":"B2094655D26BAAF8409F","title":"密云路611弄小区(南门)","lon":"121.50011","lat":"31.28784","category":"47","category_name":"住宅区","address":"密云路611弄1-18号"},{"poiid":"B2094757D16BA4F9489F","title":"玛瑙奇石博物馆","lon":"121.49777","lat":"31.28773","category":"179","category_name":"音乐厅","address":"虹口区巴林路21弄6号(近伊敏河路)"},{"poiid":"B2094757D16AA3FB4593","title":"河南拉面","lon":"121.49811004","lat":"31.28899224","category":"247","category_name":"餐饮美食","address":"上海虹口区辉河路三角地菜场对面"},{"poiid":"B2094757D168ABFA499E","title":"碎叫","lon":"121.5003541","lat":"31.290236836","category":"247","category_name":"餐饮美食","address":null},{"poiid":"B2094654D56DA0F4459C","title":"可的(辉河路)","lon":"121.498","lat":"31.2895","category":"117","category_name":"便民商店/便利店","address":"虹口区辉河路65号(近运光路)"},{"poiid":"B2094654D56DA0F4419B","title":"辉华大楼","lon":"121.49861","lat":"31.290745","category":"47","category_name":"住宅区","address":"辉河路118号"},{"poiid":"B2094757D164A5FE429E","title":"达人秀-实在高包子","lon":"121.4982751","lat":"31.289778826","category":"247","category_name":"餐饮美食","address":"上海市新港路60号"},{"poiid":"B2094654DB6BA3FD489A","title":"松花小区(北门)","lon":"121.50033","lat":"31.29036","category":"47","category_name":"住宅区","address":"松花江路2501弄"},{"poiid":"B2094655D26DA5F4469F","title":"辉河路59弄小区(东门)","lon":"121.49803","lat":"31.28918","category":"47","category_name":"住宅区","address":"辉河路59弄1-9号"},{"poiid":"B2094655D26BA0FC4499","title":"辉河路40弄小区(西门)","lon":"121.49839","lat":"31.28996","category":"47","category_name":"住宅区","address":"辉河路40弄1-40号边弄"},{"poiid":"B2094757D168A2F8409A","title":"余记传菜","lon":"121.49835","lat":"31.28773","category":"257","category_name":"中餐厅","address":"辉河路27号近巴林路"},{"poiid":"B2094654DB65A6F4449E","title":"上海市运光第二中学","lon":"121.49758","lat":"31.28949","category":"55","category_name":"中学","address":"辉河路65"},{"poiid":"B2094757D06AA7FA419E","title":"同济大学 学五楼","lon":"121.5027291","lat":"31.286002747","category":"253","category_name":"校园生活","address":"上海杨浦区四平路1239号同济大学四平路校区"},{"poiid":"B2094655D26FA0F4499C","title":"原林小区(东门)","lon":"121.49842","lat":"31.28767","category":"47","category_name":"住宅区","address":"辉河路25弄3-7号"},{"poiid":"B2094757D06FA3F54899","title":"复旦大学南苑学生生活园区","lon":"121.500366","lat":"31.291772","category":"253","category_name":"校园生活","address":"上海杨浦区松花江路2500弄复旦大学南区内"},{"poiid":"B2094655D26CA1F9419D","title":"复旦大学南区","lon":"121.50035","lat":"31.29176","category":"52","category_name":"高等院校","address":"松花江路2500"},{"poiid":"B2094757D06FA7FA479F","title":"同济大学大礼堂","lon":"121.500160217","lat":"31.2851141341","category":"260","category_name":"其他","address":"上海杨浦区四平路1239号同济大学内(近赤峰路)"},{"poiid":"B2094757D06FA5F8489E","title":"盛鸿楼","lon":"121.49638175","lat":"31.287764874","category":"76","category_name":"上海菜","address":"虹口区中山北二路1800号(近曲阳商务中心)"},{"poiid":"B2094757D068ABFE4593","title":"复旦科技园体育中心","lon":"121.50234","lat":"31.28847","category":"220","category_name":"运动场所","address":"虹口区密云路1018号(近复旦大学)"},{"poiid":"B2094757D06AA4FE489D","title":"新港悦大酒店","lon":"121.49858975","lat":"31.290297582","category":"72","category_name":"广东菜","address":"虹口区辉河路106号(近运光路)"},{"poiid":"B2094654DB64A6FF409B","title":"汉庭快捷酒店(上海复旦店)","lon":"121.49862","lat":"31.29256","category":"216","category_name":"经济型连锁酒店","address":"虹口区松花江路2628号(近邯郸路)"},{"poiid":"B2094750D365A0FD419A","title":"虹口区婚姻登记中心","lon":"121.495216","lat":"31.288152","category":"248","category_name":"生活娱乐","address":"巴林路76号"},{"poiid":"B2094751D368AAFC4792","title":"鱼酷","lon":"121.4985885248064","lat":"31.2881874239465","category":"247","category_name":"餐饮美食","address":"特力屋四楼"},{"poiid":"B2094654D56DA0FF439E","title":"大秦富贵(松花江路)","lon":"121.49863","lat":"31.29273","category":"68","category_name":"快餐厅","address":"杨浦区松花江路2628号(近邯郸路)"},{"poiid":"B2094757D065ABF4499C","title":"同济大学国康路校门","lon":"121.50315618","lat":"31.286369013","category":"52","category_name":"高等院校","address":"上海杨浦区国康路"},{"poiid":"B2094757D06FA5FB449F","title":"复旦大学南区食堂","lon":"121.50031781","lat":"31.29187341","category":"68","category_name":"快餐厅","address":"杨浦区邯郸路220号复旦大学内(近国权路)"},{"poiid":"B2094654DB6AAAF8409C","title":"大庆石油大厦","lon":"121.502326","lat":"31.291046","category":"46","category_name":"楼宇","address":"中山北二路1514号"},{"poiid":"B2094757D069A0FF4898","title":"同济西北食堂","lon":"121.50083","lat":"31.28313","category":"68","category_name":"快餐厅","address":"杨浦区四平路1239号同济大学内(近彰武路)"},{"poiid":"B2094757D06AA3F5469B","title":"复旦大学南区篮球场","lon":"121.50212016","lat":"31.290066708","category":"253","category_name":"校园生活","address":"杨浦区国权路580弄复旦大学南区内(近政肃路)"},{"poiid":"B2094654D56CA1FB459B","title":"邮政曲阳大楼","lon":"121.5","lat":"31.2908","category":"46","category_name":"楼宇","address":"中山北二路1631号"},{"poiid":"B2094654D56DA0F4419E","title":"密云花苑","lon":"121.50068","lat":"31.289328","category":"47","category_name":"住宅区","address":"密云路665弄"},{"poiid":"B2094757D16BA2F8419F","title":"辉河路烧烤摊","lon":"121.49817442","lat":"31.288515635","category":"68","category_name":"快餐厅","address":"虹口区辉河路47号门口(近巴林路)"},{"poiid":"B2094757D068AAFC449B","title":"复旦大学吴文政报告厅","lon":"121.502889624","lat":"31.2905047921","category":"260","category_name":"其他","address":"上海邯郸路220号复旦大学光华楼东辅楼202"},{"poiid":"B2094655D26FA0FB499C","title":"松花小区","lon":"121.50025","lat":"31.28983","category":"47","category_name":"住宅区","address":"松花江路2501弄近辉河路"},{"poiid":"B2094757D168A0F4409E","title":"同济大学学三楼","lon":"121.50025177","lat":"31.28775978","category":"253","category_name":"校园生活","address":"上海杨浦区四平路1239号同济大学四平路校区"},{"poiid":"B2094655D265AAFC499D","title":"密云路611弄小区","lon":"121.49934","lat":"31.28833","category":"47","category_name":"住宅区","address":"密云路611弄1-18号"},{"poiid":"B2094757D06BA1FA4992","title":"巴林小区","lon":"121.49617","lat":"31.287172","category":"47","category_name":"住宅区","address":"巴林路61弄1-25号"},{"poiid":"B2094655D264AAFE4298","title":"辉河路40弄小区","lon":"121.49919","lat":"31.28976","category":"47","category_name":"住宅区","address":"辉河路40弄1-40号边弄"},{"poiid":"B2094654D56DA0F44293","title":"上海市虹口区运光第一幼儿园","lon":"121.49848","lat":"31.28867","category":"57","category_name":"幼儿园","address":"虹口区辉河路30号(近巴林路)"},{"poiid":"B2094655D26CA1FA4892","title":"辉河路43弄小区(辉河路)","lon":"121.49773","lat":"31.28858","category":"47","category_name":"住宅区","address":"辉河路43弄1-3号"},{"poiid":"B2094655D36CA0F44092","title":"辉河路中山北二路","lon":"121.49846","lat":"31.28791","category":"38","category_name":"公交车站","address":""},{"poiid":"B2094757D665A5F4479A","title":"福来面馆 巴林路店","lon":"121.49719576593","lat":"31.288322627241","category":"247","category_name":"餐饮美食","address":"虹口区辉河路58号甲(近巴林路)"},{"poiid":"B2094654D56CA1F8489F","title":"峰华大楼","lon":"121.502","lat":"31.2876","category":"46","category_name":"楼宇","address":"昌平区回龙观镇国际信息产业基地高新二街"},{"poiid":"B2094757DB68A5F9419F","title":"谷雅 gooya!","lon":"121.50505","lat":"31.28693","category":"72","category_name":"广东菜","address":"杨浦区中山北二路1137号(近四平路)"},{"poiid":"B2094655D26BA2FB469D","title":"松花江路邯郸路","lon":"121.49844","lat":"31.29328","category":"38","category_name":"公交车站","address":"上海松花江路,邯郸路"},{"poiid":"B2094654D56DA0F4439A","title":"林云小区(西门)","lon":"121.49839","lat":"31.28881","category":"47","category_name":"住宅区","address":"辉河路40弄1-40号"},{"poiid":"B2094757D06AA1F4419F","title":"上海市虹口实验学校","lon":"121.49673656","lat":"31.2896219","category":"500","category_name":"未知分类","address":"虹口区运光路(近辉河路)"},{"poiid":"B2094654DB6BA3FD4899","title":"好德No.826(林云小区北)","lon":"121.49837","lat":"31.28971","category":"117","category_name":"便民商店/便利店","address":"辉河路66"},{"poiid":"B2094655D26FA6FD4998","title":"上海市虹口区运光第一小学","lon":"121.49848","lat":"31.28877","category":"56","category_name":"小学","address":"虹口区辉河路40弄40号(辉河路运光路)"},{"poiid":"B2094757D16CA3F8419E","title":"雷允上药房(辉河路店)","lon":"121.498342","lat":"31.289201","category":"162","category_name":"医院","address":"上海辉河路56号"},{"poiid":"B2094655D26BAAF8409F","title":"密云路611弄小区(南门)","lon":"121.50011","lat":"31.28784","category":"47","category_name":"住宅区","address":"密云路611弄1-18号"},{"poiid":"B2094757D16BA4F9489F","title":"玛瑙奇石博物馆","lon":"121.49777","lat":"31.28773","category":"179","category_name":"音乐厅","address":"虹口区巴林路21弄6号(近伊敏河路)"},{"poiid":"B2094757D16AA3FB4593","title":"河南拉面","lon":"121.49811004","lat":"31.28899224","category":"247","category_name":"餐饮美食","address":"上海虹口区辉河路三角地菜场对面"},{"poiid":"B2094757D168ABFA499E","title":"碎叫","lon":"121.5003541","lat":"31.290236836","category":"247","category_name":"餐饮美食","address":null},{"poiid":"B2094654D56DA0F4459C","title":"可的(辉河路)","lon":"121.498","lat":"31.2895","category":"117","category_name":"便民商店/便利店","address":"虹口区辉河路65号(近运光路)"},{"poiid":"B2094654D56DA0F4419B","title":"辉华大楼","lon":"121.49861","lat":"31.290745","category":"47","category_name":"住宅区","address":"辉河路118号"},{"poiid":"B2094757D164A5FE429E","title":"达人秀-实在高包子","lon":"121.4982751","lat":"31.289778826","category":"247","category_name":"餐饮美食","address":"上海市新港路60号"},{"poiid":"B2094654DB6BA3FD489A","title":"松花小区(北门)","lon":"121.50033","lat":"31.29036","category":"47","category_name":"住宅区","address":"松花江路2501弄"},{"poiid":"B2094655D26DA5F4469F","title":"辉河路59弄小区(东门)","lon":"121.49803","lat":"31.28918","category":"47","category_name":"住宅区","address":"辉河路59弄1-9号"},{"poiid":"B2094655D26BA0FC4499","title":"辉河路40弄小区(西门)","lon":"121.49839","lat":"31.28996","category":"47","category_name":"住宅区","address":"辉河路40弄1-40号边弄"},{"poiid":"B2094757D168A2F8409A","title":"余记传菜","lon":"121.49835","lat":"31.28773","category":"257","category_name":"中餐厅","address":"辉河路27号近巴林路"},{"poiid":"B2094654DB65A6F4449E","title":"上海市运光第二中学","lon":"121.49758","lat":"31.28949","category":"55","category_name":"中学","address":"辉河路65"},{"poiid":"B2094757D06AA7FA419E","title":"同济大学 学五楼","lon":"121.5027291","lat":"31.286002747","category":"253","category_name":"校园生活","address":"上海杨浦区四平路1239号同济大学四平路校区"},{"poiid":"B2094655D26FA0F4499C","title":"原林小区(东门)","lon":"121.49842","lat":"31.28767","category":"47","category_name":"住宅区","address":"辉河路25弄3-7号"},{"poiid":"B2094757D06FA3F54899","title":"复旦大学南苑学生生活园区","lon":"121.500366","lat":"31.291772","category":"253","category_name":"校园生活","address":"上海杨浦区松花江路2500弄复旦大学南区内"},{"poiid":"B2094655D26CA1F9419D","title":"复旦大学南区","lon":"121.50035","lat":"31.29176","category":"52","category_name":"高等院校","address":"松花江路2500"},{"poiid":"B2094757D06FA7FA479F","title":"同济大学大礼堂","lon":"121.500160217","lat":"31.2851141341","category":"260","category_name":"其他","address":"上海杨浦区四平路1239号同济大学内(近赤峰路)"},{"poiid":"B2094757D06FA5F8489E","title":"盛鸿楼","lon":"121.49638175","lat":"31.287764874","category":"76","category_name":"上海菜","address":"虹口区中山北二路1800号(近曲阳商务中心)"},{"poiid":"B2094757D068ABFE4593","title":"复旦科技园体育中心","lon":"121.50234","lat":"31.28847","category":"220","category_name":"运动场所","address":"虹口区密云路1018号(近复旦大学)"},{"poiid":"B2094757D06AA4FE489D","title":"新港悦大酒店","lon":"121.49858975","lat":"31.290297582","category":"72","category_name":"广东菜","address":"虹口区辉河路106号(近运光路)"},{"poiid":"B2094654DB64A6FF409B","title":"汉庭快捷酒店(上海复旦店)","lon":"121.49862","lat":"31.29256","category":"216","category_name":"经济型连锁酒店","address":"虹口区松花江路2628号(近邯郸路)"},{"poiid":"B2094750D365A0FD419A","title":"虹口区婚姻登记中心","lon":"121.495216","lat":"31.288152","category":"248","category_name":"生活娱乐","address":"巴林路76号"},{"poiid":"B2094751D368AAFC4792","title":"鱼酷","lon":"121.4985885248064","lat":"31.2881874239465","category":"247","category_name":"餐饮美食","address":"特力屋四楼"},{"poiid":"B2094654D56DA0FF439E","title":"大秦富贵(松花江路)","lon":"121.49863","lat":"31.29273","category":"68","category_name":"快餐厅","address":"杨浦区松花江路2628号(近邯郸路)"},{"poiid":"B2094757D065ABF4499C","title":"同济大学国康路校门","lon":"121.50315618","lat":"31.286369013","category":"52","category_name":"高等院校","address":"上海杨浦区国康路"},{"poiid":"B2094757D06FA5FB449F","title":"复旦大学南区食堂","lon":"121.50031781","lat":"31.29187341","category":"68","category_name":"快餐厅","address":"杨浦区邯郸路220号复旦大学内(近国权路)"},{"poiid":"B2094654DB6AAAF8409C","title":"大庆石油大厦","lon":"121.502326","lat":"31.291046","category":"46","category_name":"楼宇","address":"中山北二路1514号"},{"poiid":"B2094757D069A0FF4898","title":"同济西北食堂","lon":"121.50083","lat":"31.28313","category":"68","category_name":"快餐厅","address":"杨浦区四平路1239号同济大学内(近彰武路)"},{"poiid":"B2094757D06AA3F5469B","title":"复旦大学南区篮球场","lon":"121.50212016","lat":"31.290066708","category":"253","category_name":"校园生活","address":"杨浦区国权路580弄复旦大学南区内(近政肃路)"},{"poiid":"B2094654D56CA1FB459B","title":"邮政曲阳大楼","lon":"121.5","lat":"31.2908","category":"46","category_name":"楼宇","address":"中山北二路1631号"},{"poiid":"B2094654D56DA0F4419E","title":"密云花苑","lon":"121.50068","lat":"31.289328","category":"47","category_name":"住宅区","address":"密云路665弄"},{"poiid":"B2094757D16BA2F8419F","title":"辉河路烧烤摊","lon":"121.49817442","lat":"31.288515635","category":"68","category_name":"快餐厅","address":"虹口区辉河路47号门口(近巴林路)"},{"poiid":"B2094757D068AAFC449B","title":"复旦大学吴文政报告厅","lon":"121.502889624","lat":"31.2905047921","category":"260","category_name":"其他","address":"上海邯郸路220号复旦大学光华楼东辅楼202"},{"poiid":"B2094655D26FA0FB499C","title":"松花小区","lon":"121.50025","lat":"31.28983","category":"47","category_name":"住宅区","address":"松花江路2501弄近辉河路"},{"poiid":"B2094757D168A0F4409E","title":"同济大学学三楼","lon":"121.50025177","lat":"31.28775978","category":"253","category_name":"校园生活","address":"上海杨浦区四平路1239号同济大学四平路校区"},{"poiid":"B2094655D265AAFC499D","title":"密云路611弄小区","lon":"121.49934","lat":"31.28833","category":"47","category_name":"住宅区","address":"密云路611弄1-18号"},{"poiid":"B2094757D06BA1FA4992","title":"巴林小区","lon":"121.49617","lat":"31.287172","category":"47","category_name":"住宅区","address":"巴林路61弄1-25号"},{"poiid":"B2094655D264AAFE4298","title":"辉河路40弄小区","lon":"121.49919","lat":"31.28976","category":"47","category_name":"住宅区","address":"辉河路40弄1-40号边弄"},{"poiid":"B2094654D56DA0F44293","title":"上海市虹口区运光第一幼儿园","lon":"121.49848","lat":"31.28867","category":"57","category_name":"幼儿园","address":"虹口区辉河路30号(近巴林路)"},{"poiid":"B2094655D26CA1FA4892","title":"辉河路43弄小区(辉河路)","lon":"121.49773","lat":"31.28858","category":"47","category_name":"住宅区","address":"辉河路43弄1-3号"},{"poiid":"B2094655D36CA0F44092","title":"辉河路中山北二路","lon":"121.49846","lat":"31.28791","category":"38","category_name":"公交车站","address":""},{"poiid":"B2094757D665A5F4479A","title":"福来面馆 巴林路店","lon":"121.49719576593","lat":"31.288322627241","category":"247","category_name":"餐饮美食","address":"虹口区辉河路58号甲(近巴林路)"},{"poiid":"B2094654D56CA1F8489F","title":"峰华大楼","lon":"121.502","lat":"31.2876","category":"46","category_name":"楼宇","address":"昌平区回龙观镇国际信息产业基地高新二街"},{"poiid":"B2094757DB68A5F9419F","title":"谷雅 gooya!","lon":"121.50505","lat":"31.28693","category":"72","category_name":"广东菜","address":"杨浦区中山北二路1137号(近四平路)"},{"poiid":"B2094655D26BA2FB469D","title":"松花江路邯郸路","lon":"121.49844","lat":"31.29328","category":"38","category_name":"公交车站","address":"上海松花江路,邯郸路"},{"poiid":"B2094654D56DA0F4439A","title":"林云小区(西门)","lon":"121.49839","lat":"31.28881","category":"47","category_name":"住宅区","address":"辉河路40弄1-40号"},{"poiid":"B2094757D06AA1F4419F","title":"上海市虹口实验学校","lon":"121.49673656","lat":"31.2896219","category":"500","category_name":"未知分类","address":"虹口区运光路(近辉河路)"},{"poiid":"B2094654DB6BA3FD4899","title":"好德No.826(林云小区北)","lon":"121.49837","lat":"31.28971","category":"117","category_name":"便民商店/便利店","address":"辉河路66"},{"poiid":"B2094655D26FA6FD4998","title":"上海市虹口区运光第一小学","lon":"121.49848","lat":"31.28877","category":"56","category_name":"小学","address":"虹口区辉河路40弄40号(辉河路运光路)"},{"poiid":"B2094757D16CA3F8419E","title":"雷允上药房(辉河路店)","lon":"121.498342","lat":"31.289201","category":"162","category_name":"医院","address":"上海辉河路56号"},{"poiid":"B2094655D26BAAF8409F","title":"密云路611弄小区(南门)","lon":"121.50011","lat":"31.28784","category":"47","category_name":"住宅区","address":"密云路611弄1-18号"},{"poiid":"B2094757D16BA4F9489F","title":"玛瑙奇石博物馆","lon":"121.49777","lat":"31.28773","category":"179","category_name":"音乐厅","address":"虹口区巴林路21弄6号(近伊敏河路)"},{"poiid":"B2094757D16AA3FB4593","title":"河南拉面","lon":"121.49811004","lat":"31.28899224","category":"247","category_name":"餐饮美食","address":"上海虹口区辉河路三角地菜场对面"},{"poiid":"B2094757D168ABFA499E","title":"碎叫","lon":"121.5003541","lat":"31.290236836","category":"247","category_name":"餐饮美食","address":null},{"poiid":"B2094654D56DA0F4459C","title":"可的(辉河路)","lon":"121.498","lat":"31.2895","category":"117","category_name":"便民商店/便利店","address":"虹口区辉河路65号(近运光路)"},{"poiid":"B2094654D56DA0F4419B","title":"辉华大楼","lon":"121.49861","lat":"31.290745","category":"47","category_name":"住宅区","address":"辉河路118号"},{"poiid":"B2094757D164A5FE429E","title":"达人秀-实在高包子","lon":"121.4982751","lat":"31.289778826","category":"247","category_name":"餐饮美食","address":"上海市新港路60号"},{"poiid":"B2094654DB6BA3FD489A","title":"松花小区(北门)","lon":"121.50033","lat":"31.29036","category":"47","category_name":"住宅区","address":"松花江路2501弄"},{"poiid":"B2094655D26DA5F4469F","title":"辉河路59弄小区(东门)","lon":"121.49803","lat":"31.28918","category":"47","category_name":"住宅区","address":"辉河路59弄1-9号"},{"poiid":"B2094655D26BA0FC4499","title":"辉河路40弄小区(西门)","lon":"121.49839","lat":"31.28996","category":"47","category_name":"住宅区","address":"辉河路40弄1-40号边弄"},{"poiid":"B2094757D168A2F8409A","title":"余记传菜","lon":"121.49835","lat":"31.28773","category":"257","category_name":"中餐厅","address":"辉河路27号近巴林路"},{"poiid":"B2094654DB65A6F4449E","title":"上海市运光第二中学","lon":"121.49758","lat":"31.28949","category":"55","category_name":"中学","address":"辉河路65"},{"poiid":"B2094757D06AA7FA419E","title":"同济大学 学五楼","lon":"121.5027291","lat":"31.286002747","category":"253","category_name":"校园生活","address":"上海杨浦区四平路1239号同济大学四平路校区"},{"poiid":"B2094655D26FA0F4499C","title":"原林小区(东门)","lon":"121.49842","lat":"31.28767","category":"47","category_name":"住宅区","address":"辉河路25弄3-7号"}]