[{"poiid":"B2094757D06FA2FC419F","title":"上海歌城(吴中路店)","lon":"121.38819","lat":"31.17755","category":"170","category_name":"KTV","address":"闵行区吴中路1050号盛世莲花广场5幢北楼1-3楼(近莲花路)"},{"poiid":"B2094655D269A4F4499F","title":"华纳时尚酒店","lon":"121.39157","lat":"31.17053","category":"247","category_name":"餐饮美食","address":"莲花路1978号华纳时尚酒店内(近宜山路)"},{"poiid":"B2094757D469A0FD419A","title":"新南华大酒店 吴中店","lon":"121.38725230341","lat":"31.177105398643","category":"76","category_name":"上海菜","address":"吴中路1065号近虹中路口"},{"poiid":"B2094757D06FA0F4449F","title":"吴中路","lon":"121.393310547","lat":"31.1797122955","category":"500","category_name":"未知分类","address":"上海市吴中路"},{"poiid":"B2094757D06FA5F54392","title":"闵行区牙病防治所","lon":"121.39264","lat":"31.17916","category":"162","category_name":"医院","address":"闵行区吴中路829号(近虹梅路)"},{"poiid":"B2094654DB6BA7FA4498","title":"上虹新村","lon":"121.39123","lat":"31.173218","category":"47","category_name":"住宅区","address":"莲花路2151弄"},{"poiid":"B2094757D068AAFF459B","title":"合川大厦","lon":"121.391","lat":"31.1727","category":"46","category_name":"楼宇","address":"上海宜山路2016号"},{"poiid":"B2094757D16BA6FD409F","title":"黔庄","lon":"121.390507586","lat":"31.1781344126","category":"500","category_name":"未知分类","address":"闵行区吴中路933号(近环镇西路)"},{"poiid":"B2094655D26FABF8489A","title":"万源新城","lon":"121.393","lat":"31.1769","category":"47","category_name":"住宅区","address":"万源路2289弄1-39号"},{"poiid":"B2094654DB6BA7FA489A","title":"上虹新村1-6街坊","lon":"121.38819","lat":"31.17356","category":"47","category_name":"住宅区","address":"上海闵行区莲花路2151弄"},{"poiid":"B2094655D26EA6FE489D","title":"枫叶速8酒店(上海虹桥店)","lon":"121.39151","lat":"31.17648","category":"216","category_name":"经济型连锁酒店","address":"闵行区虹桥镇环镇西路33号(原环镇西路430号)"},{"poiid":"B2094757D069A1FD4093","title":"环镇南路环镇西路","lon":"121.392434","lat":"31.174833","category":"38","category_name":"公交车站","address":"上海931路环镇南路环镇西路站"},{"poiid":"B2094757D16CA4FD4099","title":"三娘鱼庄 吴中路店","lon":"121.387759054","lat":"31.178155793","category":"71","category_name":"四川菜","address":"闵行区吴中路1050号盛世莲花广场5幢北楼1楼(近莲花路)"},{"poiid":"B2094654D564A1F8409F","title":"上海虹桥医院","lon":"121.39499","lat":"31.17503","category":"162","category_name":"医院","address":"闵行区虹梅路2181号(近吴中路)"},{"poiid":"B2094655D268A5F54498","title":"航天新苑","lon":"121.39523","lat":"31.172298","category":"47","category_name":"住宅区","address":"航天新苑位于徐汇虹梅路2015弄11号"},{"poiid":"B2094655D26DA7FD4793","title":"上虹新村七、八、九街坊(环镇南街)","lon":"121.391","lat":"31.17433","category":"47","category_name":"住宅区","address":"莲花路2150弄"},{"poiid":"B2094757D064A5FE479F","title":"吴中路环镇西路","lon":"121.39199193","lat":"31.175632813","category":"500","category_name":"未知分类","address":"上海吴中路环镇西路"},{"poiid":"B2094757D16DA7F4469B","title":"远中产业园","lon":"121.393284586","lat":"31.1716072851","category":"46","category_name":"楼宇","address":"上海市徐汇区虹梅路2007号"},{"poiid":"B2094654D564A1FA4298","title":"光明便利No.175","lon":"121.39093","lat":"31.17427","category":"117","category_name":"便民商店/便利店","address":"闵行区莲花路2150弄24号"},{"poiid":"B2094757D66AA6FC4198","title":"东北农家菜 虹梅路","lon":"121.394544054","lat":"31.175447793","category":"82","category_name":"东北菜","address":"闵行区虹梅路2181号虹桥医院旁(近环镇南路)"},{"poiid":"B2094655D36CA0F4459B","title":"环镇南路莲花路","lon":"121.3901","lat":"31.17425","category":"38","category_name":"公交车站","address":""},{"poiid":"B2094654DB65A1FF4599","title":"湘阁哩辣餐馆","lon":"121.39244","lat":"31.17397","category":"257","category_name":"中餐厅","address":""},{"poiid":"B2094654D564A1F8459F","title":"光明乳业虹桥配送站","lon":"121.3934","lat":"31.17476","category":"117","category_name":"便民商店/便利店","address":""},{"poiid":"B2094655D26FA5F54192","title":"东苑怡和园","lon":"121.39144","lat":"31.17803","category":"47","category_name":"住宅区","address":"上海市闵行区虹梅路2899弄"},{"poiid":"B2094757D469A1FE4099","title":"新食尚 Minifoco","lon":"121.395817","lat":"31.174036","category":"68","category_name":"快餐厅","address":"闵行区虹梅路1801号圆房(近宜山路)"},{"poiid":"B2094655D26CAAF8469D","title":"虹梅小区","lon":"121.39598","lat":"31.17515","category":"47","category_name":"住宅区","address":"虹梅路2666弄1-22号"},{"poiid":"B2094757D16DAAFD489B","title":"全家便利虹梅路三店","lon":"121.39303058","lat":"31.174678345","category":"500","category_name":"未知分类","address":"上海虹梅路2007号,近漕河泾地铁站5号口"},{"poiid":"B2094757D56CA2F4429D","title":"竹亭 虹桥店","lon":"121.3884313","lat":"31.1739686","category":"76","category_name":"上海菜","address":"闵行区环镇南路110号(近莲花路)"},{"poiid":"B2094654DB69A5FB479A","title":"重庆鸡公煲 虹梅路店","lon":"121.394505054","lat":"31.175499793","category":"71","category_name":"四川菜","address":"闵行区虹梅路2181号(近虹桥医院)"},{"poiid":"B2094654D564A0FF4492","title":"利民饭店(环镇南街)","lon":"121.38948","lat":"31.17428","category":"68","category_name":"快餐厅","address":"闵行区环镇西路(近莲花路)"},{"poiid":"B2094757D764A5F9429F","title":"蒋记麻辣烫捞","lon":"121.395412","lat":"31.173552","category":"68","category_name":"快餐厅","address":"闵行区虹梅路2109号(近宜山路)"},{"poiid":"B2094654D564A0FF459D","title":"上海市上虹中学","lon":"121.38854","lat":"31.17469","category":"55","category_name":"中学","address":"闵行区环镇南路110号"},{"poiid":"B2094757D16FA3FF4092","title":"伊加伊(吴中路店)","lon":"121.38896","lat":"31.17734","category":"68","category_name":"快餐厅","address":"闵行区吴中路986号(莲花路口)"},{"poiid":"B2094655D268A2FA479F","title":"永兆豪庭(虹许路)","lon":"121.39625","lat":"31.17392","category":"47","category_name":"住宅区","address":"上海市徐汇区虹梅路2558弄"},{"poiid":"B2094654D564A0FF4598","title":"好德便利No.3021","lon":"121.38921","lat":"31.17418","category":"117","category_name":"便民商店/便利店","address":""},{"poiid":"B2094655D265A5FD4799","title":"蜀轩川菜","lon":"121.39563","lat":"31.17381","category":"71","category_name":"四川菜","address":"徐汇区虹梅路2107号(近宜山路)"},{"poiid":"B2094654DB6BA7FA479F","title":"灿虹精英大厦(吴中路)","lon":"121.38793","lat":"31.1768","category":"46","category_name":"楼宇","address":"吴中路1059"},{"poiid":"B2094757D168ABFC4892","title":"starbuck","lon":"121.389974","lat":"31.175036","category":"500","category_name":"未知分类","address":"上海吴中店闵行区吴中路1169-1号"},{"poiid":"B2094654D564A1F8419E","title":"欣健药房","lon":"121.39444","lat":"31.17528","category":"162","category_name":"医院","address":"虹桥镇"},{"poiid":"B2094654D564A1FF409C","title":"虹桥社区卫生服务中心","lon":"121.39252","lat":"31.17943","category":"162","category_name":"医院","address":"吴中路829"},{"poiid":"B2094757D66EABF94292","title":"嘉福楼中餐厅","lon":"121.39473358","lat":"31.175582362","category":"247","category_name":"餐饮美食","address":"上海市虹许路358号天禧嘉福2楼"},{"poiid":"B2094654D564A1F8459D","title":"上海华禾汽车维修有限公司","lon":"121.39359","lat":"31.17484","category":"159","category_name":"汽车维修","address":"环镇南路81号"},{"poiid":"B2094752D16FAAF94999","title":"八佰伴","lon":"121.393311","lat":"31.173645","category":"247","category_name":"餐饮美食","address":"张杨路"},{"poiid":"B2094654DB65A4FB459C","title":"陇西洗衣No.1","lon":"121.39353","lat":"31.17509","category":"249","category_name":"购物服务","address":""},{"poiid":"B2094757D069ABFB4198","title":"四海游龙(吴中路二店)","lon":"121.39244","lat":"31.17945","category":"68","category_name":"快餐厅","address":"闵行区吴中路848号(近虹梅路)"},{"poiid":"B2094654D564A1F8499E","title":"川江捞火锅","lon":"121.38978318473","lat":"31.178091741255","category":"86","category_name":"火锅店","address":"环镇西路1号近吴中路"},{"poiid":"B2094654D564A0FE4899","title":"永腾大厦","lon":"121.38753","lat":"31.17644","category":"46","category_name":"楼宇","address":"闵行区吴中路1065号"},{"poiid":"B2094757D069AAF4499A","title":"EF英孚教育青少儿英语(中山公园中心)","lon":"121.39184914","lat":"31.177004813","category":"190","category_name":"培训机构","address":"上海长宁路1158号贝多芬广场4楼"},{"poiid":"B2094655D26EA4F8429E","title":"香辣居-香辣蟹","lon":"121.39124","lat":"31.1764984","category":"86","category_name":"火锅店","address":"虹桥镇环镇西路1号近吴中路"},{"poiid":"B2094757D469A0FA4399","title":"武记贵人鱼头王火锅","lon":"121.387225","lat":"31.177245","category":"86","category_name":"火锅店","address":"闵行区吴中路1068号燎申大厦1楼B座(近虹中路)"},{"poiid":"B2094757D06FA2FC419F","title":"上海歌城(吴中路店)","lon":"121.38819","lat":"31.17755","category":"170","category_name":"KTV","address":"闵行区吴中路1050号盛世莲花广场5幢北楼1-3楼(近莲花路)"},{"poiid":"B2094655D269A4F4499F","title":"华纳时尚酒店","lon":"121.39157","lat":"31.17053","category":"247","category_name":"餐饮美食","address":"莲花路1978号华纳时尚酒店内(近宜山路)"},{"poiid":"B2094757D469A0FD419A","title":"新南华大酒店 吴中店","lon":"121.38725230341","lat":"31.177105398643","category":"76","category_name":"上海菜","address":"吴中路1065号近虹中路口"},{"poiid":"B2094757D06FA0F4449F","title":"吴中路","lon":"121.393310547","lat":"31.1797122955","category":"500","category_name":"未知分类","address":"上海市吴中路"},{"poiid":"B2094757D06FA5F54392","title":"闵行区牙病防治所","lon":"121.39264","lat":"31.17916","category":"162","category_name":"医院","address":"闵行区吴中路829号(近虹梅路)"},{"poiid":"B2094654DB6BA7FA4498","title":"上虹新村","lon":"121.39123","lat":"31.173218","category":"47","category_name":"住宅区","address":"莲花路2151弄"},{"poiid":"B2094757D068AAFF459B","title":"合川大厦","lon":"121.391","lat":"31.1727","category":"46","category_name":"楼宇","address":"上海宜山路2016号"},{"poiid":"B2094757D16BA6FD409F","title":"黔庄","lon":"121.390507586","lat":"31.1781344126","category":"500","category_name":"未知分类","address":"闵行区吴中路933号(近环镇西路)"},{"poiid":"B2094655D26FABF8489A","title":"万源新城","lon":"121.393","lat":"31.1769","category":"47","category_name":"住宅区","address":"万源路2289弄1-39号"},{"poiid":"B2094654DB6BA7FA489A","title":"上虹新村1-6街坊","lon":"121.38819","lat":"31.17356","category":"47","category_name":"住宅区","address":"上海闵行区莲花路2151弄"},{"poiid":"B2094655D26EA6FE489D","title":"枫叶速8酒店(上海虹桥店)","lon":"121.39151","lat":"31.17648","category":"216","category_name":"经济型连锁酒店","address":"闵行区虹桥镇环镇西路33号(原环镇西路430号)"},{"poiid":"B2094757D069A1FD4093","title":"环镇南路环镇西路","lon":"121.392434","lat":"31.174833","category":"38","category_name":"公交车站","address":"上海931路环镇南路环镇西路站"},{"poiid":"B2094757D16CA4FD4099","title":"三娘鱼庄 吴中路店","lon":"121.387759054","lat":"31.178155793","category":"71","category_name":"四川菜","address":"闵行区吴中路1050号盛世莲花广场5幢北楼1楼(近莲花路)"},{"poiid":"B2094654D564A1F8409F","title":"上海虹桥医院","lon":"121.39499","lat":"31.17503","category":"162","category_name":"医院","address":"闵行区虹梅路2181号(近吴中路)"},{"poiid":"B2094655D268A5F54498","title":"航天新苑","lon":"121.39523","lat":"31.172298","category":"47","category_name":"住宅区","address":"航天新苑位于徐汇虹梅路2015弄11号"},{"poiid":"B2094655D26DA7FD4793","title":"上虹新村七、八、九街坊(环镇南街)","lon":"121.391","lat":"31.17433","category":"47","category_name":"住宅区","address":"莲花路2150弄"},{"poiid":"B2094757D064A5FE479F","title":"吴中路环镇西路","lon":"121.39199193","lat":"31.175632813","category":"500","category_name":"未知分类","address":"上海吴中路环镇西路"},{"poiid":"B2094757D16DA7F4469B","title":"远中产业园","lon":"121.393284586","lat":"31.1716072851","category":"46","category_name":"楼宇","address":"上海市徐汇区虹梅路2007号"},{"poiid":"B2094654D564A1FA4298","title":"光明便利No.175","lon":"121.39093","lat":"31.17427","category":"117","category_name":"便民商店/便利店","address":"闵行区莲花路2150弄24号"},{"poiid":"B2094757D66AA6FC4198","title":"东北农家菜 虹梅路","lon":"121.394544054","lat":"31.175447793","category":"82","category_name":"东北菜","address":"闵行区虹梅路2181号虹桥医院旁(近环镇南路)"},{"poiid":"B2094655D36CA0F4459B","title":"环镇南路莲花路","lon":"121.3901","lat":"31.17425","category":"38","category_name":"公交车站","address":""},{"poiid":"B2094654DB65A1FF4599","title":"湘阁哩辣餐馆","lon":"121.39244","lat":"31.17397","category":"257","category_name":"中餐厅","address":""},{"poiid":"B2094654D564A1F8459F","title":"光明乳业虹桥配送站","lon":"121.3934","lat":"31.17476","category":"117","category_name":"便民商店/便利店","address":""},{"poiid":"B2094655D26FA5F54192","title":"东苑怡和园","lon":"121.39144","lat":"31.17803","category":"47","category_name":"住宅区","address":"上海市闵行区虹梅路2899弄"},{"poiid":"B2094757D469A1FE4099","title":"新食尚 Minifoco","lon":"121.395817","lat":"31.174036","category":"68","category_name":"快餐厅","address":"闵行区虹梅路1801号圆房(近宜山路)"},{"poiid":"B2094655D26CAAF8469D","title":"虹梅小区","lon":"121.39598","lat":"31.17515","category":"47","category_name":"住宅区","address":"虹梅路2666弄1-22号"},{"poiid":"B2094757D16DAAFD489B","title":"全家便利虹梅路三店","lon":"121.39303058","lat":"31.174678345","category":"500","category_name":"未知分类","address":"上海虹梅路2007号,近漕河泾地铁站5号口"},{"poiid":"B2094757D56CA2F4429D","title":"竹亭 虹桥店","lon":"121.3884313","lat":"31.1739686","category":"76","category_name":"上海菜","address":"闵行区环镇南路110号(近莲花路)"},{"poiid":"B2094654DB69A5FB479A","title":"重庆鸡公煲 虹梅路店","lon":"121.394505054","lat":"31.175499793","category":"71","category_name":"四川菜","address":"闵行区虹梅路2181号(近虹桥医院)"},{"poiid":"B2094654D564A0FF4492","title":"利民饭店(环镇南街)","lon":"121.38948","lat":"31.17428","category":"68","category_name":"快餐厅","address":"闵行区环镇西路(近莲花路)"},{"poiid":"B2094757D764A5F9429F","title":"蒋记麻辣烫捞","lon":"121.395412","lat":"31.173552","category":"68","category_name":"快餐厅","address":"闵行区虹梅路2109号(近宜山路)"},{"poiid":"B2094654D564A0FF459D","title":"上海市上虹中学","lon":"121.38854","lat":"31.17469","category":"55","category_name":"中学","address":"闵行区环镇南路110号"},{"poiid":"B2094757D16FA3FF4092","title":"伊加伊(吴中路店)","lon":"121.38896","lat":"31.17734","category":"68","category_name":"快餐厅","address":"闵行区吴中路986号(莲花路口)"},{"poiid":"B2094655D268A2FA479F","title":"永兆豪庭(虹许路)","lon":"121.39625","lat":"31.17392","category":"47","category_name":"住宅区","address":"上海市徐汇区虹梅路2558弄"},{"poiid":"B2094654D564A0FF4598","title":"好德便利No.3021","lon":"121.38921","lat":"31.17418","category":"117","category_name":"便民商店/便利店","address":""},{"poiid":"B2094655D265A5FD4799","title":"蜀轩川菜","lon":"121.39563","lat":"31.17381","category":"71","category_name":"四川菜","address":"徐汇区虹梅路2107号(近宜山路)"},{"poiid":"B2094654DB6BA7FA479F","title":"灿虹精英大厦(吴中路)","lon":"121.38793","lat":"31.1768","category":"46","category_name":"楼宇","address":"吴中路1059"},{"poiid":"B2094757D168ABFC4892","title":"starbuck","lon":"121.389974","lat":"31.175036","category":"500","category_name":"未知分类","address":"上海吴中店闵行区吴中路1169-1号"},{"poiid":"B2094654D564A1F8419E","title":"欣健药房","lon":"121.39444","lat":"31.17528","category":"162","category_name":"医院","address":"虹桥镇"},{"poiid":"B2094654D564A1FF409C","title":"虹桥社区卫生服务中心","lon":"121.39252","lat":"31.17943","category":"162","category_name":"医院","address":"吴中路829"},{"poiid":"B2094757D66EABF94292","title":"嘉福楼中餐厅","lon":"121.39473358","lat":"31.175582362","category":"247","category_name":"餐饮美食","address":"上海市虹许路358号天禧嘉福2楼"},{"poiid":"B2094654D564A1F8459D","title":"上海华禾汽车维修有限公司","lon":"121.39359","lat":"31.17484","category":"159","category_name":"汽车维修","address":"环镇南路81号"},{"poiid":"B2094752D16FAAF94999","title":"八佰伴","lon":"121.393311","lat":"31.173645","category":"247","category_name":"餐饮美食","address":"张杨路"},{"poiid":"B2094654DB65A4FB459C","title":"陇西洗衣No.1","lon":"121.39353","lat":"31.17509","category":"249","category_name":"购物服务","address":""},{"poiid":"B2094757D069ABFB4198","title":"四海游龙(吴中路二店)","lon":"121.39244","lat":"31.17945","category":"68","category_name":"快餐厅","address":"闵行区吴中路848号(近虹梅路)"},{"poiid":"B2094654D564A1F8499E","title":"川江捞火锅","lon":"121.38978318473","lat":"31.178091741255","category":"86","category_name":"火锅店","address":"环镇西路1号近吴中路"},{"poiid":"B2094654D564A0FE4899","title":"永腾大厦","lon":"121.38753","lat":"31.17644","category":"46","category_name":"楼宇","address":"闵行区吴中路1065号"},{"poiid":"B2094757D069AAF4499A","title":"EF英孚教育青少儿英语(中山公园中心)","lon":"121.39184914","lat":"31.177004813","category":"190","category_name":"培训机构","address":"上海长宁路1158号贝多芬广场4楼"},{"poiid":"B2094655D26EA4F8429E","title":"香辣居-香辣蟹","lon":"121.39124","lat":"31.1764984","category":"86","category_name":"火锅店","address":"虹桥镇环镇西路1号近吴中路"},{"poiid":"B2094757D469A0FA4399","title":"武记贵人鱼头王火锅","lon":"121.387225","lat":"31.177245","category":"86","category_name":"火锅店","address":"闵行区吴中路1068号燎申大厦1楼B座(近虹中路)"},{"poiid":"B2094757D06FA2FC419F","title":"上海歌城(吴中路店)","lon":"121.38819","lat":"31.17755","category":"170","category_name":"KTV","address":"闵行区吴中路1050号盛世莲花广场5幢北楼1-3楼(近莲花路)"},{"poiid":"B2094655D269A4F4499F","title":"华纳时尚酒店","lon":"121.39157","lat":"31.17053","category":"247","category_name":"餐饮美食","address":"莲花路1978号华纳时尚酒店内(近宜山路)"},{"poiid":"B2094757D469A0FD419A","title":"新南华大酒店 吴中店","lon":"121.38725230341","lat":"31.177105398643","category":"76","category_name":"上海菜","address":"吴中路1065号近虹中路口"},{"poiid":"B2094757D06FA0F4449F","title":"吴中路","lon":"121.393310547","lat":"31.1797122955","category":"500","category_name":"未知分类","address":"上海市吴中路"},{"poiid":"B2094757D06FA5F54392","title":"闵行区牙病防治所","lon":"121.39264","lat":"31.17916","category":"162","category_name":"医院","address":"闵行区吴中路829号(近虹梅路)"},{"poiid":"B2094654DB6BA7FA4498","title":"上虹新村","lon":"121.39123","lat":"31.173218","category":"47","category_name":"住宅区","address":"莲花路2151弄"},{"poiid":"B2094757D068AAFF459B","title":"合川大厦","lon":"121.391","lat":"31.1727","category":"46","category_name":"楼宇","address":"上海宜山路2016号"},{"poiid":"B2094757D16BA6FD409F","title":"黔庄","lon":"121.390507586","lat":"31.1781344126","category":"500","category_name":"未知分类","address":"闵行区吴中路933号(近环镇西路)"},{"poiid":"B2094655D26FABF8489A","title":"万源新城","lon":"121.393","lat":"31.1769","category":"47","category_name":"住宅区","address":"万源路2289弄1-39号"},{"poiid":"B2094654DB6BA7FA489A","title":"上虹新村1-6街坊","lon":"121.38819","lat":"31.17356","category":"47","category_name":"住宅区","address":"上海闵行区莲花路2151弄"},{"poiid":"B2094655D26EA6FE489D","title":"枫叶速8酒店(上海虹桥店)","lon":"121.39151","lat":"31.17648","category":"216","category_name":"经济型连锁酒店","address":"闵行区虹桥镇环镇西路33号(原环镇西路430号)"},{"poiid":"B2094757D069A1FD4093","title":"环镇南路环镇西路","lon":"121.392434","lat":"31.174833","category":"38","category_name":"公交车站","address":"上海931路环镇南路环镇西路站"},{"poiid":"B2094757D16CA4FD4099","title":"三娘鱼庄 吴中路店","lon":"121.387759054","lat":"31.178155793","category":"71","category_name":"四川菜","address":"闵行区吴中路1050号盛世莲花广场5幢北楼1楼(近莲花路)"},{"poiid":"B2094654D564A1F8409F","title":"上海虹桥医院","lon":"121.39499","lat":"31.17503","category":"162","category_name":"医院","address":"闵行区虹梅路2181号(近吴中路)"},{"poiid":"B2094655D268A5F54498","title":"航天新苑","lon":"121.39523","lat":"31.172298","category":"47","category_name":"住宅区","address":"航天新苑位于徐汇虹梅路2015弄11号"},{"poiid":"B2094655D26DA7FD4793","title":"上虹新村七、八、九街坊(环镇南街)","lon":"121.391","lat":"31.17433","category":"47","category_name":"住宅区","address":"莲花路2150弄"},{"poiid":"B2094757D064A5FE479F","title":"吴中路环镇西路","lon":"121.39199193","lat":"31.175632813","category":"500","category_name":"未知分类","address":"上海吴中路环镇西路"},{"poiid":"B2094757D16DA7F4469B","title":"远中产业园","lon":"121.393284586","lat":"31.1716072851","category":"46","category_name":"楼宇","address":"上海市徐汇区虹梅路2007号"},{"poiid":"B2094654D564A1FA4298","title":"光明便利No.175","lon":"121.39093","lat":"31.17427","category":"117","category_name":"便民商店/便利店","address":"闵行区莲花路2150弄24号"},{"poiid":"B2094757D66AA6FC4198","title":"东北农家菜 虹梅路","lon":"121.394544054","lat":"31.175447793","category":"82","category_name":"东北菜","address":"闵行区虹梅路2181号虹桥医院旁(近环镇南路)"},{"poiid":"B2094655D36CA0F4459B","title":"环镇南路莲花路","lon":"121.3901","lat":"31.17425","category":"38","category_name":"公交车站","address":""},{"poiid":"B2094654DB65A1FF4599","title":"湘阁哩辣餐馆","lon":"121.39244","lat":"31.17397","category":"257","category_name":"中餐厅","address":""},{"poiid":"B2094654D564A1F8459F","title":"光明乳业虹桥配送站","lon":"121.3934","lat":"31.17476","category":"117","category_name":"便民商店/便利店","address":""},{"poiid":"B2094655D26FA5F54192","title":"东苑怡和园","lon":"121.39144","lat":"31.17803","category":"47","category_name":"住宅区","address":"上海市闵行区虹梅路2899弄"},{"poiid":"B2094757D469A1FE4099","title":"新食尚 Minifoco","lon":"121.395817","lat":"31.174036","category":"68","category_name":"快餐厅","address":"闵行区虹梅路1801号圆房(近宜山路)"},{"poiid":"B2094655D26CAAF8469D","title":"虹梅小区","lon":"121.39598","lat":"31.17515","category":"47","category_name":"住宅区","address":"虹梅路2666弄1-22号"},{"poiid":"B2094757D16DAAFD489B","title":"全家便利虹梅路三店","lon":"121.39303058","lat":"31.174678345","category":"500","category_name":"未知分类","address":"上海虹梅路2007号,近漕河泾地铁站5号口"},{"poiid":"B2094757D56CA2F4429D","title":"竹亭 虹桥店","lon":"121.3884313","lat":"31.1739686","category":"76","category_name":"上海菜","address":"闵行区环镇南路110号(近莲花路)"},{"poiid":"B2094654DB69A5FB479A","title":"重庆鸡公煲 虹梅路店","lon":"121.394505054","lat":"31.175499793","category":"71","category_name":"四川菜","address":"闵行区虹梅路2181号(近虹桥医院)"},{"poiid":"B2094654D564A0FF4492","title":"利民饭店(环镇南街)","lon":"121.38948","lat":"31.17428","category":"68","category_name":"快餐厅","address":"闵行区环镇西路(近莲花路)"},{"poiid":"B2094757D764A5F9429F","title":"蒋记麻辣烫捞","lon":"121.395412","lat":"31.173552","category":"68","category_name":"快餐厅","address":"闵行区虹梅路2109号(近宜山路)"},{"poiid":"B2094654D564A0FF459D","title":"上海市上虹中学","lon":"121.38854","lat":"31.17469","category":"55","category_name":"中学","address":"闵行区环镇南路110号"},{"poiid":"B2094757D16FA3FF4092","title":"伊加伊(吴中路店)","lon":"121.38896","lat":"31.17734","category":"68","category_name":"快餐厅","address":"闵行区吴中路986号(莲花路口)"},{"poiid":"B2094655D268A2FA479F","title":"永兆豪庭(虹许路)","lon":"121.39625","lat":"31.17392","category":"47","category_name":"住宅区","address":"上海市徐汇区虹梅路2558弄"},{"poiid":"B2094654D564A0FF4598","title":"好德便利No.3021","lon":"121.38921","lat":"31.17418","category":"117","category_name":"便民商店/便利店","address":""},{"poiid":"B2094655D265A5FD4799","title":"蜀轩川菜","lon":"121.39563","lat":"31.17381","category":"71","category_name":"四川菜","address":"徐汇区虹梅路2107号(近宜山路)"},{"poiid":"B2094654DB6BA7FA479F","title":"灿虹精英大厦(吴中路)","lon":"121.38793","lat":"31.1768","category":"46","category_name":"楼宇","address":"吴中路1059"},{"poiid":"B2094757D168ABFC4892","title":"starbuck","lon":"121.389974","lat":"31.175036","category":"500","category_name":"未知分类","address":"上海吴中店闵行区吴中路1169-1号"},{"poiid":"B2094654D564A1F8419E","title":"欣健药房","lon":"121.39444","lat":"31.17528","category":"162","category_name":"医院","address":"虹桥镇"},{"poiid":"B2094654D564A1FF409C","title":"虹桥社区卫生服务中心","lon":"121.39252","lat":"31.17943","category":"162","category_name":"医院","address":"吴中路829"},{"poiid":"B2094757D66EABF94292","title":"嘉福楼中餐厅","lon":"121.39473358","lat":"31.175582362","category":"247","category_name":"餐饮美食","address":"上海市虹许路358号天禧嘉福2楼"},{"poiid":"B2094654D564A1F8459D","title":"上海华禾汽车维修有限公司","lon":"121.39359","lat":"31.17484","category":"159","category_name":"汽车维修","address":"环镇南路81号"},{"poiid":"B2094752D16FAAF94999","title":"八佰伴","lon":"121.393311","lat":"31.173645","category":"247","category_name":"餐饮美食","address":"张杨路"},{"poiid":"B2094654DB65A4FB459C","title":"陇西洗衣No.1","lon":"121.39353","lat":"31.17509","category":"249","category_name":"购物服务","address":""},{"poiid":"B2094757D069ABFB4198","title":"四海游龙(吴中路二店)","lon":"121.39244","lat":"31.17945","category":"68","category_name":"快餐厅","address":"闵行区吴中路848号(近虹梅路)"},{"poiid":"B2094654D564A1F8499E","title":"川江捞火锅","lon":"121.38978318473","lat":"31.178091741255","category":"86","category_name":"火锅店","address":"环镇西路1号近吴中路"},{"poiid":"B2094654D564A0FE4899","title":"永腾大厦","lon":"121.38753","lat":"31.17644","category":"46","category_name":"楼宇","address":"闵行区吴中路1065号"},{"poiid":"B2094757D069AAF4499A","title":"EF英孚教育青少儿英语(中山公园中心)","lon":"121.39184914","lat":"31.177004813","category":"190","category_name":"培训机构","address":"上海长宁路1158号贝多芬广场4楼"},{"poiid":"B2094655D26EA4F8429E","title":"香辣居-香辣蟹","lon":"121.39124","lat":"31.1764984","category":"86","category_name":"火锅店","address":"虹桥镇环镇西路1号近吴中路"},{"poiid":"B2094757D469A0FA4399","title":"武记贵人鱼头王火锅","lon":"121.387225","lat":"31.177245","category":"86","category_name":"火锅店","address":"闵行区吴中路1068号燎申大厦1楼B座(近虹中路)"}]