[{"poiid":"B2094655D26CA4F9419A","title":"上海市胸科医院","lon":"121.42588","lat":"31.1974","category":"162","category_name":"医院","address":"长宁区淮海西路241号(近番禺路)"},{"poiid":"B2094757D06FA6FE459F","title":"民生现代美术馆","lon":"121.42471","lat":"31.19758","category":"184","category_name":"美术馆","address":"长宁区淮海西路570号红坊创意园区F座(近虹桥路)"},{"poiid":"B2094654DB6BA7F44592","title":"东骏燕窝鱼翅海鲜酒家","lon":"121.42529","lat":"31.19835","category":"72","category_name":"广东菜","address":"长宁区淮海西路518号(近虹桥路)"},{"poiid":"B2094757D06FA1FC469E","title":"阳光名邸大酒店","lon":"121.42292","lat":"31.19439","category":"72","category_name":"广东菜","address":"徐汇区虹桥路888号(凯旋路口)"},{"poiid":"B2094757D16CA1F8469C","title":"新淮海坊","lon":"121.42218328","lat":"31.196099263","category":"119","category_name":"商场","address":"长宁区淮海西路680号"},{"poiid":"B2094654DB69A5F9449C","title":"星巴克(新华路店)","lon":"121.42278","lat":"31.19601","category":"260","category_name":"其他","address":"长宁区淮海西路666号(近虹桥路)"},{"poiid":"B2094750DA6FAAFE4392","title":"茶香书香(新淮海坊店)","lon":"121.423049","lat":"31.197093","category":"113","category_name":"冷饮店","address":"徐汇区淮海西路676号1-02号铺新淮海坊内(近虹桥路地铁站)"},{"poiid":"B2094757D06FA6FE479A","title":"上海城市雕塑艺术中心","lon":"121.42512512","lat":"31.198225021","category":"260","category_name":"其他","address":"长宁区淮海西路568号(近虹桥路)"},{"poiid":"B2094655D36CA7F8449A","title":"虹桥路凯旋路","lon":"121.42317","lat":"31.19512","category":"38","category_name":"公交车站","address":""},{"poiid":"B2094757D068AAFA4692","title":"东方射击射箭馆","lon":"121.42682","lat":"31.19442","category":"220","category_name":"运动场所","address":"上海虹桥路663号(近番禺绿地)  "},{"poiid":"B2094757D069AAFC4893","title":"老刘野生大鱼坊(番禺路店)","lon":"121.42839","lat":"31.19603","category":"82","category_name":"东北菜","address":"徐汇区番禺路888号2楼(近虹桥路)"},{"poiid":"B2094757D06FA1F4479C","title":"上海数娱大厦","lon":"121.42780037","lat":"31.193787149","category":"46","category_name":"楼宇","address":"上海番禺路1028号"},{"poiid":"B2094757D06FA6FE4899","title":"虹桥路凯旋路口","lon":"121.42411","lat":"31.194756","category":"500","category_name":"未知分类","address":"上海虹桥路凯旋路口"},{"poiid":"B2094655D26EAAFD449C","title":"上海市昂立学院(番禺路)","lon":"121.42809","lat":"31.19708","category":"52","category_name":"高等院校","address":"徐汇区番禺路868"},{"poiid":"B2094757D068A2FB4898","title":"旬彩亭","lon":"121.42219","lat":"31.19471","category":"95","category_name":"日本料理","address":"徐汇区凯旋路1669号2楼(虹桥路口)"},{"poiid":"B2094750D268A7FE4499","title":"贝蕾魔法 Black Magic Chocolate","lon":"121.42454624176","lat":"31.197494950511","category":"67","category_name":"甜品店","address":"长宁区淮海西路570号红坊D幢(近虹桥路)"},{"poiid":"B2094757D06FA1F8409E","title":"亚力山大会馆(虹桥路店)","lon":"121.42813","lat":"31.19334","category":"221","category_name":"健身中心","address":"徐汇区虹桥路600号(近番禺路)"},{"poiid":"B2094750DB6BA2FB4999","title":"星巴克新淮海坊","lon":"121.427413","lat":"31.19465","category":"500","category_name":"未知分类","address":null},{"poiid":"B2094654DB6BA7FF489E","title":"锦江锦馨苑","lon":"121.423485","lat":"31.194314","category":"47","category_name":"住宅区","address":"上海徐汇区古井路38弄"},{"poiid":"B2094757D068ABF5429B","title":"上海交通大学(加华)","lon":"121.423516","lat":"31.193536","category":"52","category_name":"高等院校","address":"上海凯旋路1726号"},{"poiid":"B2094757D06FAAFB4498","title":"上海新东方学校(番禺路校区)","lon":"121.42843","lat":"31.19542","category":"253","category_name":"校园生活","address":"徐汇区番禺路900号1楼(近虹桥路)"},{"poiid":"B2094753D76FA5FE4093","title":"小黑蚝情","lon":"121.423011","lat":"31.195306","category":"247","category_name":"餐饮美食","address":"上海市 长宁区淮海西路新淮海坊"},{"poiid":"B2094757D06FA4F54693","title":"东北四季饺子王(番禺路店)","lon":"121.428130321","lat":"31.1959206491","category":"82","category_name":"东北菜","address":"徐汇区番禺路888号(近秀山路)"},{"poiid":"B2094757D06FABF9419E","title":"虹桥乐庭","lon":"121.42609","lat":"31.193653","category":"47","category_name":"住宅区","address":"上海虹桥路666弄"},{"poiid":"B2094757D069A1F94193","title":"上海公用事业学校(凯旋校区)","lon":"121.424535","lat":"31.192336","category":"500","category_name":"未知分类","address":"上海徐汇区凯旋路2050号"},{"poiid":"B2094654DA6DA3F5409A","title":"加华商务广场","lon":"121.42414","lat":"31.1945","category":"46","category_name":"楼宇","address":"上海虹桥路808号"},{"poiid":"B2094757D06FA5FE4499","title":"Beca Cafe &amp; Bar","lon":"121.42359","lat":"31.19671","category":"94","category_name":"西餐厅","address":"长宁区淮海西路570号红坊创意园区C-6单元(近虹桥路)"},{"poiid":"B2094655D26EA6FF439D","title":"汉庭快捷酒店(上海交大店)","lon":"121.42843","lat":"31.19504","category":"216","category_name":"经济型连锁酒店","address":"徐汇区番禺路955号(近虹桥路)"},{"poiid":"B2094750D56FA3FD4399","title":"玖洋捞精品牛肉海鲜火锅","lon":"121.422691","lat":"31.196554","category":"86","category_name":"火锅店","address":"上海市长宁区淮海西路678号新淮海坊内(近虹桥路)"},{"poiid":"B2094757D469A0FB4699","title":"克切拉素品茶","lon":"121.4242652","lat":"31.1976016","category":"89","category_name":"中式素餐馆","address":"长宁区淮海西路570号G113单元(近虹桥路)"},{"poiid":"B2094750D66DA1FF4498","title":"正大广场","lon":"121.425117","lat":"31.19536","category":"500","category_name":"未知分类","address":null},{"poiid":"B2094655D26FA5FE439B","title":"虹二小区","lon":"121.42538","lat":"31.195839","category":"47","category_name":"住宅区","address":"虹桥路693弄1-39号"},{"poiid":"B2094757D169A3F4499B","title":"虹桥路番禺路","lon":"121.425148586","lat":"31.1948657395","category":"500","category_name":"未知分类","address":"上海市"},{"poiid":"B2094654DA6DA3F9429C","title":"爱情公寓","lon":"121.42775","lat":"31.19459","category":"263","category_name":"公司","address":"番禺路1028号上海数娱大厦1108"},{"poiid":"B2094757D06FA6FB459C","title":"7-ELEVEN(新番禺店)","lon":"121.428344727","lat":"31.1967391968","category":"117","category_name":"便民商店/便利店","address":"徐汇区番禺路878号(番禺路秀山路)"},{"poiid":"B2094757D06AA1F84793","title":"海螺大厦","lon":"121.426","lat":"31.1985","category":"46","category_name":"楼宇","address":"徐汇区中山西路1277号"},{"poiid":"B2094757D068A1F44599","title":"番禺绿地","lon":"121.42766","lat":"31.19429","category":"196","category_name":"公园","address":"徐汇区虹桥路637号(番禺路口)"},{"poiid":"B2094750DA69A5FA419D","title":"日月光","lon":"121.425315","lat":"31.19235","category":"247","category_name":"餐饮美食","address":null},{"poiid":"B2094750D26EABFC419E","title":"九号线宜山路站","lon":"121.424537","lat":"31.197687","category":"500","category_name":"未知分类","address":null},{"poiid":"B2094654DA6DA3F9419E","title":"虹二小区(南门)","lon":"121.42514","lat":"31.19514","category":"47","category_name":"住宅区","address":"虹桥路693弄1-39号"},{"poiid":"B2094757D06BA3FF499B","title":"怡园苏州汤包馆","lon":"121.42357488","lat":"31.195575253","category":"68","category_name":"快餐厅","address":"徐汇区凯旋路(虹桥路口)"},{"poiid":"B2094654DB65A4FE469E","title":"红记小厨","lon":"121.422311054","lat":"31.195088793","category":"76","category_name":"上海菜","address":"虹桥路788号近凯旋路"},{"poiid":"B2094752D26CA2F94599","title":"串坊创意烧肉餐吧","lon":"121.42284","lat":"31.19605","category":"269","category_name":"烧烤","address":"长宁区淮海西路686号新淮海坊内(近虹桥路地铁站)"},{"poiid":"B2094757D465A4FC4793","title":"四海游龙 番禺路店 OVERSEAS DRAGON","lon":"121.427827054","lat":"31.193939793","category":"68","category_name":"快餐厅","address":"徐汇区番禺路955号(近虹桥路)"},{"poiid":"B209475DD16CA5FD439C","title":"上海影城","lon":"121.426429","lat":"31.194602","category":"178","category_name":"电影院","address":"上海市 长宁区新华路260号"},{"poiid":"B2094655D265A3F94193","title":"嘉浩之家","lon":"121.42464","lat":"31.19411","category":"76","category_name":"上海菜","address":"徐汇区虹桥路772弄3号凯虹宾馆2楼(近番禺路)"},{"poiid":"B2094757D168AAFA4199","title":"上海医疗器械高等专科学校","lon":"121.42613558","lat":"31.195460751","category":"671","category_name":"高校中心点","address":"上海杨浦区营口路101号"},{"poiid":"B2094751DB65A1F8489C","title":"泰生天地","lon":"121.42278","lat":"31.19601","category":"86","category_name":"火锅店","address":"长宁区淮海西路666号裙楼1楼(近虹桥路)"},{"poiid":"B2094751D569ABFB4493","title":"港丽茶餐厅","lon":"121.425799","lat":"31.195264","category":"500","category_name":"未知分类","address":null},{"poiid":"B2094757D16DAAF4499B","title":"千子莲足浴(虹桥路店)","lon":"121.42561101","lat":"31.194665035","category":"148","category_name":"美容美发店","address":"上海虹桥路番禺路"},{"poiid":"B2094655D26CA4F9419A","title":"上海市胸科医院","lon":"121.42588","lat":"31.1974","category":"162","category_name":"医院","address":"长宁区淮海西路241号(近番禺路)"},{"poiid":"B2094757D06FA6FE459F","title":"民生现代美术馆","lon":"121.42471","lat":"31.19758","category":"184","category_name":"美术馆","address":"长宁区淮海西路570号红坊创意园区F座(近虹桥路)"},{"poiid":"B2094654DB6BA7F44592","title":"东骏燕窝鱼翅海鲜酒家","lon":"121.42529","lat":"31.19835","category":"72","category_name":"广东菜","address":"长宁区淮海西路518号(近虹桥路)"},{"poiid":"B2094757D06FA1FC469E","title":"阳光名邸大酒店","lon":"121.42292","lat":"31.19439","category":"72","category_name":"广东菜","address":"徐汇区虹桥路888号(凯旋路口)"},{"poiid":"B2094757D16CA1F8469C","title":"新淮海坊","lon":"121.42218328","lat":"31.196099263","category":"119","category_name":"商场","address":"长宁区淮海西路680号"},{"poiid":"B2094654DB69A5F9449C","title":"星巴克(新华路店)","lon":"121.42278","lat":"31.19601","category":"260","category_name":"其他","address":"长宁区淮海西路666号(近虹桥路)"},{"poiid":"B2094750DA6FAAFE4392","title":"茶香书香(新淮海坊店)","lon":"121.423049","lat":"31.197093","category":"113","category_name":"冷饮店","address":"徐汇区淮海西路676号1-02号铺新淮海坊内(近虹桥路地铁站)"},{"poiid":"B2094757D06FA6FE479A","title":"上海城市雕塑艺术中心","lon":"121.42512512","lat":"31.198225021","category":"260","category_name":"其他","address":"长宁区淮海西路568号(近虹桥路)"},{"poiid":"B2094655D36CA7F8449A","title":"虹桥路凯旋路","lon":"121.42317","lat":"31.19512","category":"38","category_name":"公交车站","address":""},{"poiid":"B2094757D068AAFA4692","title":"东方射击射箭馆","lon":"121.42682","lat":"31.19442","category":"220","category_name":"运动场所","address":"上海虹桥路663号(近番禺绿地)  "},{"poiid":"B2094757D069AAFC4893","title":"老刘野生大鱼坊(番禺路店)","lon":"121.42839","lat":"31.19603","category":"82","category_name":"东北菜","address":"徐汇区番禺路888号2楼(近虹桥路)"},{"poiid":"B2094757D06FA1F4479C","title":"上海数娱大厦","lon":"121.42780037","lat":"31.193787149","category":"46","category_name":"楼宇","address":"上海番禺路1028号"},{"poiid":"B2094757D06FA6FE4899","title":"虹桥路凯旋路口","lon":"121.42411","lat":"31.194756","category":"500","category_name":"未知分类","address":"上海虹桥路凯旋路口"},{"poiid":"B2094655D26EAAFD449C","title":"上海市昂立学院(番禺路)","lon":"121.42809","lat":"31.19708","category":"52","category_name":"高等院校","address":"徐汇区番禺路868"},{"poiid":"B2094757D068A2FB4898","title":"旬彩亭","lon":"121.42219","lat":"31.19471","category":"95","category_name":"日本料理","address":"徐汇区凯旋路1669号2楼(虹桥路口)"},{"poiid":"B2094750D268A7FE4499","title":"贝蕾魔法 Black Magic Chocolate","lon":"121.42454624176","lat":"31.197494950511","category":"67","category_name":"甜品店","address":"长宁区淮海西路570号红坊D幢(近虹桥路)"},{"poiid":"B2094757D06FA1F8409E","title":"亚力山大会馆(虹桥路店)","lon":"121.42813","lat":"31.19334","category":"221","category_name":"健身中心","address":"徐汇区虹桥路600号(近番禺路)"},{"poiid":"B2094750DB6BA2FB4999","title":"星巴克新淮海坊","lon":"121.427413","lat":"31.19465","category":"500","category_name":"未知分类","address":null},{"poiid":"B2094654DB6BA7FF489E","title":"锦江锦馨苑","lon":"121.423485","lat":"31.194314","category":"47","category_name":"住宅区","address":"上海徐汇区古井路38弄"},{"poiid":"B2094757D068ABF5429B","title":"上海交通大学(加华)","lon":"121.423516","lat":"31.193536","category":"52","category_name":"高等院校","address":"上海凯旋路1726号"},{"poiid":"B2094757D06FAAFB4498","title":"上海新东方学校(番禺路校区)","lon":"121.42843","lat":"31.19542","category":"253","category_name":"校园生活","address":"徐汇区番禺路900号1楼(近虹桥路)"},{"poiid":"B2094753D76FA5FE4093","title":"小黑蚝情","lon":"121.423011","lat":"31.195306","category":"247","category_name":"餐饮美食","address":"上海市 长宁区淮海西路新淮海坊"},{"poiid":"B2094757D06FA4F54693","title":"东北四季饺子王(番禺路店)","lon":"121.428130321","lat":"31.1959206491","category":"82","category_name":"东北菜","address":"徐汇区番禺路888号(近秀山路)"},{"poiid":"B2094757D06FABF9419E","title":"虹桥乐庭","lon":"121.42609","lat":"31.193653","category":"47","category_name":"住宅区","address":"上海虹桥路666弄"},{"poiid":"B2094757D069A1F94193","title":"上海公用事业学校(凯旋校区)","lon":"121.424535","lat":"31.192336","category":"500","category_name":"未知分类","address":"上海徐汇区凯旋路2050号"},{"poiid":"B2094654DA6DA3F5409A","title":"加华商务广场","lon":"121.42414","lat":"31.1945","category":"46","category_name":"楼宇","address":"上海虹桥路808号"},{"poiid":"B2094757D06FA5FE4499","title":"Beca Cafe &amp; Bar","lon":"121.42359","lat":"31.19671","category":"94","category_name":"西餐厅","address":"长宁区淮海西路570号红坊创意园区C-6单元(近虹桥路)"},{"poiid":"B2094655D26EA6FF439D","title":"汉庭快捷酒店(上海交大店)","lon":"121.42843","lat":"31.19504","category":"216","category_name":"经济型连锁酒店","address":"徐汇区番禺路955号(近虹桥路)"},{"poiid":"B2094750D56FA3FD4399","title":"玖洋捞精品牛肉海鲜火锅","lon":"121.422691","lat":"31.196554","category":"86","category_name":"火锅店","address":"上海市长宁区淮海西路678号新淮海坊内(近虹桥路)"},{"poiid":"B2094757D469A0FB4699","title":"克切拉素品茶","lon":"121.4242652","lat":"31.1976016","category":"89","category_name":"中式素餐馆","address":"长宁区淮海西路570号G113单元(近虹桥路)"},{"poiid":"B2094750D66DA1FF4498","title":"正大广场","lon":"121.425117","lat":"31.19536","category":"500","category_name":"未知分类","address":null},{"poiid":"B2094655D26FA5FE439B","title":"虹二小区","lon":"121.42538","lat":"31.195839","category":"47","category_name":"住宅区","address":"虹桥路693弄1-39号"},{"poiid":"B2094757D169A3F4499B","title":"虹桥路番禺路","lon":"121.425148586","lat":"31.1948657395","category":"500","category_name":"未知分类","address":"上海市"},{"poiid":"B2094654DA6DA3F9429C","title":"爱情公寓","lon":"121.42775","lat":"31.19459","category":"263","category_name":"公司","address":"番禺路1028号上海数娱大厦1108"},{"poiid":"B2094757D06FA6FB459C","title":"7-ELEVEN(新番禺店)","lon":"121.428344727","lat":"31.1967391968","category":"117","category_name":"便民商店/便利店","address":"徐汇区番禺路878号(番禺路秀山路)"},{"poiid":"B2094757D06AA1F84793","title":"海螺大厦","lon":"121.426","lat":"31.1985","category":"46","category_name":"楼宇","address":"徐汇区中山西路1277号"},{"poiid":"B2094757D068A1F44599","title":"番禺绿地","lon":"121.42766","lat":"31.19429","category":"196","category_name":"公园","address":"徐汇区虹桥路637号(番禺路口)"},{"poiid":"B2094750DA69A5FA419D","title":"日月光","lon":"121.425315","lat":"31.19235","category":"247","category_name":"餐饮美食","address":null},{"poiid":"B2094750D26EABFC419E","title":"九号线宜山路站","lon":"121.424537","lat":"31.197687","category":"500","category_name":"未知分类","address":null},{"poiid":"B2094654DA6DA3F9419E","title":"虹二小区(南门)","lon":"121.42514","lat":"31.19514","category":"47","category_name":"住宅区","address":"虹桥路693弄1-39号"},{"poiid":"B2094757D06BA3FF499B","title":"怡园苏州汤包馆","lon":"121.42357488","lat":"31.195575253","category":"68","category_name":"快餐厅","address":"徐汇区凯旋路(虹桥路口)"},{"poiid":"B2094654DB65A4FE469E","title":"红记小厨","lon":"121.422311054","lat":"31.195088793","category":"76","category_name":"上海菜","address":"虹桥路788号近凯旋路"},{"poiid":"B2094752D26CA2F94599","title":"串坊创意烧肉餐吧","lon":"121.42284","lat":"31.19605","category":"269","category_name":"烧烤","address":"长宁区淮海西路686号新淮海坊内(近虹桥路地铁站)"},{"poiid":"B2094757D465A4FC4793","title":"四海游龙 番禺路店 OVERSEAS DRAGON","lon":"121.427827054","lat":"31.193939793","category":"68","category_name":"快餐厅","address":"徐汇区番禺路955号(近虹桥路)"},{"poiid":"B209475DD16CA5FD439C","title":"上海影城","lon":"121.426429","lat":"31.194602","category":"178","category_name":"电影院","address":"上海市 长宁区新华路260号"},{"poiid":"B2094655D265A3F94193","title":"嘉浩之家","lon":"121.42464","lat":"31.19411","category":"76","category_name":"上海菜","address":"徐汇区虹桥路772弄3号凯虹宾馆2楼(近番禺路)"},{"poiid":"B2094757D168AAFA4199","title":"上海医疗器械高等专科学校","lon":"121.42613558","lat":"31.195460751","category":"671","category_name":"高校中心点","address":"上海杨浦区营口路101号"},{"poiid":"B2094751DB65A1F8489C","title":"泰生天地","lon":"121.42278","lat":"31.19601","category":"86","category_name":"火锅店","address":"长宁区淮海西路666号裙楼1楼(近虹桥路)"},{"poiid":"B2094751D569ABFB4493","title":"港丽茶餐厅","lon":"121.425799","lat":"31.195264","category":"500","category_name":"未知分类","address":null},{"poiid":"B2094757D16DAAF4499B","title":"千子莲足浴(虹桥路店)","lon":"121.42561101","lat":"31.194665035","category":"148","category_name":"美容美发店","address":"上海虹桥路番禺路"},{"poiid":"B2094655D26CA4F9419A","title":"上海市胸科医院","lon":"121.42588","lat":"31.1974","category":"162","category_name":"医院","address":"长宁区淮海西路241号(近番禺路)"},{"poiid":"B2094757D06FA6FE459F","title":"民生现代美术馆","lon":"121.42471","lat":"31.19758","category":"184","category_name":"美术馆","address":"长宁区淮海西路570号红坊创意园区F座(近虹桥路)"},{"poiid":"B2094654DB6BA7F44592","title":"东骏燕窝鱼翅海鲜酒家","lon":"121.42529","lat":"31.19835","category":"72","category_name":"广东菜","address":"长宁区淮海西路518号(近虹桥路)"},{"poiid":"B2094757D06FA1FC469E","title":"阳光名邸大酒店","lon":"121.42292","lat":"31.19439","category":"72","category_name":"广东菜","address":"徐汇区虹桥路888号(凯旋路口)"},{"poiid":"B2094757D16CA1F8469C","title":"新淮海坊","lon":"121.42218328","lat":"31.196099263","category":"119","category_name":"商场","address":"长宁区淮海西路680号"},{"poiid":"B2094654DB69A5F9449C","title":"星巴克(新华路店)","lon":"121.42278","lat":"31.19601","category":"260","category_name":"其他","address":"长宁区淮海西路666号(近虹桥路)"},{"poiid":"B2094750DA6FAAFE4392","title":"茶香书香(新淮海坊店)","lon":"121.423049","lat":"31.197093","category":"113","category_name":"冷饮店","address":"徐汇区淮海西路676号1-02号铺新淮海坊内(近虹桥路地铁站)"},{"poiid":"B2094757D06FA6FE479A","title":"上海城市雕塑艺术中心","lon":"121.42512512","lat":"31.198225021","category":"260","category_name":"其他","address":"长宁区淮海西路568号(近虹桥路)"},{"poiid":"B2094655D36CA7F8449A","title":"虹桥路凯旋路","lon":"121.42317","lat":"31.19512","category":"38","category_name":"公交车站","address":""},{"poiid":"B2094757D068AAFA4692","title":"东方射击射箭馆","lon":"121.42682","lat":"31.19442","category":"220","category_name":"运动场所","address":"上海虹桥路663号(近番禺绿地)  "},{"poiid":"B2094757D069AAFC4893","title":"老刘野生大鱼坊(番禺路店)","lon":"121.42839","lat":"31.19603","category":"82","category_name":"东北菜","address":"徐汇区番禺路888号2楼(近虹桥路)"},{"poiid":"B2094757D06FA1F4479C","title":"上海数娱大厦","lon":"121.42780037","lat":"31.193787149","category":"46","category_name":"楼宇","address":"上海番禺路1028号"},{"poiid":"B2094757D06FA6FE4899","title":"虹桥路凯旋路口","lon":"121.42411","lat":"31.194756","category":"500","category_name":"未知分类","address":"上海虹桥路凯旋路口"},{"poiid":"B2094655D26EAAFD449C","title":"上海市昂立学院(番禺路)","lon":"121.42809","lat":"31.19708","category":"52","category_name":"高等院校","address":"徐汇区番禺路868"},{"poiid":"B2094757D068A2FB4898","title":"旬彩亭","lon":"121.42219","lat":"31.19471","category":"95","category_name":"日本料理","address":"徐汇区凯旋路1669号2楼(虹桥路口)"},{"poiid":"B2094750D268A7FE4499","title":"贝蕾魔法 Black Magic Chocolate","lon":"121.42454624176","lat":"31.197494950511","category":"67","category_name":"甜品店","address":"长宁区淮海西路570号红坊D幢(近虹桥路)"},{"poiid":"B2094757D06FA1F8409E","title":"亚力山大会馆(虹桥路店)","lon":"121.42813","lat":"31.19334","category":"221","category_name":"健身中心","address":"徐汇区虹桥路600号(近番禺路)"},{"poiid":"B2094750DB6BA2FB4999","title":"星巴克新淮海坊","lon":"121.427413","lat":"31.19465","category":"500","category_name":"未知分类","address":null},{"poiid":"B2094654DB6BA7FF489E","title":"锦江锦馨苑","lon":"121.423485","lat":"31.194314","category":"47","category_name":"住宅区","address":"上海徐汇区古井路38弄"},{"poiid":"B2094757D068ABF5429B","title":"上海交通大学(加华)","lon":"121.423516","lat":"31.193536","category":"52","category_name":"高等院校","address":"上海凯旋路1726号"},{"poiid":"B2094757D06FAAFB4498","title":"上海新东方学校(番禺路校区)","lon":"121.42843","lat":"31.19542","category":"253","category_name":"校园生活","address":"徐汇区番禺路900号1楼(近虹桥路)"},{"poiid":"B2094753D76FA5FE4093","title":"小黑蚝情","lon":"121.423011","lat":"31.195306","category":"247","category_name":"餐饮美食","address":"上海市 长宁区淮海西路新淮海坊"},{"poiid":"B2094757D06FA4F54693","title":"东北四季饺子王(番禺路店)","lon":"121.428130321","lat":"31.1959206491","category":"82","category_name":"东北菜","address":"徐汇区番禺路888号(近秀山路)"},{"poiid":"B2094757D06FABF9419E","title":"虹桥乐庭","lon":"121.42609","lat":"31.193653","category":"47","category_name":"住宅区","address":"上海虹桥路666弄"},{"poiid":"B2094757D069A1F94193","title":"上海公用事业学校(凯旋校区)","lon":"121.424535","lat":"31.192336","category":"500","category_name":"未知分类","address":"上海徐汇区凯旋路2050号"},{"poiid":"B2094654DA6DA3F5409A","title":"加华商务广场","lon":"121.42414","lat":"31.1945","category":"46","category_name":"楼宇","address":"上海虹桥路808号"},{"poiid":"B2094757D06FA5FE4499","title":"Beca Cafe &amp; Bar","lon":"121.42359","lat":"31.19671","category":"94","category_name":"西餐厅","address":"长宁区淮海西路570号红坊创意园区C-6单元(近虹桥路)"},{"poiid":"B2094655D26EA6FF439D","title":"汉庭快捷酒店(上海交大店)","lon":"121.42843","lat":"31.19504","category":"216","category_name":"经济型连锁酒店","address":"徐汇区番禺路955号(近虹桥路)"},{"poiid":"B2094750D56FA3FD4399","title":"玖洋捞精品牛肉海鲜火锅","lon":"121.422691","lat":"31.196554","category":"86","category_name":"火锅店","address":"上海市长宁区淮海西路678号新淮海坊内(近虹桥路)"},{"poiid":"B2094757D469A0FB4699","title":"克切拉素品茶","lon":"121.4242652","lat":"31.1976016","category":"89","category_name":"中式素餐馆","address":"长宁区淮海西路570号G113单元(近虹桥路)"},{"poiid":"B2094750D66DA1FF4498","title":"正大广场","lon":"121.425117","lat":"31.19536","category":"500","category_name":"未知分类","address":null},{"poiid":"B2094655D26FA5FE439B","title":"虹二小区","lon":"121.42538","lat":"31.195839","category":"47","category_name":"住宅区","address":"虹桥路693弄1-39号"},{"poiid":"B2094757D169A3F4499B","title":"虹桥路番禺路","lon":"121.425148586","lat":"31.1948657395","category":"500","category_name":"未知分类","address":"上海市"},{"poiid":"B2094654DA6DA3F9429C","title":"爱情公寓","lon":"121.42775","lat":"31.19459","category":"263","category_name":"公司","address":"番禺路1028号上海数娱大厦1108"},{"poiid":"B2094757D06FA6FB459C","title":"7-ELEVEN(新番禺店)","lon":"121.428344727","lat":"31.1967391968","category":"117","category_name":"便民商店/便利店","address":"徐汇区番禺路878号(番禺路秀山路)"},{"poiid":"B2094757D06AA1F84793","title":"海螺大厦","lon":"121.426","lat":"31.1985","category":"46","category_name":"楼宇","address":"徐汇区中山西路1277号"},{"poiid":"B2094757D068A1F44599","title":"番禺绿地","lon":"121.42766","lat":"31.19429","category":"196","category_name":"公园","address":"徐汇区虹桥路637号(番禺路口)"},{"poiid":"B2094750DA69A5FA419D","title":"日月光","lon":"121.425315","lat":"31.19235","category":"247","category_name":"餐饮美食","address":null},{"poiid":"B2094750D26EABFC419E","title":"九号线宜山路站","lon":"121.424537","lat":"31.197687","category":"500","category_name":"未知分类","address":null},{"poiid":"B2094654DA6DA3F9419E","title":"虹二小区(南门)","lon":"121.42514","lat":"31.19514","category":"47","category_name":"住宅区","address":"虹桥路693弄1-39号"},{"poiid":"B2094757D06BA3FF499B","title":"怡园苏州汤包馆","lon":"121.42357488","lat":"31.195575253","category":"68","category_name":"快餐厅","address":"徐汇区凯旋路(虹桥路口)"},{"poiid":"B2094654DB65A4FE469E","title":"红记小厨","lon":"121.422311054","lat":"31.195088793","category":"76","category_name":"上海菜","address":"虹桥路788号近凯旋路"},{"poiid":"B2094752D26CA2F94599","title":"串坊创意烧肉餐吧","lon":"121.42284","lat":"31.19605","category":"269","category_name":"烧烤","address":"长宁区淮海西路686号新淮海坊内(近虹桥路地铁站)"},{"poiid":"B2094757D465A4FC4793","title":"四海游龙 番禺路店 OVERSEAS DRAGON","lon":"121.427827054","lat":"31.193939793","category":"68","category_name":"快餐厅","address":"徐汇区番禺路955号(近虹桥路)"},{"poiid":"B209475DD16CA5FD439C","title":"上海影城","lon":"121.426429","lat":"31.194602","category":"178","category_name":"电影院","address":"上海市 长宁区新华路260号"},{"poiid":"B2094655D265A3F94193","title":"嘉浩之家","lon":"121.42464","lat":"31.19411","category":"76","category_name":"上海菜","address":"徐汇区虹桥路772弄3号凯虹宾馆2楼(近番禺路)"},{"poiid":"B2094757D168AAFA4199","title":"上海医疗器械高等专科学校","lon":"121.42613558","lat":"31.195460751","category":"671","category_name":"高校中心点","address":"上海杨浦区营口路101号"},{"poiid":"B2094751DB65A1F8489C","title":"泰生天地","lon":"121.42278","lat":"31.19601","category":"86","category_name":"火锅店","address":"长宁区淮海西路666号裙楼1楼(近虹桥路)"},{"poiid":"B2094751D569ABFB4493","title":"港丽茶餐厅","lon":"121.425799","lat":"31.195264","category":"500","category_name":"未知分类","address":null},{"poiid":"B2094757D16DAAF4499B","title":"千子莲足浴(虹桥路店)","lon":"121.42561101","lat":"31.194665035","category":"148","category_name":"美容美发店","address":"上海虹桥路番禺路"},{"poiid":"B2094655D26CA4F9419A","title":"上海市胸科医院","lon":"121.42588","lat":"31.1974","category":"162","category_name":"医院","address":"长宁区淮海西路241号(近番禺路)"},{"poiid":"B2094757D06FA6FE459F","title":"民生现代美术馆","lon":"121.42471","lat":"31.19758","category":"184","category_name":"美术馆","address":"长宁区淮海西路570号红坊创意园区F座(近虹桥路)"},{"poiid":"B2094654DB6BA7F44592","title":"东骏燕窝鱼翅海鲜酒家","lon":"121.42529","lat":"31.19835","category":"72","category_name":"广东菜","address":"长宁区淮海西路518号(近虹桥路)"},{"poiid":"B2094757D06FA1FC469E","title":"阳光名邸大酒店","lon":"121.42292","lat":"31.19439","category":"72","category_name":"广东菜","address":"徐汇区虹桥路888号(凯旋路口)"},{"poiid":"B2094757D16CA1F8469C","title":"新淮海坊","lon":"121.42218328","lat":"31.196099263","category":"119","category_name":"商场","address":"长宁区淮海西路680号"},{"poiid":"B2094654DB69A5F9449C","title":"星巴克(新华路店)","lon":"121.42278","lat":"31.19601","category":"260","category_name":"其他","address":"长宁区淮海西路666号(近虹桥路)"},{"poiid":"B2094750DA6FAAFE4392","title":"茶香书香(新淮海坊店)","lon":"121.423049","lat":"31.197093","category":"113","category_name":"冷饮店","address":"徐汇区淮海西路676号1-02号铺新淮海坊内(近虹桥路地铁站)"},{"poiid":"B2094757D06FA6FE479A","title":"上海城市雕塑艺术中心","lon":"121.42512512","lat":"31.198225021","category":"260","category_name":"其他","address":"长宁区淮海西路568号(近虹桥路)"},{"poiid":"B2094655D36CA7F8449A","title":"虹桥路凯旋路","lon":"121.42317","lat":"31.19512","category":"38","category_name":"公交车站","address":""},{"poiid":"B2094757D068AAFA4692","title":"东方射击射箭馆","lon":"121.42682","lat":"31.19442","category":"220","category_name":"运动场所","address":"上海虹桥路663号(近番禺绿地)  "},{"poiid":"B2094757D069AAFC4893","title":"老刘野生大鱼坊(番禺路店)","lon":"121.42839","lat":"31.19603","category":"82","category_name":"东北菜","address":"徐汇区番禺路888号2楼(近虹桥路)"},{"poiid":"B2094757D06FA1F4479C","title":"上海数娱大厦","lon":"121.42780037","lat":"31.193787149","category":"46","category_name":"楼宇","address":"上海番禺路1028号"},{"poiid":"B2094757D06FA6FE4899","title":"虹桥路凯旋路口","lon":"121.42411","lat":"31.194756","category":"500","category_name":"未知分类","address":"上海虹桥路凯旋路口"},{"poiid":"B2094655D26EAAFD449C","title":"上海市昂立学院(番禺路)","lon":"121.42809","lat":"31.19708","category":"52","category_name":"高等院校","address":"徐汇区番禺路868"},{"poiid":"B2094757D068A2FB4898","title":"旬彩亭","lon":"121.42219","lat":"31.19471","category":"95","category_name":"日本料理","address":"徐汇区凯旋路1669号2楼(虹桥路口)"},{"poiid":"B2094750D268A7FE4499","title":"贝蕾魔法 Black Magic Chocolate","lon":"121.42454624176","lat":"31.197494950511","category":"67","category_name":"甜品店","address":"长宁区淮海西路570号红坊D幢(近虹桥路)"},{"poiid":"B2094757D06FA1F8409E","title":"亚力山大会馆(虹桥路店)","lon":"121.42813","lat":"31.19334","category":"221","category_name":"健身中心","address":"徐汇区虹桥路600号(近番禺路)"},{"poiid":"B2094750DB6BA2FB4999","title":"星巴克新淮海坊","lon":"121.427413","lat":"31.19465","category":"500","category_name":"未知分类","address":null},{"poiid":"B2094654DB6BA7FF489E","title":"锦江锦馨苑","lon":"121.423485","lat":"31.194314","category":"47","category_name":"住宅区","address":"上海徐汇区古井路38弄"},{"poiid":"B2094757D068ABF5429B","title":"上海交通大学(加华)","lon":"121.423516","lat":"31.193536","category":"52","category_name":"高等院校","address":"上海凯旋路1726号"},{"poiid":"B2094757D06FAAFB4498","title":"上海新东方学校(番禺路校区)","lon":"121.42843","lat":"31.19542","category":"253","category_name":"校园生活","address":"徐汇区番禺路900号1楼(近虹桥路)"},{"poiid":"B2094753D76FA5FE4093","title":"小黑蚝情","lon":"121.423011","lat":"31.195306","category":"247","category_name":"餐饮美食","address":"上海市 长宁区淮海西路新淮海坊"},{"poiid":"B2094757D06FA4F54693","title":"东北四季饺子王(番禺路店)","lon":"121.428130321","lat":"31.1959206491","category":"82","category_name":"东北菜","address":"徐汇区番禺路888号(近秀山路)"},{"poiid":"B2094757D06FABF9419E","title":"虹桥乐庭","lon":"121.42609","lat":"31.193653","category":"47","category_name":"住宅区","address":"上海虹桥路666弄"},{"poiid":"B2094757D069A1F94193","title":"上海公用事业学校(凯旋校区)","lon":"121.424535","lat":"31.192336","category":"500","category_name":"未知分类","address":"上海徐汇区凯旋路2050号"},{"poiid":"B2094654DA6DA3F5409A","title":"加华商务广场","lon":"121.42414","lat":"31.1945","category":"46","category_name":"楼宇","address":"上海虹桥路808号"},{"poiid":"B2094757D06FA5FE4499","title":"Beca Cafe &amp; Bar","lon":"121.42359","lat":"31.19671","category":"94","category_name":"西餐厅","address":"长宁区淮海西路570号红坊创意园区C-6单元(近虹桥路)"},{"poiid":"B2094655D26EA6FF439D","title":"汉庭快捷酒店(上海交大店)","lon":"121.42843","lat":"31.19504","category":"216","category_name":"经济型连锁酒店","address":"徐汇区番禺路955号(近虹桥路)"},{"poiid":"B2094750D56FA3FD4399","title":"玖洋捞精品牛肉海鲜火锅","lon":"121.422691","lat":"31.196554","category":"86","category_name":"火锅店","address":"上海市长宁区淮海西路678号新淮海坊内(近虹桥路)"},{"poiid":"B2094757D469A0FB4699","title":"克切拉素品茶","lon":"121.4242652","lat":"31.1976016","category":"89","category_name":"中式素餐馆","address":"长宁区淮海西路570号G113单元(近虹桥路)"},{"poiid":"B2094750D66DA1FF4498","title":"正大广场","lon":"121.425117","lat":"31.19536","category":"500","category_name":"未知分类","address":null},{"poiid":"B2094655D26FA5FE439B","title":"虹二小区","lon":"121.42538","lat":"31.195839","category":"47","category_name":"住宅区","address":"虹桥路693弄1-39号"},{"poiid":"B2094757D169A3F4499B","title":"虹桥路番禺路","lon":"121.425148586","lat":"31.1948657395","category":"500","category_name":"未知分类","address":"上海市"},{"poiid":"B2094654DA6DA3F9429C","title":"爱情公寓","lon":"121.42775","lat":"31.19459","category":"263","category_name":"公司","address":"番禺路1028号上海数娱大厦1108"},{"poiid":"B2094757D06FA6FB459C","title":"7-ELEVEN(新番禺店)","lon":"121.428344727","lat":"31.1967391968","category":"117","category_name":"便民商店/便利店","address":"徐汇区番禺路878号(番禺路秀山路)"},{"poiid":"B2094757D06AA1F84793","title":"海螺大厦","lon":"121.426","lat":"31.1985","category":"46","category_name":"楼宇","address":"徐汇区中山西路1277号"},{"poiid":"B2094757D068A1F44599","title":"番禺绿地","lon":"121.42766","lat":"31.19429","category":"196","category_name":"公园","address":"徐汇区虹桥路637号(番禺路口)"},{"poiid":"B2094750DA69A5FA419D","title":"日月光","lon":"121.425315","lat":"31.19235","category":"247","category_name":"餐饮美食","address":null},{"poiid":"B2094750D26EABFC419E","title":"九号线宜山路站","lon":"121.424537","lat":"31.197687","category":"500","category_name":"未知分类","address":null},{"poiid":"B2094654DA6DA3F9419E","title":"虹二小区(南门)","lon":"121.42514","lat":"31.19514","category":"47","category_name":"住宅区","address":"虹桥路693弄1-39号"},{"poiid":"B2094757D06BA3FF499B","title":"怡园苏州汤包馆","lon":"121.42357488","lat":"31.195575253","category":"68","category_name":"快餐厅","address":"徐汇区凯旋路(虹桥路口)"},{"poiid":"B2094654DB65A4FE469E","title":"红记小厨","lon":"121.422311054","lat":"31.195088793","category":"76","category_name":"上海菜","address":"虹桥路788号近凯旋路"},{"poiid":"B2094752D26CA2F94599","title":"串坊创意烧肉餐吧","lon":"121.42284","lat":"31.19605","category":"269","category_name":"烧烤","address":"长宁区淮海西路686号新淮海坊内(近虹桥路地铁站)"},{"poiid":"B2094757D465A4FC4793","title":"四海游龙 番禺路店 OVERSEAS DRAGON","lon":"121.427827054","lat":"31.193939793","category":"68","category_name":"快餐厅","address":"徐汇区番禺路955号(近虹桥路)"},{"poiid":"B209475DD16CA5FD439C","title":"上海影城","lon":"121.426429","lat":"31.194602","category":"178","category_name":"电影院","address":"上海市 长宁区新华路260号"},{"poiid":"B2094655D265A3F94193","title":"嘉浩之家","lon":"121.42464","lat":"31.19411","category":"76","category_name":"上海菜","address":"徐汇区虹桥路772弄3号凯虹宾馆2楼(近番禺路)"},{"poiid":"B2094757D168AAFA4199","title":"上海医疗器械高等专科学校","lon":"121.42613558","lat":"31.195460751","category":"671","category_name":"高校中心点","address":"上海杨浦区营口路101号"},{"poiid":"B2094751DB65A1F8489C","title":"泰生天地","lon":"121.42278","lat":"31.19601","category":"86","category_name":"火锅店","address":"长宁区淮海西路666号裙楼1楼(近虹桥路)"},{"poiid":"B2094751D569ABFB4493","title":"港丽茶餐厅","lon":"121.425799","lat":"31.195264","category":"500","category_name":"未知分类","address":null},{"poiid":"B2094757D16DAAF4499B","title":"千子莲足浴(虹桥路店)","lon":"121.42561101","lat":"31.194665035","category":"148","category_name":"美容美发店","address":"上海虹桥路番禺路"}]