[{"poiid":"B2094757D06FA3F4489C","title":"和记小菜(长宁店)","lon":"121.40547","lat":"31.2172","category":"76","category_name":"上海菜","address":"长宁区娄山关路999弄79号春天花园会所(近长宁路)"},{"poiid":"B2094655D36CA5F9419B","title":"长宁路娄山关路","lon":"121.40622","lat":"31.21751","category":"38","category_name":"公交车站","address":""},{"poiid":"B2094757DB68A3FF489C","title":"龙之梦","lon":"121.409145","lat":"31.219005","category":"500","category_name":"未知分类","address":"长宁路"},{"poiid":"B2094757D068AAFF409F","title":"周家桥创意园","lon":"121.40578658","lat":"31.220065232","category":"46","category_name":"楼宇","address":"长宁区万航渡路2453号(华阳路万航渡路)"},{"poiid":"B2094757D06FABF5439D","title":"春天花园","lon":"121.4038","lat":"31.217037","category":"47","category_name":"住宅区","address":"长宁区娄山关路999弄(近长宁路)"},{"poiid":"B2094654D56BA4F4469F","title":"上海花城","lon":"121.40445","lat":"31.21896","category":"47","category_name":"住宅区","address":"普陀区澳门路519号华生大厦2号楼2202室(近普陀路)查看地图"},{"poiid":"B2094757D06FA5FB4593","title":"长宁区公共卫生中心","lon":"121.406557","lat":"31.215167","category":"162","category_name":"医院","address":"上海云雾山路39号"},{"poiid":"B2094757D06FA6F84998","title":"威尔士健身会所(长宁店)","lon":"121.40599","lat":"31.21729","category":"221","category_name":"健身中心","address":"长宁区娄山关路999号春天花园(近长宁路)"},{"poiid":"B2094757D068A3FA469B","title":"沪西礼拜堂","lon":"121.409736454","lat":"31.2167527845","category":"245","category_name":"教堂","address":"长宁区长宁路1465号(近遵义路)"},{"poiid":"B2094655D36CA5F94092","title":"长宁路遵义路","lon":"121.40806","lat":"31.21718","category":"38","category_name":"公交车站","address":"上海长宁路遵义路"},{"poiid":"B2094757D164AAFB4492","title":"万航渡路","lon":"121.408267586","lat":"31.2199143293","category":"500","category_name":"未知分类","address":"上海万航渡路"},{"poiid":"B2094757D069A6F4469D","title":"全家便利(虹桥机场店)","lon":"121.405636","lat":"31.218717","category":"117","category_name":"便民商店/便利店","address":"上海长宁区虹桥机场2号航站楼内"},{"poiid":"B2094655D26DA2FC429E","title":"DOHO","lon":"121.40579871717932","lat":"31.220632293765263","category":"45","category_name":"产业园区","address":"上海市长宁区万航渡路2452号"},{"poiid":"B2094757D064A4FE489E","title":"麦当劳","lon":"121.41087858","lat":"31.219638223","category":"500","category_name":"未知分类","address":"上海市中山公园地铁"},{"poiid":"B2094757D06FAAF44298","title":"艺林盲人按摩院(长宁店)","lon":"121.40361","lat":"31.21796","category":"149","category_name":"洗浴推拿场所","address":"长宁区长宁路1842号"},{"poiid":"B2094655D26AABFA419A","title":"锦江之星上海长宁店","lon":"121.40729","lat":"31.21788","category":"250","category_name":"公园户外","address":"上海长宁区长宁路1600弄5号(近遵义路)  "},{"poiid":"B2094757D66BA2F94592","title":"角落里ころり Corori","lon":"121.405356054","lat":"31.215454793","category":"95","category_name":"日本料理","address":"娄山关路884号近云雾山路"},{"poiid":"B2094654D56BA4F4489E","title":"清宁小区","lon":"121.40678","lat":"31.219639","category":"47","category_name":"住宅区","address":"万航渡路2505弄21-46"},{"poiid":"B2094757D068A2FB499E","title":"虹桥新城","lon":"121.40627","lat":"31.216637","category":"47","category_name":"住宅区","address":"上海市徐汇区漕溪北路555号(南丹东路口)"},{"poiid":"B2094757D66BA3F44999","title":"苏河湾","lon":"121.406163","lat":"31.2205512","category":"94","category_name":"西餐厅","address":"长宁区万航渡路2452号DOHO创意园区3楼屋顶花园(近娄山关路)"},{"poiid":"B2094757D165AAF84493","title":"宁悦人家","lon":"121.404210586","lat":"31.2179331905","category":"76","category_name":"上海菜","address":"长宁区长宁路1796号(近娄山关路)"},{"poiid":"B2094757D069A0F5479E","title":"春草堂足疗(长宁店)","lon":"121.40519","lat":"31.218","category":"149","category_name":"洗浴推拿场所","address":"上海长宁区长宁路1798号(近娄山关路)  "},{"poiid":"B2094655D36CA5F9419C","title":"长宁路","lon":"121.41084","lat":"31.21857","category":"38","category_name":"公交车站","address":""},{"poiid":"B2094757D169AAFF429C","title":"虹桥馨苑","lon":"121.40619","lat":"31.218643","category":"47","category_name":"住宅区","address":"上海市长宁区长宁路1666弄"},{"poiid":"B2094750D26EA3FF469D","title":"苏州河边","lon":"121.4065656","lat":"31.2193395","category":"247","category_name":"餐饮美食","address":null},{"poiid":"B2094654D56BA4F4459B","title":"周家桥街道社区卫生服务中心","lon":"121.40583","lat":"31.21796","category":"162","category_name":"医院","address":"长宁区长宁路1700号(近万航渡路)"},{"poiid":"B2094750D664A4FE429F","title":"大富贵酒楼小吃部(万航渡路店)","lon":"121.407","lat":"31.22","category":"68","category_name":"快餐厅","address":"长宁区万航渡路2453号"},{"poiid":"B2094757D06AAAFF4198","title":"悦迪桌球","lon":"121.40746163","lat":"31.217299268","category":"171","category_name":"台球厅","address":"长宁区长宁路1557号虹桥国际大厦2楼(近遵义路)"},{"poiid":"B2094757D06FA4F5449C","title":"馍馍熊西点DIY烘焙坊","lon":"121.4088","lat":"31.21675","category":"260","category_name":"其他","address":"长宁区长宁路1551弄虹桥国际大厦2号606室(近遵义路)"},{"poiid":"B2094655D265A2F4409A","title":"云都公寓","lon":"121.40767","lat":"31.21833","category":"47","category_name":"住宅区","address":"云都公寓位于长宁长宁路1488弄18号(遵义路口)"},{"poiid":"B2094654D56BA4F4419E","title":"长宁路小学","lon":"121.40721","lat":"31.2185","category":"56","category_name":"小学","address":"长宁路1600弄15号"},{"poiid":"B2094757D465A1FF419A","title":"锦江大厨 长宁店","lon":"121.40662419905","lat":"31.217692670021","category":"76","category_name":"上海菜","address":"长宁区长宁路1600弄5号(近娄山关路)"},{"poiid":"B2094757D06AA4F9449C","title":"长宁区图书馆6楼","lon":"121.407639","lat":"31.2181","category":"181","category_name":"图书馆","address":"上海长宁区天山路356号(地铁2号线威宁路站)"},{"poiid":"B2094757D06EAAFC409C","title":"国际礼拜堂","lon":"121.40954333","lat":"31.216917942","category":"245","category_name":"教堂","address":"上海徐汇区衡山路53号"},{"poiid":"B2094654D56BA4F4429B","title":"益健小区","lon":"121.40742","lat":"31.219582","category":"47","category_name":"住宅区","address":"万航渡路2505弄"},{"poiid":"B2094757D065A5FF439E","title":"新家园餐厅","lon":"121.40895","lat":"31.21619","category":"76","category_name":"上海菜","address":"长宁区遵义路825号(近长宁路)"},{"poiid":"B2094655D26DA2FE4992","title":"益健小区(南门)","lon":"121.40732","lat":"31.21928","category":"47","category_name":"住宅区","address":"万航渡路2505弄"},{"poiid":"B2094654D56BA4F44498","title":"上海白玉兰妇科医院","lon":"121.40695","lat":"31.21756","category":"162","category_name":"医院","address":"长宁区长宁路1626号(近遵义路)"},{"poiid":"B2094654D56BA4F4429D","title":"克莉丝汀No.435","lon":"121.40776","lat":"31.21733","category":"112","category_name":"糕饼店","address":""},{"poiid":"B2094757DA65A5F5419F","title":"布丁酒店连锁（上海中山公园店）","lon":"121.405743957","lat":"31.217962717","category":"216","category_name":"经济型连锁酒店","address":"长宁区万航渡路2579号"},{"poiid":"B2094757D16EAAFB4992","title":"長寧路1600弄","lon":"121.40838158","lat":"31.218606203","category":"500","category_name":"未知分类","address":"长宁路1600弄"},{"poiid":"B2094655D26DA7FF489E","title":"清宁小区(南门)","lon":"121.40668","lat":"31.21946","category":"47","category_name":"住宅区","address":"万航渡路2505弄21-46"},{"poiid":"B2094655D26DA7FD4799","title":"海伦公寓","lon":"121.40871","lat":"31.21773","category":"47","category_name":"住宅区","address":"海伦公寓位于长宁长宁路1488弄5-15号"},{"poiid":"B2094757D66BA2F4499D","title":"信创作料亭 Xin Shanghai Restaurant","lon":"121.40671485505","lat":"31.21641690793","category":"95","category_name":"日本料理","address":"长宁区云雾山路77号(近娄山关路)"},{"poiid":"B2094757D16CA6F84193","title":"小立家","lon":"121.40767958","lat":"31.219228215","category":"500","category_name":"未知分类","address":null},{"poiid":"B2094757D065A2FF409C","title":"上海市消防局","lon":"121.41123498","lat":"31.218697655","category":"500","category_name":"未知分类","address":"上海中山西路229号"},{"poiid":"B2094655D26CAAFD4498","title":"典艺牛奶棚 遵义店","lon":"121.40853","lat":"31.21388","category":"67","category_name":"甜品店","address":"长宁区遵义路837号(长宁路遵义路)"},{"poiid":"B2094654D56BA4F4439B","title":"良友(长宁路)","lon":"121.40795","lat":"31.2173","category":"117","category_name":"便民商店/便利店","address":"长宁路1588"},{"poiid":"B2094757DB69A7F44799","title":"和米堂","lon":"121.403828","lat":"31.218376","category":"95","category_name":"日本料理","address":"长宁区长宁路820号上海小马路美食街轻食区-10商铺"},{"poiid":"B2094757DB69A5FF489F","title":"东方明珠塔","lon":"121.404627","lat":"31.216969","category":"500","category_name":"未知分类","address":null},{"poiid":"B2094757D06FA3F4489C","title":"和记小菜(长宁店)","lon":"121.40547","lat":"31.2172","category":"76","category_name":"上海菜","address":"长宁区娄山关路999弄79号春天花园会所(近长宁路)"},{"poiid":"B2094655D36CA5F9419B","title":"长宁路娄山关路","lon":"121.40622","lat":"31.21751","category":"38","category_name":"公交车站","address":""},{"poiid":"B2094757DB68A3FF489C","title":"龙之梦","lon":"121.409145","lat":"31.219005","category":"500","category_name":"未知分类","address":"长宁路"},{"poiid":"B2094757D068AAFF409F","title":"周家桥创意园","lon":"121.40578658","lat":"31.220065232","category":"46","category_name":"楼宇","address":"长宁区万航渡路2453号(华阳路万航渡路)"},{"poiid":"B2094757D06FABF5439D","title":"春天花园","lon":"121.4038","lat":"31.217037","category":"47","category_name":"住宅区","address":"长宁区娄山关路999弄(近长宁路)"},{"poiid":"B2094654D56BA4F4469F","title":"上海花城","lon":"121.40445","lat":"31.21896","category":"47","category_name":"住宅区","address":"普陀区澳门路519号华生大厦2号楼2202室(近普陀路)查看地图"},{"poiid":"B2094757D06FA5FB4593","title":"长宁区公共卫生中心","lon":"121.406557","lat":"31.215167","category":"162","category_name":"医院","address":"上海云雾山路39号"},{"poiid":"B2094757D06FA6F84998","title":"威尔士健身会所(长宁店)","lon":"121.40599","lat":"31.21729","category":"221","category_name":"健身中心","address":"长宁区娄山关路999号春天花园(近长宁路)"},{"poiid":"B2094757D068A3FA469B","title":"沪西礼拜堂","lon":"121.409736454","lat":"31.2167527845","category":"245","category_name":"教堂","address":"长宁区长宁路1465号(近遵义路)"},{"poiid":"B2094655D36CA5F94092","title":"长宁路遵义路","lon":"121.40806","lat":"31.21718","category":"38","category_name":"公交车站","address":"上海长宁路遵义路"},{"poiid":"B2094757D164AAFB4492","title":"万航渡路","lon":"121.408267586","lat":"31.2199143293","category":"500","category_name":"未知分类","address":"上海万航渡路"},{"poiid":"B2094757D069A6F4469D","title":"全家便利(虹桥机场店)","lon":"121.405636","lat":"31.218717","category":"117","category_name":"便民商店/便利店","address":"上海长宁区虹桥机场2号航站楼内"},{"poiid":"B2094655D26DA2FC429E","title":"DOHO","lon":"121.40579871717932","lat":"31.220632293765263","category":"45","category_name":"产业园区","address":"上海市长宁区万航渡路2452号"},{"poiid":"B2094757D064A4FE489E","title":"麦当劳","lon":"121.41087858","lat":"31.219638223","category":"500","category_name":"未知分类","address":"上海市中山公园地铁"},{"poiid":"B2094757D06FAAF44298","title":"艺林盲人按摩院(长宁店)","lon":"121.40361","lat":"31.21796","category":"149","category_name":"洗浴推拿场所","address":"长宁区长宁路1842号"},{"poiid":"B2094655D26AABFA419A","title":"锦江之星上海长宁店","lon":"121.40729","lat":"31.21788","category":"250","category_name":"公园户外","address":"上海长宁区长宁路1600弄5号(近遵义路)  "},{"poiid":"B2094757D66BA2F94592","title":"角落里ころり Corori","lon":"121.405356054","lat":"31.215454793","category":"95","category_name":"日本料理","address":"娄山关路884号近云雾山路"},{"poiid":"B2094654D56BA4F4489E","title":"清宁小区","lon":"121.40678","lat":"31.219639","category":"47","category_name":"住宅区","address":"万航渡路2505弄21-46"},{"poiid":"B2094757D068A2FB499E","title":"虹桥新城","lon":"121.40627","lat":"31.216637","category":"47","category_name":"住宅区","address":"上海市徐汇区漕溪北路555号(南丹东路口)"},{"poiid":"B2094757D66BA3F44999","title":"苏河湾","lon":"121.406163","lat":"31.2205512","category":"94","category_name":"西餐厅","address":"长宁区万航渡路2452号DOHO创意园区3楼屋顶花园(近娄山关路)"},{"poiid":"B2094757D165AAF84493","title":"宁悦人家","lon":"121.404210586","lat":"31.2179331905","category":"76","category_name":"上海菜","address":"长宁区长宁路1796号(近娄山关路)"},{"poiid":"B2094757D069A0F5479E","title":"春草堂足疗(长宁店)","lon":"121.40519","lat":"31.218","category":"149","category_name":"洗浴推拿场所","address":"上海长宁区长宁路1798号(近娄山关路)  "},{"poiid":"B2094655D36CA5F9419C","title":"长宁路","lon":"121.41084","lat":"31.21857","category":"38","category_name":"公交车站","address":""},{"poiid":"B2094757D169AAFF429C","title":"虹桥馨苑","lon":"121.40619","lat":"31.218643","category":"47","category_name":"住宅区","address":"上海市长宁区长宁路1666弄"},{"poiid":"B2094750D26EA3FF469D","title":"苏州河边","lon":"121.4065656","lat":"31.2193395","category":"247","category_name":"餐饮美食","address":null},{"poiid":"B2094654D56BA4F4459B","title":"周家桥街道社区卫生服务中心","lon":"121.40583","lat":"31.21796","category":"162","category_name":"医院","address":"长宁区长宁路1700号(近万航渡路)"},{"poiid":"B2094750D664A4FE429F","title":"大富贵酒楼小吃部(万航渡路店)","lon":"121.407","lat":"31.22","category":"68","category_name":"快餐厅","address":"长宁区万航渡路2453号"},{"poiid":"B2094757D06AAAFF4198","title":"悦迪桌球","lon":"121.40746163","lat":"31.217299268","category":"171","category_name":"台球厅","address":"长宁区长宁路1557号虹桥国际大厦2楼(近遵义路)"},{"poiid":"B2094757D06FA4F5449C","title":"馍馍熊西点DIY烘焙坊","lon":"121.4088","lat":"31.21675","category":"260","category_name":"其他","address":"长宁区长宁路1551弄虹桥国际大厦2号606室(近遵义路)"},{"poiid":"B2094655D265A2F4409A","title":"云都公寓","lon":"121.40767","lat":"31.21833","category":"47","category_name":"住宅区","address":"云都公寓位于长宁长宁路1488弄18号(遵义路口)"},{"poiid":"B2094654D56BA4F4419E","title":"长宁路小学","lon":"121.40721","lat":"31.2185","category":"56","category_name":"小学","address":"长宁路1600弄15号"},{"poiid":"B2094757D465A1FF419A","title":"锦江大厨 长宁店","lon":"121.40662419905","lat":"31.217692670021","category":"76","category_name":"上海菜","address":"长宁区长宁路1600弄5号(近娄山关路)"},{"poiid":"B2094757D06AA4F9449C","title":"长宁区图书馆6楼","lon":"121.407639","lat":"31.2181","category":"181","category_name":"图书馆","address":"上海长宁区天山路356号(地铁2号线威宁路站)"},{"poiid":"B2094757D06EAAFC409C","title":"国际礼拜堂","lon":"121.40954333","lat":"31.216917942","category":"245","category_name":"教堂","address":"上海徐汇区衡山路53号"},{"poiid":"B2094654D56BA4F4429B","title":"益健小区","lon":"121.40742","lat":"31.219582","category":"47","category_name":"住宅区","address":"万航渡路2505弄"},{"poiid":"B2094757D065A5FF439E","title":"新家园餐厅","lon":"121.40895","lat":"31.21619","category":"76","category_name":"上海菜","address":"长宁区遵义路825号(近长宁路)"},{"poiid":"B2094655D26DA2FE4992","title":"益健小区(南门)","lon":"121.40732","lat":"31.21928","category":"47","category_name":"住宅区","address":"万航渡路2505弄"},{"poiid":"B2094654D56BA4F44498","title":"上海白玉兰妇科医院","lon":"121.40695","lat":"31.21756","category":"162","category_name":"医院","address":"长宁区长宁路1626号(近遵义路)"},{"poiid":"B2094654D56BA4F4429D","title":"克莉丝汀No.435","lon":"121.40776","lat":"31.21733","category":"112","category_name":"糕饼店","address":""},{"poiid":"B2094757DA65A5F5419F","title":"布丁酒店连锁（上海中山公园店）","lon":"121.405743957","lat":"31.217962717","category":"216","category_name":"经济型连锁酒店","address":"长宁区万航渡路2579号"},{"poiid":"B2094757D16EAAFB4992","title":"長寧路1600弄","lon":"121.40838158","lat":"31.218606203","category":"500","category_name":"未知分类","address":"长宁路1600弄"},{"poiid":"B2094655D26DA7FF489E","title":"清宁小区(南门)","lon":"121.40668","lat":"31.21946","category":"47","category_name":"住宅区","address":"万航渡路2505弄21-46"},{"poiid":"B2094655D26DA7FD4799","title":"海伦公寓","lon":"121.40871","lat":"31.21773","category":"47","category_name":"住宅区","address":"海伦公寓位于长宁长宁路1488弄5-15号"},{"poiid":"B2094757D66BA2F4499D","title":"信创作料亭 Xin Shanghai Restaurant","lon":"121.40671485505","lat":"31.21641690793","category":"95","category_name":"日本料理","address":"长宁区云雾山路77号(近娄山关路)"},{"poiid":"B2094757D16CA6F84193","title":"小立家","lon":"121.40767958","lat":"31.219228215","category":"500","category_name":"未知分类","address":null},{"poiid":"B2094757D065A2FF409C","title":"上海市消防局","lon":"121.41123498","lat":"31.218697655","category":"500","category_name":"未知分类","address":"上海中山西路229号"},{"poiid":"B2094655D26CAAFD4498","title":"典艺牛奶棚 遵义店","lon":"121.40853","lat":"31.21388","category":"67","category_name":"甜品店","address":"长宁区遵义路837号(长宁路遵义路)"},{"poiid":"B2094654D56BA4F4439B","title":"良友(长宁路)","lon":"121.40795","lat":"31.2173","category":"117","category_name":"便民商店/便利店","address":"长宁路1588"},{"poiid":"B2094757DB69A7F44799","title":"和米堂","lon":"121.403828","lat":"31.218376","category":"95","category_name":"日本料理","address":"长宁区长宁路820号上海小马路美食街轻食区-10商铺"},{"poiid":"B2094757DB69A5FF489F","title":"东方明珠塔","lon":"121.404627","lat":"31.216969","category":"500","category_name":"未知分类","address":null},{"poiid":"B2094757D06FA3F4489C","title":"和记小菜(长宁店)","lon":"121.40547","lat":"31.2172","category":"76","category_name":"上海菜","address":"长宁区娄山关路999弄79号春天花园会所(近长宁路)"},{"poiid":"B2094655D36CA5F9419B","title":"长宁路娄山关路","lon":"121.40622","lat":"31.21751","category":"38","category_name":"公交车站","address":""},{"poiid":"B2094757DB68A3FF489C","title":"龙之梦","lon":"121.409145","lat":"31.219005","category":"500","category_name":"未知分类","address":"长宁路"},{"poiid":"B2094757D068AAFF409F","title":"周家桥创意园","lon":"121.40578658","lat":"31.220065232","category":"46","category_name":"楼宇","address":"长宁区万航渡路2453号(华阳路万航渡路)"},{"poiid":"B2094757D06FABF5439D","title":"春天花园","lon":"121.4038","lat":"31.217037","category":"47","category_name":"住宅区","address":"长宁区娄山关路999弄(近长宁路)"},{"poiid":"B2094654D56BA4F4469F","title":"上海花城","lon":"121.40445","lat":"31.21896","category":"47","category_name":"住宅区","address":"普陀区澳门路519号华生大厦2号楼2202室(近普陀路)查看地图"},{"poiid":"B2094757D06FA5FB4593","title":"长宁区公共卫生中心","lon":"121.406557","lat":"31.215167","category":"162","category_name":"医院","address":"上海云雾山路39号"},{"poiid":"B2094757D06FA6F84998","title":"威尔士健身会所(长宁店)","lon":"121.40599","lat":"31.21729","category":"221","category_name":"健身中心","address":"长宁区娄山关路999号春天花园(近长宁路)"},{"poiid":"B2094757D068A3FA469B","title":"沪西礼拜堂","lon":"121.409736454","lat":"31.2167527845","category":"245","category_name":"教堂","address":"长宁区长宁路1465号(近遵义路)"},{"poiid":"B2094655D36CA5F94092","title":"长宁路遵义路","lon":"121.40806","lat":"31.21718","category":"38","category_name":"公交车站","address":"上海长宁路遵义路"},{"poiid":"B2094757D164AAFB4492","title":"万航渡路","lon":"121.408267586","lat":"31.2199143293","category":"500","category_name":"未知分类","address":"上海万航渡路"},{"poiid":"B2094757D069A6F4469D","title":"全家便利(虹桥机场店)","lon":"121.405636","lat":"31.218717","category":"117","category_name":"便民商店/便利店","address":"上海长宁区虹桥机场2号航站楼内"},{"poiid":"B2094655D26DA2FC429E","title":"DOHO","lon":"121.40579871717932","lat":"31.220632293765263","category":"45","category_name":"产业园区","address":"上海市长宁区万航渡路2452号"},{"poiid":"B2094757D064A4FE489E","title":"麦当劳","lon":"121.41087858","lat":"31.219638223","category":"500","category_name":"未知分类","address":"上海市中山公园地铁"},{"poiid":"B2094757D06FAAF44298","title":"艺林盲人按摩院(长宁店)","lon":"121.40361","lat":"31.21796","category":"149","category_name":"洗浴推拿场所","address":"长宁区长宁路1842号"},{"poiid":"B2094655D26AABFA419A","title":"锦江之星上海长宁店","lon":"121.40729","lat":"31.21788","category":"250","category_name":"公园户外","address":"上海长宁区长宁路1600弄5号(近遵义路)  "},{"poiid":"B2094757D66BA2F94592","title":"角落里ころり Corori","lon":"121.405356054","lat":"31.215454793","category":"95","category_name":"日本料理","address":"娄山关路884号近云雾山路"},{"poiid":"B2094654D56BA4F4489E","title":"清宁小区","lon":"121.40678","lat":"31.219639","category":"47","category_name":"住宅区","address":"万航渡路2505弄21-46"},{"poiid":"B2094757D068A2FB499E","title":"虹桥新城","lon":"121.40627","lat":"31.216637","category":"47","category_name":"住宅区","address":"上海市徐汇区漕溪北路555号(南丹东路口)"},{"poiid":"B2094757D66BA3F44999","title":"苏河湾","lon":"121.406163","lat":"31.2205512","category":"94","category_name":"西餐厅","address":"长宁区万航渡路2452号DOHO创意园区3楼屋顶花园(近娄山关路)"},{"poiid":"B2094757D165AAF84493","title":"宁悦人家","lon":"121.404210586","lat":"31.2179331905","category":"76","category_name":"上海菜","address":"长宁区长宁路1796号(近娄山关路)"},{"poiid":"B2094757D069A0F5479E","title":"春草堂足疗(长宁店)","lon":"121.40519","lat":"31.218","category":"149","category_name":"洗浴推拿场所","address":"上海长宁区长宁路1798号(近娄山关路)  "},{"poiid":"B2094655D36CA5F9419C","title":"长宁路","lon":"121.41084","lat":"31.21857","category":"38","category_name":"公交车站","address":""},{"poiid":"B2094757D169AAFF429C","title":"虹桥馨苑","lon":"121.40619","lat":"31.218643","category":"47","category_name":"住宅区","address":"上海市长宁区长宁路1666弄"},{"poiid":"B2094750D26EA3FF469D","title":"苏州河边","lon":"121.4065656","lat":"31.2193395","category":"247","category_name":"餐饮美食","address":null},{"poiid":"B2094654D56BA4F4459B","title":"周家桥街道社区卫生服务中心","lon":"121.40583","lat":"31.21796","category":"162","category_name":"医院","address":"长宁区长宁路1700号(近万航渡路)"},{"poiid":"B2094750D664A4FE429F","title":"大富贵酒楼小吃部(万航渡路店)","lon":"121.407","lat":"31.22","category":"68","category_name":"快餐厅","address":"长宁区万航渡路2453号"},{"poiid":"B2094757D06AAAFF4198","title":"悦迪桌球","lon":"121.40746163","lat":"31.217299268","category":"171","category_name":"台球厅","address":"长宁区长宁路1557号虹桥国际大厦2楼(近遵义路)"},{"poiid":"B2094757D06FA4F5449C","title":"馍馍熊西点DIY烘焙坊","lon":"121.4088","lat":"31.21675","category":"260","category_name":"其他","address":"长宁区长宁路1551弄虹桥国际大厦2号606室(近遵义路)"},{"poiid":"B2094655D265A2F4409A","title":"云都公寓","lon":"121.40767","lat":"31.21833","category":"47","category_name":"住宅区","address":"云都公寓位于长宁长宁路1488弄18号(遵义路口)"},{"poiid":"B2094654D56BA4F4419E","title":"长宁路小学","lon":"121.40721","lat":"31.2185","category":"56","category_name":"小学","address":"长宁路1600弄15号"},{"poiid":"B2094757D465A1FF419A","title":"锦江大厨 长宁店","lon":"121.40662419905","lat":"31.217692670021","category":"76","category_name":"上海菜","address":"长宁区长宁路1600弄5号(近娄山关路)"},{"poiid":"B2094757D06AA4F9449C","title":"长宁区图书馆6楼","lon":"121.407639","lat":"31.2181","category":"181","category_name":"图书馆","address":"上海长宁区天山路356号(地铁2号线威宁路站)"},{"poiid":"B2094757D06EAAFC409C","title":"国际礼拜堂","lon":"121.40954333","lat":"31.216917942","category":"245","category_name":"教堂","address":"上海徐汇区衡山路53号"},{"poiid":"B2094654D56BA4F4429B","title":"益健小区","lon":"121.40742","lat":"31.219582","category":"47","category_name":"住宅区","address":"万航渡路2505弄"},{"poiid":"B2094757D065A5FF439E","title":"新家园餐厅","lon":"121.40895","lat":"31.21619","category":"76","category_name":"上海菜","address":"长宁区遵义路825号(近长宁路)"},{"poiid":"B2094655D26DA2FE4992","title":"益健小区(南门)","lon":"121.40732","lat":"31.21928","category":"47","category_name":"住宅区","address":"万航渡路2505弄"},{"poiid":"B2094654D56BA4F44498","title":"上海白玉兰妇科医院","lon":"121.40695","lat":"31.21756","category":"162","category_name":"医院","address":"长宁区长宁路1626号(近遵义路)"},{"poiid":"B2094654D56BA4F4429D","title":"克莉丝汀No.435","lon":"121.40776","lat":"31.21733","category":"112","category_name":"糕饼店","address":""},{"poiid":"B2094757DA65A5F5419F","title":"布丁酒店连锁（上海中山公园店）","lon":"121.405743957","lat":"31.217962717","category":"216","category_name":"经济型连锁酒店","address":"长宁区万航渡路2579号"},{"poiid":"B2094757D16EAAFB4992","title":"長寧路1600弄","lon":"121.40838158","lat":"31.218606203","category":"500","category_name":"未知分类","address":"长宁路1600弄"},{"poiid":"B2094655D26DA7FF489E","title":"清宁小区(南门)","lon":"121.40668","lat":"31.21946","category":"47","category_name":"住宅区","address":"万航渡路2505弄21-46"},{"poiid":"B2094655D26DA7FD4799","title":"海伦公寓","lon":"121.40871","lat":"31.21773","category":"47","category_name":"住宅区","address":"海伦公寓位于长宁长宁路1488弄5-15号"},{"poiid":"B2094757D66BA2F4499D","title":"信创作料亭 Xin Shanghai Restaurant","lon":"121.40671485505","lat":"31.21641690793","category":"95","category_name":"日本料理","address":"长宁区云雾山路77号(近娄山关路)"},{"poiid":"B2094757D16CA6F84193","title":"小立家","lon":"121.40767958","lat":"31.219228215","category":"500","category_name":"未知分类","address":null},{"poiid":"B2094757D065A2FF409C","title":"上海市消防局","lon":"121.41123498","lat":"31.218697655","category":"500","category_name":"未知分类","address":"上海中山西路229号"},{"poiid":"B2094655D26CAAFD4498","title":"典艺牛奶棚 遵义店","lon":"121.40853","lat":"31.21388","category":"67","category_name":"甜品店","address":"长宁区遵义路837号(长宁路遵义路)"},{"poiid":"B2094654D56BA4F4439B","title":"良友(长宁路)","lon":"121.40795","lat":"31.2173","category":"117","category_name":"便民商店/便利店","address":"长宁路1588"},{"poiid":"B2094757DB69A7F44799","title":"和米堂","lon":"121.403828","lat":"31.218376","category":"95","category_name":"日本料理","address":"长宁区长宁路820号上海小马路美食街轻食区-10商铺"},{"poiid":"B2094757DB69A5FF489F","title":"东方明珠塔","lon":"121.404627","lat":"31.216969","category":"500","category_name":"未知分类","address":null},{"poiid":"B2094757D06FA3F4489C","title":"和记小菜(长宁店)","lon":"121.40547","lat":"31.2172","category":"76","category_name":"上海菜","address":"长宁区娄山关路999弄79号春天花园会所(近长宁路)"},{"poiid":"B2094655D36CA5F9419B","title":"长宁路娄山关路","lon":"121.40622","lat":"31.21751","category":"38","category_name":"公交车站","address":""},{"poiid":"B2094757DB68A3FF489C","title":"龙之梦","lon":"121.409145","lat":"31.219005","category":"500","category_name":"未知分类","address":"长宁路"},{"poiid":"B2094757D068AAFF409F","title":"周家桥创意园","lon":"121.40578658","lat":"31.220065232","category":"46","category_name":"楼宇","address":"长宁区万航渡路2453号(华阳路万航渡路)"},{"poiid":"B2094757D06FABF5439D","title":"春天花园","lon":"121.4038","lat":"31.217037","category":"47","category_name":"住宅区","address":"长宁区娄山关路999弄(近长宁路)"},{"poiid":"B2094654D56BA4F4469F","title":"上海花城","lon":"121.40445","lat":"31.21896","category":"47","category_name":"住宅区","address":"普陀区澳门路519号华生大厦2号楼2202室(近普陀路)查看地图"},{"poiid":"B2094757D06FA5FB4593","title":"长宁区公共卫生中心","lon":"121.406557","lat":"31.215167","category":"162","category_name":"医院","address":"上海云雾山路39号"},{"poiid":"B2094757D06FA6F84998","title":"威尔士健身会所(长宁店)","lon":"121.40599","lat":"31.21729","category":"221","category_name":"健身中心","address":"长宁区娄山关路999号春天花园(近长宁路)"},{"poiid":"B2094757D068A3FA469B","title":"沪西礼拜堂","lon":"121.409736454","lat":"31.2167527845","category":"245","category_name":"教堂","address":"长宁区长宁路1465号(近遵义路)"},{"poiid":"B2094655D36CA5F94092","title":"长宁路遵义路","lon":"121.40806","lat":"31.21718","category":"38","category_name":"公交车站","address":"上海长宁路遵义路"},{"poiid":"B2094757D164AAFB4492","title":"万航渡路","lon":"121.408267586","lat":"31.2199143293","category":"500","category_name":"未知分类","address":"上海万航渡路"},{"poiid":"B2094757D069A6F4469D","title":"全家便利(虹桥机场店)","lon":"121.405636","lat":"31.218717","category":"117","category_name":"便民商店/便利店","address":"上海长宁区虹桥机场2号航站楼内"},{"poiid":"B2094655D26DA2FC429E","title":"DOHO","lon":"121.40579871717932","lat":"31.220632293765263","category":"45","category_name":"产业园区","address":"上海市长宁区万航渡路2452号"},{"poiid":"B2094757D064A4FE489E","title":"麦当劳","lon":"121.41087858","lat":"31.219638223","category":"500","category_name":"未知分类","address":"上海市中山公园地铁"},{"poiid":"B2094757D06FAAF44298","title":"艺林盲人按摩院(长宁店)","lon":"121.40361","lat":"31.21796","category":"149","category_name":"洗浴推拿场所","address":"长宁区长宁路1842号"},{"poiid":"B2094655D26AABFA419A","title":"锦江之星上海长宁店","lon":"121.40729","lat":"31.21788","category":"250","category_name":"公园户外","address":"上海长宁区长宁路1600弄5号(近遵义路)  "},{"poiid":"B2094757D66BA2F94592","title":"角落里ころり Corori","lon":"121.405356054","lat":"31.215454793","category":"95","category_name":"日本料理","address":"娄山关路884号近云雾山路"},{"poiid":"B2094654D56BA4F4489E","title":"清宁小区","lon":"121.40678","lat":"31.219639","category":"47","category_name":"住宅区","address":"万航渡路2505弄21-46"},{"poiid":"B2094757D068A2FB499E","title":"虹桥新城","lon":"121.40627","lat":"31.216637","category":"47","category_name":"住宅区","address":"上海市徐汇区漕溪北路555号(南丹东路口)"},{"poiid":"B2094757D66BA3F44999","title":"苏河湾","lon":"121.406163","lat":"31.2205512","category":"94","category_name":"西餐厅","address":"长宁区万航渡路2452号DOHO创意园区3楼屋顶花园(近娄山关路)"},{"poiid":"B2094757D165AAF84493","title":"宁悦人家","lon":"121.404210586","lat":"31.2179331905","category":"76","category_name":"上海菜","address":"长宁区长宁路1796号(近娄山关路)"},{"poiid":"B2094757D069A0F5479E","title":"春草堂足疗(长宁店)","lon":"121.40519","lat":"31.218","category":"149","category_name":"洗浴推拿场所","address":"上海长宁区长宁路1798号(近娄山关路)  "},{"poiid":"B2094655D36CA5F9419C","title":"长宁路","lon":"121.41084","lat":"31.21857","category":"38","category_name":"公交车站","address":""},{"poiid":"B2094757D169AAFF429C","title":"虹桥馨苑","lon":"121.40619","lat":"31.218643","category":"47","category_name":"住宅区","address":"上海市长宁区长宁路1666弄"},{"poiid":"B2094750D26EA3FF469D","title":"苏州河边","lon":"121.4065656","lat":"31.2193395","category":"247","category_name":"餐饮美食","address":null},{"poiid":"B2094654D56BA4F4459B","title":"周家桥街道社区卫生服务中心","lon":"121.40583","lat":"31.21796","category":"162","category_name":"医院","address":"长宁区长宁路1700号(近万航渡路)"},{"poiid":"B2094750D664A4FE429F","title":"大富贵酒楼小吃部(万航渡路店)","lon":"121.407","lat":"31.22","category":"68","category_name":"快餐厅","address":"长宁区万航渡路2453号"},{"poiid":"B2094757D06AAAFF4198","title":"悦迪桌球","lon":"121.40746163","lat":"31.217299268","category":"171","category_name":"台球厅","address":"长宁区长宁路1557号虹桥国际大厦2楼(近遵义路)"},{"poiid":"B2094757D06FA4F5449C","title":"馍馍熊西点DIY烘焙坊","lon":"121.4088","lat":"31.21675","category":"260","category_name":"其他","address":"长宁区长宁路1551弄虹桥国际大厦2号606室(近遵义路)"},{"poiid":"B2094655D265A2F4409A","title":"云都公寓","lon":"121.40767","lat":"31.21833","category":"47","category_name":"住宅区","address":"云都公寓位于长宁长宁路1488弄18号(遵义路口)"},{"poiid":"B2094654D56BA4F4419E","title":"长宁路小学","lon":"121.40721","lat":"31.2185","category":"56","category_name":"小学","address":"长宁路1600弄15号"},{"poiid":"B2094757D465A1FF419A","title":"锦江大厨 长宁店","lon":"121.40662419905","lat":"31.217692670021","category":"76","category_name":"上海菜","address":"长宁区长宁路1600弄5号(近娄山关路)"},{"poiid":"B2094757D06AA4F9449C","title":"长宁区图书馆6楼","lon":"121.407639","lat":"31.2181","category":"181","category_name":"图书馆","address":"上海长宁区天山路356号(地铁2号线威宁路站)"},{"poiid":"B2094757D06EAAFC409C","title":"国际礼拜堂","lon":"121.40954333","lat":"31.216917942","category":"245","category_name":"教堂","address":"上海徐汇区衡山路53号"},{"poiid":"B2094654D56BA4F4429B","title":"益健小区","lon":"121.40742","lat":"31.219582","category":"47","category_name":"住宅区","address":"万航渡路2505弄"},{"poiid":"B2094757D065A5FF439E","title":"新家园餐厅","lon":"121.40895","lat":"31.21619","category":"76","category_name":"上海菜","address":"长宁区遵义路825号(近长宁路)"},{"poiid":"B2094655D26DA2FE4992","title":"益健小区(南门)","lon":"121.40732","lat":"31.21928","category":"47","category_name":"住宅区","address":"万航渡路2505弄"},{"poiid":"B2094654D56BA4F44498","title":"上海白玉兰妇科医院","lon":"121.40695","lat":"31.21756","category":"162","category_name":"医院","address":"长宁区长宁路1626号(近遵义路)"},{"poiid":"B2094654D56BA4F4429D","title":"克莉丝汀No.435","lon":"121.40776","lat":"31.21733","category":"112","category_name":"糕饼店","address":""},{"poiid":"B2094757DA65A5F5419F","title":"布丁酒店连锁（上海中山公园店）","lon":"121.405743957","lat":"31.217962717","category":"216","category_name":"经济型连锁酒店","address":"长宁区万航渡路2579号"},{"poiid":"B2094757D16EAAFB4992","title":"長寧路1600弄","lon":"121.40838158","lat":"31.218606203","category":"500","category_name":"未知分类","address":"长宁路1600弄"},{"poiid":"B2094655D26DA7FF489E","title":"清宁小区(南门)","lon":"121.40668","lat":"31.21946","category":"47","category_name":"住宅区","address":"万航渡路2505弄21-46"},{"poiid":"B2094655D26DA7FD4799","title":"海伦公寓","lon":"121.40871","lat":"31.21773","category":"47","category_name":"住宅区","address":"海伦公寓位于长宁长宁路1488弄5-15号"},{"poiid":"B2094757D66BA2F4499D","title":"信创作料亭 Xin Shanghai Restaurant","lon":"121.40671485505","lat":"31.21641690793","category":"95","category_name":"日本料理","address":"长宁区云雾山路77号(近娄山关路)"},{"poiid":"B2094757D16CA6F84193","title":"小立家","lon":"121.40767958","lat":"31.219228215","category":"500","category_name":"未知分类","address":null},{"poiid":"B2094757D065A2FF409C","title":"上海市消防局","lon":"121.41123498","lat":"31.218697655","category":"500","category_name":"未知分类","address":"上海中山西路229号"},{"poiid":"B2094655D26CAAFD4498","title":"典艺牛奶棚 遵义店","lon":"121.40853","lat":"31.21388","category":"67","category_name":"甜品店","address":"长宁区遵义路837号(长宁路遵义路)"},{"poiid":"B2094654D56BA4F4439B","title":"良友(长宁路)","lon":"121.40795","lat":"31.2173","category":"117","category_name":"便民商店/便利店","address":"长宁路1588"},{"poiid":"B2094757DB69A7F44799","title":"和米堂","lon":"121.403828","lat":"31.218376","category":"95","category_name":"日本料理","address":"长宁区长宁路820号上海小马路美食街轻食区-10商铺"},{"poiid":"B2094757DB69A5FF489F","title":"东方明珠塔","lon":"121.404627","lat":"31.216969","category":"500","category_name":"未知分类","address":null}]