[{"poiid":"B2094757D16EA4F94592","title":"地铁二号线北新泾站 地下商场","lon":"121.36664558","lat":"31.217751187","category":"36","category_name":"地铁站","address":"上海地铁二号线北新泾站"},{"poiid":"B2094752D368AAFE469D","title":"新堂洞","lon":"121.360437","lat":"31.220239","category":"247","category_name":"餐饮美食","address":"金钟路淞虹路"},{"poiid":"B2094757D06FABF5479E","title":"淞虹路北翟路","lon":"121.361332","lat":"31.222754","category":"500","category_name":"未知分类","address":"上海市淞虹路北翟路"},{"poiid":"B2094757D06FABFD4099","title":"新泾公园","lon":"121.362052686","lat":"31.2174502764","category":"196","category_name":"公园","address":"长宁区天山西路455号(近淞虹路)"},{"poiid":"B2094757D06FA7FB409E","title":"新泾七村","lon":"121.36285","lat":"31.219074","category":"47","category_name":"住宅区","address":"上海长宁区天山西路450弄金钟路333弄"},{"poiid":"B2094655D36CA0FA4199","title":"剑河路","lon":"121.3689","lat":"31.21757","category":"38","category_name":"公交车站","address":""},{"poiid":"B2094757D06FA0FA489D","title":"新泾五村","lon":"121.36635","lat":"31.218771","category":"47","category_name":"住宅区","address":"上海天山西路350弄"},{"poiid":"B2094757D469A4FD4992","title":"重庆鸡公煲 天山西路店","lon":"121.36373","lat":"31.21813","category":"71","category_name":"四川菜","address":"长宁区天山西路478号(近淞虹路)"},{"poiid":"B2094654D569A4FE459A","title":"金钟小区","lon":"121.3635","lat":"31.220779","category":"47","category_name":"住宅区","address":"金钟路428弄1-157号"},{"poiid":"B2094654D569A4FE439A","title":"协合花苑","lon":"121.36622","lat":"31.22268","category":"47","category_name":"住宅区","address":"平塘路100弄1-46号"},{"poiid":"B2094757D168AAFC439F","title":"金钟路","lon":"121.36517258","lat":"31.22099425","category":"500","category_name":"未知分类","address":"上海市长宁区金钟路"},{"poiid":"B2094757D068A6F94098","title":"上海海烟物流发展公司","lon":"121.364418214","lat":"31.2241743644","category":"46","category_name":"楼宇","address":"上海长宁区北翟路772号"},{"poiid":"B2094757D164ABFA479B","title":"北翟路淞虹路","lon":"121.368508586","lat":"31.2227512847","category":"500","category_name":"未知分类","address":"上海市长宁区北翟路"},{"poiid":"B2094655D269AAFB4499","title":"外滩游轮蓝趣俱乐部","lon":"121.36458","lat":"31.22092","category":"247","category_name":"餐饮美食","address":"长宁区平塘路(近金钟路)查看地图"},{"poiid":"B2094654DB65A1F9479B","title":"清池路200弄1-14号","lon":"121.36529","lat":"31.22182","category":"47","category_name":"住宅区","address":""},{"poiid":"B2094750DA69A1FC429E","title":"北平家园","lon":"121.363494","lat":"31.222143","category":"47","category_name":"住宅区","address":"西陶浜路"},{"poiid":"B2094654D569A4FF429D","title":"上海市西延安中学分部","lon":"121.3656","lat":"31.21961","category":"55","category_name":"中学","address":"金钟路299"},{"poiid":"B2094757D068AAF8449F","title":"新泾八村","lon":"121.36323","lat":"31.217527","category":"47","category_name":"住宅区","address":"上海长宁区天山西路445弄"},{"poiid":"B2094757D068ABFF469F","title":"新泾四村","lon":"121.368608","lat":"31.217504","category":"47","category_name":"住宅区","address":"上海天山西路剑河路"},{"poiid":"B2094655D36CA0FD489D","title":"金钟路剑河路","lon":"121.36679","lat":"31.21991","category":"38","category_name":"公交车站","address":""},{"poiid":"B2094654D569ABF8459F","title":"红梅小区长宁","lon":"121.37039688827","lat":"31.221023492376","category":"47","category_name":"住宅区","address":"平塘路415弄2-123号"},{"poiid":"B2094654D569A4FE459C","title":"兰州正宗牛肉拉面(金钟路)","lon":"121.36327","lat":"31.22028","category":"68","category_name":"快餐厅","address":"长宁区金钟路436号(近淞虹路)"},{"poiid":"B2094654D569A4FE4192","title":"新泾六村托儿所幼儿园","lon":"121.36674","lat":"31.22082","category":"57","category_name":"幼儿园","address":"长宁区金钟路340弄13号(平塘路清池路)"},{"poiid":"B209475DD769A6F94699","title":"ZOO COFFEE（明基广场店）","lon":"121.363059","lat":"31.223167","category":"247","category_name":"餐饮美食","address":"上海市 长宁区北翟路淞虹路"},{"poiid":"B2094654D569A4FF489D","title":"吉祥馄饨(天山西路)","lon":"121.36495","lat":"31.21804","category":"68","category_name":"快餐厅","address":"长宁区天山西路413号(近2号线淞虹路站)"},{"poiid":"B2094655D26EA4F84599","title":"草原羊 天山店","lon":"121.36436234275","lat":"31.218879430756","category":"247","category_name":"餐饮美食","address":"平塘路215号易初莲花近金钟路"},{"poiid":"B2094654DB65A5F8429D","title":"清池苑(南门)","lon":"121.36712","lat":"31.22164","category":"47","category_name":"住宅区","address":"清池路110弄1-4号"},{"poiid":"B2094654D569A4FE4293","title":"快客No.6158","lon":"121.36542","lat":"31.22273","category":"117","category_name":"便民商店/便利店","address":"平塘路106"},{"poiid":"B2094654D569A4FE419C","title":"快客No.6159","lon":"121.36685","lat":"31.21998","category":"117","category_name":"便民商店/便利店","address":"金钟路328-1识别"},{"poiid":"B2094655D26DA5F84692","title":"平和公寓","lon":"121.3644","lat":"31.221928","category":"47","category_name":"住宅区","address":"平塘路155弄"},{"poiid":"B2094654D569A4FF4199","title":"平塘人家","lon":"121.36534","lat":"31.219172","category":"47","category_name":"住宅区","address":"东安大楼位于浦东上海浦东东园四村439号"},{"poiid":"B2094654DB6BA0FC409A","title":"良友(金钟路)","lon":"121.3639","lat":"31.22022","category":"117","category_name":"便民商店/便利店","address":"金钟路420"},{"poiid":"B2094654D569A4FF409B","title":"东北人家(平塘路)","lon":"121.36445","lat":"31.21842","category":"82","category_name":"东北菜","address":"平塘路225识别"},{"poiid":"B2094654D569A4FE439D","title":"上海市长宁区建筑业协会","lon":"121.36429","lat":"31.22141","category":"250","category_name":"公园户外","address":"平塘路187"},{"poiid":"B2094655D36CA0FD479C","title":"金钟路平塘路","lon":"121.36394","lat":"31.22012","category":"38","category_name":"公交车站","address":""},{"poiid":"B2094752D465A1F84599","title":"上海虹桥机场","lon":"121.361361","lat":"31.2202","category":"500","category_name":"未知分类","address":null},{"poiid":"B2094750D568A7FD439D","title":"中山公园","lon":"121.363639","lat":"31.218746","category":"500","category_name":"未知分类","address":null},{"poiid":"B2094655D26FA0FA429F","title":"协合花苑(西门)","lon":"121.36547","lat":"31.22289","category":"47","category_name":"住宅区","address":"平塘路100弄1-46号"},{"poiid":"B2094655D26FA3F84399","title":"金钟路255弄1-28号","lon":"121.36609","lat":"31.21955","category":"47","category_name":"住宅区","address":""},{"poiid":"B2094655D26DABFD469F","title":"春房小区","lon":"121.36402","lat":"31.222378","category":"47","category_name":"住宅区","address":"平塘路175弄1-7号"},{"poiid":"B2094655D26DA6FB479E","title":"春房小区(南门)","lon":"121.36382","lat":"31.22182","category":"47","category_name":"住宅区","address":"平塘路175弄1-7号"},{"poiid":"B2094757D568A0FC4098","title":"蒋记麻辣烫天山西路店","lon":"121.3629911","lat":"31.21819111","category":"68","category_name":"快餐厅","address":"长宁区天山西路446号(近淞虹路)"},{"poiid":"B2094757D06BA6F4499A","title":"韩滋源","lon":"121.361561686","lat":"31.218163495","category":"96","category_name":"韩国料理","address":"长宁区天山西路428号"},{"poiid":"B2094752D669ABFA4192","title":"虹桥2号航站楼","lon":"121.364975","lat":"31.223755","category":"500","category_name":"未知分类","address":null},{"poiid":"B2094750D664A3FC4493","title":"鸡排超人(天山西路店)","lon":"121.364","lat":"31.2183","category":"68","category_name":"快餐厅","address":"长宁区天山西路428号(近淞虹路)"},{"poiid":"B2094757D16AA6F54698","title":"金钟幼儿园","lon":"121.36372","lat":"31.22","category":"57","category_name":"幼儿园","address":"长宁区金钟路333弄87号(近福泉路)"},{"poiid":"B2094751D565ABFC419B","title":"首尔","lon":"121.368376","lat":"31.219468","category":"247","category_name":"餐饮美食","address":"明洞"},{"poiid":"B2094757D16AA2FC4493","title":"216终点站","lon":"121.366923586","lat":"31.2204972407","category":"500","category_name":"未知分类","address":"上海新泾五村"},{"poiid":"B2094655D26EA3FB439F","title":"金淞家园","lon":"121.36199","lat":"31.221958","category":"47","category_name":"住宅区","address":"淞虹路128弄1-9"},{"poiid":"B2094750D76CA7FB4198","title":"祥和面馆","lon":"121.364","lat":"31.2189","category":"68","category_name":"快餐厅","address":"长宁区平塘路215号"},{"poiid":"B2094757D16EA4F94592","title":"地铁二号线北新泾站 地下商场","lon":"121.36664558","lat":"31.217751187","category":"36","category_name":"地铁站","address":"上海地铁二号线北新泾站"},{"poiid":"B2094752D368AAFE469D","title":"新堂洞","lon":"121.360437","lat":"31.220239","category":"247","category_name":"餐饮美食","address":"金钟路淞虹路"},{"poiid":"B2094757D06FABF5479E","title":"淞虹路北翟路","lon":"121.361332","lat":"31.222754","category":"500","category_name":"未知分类","address":"上海市淞虹路北翟路"},{"poiid":"B2094757D06FABFD4099","title":"新泾公园","lon":"121.362052686","lat":"31.2174502764","category":"196","category_name":"公园","address":"长宁区天山西路455号(近淞虹路)"},{"poiid":"B2094757D06FA7FB409E","title":"新泾七村","lon":"121.36285","lat":"31.219074","category":"47","category_name":"住宅区","address":"上海长宁区天山西路450弄金钟路333弄"},{"poiid":"B2094655D36CA0FA4199","title":"剑河路","lon":"121.3689","lat":"31.21757","category":"38","category_name":"公交车站","address":""},{"poiid":"B2094757D06FA0FA489D","title":"新泾五村","lon":"121.36635","lat":"31.218771","category":"47","category_name":"住宅区","address":"上海天山西路350弄"},{"poiid":"B2094757D469A4FD4992","title":"重庆鸡公煲 天山西路店","lon":"121.36373","lat":"31.21813","category":"71","category_name":"四川菜","address":"长宁区天山西路478号(近淞虹路)"},{"poiid":"B2094654D569A4FE459A","title":"金钟小区","lon":"121.3635","lat":"31.220779","category":"47","category_name":"住宅区","address":"金钟路428弄1-157号"},{"poiid":"B2094654D569A4FE439A","title":"协合花苑","lon":"121.36622","lat":"31.22268","category":"47","category_name":"住宅区","address":"平塘路100弄1-46号"},{"poiid":"B2094757D168AAFC439F","title":"金钟路","lon":"121.36517258","lat":"31.22099425","category":"500","category_name":"未知分类","address":"上海市长宁区金钟路"},{"poiid":"B2094757D068A6F94098","title":"上海海烟物流发展公司","lon":"121.364418214","lat":"31.2241743644","category":"46","category_name":"楼宇","address":"上海长宁区北翟路772号"},{"poiid":"B2094757D164ABFA479B","title":"北翟路淞虹路","lon":"121.368508586","lat":"31.2227512847","category":"500","category_name":"未知分类","address":"上海市长宁区北翟路"},{"poiid":"B2094655D269AAFB4499","title":"外滩游轮蓝趣俱乐部","lon":"121.36458","lat":"31.22092","category":"247","category_name":"餐饮美食","address":"长宁区平塘路(近金钟路)查看地图"},{"poiid":"B2094654DB65A1F9479B","title":"清池路200弄1-14号","lon":"121.36529","lat":"31.22182","category":"47","category_name":"住宅区","address":""},{"poiid":"B2094750DA69A1FC429E","title":"北平家园","lon":"121.363494","lat":"31.222143","category":"47","category_name":"住宅区","address":"西陶浜路"},{"poiid":"B2094654D569A4FF429D","title":"上海市西延安中学分部","lon":"121.3656","lat":"31.21961","category":"55","category_name":"中学","address":"金钟路299"},{"poiid":"B2094757D068AAF8449F","title":"新泾八村","lon":"121.36323","lat":"31.217527","category":"47","category_name":"住宅区","address":"上海长宁区天山西路445弄"},{"poiid":"B2094757D068ABFF469F","title":"新泾四村","lon":"121.368608","lat":"31.217504","category":"47","category_name":"住宅区","address":"上海天山西路剑河路"},{"poiid":"B2094655D36CA0FD489D","title":"金钟路剑河路","lon":"121.36679","lat":"31.21991","category":"38","category_name":"公交车站","address":""},{"poiid":"B2094654D569ABF8459F","title":"红梅小区长宁","lon":"121.37039688827","lat":"31.221023492376","category":"47","category_name":"住宅区","address":"平塘路415弄2-123号"},{"poiid":"B2094654D569A4FE459C","title":"兰州正宗牛肉拉面(金钟路)","lon":"121.36327","lat":"31.22028","category":"68","category_name":"快餐厅","address":"长宁区金钟路436号(近淞虹路)"},{"poiid":"B2094654D569A4FE4192","title":"新泾六村托儿所幼儿园","lon":"121.36674","lat":"31.22082","category":"57","category_name":"幼儿园","address":"长宁区金钟路340弄13号(平塘路清池路)"},{"poiid":"B209475DD769A6F94699","title":"ZOO COFFEE（明基广场店）","lon":"121.363059","lat":"31.223167","category":"247","category_name":"餐饮美食","address":"上海市 长宁区北翟路淞虹路"},{"poiid":"B2094654D569A4FF489D","title":"吉祥馄饨(天山西路)","lon":"121.36495","lat":"31.21804","category":"68","category_name":"快餐厅","address":"长宁区天山西路413号(近2号线淞虹路站)"},{"poiid":"B2094655D26EA4F84599","title":"草原羊 天山店","lon":"121.36436234275","lat":"31.218879430756","category":"247","category_name":"餐饮美食","address":"平塘路215号易初莲花近金钟路"},{"poiid":"B2094654DB65A5F8429D","title":"清池苑(南门)","lon":"121.36712","lat":"31.22164","category":"47","category_name":"住宅区","address":"清池路110弄1-4号"},{"poiid":"B2094654D569A4FE4293","title":"快客No.6158","lon":"121.36542","lat":"31.22273","category":"117","category_name":"便民商店/便利店","address":"平塘路106"},{"poiid":"B2094654D569A4FE419C","title":"快客No.6159","lon":"121.36685","lat":"31.21998","category":"117","category_name":"便民商店/便利店","address":"金钟路328-1识别"},{"poiid":"B2094655D26DA5F84692","title":"平和公寓","lon":"121.3644","lat":"31.221928","category":"47","category_name":"住宅区","address":"平塘路155弄"},{"poiid":"B2094654D569A4FF4199","title":"平塘人家","lon":"121.36534","lat":"31.219172","category":"47","category_name":"住宅区","address":"东安大楼位于浦东上海浦东东园四村439号"},{"poiid":"B2094654DB6BA0FC409A","title":"良友(金钟路)","lon":"121.3639","lat":"31.22022","category":"117","category_name":"便民商店/便利店","address":"金钟路420"},{"poiid":"B2094654D569A4FF409B","title":"东北人家(平塘路)","lon":"121.36445","lat":"31.21842","category":"82","category_name":"东北菜","address":"平塘路225识别"},{"poiid":"B2094654D569A4FE439D","title":"上海市长宁区建筑业协会","lon":"121.36429","lat":"31.22141","category":"250","category_name":"公园户外","address":"平塘路187"},{"poiid":"B2094655D36CA0FD479C","title":"金钟路平塘路","lon":"121.36394","lat":"31.22012","category":"38","category_name":"公交车站","address":""},{"poiid":"B2094752D465A1F84599","title":"上海虹桥机场","lon":"121.361361","lat":"31.2202","category":"500","category_name":"未知分类","address":null},{"poiid":"B2094750D568A7FD439D","title":"中山公园","lon":"121.363639","lat":"31.218746","category":"500","category_name":"未知分类","address":null},{"poiid":"B2094655D26FA0FA429F","title":"协合花苑(西门)","lon":"121.36547","lat":"31.22289","category":"47","category_name":"住宅区","address":"平塘路100弄1-46号"},{"poiid":"B2094655D26FA3F84399","title":"金钟路255弄1-28号","lon":"121.36609","lat":"31.21955","category":"47","category_name":"住宅区","address":""},{"poiid":"B2094655D26DABFD469F","title":"春房小区","lon":"121.36402","lat":"31.222378","category":"47","category_name":"住宅区","address":"平塘路175弄1-7号"},{"poiid":"B2094655D26DA6FB479E","title":"春房小区(南门)","lon":"121.36382","lat":"31.22182","category":"47","category_name":"住宅区","address":"平塘路175弄1-7号"},{"poiid":"B2094757D568A0FC4098","title":"蒋记麻辣烫天山西路店","lon":"121.3629911","lat":"31.21819111","category":"68","category_name":"快餐厅","address":"长宁区天山西路446号(近淞虹路)"},{"poiid":"B2094757D06BA6F4499A","title":"韩滋源","lon":"121.361561686","lat":"31.218163495","category":"96","category_name":"韩国料理","address":"长宁区天山西路428号"},{"poiid":"B2094752D669ABFA4192","title":"虹桥2号航站楼","lon":"121.364975","lat":"31.223755","category":"500","category_name":"未知分类","address":null},{"poiid":"B2094750D664A3FC4493","title":"鸡排超人(天山西路店)","lon":"121.364","lat":"31.2183","category":"68","category_name":"快餐厅","address":"长宁区天山西路428号(近淞虹路)"},{"poiid":"B2094757D16AA6F54698","title":"金钟幼儿园","lon":"121.36372","lat":"31.22","category":"57","category_name":"幼儿园","address":"长宁区金钟路333弄87号(近福泉路)"},{"poiid":"B2094751D565ABFC419B","title":"首尔","lon":"121.368376","lat":"31.219468","category":"247","category_name":"餐饮美食","address":"明洞"},{"poiid":"B2094757D16AA2FC4493","title":"216终点站","lon":"121.366923586","lat":"31.2204972407","category":"500","category_name":"未知分类","address":"上海新泾五村"},{"poiid":"B2094655D26EA3FB439F","title":"金淞家园","lon":"121.36199","lat":"31.221958","category":"47","category_name":"住宅区","address":"淞虹路128弄1-9"},{"poiid":"B2094750D76CA7FB4198","title":"祥和面馆","lon":"121.364","lat":"31.2189","category":"68","category_name":"快餐厅","address":"长宁区平塘路215号"},{"poiid":"B2094757D16EA4F94592","title":"地铁二号线北新泾站 地下商场","lon":"121.36664558","lat":"31.217751187","category":"36","category_name":"地铁站","address":"上海地铁二号线北新泾站"},{"poiid":"B2094752D368AAFE469D","title":"新堂洞","lon":"121.360437","lat":"31.220239","category":"247","category_name":"餐饮美食","address":"金钟路淞虹路"},{"poiid":"B2094757D06FABF5479E","title":"淞虹路北翟路","lon":"121.361332","lat":"31.222754","category":"500","category_name":"未知分类","address":"上海市淞虹路北翟路"},{"poiid":"B2094757D06FABFD4099","title":"新泾公园","lon":"121.362052686","lat":"31.2174502764","category":"196","category_name":"公园","address":"长宁区天山西路455号(近淞虹路)"},{"poiid":"B2094757D06FA7FB409E","title":"新泾七村","lon":"121.36285","lat":"31.219074","category":"47","category_name":"住宅区","address":"上海长宁区天山西路450弄金钟路333弄"},{"poiid":"B2094655D36CA0FA4199","title":"剑河路","lon":"121.3689","lat":"31.21757","category":"38","category_name":"公交车站","address":""},{"poiid":"B2094757D06FA0FA489D","title":"新泾五村","lon":"121.36635","lat":"31.218771","category":"47","category_name":"住宅区","address":"上海天山西路350弄"},{"poiid":"B2094757D469A4FD4992","title":"重庆鸡公煲 天山西路店","lon":"121.36373","lat":"31.21813","category":"71","category_name":"四川菜","address":"长宁区天山西路478号(近淞虹路)"},{"poiid":"B2094654D569A4FE459A","title":"金钟小区","lon":"121.3635","lat":"31.220779","category":"47","category_name":"住宅区","address":"金钟路428弄1-157号"},{"poiid":"B2094654D569A4FE439A","title":"协合花苑","lon":"121.36622","lat":"31.22268","category":"47","category_name":"住宅区","address":"平塘路100弄1-46号"},{"poiid":"B2094757D168AAFC439F","title":"金钟路","lon":"121.36517258","lat":"31.22099425","category":"500","category_name":"未知分类","address":"上海市长宁区金钟路"},{"poiid":"B2094757D068A6F94098","title":"上海海烟物流发展公司","lon":"121.364418214","lat":"31.2241743644","category":"46","category_name":"楼宇","address":"上海长宁区北翟路772号"},{"poiid":"B2094757D164ABFA479B","title":"北翟路淞虹路","lon":"121.368508586","lat":"31.2227512847","category":"500","category_name":"未知分类","address":"上海市长宁区北翟路"},{"poiid":"B2094655D269AAFB4499","title":"外滩游轮蓝趣俱乐部","lon":"121.36458","lat":"31.22092","category":"247","category_name":"餐饮美食","address":"长宁区平塘路(近金钟路)查看地图"},{"poiid":"B2094654DB65A1F9479B","title":"清池路200弄1-14号","lon":"121.36529","lat":"31.22182","category":"47","category_name":"住宅区","address":""},{"poiid":"B2094750DA69A1FC429E","title":"北平家园","lon":"121.363494","lat":"31.222143","category":"47","category_name":"住宅区","address":"西陶浜路"},{"poiid":"B2094654D569A4FF429D","title":"上海市西延安中学分部","lon":"121.3656","lat":"31.21961","category":"55","category_name":"中学","address":"金钟路299"},{"poiid":"B2094757D068AAF8449F","title":"新泾八村","lon":"121.36323","lat":"31.217527","category":"47","category_name":"住宅区","address":"上海长宁区天山西路445弄"},{"poiid":"B2094757D068ABFF469F","title":"新泾四村","lon":"121.368608","lat":"31.217504","category":"47","category_name":"住宅区","address":"上海天山西路剑河路"},{"poiid":"B2094655D36CA0FD489D","title":"金钟路剑河路","lon":"121.36679","lat":"31.21991","category":"38","category_name":"公交车站","address":""},{"poiid":"B2094654D569ABF8459F","title":"红梅小区长宁","lon":"121.37039688827","lat":"31.221023492376","category":"47","category_name":"住宅区","address":"平塘路415弄2-123号"},{"poiid":"B2094654D569A4FE459C","title":"兰州正宗牛肉拉面(金钟路)","lon":"121.36327","lat":"31.22028","category":"68","category_name":"快餐厅","address":"长宁区金钟路436号(近淞虹路)"},{"poiid":"B2094654D569A4FE4192","title":"新泾六村托儿所幼儿园","lon":"121.36674","lat":"31.22082","category":"57","category_name":"幼儿园","address":"长宁区金钟路340弄13号(平塘路清池路)"},{"poiid":"B209475DD769A6F94699","title":"ZOO COFFEE（明基广场店）","lon":"121.363059","lat":"31.223167","category":"247","category_name":"餐饮美食","address":"上海市 长宁区北翟路淞虹路"},{"poiid":"B2094654D569A4FF489D","title":"吉祥馄饨(天山西路)","lon":"121.36495","lat":"31.21804","category":"68","category_name":"快餐厅","address":"长宁区天山西路413号(近2号线淞虹路站)"},{"poiid":"B2094655D26EA4F84599","title":"草原羊 天山店","lon":"121.36436234275","lat":"31.218879430756","category":"247","category_name":"餐饮美食","address":"平塘路215号易初莲花近金钟路"},{"poiid":"B2094654DB65A5F8429D","title":"清池苑(南门)","lon":"121.36712","lat":"31.22164","category":"47","category_name":"住宅区","address":"清池路110弄1-4号"},{"poiid":"B2094654D569A4FE4293","title":"快客No.6158","lon":"121.36542","lat":"31.22273","category":"117","category_name":"便民商店/便利店","address":"平塘路106"},{"poiid":"B2094654D569A4FE419C","title":"快客No.6159","lon":"121.36685","lat":"31.21998","category":"117","category_name":"便民商店/便利店","address":"金钟路328-1识别"},{"poiid":"B2094655D26DA5F84692","title":"平和公寓","lon":"121.3644","lat":"31.221928","category":"47","category_name":"住宅区","address":"平塘路155弄"},{"poiid":"B2094654D569A4FF4199","title":"平塘人家","lon":"121.36534","lat":"31.219172","category":"47","category_name":"住宅区","address":"东安大楼位于浦东上海浦东东园四村439号"},{"poiid":"B2094654DB6BA0FC409A","title":"良友(金钟路)","lon":"121.3639","lat":"31.22022","category":"117","category_name":"便民商店/便利店","address":"金钟路420"},{"poiid":"B2094654D569A4FF409B","title":"东北人家(平塘路)","lon":"121.36445","lat":"31.21842","category":"82","category_name":"东北菜","address":"平塘路225识别"},{"poiid":"B2094654D569A4FE439D","title":"上海市长宁区建筑业协会","lon":"121.36429","lat":"31.22141","category":"250","category_name":"公园户外","address":"平塘路187"},{"poiid":"B2094655D36CA0FD479C","title":"金钟路平塘路","lon":"121.36394","lat":"31.22012","category":"38","category_name":"公交车站","address":""},{"poiid":"B2094752D465A1F84599","title":"上海虹桥机场","lon":"121.361361","lat":"31.2202","category":"500","category_name":"未知分类","address":null},{"poiid":"B2094750D568A7FD439D","title":"中山公园","lon":"121.363639","lat":"31.218746","category":"500","category_name":"未知分类","address":null},{"poiid":"B2094655D26FA0FA429F","title":"协合花苑(西门)","lon":"121.36547","lat":"31.22289","category":"47","category_name":"住宅区","address":"平塘路100弄1-46号"},{"poiid":"B2094655D26FA3F84399","title":"金钟路255弄1-28号","lon":"121.36609","lat":"31.21955","category":"47","category_name":"住宅区","address":""},{"poiid":"B2094655D26DABFD469F","title":"春房小区","lon":"121.36402","lat":"31.222378","category":"47","category_name":"住宅区","address":"平塘路175弄1-7号"},{"poiid":"B2094655D26DA6FB479E","title":"春房小区(南门)","lon":"121.36382","lat":"31.22182","category":"47","category_name":"住宅区","address":"平塘路175弄1-7号"},{"poiid":"B2094757D568A0FC4098","title":"蒋记麻辣烫天山西路店","lon":"121.3629911","lat":"31.21819111","category":"68","category_name":"快餐厅","address":"长宁区天山西路446号(近淞虹路)"},{"poiid":"B2094757D06BA6F4499A","title":"韩滋源","lon":"121.361561686","lat":"31.218163495","category":"96","category_name":"韩国料理","address":"长宁区天山西路428号"},{"poiid":"B2094752D669ABFA4192","title":"虹桥2号航站楼","lon":"121.364975","lat":"31.223755","category":"500","category_name":"未知分类","address":null},{"poiid":"B2094750D664A3FC4493","title":"鸡排超人(天山西路店)","lon":"121.364","lat":"31.2183","category":"68","category_name":"快餐厅","address":"长宁区天山西路428号(近淞虹路)"},{"poiid":"B2094757D16AA6F54698","title":"金钟幼儿园","lon":"121.36372","lat":"31.22","category":"57","category_name":"幼儿园","address":"长宁区金钟路333弄87号(近福泉路)"},{"poiid":"B2094751D565ABFC419B","title":"首尔","lon":"121.368376","lat":"31.219468","category":"247","category_name":"餐饮美食","address":"明洞"},{"poiid":"B2094757D16AA2FC4493","title":"216终点站","lon":"121.366923586","lat":"31.2204972407","category":"500","category_name":"未知分类","address":"上海新泾五村"},{"poiid":"B2094655D26EA3FB439F","title":"金淞家园","lon":"121.36199","lat":"31.221958","category":"47","category_name":"住宅区","address":"淞虹路128弄1-9"},{"poiid":"B2094750D76CA7FB4198","title":"祥和面馆","lon":"121.364","lat":"31.2189","category":"68","category_name":"快餐厅","address":"长宁区平塘路215号"},{"poiid":"B2094757D16EA4F94592","title":"地铁二号线北新泾站 地下商场","lon":"121.36664558","lat":"31.217751187","category":"36","category_name":"地铁站","address":"上海地铁二号线北新泾站"},{"poiid":"B2094752D368AAFE469D","title":"新堂洞","lon":"121.360437","lat":"31.220239","category":"247","category_name":"餐饮美食","address":"金钟路淞虹路"},{"poiid":"B2094757D06FABF5479E","title":"淞虹路北翟路","lon":"121.361332","lat":"31.222754","category":"500","category_name":"未知分类","address":"上海市淞虹路北翟路"},{"poiid":"B2094757D06FABFD4099","title":"新泾公园","lon":"121.362052686","lat":"31.2174502764","category":"196","category_name":"公园","address":"长宁区天山西路455号(近淞虹路)"},{"poiid":"B2094757D06FA7FB409E","title":"新泾七村","lon":"121.36285","lat":"31.219074","category":"47","category_name":"住宅区","address":"上海长宁区天山西路450弄金钟路333弄"},{"poiid":"B2094655D36CA0FA4199","title":"剑河路","lon":"121.3689","lat":"31.21757","category":"38","category_name":"公交车站","address":""},{"poiid":"B2094757D06FA0FA489D","title":"新泾五村","lon":"121.36635","lat":"31.218771","category":"47","category_name":"住宅区","address":"上海天山西路350弄"},{"poiid":"B2094757D469A4FD4992","title":"重庆鸡公煲 天山西路店","lon":"121.36373","lat":"31.21813","category":"71","category_name":"四川菜","address":"长宁区天山西路478号(近淞虹路)"},{"poiid":"B2094654D569A4FE459A","title":"金钟小区","lon":"121.3635","lat":"31.220779","category":"47","category_name":"住宅区","address":"金钟路428弄1-157号"},{"poiid":"B2094654D569A4FE439A","title":"协合花苑","lon":"121.36622","lat":"31.22268","category":"47","category_name":"住宅区","address":"平塘路100弄1-46号"},{"poiid":"B2094757D168AAFC439F","title":"金钟路","lon":"121.36517258","lat":"31.22099425","category":"500","category_name":"未知分类","address":"上海市长宁区金钟路"},{"poiid":"B2094757D068A6F94098","title":"上海海烟物流发展公司","lon":"121.364418214","lat":"31.2241743644","category":"46","category_name":"楼宇","address":"上海长宁区北翟路772号"},{"poiid":"B2094757D164ABFA479B","title":"北翟路淞虹路","lon":"121.368508586","lat":"31.2227512847","category":"500","category_name":"未知分类","address":"上海市长宁区北翟路"},{"poiid":"B2094655D269AAFB4499","title":"外滩游轮蓝趣俱乐部","lon":"121.36458","lat":"31.22092","category":"247","category_name":"餐饮美食","address":"长宁区平塘路(近金钟路)查看地图"},{"poiid":"B2094654DB65A1F9479B","title":"清池路200弄1-14号","lon":"121.36529","lat":"31.22182","category":"47","category_name":"住宅区","address":""},{"poiid":"B2094750DA69A1FC429E","title":"北平家园","lon":"121.363494","lat":"31.222143","category":"47","category_name":"住宅区","address":"西陶浜路"},{"poiid":"B2094654D569A4FF429D","title":"上海市西延安中学分部","lon":"121.3656","lat":"31.21961","category":"55","category_name":"中学","address":"金钟路299"},{"poiid":"B2094757D068AAF8449F","title":"新泾八村","lon":"121.36323","lat":"31.217527","category":"47","category_name":"住宅区","address":"上海长宁区天山西路445弄"},{"poiid":"B2094757D068ABFF469F","title":"新泾四村","lon":"121.368608","lat":"31.217504","category":"47","category_name":"住宅区","address":"上海天山西路剑河路"},{"poiid":"B2094655D36CA0FD489D","title":"金钟路剑河路","lon":"121.36679","lat":"31.21991","category":"38","category_name":"公交车站","address":""},{"poiid":"B2094654D569ABF8459F","title":"红梅小区长宁","lon":"121.37039688827","lat":"31.221023492376","category":"47","category_name":"住宅区","address":"平塘路415弄2-123号"},{"poiid":"B2094654D569A4FE459C","title":"兰州正宗牛肉拉面(金钟路)","lon":"121.36327","lat":"31.22028","category":"68","category_name":"快餐厅","address":"长宁区金钟路436号(近淞虹路)"},{"poiid":"B2094654D569A4FE4192","title":"新泾六村托儿所幼儿园","lon":"121.36674","lat":"31.22082","category":"57","category_name":"幼儿园","address":"长宁区金钟路340弄13号(平塘路清池路)"},{"poiid":"B209475DD769A6F94699","title":"ZOO COFFEE（明基广场店）","lon":"121.363059","lat":"31.223167","category":"247","category_name":"餐饮美食","address":"上海市 长宁区北翟路淞虹路"},{"poiid":"B2094654D569A4FF489D","title":"吉祥馄饨(天山西路)","lon":"121.36495","lat":"31.21804","category":"68","category_name":"快餐厅","address":"长宁区天山西路413号(近2号线淞虹路站)"},{"poiid":"B2094655D26EA4F84599","title":"草原羊 天山店","lon":"121.36436234275","lat":"31.218879430756","category":"247","category_name":"餐饮美食","address":"平塘路215号易初莲花近金钟路"},{"poiid":"B2094654DB65A5F8429D","title":"清池苑(南门)","lon":"121.36712","lat":"31.22164","category":"47","category_name":"住宅区","address":"清池路110弄1-4号"},{"poiid":"B2094654D569A4FE4293","title":"快客No.6158","lon":"121.36542","lat":"31.22273","category":"117","category_name":"便民商店/便利店","address":"平塘路106"},{"poiid":"B2094654D569A4FE419C","title":"快客No.6159","lon":"121.36685","lat":"31.21998","category":"117","category_name":"便民商店/便利店","address":"金钟路328-1识别"},{"poiid":"B2094655D26DA5F84692","title":"平和公寓","lon":"121.3644","lat":"31.221928","category":"47","category_name":"住宅区","address":"平塘路155弄"},{"poiid":"B2094654D569A4FF4199","title":"平塘人家","lon":"121.36534","lat":"31.219172","category":"47","category_name":"住宅区","address":"东安大楼位于浦东上海浦东东园四村439号"},{"poiid":"B2094654DB6BA0FC409A","title":"良友(金钟路)","lon":"121.3639","lat":"31.22022","category":"117","category_name":"便民商店/便利店","address":"金钟路420"},{"poiid":"B2094654D569A4FF409B","title":"东北人家(平塘路)","lon":"121.36445","lat":"31.21842","category":"82","category_name":"东北菜","address":"平塘路225识别"},{"poiid":"B2094654D569A4FE439D","title":"上海市长宁区建筑业协会","lon":"121.36429","lat":"31.22141","category":"250","category_name":"公园户外","address":"平塘路187"},{"poiid":"B2094655D36CA0FD479C","title":"金钟路平塘路","lon":"121.36394","lat":"31.22012","category":"38","category_name":"公交车站","address":""},{"poiid":"B2094752D465A1F84599","title":"上海虹桥机场","lon":"121.361361","lat":"31.2202","category":"500","category_name":"未知分类","address":null},{"poiid":"B2094750D568A7FD439D","title":"中山公园","lon":"121.363639","lat":"31.218746","category":"500","category_name":"未知分类","address":null},{"poiid":"B2094655D26FA0FA429F","title":"协合花苑(西门)","lon":"121.36547","lat":"31.22289","category":"47","category_name":"住宅区","address":"平塘路100弄1-46号"},{"poiid":"B2094655D26FA3F84399","title":"金钟路255弄1-28号","lon":"121.36609","lat":"31.21955","category":"47","category_name":"住宅区","address":""},{"poiid":"B2094655D26DABFD469F","title":"春房小区","lon":"121.36402","lat":"31.222378","category":"47","category_name":"住宅区","address":"平塘路175弄1-7号"},{"poiid":"B2094655D26DA6FB479E","title":"春房小区(南门)","lon":"121.36382","lat":"31.22182","category":"47","category_name":"住宅区","address":"平塘路175弄1-7号"},{"poiid":"B2094757D568A0FC4098","title":"蒋记麻辣烫天山西路店","lon":"121.3629911","lat":"31.21819111","category":"68","category_name":"快餐厅","address":"长宁区天山西路446号(近淞虹路)"},{"poiid":"B2094757D06BA6F4499A","title":"韩滋源","lon":"121.361561686","lat":"31.218163495","category":"96","category_name":"韩国料理","address":"长宁区天山西路428号"},{"poiid":"B2094752D669ABFA4192","title":"虹桥2号航站楼","lon":"121.364975","lat":"31.223755","category":"500","category_name":"未知分类","address":null},{"poiid":"B2094750D664A3FC4493","title":"鸡排超人(天山西路店)","lon":"121.364","lat":"31.2183","category":"68","category_name":"快餐厅","address":"长宁区天山西路428号(近淞虹路)"},{"poiid":"B2094757D16AA6F54698","title":"金钟幼儿园","lon":"121.36372","lat":"31.22","category":"57","category_name":"幼儿园","address":"长宁区金钟路333弄87号(近福泉路)"},{"poiid":"B2094751D565ABFC419B","title":"首尔","lon":"121.368376","lat":"31.219468","category":"247","category_name":"餐饮美食","address":"明洞"},{"poiid":"B2094757D16AA2FC4493","title":"216终点站","lon":"121.366923586","lat":"31.2204972407","category":"500","category_name":"未知分类","address":"上海新泾五村"},{"poiid":"B2094655D26EA3FB439F","title":"金淞家园","lon":"121.36199","lat":"31.221958","category":"47","category_name":"住宅区","address":"淞虹路128弄1-9"},{"poiid":"B2094750D76CA7FB4198","title":"祥和面馆","lon":"121.364","lat":"31.2189","category":"68","category_name":"快餐厅","address":"长宁区平塘路215号"}]