[{"poiid":"B2094757D06FA3FB499C","title":"虹桥迎宾馆","lon":"121.401","lat":"31.2082","category":"213","category_name":"五星级宾馆","address":"长宁区虹桥路1591号虹桥迎宾馆内(近水城南路)"},{"poiid":"B2094654D56BA7F8449B","title":"上海对外贸易学院(古北校区)","lon":"121.39914","lat":"31.20727","category":"52","category_name":"高等院校","address":"长宁区古北路620号(近仙霞路)"},{"poiid":"B2094757D069A6F8469B","title":"韩林炭烤(天山百盛店)","lon":"121.401095186","lat":"31.2100527364","category":"96","category_name":"韩国料理","address":"长宁区天山路789号百盛5楼(近娄山关路)"},{"poiid":"B2094757D06FA2F54799","title":"老盛昌苏州汤包馆(古北路店)","lon":"121.400782","lat":"31.21043","category":"68","category_name":"快餐厅","address":"长宁区古北路445号(近茅台路)"},{"poiid":"B2094757D16AA4F9449C","title":"天山路古北路路口","lon":"121.39944838","lat":"31.21230328","category":"500","category_name":"未知分类","address":"上海天山路古北路路口"},{"poiid":"B2094757D06FA5FC4099","title":"威尔士健身会所(古北店)","lon":"121.4005","lat":"31.20825","category":"221","category_name":"健身中心","address":"长宁区古北路555弄虹桥华庭内(近仙霞路)"},{"poiid":"B2094757D06AA4F94798","title":"茅台路","lon":"121.40033273","lat":"31.209175173","category":"500","category_name":"未知分类","address":"上海茅台路"},{"poiid":"B2094655D26DAAF5409A","title":"一刻","lon":"121.400508054","lat":"31.211418793","category":"95","category_name":"日本料理","address":"长宁区古北路437号(近天山路)"},{"poiid":"B2094757D46EABF84598","title":"润湘之 茅台路店","lon":"121.39799","lat":"31.21024","category":"77","category_name":"湖南菜","address":"长宁区茅台路298号(近古北路)"},{"poiid":"B2094757D169A6FA499B","title":"兰桂坊","lon":"121.399307586","lat":"31.2107320497","category":"500","category_name":"未知分类","address":"田林兰桂坊位于徐汇区上海徐汇桂林路625弄"},{"poiid":"B2094757D069A3FD4499","title":"阿玛尼(古北路店)","lon":"121.39928","lat":"31.209963","category":"141","category_name":"服装鞋帽皮具店","address":"上海古北路茅台路路口"},{"poiid":"B2094655D36CA6FC469B","title":"古北路","lon":"121.40063","lat":"31.21179","category":"38","category_name":"公交车站","address":""},{"poiid":"B2094757D16BAAFD499E","title":"避風塘 天山店","lon":"121.397744386","lat":"31.2121923783","category":"500","category_name":"未知分类","address":"上海天山百盛"},{"poiid":"B2094757D06AA3FD479A","title":"古北状元楼","lon":"121.40054","lat":"31.20953","category":"75","category_name":"浙江菜","address":"长宁区古北路460号(近茅台路)"},{"poiid":"B2094757D56CA0F8459C","title":"肯德基 天山店 KFC","lon":"121.39874096383","lat":"31.212445747659","category":"68","category_name":"快餐厅","address":"长宁区天山路672号(近古北路)"},{"poiid":"B2094757D06BA5FE489C","title":"太郎","lon":"121.40053","lat":"31.20999","category":"95","category_name":"日本料理","address":"长宁区古北路443号(近天山路)"},{"poiid":"B2094757D16EA6FC429C","title":"玉华饮食店","lon":"121.39777","lat":"31.20932","category":"68","category_name":"快餐厅","address":"长宁区茅台路321号(近芙蓉江路)"},{"poiid":"B2094757DB6CA4F8409C","title":"芋贵人","lon":"121.3983777488685","lat":"31.21107835085998","category":"247","category_name":"餐饮美食","address":"鸿鑫时尚广场"},{"poiid":"B2094757D168A7F9409B","title":"新澳港式茶餐厅(茅台路)","lon":"121.396030586","lat":"31.2099660347","category":"72","category_name":"广东菜","address":"长宁区茅台路374号(近芙蓉江路口)"},{"poiid":"B2094752DB6EA2FE499E","title":"娄山关路地铁站","lon":"121.398634","lat":"31.209622","category":"36","category_name":"地铁站","address":"上海市 上海市长宁区"},{"poiid":"B2094654D56BA7F94093","title":"佰威商务中心","lon":"121.40039","lat":"31.20943","category":"46","category_name":"楼宇","address":"闸北区江场西路38号(近共和新路)"},{"poiid":"B2094757D468A1FF409D","title":"重庆鸡公煲 茅台路店","lon":"121.392395","lat":"31.210073","category":"71","category_name":"四川菜","address":"长宁区茅台路(近古北路)"},{"poiid":"B2094750D16BABFB4692","title":"锦江之星上海茅台路店","lon":"121.398391093725","lat":"31.2097189057574","category":"216","category_name":"经济型连锁酒店","address":"长宁区茅台路281号(近古北路)"},{"poiid":"B2094753D36FA4FB409F","title":"丸龟制面","lon":"121.398011","lat":"31.209377","category":"247","category_name":"餐饮美食","address":"上海市 天山路900号汇金百货B1"},{"poiid":"B2094757D16CA0F8469C","title":"林吾","lon":"121.400606054","lat":"31.208939793","category":"95","category_name":"日本料理","address":"长宁区古北路555号A2创意555内(远藤国际广场)"},{"poiid":"B2094654D56BA7F94198","title":"大金更小区","lon":"121.39851","lat":"31.209101","category":"47","category_name":"住宅区","address":"茅台路295弄1-20号"},{"poiid":"B2094757D66BA3F54393","title":"新招鲜本地鸡窝 茅台路店","lon":"121.400048","lat":"31.209683","category":"86","category_name":"火锅店","address":"长宁区茅台路203号"},{"poiid":"B2094757D064A3FA409A","title":"denny house丝袜奶茶(天山店)","lon":"121.40173","lat":"31.20988","category":"113","category_name":"冷饮店","address":"长宁区茅台路168号(近娄山关路)"},{"poiid":"B2094757D06AA6F9429F","title":"三人行骨头王","lon":"121.40122758","lat":"31.210455044","category":"247","category_name":"餐饮美食","address":"上海市长宁区天山路"},{"poiid":"B2094753D164A0F5499F","title":"70后饭吧","lon":"121.398514","lat":"31.210951","category":"247","category_name":"餐饮美食","address":"上海市 汇金B1楼"},{"poiid":"B2094654DB64A6FB499E","title":"佰威大酒店","lon":"121.40038","lat":"31.20959","category":"250","category_name":"公园户外","address":"长宁区古北路456号(近茅台路)"},{"poiid":"B2094751D269A5FE439A","title":"神G妙蒜(茅台路店)","lon":"121.39774775128171","lat":"31.209703245151875","category":"68","category_name":"快餐厅","address":"长宁区茅台路277号"},{"poiid":"B2094757D16FA4F84598","title":"安吉竹博园","lon":"121.39877401","lat":"31.209824432","category":"500","category_name":"未知分类","address":"湖州浙江，安吉"},{"poiid":"B2094757D469A6FC409D","title":"上海歌城自助餐","lon":"121.399434054","lat":"31.212011793","category":"268","category_name":"自助","address":"长宁区天山路762号泓鑫时尚广场6楼(近娄山关路)"},{"poiid":"B2094654DB6BA7FD4292","title":"良友(大金更小区东北)","lon":"121.39965","lat":"31.20998","category":"117","category_name":"便民商店/便利店","address":"茅台路242号"},{"poiid":"B2094655D264A2F8469B","title":"星期一便当 茅台路店","lon":"121.39641","lat":"31.20981","category":"68","category_name":"快餐厅","address":"长宁区茅台路356号(近古北路)"},{"poiid":"B2094655D36CA6FC459D","title":"古北路茅台路","lon":"121.40056","lat":"31.21073","category":"38","category_name":"公交车站","address":""},{"poiid":"B2094757D168A2FA4999","title":"川忆川菜","lon":"121.401104586","lat":"31.2115570658","category":"247","category_name":"餐饮美食","address":"上海天山路762号四楼"},{"poiid":"B2094757D568ABFE449B","title":"日式烧肉村正宗","lon":"121.40039","lat":"31.20959389","category":"269","category_name":"烧烤","address":"长宁区古北路456号佰威大酒店1楼(近茅台路)"},{"poiid":"B2094757D16EA1FC409E","title":"855芙蓉江路天山路","lon":"121.397981","lat":"31.209906","category":"500","category_name":"未知分类","address":"上海芙蓉江路茅台路"},{"poiid":"B2094654D56BA7FA4099","title":"好德便利No.038","lon":"121.39988","lat":"31.20999","category":"117","category_name":"便民商店/便利店","address":"茅台路232"},{"poiid":"B2094655D26FA6FD499B","title":"上海市长宁区天山新村第五小学","lon":"121.39732","lat":"31.2096","category":"56","category_name":"小学","address":"长宁区天山五村170号"},{"poiid":"B2094654D56BA7F9489B","title":"大三小区","lon":"121.39786","lat":"31.210772","category":"47","category_name":"住宅区","address":"茅台路300弄1-10号"},{"poiid":"B2094654D56BA7F9469C","title":"全家(茅台路)","lon":"121.39705","lat":"31.20994","category":"117","category_name":"便民商店/便利店","address":"茅台路340"},{"poiid":"B2094655D26CAAFD429C","title":"克莉丝汀 茅台路店","lon":"121.401077054","lat":"31.209889793","category":"112","category_name":"糕饼店","address":"茅台路358号近古北路"},{"poiid":"B2094654DB6BA7FD449A","title":"可颂坊 古北店 Croissants de France","lon":"121.400118054","lat":"31.211351793","category":"112","category_name":"糕饼店","address":"长宁区古北路380号(近天山路)"},{"poiid":"B2094753DB6FA6F8479E","title":"环贸iapm","lon":"121.400535","lat":"31.209426","category":"500","category_name":"未知分类","address":"上海市 上海淮海中路999号"},{"poiid":"B2094654D56BA7F54293","title":"可的(茅台路)","lon":"121.40009","lat":"31.21","category":"117","category_name":"便民商店/便利店","address":"茅台路224"},{"poiid":"B2094654D56BA7F94799","title":"阿海发型工作室","lon":"121.39742","lat":"31.20995","category":"148","category_name":"美容美发店","address":""},{"poiid":"B209475CD16CA6FA429C","title":"老盛昌苏州汤包馆 茅台路店","lon":"121.3997","lat":"31.21088","category":"68","category_name":"快餐厅","address":"茅台路290号(近古北路)"},{"poiid":"B2094757D06FA3FB499C","title":"虹桥迎宾馆","lon":"121.401","lat":"31.2082","category":"213","category_name":"五星级宾馆","address":"长宁区虹桥路1591号虹桥迎宾馆内(近水城南路)"},{"poiid":"B2094654D56BA7F8449B","title":"上海对外贸易学院(古北校区)","lon":"121.39914","lat":"31.20727","category":"52","category_name":"高等院校","address":"长宁区古北路620号(近仙霞路)"},{"poiid":"B2094757D069A6F8469B","title":"韩林炭烤(天山百盛店)","lon":"121.401095186","lat":"31.2100527364","category":"96","category_name":"韩国料理","address":"长宁区天山路789号百盛5楼(近娄山关路)"},{"poiid":"B2094757D06FA2F54799","title":"老盛昌苏州汤包馆(古北路店)","lon":"121.400782","lat":"31.21043","category":"68","category_name":"快餐厅","address":"长宁区古北路445号(近茅台路)"},{"poiid":"B2094757D16AA4F9449C","title":"天山路古北路路口","lon":"121.39944838","lat":"31.21230328","category":"500","category_name":"未知分类","address":"上海天山路古北路路口"},{"poiid":"B2094757D06FA5FC4099","title":"威尔士健身会所(古北店)","lon":"121.4005","lat":"31.20825","category":"221","category_name":"健身中心","address":"长宁区古北路555弄虹桥华庭内(近仙霞路)"},{"poiid":"B2094757D06AA4F94798","title":"茅台路","lon":"121.40033273","lat":"31.209175173","category":"500","category_name":"未知分类","address":"上海茅台路"},{"poiid":"B2094655D26DAAF5409A","title":"一刻","lon":"121.400508054","lat":"31.211418793","category":"95","category_name":"日本料理","address":"长宁区古北路437号(近天山路)"},{"poiid":"B2094757D46EABF84598","title":"润湘之 茅台路店","lon":"121.39799","lat":"31.21024","category":"77","category_name":"湖南菜","address":"长宁区茅台路298号(近古北路)"},{"poiid":"B2094757D169A6FA499B","title":"兰桂坊","lon":"121.399307586","lat":"31.2107320497","category":"500","category_name":"未知分类","address":"田林兰桂坊位于徐汇区上海徐汇桂林路625弄"},{"poiid":"B2094757D069A3FD4499","title":"阿玛尼(古北路店)","lon":"121.39928","lat":"31.209963","category":"141","category_name":"服装鞋帽皮具店","address":"上海古北路茅台路路口"},{"poiid":"B2094655D36CA6FC469B","title":"古北路","lon":"121.40063","lat":"31.21179","category":"38","category_name":"公交车站","address":""},{"poiid":"B2094757D16BAAFD499E","title":"避風塘 天山店","lon":"121.397744386","lat":"31.2121923783","category":"500","category_name":"未知分类","address":"上海天山百盛"},{"poiid":"B2094757D06AA3FD479A","title":"古北状元楼","lon":"121.40054","lat":"31.20953","category":"75","category_name":"浙江菜","address":"长宁区古北路460号(近茅台路)"},{"poiid":"B2094757D56CA0F8459C","title":"肯德基 天山店 KFC","lon":"121.39874096383","lat":"31.212445747659","category":"68","category_name":"快餐厅","address":"长宁区天山路672号(近古北路)"},{"poiid":"B2094757D06BA5FE489C","title":"太郎","lon":"121.40053","lat":"31.20999","category":"95","category_name":"日本料理","address":"长宁区古北路443号(近天山路)"},{"poiid":"B2094757D16EA6FC429C","title":"玉华饮食店","lon":"121.39777","lat":"31.20932","category":"68","category_name":"快餐厅","address":"长宁区茅台路321号(近芙蓉江路)"},{"poiid":"B2094757DB6CA4F8409C","title":"芋贵人","lon":"121.3983777488685","lat":"31.21107835085998","category":"247","category_name":"餐饮美食","address":"鸿鑫时尚广场"},{"poiid":"B2094757D168A7F9409B","title":"新澳港式茶餐厅(茅台路)","lon":"121.396030586","lat":"31.2099660347","category":"72","category_name":"广东菜","address":"长宁区茅台路374号(近芙蓉江路口)"},{"poiid":"B2094752DB6EA2FE499E","title":"娄山关路地铁站","lon":"121.398634","lat":"31.209622","category":"36","category_name":"地铁站","address":"上海市 上海市长宁区"},{"poiid":"B2094654D56BA7F94093","title":"佰威商务中心","lon":"121.40039","lat":"31.20943","category":"46","category_name":"楼宇","address":"闸北区江场西路38号(近共和新路)"},{"poiid":"B2094757D468A1FF409D","title":"重庆鸡公煲 茅台路店","lon":"121.392395","lat":"31.210073","category":"71","category_name":"四川菜","address":"长宁区茅台路(近古北路)"},{"poiid":"B2094750D16BABFB4692","title":"锦江之星上海茅台路店","lon":"121.398391093725","lat":"31.2097189057574","category":"216","category_name":"经济型连锁酒店","address":"长宁区茅台路281号(近古北路)"},{"poiid":"B2094753D36FA4FB409F","title":"丸龟制面","lon":"121.398011","lat":"31.209377","category":"247","category_name":"餐饮美食","address":"上海市 天山路900号汇金百货B1"},{"poiid":"B2094757D16CA0F8469C","title":"林吾","lon":"121.400606054","lat":"31.208939793","category":"95","category_name":"日本料理","address":"长宁区古北路555号A2创意555内(远藤国际广场)"},{"poiid":"B2094654D56BA7F94198","title":"大金更小区","lon":"121.39851","lat":"31.209101","category":"47","category_name":"住宅区","address":"茅台路295弄1-20号"},{"poiid":"B2094757D66BA3F54393","title":"新招鲜本地鸡窝 茅台路店","lon":"121.400048","lat":"31.209683","category":"86","category_name":"火锅店","address":"长宁区茅台路203号"},{"poiid":"B2094757D064A3FA409A","title":"denny house丝袜奶茶(天山店)","lon":"121.40173","lat":"31.20988","category":"113","category_name":"冷饮店","address":"长宁区茅台路168号(近娄山关路)"},{"poiid":"B2094757D06AA6F9429F","title":"三人行骨头王","lon":"121.40122758","lat":"31.210455044","category":"247","category_name":"餐饮美食","address":"上海市长宁区天山路"},{"poiid":"B2094753D164A0F5499F","title":"70后饭吧","lon":"121.398514","lat":"31.210951","category":"247","category_name":"餐饮美食","address":"上海市 汇金B1楼"},{"poiid":"B2094654DB64A6FB499E","title":"佰威大酒店","lon":"121.40038","lat":"31.20959","category":"250","category_name":"公园户外","address":"长宁区古北路456号(近茅台路)"},{"poiid":"B2094751D269A5FE439A","title":"神G妙蒜(茅台路店)","lon":"121.39774775128171","lat":"31.209703245151875","category":"68","category_name":"快餐厅","address":"长宁区茅台路277号"},{"poiid":"B2094757D16FA4F84598","title":"安吉竹博园","lon":"121.39877401","lat":"31.209824432","category":"500","category_name":"未知分类","address":"湖州浙江，安吉"},{"poiid":"B2094757D469A6FC409D","title":"上海歌城自助餐","lon":"121.399434054","lat":"31.212011793","category":"268","category_name":"自助","address":"长宁区天山路762号泓鑫时尚广场6楼(近娄山关路)"},{"poiid":"B2094654DB6BA7FD4292","title":"良友(大金更小区东北)","lon":"121.39965","lat":"31.20998","category":"117","category_name":"便民商店/便利店","address":"茅台路242号"},{"poiid":"B2094655D264A2F8469B","title":"星期一便当 茅台路店","lon":"121.39641","lat":"31.20981","category":"68","category_name":"快餐厅","address":"长宁区茅台路356号(近古北路)"},{"poiid":"B2094655D36CA6FC459D","title":"古北路茅台路","lon":"121.40056","lat":"31.21073","category":"38","category_name":"公交车站","address":""},{"poiid":"B2094757D168A2FA4999","title":"川忆川菜","lon":"121.401104586","lat":"31.2115570658","category":"247","category_name":"餐饮美食","address":"上海天山路762号四楼"},{"poiid":"B2094757D568ABFE449B","title":"日式烧肉村正宗","lon":"121.40039","lat":"31.20959389","category":"269","category_name":"烧烤","address":"长宁区古北路456号佰威大酒店1楼(近茅台路)"},{"poiid":"B2094757D16EA1FC409E","title":"855芙蓉江路天山路","lon":"121.397981","lat":"31.209906","category":"500","category_name":"未知分类","address":"上海芙蓉江路茅台路"},{"poiid":"B2094654D56BA7FA4099","title":"好德便利No.038","lon":"121.39988","lat":"31.20999","category":"117","category_name":"便民商店/便利店","address":"茅台路232"},{"poiid":"B2094655D26FA6FD499B","title":"上海市长宁区天山新村第五小学","lon":"121.39732","lat":"31.2096","category":"56","category_name":"小学","address":"长宁区天山五村170号"},{"poiid":"B2094654D56BA7F9489B","title":"大三小区","lon":"121.39786","lat":"31.210772","category":"47","category_name":"住宅区","address":"茅台路300弄1-10号"},{"poiid":"B2094654D56BA7F9469C","title":"全家(茅台路)","lon":"121.39705","lat":"31.20994","category":"117","category_name":"便民商店/便利店","address":"茅台路340"},{"poiid":"B2094655D26CAAFD429C","title":"克莉丝汀 茅台路店","lon":"121.401077054","lat":"31.209889793","category":"112","category_name":"糕饼店","address":"茅台路358号近古北路"},{"poiid":"B2094654DB6BA7FD449A","title":"可颂坊 古北店 Croissants de France","lon":"121.400118054","lat":"31.211351793","category":"112","category_name":"糕饼店","address":"长宁区古北路380号(近天山路)"},{"poiid":"B2094753DB6FA6F8479E","title":"环贸iapm","lon":"121.400535","lat":"31.209426","category":"500","category_name":"未知分类","address":"上海市 上海淮海中路999号"},{"poiid":"B2094654D56BA7F54293","title":"可的(茅台路)","lon":"121.40009","lat":"31.21","category":"117","category_name":"便民商店/便利店","address":"茅台路224"},{"poiid":"B2094654D56BA7F94799","title":"阿海发型工作室","lon":"121.39742","lat":"31.20995","category":"148","category_name":"美容美发店","address":""},{"poiid":"B209475CD16CA6FA429C","title":"老盛昌苏州汤包馆 茅台路店","lon":"121.3997","lat":"31.21088","category":"68","category_name":"快餐厅","address":"茅台路290号(近古北路)"},{"poiid":"B2094757D06FA3FB499C","title":"虹桥迎宾馆","lon":"121.401","lat":"31.2082","category":"213","category_name":"五星级宾馆","address":"长宁区虹桥路1591号虹桥迎宾馆内(近水城南路)"},{"poiid":"B2094654D56BA7F8449B","title":"上海对外贸易学院(古北校区)","lon":"121.39914","lat":"31.20727","category":"52","category_name":"高等院校","address":"长宁区古北路620号(近仙霞路)"},{"poiid":"B2094757D069A6F8469B","title":"韩林炭烤(天山百盛店)","lon":"121.401095186","lat":"31.2100527364","category":"96","category_name":"韩国料理","address":"长宁区天山路789号百盛5楼(近娄山关路)"},{"poiid":"B2094757D06FA2F54799","title":"老盛昌苏州汤包馆(古北路店)","lon":"121.400782","lat":"31.21043","category":"68","category_name":"快餐厅","address":"长宁区古北路445号(近茅台路)"},{"poiid":"B2094757D16AA4F9449C","title":"天山路古北路路口","lon":"121.39944838","lat":"31.21230328","category":"500","category_name":"未知分类","address":"上海天山路古北路路口"},{"poiid":"B2094757D06FA5FC4099","title":"威尔士健身会所(古北店)","lon":"121.4005","lat":"31.20825","category":"221","category_name":"健身中心","address":"长宁区古北路555弄虹桥华庭内(近仙霞路)"},{"poiid":"B2094757D06AA4F94798","title":"茅台路","lon":"121.40033273","lat":"31.209175173","category":"500","category_name":"未知分类","address":"上海茅台路"},{"poiid":"B2094655D26DAAF5409A","title":"一刻","lon":"121.400508054","lat":"31.211418793","category":"95","category_name":"日本料理","address":"长宁区古北路437号(近天山路)"},{"poiid":"B2094757D46EABF84598","title":"润湘之 茅台路店","lon":"121.39799","lat":"31.21024","category":"77","category_name":"湖南菜","address":"长宁区茅台路298号(近古北路)"},{"poiid":"B2094757D169A6FA499B","title":"兰桂坊","lon":"121.399307586","lat":"31.2107320497","category":"500","category_name":"未知分类","address":"田林兰桂坊位于徐汇区上海徐汇桂林路625弄"},{"poiid":"B2094757D069A3FD4499","title":"阿玛尼(古北路店)","lon":"121.39928","lat":"31.209963","category":"141","category_name":"服装鞋帽皮具店","address":"上海古北路茅台路路口"},{"poiid":"B2094655D36CA6FC469B","title":"古北路","lon":"121.40063","lat":"31.21179","category":"38","category_name":"公交车站","address":""},{"poiid":"B2094757D16BAAFD499E","title":"避風塘 天山店","lon":"121.397744386","lat":"31.2121923783","category":"500","category_name":"未知分类","address":"上海天山百盛"},{"poiid":"B2094757D06AA3FD479A","title":"古北状元楼","lon":"121.40054","lat":"31.20953","category":"75","category_name":"浙江菜","address":"长宁区古北路460号(近茅台路)"},{"poiid":"B2094757D56CA0F8459C","title":"肯德基 天山店 KFC","lon":"121.39874096383","lat":"31.212445747659","category":"68","category_name":"快餐厅","address":"长宁区天山路672号(近古北路)"},{"poiid":"B2094757D06BA5FE489C","title":"太郎","lon":"121.40053","lat":"31.20999","category":"95","category_name":"日本料理","address":"长宁区古北路443号(近天山路)"},{"poiid":"B2094757D16EA6FC429C","title":"玉华饮食店","lon":"121.39777","lat":"31.20932","category":"68","category_name":"快餐厅","address":"长宁区茅台路321号(近芙蓉江路)"},{"poiid":"B2094757DB6CA4F8409C","title":"芋贵人","lon":"121.3983777488685","lat":"31.21107835085998","category":"247","category_name":"餐饮美食","address":"鸿鑫时尚广场"},{"poiid":"B2094757D168A7F9409B","title":"新澳港式茶餐厅(茅台路)","lon":"121.396030586","lat":"31.2099660347","category":"72","category_name":"广东菜","address":"长宁区茅台路374号(近芙蓉江路口)"},{"poiid":"B2094752DB6EA2FE499E","title":"娄山关路地铁站","lon":"121.398634","lat":"31.209622","category":"36","category_name":"地铁站","address":"上海市 上海市长宁区"},{"poiid":"B2094654D56BA7F94093","title":"佰威商务中心","lon":"121.40039","lat":"31.20943","category":"46","category_name":"楼宇","address":"闸北区江场西路38号(近共和新路)"},{"poiid":"B2094757D468A1FF409D","title":"重庆鸡公煲 茅台路店","lon":"121.392395","lat":"31.210073","category":"71","category_name":"四川菜","address":"长宁区茅台路(近古北路)"},{"poiid":"B2094750D16BABFB4692","title":"锦江之星上海茅台路店","lon":"121.398391093725","lat":"31.2097189057574","category":"216","category_name":"经济型连锁酒店","address":"长宁区茅台路281号(近古北路)"},{"poiid":"B2094753D36FA4FB409F","title":"丸龟制面","lon":"121.398011","lat":"31.209377","category":"247","category_name":"餐饮美食","address":"上海市 天山路900号汇金百货B1"},{"poiid":"B2094757D16CA0F8469C","title":"林吾","lon":"121.400606054","lat":"31.208939793","category":"95","category_name":"日本料理","address":"长宁区古北路555号A2创意555内(远藤国际广场)"},{"poiid":"B2094654D56BA7F94198","title":"大金更小区","lon":"121.39851","lat":"31.209101","category":"47","category_name":"住宅区","address":"茅台路295弄1-20号"},{"poiid":"B2094757D66BA3F54393","title":"新招鲜本地鸡窝 茅台路店","lon":"121.400048","lat":"31.209683","category":"86","category_name":"火锅店","address":"长宁区茅台路203号"},{"poiid":"B2094757D064A3FA409A","title":"denny house丝袜奶茶(天山店)","lon":"121.40173","lat":"31.20988","category":"113","category_name":"冷饮店","address":"长宁区茅台路168号(近娄山关路)"},{"poiid":"B2094757D06AA6F9429F","title":"三人行骨头王","lon":"121.40122758","lat":"31.210455044","category":"247","category_name":"餐饮美食","address":"上海市长宁区天山路"},{"poiid":"B2094753D164A0F5499F","title":"70后饭吧","lon":"121.398514","lat":"31.210951","category":"247","category_name":"餐饮美食","address":"上海市 汇金B1楼"},{"poiid":"B2094654DB64A6FB499E","title":"佰威大酒店","lon":"121.40038","lat":"31.20959","category":"250","category_name":"公园户外","address":"长宁区古北路456号(近茅台路)"},{"poiid":"B2094751D269A5FE439A","title":"神G妙蒜(茅台路店)","lon":"121.39774775128171","lat":"31.209703245151875","category":"68","category_name":"快餐厅","address":"长宁区茅台路277号"},{"poiid":"B2094757D16FA4F84598","title":"安吉竹博园","lon":"121.39877401","lat":"31.209824432","category":"500","category_name":"未知分类","address":"湖州浙江，安吉"},{"poiid":"B2094757D469A6FC409D","title":"上海歌城自助餐","lon":"121.399434054","lat":"31.212011793","category":"268","category_name":"自助","address":"长宁区天山路762号泓鑫时尚广场6楼(近娄山关路)"},{"poiid":"B2094654DB6BA7FD4292","title":"良友(大金更小区东北)","lon":"121.39965","lat":"31.20998","category":"117","category_name":"便民商店/便利店","address":"茅台路242号"},{"poiid":"B2094655D264A2F8469B","title":"星期一便当 茅台路店","lon":"121.39641","lat":"31.20981","category":"68","category_name":"快餐厅","address":"长宁区茅台路356号(近古北路)"},{"poiid":"B2094655D36CA6FC459D","title":"古北路茅台路","lon":"121.40056","lat":"31.21073","category":"38","category_name":"公交车站","address":""},{"poiid":"B2094757D168A2FA4999","title":"川忆川菜","lon":"121.401104586","lat":"31.2115570658","category":"247","category_name":"餐饮美食","address":"上海天山路762号四楼"},{"poiid":"B2094757D568ABFE449B","title":"日式烧肉村正宗","lon":"121.40039","lat":"31.20959389","category":"269","category_name":"烧烤","address":"长宁区古北路456号佰威大酒店1楼(近茅台路)"},{"poiid":"B2094757D16EA1FC409E","title":"855芙蓉江路天山路","lon":"121.397981","lat":"31.209906","category":"500","category_name":"未知分类","address":"上海芙蓉江路茅台路"},{"poiid":"B2094654D56BA7FA4099","title":"好德便利No.038","lon":"121.39988","lat":"31.20999","category":"117","category_name":"便民商店/便利店","address":"茅台路232"},{"poiid":"B2094655D26FA6FD499B","title":"上海市长宁区天山新村第五小学","lon":"121.39732","lat":"31.2096","category":"56","category_name":"小学","address":"长宁区天山五村170号"},{"poiid":"B2094654D56BA7F9489B","title":"大三小区","lon":"121.39786","lat":"31.210772","category":"47","category_name":"住宅区","address":"茅台路300弄1-10号"},{"poiid":"B2094654D56BA7F9469C","title":"全家(茅台路)","lon":"121.39705","lat":"31.20994","category":"117","category_name":"便民商店/便利店","address":"茅台路340"},{"poiid":"B2094655D26CAAFD429C","title":"克莉丝汀 茅台路店","lon":"121.401077054","lat":"31.209889793","category":"112","category_name":"糕饼店","address":"茅台路358号近古北路"},{"poiid":"B2094654DB6BA7FD449A","title":"可颂坊 古北店 Croissants de France","lon":"121.400118054","lat":"31.211351793","category":"112","category_name":"糕饼店","address":"长宁区古北路380号(近天山路)"},{"poiid":"B2094753DB6FA6F8479E","title":"环贸iapm","lon":"121.400535","lat":"31.209426","category":"500","category_name":"未知分类","address":"上海市 上海淮海中路999号"},{"poiid":"B2094654D56BA7F54293","title":"可的(茅台路)","lon":"121.40009","lat":"31.21","category":"117","category_name":"便民商店/便利店","address":"茅台路224"},{"poiid":"B2094654D56BA7F94799","title":"阿海发型工作室","lon":"121.39742","lat":"31.20995","category":"148","category_name":"美容美发店","address":""},{"poiid":"B209475CD16CA6FA429C","title":"老盛昌苏州汤包馆 茅台路店","lon":"121.3997","lat":"31.21088","category":"68","category_name":"快餐厅","address":"茅台路290号(近古北路)"},{"poiid":"B2094757D06FA3FB499C","title":"虹桥迎宾馆","lon":"121.401","lat":"31.2082","category":"213","category_name":"五星级宾馆","address":"长宁区虹桥路1591号虹桥迎宾馆内(近水城南路)"},{"poiid":"B2094654D56BA7F8449B","title":"上海对外贸易学院(古北校区)","lon":"121.39914","lat":"31.20727","category":"52","category_name":"高等院校","address":"长宁区古北路620号(近仙霞路)"},{"poiid":"B2094757D069A6F8469B","title":"韩林炭烤(天山百盛店)","lon":"121.401095186","lat":"31.2100527364","category":"96","category_name":"韩国料理","address":"长宁区天山路789号百盛5楼(近娄山关路)"},{"poiid":"B2094757D06FA2F54799","title":"老盛昌苏州汤包馆(古北路店)","lon":"121.400782","lat":"31.21043","category":"68","category_name":"快餐厅","address":"长宁区古北路445号(近茅台路)"},{"poiid":"B2094757D16AA4F9449C","title":"天山路古北路路口","lon":"121.39944838","lat":"31.21230328","category":"500","category_name":"未知分类","address":"上海天山路古北路路口"},{"poiid":"B2094757D06FA5FC4099","title":"威尔士健身会所(古北店)","lon":"121.4005","lat":"31.20825","category":"221","category_name":"健身中心","address":"长宁区古北路555弄虹桥华庭内(近仙霞路)"},{"poiid":"B2094757D06AA4F94798","title":"茅台路","lon":"121.40033273","lat":"31.209175173","category":"500","category_name":"未知分类","address":"上海茅台路"},{"poiid":"B2094655D26DAAF5409A","title":"一刻","lon":"121.400508054","lat":"31.211418793","category":"95","category_name":"日本料理","address":"长宁区古北路437号(近天山路)"},{"poiid":"B2094757D46EABF84598","title":"润湘之 茅台路店","lon":"121.39799","lat":"31.21024","category":"77","category_name":"湖南菜","address":"长宁区茅台路298号(近古北路)"},{"poiid":"B2094757D169A6FA499B","title":"兰桂坊","lon":"121.399307586","lat":"31.2107320497","category":"500","category_name":"未知分类","address":"田林兰桂坊位于徐汇区上海徐汇桂林路625弄"},{"poiid":"B2094757D069A3FD4499","title":"阿玛尼(古北路店)","lon":"121.39928","lat":"31.209963","category":"141","category_name":"服装鞋帽皮具店","address":"上海古北路茅台路路口"},{"poiid":"B2094655D36CA6FC469B","title":"古北路","lon":"121.40063","lat":"31.21179","category":"38","category_name":"公交车站","address":""},{"poiid":"B2094757D16BAAFD499E","title":"避風塘 天山店","lon":"121.397744386","lat":"31.2121923783","category":"500","category_name":"未知分类","address":"上海天山百盛"},{"poiid":"B2094757D06AA3FD479A","title":"古北状元楼","lon":"121.40054","lat":"31.20953","category":"75","category_name":"浙江菜","address":"长宁区古北路460号(近茅台路)"},{"poiid":"B2094757D56CA0F8459C","title":"肯德基 天山店 KFC","lon":"121.39874096383","lat":"31.212445747659","category":"68","category_name":"快餐厅","address":"长宁区天山路672号(近古北路)"},{"poiid":"B2094757D06BA5FE489C","title":"太郎","lon":"121.40053","lat":"31.20999","category":"95","category_name":"日本料理","address":"长宁区古北路443号(近天山路)"},{"poiid":"B2094757D16EA6FC429C","title":"玉华饮食店","lon":"121.39777","lat":"31.20932","category":"68","category_name":"快餐厅","address":"长宁区茅台路321号(近芙蓉江路)"},{"poiid":"B2094757DB6CA4F8409C","title":"芋贵人","lon":"121.3983777488685","lat":"31.21107835085998","category":"247","category_name":"餐饮美食","address":"鸿鑫时尚广场"},{"poiid":"B2094757D168A7F9409B","title":"新澳港式茶餐厅(茅台路)","lon":"121.396030586","lat":"31.2099660347","category":"72","category_name":"广东菜","address":"长宁区茅台路374号(近芙蓉江路口)"},{"poiid":"B2094752DB6EA2FE499E","title":"娄山关路地铁站","lon":"121.398634","lat":"31.209622","category":"36","category_name":"地铁站","address":"上海市 上海市长宁区"},{"poiid":"B2094654D56BA7F94093","title":"佰威商务中心","lon":"121.40039","lat":"31.20943","category":"46","category_name":"楼宇","address":"闸北区江场西路38号(近共和新路)"},{"poiid":"B2094757D468A1FF409D","title":"重庆鸡公煲 茅台路店","lon":"121.392395","lat":"31.210073","category":"71","category_name":"四川菜","address":"长宁区茅台路(近古北路)"},{"poiid":"B2094750D16BABFB4692","title":"锦江之星上海茅台路店","lon":"121.398391093725","lat":"31.2097189057574","category":"216","category_name":"经济型连锁酒店","address":"长宁区茅台路281号(近古北路)"},{"poiid":"B2094753D36FA4FB409F","title":"丸龟制面","lon":"121.398011","lat":"31.209377","category":"247","category_name":"餐饮美食","address":"上海市 天山路900号汇金百货B1"},{"poiid":"B2094757D16CA0F8469C","title":"林吾","lon":"121.400606054","lat":"31.208939793","category":"95","category_name":"日本料理","address":"长宁区古北路555号A2创意555内(远藤国际广场)"},{"poiid":"B2094654D56BA7F94198","title":"大金更小区","lon":"121.39851","lat":"31.209101","category":"47","category_name":"住宅区","address":"茅台路295弄1-20号"},{"poiid":"B2094757D66BA3F54393","title":"新招鲜本地鸡窝 茅台路店","lon":"121.400048","lat":"31.209683","category":"86","category_name":"火锅店","address":"长宁区茅台路203号"},{"poiid":"B2094757D064A3FA409A","title":"denny house丝袜奶茶(天山店)","lon":"121.40173","lat":"31.20988","category":"113","category_name":"冷饮店","address":"长宁区茅台路168号(近娄山关路)"},{"poiid":"B2094757D06AA6F9429F","title":"三人行骨头王","lon":"121.40122758","lat":"31.210455044","category":"247","category_name":"餐饮美食","address":"上海市长宁区天山路"},{"poiid":"B2094753D164A0F5499F","title":"70后饭吧","lon":"121.398514","lat":"31.210951","category":"247","category_name":"餐饮美食","address":"上海市 汇金B1楼"},{"poiid":"B2094654DB64A6FB499E","title":"佰威大酒店","lon":"121.40038","lat":"31.20959","category":"250","category_name":"公园户外","address":"长宁区古北路456号(近茅台路)"},{"poiid":"B2094751D269A5FE439A","title":"神G妙蒜(茅台路店)","lon":"121.39774775128171","lat":"31.209703245151875","category":"68","category_name":"快餐厅","address":"长宁区茅台路277号"},{"poiid":"B2094757D16FA4F84598","title":"安吉竹博园","lon":"121.39877401","lat":"31.209824432","category":"500","category_name":"未知分类","address":"湖州浙江，安吉"},{"poiid":"B2094757D469A6FC409D","title":"上海歌城自助餐","lon":"121.399434054","lat":"31.212011793","category":"268","category_name":"自助","address":"长宁区天山路762号泓鑫时尚广场6楼(近娄山关路)"},{"poiid":"B2094654DB6BA7FD4292","title":"良友(大金更小区东北)","lon":"121.39965","lat":"31.20998","category":"117","category_name":"便民商店/便利店","address":"茅台路242号"},{"poiid":"B2094655D264A2F8469B","title":"星期一便当 茅台路店","lon":"121.39641","lat":"31.20981","category":"68","category_name":"快餐厅","address":"长宁区茅台路356号(近古北路)"},{"poiid":"B2094655D36CA6FC459D","title":"古北路茅台路","lon":"121.40056","lat":"31.21073","category":"38","category_name":"公交车站","address":""},{"poiid":"B2094757D168A2FA4999","title":"川忆川菜","lon":"121.401104586","lat":"31.2115570658","category":"247","category_name":"餐饮美食","address":"上海天山路762号四楼"},{"poiid":"B2094757D568ABFE449B","title":"日式烧肉村正宗","lon":"121.40039","lat":"31.20959389","category":"269","category_name":"烧烤","address":"长宁区古北路456号佰威大酒店1楼(近茅台路)"},{"poiid":"B2094757D16EA1FC409E","title":"855芙蓉江路天山路","lon":"121.397981","lat":"31.209906","category":"500","category_name":"未知分类","address":"上海芙蓉江路茅台路"},{"poiid":"B2094654D56BA7FA4099","title":"好德便利No.038","lon":"121.39988","lat":"31.20999","category":"117","category_name":"便民商店/便利店","address":"茅台路232"},{"poiid":"B2094655D26FA6FD499B","title":"上海市长宁区天山新村第五小学","lon":"121.39732","lat":"31.2096","category":"56","category_name":"小学","address":"长宁区天山五村170号"},{"poiid":"B2094654D56BA7F9489B","title":"大三小区","lon":"121.39786","lat":"31.210772","category":"47","category_name":"住宅区","address":"茅台路300弄1-10号"},{"poiid":"B2094654D56BA7F9469C","title":"全家(茅台路)","lon":"121.39705","lat":"31.20994","category":"117","category_name":"便民商店/便利店","address":"茅台路340"},{"poiid":"B2094655D26CAAFD429C","title":"克莉丝汀 茅台路店","lon":"121.401077054","lat":"31.209889793","category":"112","category_name":"糕饼店","address":"茅台路358号近古北路"},{"poiid":"B2094654DB6BA7FD449A","title":"可颂坊 古北店 Croissants de France","lon":"121.400118054","lat":"31.211351793","category":"112","category_name":"糕饼店","address":"长宁区古北路380号(近天山路)"},{"poiid":"B2094753DB6FA6F8479E","title":"环贸iapm","lon":"121.400535","lat":"31.209426","category":"500","category_name":"未知分类","address":"上海市 上海淮海中路999号"},{"poiid":"B2094654D56BA7F54293","title":"可的(茅台路)","lon":"121.40009","lat":"31.21","category":"117","category_name":"便民商店/便利店","address":"茅台路224"},{"poiid":"B2094654D56BA7F94799","title":"阿海发型工作室","lon":"121.39742","lat":"31.20995","category":"148","category_name":"美容美发店","address":""},{"poiid":"B209475CD16CA6FA429C","title":"老盛昌苏州汤包馆 茅台路店","lon":"121.3997","lat":"31.21088","category":"68","category_name":"快餐厅","address":"茅台路290号(近古北路)"}]