[{"poiid":"B2094757D06EAAFF429E","title":"肯德基 KFC (甘泉店)","lon":"121.43123626","lat":"31.259388373","category":"68","category_name":"快餐厅","address":"普陀区志丹路135号(甘泉路志丹路)"},{"poiid":"B2094757D168A7F8409D","title":"浦东机场T2航站楼北步行道","lon":"121.43789915","lat":"31.257590923","category":"21","category_name":"飞机场","address":"上海浦东机场2号航站楼"},{"poiid":"B2094757D06AA6FD4092","title":"交通路 上海商学院分部","lon":"121.43848419","lat":"31.256755828","category":"500","category_name":"未知分类","address":"上海交通路1933号"},{"poiid":"B2094654DB6AABFA4592","title":"秋月枫舍","lon":"121.43522790295","lat":"31.254804192598","category":"47","category_name":"住宅区","address":"镇坪路176弄3-34号"},{"poiid":"B2094757D069A2F4439A","title":"依云浴场","lon":"121.43332","lat":"31.25968","category":"149","category_name":"洗浴推拿场所","address":"上海普陀区延长西路543号(近子长路)"},{"poiid":"B2094654D464ABF94493","title":"汪家井","lon":"121.43488","lat":"31.258587","category":"47","category_name":"住宅区","address":"交通路2285弄"},{"poiid":"B2094757D06AA0FF459B","title":"美格菲香溢花城会所","lon":"121.433577153","lat":"31.2569792199","category":"500","category_name":"未知分类","address":"普陀区石泉东路228号(近光新路)"},{"poiid":"B2094757D16BAAFF449B","title":"地铁7号线","lon":"121.43630155","lat":"31.25586419","category":"36","category_name":"地铁站","address":"上海7号线 花木路—美兰湖"},{"poiid":"B2094654D464ABFC4892","title":"章家巷","lon":"121.43398","lat":"31.260544","category":"47","category_name":"住宅区","address":"延长西路526弄"},{"poiid":"B2094757D068A4F44099","title":"中期大厦","lon":"121.438","lat":"31.2552","category":"46","category_name":"楼宇","address":"中山北路2000号"},{"poiid":"B2094654D464ABF84993","title":"工汇花苑","lon":"121.4356","lat":"31.257875","category":"47","category_name":"住宅区","address":"交通路2107弄"},{"poiid":"B2094757D069A1FF479E","title":"宜川二村","lon":"121.437716","lat":"31.260315","category":"252","category_name":"楼宇机构","address":"上海延长西路泾惠路"},{"poiid":"B2094757D16DABFD4798","title":"家里蹲","lon":"121.43771895","lat":"31.258147833","category":"500","category_name":"未知分类","address":null},{"poiid":"B2094654D464ABFC4899","title":"聚兴园酒店","lon":"121.43470143023","lat":"31.259954081076","category":"257","category_name":"中餐厅","address":"普陀区延长西路502号(近子长路)"},{"poiid":"B2094654DB6AABFF409C","title":"上海商业会计学校(交通路)","lon":"121.43847","lat":"31.25675","category":"54","category_name":"职业技术学校","address":"交通路1933"},{"poiid":"B2094654D464ABF9439C","title":"嘉怡苑","lon":"121.43361","lat":"31.25823","category":"47","category_name":"住宅区","address":"嘉怡苑位于普陀交通路2245弄"},{"poiid":"B2094654D464ABF8499B","title":"上海市洛川学校","lon":"121.43598","lat":"31.25937","category":"55","category_name":"中学","address":"普陀区泾惠路123号(泾惠路子长路)"},{"poiid":"B2094757D069A5F9429B","title":"子长小区","lon":"121.43523","lat":"31.262568","category":"47","category_name":"住宅区","address":"子长路77弄1-61号(单)"},{"poiid":"B2094655D26FA1FB459E","title":"汪家井(东门)","lon":"121.43539","lat":"31.25876","category":"47","category_name":"住宅区","address":"泾惠路24弄"},{"poiid":"B2094654D464ABF84893","title":"洛川公寓","lon":"121.43629","lat":"31.258636","category":"47","category_name":"住宅区","address":"洛川公寓位于普陀上海普陀泾惠路91弄"},{"poiid":"B2094757D06FA4FD4592","title":"上海市药剂学校","lon":"121.431654","lat":"31.259446","category":"500","category_name":"未知分类","address":"普陀区延长西路583号(近志丹路)"},{"poiid":"B2094655D264ABFC4692","title":"泾惠路20弄","lon":"121.43554","lat":"31.25812","category":"47","category_name":"住宅区","address":"泾惠路20弄1-2号"},{"poiid":"B2094757D16DA6F8449B","title":"普陀区人力资源与社会保障局","lon":"121.43230595","lat":"31.2578188273","category":"500","category_name":"未知分类","address":"上海志丹路8号"},{"poiid":"B2094655D265A0FA419A","title":"泾惠路20弄(东门)","lon":"121.43582","lat":"31.2583","category":"47","category_name":"住宅区","address":"泾惠路20弄1-2号"},{"poiid":"B2094757D66DABFE479B","title":"大华好乐迪","lon":"121.43465595","lat":"31.258257835","category":"248","category_name":"生活娱乐","address":"上海市大华二路真华路"},{"poiid":"B2094752D168A2FD459A","title":"上海火车站","lon":"121.434066","lat":"31.260114","category":"251","category_name":"出行住宿","address":null},{"poiid":"B2094757D169A3F84692","title":"上海第二工业大学东一食堂","lon":"121.43498375","lat":"31.25852084","category":"500","category_name":"未知分类","address":"上海金海路2360号"},{"poiid":"B2094751DA69AAFC419C","title":"银乐迪（品尊国际店）","lon":"121.432993","lat":"31.259584","category":"248","category_name":"生活娱乐","address":"岚皋路铜川路"},{"poiid":"B2094757D16AABFB439E","title":"lulubear's home","lon":"121.43452145","lat":"31.258452372","category":"500","category_name":"未知分类","address":null},{"poiid":"B2094655D26CA0FB4592","title":"泾惠路40弄小区","lon":"121.43462","lat":"31.25946","category":"47","category_name":"住宅区","address":"泾惠路40弄"},{"poiid":"B2094757D16DABFD449A","title":"石泉路97弄","lon":"121.434713","lat":"31.257715","category":"500","category_name":"未知分类","address":"上海市普陀区石泉路97弄"},{"poiid":"B2094757D16AA0F84992","title":"普陀区外来人员就业管理中心","lon":"121.43359095","lat":"31.2581288333","category":"500","category_name":"未知分类","address":"上海市普陀区志丹路8号"},{"poiid":"B2094655D26CA0FA499F","title":"石泉六村","lon":"121.433","lat":"31.2618","category":"47","category_name":"住宅区","address":"上海普陀区华池路(近汉阴路)"},{"poiid":"B2094655D26CA1F4489D","title":"泾惠路40弄小区(东门)","lon":"121.43489","lat":"31.25967","category":"47","category_name":"住宅区","address":"泾惠路40弄"},{"poiid":"B2094655D265A3F44598","title":"香溢花城二期","lon":"121.43495","lat":"31.2559","category":"47","category_name":"住宅区","address":"石泉东路240号"},{"poiid":"B2094654D464ABF9419B","title":"一晟之旅宾馆","lon":"121.43601","lat":"31.25731","category":"250","category_name":"公园户外","address":"交通路1979"},{"poiid":"B2094757D16CA6FA449A","title":"複旦大學邯鄲路本部","lon":"121.43552418","lat":"31.260495285","category":"500","category_name":"未知分类","address":"上海市楊浦區邯鄲路220號"},{"poiid":"B2094655D26CA1F44892","title":"中国电信上海北区电信局","lon":"121.43292","lat":"31.25894","category":"151","category_name":"电讯营业厅","address":"延长西路529弄50"},{"poiid":"B2094757D06AA2FA499D","title":"埃及开罗","lon":"121.43363654","lat":"31.258283895","category":"500","category_name":"未知分类","address":"尼罗河"},{"poiid":"B2094655D36DA7FB439B","title":"子长路甘泉路","lon":"121.43452","lat":"31.2611","category":"38","category_name":"公交车站","address":""},{"poiid":"B2094757D66FA6FC4193","title":"银都佳园","lon":"121.43214","lat":"31.259052","category":"47","category_name":"住宅区","address":"上海市普陀区延长西路555弄1-8号"},{"poiid":"B2094757D66EABFC469F","title":"优度美车","lon":"121.43376895","lat":"31.258473839","category":"163","category_name":"4S店","address":"上海交通路 2083号"},{"poiid":"B2094750D365A7FC4093","title":"美车地带","lon":"121.433639","lat":"31.257966","category":"249","category_name":"购物服务","address":"上海市普陀区交通路2261号"},{"poiid":"B2094757D66FA1FF4492","title":"洛川路路边摊","lon":"121.43633595","lat":"31.258473839","category":"500","category_name":"未知分类","address":"上海洛川路泾惠路"},{"poiid":"B2094757D065A6FE479F","title":"Joyice's Home","lon":"121.43368595","lat":"31.258271836","category":"500","category_name":"未知分类","address":null},{"poiid":"B2094757D16BA3F4469E","title":"Joyice home","lon":"121.43366995","lat":"31.258127833","category":"500","category_name":"未知分类","address":null},{"poiid":"B2094757D168A4FE459D","title":"宜川新村派出所","lon":"121.43685895","lat":"31.2592808553","category":"609","category_name":"警察局","address":"上海市普陀区宜川六村内"},{"poiid":"B2094757D065A5F84399","title":"佳吉快运","lon":"121.434276","lat":"31.257573","category":"263","category_name":"公司","address":"上海交通路2145号"},{"poiid":"B2094750D26DA3F44598","title":"上海市第六人民医院","lon":"121.433709","lat":"31.260354","category":"162","category_name":"医院","address":null},{"poiid":"B2094654D464ABFA469D","title":"宝钢公寓","lon":"121.43562","lat":"31.254045","category":"47","category_name":"住宅区","address":"上海普陀区中山北路1655弄29支弄14号"},{"poiid":"B2094757D06EAAFF429E","title":"肯德基 KFC (甘泉店)","lon":"121.43123626","lat":"31.259388373","category":"68","category_name":"快餐厅","address":"普陀区志丹路135号(甘泉路志丹路)"},{"poiid":"B2094757D168A7F8409D","title":"浦东机场T2航站楼北步行道","lon":"121.43789915","lat":"31.257590923","category":"21","category_name":"飞机场","address":"上海浦东机场2号航站楼"},{"poiid":"B2094757D06AA6FD4092","title":"交通路 上海商学院分部","lon":"121.43848419","lat":"31.256755828","category":"500","category_name":"未知分类","address":"上海交通路1933号"},{"poiid":"B2094654DB6AABFA4592","title":"秋月枫舍","lon":"121.43522790295","lat":"31.254804192598","category":"47","category_name":"住宅区","address":"镇坪路176弄3-34号"},{"poiid":"B2094757D069A2F4439A","title":"依云浴场","lon":"121.43332","lat":"31.25968","category":"149","category_name":"洗浴推拿场所","address":"上海普陀区延长西路543号(近子长路)"},{"poiid":"B2094654D464ABF94493","title":"汪家井","lon":"121.43488","lat":"31.258587","category":"47","category_name":"住宅区","address":"交通路2285弄"},{"poiid":"B2094757D06AA0FF459B","title":"美格菲香溢花城会所","lon":"121.433577153","lat":"31.2569792199","category":"500","category_name":"未知分类","address":"普陀区石泉东路228号(近光新路)"},{"poiid":"B2094757D16BAAFF449B","title":"地铁7号线","lon":"121.43630155","lat":"31.25586419","category":"36","category_name":"地铁站","address":"上海7号线 花木路—美兰湖"},{"poiid":"B2094654D464ABFC4892","title":"章家巷","lon":"121.43398","lat":"31.260544","category":"47","category_name":"住宅区","address":"延长西路526弄"},{"poiid":"B2094757D068A4F44099","title":"中期大厦","lon":"121.438","lat":"31.2552","category":"46","category_name":"楼宇","address":"中山北路2000号"},{"poiid":"B2094654D464ABF84993","title":"工汇花苑","lon":"121.4356","lat":"31.257875","category":"47","category_name":"住宅区","address":"交通路2107弄"},{"poiid":"B2094757D069A1FF479E","title":"宜川二村","lon":"121.437716","lat":"31.260315","category":"252","category_name":"楼宇机构","address":"上海延长西路泾惠路"},{"poiid":"B2094757D16DABFD4798","title":"家里蹲","lon":"121.43771895","lat":"31.258147833","category":"500","category_name":"未知分类","address":null},{"poiid":"B2094654D464ABFC4899","title":"聚兴园酒店","lon":"121.43470143023","lat":"31.259954081076","category":"257","category_name":"中餐厅","address":"普陀区延长西路502号(近子长路)"},{"poiid":"B2094654DB6AABFF409C","title":"上海商业会计学校(交通路)","lon":"121.43847","lat":"31.25675","category":"54","category_name":"职业技术学校","address":"交通路1933"},{"poiid":"B2094654D464ABF9439C","title":"嘉怡苑","lon":"121.43361","lat":"31.25823","category":"47","category_name":"住宅区","address":"嘉怡苑位于普陀交通路2245弄"},{"poiid":"B2094654D464ABF8499B","title":"上海市洛川学校","lon":"121.43598","lat":"31.25937","category":"55","category_name":"中学","address":"普陀区泾惠路123号(泾惠路子长路)"},{"poiid":"B2094757D069A5F9429B","title":"子长小区","lon":"121.43523","lat":"31.262568","category":"47","category_name":"住宅区","address":"子长路77弄1-61号(单)"},{"poiid":"B2094655D26FA1FB459E","title":"汪家井(东门)","lon":"121.43539","lat":"31.25876","category":"47","category_name":"住宅区","address":"泾惠路24弄"},{"poiid":"B2094654D464ABF84893","title":"洛川公寓","lon":"121.43629","lat":"31.258636","category":"47","category_name":"住宅区","address":"洛川公寓位于普陀上海普陀泾惠路91弄"},{"poiid":"B2094757D06FA4FD4592","title":"上海市药剂学校","lon":"121.431654","lat":"31.259446","category":"500","category_name":"未知分类","address":"普陀区延长西路583号(近志丹路)"},{"poiid":"B2094655D264ABFC4692","title":"泾惠路20弄","lon":"121.43554","lat":"31.25812","category":"47","category_name":"住宅区","address":"泾惠路20弄1-2号"},{"poiid":"B2094757D16DA6F8449B","title":"普陀区人力资源与社会保障局","lon":"121.43230595","lat":"31.2578188273","category":"500","category_name":"未知分类","address":"上海志丹路8号"},{"poiid":"B2094655D265A0FA419A","title":"泾惠路20弄(东门)","lon":"121.43582","lat":"31.2583","category":"47","category_name":"住宅区","address":"泾惠路20弄1-2号"},{"poiid":"B2094757D66DABFE479B","title":"大华好乐迪","lon":"121.43465595","lat":"31.258257835","category":"248","category_name":"生活娱乐","address":"上海市大华二路真华路"},{"poiid":"B2094752D168A2FD459A","title":"上海火车站","lon":"121.434066","lat":"31.260114","category":"251","category_name":"出行住宿","address":null},{"poiid":"B2094757D169A3F84692","title":"上海第二工业大学东一食堂","lon":"121.43498375","lat":"31.25852084","category":"500","category_name":"未知分类","address":"上海金海路2360号"},{"poiid":"B2094751DA69AAFC419C","title":"银乐迪（品尊国际店）","lon":"121.432993","lat":"31.259584","category":"248","category_name":"生活娱乐","address":"岚皋路铜川路"},{"poiid":"B2094757D16AABFB439E","title":"lulubear's home","lon":"121.43452145","lat":"31.258452372","category":"500","category_name":"未知分类","address":null},{"poiid":"B2094655D26CA0FB4592","title":"泾惠路40弄小区","lon":"121.43462","lat":"31.25946","category":"47","category_name":"住宅区","address":"泾惠路40弄"},{"poiid":"B2094757D16DABFD449A","title":"石泉路97弄","lon":"121.434713","lat":"31.257715","category":"500","category_name":"未知分类","address":"上海市普陀区石泉路97弄"},{"poiid":"B2094757D16AA0F84992","title":"普陀区外来人员就业管理中心","lon":"121.43359095","lat":"31.2581288333","category":"500","category_name":"未知分类","address":"上海市普陀区志丹路8号"},{"poiid":"B2094655D26CA0FA499F","title":"石泉六村","lon":"121.433","lat":"31.2618","category":"47","category_name":"住宅区","address":"上海普陀区华池路(近汉阴路)"},{"poiid":"B2094655D26CA1F4489D","title":"泾惠路40弄小区(东门)","lon":"121.43489","lat":"31.25967","category":"47","category_name":"住宅区","address":"泾惠路40弄"},{"poiid":"B2094655D265A3F44598","title":"香溢花城二期","lon":"121.43495","lat":"31.2559","category":"47","category_name":"住宅区","address":"石泉东路240号"},{"poiid":"B2094654D464ABF9419B","title":"一晟之旅宾馆","lon":"121.43601","lat":"31.25731","category":"250","category_name":"公园户外","address":"交通路1979"},{"poiid":"B2094757D16CA6FA449A","title":"複旦大學邯鄲路本部","lon":"121.43552418","lat":"31.260495285","category":"500","category_name":"未知分类","address":"上海市楊浦區邯鄲路220號"},{"poiid":"B2094655D26CA1F44892","title":"中国电信上海北区电信局","lon":"121.43292","lat":"31.25894","category":"151","category_name":"电讯营业厅","address":"延长西路529弄50"},{"poiid":"B2094757D06AA2FA499D","title":"埃及开罗","lon":"121.43363654","lat":"31.258283895","category":"500","category_name":"未知分类","address":"尼罗河"},{"poiid":"B2094655D36DA7FB439B","title":"子长路甘泉路","lon":"121.43452","lat":"31.2611","category":"38","category_name":"公交车站","address":""},{"poiid":"B2094757D66FA6FC4193","title":"银都佳园","lon":"121.43214","lat":"31.259052","category":"47","category_name":"住宅区","address":"上海市普陀区延长西路555弄1-8号"},{"poiid":"B2094757D66EABFC469F","title":"优度美车","lon":"121.43376895","lat":"31.258473839","category":"163","category_name":"4S店","address":"上海交通路 2083号"},{"poiid":"B2094750D365A7FC4093","title":"美车地带","lon":"121.433639","lat":"31.257966","category":"249","category_name":"购物服务","address":"上海市普陀区交通路2261号"},{"poiid":"B2094757D66FA1FF4492","title":"洛川路路边摊","lon":"121.43633595","lat":"31.258473839","category":"500","category_name":"未知分类","address":"上海洛川路泾惠路"},{"poiid":"B2094757D065A6FE479F","title":"Joyice's Home","lon":"121.43368595","lat":"31.258271836","category":"500","category_name":"未知分类","address":null},{"poiid":"B2094757D16BA3F4469E","title":"Joyice home","lon":"121.43366995","lat":"31.258127833","category":"500","category_name":"未知分类","address":null},{"poiid":"B2094757D168A4FE459D","title":"宜川新村派出所","lon":"121.43685895","lat":"31.2592808553","category":"609","category_name":"警察局","address":"上海市普陀区宜川六村内"},{"poiid":"B2094757D065A5F84399","title":"佳吉快运","lon":"121.434276","lat":"31.257573","category":"263","category_name":"公司","address":"上海交通路2145号"},{"poiid":"B2094750D26DA3F44598","title":"上海市第六人民医院","lon":"121.433709","lat":"31.260354","category":"162","category_name":"医院","address":null},{"poiid":"B2094654D464ABFA469D","title":"宝钢公寓","lon":"121.43562","lat":"31.254045","category":"47","category_name":"住宅区","address":"上海普陀区中山北路1655弄29支弄14号"},{"poiid":"B2094757D06EAAFF429E","title":"肯德基 KFC (甘泉店)","lon":"121.43123626","lat":"31.259388373","category":"68","category_name":"快餐厅","address":"普陀区志丹路135号(甘泉路志丹路)"},{"poiid":"B2094757D168A7F8409D","title":"浦东机场T2航站楼北步行道","lon":"121.43789915","lat":"31.257590923","category":"21","category_name":"飞机场","address":"上海浦东机场2号航站楼"},{"poiid":"B2094757D06AA6FD4092","title":"交通路 上海商学院分部","lon":"121.43848419","lat":"31.256755828","category":"500","category_name":"未知分类","address":"上海交通路1933号"},{"poiid":"B2094654DB6AABFA4592","title":"秋月枫舍","lon":"121.43522790295","lat":"31.254804192598","category":"47","category_name":"住宅区","address":"镇坪路176弄3-34号"},{"poiid":"B2094757D069A2F4439A","title":"依云浴场","lon":"121.43332","lat":"31.25968","category":"149","category_name":"洗浴推拿场所","address":"上海普陀区延长西路543号(近子长路)"},{"poiid":"B2094654D464ABF94493","title":"汪家井","lon":"121.43488","lat":"31.258587","category":"47","category_name":"住宅区","address":"交通路2285弄"},{"poiid":"B2094757D06AA0FF459B","title":"美格菲香溢花城会所","lon":"121.433577153","lat":"31.2569792199","category":"500","category_name":"未知分类","address":"普陀区石泉东路228号(近光新路)"},{"poiid":"B2094757D16BAAFF449B","title":"地铁7号线","lon":"121.43630155","lat":"31.25586419","category":"36","category_name":"地铁站","address":"上海7号线 花木路—美兰湖"},{"poiid":"B2094654D464ABFC4892","title":"章家巷","lon":"121.43398","lat":"31.260544","category":"47","category_name":"住宅区","address":"延长西路526弄"},{"poiid":"B2094757D068A4F44099","title":"中期大厦","lon":"121.438","lat":"31.2552","category":"46","category_name":"楼宇","address":"中山北路2000号"},{"poiid":"B2094654D464ABF84993","title":"工汇花苑","lon":"121.4356","lat":"31.257875","category":"47","category_name":"住宅区","address":"交通路2107弄"},{"poiid":"B2094757D069A1FF479E","title":"宜川二村","lon":"121.437716","lat":"31.260315","category":"252","category_name":"楼宇机构","address":"上海延长西路泾惠路"},{"poiid":"B2094757D16DABFD4798","title":"家里蹲","lon":"121.43771895","lat":"31.258147833","category":"500","category_name":"未知分类","address":null},{"poiid":"B2094654D464ABFC4899","title":"聚兴园酒店","lon":"121.43470143023","lat":"31.259954081076","category":"257","category_name":"中餐厅","address":"普陀区延长西路502号(近子长路)"},{"poiid":"B2094654DB6AABFF409C","title":"上海商业会计学校(交通路)","lon":"121.43847","lat":"31.25675","category":"54","category_name":"职业技术学校","address":"交通路1933"},{"poiid":"B2094654D464ABF9439C","title":"嘉怡苑","lon":"121.43361","lat":"31.25823","category":"47","category_name":"住宅区","address":"嘉怡苑位于普陀交通路2245弄"},{"poiid":"B2094654D464ABF8499B","title":"上海市洛川学校","lon":"121.43598","lat":"31.25937","category":"55","category_name":"中学","address":"普陀区泾惠路123号(泾惠路子长路)"},{"poiid":"B2094757D069A5F9429B","title":"子长小区","lon":"121.43523","lat":"31.262568","category":"47","category_name":"住宅区","address":"子长路77弄1-61号(单)"},{"poiid":"B2094655D26FA1FB459E","title":"汪家井(东门)","lon":"121.43539","lat":"31.25876","category":"47","category_name":"住宅区","address":"泾惠路24弄"},{"poiid":"B2094654D464ABF84893","title":"洛川公寓","lon":"121.43629","lat":"31.258636","category":"47","category_name":"住宅区","address":"洛川公寓位于普陀上海普陀泾惠路91弄"},{"poiid":"B2094757D06FA4FD4592","title":"上海市药剂学校","lon":"121.431654","lat":"31.259446","category":"500","category_name":"未知分类","address":"普陀区延长西路583号(近志丹路)"},{"poiid":"B2094655D264ABFC4692","title":"泾惠路20弄","lon":"121.43554","lat":"31.25812","category":"47","category_name":"住宅区","address":"泾惠路20弄1-2号"},{"poiid":"B2094757D16DA6F8449B","title":"普陀区人力资源与社会保障局","lon":"121.43230595","lat":"31.2578188273","category":"500","category_name":"未知分类","address":"上海志丹路8号"},{"poiid":"B2094655D265A0FA419A","title":"泾惠路20弄(东门)","lon":"121.43582","lat":"31.2583","category":"47","category_name":"住宅区","address":"泾惠路20弄1-2号"},{"poiid":"B2094757D66DABFE479B","title":"大华好乐迪","lon":"121.43465595","lat":"31.258257835","category":"248","category_name":"生活娱乐","address":"上海市大华二路真华路"},{"poiid":"B2094752D168A2FD459A","title":"上海火车站","lon":"121.434066","lat":"31.260114","category":"251","category_name":"出行住宿","address":null},{"poiid":"B2094757D169A3F84692","title":"上海第二工业大学东一食堂","lon":"121.43498375","lat":"31.25852084","category":"500","category_name":"未知分类","address":"上海金海路2360号"},{"poiid":"B2094751DA69AAFC419C","title":"银乐迪（品尊国际店）","lon":"121.432993","lat":"31.259584","category":"248","category_name":"生活娱乐","address":"岚皋路铜川路"},{"poiid":"B2094757D16AABFB439E","title":"lulubear's home","lon":"121.43452145","lat":"31.258452372","category":"500","category_name":"未知分类","address":null},{"poiid":"B2094655D26CA0FB4592","title":"泾惠路40弄小区","lon":"121.43462","lat":"31.25946","category":"47","category_name":"住宅区","address":"泾惠路40弄"},{"poiid":"B2094757D16DABFD449A","title":"石泉路97弄","lon":"121.434713","lat":"31.257715","category":"500","category_name":"未知分类","address":"上海市普陀区石泉路97弄"},{"poiid":"B2094757D16AA0F84992","title":"普陀区外来人员就业管理中心","lon":"121.43359095","lat":"31.2581288333","category":"500","category_name":"未知分类","address":"上海市普陀区志丹路8号"},{"poiid":"B2094655D26CA0FA499F","title":"石泉六村","lon":"121.433","lat":"31.2618","category":"47","category_name":"住宅区","address":"上海普陀区华池路(近汉阴路)"},{"poiid":"B2094655D26CA1F4489D","title":"泾惠路40弄小区(东门)","lon":"121.43489","lat":"31.25967","category":"47","category_name":"住宅区","address":"泾惠路40弄"},{"poiid":"B2094655D265A3F44598","title":"香溢花城二期","lon":"121.43495","lat":"31.2559","category":"47","category_name":"住宅区","address":"石泉东路240号"},{"poiid":"B2094654D464ABF9419B","title":"一晟之旅宾馆","lon":"121.43601","lat":"31.25731","category":"250","category_name":"公园户外","address":"交通路1979"},{"poiid":"B2094757D16CA6FA449A","title":"複旦大學邯鄲路本部","lon":"121.43552418","lat":"31.260495285","category":"500","category_name":"未知分类","address":"上海市楊浦區邯鄲路220號"},{"poiid":"B2094655D26CA1F44892","title":"中国电信上海北区电信局","lon":"121.43292","lat":"31.25894","category":"151","category_name":"电讯营业厅","address":"延长西路529弄50"},{"poiid":"B2094757D06AA2FA499D","title":"埃及开罗","lon":"121.43363654","lat":"31.258283895","category":"500","category_name":"未知分类","address":"尼罗河"},{"poiid":"B2094655D36DA7FB439B","title":"子长路甘泉路","lon":"121.43452","lat":"31.2611","category":"38","category_name":"公交车站","address":""},{"poiid":"B2094757D66FA6FC4193","title":"银都佳园","lon":"121.43214","lat":"31.259052","category":"47","category_name":"住宅区","address":"上海市普陀区延长西路555弄1-8号"},{"poiid":"B2094757D66EABFC469F","title":"优度美车","lon":"121.43376895","lat":"31.258473839","category":"163","category_name":"4S店","address":"上海交通路 2083号"},{"poiid":"B2094750D365A7FC4093","title":"美车地带","lon":"121.433639","lat":"31.257966","category":"249","category_name":"购物服务","address":"上海市普陀区交通路2261号"},{"poiid":"B2094757D66FA1FF4492","title":"洛川路路边摊","lon":"121.43633595","lat":"31.258473839","category":"500","category_name":"未知分类","address":"上海洛川路泾惠路"},{"poiid":"B2094757D065A6FE479F","title":"Joyice's Home","lon":"121.43368595","lat":"31.258271836","category":"500","category_name":"未知分类","address":null},{"poiid":"B2094757D16BA3F4469E","title":"Joyice home","lon":"121.43366995","lat":"31.258127833","category":"500","category_name":"未知分类","address":null},{"poiid":"B2094757D168A4FE459D","title":"宜川新村派出所","lon":"121.43685895","lat":"31.2592808553","category":"609","category_name":"警察局","address":"上海市普陀区宜川六村内"},{"poiid":"B2094757D065A5F84399","title":"佳吉快运","lon":"121.434276","lat":"31.257573","category":"263","category_name":"公司","address":"上海交通路2145号"},{"poiid":"B2094750D26DA3F44598","title":"上海市第六人民医院","lon":"121.433709","lat":"31.260354","category":"162","category_name":"医院","address":null},{"poiid":"B2094654D464ABFA469D","title":"宝钢公寓","lon":"121.43562","lat":"31.254045","category":"47","category_name":"住宅区","address":"上海普陀区中山北路1655弄29支弄14号"}]