[{"poiid":"B2094757D06FA0FC429C","title":"龙吴路罗秀路","lon":"121.452246","lat":"31.135412","category":"260","category_name":"其他","address":"上海市徐汇区龙吴路罗秀路"},{"poiid":"B2094757D068A6F5419C","title":"工商外国语学校","lon":"121.44708","lat":"31.1402","category":"52","category_name":"高等院校","address":"徐汇区平福路66号(近上海植物园)"},{"poiid":"B2094757D06FABFE4492","title":"中海瀛台","lon":"121.45292","lat":"31.140421","category":"500","category_name":"未知分类","address":"徐汇区龙瑞路77弄"},{"poiid":"B2094757D06FA4F54892","title":"千岛湖平价小海鲜(罗香路店)","lon":"121.442326","lat":"31.136287","category":"76","category_name":"上海菜","address":"徐汇区罗香路20号(龙川路罗香路)"},{"poiid":"B2094655D268A1FE489D","title":"华滨家园","lon":"121.45071","lat":"31.1392","category":"47","category_name":"住宅区","address":"龙吴路1323弄"},{"poiid":"B2094757D068A0FF4693","title":"罗秀新村","lon":"121.44658","lat":"31.133022","category":"47","category_name":"住宅区","address":"上海市徐汇区龙川路"},{"poiid":"B2094654DB6AA7FA499F","title":"天雅村酒店(长桥店)","lon":"121.44863","lat":"31.14377","category":"76","category_name":"上海菜","address":"徐汇区百色路99号(百色路百色支路)"},{"poiid":"B2094757D068A1F8419D","title":"上海市材料工程学校","lon":"121.446624394","lat":"31.1310546604","category":"52","category_name":"高等院校","address":"徐汇区罗秀新村136号(近龙吴路)"},{"poiid":"B2094750D66CA1FF469D","title":"华沁家园","lon":"121.449996","lat":"31.134494","category":"500","category_name":"未知分类","address":"上海徐汇区龙吴路1343弄"},{"poiid":"B2094757D064A4F54998","title":"长桥三村","lon":"121.448271","lat":"31.142473","category":"47","category_name":"住宅区","address":"上海徐汇区龙川北路罗香路"},{"poiid":"B2094655D268A3F84899","title":"美格菲健身中心(徐汇店)","lon":"121.4466","lat":"31.14356","category":"221","category_name":"健身中心","address":"徐汇区百色路208号1楼(近上海植物园)"},{"poiid":"B2094757D06FAAFA459E","title":"罗秀三村","lon":"121.452958","lat":"31.139931","category":"252","category_name":"楼宇机构","address":"罗秀路210号"},{"poiid":"B2094757D06FAAF44299","title":"JEANS日系造型SALON(京世罗秀店)","lon":"121.446207492","lat":"31.1338958601","category":"148","category_name":"美容美发店","address":"上海徐汇区罗秀路222号(近龙川北路)"},{"poiid":"B2094757D064A4FB4593","title":"贝塔斯曼","lon":"121.447585698","lat":"31.1349427146","category":"249","category_name":"购物服务","address":"上海罗秀路162号"},{"poiid":"B2094757D06FABF44892","title":"长桥新村","lon":"121.446","lat":"31.1444","category":"47","category_name":"住宅区","address":"上海上中路龙川北路口"},{"poiid":"B2094757D068A3F84693","title":"书香逸居","lon":"121.441","lat":"31.1418","category":"47","category_name":"住宅区","address":"上海徐汇区上中路51弄"},{"poiid":"B2094757D06AA3FF419F","title":"长桥地段医院","lon":"121.440313326","lat":"31.1391329574","category":"162","category_name":"医院","address":"徐汇区龙川北路9号(龙川北路上中路)"},{"poiid":"B2094655D36DA7FC409D","title":"园南二村","lon":"121.44369","lat":"31.14297","category":"38","category_name":"公交车站","address":"上海徐汇区百色路平福路"},{"poiid":"B2094757D068A4FF4393","title":"长桥二村","lon":"121.44071","lat":"31.136642","category":"47","category_name":"住宅区","address":"罗秀路近龙川北路"},{"poiid":"B2094750D56DABF94498","title":"帆顺酒店","lon":"121.440956","lat":"31.136013","category":"76","category_name":"上海菜","address":"徐汇区罗香路92号(近长桥路)"},{"poiid":"B2094655D265A5FE409A","title":"中恒苑二期","lon":"121.44664","lat":"31.14035","category":"47","category_name":"住宅区","address":"中恒苑二期位于徐汇上中路483号"},{"poiid":"B2094757D66DABF94898","title":"永达BUICK龙吴店","lon":"121.453904857","lat":"31.1345930549","category":"500","category_name":"未知分类","address":"上海市徐汇区罗秀路"},{"poiid":"B2094654DB6CA1F8449C","title":"天然居","lon":"121.44463","lat":"31.143415","category":"76","category_name":"上海菜","address":"徐汇区百色路218-222天然居商务宾馆内(近百色支路)"},{"poiid":"B2094654DB6CA1F8459F","title":"威盛片厂","lon":"121.44876","lat":"31.14377","category":"263","category_name":"公司","address":"百色路77"},{"poiid":"B2094654DB6CA2F9479F","title":"金铃子龙川酒店","lon":"121.44199","lat":"31.13808","category":"76","category_name":"上海菜","address":"徐汇区龙川路209号(龙川路上中路)"},{"poiid":"B2094655D26FA5FD469A","title":"徐汇区逸夫小学","lon":"121.44274","lat":"31.13374","category":"56","category_name":"小学","address":"上海罗秀路400号"},{"poiid":"B2094757D064A0FA499E","title":"中海瀛台2期","lon":"121.45539347","lat":"31.13716525","category":"47","category_name":"住宅区","address":"上海龙瑞路77弄"},{"poiid":"B2094757D568AAFC459C","title":"工商外国语学校徐汇校区1区","lon":"121.44664","lat":"31.14299306","category":"52","category_name":"高等院校","address":"百色路503号"},{"poiid":"B2094655D26BA1FB4192","title":"罗秀路龙川路","lon":"121.44582","lat":"31.13364","category":"38","category_name":"公交车站","address":""},{"poiid":"B2094757D665A0FA449E","title":"春寓餐厅","lon":"121.452380054","lat":"31.135435793","category":"76","category_name":"上海菜","address":"徐汇区罗秀路50号(近龙吴路)"},{"poiid":"B2094654DB6CA1FA4293","title":"聚鑫商务楼","lon":"121.44919","lat":"31.1348","category":"46","category_name":"楼宇","address":"罗秀路108"},{"poiid":"B2094655D268A1FE489C","title":"华滨家园(东门)","lon":"121.45124","lat":"31.13933","category":"47","category_name":"住宅区","address":"龙吴路1331"},{"poiid":"B2094654DB64A1FC4398","title":"上海市园南中学","lon":"121.44488","lat":"31.14291","category":"55","category_name":"中学","address":"百色路231"},{"poiid":"B2094655D268A3F4479F","title":"格兰云天别墅区","lon":"121.44766","lat":"31.14409","category":"47","category_name":"住宅区","address":"百色路100"},{"poiid":"B2094655D26EA3F9499A","title":"鑫隆花园(2号门)","lon":"121.44322","lat":"31.13918","category":"47","category_name":"住宅区","address":""},{"poiid":"B2094757D165AAFB429F","title":"车辆管理所(三分所)","lon":"121.449122857","lat":"31.139189147","category":"263","category_name":"公司","address":"上海沪南路2638号(康桥路)"},{"poiid":"B2094655D26BA1FB419C","title":"罗秀路龙吴路","lon":"121.45145","lat":"31.13515","category":"38","category_name":"公交车站","address":""},{"poiid":"B2094757D069A2F8459A","title":"丰裕生煎(罗香路店)","lon":"121.44097","lat":"31.13536","category":"68","category_name":"快餐厅","address":"徐汇区罗香路81号(近长桥路)"},{"poiid":"B2094757DA6EA7F4429D","title":"Aivas Coffee","lon":"121.4527868","lat":"31.1395333999997","category":"260","category_name":"其他","address":"徐汇区龙瑞路53号(近龙吴路)"},{"poiid":"B2094757D168A7F4469C","title":"潍坊路东方路口","lon":"121.4488459","lat":"31.136704363","category":"500","category_name":"未知分类","address":"上海潍坊路东方路口"},{"poiid":"B2094654DB6CA1F8449D","title":"天然居酒店式公寓","lon":"121.4466","lat":"31.14357","category":"46","category_name":"楼宇","address":"上海市徐汇区百色路218号"},{"poiid":"B2094757D069A2FA4992","title":"全家便利店(罗秀路店)","lon":"121.45317553","lat":"31.135582244","category":"117","category_name":"便民商店/便利店","address":"徐汇区罗秀路5-7号(龙吴路口)"},{"poiid":"B2094757D16CA4F54299","title":"张扬路","lon":"121.44854854","lat":"31.136478759","category":"500","category_name":"未知分类","address":"上海世纪大道张扬路东方路口"},{"poiid":"B2094654DB6CA1FA4398","title":"上海市地方税务局徐汇区分局第六税务所","lon":"121.44918","lat":"31.1348","category":"250","category_name":"公园户外","address":"罗秀路108号聚鑫商务楼"},{"poiid":"B2094654DA65A6FB4598","title":"上海交通大学科技园海科园区商务楼","lon":"121.45404","lat":"31.13554","category":"46","category_name":"楼宇","address":"龙吴路1500-1502"},{"poiid":"B2094655D265A4F84593","title":"全家","lon":"121.45251","lat":"31.13523","category":"117","category_name":"便民商店/便利店","address":"罗秀路5-7"},{"poiid":"B2094757D068A4FF4598","title":"中国工商银行（长桥支行）","lon":"121.44109344","lat":"31.135562896","category":"150","category_name":"银行","address":"上海徐汇区罗香路37号"},{"poiid":"B2094757D16EA0F54099","title":"苹果花园罗秀路店","lon":"121.445564024","lat":"31.133497783","category":"112","category_name":"糕饼店","address":"徐汇区罗秀路罗秀三村门口"},{"poiid":"B2094757D66AABF84898","title":"天府酒家","lon":"121.44939992258","lat":"31.143717801122","category":"76","category_name":"上海菜","address":"徐汇区百色路69号(近龙吴路)"},{"poiid":"B2094654DB6CA2F8469C","title":"胜天鹅酒家","lon":"121.441440054","lat":"31.135699793","category":"76","category_name":"上海菜","address":"徐汇区罗香路44号(近龙川路)"},{"poiid":"B2094757D06FA0FC429C","title":"龙吴路罗秀路","lon":"121.452246","lat":"31.135412","category":"260","category_name":"其他","address":"上海市徐汇区龙吴路罗秀路"},{"poiid":"B2094757D068A6F5419C","title":"工商外国语学校","lon":"121.44708","lat":"31.1402","category":"52","category_name":"高等院校","address":"徐汇区平福路66号(近上海植物园)"},{"poiid":"B2094757D06FABFE4492","title":"中海瀛台","lon":"121.45292","lat":"31.140421","category":"500","category_name":"未知分类","address":"徐汇区龙瑞路77弄"},{"poiid":"B2094757D06FA4F54892","title":"千岛湖平价小海鲜(罗香路店)","lon":"121.442326","lat":"31.136287","category":"76","category_name":"上海菜","address":"徐汇区罗香路20号(龙川路罗香路)"},{"poiid":"B2094655D268A1FE489D","title":"华滨家园","lon":"121.45071","lat":"31.1392","category":"47","category_name":"住宅区","address":"龙吴路1323弄"},{"poiid":"B2094757D068A0FF4693","title":"罗秀新村","lon":"121.44658","lat":"31.133022","category":"47","category_name":"住宅区","address":"上海市徐汇区龙川路"},{"poiid":"B2094654DB6AA7FA499F","title":"天雅村酒店(长桥店)","lon":"121.44863","lat":"31.14377","category":"76","category_name":"上海菜","address":"徐汇区百色路99号(百色路百色支路)"},{"poiid":"B2094757D068A1F8419D","title":"上海市材料工程学校","lon":"121.446624394","lat":"31.1310546604","category":"52","category_name":"高等院校","address":"徐汇区罗秀新村136号(近龙吴路)"},{"poiid":"B2094750D66CA1FF469D","title":"华沁家园","lon":"121.449996","lat":"31.134494","category":"500","category_name":"未知分类","address":"上海徐汇区龙吴路1343弄"},{"poiid":"B2094757D064A4F54998","title":"长桥三村","lon":"121.448271","lat":"31.142473","category":"47","category_name":"住宅区","address":"上海徐汇区龙川北路罗香路"},{"poiid":"B2094655D268A3F84899","title":"美格菲健身中心(徐汇店)","lon":"121.4466","lat":"31.14356","category":"221","category_name":"健身中心","address":"徐汇区百色路208号1楼(近上海植物园)"},{"poiid":"B2094757D06FAAFA459E","title":"罗秀三村","lon":"121.452958","lat":"31.139931","category":"252","category_name":"楼宇机构","address":"罗秀路210号"},{"poiid":"B2094757D06FAAF44299","title":"JEANS日系造型SALON(京世罗秀店)","lon":"121.446207492","lat":"31.1338958601","category":"148","category_name":"美容美发店","address":"上海徐汇区罗秀路222号(近龙川北路)"},{"poiid":"B2094757D064A4FB4593","title":"贝塔斯曼","lon":"121.447585698","lat":"31.1349427146","category":"249","category_name":"购物服务","address":"上海罗秀路162号"},{"poiid":"B2094757D06FABF44892","title":"长桥新村","lon":"121.446","lat":"31.1444","category":"47","category_name":"住宅区","address":"上海上中路龙川北路口"},{"poiid":"B2094757D068A3F84693","title":"书香逸居","lon":"121.441","lat":"31.1418","category":"47","category_name":"住宅区","address":"上海徐汇区上中路51弄"},{"poiid":"B2094757D06AA3FF419F","title":"长桥地段医院","lon":"121.440313326","lat":"31.1391329574","category":"162","category_name":"医院","address":"徐汇区龙川北路9号(龙川北路上中路)"},{"poiid":"B2094655D36DA7FC409D","title":"园南二村","lon":"121.44369","lat":"31.14297","category":"38","category_name":"公交车站","address":"上海徐汇区百色路平福路"},{"poiid":"B2094757D068A4FF4393","title":"长桥二村","lon":"121.44071","lat":"31.136642","category":"47","category_name":"住宅区","address":"罗秀路近龙川北路"},{"poiid":"B2094750D56DABF94498","title":"帆顺酒店","lon":"121.440956","lat":"31.136013","category":"76","category_name":"上海菜","address":"徐汇区罗香路92号(近长桥路)"},{"poiid":"B2094655D265A5FE409A","title":"中恒苑二期","lon":"121.44664","lat":"31.14035","category":"47","category_name":"住宅区","address":"中恒苑二期位于徐汇上中路483号"},{"poiid":"B2094757D66DABF94898","title":"永达BUICK龙吴店","lon":"121.453904857","lat":"31.1345930549","category":"500","category_name":"未知分类","address":"上海市徐汇区罗秀路"},{"poiid":"B2094654DB6CA1F8449C","title":"天然居","lon":"121.44463","lat":"31.143415","category":"76","category_name":"上海菜","address":"徐汇区百色路218-222天然居商务宾馆内(近百色支路)"},{"poiid":"B2094654DB6CA1F8459F","title":"威盛片厂","lon":"121.44876","lat":"31.14377","category":"263","category_name":"公司","address":"百色路77"},{"poiid":"B2094654DB6CA2F9479F","title":"金铃子龙川酒店","lon":"121.44199","lat":"31.13808","category":"76","category_name":"上海菜","address":"徐汇区龙川路209号(龙川路上中路)"},{"poiid":"B2094655D26FA5FD469A","title":"徐汇区逸夫小学","lon":"121.44274","lat":"31.13374","category":"56","category_name":"小学","address":"上海罗秀路400号"},{"poiid":"B2094757D064A0FA499E","title":"中海瀛台2期","lon":"121.45539347","lat":"31.13716525","category":"47","category_name":"住宅区","address":"上海龙瑞路77弄"},{"poiid":"B2094757D568AAFC459C","title":"工商外国语学校徐汇校区1区","lon":"121.44664","lat":"31.14299306","category":"52","category_name":"高等院校","address":"百色路503号"},{"poiid":"B2094655D26BA1FB4192","title":"罗秀路龙川路","lon":"121.44582","lat":"31.13364","category":"38","category_name":"公交车站","address":""},{"poiid":"B2094757D665A0FA449E","title":"春寓餐厅","lon":"121.452380054","lat":"31.135435793","category":"76","category_name":"上海菜","address":"徐汇区罗秀路50号(近龙吴路)"},{"poiid":"B2094654DB6CA1FA4293","title":"聚鑫商务楼","lon":"121.44919","lat":"31.1348","category":"46","category_name":"楼宇","address":"罗秀路108"},{"poiid":"B2094655D268A1FE489C","title":"华滨家园(东门)","lon":"121.45124","lat":"31.13933","category":"47","category_name":"住宅区","address":"龙吴路1331"},{"poiid":"B2094654DB64A1FC4398","title":"上海市园南中学","lon":"121.44488","lat":"31.14291","category":"55","category_name":"中学","address":"百色路231"},{"poiid":"B2094655D268A3F4479F","title":"格兰云天别墅区","lon":"121.44766","lat":"31.14409","category":"47","category_name":"住宅区","address":"百色路100"},{"poiid":"B2094655D26EA3F9499A","title":"鑫隆花园(2号门)","lon":"121.44322","lat":"31.13918","category":"47","category_name":"住宅区","address":""},{"poiid":"B2094757D165AAFB429F","title":"车辆管理所(三分所)","lon":"121.449122857","lat":"31.139189147","category":"263","category_name":"公司","address":"上海沪南路2638号(康桥路)"},{"poiid":"B2094655D26BA1FB419C","title":"罗秀路龙吴路","lon":"121.45145","lat":"31.13515","category":"38","category_name":"公交车站","address":""},{"poiid":"B2094757D069A2F8459A","title":"丰裕生煎(罗香路店)","lon":"121.44097","lat":"31.13536","category":"68","category_name":"快餐厅","address":"徐汇区罗香路81号(近长桥路)"},{"poiid":"B2094757DA6EA7F4429D","title":"Aivas Coffee","lon":"121.4527868","lat":"31.1395333999997","category":"260","category_name":"其他","address":"徐汇区龙瑞路53号(近龙吴路)"},{"poiid":"B2094757D168A7F4469C","title":"潍坊路东方路口","lon":"121.4488459","lat":"31.136704363","category":"500","category_name":"未知分类","address":"上海潍坊路东方路口"},{"poiid":"B2094654DB6CA1F8449D","title":"天然居酒店式公寓","lon":"121.4466","lat":"31.14357","category":"46","category_name":"楼宇","address":"上海市徐汇区百色路218号"},{"poiid":"B2094757D069A2FA4992","title":"全家便利店(罗秀路店)","lon":"121.45317553","lat":"31.135582244","category":"117","category_name":"便民商店/便利店","address":"徐汇区罗秀路5-7号(龙吴路口)"},{"poiid":"B2094757D16CA4F54299","title":"张扬路","lon":"121.44854854","lat":"31.136478759","category":"500","category_name":"未知分类","address":"上海世纪大道张扬路东方路口"},{"poiid":"B2094654DB6CA1FA4398","title":"上海市地方税务局徐汇区分局第六税务所","lon":"121.44918","lat":"31.1348","category":"250","category_name":"公园户外","address":"罗秀路108号聚鑫商务楼"},{"poiid":"B2094654DA65A6FB4598","title":"上海交通大学科技园海科园区商务楼","lon":"121.45404","lat":"31.13554","category":"46","category_name":"楼宇","address":"龙吴路1500-1502"},{"poiid":"B2094655D265A4F84593","title":"全家","lon":"121.45251","lat":"31.13523","category":"117","category_name":"便民商店/便利店","address":"罗秀路5-7"},{"poiid":"B2094757D068A4FF4598","title":"中国工商银行（长桥支行）","lon":"121.44109344","lat":"31.135562896","category":"150","category_name":"银行","address":"上海徐汇区罗香路37号"},{"poiid":"B2094757D16EA0F54099","title":"苹果花园罗秀路店","lon":"121.445564024","lat":"31.133497783","category":"112","category_name":"糕饼店","address":"徐汇区罗秀路罗秀三村门口"},{"poiid":"B2094757D66AABF84898","title":"天府酒家","lon":"121.44939992258","lat":"31.143717801122","category":"76","category_name":"上海菜","address":"徐汇区百色路69号(近龙吴路)"},{"poiid":"B2094654DB6CA2F8469C","title":"胜天鹅酒家","lon":"121.441440054","lat":"31.135699793","category":"76","category_name":"上海菜","address":"徐汇区罗香路44号(近龙川路)"},{"poiid":"B2094757D06FA0FC429C","title":"龙吴路罗秀路","lon":"121.452246","lat":"31.135412","category":"260","category_name":"其他","address":"上海市徐汇区龙吴路罗秀路"},{"poiid":"B2094757D068A6F5419C","title":"工商外国语学校","lon":"121.44708","lat":"31.1402","category":"52","category_name":"高等院校","address":"徐汇区平福路66号(近上海植物园)"},{"poiid":"B2094757D06FABFE4492","title":"中海瀛台","lon":"121.45292","lat":"31.140421","category":"500","category_name":"未知分类","address":"徐汇区龙瑞路77弄"},{"poiid":"B2094757D06FA4F54892","title":"千岛湖平价小海鲜(罗香路店)","lon":"121.442326","lat":"31.136287","category":"76","category_name":"上海菜","address":"徐汇区罗香路20号(龙川路罗香路)"},{"poiid":"B2094655D268A1FE489D","title":"华滨家园","lon":"121.45071","lat":"31.1392","category":"47","category_name":"住宅区","address":"龙吴路1323弄"},{"poiid":"B2094757D068A0FF4693","title":"罗秀新村","lon":"121.44658","lat":"31.133022","category":"47","category_name":"住宅区","address":"上海市徐汇区龙川路"},{"poiid":"B2094654DB6AA7FA499F","title":"天雅村酒店(长桥店)","lon":"121.44863","lat":"31.14377","category":"76","category_name":"上海菜","address":"徐汇区百色路99号(百色路百色支路)"},{"poiid":"B2094757D068A1F8419D","title":"上海市材料工程学校","lon":"121.446624394","lat":"31.1310546604","category":"52","category_name":"高等院校","address":"徐汇区罗秀新村136号(近龙吴路)"},{"poiid":"B2094750D66CA1FF469D","title":"华沁家园","lon":"121.449996","lat":"31.134494","category":"500","category_name":"未知分类","address":"上海徐汇区龙吴路1343弄"},{"poiid":"B2094757D064A4F54998","title":"长桥三村","lon":"121.448271","lat":"31.142473","category":"47","category_name":"住宅区","address":"上海徐汇区龙川北路罗香路"},{"poiid":"B2094655D268A3F84899","title":"美格菲健身中心(徐汇店)","lon":"121.4466","lat":"31.14356","category":"221","category_name":"健身中心","address":"徐汇区百色路208号1楼(近上海植物园)"},{"poiid":"B2094757D06FAAFA459E","title":"罗秀三村","lon":"121.452958","lat":"31.139931","category":"252","category_name":"楼宇机构","address":"罗秀路210号"},{"poiid":"B2094757D06FAAF44299","title":"JEANS日系造型SALON(京世罗秀店)","lon":"121.446207492","lat":"31.1338958601","category":"148","category_name":"美容美发店","address":"上海徐汇区罗秀路222号(近龙川北路)"},{"poiid":"B2094757D064A4FB4593","title":"贝塔斯曼","lon":"121.447585698","lat":"31.1349427146","category":"249","category_name":"购物服务","address":"上海罗秀路162号"},{"poiid":"B2094757D06FABF44892","title":"长桥新村","lon":"121.446","lat":"31.1444","category":"47","category_name":"住宅区","address":"上海上中路龙川北路口"},{"poiid":"B2094757D068A3F84693","title":"书香逸居","lon":"121.441","lat":"31.1418","category":"47","category_name":"住宅区","address":"上海徐汇区上中路51弄"},{"poiid":"B2094757D06AA3FF419F","title":"长桥地段医院","lon":"121.440313326","lat":"31.1391329574","category":"162","category_name":"医院","address":"徐汇区龙川北路9号(龙川北路上中路)"},{"poiid":"B2094655D36DA7FC409D","title":"园南二村","lon":"121.44369","lat":"31.14297","category":"38","category_name":"公交车站","address":"上海徐汇区百色路平福路"},{"poiid":"B2094757D068A4FF4393","title":"长桥二村","lon":"121.44071","lat":"31.136642","category":"47","category_name":"住宅区","address":"罗秀路近龙川北路"},{"poiid":"B2094750D56DABF94498","title":"帆顺酒店","lon":"121.440956","lat":"31.136013","category":"76","category_name":"上海菜","address":"徐汇区罗香路92号(近长桥路)"},{"poiid":"B2094655D265A5FE409A","title":"中恒苑二期","lon":"121.44664","lat":"31.14035","category":"47","category_name":"住宅区","address":"中恒苑二期位于徐汇上中路483号"},{"poiid":"B2094757D66DABF94898","title":"永达BUICK龙吴店","lon":"121.453904857","lat":"31.1345930549","category":"500","category_name":"未知分类","address":"上海市徐汇区罗秀路"},{"poiid":"B2094654DB6CA1F8449C","title":"天然居","lon":"121.44463","lat":"31.143415","category":"76","category_name":"上海菜","address":"徐汇区百色路218-222天然居商务宾馆内(近百色支路)"},{"poiid":"B2094654DB6CA1F8459F","title":"威盛片厂","lon":"121.44876","lat":"31.14377","category":"263","category_name":"公司","address":"百色路77"},{"poiid":"B2094654DB6CA2F9479F","title":"金铃子龙川酒店","lon":"121.44199","lat":"31.13808","category":"76","category_name":"上海菜","address":"徐汇区龙川路209号(龙川路上中路)"},{"poiid":"B2094655D26FA5FD469A","title":"徐汇区逸夫小学","lon":"121.44274","lat":"31.13374","category":"56","category_name":"小学","address":"上海罗秀路400号"},{"poiid":"B2094757D064A0FA499E","title":"中海瀛台2期","lon":"121.45539347","lat":"31.13716525","category":"47","category_name":"住宅区","address":"上海龙瑞路77弄"},{"poiid":"B2094757D568AAFC459C","title":"工商外国语学校徐汇校区1区","lon":"121.44664","lat":"31.14299306","category":"52","category_name":"高等院校","address":"百色路503号"},{"poiid":"B2094655D26BA1FB4192","title":"罗秀路龙川路","lon":"121.44582","lat":"31.13364","category":"38","category_name":"公交车站","address":""},{"poiid":"B2094757D665A0FA449E","title":"春寓餐厅","lon":"121.452380054","lat":"31.135435793","category":"76","category_name":"上海菜","address":"徐汇区罗秀路50号(近龙吴路)"},{"poiid":"B2094654DB6CA1FA4293","title":"聚鑫商务楼","lon":"121.44919","lat":"31.1348","category":"46","category_name":"楼宇","address":"罗秀路108"},{"poiid":"B2094655D268A1FE489C","title":"华滨家园(东门)","lon":"121.45124","lat":"31.13933","category":"47","category_name":"住宅区","address":"龙吴路1331"},{"poiid":"B2094654DB64A1FC4398","title":"上海市园南中学","lon":"121.44488","lat":"31.14291","category":"55","category_name":"中学","address":"百色路231"},{"poiid":"B2094655D268A3F4479F","title":"格兰云天别墅区","lon":"121.44766","lat":"31.14409","category":"47","category_name":"住宅区","address":"百色路100"},{"poiid":"B2094655D26EA3F9499A","title":"鑫隆花园(2号门)","lon":"121.44322","lat":"31.13918","category":"47","category_name":"住宅区","address":""},{"poiid":"B2094757D165AAFB429F","title":"车辆管理所(三分所)","lon":"121.449122857","lat":"31.139189147","category":"263","category_name":"公司","address":"上海沪南路2638号(康桥路)"},{"poiid":"B2094655D26BA1FB419C","title":"罗秀路龙吴路","lon":"121.45145","lat":"31.13515","category":"38","category_name":"公交车站","address":""},{"poiid":"B2094757D069A2F8459A","title":"丰裕生煎(罗香路店)","lon":"121.44097","lat":"31.13536","category":"68","category_name":"快餐厅","address":"徐汇区罗香路81号(近长桥路)"},{"poiid":"B2094757DA6EA7F4429D","title":"Aivas Coffee","lon":"121.4527868","lat":"31.1395333999997","category":"260","category_name":"其他","address":"徐汇区龙瑞路53号(近龙吴路)"},{"poiid":"B2094757D168A7F4469C","title":"潍坊路东方路口","lon":"121.4488459","lat":"31.136704363","category":"500","category_name":"未知分类","address":"上海潍坊路东方路口"},{"poiid":"B2094654DB6CA1F8449D","title":"天然居酒店式公寓","lon":"121.4466","lat":"31.14357","category":"46","category_name":"楼宇","address":"上海市徐汇区百色路218号"},{"poiid":"B2094757D069A2FA4992","title":"全家便利店(罗秀路店)","lon":"121.45317553","lat":"31.135582244","category":"117","category_name":"便民商店/便利店","address":"徐汇区罗秀路5-7号(龙吴路口)"},{"poiid":"B2094757D16CA4F54299","title":"张扬路","lon":"121.44854854","lat":"31.136478759","category":"500","category_name":"未知分类","address":"上海世纪大道张扬路东方路口"},{"poiid":"B2094654DB6CA1FA4398","title":"上海市地方税务局徐汇区分局第六税务所","lon":"121.44918","lat":"31.1348","category":"250","category_name":"公园户外","address":"罗秀路108号聚鑫商务楼"},{"poiid":"B2094654DA65A6FB4598","title":"上海交通大学科技园海科园区商务楼","lon":"121.45404","lat":"31.13554","category":"46","category_name":"楼宇","address":"龙吴路1500-1502"},{"poiid":"B2094655D265A4F84593","title":"全家","lon":"121.45251","lat":"31.13523","category":"117","category_name":"便民商店/便利店","address":"罗秀路5-7"},{"poiid":"B2094757D068A4FF4598","title":"中国工商银行（长桥支行）","lon":"121.44109344","lat":"31.135562896","category":"150","category_name":"银行","address":"上海徐汇区罗香路37号"},{"poiid":"B2094757D16EA0F54099","title":"苹果花园罗秀路店","lon":"121.445564024","lat":"31.133497783","category":"112","category_name":"糕饼店","address":"徐汇区罗秀路罗秀三村门口"},{"poiid":"B2094757D66AABF84898","title":"天府酒家","lon":"121.44939992258","lat":"31.143717801122","category":"76","category_name":"上海菜","address":"徐汇区百色路69号(近龙吴路)"},{"poiid":"B2094654DB6CA2F8469C","title":"胜天鹅酒家","lon":"121.441440054","lat":"31.135699793","category":"76","category_name":"上海菜","address":"徐汇区罗香路44号(近龙川路)"},{"poiid":"B2094757D06FA0FC429C","title":"龙吴路罗秀路","lon":"121.452246","lat":"31.135412","category":"260","category_name":"其他","address":"上海市徐汇区龙吴路罗秀路"},{"poiid":"B2094757D068A6F5419C","title":"工商外国语学校","lon":"121.44708","lat":"31.1402","category":"52","category_name":"高等院校","address":"徐汇区平福路66号(近上海植物园)"},{"poiid":"B2094757D06FABFE4492","title":"中海瀛台","lon":"121.45292","lat":"31.140421","category":"500","category_name":"未知分类","address":"徐汇区龙瑞路77弄"},{"poiid":"B2094757D06FA4F54892","title":"千岛湖平价小海鲜(罗香路店)","lon":"121.442326","lat":"31.136287","category":"76","category_name":"上海菜","address":"徐汇区罗香路20号(龙川路罗香路)"},{"poiid":"B2094655D268A1FE489D","title":"华滨家园","lon":"121.45071","lat":"31.1392","category":"47","category_name":"住宅区","address":"龙吴路1323弄"},{"poiid":"B2094757D068A0FF4693","title":"罗秀新村","lon":"121.44658","lat":"31.133022","category":"47","category_name":"住宅区","address":"上海市徐汇区龙川路"},{"poiid":"B2094654DB6AA7FA499F","title":"天雅村酒店(长桥店)","lon":"121.44863","lat":"31.14377","category":"76","category_name":"上海菜","address":"徐汇区百色路99号(百色路百色支路)"},{"poiid":"B2094757D068A1F8419D","title":"上海市材料工程学校","lon":"121.446624394","lat":"31.1310546604","category":"52","category_name":"高等院校","address":"徐汇区罗秀新村136号(近龙吴路)"},{"poiid":"B2094750D66CA1FF469D","title":"华沁家园","lon":"121.449996","lat":"31.134494","category":"500","category_name":"未知分类","address":"上海徐汇区龙吴路1343弄"},{"poiid":"B2094757D064A4F54998","title":"长桥三村","lon":"121.448271","lat":"31.142473","category":"47","category_name":"住宅区","address":"上海徐汇区龙川北路罗香路"},{"poiid":"B2094655D268A3F84899","title":"美格菲健身中心(徐汇店)","lon":"121.4466","lat":"31.14356","category":"221","category_name":"健身中心","address":"徐汇区百色路208号1楼(近上海植物园)"},{"poiid":"B2094757D06FAAFA459E","title":"罗秀三村","lon":"121.452958","lat":"31.139931","category":"252","category_name":"楼宇机构","address":"罗秀路210号"},{"poiid":"B2094757D06FAAF44299","title":"JEANS日系造型SALON(京世罗秀店)","lon":"121.446207492","lat":"31.1338958601","category":"148","category_name":"美容美发店","address":"上海徐汇区罗秀路222号(近龙川北路)"},{"poiid":"B2094757D064A4FB4593","title":"贝塔斯曼","lon":"121.447585698","lat":"31.1349427146","category":"249","category_name":"购物服务","address":"上海罗秀路162号"},{"poiid":"B2094757D06FABF44892","title":"长桥新村","lon":"121.446","lat":"31.1444","category":"47","category_name":"住宅区","address":"上海上中路龙川北路口"},{"poiid":"B2094757D068A3F84693","title":"书香逸居","lon":"121.441","lat":"31.1418","category":"47","category_name":"住宅区","address":"上海徐汇区上中路51弄"},{"poiid":"B2094757D06AA3FF419F","title":"长桥地段医院","lon":"121.440313326","lat":"31.1391329574","category":"162","category_name":"医院","address":"徐汇区龙川北路9号(龙川北路上中路)"},{"poiid":"B2094655D36DA7FC409D","title":"园南二村","lon":"121.44369","lat":"31.14297","category":"38","category_name":"公交车站","address":"上海徐汇区百色路平福路"},{"poiid":"B2094757D068A4FF4393","title":"长桥二村","lon":"121.44071","lat":"31.136642","category":"47","category_name":"住宅区","address":"罗秀路近龙川北路"},{"poiid":"B2094750D56DABF94498","title":"帆顺酒店","lon":"121.440956","lat":"31.136013","category":"76","category_name":"上海菜","address":"徐汇区罗香路92号(近长桥路)"},{"poiid":"B2094655D265A5FE409A","title":"中恒苑二期","lon":"121.44664","lat":"31.14035","category":"47","category_name":"住宅区","address":"中恒苑二期位于徐汇上中路483号"},{"poiid":"B2094757D66DABF94898","title":"永达BUICK龙吴店","lon":"121.453904857","lat":"31.1345930549","category":"500","category_name":"未知分类","address":"上海市徐汇区罗秀路"},{"poiid":"B2094654DB6CA1F8449C","title":"天然居","lon":"121.44463","lat":"31.143415","category":"76","category_name":"上海菜","address":"徐汇区百色路218-222天然居商务宾馆内(近百色支路)"},{"poiid":"B2094654DB6CA1F8459F","title":"威盛片厂","lon":"121.44876","lat":"31.14377","category":"263","category_name":"公司","address":"百色路77"},{"poiid":"B2094654DB6CA2F9479F","title":"金铃子龙川酒店","lon":"121.44199","lat":"31.13808","category":"76","category_name":"上海菜","address":"徐汇区龙川路209号(龙川路上中路)"},{"poiid":"B2094655D26FA5FD469A","title":"徐汇区逸夫小学","lon":"121.44274","lat":"31.13374","category":"56","category_name":"小学","address":"上海罗秀路400号"},{"poiid":"B2094757D064A0FA499E","title":"中海瀛台2期","lon":"121.45539347","lat":"31.13716525","category":"47","category_name":"住宅区","address":"上海龙瑞路77弄"},{"poiid":"B2094757D568AAFC459C","title":"工商外国语学校徐汇校区1区","lon":"121.44664","lat":"31.14299306","category":"52","category_name":"高等院校","address":"百色路503号"},{"poiid":"B2094655D26BA1FB4192","title":"罗秀路龙川路","lon":"121.44582","lat":"31.13364","category":"38","category_name":"公交车站","address":""},{"poiid":"B2094757D665A0FA449E","title":"春寓餐厅","lon":"121.452380054","lat":"31.135435793","category":"76","category_name":"上海菜","address":"徐汇区罗秀路50号(近龙吴路)"},{"poiid":"B2094654DB6CA1FA4293","title":"聚鑫商务楼","lon":"121.44919","lat":"31.1348","category":"46","category_name":"楼宇","address":"罗秀路108"},{"poiid":"B2094655D268A1FE489C","title":"华滨家园(东门)","lon":"121.45124","lat":"31.13933","category":"47","category_name":"住宅区","address":"龙吴路1331"},{"poiid":"B2094654DB64A1FC4398","title":"上海市园南中学","lon":"121.44488","lat":"31.14291","category":"55","category_name":"中学","address":"百色路231"},{"poiid":"B2094655D268A3F4479F","title":"格兰云天别墅区","lon":"121.44766","lat":"31.14409","category":"47","category_name":"住宅区","address":"百色路100"},{"poiid":"B2094655D26EA3F9499A","title":"鑫隆花园(2号门)","lon":"121.44322","lat":"31.13918","category":"47","category_name":"住宅区","address":""},{"poiid":"B2094757D165AAFB429F","title":"车辆管理所(三分所)","lon":"121.449122857","lat":"31.139189147","category":"263","category_name":"公司","address":"上海沪南路2638号(康桥路)"},{"poiid":"B2094655D26BA1FB419C","title":"罗秀路龙吴路","lon":"121.45145","lat":"31.13515","category":"38","category_name":"公交车站","address":""},{"poiid":"B2094757D069A2F8459A","title":"丰裕生煎(罗香路店)","lon":"121.44097","lat":"31.13536","category":"68","category_name":"快餐厅","address":"徐汇区罗香路81号(近长桥路)"},{"poiid":"B2094757DA6EA7F4429D","title":"Aivas Coffee","lon":"121.4527868","lat":"31.1395333999997","category":"260","category_name":"其他","address":"徐汇区龙瑞路53号(近龙吴路)"},{"poiid":"B2094757D168A7F4469C","title":"潍坊路东方路口","lon":"121.4488459","lat":"31.136704363","category":"500","category_name":"未知分类","address":"上海潍坊路东方路口"},{"poiid":"B2094654DB6CA1F8449D","title":"天然居酒店式公寓","lon":"121.4466","lat":"31.14357","category":"46","category_name":"楼宇","address":"上海市徐汇区百色路218号"},{"poiid":"B2094757D069A2FA4992","title":"全家便利店(罗秀路店)","lon":"121.45317553","lat":"31.135582244","category":"117","category_name":"便民商店/便利店","address":"徐汇区罗秀路5-7号(龙吴路口)"},{"poiid":"B2094757D16CA4F54299","title":"张扬路","lon":"121.44854854","lat":"31.136478759","category":"500","category_name":"未知分类","address":"上海世纪大道张扬路东方路口"},{"poiid":"B2094654DB6CA1FA4398","title":"上海市地方税务局徐汇区分局第六税务所","lon":"121.44918","lat":"31.1348","category":"250","category_name":"公园户外","address":"罗秀路108号聚鑫商务楼"},{"poiid":"B2094654DA65A6FB4598","title":"上海交通大学科技园海科园区商务楼","lon":"121.45404","lat":"31.13554","category":"46","category_name":"楼宇","address":"龙吴路1500-1502"},{"poiid":"B2094655D265A4F84593","title":"全家","lon":"121.45251","lat":"31.13523","category":"117","category_name":"便民商店/便利店","address":"罗秀路5-7"},{"poiid":"B2094757D068A4FF4598","title":"中国工商银行（长桥支行）","lon":"121.44109344","lat":"31.135562896","category":"150","category_name":"银行","address":"上海徐汇区罗香路37号"},{"poiid":"B2094757D16EA0F54099","title":"苹果花园罗秀路店","lon":"121.445564024","lat":"31.133497783","category":"112","category_name":"糕饼店","address":"徐汇区罗秀路罗秀三村门口"},{"poiid":"B2094757D66AABF84898","title":"天府酒家","lon":"121.44939992258","lat":"31.143717801122","category":"76","category_name":"上海菜","address":"徐汇区百色路69号(近龙吴路)"},{"poiid":"B2094654DB6CA2F8469C","title":"胜天鹅酒家","lon":"121.441440054","lat":"31.135699793","category":"76","category_name":"上海菜","address":"徐汇区罗香路44号(近龙川路)"}]