[{"poiid":"B2094654DA6CA1FF4493","title":"中信泰富广场","lon":"121.462","lat":"31.2349","category":"119","category_name":"商场","address":"静安区南京西路1168号中信泰富广场内(近陕西北路)"},{"poiid":"B2094655D26CAAFF4992","title":"静安别墅","lon":"121.464","lat":"31.2349","category":"47","category_name":"住宅区","address":"静安区南京西路1025弄静安别墅81号(近茂名北路)"},{"poiid":"B2094757D06FA3F4449B","title":"泰廊","lon":"121.46409","lat":"31.2338","category":"99","category_name":"泰国／越南菜品餐厅","address":"静安区大田路127号(近北京西路)"},{"poiid":"B2094753D76FAAFA449C","title":"上海滩国泰旗舰店","lon":"121.466011","lat":"31.216125","category":"249","category_name":"购物服务","address":"淮海中路868号"},{"poiid":"B209475CD564A7F84292","title":"上海滩新天地店","lon":"121.47463","lat":"31.22164","category":"119","category_name":"商场","address":"\"太仓路181弄新天地北里15号\r\n\""},{"poiid":"B209475CD564A7F8439E","title":"上海滩中信泰富店","lon":"121.45602","lat":"31.22851","category":"119","category_name":"商场","address":"\"南京西路1168号中信泰富广场，店铺号221.\r\n\""},{"poiid":"B2094757D06FA2FB409C","title":"东来顺饭庄(石门二路店)","lon":"121.46076","lat":"31.23391","category":"86","category_name":"火锅店","address":"静安区石门二路215号(近新闸路)"},{"poiid":"B2094757D06FAAFD409D","title":"中创大厦","lon":"121.467","lat":"31.2364","category":"46","category_name":"楼宇","address":"上海静安区南京西路819号"},{"poiid":"B2094654DA6CA5F4489D","title":"凯迪克大厦","lon":"121.461","lat":"31.2377","category":"46","category_name":"楼宇","address":"上海市静安区江宁路212号"},{"poiid":"B2094655D26BA3F94698","title":"丰收日(石门二路店)","lon":"121.46052","lat":"31.23564","category":"75","category_name":"浙江菜","address":"静安区石门二路268号(近新闸路)"},{"poiid":"B2094757D069A5FD439F","title":"新闸路成都北路","lon":"121.464829","lat":"31.237632","category":"500","category_name":"未知分类","address":"上海新闸路成都北路"},{"poiid":"B2094757D06FA1F84192","title":"现代建筑设计大厦","lon":"121.460772","lat":"31.235274","category":"46","category_name":"楼宇","address":"上海市静安区石门二路258号"},{"poiid":"B2094751DA69A6FB499A","title":"王品  仙乐斯广场","lon":"121.465452","lat":"31.233329","category":"247","category_name":"餐饮美食","address":"南京西路338号"},{"poiid":"B2094750DB6CA1F8439B","title":"人民公园","lon":"121.466559","lat":"31.233402","category":"196","category_name":"公园","address":"黄浦区南京西路75号人民公园内(近黄陂北路)"},{"poiid":"B2094757D06FAAFA489D","title":"新闸路石门二路","lon":"121.46029061","lat":"31.236030374","category":"500","category_name":"未知分类","address":"上海新闸路慈溪路"},{"poiid":"B2094757D06FA5FD499F","title":"富春小笼(新闸路店)","lon":"121.463359","lat":"31.237918","category":"68","category_name":"快餐厅","address":"静安区新闸路557号(近成都北路)"},{"poiid":"B2094757D069A2FD489B","title":"北京西路 成都北路 路口","lon":"121.46540683","lat":"31.236365878","category":"500","category_name":"未知分类","address":"上海北京西路 成都北路 路口"},{"poiid":"B2094757D06FAAF8499A","title":"嘉发大厦","lon":"121.4627151","lat":"31.23285293","category":"46","category_name":"楼宇","address":"新华都商务花园位于长宁定西路685号"},{"poiid":"B2094757D068A2F8429D","title":"新城大厦","lon":"121.461","lat":"31.2369","category":"46","category_name":"楼宇","address":"上海市普陀区中山北路1777号"},{"poiid":"B2094654DB65A2FC409D","title":"静安新时代大厦","lon":"121.467","lat":"31.2366","category":"46","category_name":"楼宇","address":"南京西路881号(吴江路188)"},{"poiid":"B2094751D56FA4F4419B","title":"木有鸭梨餐吧","lon":"121.4664323","lat":"31.2333259","category":"247","category_name":"餐饮美食","address":"南京西路456号4楼"},{"poiid":"B2094752D069A5FA4393","title":"上海国际时尚中心","lon":"121.465475","lat":"31.233833","category":"249","category_name":"购物服务","address":"上海市杨树浦路2866号"},{"poiid":"B2094752D669A5F9469E","title":"上海理工大学","lon":"121.462265","lat":"31.236358","category":"500","category_name":"未知分类","address":"军工路580号"},{"poiid":"B2094757D769A4F54993","title":"云曦小吃","lon":"121.463874054","lat":"31.236463793","category":"68","category_name":"快餐厅","address":"静安区山海关路296号(近成都北路)"},{"poiid":"B2094757D06FA0FA4992","title":"上海壹街区","lon":"121.465136","lat":"31.232562","category":"47","category_name":"住宅区","address":"静安区凤阳路588弄"},{"poiid":"B2094757D06AA0FC4793","title":"银发大厦","lon":"121.461","lat":"31.2364","category":"46","category_name":"楼宇","address":"铁西卫工南街8―5号"},{"poiid":"B2094654DA6CA1FF409D","title":"泰兴大楼","lon":"121.4651741425","lat":"31.236332098585","category":"46","category_name":"楼宇","address":"南京西路934号"},{"poiid":"B2094757D66CA0FF4199","title":"成都北路","lon":"121.465531738","lat":"31.2359084211","category":"500","category_name":"未知分类","address":"上海市黄浦区"},{"poiid":"B2094654DA6FAAF5489C","title":"中华保险华盛大厦","lon":"121.46685","lat":"31.23415","category":"46","category_name":"楼宇","address":"成都北路600"},{"poiid":"B2094753D66CA0FC489E","title":"静安雕塑公园","lon":"121.46373","lat":"31.236572","category":"500","category_name":"未知分类","address":"上海市 成都北路"},{"poiid":"B2094752D06FA4FA499D","title":"MOCA ON THE PARK","lon":"121.465445","lat":"31.233023","category":"247","category_name":"餐饮美食","address":"南京西路231号人民公园内上海当代艺术馆3楼"},{"poiid":"B2094654DA6CA4FA4692","title":"石门二路街道社区卫生服务中心","lon":"121.46137","lat":"31.23516","category":"162","category_name":"医院","address":"山海关路456"},{"poiid":"B2094757D56CA1F9469C","title":"福建千里香馄饨 新昌路","lon":"121.46381091419","lat":"31.23681111971","category":"247","category_name":"餐饮美食","address":"黄浦区新昌路285号(近北京西路)"},{"poiid":"B2094655D36CA5FF4193","title":"成都北路新闸路","lon":"121.46451","lat":"31.23745","category":"38","category_name":"公交车站","address":""},{"poiid":"B2094757DA68A1F84099","title":"Starbucks","lon":"121.4661986","lat":"31.2337571","category":"247","category_name":"餐饮美食","address":"People square"},{"poiid":"B2094654DA6CA4FA4799","title":"上海市育才初级中学","lon":"121.46126","lat":"31.23472","category":"55","category_name":"中学","address":"静安区山海关路445号(近石门二路)"},{"poiid":"B2094757D16AA6F84193","title":"地铁一号线衡山路","lon":"121.461844738","lat":"31.2327313534","category":"500","category_name":"未知分类","address":"上海市静安区泰兴路"},{"poiid":"B2094757D16FA4FA449C","title":"泰兴路624弄","lon":"121.463604744","lat":"31.2356849159","category":"500","category_name":"未知分类","address":"上海泰兴路624弄"},{"poiid":"B2094757D06AA4F8419F","title":"达安城","lon":"121.46119","lat":"31.236032","category":"47","category_name":"住宅区","address":"上海市静安区新闸路777号"},{"poiid":"B2094655D26AA0F94892","title":"地铁自然博物馆站","lon":"121.46272","lat":"31.23671","category":"36","category_name":"地铁站","address":""},{"poiid":"B2094752DA6CAAFC499F","title":"上海杨浦区平凉路","lon":"121.464459","lat":"31.23643","category":"500","category_name":"未知分类","address":null},{"poiid":"B2094752D16FA0FC4599","title":"查餐厅（永新坊店）","lon":"121.462529","lat":"31.236522","category":"247","category_name":"餐饮美食","address":"徐汇区天钥桥路131号永新坊B1楼18号"},{"poiid":"B209475CD469A1F4479C","title":"上海外滩","lon":"121.465995","lat":"31.236091","category":"500","category_name":"未知分类","address":"上海市 上海外滩"},{"poiid":"B2094757D068A0F4469E","title":"韩膳宫","lon":"121.4661986","lat":"31.2337571","category":"46","category_name":"楼宇","address":"上海静安区成都北路333号"},{"poiid":"B2094752D468A1FF4792","title":"安图医院","lon":"121.462212","lat":"31.2352","category":"162","category_name":"医院","address":"延吉东路200号"},{"poiid":"B2094757D16FA6FC429F","title":"华敏帝豪大厦","lon":"121.46263229209","lat":"31.237223293038","category":"500","category_name":"未知分类","address":"上海市杨浦区国泰路11号"},{"poiid":"B2094757D064A7FA499D","title":"上海电视台17楼东方卫视","lon":"121.46445823","lat":"31.232827705","category":"500","category_name":"未知分类","address":"上海威海路298号"},{"poiid":"B2094757D165A3F5439E","title":"中国劳动组合书记部旧址陈列馆","lon":"121.4645","lat":"31.23753","category":"182","category_name":"博物馆","address":"静安区成都北路893弄3-7号(成都北路新闸路)"},{"poiid":"B2094757D169A3FC469B","title":"吉藏日本料理","lon":"121.461995738","lat":"31.2331023613","category":"500","category_name":"未知分类","address":"上海静安区石门二路19号(近南京西路)"},{"poiid":"B2094753D265A3FB439B","title":"上海JW万豪酒店","lon":"121.463323","lat":"31.23481","category":"500","category_name":"未知分类","address":"上海市 上海黄浦区南京西路399号"},{"poiid":"B2094654DA6CA1FF4493","title":"中信泰富广场","lon":"121.462","lat":"31.2349","category":"119","category_name":"商场","address":"静安区南京西路1168号中信泰富广场内(近陕西北路)"},{"poiid":"B2094655D26CAAFF4992","title":"静安别墅","lon":"121.464","lat":"31.2349","category":"47","category_name":"住宅区","address":"静安区南京西路1025弄静安别墅81号(近茂名北路)"},{"poiid":"B2094757D06FA3F4449B","title":"泰廊","lon":"121.46409","lat":"31.2338","category":"99","category_name":"泰国／越南菜品餐厅","address":"静安区大田路127号(近北京西路)"},{"poiid":"B2094753D76FAAFA449C","title":"上海滩国泰旗舰店","lon":"121.466011","lat":"31.216125","category":"249","category_name":"购物服务","address":"淮海中路868号"},{"poiid":"B209475CD564A7F84292","title":"上海滩新天地店","lon":"121.47463","lat":"31.22164","category":"119","category_name":"商场","address":"\"太仓路181弄新天地北里15号\r\n\""},{"poiid":"B209475CD564A7F8439E","title":"上海滩中信泰富店","lon":"121.45602","lat":"31.22851","category":"119","category_name":"商场","address":"\"南京西路1168号中信泰富广场，店铺号221.\r\n\""},{"poiid":"B2094757D06FA2FB409C","title":"东来顺饭庄(石门二路店)","lon":"121.46076","lat":"31.23391","category":"86","category_name":"火锅店","address":"静安区石门二路215号(近新闸路)"},{"poiid":"B2094757D06FAAFD409D","title":"中创大厦","lon":"121.467","lat":"31.2364","category":"46","category_name":"楼宇","address":"上海静安区南京西路819号"},{"poiid":"B2094654DA6CA5F4489D","title":"凯迪克大厦","lon":"121.461","lat":"31.2377","category":"46","category_name":"楼宇","address":"上海市静安区江宁路212号"},{"poiid":"B2094655D26BA3F94698","title":"丰收日(石门二路店)","lon":"121.46052","lat":"31.23564","category":"75","category_name":"浙江菜","address":"静安区石门二路268号(近新闸路)"},{"poiid":"B2094757D069A5FD439F","title":"新闸路成都北路","lon":"121.464829","lat":"31.237632","category":"500","category_name":"未知分类","address":"上海新闸路成都北路"},{"poiid":"B2094757D06FA1F84192","title":"现代建筑设计大厦","lon":"121.460772","lat":"31.235274","category":"46","category_name":"楼宇","address":"上海市静安区石门二路258号"},{"poiid":"B2094751DA69A6FB499A","title":"王品  仙乐斯广场","lon":"121.465452","lat":"31.233329","category":"247","category_name":"餐饮美食","address":"南京西路338号"},{"poiid":"B2094750DB6CA1F8439B","title":"人民公园","lon":"121.466559","lat":"31.233402","category":"196","category_name":"公园","address":"黄浦区南京西路75号人民公园内(近黄陂北路)"},{"poiid":"B2094757D06FAAFA489D","title":"新闸路石门二路","lon":"121.46029061","lat":"31.236030374","category":"500","category_name":"未知分类","address":"上海新闸路慈溪路"},{"poiid":"B2094757D06FA5FD499F","title":"富春小笼(新闸路店)","lon":"121.463359","lat":"31.237918","category":"68","category_name":"快餐厅","address":"静安区新闸路557号(近成都北路)"},{"poiid":"B2094757D069A2FD489B","title":"北京西路 成都北路 路口","lon":"121.46540683","lat":"31.236365878","category":"500","category_name":"未知分类","address":"上海北京西路 成都北路 路口"},{"poiid":"B2094757D06FAAF8499A","title":"嘉发大厦","lon":"121.4627151","lat":"31.23285293","category":"46","category_name":"楼宇","address":"新华都商务花园位于长宁定西路685号"},{"poiid":"B2094757D068A2F8429D","title":"新城大厦","lon":"121.461","lat":"31.2369","category":"46","category_name":"楼宇","address":"上海市普陀区中山北路1777号"},{"poiid":"B2094654DB65A2FC409D","title":"静安新时代大厦","lon":"121.467","lat":"31.2366","category":"46","category_name":"楼宇","address":"南京西路881号(吴江路188)"},{"poiid":"B2094751D56FA4F4419B","title":"木有鸭梨餐吧","lon":"121.4664323","lat":"31.2333259","category":"247","category_name":"餐饮美食","address":"南京西路456号4楼"},{"poiid":"B2094752D069A5FA4393","title":"上海国际时尚中心","lon":"121.465475","lat":"31.233833","category":"249","category_name":"购物服务","address":"上海市杨树浦路2866号"},{"poiid":"B2094752D669A5F9469E","title":"上海理工大学","lon":"121.462265","lat":"31.236358","category":"500","category_name":"未知分类","address":"军工路580号"},{"poiid":"B2094757D769A4F54993","title":"云曦小吃","lon":"121.463874054","lat":"31.236463793","category":"68","category_name":"快餐厅","address":"静安区山海关路296号(近成都北路)"},{"poiid":"B2094757D06FA0FA4992","title":"上海壹街区","lon":"121.465136","lat":"31.232562","category":"47","category_name":"住宅区","address":"静安区凤阳路588弄"},{"poiid":"B2094757D06AA0FC4793","title":"银发大厦","lon":"121.461","lat":"31.2364","category":"46","category_name":"楼宇","address":"铁西卫工南街8―5号"},{"poiid":"B2094654DA6CA1FF409D","title":"泰兴大楼","lon":"121.4651741425","lat":"31.236332098585","category":"46","category_name":"楼宇","address":"南京西路934号"},{"poiid":"B2094757D66CA0FF4199","title":"成都北路","lon":"121.465531738","lat":"31.2359084211","category":"500","category_name":"未知分类","address":"上海市黄浦区"},{"poiid":"B2094654DA6FAAF5489C","title":"中华保险华盛大厦","lon":"121.46685","lat":"31.23415","category":"46","category_name":"楼宇","address":"成都北路600"},{"poiid":"B2094753D66CA0FC489E","title":"静安雕塑公园","lon":"121.46373","lat":"31.236572","category":"500","category_name":"未知分类","address":"上海市 成都北路"},{"poiid":"B2094752D06FA4FA499D","title":"MOCA ON THE PARK","lon":"121.465445","lat":"31.233023","category":"247","category_name":"餐饮美食","address":"南京西路231号人民公园内上海当代艺术馆3楼"},{"poiid":"B2094654DA6CA4FA4692","title":"石门二路街道社区卫生服务中心","lon":"121.46137","lat":"31.23516","category":"162","category_name":"医院","address":"山海关路456"},{"poiid":"B2094757D56CA1F9469C","title":"福建千里香馄饨 新昌路","lon":"121.46381091419","lat":"31.23681111971","category":"247","category_name":"餐饮美食","address":"黄浦区新昌路285号(近北京西路)"},{"poiid":"B2094655D36CA5FF4193","title":"成都北路新闸路","lon":"121.46451","lat":"31.23745","category":"38","category_name":"公交车站","address":""},{"poiid":"B2094757DA68A1F84099","title":"Starbucks","lon":"121.4661986","lat":"31.2337571","category":"247","category_name":"餐饮美食","address":"People square"},{"poiid":"B2094654DA6CA4FA4799","title":"上海市育才初级中学","lon":"121.46126","lat":"31.23472","category":"55","category_name":"中学","address":"静安区山海关路445号(近石门二路)"},{"poiid":"B2094757D16AA6F84193","title":"地铁一号线衡山路","lon":"121.461844738","lat":"31.2327313534","category":"500","category_name":"未知分类","address":"上海市静安区泰兴路"},{"poiid":"B2094757D16FA4FA449C","title":"泰兴路624弄","lon":"121.463604744","lat":"31.2356849159","category":"500","category_name":"未知分类","address":"上海泰兴路624弄"},{"poiid":"B2094757D06AA4F8419F","title":"达安城","lon":"121.46119","lat":"31.236032","category":"47","category_name":"住宅区","address":"上海市静安区新闸路777号"},{"poiid":"B2094655D26AA0F94892","title":"地铁自然博物馆站","lon":"121.46272","lat":"31.23671","category":"36","category_name":"地铁站","address":""},{"poiid":"B2094752DA6CAAFC499F","title":"上海杨浦区平凉路","lon":"121.464459","lat":"31.23643","category":"500","category_name":"未知分类","address":null},{"poiid":"B2094752D16FA0FC4599","title":"查餐厅（永新坊店）","lon":"121.462529","lat":"31.236522","category":"247","category_name":"餐饮美食","address":"徐汇区天钥桥路131号永新坊B1楼18号"},{"poiid":"B209475CD469A1F4479C","title":"上海外滩","lon":"121.465995","lat":"31.236091","category":"500","category_name":"未知分类","address":"上海市 上海外滩"},{"poiid":"B2094757D068A0F4469E","title":"韩膳宫","lon":"121.4661986","lat":"31.2337571","category":"46","category_name":"楼宇","address":"上海静安区成都北路333号"},{"poiid":"B2094752D468A1FF4792","title":"安图医院","lon":"121.462212","lat":"31.2352","category":"162","category_name":"医院","address":"延吉东路200号"},{"poiid":"B2094757D16FA6FC429F","title":"华敏帝豪大厦","lon":"121.46263229209","lat":"31.237223293038","category":"500","category_name":"未知分类","address":"上海市杨浦区国泰路11号"},{"poiid":"B2094757D064A7FA499D","title":"上海电视台17楼东方卫视","lon":"121.46445823","lat":"31.232827705","category":"500","category_name":"未知分类","address":"上海威海路298号"},{"poiid":"B2094757D165A3F5439E","title":"中国劳动组合书记部旧址陈列馆","lon":"121.4645","lat":"31.23753","category":"182","category_name":"博物馆","address":"静安区成都北路893弄3-7号(成都北路新闸路)"},{"poiid":"B2094757D169A3FC469B","title":"吉藏日本料理","lon":"121.461995738","lat":"31.2331023613","category":"500","category_name":"未知分类","address":"上海静安区石门二路19号(近南京西路)"},{"poiid":"B2094753D265A3FB439B","title":"上海JW万豪酒店","lon":"121.463323","lat":"31.23481","category":"500","category_name":"未知分类","address":"上海市 上海黄浦区南京西路399号"},{"poiid":"B2094654DA6CA1FF4493","title":"中信泰富广场","lon":"121.462","lat":"31.2349","category":"119","category_name":"商场","address":"静安区南京西路1168号中信泰富广场内(近陕西北路)"},{"poiid":"B2094655D26CAAFF4992","title":"静安别墅","lon":"121.464","lat":"31.2349","category":"47","category_name":"住宅区","address":"静安区南京西路1025弄静安别墅81号(近茂名北路)"},{"poiid":"B2094757D06FA3F4449B","title":"泰廊","lon":"121.46409","lat":"31.2338","category":"99","category_name":"泰国／越南菜品餐厅","address":"静安区大田路127号(近北京西路)"},{"poiid":"B2094753D76FAAFA449C","title":"上海滩国泰旗舰店","lon":"121.466011","lat":"31.216125","category":"249","category_name":"购物服务","address":"淮海中路868号"},{"poiid":"B209475CD564A7F84292","title":"上海滩新天地店","lon":"121.47463","lat":"31.22164","category":"119","category_name":"商场","address":"\"太仓路181弄新天地北里15号\r\n\""},{"poiid":"B209475CD564A7F8439E","title":"上海滩中信泰富店","lon":"121.45602","lat":"31.22851","category":"119","category_name":"商场","address":"\"南京西路1168号中信泰富广场，店铺号221.\r\n\""},{"poiid":"B2094757D06FA2FB409C","title":"东来顺饭庄(石门二路店)","lon":"121.46076","lat":"31.23391","category":"86","category_name":"火锅店","address":"静安区石门二路215号(近新闸路)"},{"poiid":"B2094757D06FAAFD409D","title":"中创大厦","lon":"121.467","lat":"31.2364","category":"46","category_name":"楼宇","address":"上海静安区南京西路819号"},{"poiid":"B2094654DA6CA5F4489D","title":"凯迪克大厦","lon":"121.461","lat":"31.2377","category":"46","category_name":"楼宇","address":"上海市静安区江宁路212号"},{"poiid":"B2094655D26BA3F94698","title":"丰收日(石门二路店)","lon":"121.46052","lat":"31.23564","category":"75","category_name":"浙江菜","address":"静安区石门二路268号(近新闸路)"},{"poiid":"B2094757D069A5FD439F","title":"新闸路成都北路","lon":"121.464829","lat":"31.237632","category":"500","category_name":"未知分类","address":"上海新闸路成都北路"},{"poiid":"B2094757D06FA1F84192","title":"现代建筑设计大厦","lon":"121.460772","lat":"31.235274","category":"46","category_name":"楼宇","address":"上海市静安区石门二路258号"},{"poiid":"B2094751DA69A6FB499A","title":"王品  仙乐斯广场","lon":"121.465452","lat":"31.233329","category":"247","category_name":"餐饮美食","address":"南京西路338号"},{"poiid":"B2094750DB6CA1F8439B","title":"人民公园","lon":"121.466559","lat":"31.233402","category":"196","category_name":"公园","address":"黄浦区南京西路75号人民公园内(近黄陂北路)"},{"poiid":"B2094757D06FAAFA489D","title":"新闸路石门二路","lon":"121.46029061","lat":"31.236030374","category":"500","category_name":"未知分类","address":"上海新闸路慈溪路"},{"poiid":"B2094757D06FA5FD499F","title":"富春小笼(新闸路店)","lon":"121.463359","lat":"31.237918","category":"68","category_name":"快餐厅","address":"静安区新闸路557号(近成都北路)"},{"poiid":"B2094757D069A2FD489B","title":"北京西路 成都北路 路口","lon":"121.46540683","lat":"31.236365878","category":"500","category_name":"未知分类","address":"上海北京西路 成都北路 路口"},{"poiid":"B2094757D06FAAF8499A","title":"嘉发大厦","lon":"121.4627151","lat":"31.23285293","category":"46","category_name":"楼宇","address":"新华都商务花园位于长宁定西路685号"},{"poiid":"B2094757D068A2F8429D","title":"新城大厦","lon":"121.461","lat":"31.2369","category":"46","category_name":"楼宇","address":"上海市普陀区中山北路1777号"},{"poiid":"B2094654DB65A2FC409D","title":"静安新时代大厦","lon":"121.467","lat":"31.2366","category":"46","category_name":"楼宇","address":"南京西路881号(吴江路188)"},{"poiid":"B2094751D56FA4F4419B","title":"木有鸭梨餐吧","lon":"121.4664323","lat":"31.2333259","category":"247","category_name":"餐饮美食","address":"南京西路456号4楼"},{"poiid":"B2094752D069A5FA4393","title":"上海国际时尚中心","lon":"121.465475","lat":"31.233833","category":"249","category_name":"购物服务","address":"上海市杨树浦路2866号"},{"poiid":"B2094752D669A5F9469E","title":"上海理工大学","lon":"121.462265","lat":"31.236358","category":"500","category_name":"未知分类","address":"军工路580号"},{"poiid":"B2094757D769A4F54993","title":"云曦小吃","lon":"121.463874054","lat":"31.236463793","category":"68","category_name":"快餐厅","address":"静安区山海关路296号(近成都北路)"},{"poiid":"B2094757D06FA0FA4992","title":"上海壹街区","lon":"121.465136","lat":"31.232562","category":"47","category_name":"住宅区","address":"静安区凤阳路588弄"},{"poiid":"B2094757D06AA0FC4793","title":"银发大厦","lon":"121.461","lat":"31.2364","category":"46","category_name":"楼宇","address":"铁西卫工南街8―5号"},{"poiid":"B2094654DA6CA1FF409D","title":"泰兴大楼","lon":"121.4651741425","lat":"31.236332098585","category":"46","category_name":"楼宇","address":"南京西路934号"},{"poiid":"B2094757D66CA0FF4199","title":"成都北路","lon":"121.465531738","lat":"31.2359084211","category":"500","category_name":"未知分类","address":"上海市黄浦区"},{"poiid":"B2094654DA6FAAF5489C","title":"中华保险华盛大厦","lon":"121.46685","lat":"31.23415","category":"46","category_name":"楼宇","address":"成都北路600"},{"poiid":"B2094753D66CA0FC489E","title":"静安雕塑公园","lon":"121.46373","lat":"31.236572","category":"500","category_name":"未知分类","address":"上海市 成都北路"},{"poiid":"B2094752D06FA4FA499D","title":"MOCA ON THE PARK","lon":"121.465445","lat":"31.233023","category":"247","category_name":"餐饮美食","address":"南京西路231号人民公园内上海当代艺术馆3楼"},{"poiid":"B2094654DA6CA4FA4692","title":"石门二路街道社区卫生服务中心","lon":"121.46137","lat":"31.23516","category":"162","category_name":"医院","address":"山海关路456"},{"poiid":"B2094757D56CA1F9469C","title":"福建千里香馄饨 新昌路","lon":"121.46381091419","lat":"31.23681111971","category":"247","category_name":"餐饮美食","address":"黄浦区新昌路285号(近北京西路)"},{"poiid":"B2094655D36CA5FF4193","title":"成都北路新闸路","lon":"121.46451","lat":"31.23745","category":"38","category_name":"公交车站","address":""},{"poiid":"B2094757DA68A1F84099","title":"Starbucks","lon":"121.4661986","lat":"31.2337571","category":"247","category_name":"餐饮美食","address":"People square"},{"poiid":"B2094654DA6CA4FA4799","title":"上海市育才初级中学","lon":"121.46126","lat":"31.23472","category":"55","category_name":"中学","address":"静安区山海关路445号(近石门二路)"},{"poiid":"B2094757D16AA6F84193","title":"地铁一号线衡山路","lon":"121.461844738","lat":"31.2327313534","category":"500","category_name":"未知分类","address":"上海市静安区泰兴路"},{"poiid":"B2094757D16FA4FA449C","title":"泰兴路624弄","lon":"121.463604744","lat":"31.2356849159","category":"500","category_name":"未知分类","address":"上海泰兴路624弄"},{"poiid":"B2094757D06AA4F8419F","title":"达安城","lon":"121.46119","lat":"31.236032","category":"47","category_name":"住宅区","address":"上海市静安区新闸路777号"},{"poiid":"B2094655D26AA0F94892","title":"地铁自然博物馆站","lon":"121.46272","lat":"31.23671","category":"36","category_name":"地铁站","address":""},{"poiid":"B2094752DA6CAAFC499F","title":"上海杨浦区平凉路","lon":"121.464459","lat":"31.23643","category":"500","category_name":"未知分类","address":null},{"poiid":"B2094752D16FA0FC4599","title":"查餐厅（永新坊店）","lon":"121.462529","lat":"31.236522","category":"247","category_name":"餐饮美食","address":"徐汇区天钥桥路131号永新坊B1楼18号"},{"poiid":"B209475CD469A1F4479C","title":"上海外滩","lon":"121.465995","lat":"31.236091","category":"500","category_name":"未知分类","address":"上海市 上海外滩"},{"poiid":"B2094757D068A0F4469E","title":"韩膳宫","lon":"121.4661986","lat":"31.2337571","category":"46","category_name":"楼宇","address":"上海静安区成都北路333号"},{"poiid":"B2094752D468A1FF4792","title":"安图医院","lon":"121.462212","lat":"31.2352","category":"162","category_name":"医院","address":"延吉东路200号"},{"poiid":"B2094757D16FA6FC429F","title":"华敏帝豪大厦","lon":"121.46263229209","lat":"31.237223293038","category":"500","category_name":"未知分类","address":"上海市杨浦区国泰路11号"},{"poiid":"B2094757D064A7FA499D","title":"上海电视台17楼东方卫视","lon":"121.46445823","lat":"31.232827705","category":"500","category_name":"未知分类","address":"上海威海路298号"},{"poiid":"B2094757D165A3F5439E","title":"中国劳动组合书记部旧址陈列馆","lon":"121.4645","lat":"31.23753","category":"182","category_name":"博物馆","address":"静安区成都北路893弄3-7号(成都北路新闸路)"},{"poiid":"B2094757D169A3FC469B","title":"吉藏日本料理","lon":"121.461995738","lat":"31.2331023613","category":"500","category_name":"未知分类","address":"上海静安区石门二路19号(近南京西路)"},{"poiid":"B2094753D265A3FB439B","title":"上海JW万豪酒店","lon":"121.463323","lat":"31.23481","category":"500","category_name":"未知分类","address":"上海市 上海黄浦区南京西路399号"},{"poiid":"B2094654DA6CA1FF4493","title":"中信泰富广场","lon":"121.462","lat":"31.2349","category":"119","category_name":"商场","address":"静安区南京西路1168号中信泰富广场内(近陕西北路)"},{"poiid":"B2094655D26CAAFF4992","title":"静安别墅","lon":"121.464","lat":"31.2349","category":"47","category_name":"住宅区","address":"静安区南京西路1025弄静安别墅81号(近茂名北路)"},{"poiid":"B2094757D06FA3F4449B","title":"泰廊","lon":"121.46409","lat":"31.2338","category":"99","category_name":"泰国／越南菜品餐厅","address":"静安区大田路127号(近北京西路)"},{"poiid":"B2094753D76FAAFA449C","title":"上海滩国泰旗舰店","lon":"121.466011","lat":"31.216125","category":"249","category_name":"购物服务","address":"淮海中路868号"},{"poiid":"B209475CD564A7F84292","title":"上海滩新天地店","lon":"121.47463","lat":"31.22164","category":"119","category_name":"商场","address":"\"太仓路181弄新天地北里15号\r\n\""},{"poiid":"B209475CD564A7F8439E","title":"上海滩中信泰富店","lon":"121.45602","lat":"31.22851","category":"119","category_name":"商场","address":"\"南京西路1168号中信泰富广场，店铺号221.\r\n\""},{"poiid":"B2094757D06FA2FB409C","title":"东来顺饭庄(石门二路店)","lon":"121.46076","lat":"31.23391","category":"86","category_name":"火锅店","address":"静安区石门二路215号(近新闸路)"},{"poiid":"B2094757D06FAAFD409D","title":"中创大厦","lon":"121.467","lat":"31.2364","category":"46","category_name":"楼宇","address":"上海静安区南京西路819号"},{"poiid":"B2094654DA6CA5F4489D","title":"凯迪克大厦","lon":"121.461","lat":"31.2377","category":"46","category_name":"楼宇","address":"上海市静安区江宁路212号"},{"poiid":"B2094655D26BA3F94698","title":"丰收日(石门二路店)","lon":"121.46052","lat":"31.23564","category":"75","category_name":"浙江菜","address":"静安区石门二路268号(近新闸路)"},{"poiid":"B2094757D069A5FD439F","title":"新闸路成都北路","lon":"121.464829","lat":"31.237632","category":"500","category_name":"未知分类","address":"上海新闸路成都北路"},{"poiid":"B2094757D06FA1F84192","title":"现代建筑设计大厦","lon":"121.460772","lat":"31.235274","category":"46","category_name":"楼宇","address":"上海市静安区石门二路258号"},{"poiid":"B2094751DA69A6FB499A","title":"王品  仙乐斯广场","lon":"121.465452","lat":"31.233329","category":"247","category_name":"餐饮美食","address":"南京西路338号"},{"poiid":"B2094750DB6CA1F8439B","title":"人民公园","lon":"121.466559","lat":"31.233402","category":"196","category_name":"公园","address":"黄浦区南京西路75号人民公园内(近黄陂北路)"},{"poiid":"B2094757D06FAAFA489D","title":"新闸路石门二路","lon":"121.46029061","lat":"31.236030374","category":"500","category_name":"未知分类","address":"上海新闸路慈溪路"},{"poiid":"B2094757D06FA5FD499F","title":"富春小笼(新闸路店)","lon":"121.463359","lat":"31.237918","category":"68","category_name":"快餐厅","address":"静安区新闸路557号(近成都北路)"},{"poiid":"B2094757D069A2FD489B","title":"北京西路 成都北路 路口","lon":"121.46540683","lat":"31.236365878","category":"500","category_name":"未知分类","address":"上海北京西路 成都北路 路口"},{"poiid":"B2094757D06FAAF8499A","title":"嘉发大厦","lon":"121.4627151","lat":"31.23285293","category":"46","category_name":"楼宇","address":"新华都商务花园位于长宁定西路685号"},{"poiid":"B2094757D068A2F8429D","title":"新城大厦","lon":"121.461","lat":"31.2369","category":"46","category_name":"楼宇","address":"上海市普陀区中山北路1777号"},{"poiid":"B2094654DB65A2FC409D","title":"静安新时代大厦","lon":"121.467","lat":"31.2366","category":"46","category_name":"楼宇","address":"南京西路881号(吴江路188)"},{"poiid":"B2094751D56FA4F4419B","title":"木有鸭梨餐吧","lon":"121.4664323","lat":"31.2333259","category":"247","category_name":"餐饮美食","address":"南京西路456号4楼"},{"poiid":"B2094752D069A5FA4393","title":"上海国际时尚中心","lon":"121.465475","lat":"31.233833","category":"249","category_name":"购物服务","address":"上海市杨树浦路2866号"},{"poiid":"B2094752D669A5F9469E","title":"上海理工大学","lon":"121.462265","lat":"31.236358","category":"500","category_name":"未知分类","address":"军工路580号"},{"poiid":"B2094757D769A4F54993","title":"云曦小吃","lon":"121.463874054","lat":"31.236463793","category":"68","category_name":"快餐厅","address":"静安区山海关路296号(近成都北路)"},{"poiid":"B2094757D06FA0FA4992","title":"上海壹街区","lon":"121.465136","lat":"31.232562","category":"47","category_name":"住宅区","address":"静安区凤阳路588弄"},{"poiid":"B2094757D06AA0FC4793","title":"银发大厦","lon":"121.461","lat":"31.2364","category":"46","category_name":"楼宇","address":"铁西卫工南街8―5号"},{"poiid":"B2094654DA6CA1FF409D","title":"泰兴大楼","lon":"121.4651741425","lat":"31.236332098585","category":"46","category_name":"楼宇","address":"南京西路934号"},{"poiid":"B2094757D66CA0FF4199","title":"成都北路","lon":"121.465531738","lat":"31.2359084211","category":"500","category_name":"未知分类","address":"上海市黄浦区"},{"poiid":"B2094654DA6FAAF5489C","title":"中华保险华盛大厦","lon":"121.46685","lat":"31.23415","category":"46","category_name":"楼宇","address":"成都北路600"},{"poiid":"B2094753D66CA0FC489E","title":"静安雕塑公园","lon":"121.46373","lat":"31.236572","category":"500","category_name":"未知分类","address":"上海市 成都北路"},{"poiid":"B2094752D06FA4FA499D","title":"MOCA ON THE PARK","lon":"121.465445","lat":"31.233023","category":"247","category_name":"餐饮美食","address":"南京西路231号人民公园内上海当代艺术馆3楼"},{"poiid":"B2094654DA6CA4FA4692","title":"石门二路街道社区卫生服务中心","lon":"121.46137","lat":"31.23516","category":"162","category_name":"医院","address":"山海关路456"},{"poiid":"B2094757D56CA1F9469C","title":"福建千里香馄饨 新昌路","lon":"121.46381091419","lat":"31.23681111971","category":"247","category_name":"餐饮美食","address":"黄浦区新昌路285号(近北京西路)"},{"poiid":"B2094655D36CA5FF4193","title":"成都北路新闸路","lon":"121.46451","lat":"31.23745","category":"38","category_name":"公交车站","address":""},{"poiid":"B2094757DA68A1F84099","title":"Starbucks","lon":"121.4661986","lat":"31.2337571","category":"247","category_name":"餐饮美食","address":"People square"},{"poiid":"B2094654DA6CA4FA4799","title":"上海市育才初级中学","lon":"121.46126","lat":"31.23472","category":"55","category_name":"中学","address":"静安区山海关路445号(近石门二路)"},{"poiid":"B2094757D16AA6F84193","title":"地铁一号线衡山路","lon":"121.461844738","lat":"31.2327313534","category":"500","category_name":"未知分类","address":"上海市静安区泰兴路"},{"poiid":"B2094757D16FA4FA449C","title":"泰兴路624弄","lon":"121.463604744","lat":"31.2356849159","category":"500","category_name":"未知分类","address":"上海泰兴路624弄"},{"poiid":"B2094757D06AA4F8419F","title":"达安城","lon":"121.46119","lat":"31.236032","category":"47","category_name":"住宅区","address":"上海市静安区新闸路777号"},{"poiid":"B2094655D26AA0F94892","title":"地铁自然博物馆站","lon":"121.46272","lat":"31.23671","category":"36","category_name":"地铁站","address":""},{"poiid":"B2094752DA6CAAFC499F","title":"上海杨浦区平凉路","lon":"121.464459","lat":"31.23643","category":"500","category_name":"未知分类","address":null},{"poiid":"B2094752D16FA0FC4599","title":"查餐厅（永新坊店）","lon":"121.462529","lat":"31.236522","category":"247","category_name":"餐饮美食","address":"徐汇区天钥桥路131号永新坊B1楼18号"},{"poiid":"B209475CD469A1F4479C","title":"上海外滩","lon":"121.465995","lat":"31.236091","category":"500","category_name":"未知分类","address":"上海市 上海外滩"},{"poiid":"B2094757D068A0F4469E","title":"韩膳宫","lon":"121.4661986","lat":"31.2337571","category":"46","category_name":"楼宇","address":"上海静安区成都北路333号"},{"poiid":"B2094752D468A1FF4792","title":"安图医院","lon":"121.462212","lat":"31.2352","category":"162","category_name":"医院","address":"延吉东路200号"},{"poiid":"B2094757D16FA6FC429F","title":"华敏帝豪大厦","lon":"121.46263229209","lat":"31.237223293038","category":"500","category_name":"未知分类","address":"上海市杨浦区国泰路11号"},{"poiid":"B2094757D064A7FA499D","title":"上海电视台17楼东方卫视","lon":"121.46445823","lat":"31.232827705","category":"500","category_name":"未知分类","address":"上海威海路298号"},{"poiid":"B2094757D165A3F5439E","title":"中国劳动组合书记部旧址陈列馆","lon":"121.4645","lat":"31.23753","category":"182","category_name":"博物馆","address":"静安区成都北路893弄3-7号(成都北路新闸路)"},{"poiid":"B2094757D169A3FC469B","title":"吉藏日本料理","lon":"121.461995738","lat":"31.2331023613","category":"500","category_name":"未知分类","address":"上海静安区石门二路19号(近南京西路)"},{"poiid":"B2094753D265A3FB439B","title":"上海JW万豪酒店","lon":"121.463323","lat":"31.23481","category":"500","category_name":"未知分类","address":"上海市 上海黄浦区南京西路399号"},{"poiid":"B2094654DA6CA1FF4493","title":"中信泰富广场","lon":"121.462","lat":"31.2349","category":"119","category_name":"商场","address":"静安区南京西路1168号中信泰富广场内(近陕西北路)"},{"poiid":"B2094655D26CAAFF4992","title":"静安别墅","lon":"121.464","lat":"31.2349","category":"47","category_name":"住宅区","address":"静安区南京西路1025弄静安别墅81号(近茂名北路)"},{"poiid":"B2094757D06FA3F4449B","title":"泰廊","lon":"121.46409","lat":"31.2338","category":"99","category_name":"泰国／越南菜品餐厅","address":"静安区大田路127号(近北京西路)"},{"poiid":"B2094753D76FAAFA449C","title":"上海滩国泰旗舰店","lon":"121.466011","lat":"31.216125","category":"249","category_name":"购物服务","address":"淮海中路868号"},{"poiid":"B209475CD564A7F84292","title":"上海滩新天地店","lon":"121.47463","lat":"31.22164","category":"119","category_name":"商场","address":"\"太仓路181弄新天地北里15号\r\n\""},{"poiid":"B209475CD564A7F8439E","title":"上海滩中信泰富店","lon":"121.45602","lat":"31.22851","category":"119","category_name":"商场","address":"\"南京西路1168号中信泰富广场，店铺号221.\r\n\""},{"poiid":"B2094757D06FA2FB409C","title":"东来顺饭庄(石门二路店)","lon":"121.46076","lat":"31.23391","category":"86","category_name":"火锅店","address":"静安区石门二路215号(近新闸路)"},{"poiid":"B2094757D06FAAFD409D","title":"中创大厦","lon":"121.467","lat":"31.2364","category":"46","category_name":"楼宇","address":"上海静安区南京西路819号"},{"poiid":"B2094654DA6CA5F4489D","title":"凯迪克大厦","lon":"121.461","lat":"31.2377","category":"46","category_name":"楼宇","address":"上海市静安区江宁路212号"},{"poiid":"B2094655D26BA3F94698","title":"丰收日(石门二路店)","lon":"121.46052","lat":"31.23564","category":"75","category_name":"浙江菜","address":"静安区石门二路268号(近新闸路)"},{"poiid":"B2094757D069A5FD439F","title":"新闸路成都北路","lon":"121.464829","lat":"31.237632","category":"500","category_name":"未知分类","address":"上海新闸路成都北路"},{"poiid":"B2094757D06FA1F84192","title":"现代建筑设计大厦","lon":"121.460772","lat":"31.235274","category":"46","category_name":"楼宇","address":"上海市静安区石门二路258号"},{"poiid":"B2094751DA69A6FB499A","title":"王品  仙乐斯广场","lon":"121.465452","lat":"31.233329","category":"247","category_name":"餐饮美食","address":"南京西路338号"},{"poiid":"B2094750DB6CA1F8439B","title":"人民公园","lon":"121.466559","lat":"31.233402","category":"196","category_name":"公园","address":"黄浦区南京西路75号人民公园内(近黄陂北路)"},{"poiid":"B2094757D06FAAFA489D","title":"新闸路石门二路","lon":"121.46029061","lat":"31.236030374","category":"500","category_name":"未知分类","address":"上海新闸路慈溪路"},{"poiid":"B2094757D06FA5FD499F","title":"富春小笼(新闸路店)","lon":"121.463359","lat":"31.237918","category":"68","category_name":"快餐厅","address":"静安区新闸路557号(近成都北路)"},{"poiid":"B2094757D069A2FD489B","title":"北京西路 成都北路 路口","lon":"121.46540683","lat":"31.236365878","category":"500","category_name":"未知分类","address":"上海北京西路 成都北路 路口"},{"poiid":"B2094757D06FAAF8499A","title":"嘉发大厦","lon":"121.4627151","lat":"31.23285293","category":"46","category_name":"楼宇","address":"新华都商务花园位于长宁定西路685号"},{"poiid":"B2094757D068A2F8429D","title":"新城大厦","lon":"121.461","lat":"31.2369","category":"46","category_name":"楼宇","address":"上海市普陀区中山北路1777号"},{"poiid":"B2094654DB65A2FC409D","title":"静安新时代大厦","lon":"121.467","lat":"31.2366","category":"46","category_name":"楼宇","address":"南京西路881号(吴江路188)"},{"poiid":"B2094751D56FA4F4419B","title":"木有鸭梨餐吧","lon":"121.4664323","lat":"31.2333259","category":"247","category_name":"餐饮美食","address":"南京西路456号4楼"},{"poiid":"B2094752D069A5FA4393","title":"上海国际时尚中心","lon":"121.465475","lat":"31.233833","category":"249","category_name":"购物服务","address":"上海市杨树浦路2866号"},{"poiid":"B2094752D669A5F9469E","title":"上海理工大学","lon":"121.462265","lat":"31.236358","category":"500","category_name":"未知分类","address":"军工路580号"},{"poiid":"B2094757D769A4F54993","title":"云曦小吃","lon":"121.463874054","lat":"31.236463793","category":"68","category_name":"快餐厅","address":"静安区山海关路296号(近成都北路)"},{"poiid":"B2094757D06FA0FA4992","title":"上海壹街区","lon":"121.465136","lat":"31.232562","category":"47","category_name":"住宅区","address":"静安区凤阳路588弄"},{"poiid":"B2094757D06AA0FC4793","title":"银发大厦","lon":"121.461","lat":"31.2364","category":"46","category_name":"楼宇","address":"铁西卫工南街8―5号"},{"poiid":"B2094654DA6CA1FF409D","title":"泰兴大楼","lon":"121.4651741425","lat":"31.236332098585","category":"46","category_name":"楼宇","address":"南京西路934号"},{"poiid":"B2094757D66CA0FF4199","title":"成都北路","lon":"121.465531738","lat":"31.2359084211","category":"500","category_name":"未知分类","address":"上海市黄浦区"},{"poiid":"B2094654DA6FAAF5489C","title":"中华保险华盛大厦","lon":"121.46685","lat":"31.23415","category":"46","category_name":"楼宇","address":"成都北路600"},{"poiid":"B2094753D66CA0FC489E","title":"静安雕塑公园","lon":"121.46373","lat":"31.236572","category":"500","category_name":"未知分类","address":"上海市 成都北路"},{"poiid":"B2094752D06FA4FA499D","title":"MOCA ON THE PARK","lon":"121.465445","lat":"31.233023","category":"247","category_name":"餐饮美食","address":"南京西路231号人民公园内上海当代艺术馆3楼"},{"poiid":"B2094654DA6CA4FA4692","title":"石门二路街道社区卫生服务中心","lon":"121.46137","lat":"31.23516","category":"162","category_name":"医院","address":"山海关路456"},{"poiid":"B2094757D56CA1F9469C","title":"福建千里香馄饨 新昌路","lon":"121.46381091419","lat":"31.23681111971","category":"247","category_name":"餐饮美食","address":"黄浦区新昌路285号(近北京西路)"},{"poiid":"B2094655D36CA5FF4193","title":"成都北路新闸路","lon":"121.46451","lat":"31.23745","category":"38","category_name":"公交车站","address":""},{"poiid":"B2094757DA68A1F84099","title":"Starbucks","lon":"121.4661986","lat":"31.2337571","category":"247","category_name":"餐饮美食","address":"People square"},{"poiid":"B2094654DA6CA4FA4799","title":"上海市育才初级中学","lon":"121.46126","lat":"31.23472","category":"55","category_name":"中学","address":"静安区山海关路445号(近石门二路)"},{"poiid":"B2094757D16AA6F84193","title":"地铁一号线衡山路","lon":"121.461844738","lat":"31.2327313534","category":"500","category_name":"未知分类","address":"上海市静安区泰兴路"},{"poiid":"B2094757D16FA4FA449C","title":"泰兴路624弄","lon":"121.463604744","lat":"31.2356849159","category":"500","category_name":"未知分类","address":"上海泰兴路624弄"},{"poiid":"B2094757D06AA4F8419F","title":"达安城","lon":"121.46119","lat":"31.236032","category":"47","category_name":"住宅区","address":"上海市静安区新闸路777号"},{"poiid":"B2094655D26AA0F94892","title":"地铁自然博物馆站","lon":"121.46272","lat":"31.23671","category":"36","category_name":"地铁站","address":""},{"poiid":"B2094752DA6CAAFC499F","title":"上海杨浦区平凉路","lon":"121.464459","lat":"31.23643","category":"500","category_name":"未知分类","address":null},{"poiid":"B2094752D16FA0FC4599","title":"查餐厅（永新坊店）","lon":"121.462529","lat":"31.236522","category":"247","category_name":"餐饮美食","address":"徐汇区天钥桥路131号永新坊B1楼18号"},{"poiid":"B209475CD469A1F4479C","title":"上海外滩","lon":"121.465995","lat":"31.236091","category":"500","category_name":"未知分类","address":"上海市 上海外滩"},{"poiid":"B2094757D068A0F4469E","title":"韩膳宫","lon":"121.4661986","lat":"31.2337571","category":"46","category_name":"楼宇","address":"上海静安区成都北路333号"},{"poiid":"B2094752D468A1FF4792","title":"安图医院","lon":"121.462212","lat":"31.2352","category":"162","category_name":"医院","address":"延吉东路200号"},{"poiid":"B2094757D16FA6FC429F","title":"华敏帝豪大厦","lon":"121.46263229209","lat":"31.237223293038","category":"500","category_name":"未知分类","address":"上海市杨浦区国泰路11号"},{"poiid":"B2094757D064A7FA499D","title":"上海电视台17楼东方卫视","lon":"121.46445823","lat":"31.232827705","category":"500","category_name":"未知分类","address":"上海威海路298号"},{"poiid":"B2094757D165A3F5439E","title":"中国劳动组合书记部旧址陈列馆","lon":"121.4645","lat":"31.23753","category":"182","category_name":"博物馆","address":"静安区成都北路893弄3-7号(成都北路新闸路)"},{"poiid":"B2094757D169A3FC469B","title":"吉藏日本料理","lon":"121.461995738","lat":"31.2331023613","category":"500","category_name":"未知分类","address":"上海静安区石门二路19号(近南京西路)"},{"poiid":"B2094753D265A3FB439B","title":"上海JW万豪酒店","lon":"121.463323","lat":"31.23481","category":"500","category_name":"未知分类","address":"上海市 上海黄浦区南京西路399号"}]