[{"poiid":"B2094757D068AAFE489F","title":"复兴西路","lon":"121.443012","lat":"31.208405","category":"46","category_name":"楼宇","address":"上海永福路"},{"poiid":"B2094654D564A4F8409C","title":"小城故事 淮海店 Charmant","lon":"121.44820018243","lat":"31.211774843986","category":"91","category_name":"台湾菜","address":"徐汇区淮海中路1414号1楼(近复兴西路)"},{"poiid":"B2094654D564A4F84498","title":"来福楼火锅餐厅","lon":"121.44783","lat":"31.21063","category":"86","category_name":"火锅店","address":"徐汇区淮海中路1416号2楼(近复兴西路)"},{"poiid":"B2094753D76FAAFA449C","title":"上海滩国泰旗舰店","lon":"121.466011","lat":"31.216125","category":"249","category_name":"购物服务","address":"淮海中路868号"},{"poiid":"B209475CD564A7F84292","title":"上海滩新天地店","lon":"121.47463","lat":"31.22164","category":"119","category_name":"商场","address":"\"太仓路181弄新天地北里15号\r\n\""},{"poiid":"B209475CD564A7F8439E","title":"上海滩中信泰富店","lon":"121.45602","lat":"31.22851","category":"119","category_name":"商场","address":"\"南京西路1168号中信泰富广场，店铺号221.\r\n\""},{"poiid":"B2094654DB65A4F4489E","title":"星巴克(爱美高大厦店)","lon":"121.449713","lat":"31.212659","category":"65","category_name":"咖啡厅","address":"徐汇区淮海中路1325号爱美高大厦1楼103室(近宝庆路)"},{"poiid":"B2094757D06FAAF44599","title":"乾悦阁(Qian Yue Court)","lon":"121.44819358","lat":"31.211111057","category":"72","category_name":"广东菜","address":"上海徐汇区淮海中路1414号2-3楼(近复兴西路)"},{"poiid":"B2094757D06FA1FA409A","title":"一品居热气羊肉馆(乌鲁木齐中路店)","lon":"121.44662","lat":"31.21043","category":"86","category_name":"火锅店","address":"徐汇区乌鲁木齐中路352号(近复兴西路)"},{"poiid":"B2094752D768A2FB409E","title":"鼎王无老锅（上海无老衡山店）","lon":"121.446411","lat":"31.211093","category":"247","category_name":"餐饮美食","address":"上海徐汇区衡山路2号甲(近桃江路)"},{"poiid":"B2094757D068A0FD469D","title":"Bella Napoli(长乐路店)","lon":"121.4457","lat":"31.21567","category":"94","category_name":"西餐厅","address":"徐汇区长乐路946弄4号(近乌鲁木齐中路)"},{"poiid":"B2094757D06FA5FF419B","title":"棉花俱乐部 Cotton Club","lon":"121.44779408","lat":"31.210617415","category":"260","category_name":"其他","address":"徐汇区淮海中路1428号(近复兴西路)"},{"poiid":"B2094757D06FA2F8489B","title":"MT Club(淮海路店)","lon":"121.44947125","lat":"31.211846925","category":"260","category_name":"其他","address":"徐汇区淮海中路1329号云海大厦3楼(近常熟路)"},{"poiid":"B2094757D06FA0F8489B","title":"Enoterra红酒吧(安福路店)","lon":"121.44748","lat":"31.2147","category":"260","category_name":"其他","address":"徐汇区安福路55号(近常熟路)"},{"poiid":"B2094654DB6BA7F5479E","title":"来福小馆","lon":"121.44794","lat":"31.21075","category":"71","category_name":"四川菜","address":"徐汇区淮海中路1416号1楼(近复兴西路)"},{"poiid":"B2094757D068A2F8429B","title":"PHO REAL(复兴中路店)","lon":"121.44892958","lat":"31.210494045","category":"99","category_name":"泰国／越南菜品餐厅","address":"徐汇区复兴中路1465号(近宝庆路)"},{"poiid":"B2094757D068A6FD4198","title":"Spicy Moment","lon":"121.448082","lat":"31.212697","category":"77","category_name":"湖南菜","address":"徐汇区五原路71号(近常熟路)"},{"poiid":"B2094757D06FABFD459E","title":"高丽烧烤","lon":"121.4461","lat":"31.21237","category":"96","category_name":"韩国料理","address":"徐汇区五原路181弄1号(近乌鲁木齐中路)"},{"poiid":"B2094757D16AA4FD409B","title":"虹桥火车站(上海西站)地铁站","lon":"121.449664786","lat":"31.2127608894","category":"36","category_name":"地铁站","address":"上海轨道交通二、十号线虹桥火车站"},{"poiid":"B2094757D064A3FA4792","title":"KOTA'S KITCHEN(永嘉路店)","lon":"121.44951","lat":"31.21128","category":"269","category_name":"烧烤","address":"徐汇区永嘉路335号(近襄阳路)"},{"poiid":"B2094757D06FA2F4459E","title":"博多新记(乌鲁木齐店)","lon":"121.44655","lat":"31.21135","category":"72","category_name":"广东菜","address":"徐汇区乌鲁木齐中路300号(近五原路)"},{"poiid":"B2094757D66EA4F8419C","title":"五原路","lon":"121.44781958","lat":"31.213365101","category":"500","category_name":"未知分类","address":"上海市徐汇区五原路"},{"poiid":"B2094654DA6DA4FA489E","title":"徐汇艺术馆","lon":"121.44816","lat":"31.2102","category":"183","category_name":"展览馆","address":"徐汇区淮海中路1413号(复兴路口)"},{"poiid":"B2094655D36CA5F9479C","title":"常熟路淮海中路","lon":"121.44888","lat":"31.21397","category":"38","category_name":"公交车站","address":""},{"poiid":"B2094750DB6DA6FE479E","title":"Maya Club","lon":"121.44942","lat":"31.21178","category":"260","category_name":"其他","address":"徐汇区淮海中路1329号云海大厦3楼(宝庆路口)"},{"poiid":"B2094757D06FA6F94598","title":"老北京涮锅店","lon":"121.44719","lat":"31.21046","category":"86","category_name":"火锅店","address":"徐汇区乌鲁木齐中路346号(近复兴路)"},{"poiid":"B2094757D06AA4F9449A","title":"乌鲁木齐中路五原路","lon":"121.445794","lat":"31.212692","category":"500","category_name":"未知分类","address":"上海乌鲁木齐中路五原路"},{"poiid":"B2094752D26AA3FE479C","title":"Shanghai Brewery","lon":"121.4475978","lat":"31.2114357","category":"247","category_name":"餐饮美食","address":"上海市东平路15号(近衡山路"},{"poiid":"B2094757D06BA7F9439B","title":"Bella mia","lon":"121.450006","lat":"31.210957","category":"94","category_name":"西餐厅","address":"徐汇区宝庆路10号(复兴中路口)"},{"poiid":"B2094757D068A2F5499B","title":"复兴汇","lon":"121.44854","lat":"31.21006","category":"76","category_name":"上海菜","address":"徐汇区复兴中路1479号(近淮海中路)"},{"poiid":"B2094757D16AABF9459E","title":"PAULANER","lon":"121.450187586","lat":"31.2119282731","category":"500","category_name":"未知分类","address":"上海汾阳路"},{"poiid":"B2094757D069A5FF479B","title":"上海市卫生局卫生监督所","lon":"121.448912","lat":"31.213562","category":"162","category_name":"医院","address":"上海徐汇区常熟路280号"},{"poiid":"B2094654DA6DAAFB4098","title":"湾仔中国餐馆宝庆路店","lon":"121.44974","lat":"31.21117","category":"71","category_name":"四川菜","address":"徐汇区宝庆路10号(近复兴中路)"},{"poiid":"B2094757D068A4F5449C","title":"淮海路宝庆路口","lon":"121.449333191","lat":"31.2118606567","category":"260","category_name":"其他","address":"上海淮海路1329号"},{"poiid":"B2094750DB69A4FD479C","title":"浦西一妇婴","lon":"121.449172","lat":"31.212591","category":"627","category_name":"一般地点标志","address":"长乐路536号"},{"poiid":"B2094654DA6DAAFB429A","title":"玛雅俱乐部","lon":"121.44926763864044","lat":"31.21184508914139","category":"248","category_name":"生活娱乐","address":"淮海中路1329号云海大厦4层"},{"poiid":"B2094757D56DABFE449D","title":"五官科医院","lon":"121.44854","lat":"31.21006","category":"162","category_name":"医院","address":"复兴中路"},{"poiid":"B2094757D069A6FF4893","title":"Oscar 's Pub","lon":"121.44726716","lat":"31.210363417","category":"500","category_name":"未知分类","address":"上海市复兴西路1377号"},{"poiid":"B2094757D16CA3F4409A","title":"法國領事舘官邸","lon":"121.44766677","lat":"31.209986391","category":"500","category_name":"未知分类","address":"上海淮海中路1431號"},{"poiid":"B2094757D06BA2F9409C","title":"正圆烩面","lon":"121.44937258","lat":"31.211990074","category":"68","category_name":"快餐厅","address":"徐汇区乌鲁木齐中路247号(近五原路)"},{"poiid":"B209475CD16DABF84899","title":"KOTA'S KITCHEN 淮海中路店","lon":"121.44951","lat":"31.21128","category":"95","category_name":"日本料理","address":"淮海中路1333号(近宝庆路)"},{"poiid":"B2094757D568A6FD4899","title":"十号名邸中餐厅","lon":"121.44970595","lat":"31.21082601","category":"76","category_name":"上海菜","address":"徐汇区宝庆路10号2-4楼(复兴中路口)"},{"poiid":"B2094654DA6DA4FA489C","title":"上海图书馆教育培训中心","lon":"121.44801","lat":"31.21019","category":"190","category_name":"培训机构","address":"卢湾区淮海路(襄阳北路襄阳南路)"},{"poiid":"B2094757D06BA4FC4492","title":"吉祥馄饨(复兴西路店)","lon":"121.44671","lat":"31.21029","category":"68","category_name":"快餐厅","address":"徐汇区复兴西路26号(近乌鲁木齐南路)"},{"poiid":"B2094757D66DA4FF479F","title":"御香粥","lon":"121.450179586","lat":"31.2125590854","category":"68","category_name":"快餐厅","address":"徐汇区淮海中路1323号(近宝庆路)"},{"poiid":"B2094757D66EA3F8409B","title":"乐太阁","lon":"121.44374","lat":"31.2139","category":"95","category_name":"日本料理","address":"徐汇区安福路195号2楼(近乌鲁木齐路)"},{"poiid":"B2094757D06FABF5409C","title":"Lapis Sky Garden","lon":"121.45001797","lat":"31.210844028","category":"94","category_name":"西餐厅","address":"徐汇区宝庆路10号7楼(复兴中路口)"},{"poiid":"B2094655D36CA6FF439B","title":"复兴中路淮海中路","lon":"121.44907","lat":"31.21053","category":"38","category_name":"公交车站","address":""},{"poiid":"B2094757D169AAF94193","title":"淮海中路乌鲁木齐中路","lon":"121.446426586","lat":"31.2118040707","category":"500","category_name":"未知分类","address":"上海淮海中路乌鲁木齐中路"},{"poiid":"B2094655D264A1F4459A","title":"功德林","lon":"121.44757","lat":"31.21325","category":"112","category_name":"糕饼店","address":"五原路82"},{"poiid":"B2094757D068AAFE489F","title":"复兴西路","lon":"121.443012","lat":"31.208405","category":"46","category_name":"楼宇","address":"上海永福路"},{"poiid":"B2094654D564A4F8409C","title":"小城故事 淮海店 Charmant","lon":"121.44820018243","lat":"31.211774843986","category":"91","category_name":"台湾菜","address":"徐汇区淮海中路1414号1楼(近复兴西路)"},{"poiid":"B2094654D564A4F84498","title":"来福楼火锅餐厅","lon":"121.44783","lat":"31.21063","category":"86","category_name":"火锅店","address":"徐汇区淮海中路1416号2楼(近复兴西路)"},{"poiid":"B2094753D76FAAFA449C","title":"上海滩国泰旗舰店","lon":"121.466011","lat":"31.216125","category":"249","category_name":"购物服务","address":"淮海中路868号"},{"poiid":"B209475CD564A7F84292","title":"上海滩新天地店","lon":"121.47463","lat":"31.22164","category":"119","category_name":"商场","address":"\"太仓路181弄新天地北里15号\r\n\""},{"poiid":"B209475CD564A7F8439E","title":"上海滩中信泰富店","lon":"121.45602","lat":"31.22851","category":"119","category_name":"商场","address":"\"南京西路1168号中信泰富广场，店铺号221.\r\n\""},{"poiid":"B2094654DB65A4F4489E","title":"星巴克(爱美高大厦店)","lon":"121.449713","lat":"31.212659","category":"65","category_name":"咖啡厅","address":"徐汇区淮海中路1325号爱美高大厦1楼103室(近宝庆路)"},{"poiid":"B2094757D06FAAF44599","title":"乾悦阁(Qian Yue Court)","lon":"121.44819358","lat":"31.211111057","category":"72","category_name":"广东菜","address":"上海徐汇区淮海中路1414号2-3楼(近复兴西路)"},{"poiid":"B2094757D06FA1FA409A","title":"一品居热气羊肉馆(乌鲁木齐中路店)","lon":"121.44662","lat":"31.21043","category":"86","category_name":"火锅店","address":"徐汇区乌鲁木齐中路352号(近复兴西路)"},{"poiid":"B2094752D768A2FB409E","title":"鼎王无老锅（上海无老衡山店）","lon":"121.446411","lat":"31.211093","category":"247","category_name":"餐饮美食","address":"上海徐汇区衡山路2号甲(近桃江路)"},{"poiid":"B2094757D068A0FD469D","title":"Bella Napoli(长乐路店)","lon":"121.4457","lat":"31.21567","category":"94","category_name":"西餐厅","address":"徐汇区长乐路946弄4号(近乌鲁木齐中路)"},{"poiid":"B2094757D06FA5FF419B","title":"棉花俱乐部 Cotton Club","lon":"121.44779408","lat":"31.210617415","category":"260","category_name":"其他","address":"徐汇区淮海中路1428号(近复兴西路)"},{"poiid":"B2094757D06FA2F8489B","title":"MT Club(淮海路店)","lon":"121.44947125","lat":"31.211846925","category":"260","category_name":"其他","address":"徐汇区淮海中路1329号云海大厦3楼(近常熟路)"},{"poiid":"B2094757D06FA0F8489B","title":"Enoterra红酒吧(安福路店)","lon":"121.44748","lat":"31.2147","category":"260","category_name":"其他","address":"徐汇区安福路55号(近常熟路)"},{"poiid":"B2094654DB6BA7F5479E","title":"来福小馆","lon":"121.44794","lat":"31.21075","category":"71","category_name":"四川菜","address":"徐汇区淮海中路1416号1楼(近复兴西路)"},{"poiid":"B2094757D068A2F8429B","title":"PHO REAL(复兴中路店)","lon":"121.44892958","lat":"31.210494045","category":"99","category_name":"泰国／越南菜品餐厅","address":"徐汇区复兴中路1465号(近宝庆路)"},{"poiid":"B2094757D068A6FD4198","title":"Spicy Moment","lon":"121.448082","lat":"31.212697","category":"77","category_name":"湖南菜","address":"徐汇区五原路71号(近常熟路)"},{"poiid":"B2094757D06FABFD459E","title":"高丽烧烤","lon":"121.4461","lat":"31.21237","category":"96","category_name":"韩国料理","address":"徐汇区五原路181弄1号(近乌鲁木齐中路)"},{"poiid":"B2094757D16AA4FD409B","title":"虹桥火车站(上海西站)地铁站","lon":"121.449664786","lat":"31.2127608894","category":"36","category_name":"地铁站","address":"上海轨道交通二、十号线虹桥火车站"},{"poiid":"B2094757D064A3FA4792","title":"KOTA'S KITCHEN(永嘉路店)","lon":"121.44951","lat":"31.21128","category":"269","category_name":"烧烤","address":"徐汇区永嘉路335号(近襄阳路)"},{"poiid":"B2094757D06FA2F4459E","title":"博多新记(乌鲁木齐店)","lon":"121.44655","lat":"31.21135","category":"72","category_name":"广东菜","address":"徐汇区乌鲁木齐中路300号(近五原路)"},{"poiid":"B2094757D66EA4F8419C","title":"五原路","lon":"121.44781958","lat":"31.213365101","category":"500","category_name":"未知分类","address":"上海市徐汇区五原路"},{"poiid":"B2094654DA6DA4FA489E","title":"徐汇艺术馆","lon":"121.44816","lat":"31.2102","category":"183","category_name":"展览馆","address":"徐汇区淮海中路1413号(复兴路口)"},{"poiid":"B2094655D36CA5F9479C","title":"常熟路淮海中路","lon":"121.44888","lat":"31.21397","category":"38","category_name":"公交车站","address":""},{"poiid":"B2094750DB6DA6FE479E","title":"Maya Club","lon":"121.44942","lat":"31.21178","category":"260","category_name":"其他","address":"徐汇区淮海中路1329号云海大厦3楼(宝庆路口)"},{"poiid":"B2094757D06FA6F94598","title":"老北京涮锅店","lon":"121.44719","lat":"31.21046","category":"86","category_name":"火锅店","address":"徐汇区乌鲁木齐中路346号(近复兴路)"},{"poiid":"B2094757D06AA4F9449A","title":"乌鲁木齐中路五原路","lon":"121.445794","lat":"31.212692","category":"500","category_name":"未知分类","address":"上海乌鲁木齐中路五原路"},{"poiid":"B2094752D26AA3FE479C","title":"Shanghai Brewery","lon":"121.4475978","lat":"31.2114357","category":"247","category_name":"餐饮美食","address":"上海市东平路15号(近衡山路"},{"poiid":"B2094757D06BA7F9439B","title":"Bella mia","lon":"121.450006","lat":"31.210957","category":"94","category_name":"西餐厅","address":"徐汇区宝庆路10号(复兴中路口)"},{"poiid":"B2094757D068A2F5499B","title":"复兴汇","lon":"121.44854","lat":"31.21006","category":"76","category_name":"上海菜","address":"徐汇区复兴中路1479号(近淮海中路)"},{"poiid":"B2094757D16AABF9459E","title":"PAULANER","lon":"121.450187586","lat":"31.2119282731","category":"500","category_name":"未知分类","address":"上海汾阳路"},{"poiid":"B2094757D069A5FF479B","title":"上海市卫生局卫生监督所","lon":"121.448912","lat":"31.213562","category":"162","category_name":"医院","address":"上海徐汇区常熟路280号"},{"poiid":"B2094654DA6DAAFB4098","title":"湾仔中国餐馆宝庆路店","lon":"121.44974","lat":"31.21117","category":"71","category_name":"四川菜","address":"徐汇区宝庆路10号(近复兴中路)"},{"poiid":"B2094757D068A4F5449C","title":"淮海路宝庆路口","lon":"121.449333191","lat":"31.2118606567","category":"260","category_name":"其他","address":"上海淮海路1329号"},{"poiid":"B2094750DB69A4FD479C","title":"浦西一妇婴","lon":"121.449172","lat":"31.212591","category":"627","category_name":"一般地点标志","address":"长乐路536号"},{"poiid":"B2094654DA6DAAFB429A","title":"玛雅俱乐部","lon":"121.44926763864044","lat":"31.21184508914139","category":"248","category_name":"生活娱乐","address":"淮海中路1329号云海大厦4层"},{"poiid":"B2094757D56DABFE449D","title":"五官科医院","lon":"121.44854","lat":"31.21006","category":"162","category_name":"医院","address":"复兴中路"},{"poiid":"B2094757D069A6FF4893","title":"Oscar 's Pub","lon":"121.44726716","lat":"31.210363417","category":"500","category_name":"未知分类","address":"上海市复兴西路1377号"},{"poiid":"B2094757D16CA3F4409A","title":"法國領事舘官邸","lon":"121.44766677","lat":"31.209986391","category":"500","category_name":"未知分类","address":"上海淮海中路1431號"},{"poiid":"B2094757D06BA2F9409C","title":"正圆烩面","lon":"121.44937258","lat":"31.211990074","category":"68","category_name":"快餐厅","address":"徐汇区乌鲁木齐中路247号(近五原路)"},{"poiid":"B209475CD16DABF84899","title":"KOTA'S KITCHEN 淮海中路店","lon":"121.44951","lat":"31.21128","category":"95","category_name":"日本料理","address":"淮海中路1333号(近宝庆路)"},{"poiid":"B2094757D568A6FD4899","title":"十号名邸中餐厅","lon":"121.44970595","lat":"31.21082601","category":"76","category_name":"上海菜","address":"徐汇区宝庆路10号2-4楼(复兴中路口)"},{"poiid":"B2094654DA6DA4FA489C","title":"上海图书馆教育培训中心","lon":"121.44801","lat":"31.21019","category":"190","category_name":"培训机构","address":"卢湾区淮海路(襄阳北路襄阳南路)"},{"poiid":"B2094757D06BA4FC4492","title":"吉祥馄饨(复兴西路店)","lon":"121.44671","lat":"31.21029","category":"68","category_name":"快餐厅","address":"徐汇区复兴西路26号(近乌鲁木齐南路)"},{"poiid":"B2094757D66DA4FF479F","title":"御香粥","lon":"121.450179586","lat":"31.2125590854","category":"68","category_name":"快餐厅","address":"徐汇区淮海中路1323号(近宝庆路)"},{"poiid":"B2094757D66EA3F8409B","title":"乐太阁","lon":"121.44374","lat":"31.2139","category":"95","category_name":"日本料理","address":"徐汇区安福路195号2楼(近乌鲁木齐路)"},{"poiid":"B2094757D06FABF5409C","title":"Lapis Sky Garden","lon":"121.45001797","lat":"31.210844028","category":"94","category_name":"西餐厅","address":"徐汇区宝庆路10号7楼(复兴中路口)"},{"poiid":"B2094655D36CA6FF439B","title":"复兴中路淮海中路","lon":"121.44907","lat":"31.21053","category":"38","category_name":"公交车站","address":""},{"poiid":"B2094757D169AAF94193","title":"淮海中路乌鲁木齐中路","lon":"121.446426586","lat":"31.2118040707","category":"500","category_name":"未知分类","address":"上海淮海中路乌鲁木齐中路"},{"poiid":"B2094655D264A1F4459A","title":"功德林","lon":"121.44757","lat":"31.21325","category":"112","category_name":"糕饼店","address":"五原路82"},{"poiid":"B2094757D068AAFE489F","title":"复兴西路","lon":"121.443012","lat":"31.208405","category":"46","category_name":"楼宇","address":"上海永福路"},{"poiid":"B2094654D564A4F8409C","title":"小城故事 淮海店 Charmant","lon":"121.44820018243","lat":"31.211774843986","category":"91","category_name":"台湾菜","address":"徐汇区淮海中路1414号1楼(近复兴西路)"},{"poiid":"B2094654D564A4F84498","title":"来福楼火锅餐厅","lon":"121.44783","lat":"31.21063","category":"86","category_name":"火锅店","address":"徐汇区淮海中路1416号2楼(近复兴西路)"},{"poiid":"B2094753D76FAAFA449C","title":"上海滩国泰旗舰店","lon":"121.466011","lat":"31.216125","category":"249","category_name":"购物服务","address":"淮海中路868号"},{"poiid":"B209475CD564A7F84292","title":"上海滩新天地店","lon":"121.47463","lat":"31.22164","category":"119","category_name":"商场","address":"\"太仓路181弄新天地北里15号\r\n\""},{"poiid":"B209475CD564A7F8439E","title":"上海滩中信泰富店","lon":"121.45602","lat":"31.22851","category":"119","category_name":"商场","address":"\"南京西路1168号中信泰富广场，店铺号221.\r\n\""},{"poiid":"B2094654DB65A4F4489E","title":"星巴克(爱美高大厦店)","lon":"121.449713","lat":"31.212659","category":"65","category_name":"咖啡厅","address":"徐汇区淮海中路1325号爱美高大厦1楼103室(近宝庆路)"},{"poiid":"B2094757D06FAAF44599","title":"乾悦阁(Qian Yue Court)","lon":"121.44819358","lat":"31.211111057","category":"72","category_name":"广东菜","address":"上海徐汇区淮海中路1414号2-3楼(近复兴西路)"},{"poiid":"B2094757D06FA1FA409A","title":"一品居热气羊肉馆(乌鲁木齐中路店)","lon":"121.44662","lat":"31.21043","category":"86","category_name":"火锅店","address":"徐汇区乌鲁木齐中路352号(近复兴西路)"},{"poiid":"B2094752D768A2FB409E","title":"鼎王无老锅（上海无老衡山店）","lon":"121.446411","lat":"31.211093","category":"247","category_name":"餐饮美食","address":"上海徐汇区衡山路2号甲(近桃江路)"},{"poiid":"B2094757D068A0FD469D","title":"Bella Napoli(长乐路店)","lon":"121.4457","lat":"31.21567","category":"94","category_name":"西餐厅","address":"徐汇区长乐路946弄4号(近乌鲁木齐中路)"},{"poiid":"B2094757D06FA5FF419B","title":"棉花俱乐部 Cotton Club","lon":"121.44779408","lat":"31.210617415","category":"260","category_name":"其他","address":"徐汇区淮海中路1428号(近复兴西路)"},{"poiid":"B2094757D06FA2F8489B","title":"MT Club(淮海路店)","lon":"121.44947125","lat":"31.211846925","category":"260","category_name":"其他","address":"徐汇区淮海中路1329号云海大厦3楼(近常熟路)"},{"poiid":"B2094757D06FA0F8489B","title":"Enoterra红酒吧(安福路店)","lon":"121.44748","lat":"31.2147","category":"260","category_name":"其他","address":"徐汇区安福路55号(近常熟路)"},{"poiid":"B2094654DB6BA7F5479E","title":"来福小馆","lon":"121.44794","lat":"31.21075","category":"71","category_name":"四川菜","address":"徐汇区淮海中路1416号1楼(近复兴西路)"},{"poiid":"B2094757D068A2F8429B","title":"PHO REAL(复兴中路店)","lon":"121.44892958","lat":"31.210494045","category":"99","category_name":"泰国／越南菜品餐厅","address":"徐汇区复兴中路1465号(近宝庆路)"},{"poiid":"B2094757D068A6FD4198","title":"Spicy Moment","lon":"121.448082","lat":"31.212697","category":"77","category_name":"湖南菜","address":"徐汇区五原路71号(近常熟路)"},{"poiid":"B2094757D06FABFD459E","title":"高丽烧烤","lon":"121.4461","lat":"31.21237","category":"96","category_name":"韩国料理","address":"徐汇区五原路181弄1号(近乌鲁木齐中路)"},{"poiid":"B2094757D16AA4FD409B","title":"虹桥火车站(上海西站)地铁站","lon":"121.449664786","lat":"31.2127608894","category":"36","category_name":"地铁站","address":"上海轨道交通二、十号线虹桥火车站"},{"poiid":"B2094757D064A3FA4792","title":"KOTA'S KITCHEN(永嘉路店)","lon":"121.44951","lat":"31.21128","category":"269","category_name":"烧烤","address":"徐汇区永嘉路335号(近襄阳路)"},{"poiid":"B2094757D06FA2F4459E","title":"博多新记(乌鲁木齐店)","lon":"121.44655","lat":"31.21135","category":"72","category_name":"广东菜","address":"徐汇区乌鲁木齐中路300号(近五原路)"},{"poiid":"B2094757D66EA4F8419C","title":"五原路","lon":"121.44781958","lat":"31.213365101","category":"500","category_name":"未知分类","address":"上海市徐汇区五原路"},{"poiid":"B2094654DA6DA4FA489E","title":"徐汇艺术馆","lon":"121.44816","lat":"31.2102","category":"183","category_name":"展览馆","address":"徐汇区淮海中路1413号(复兴路口)"},{"poiid":"B2094655D36CA5F9479C","title":"常熟路淮海中路","lon":"121.44888","lat":"31.21397","category":"38","category_name":"公交车站","address":""},{"poiid":"B2094750DB6DA6FE479E","title":"Maya Club","lon":"121.44942","lat":"31.21178","category":"260","category_name":"其他","address":"徐汇区淮海中路1329号云海大厦3楼(宝庆路口)"},{"poiid":"B2094757D06FA6F94598","title":"老北京涮锅店","lon":"121.44719","lat":"31.21046","category":"86","category_name":"火锅店","address":"徐汇区乌鲁木齐中路346号(近复兴路)"},{"poiid":"B2094757D06AA4F9449A","title":"乌鲁木齐中路五原路","lon":"121.445794","lat":"31.212692","category":"500","category_name":"未知分类","address":"上海乌鲁木齐中路五原路"},{"poiid":"B2094752D26AA3FE479C","title":"Shanghai Brewery","lon":"121.4475978","lat":"31.2114357","category":"247","category_name":"餐饮美食","address":"上海市东平路15号(近衡山路"},{"poiid":"B2094757D06BA7F9439B","title":"Bella mia","lon":"121.450006","lat":"31.210957","category":"94","category_name":"西餐厅","address":"徐汇区宝庆路10号(复兴中路口)"},{"poiid":"B2094757D068A2F5499B","title":"复兴汇","lon":"121.44854","lat":"31.21006","category":"76","category_name":"上海菜","address":"徐汇区复兴中路1479号(近淮海中路)"},{"poiid":"B2094757D16AABF9459E","title":"PAULANER","lon":"121.450187586","lat":"31.2119282731","category":"500","category_name":"未知分类","address":"上海汾阳路"},{"poiid":"B2094757D069A5FF479B","title":"上海市卫生局卫生监督所","lon":"121.448912","lat":"31.213562","category":"162","category_name":"医院","address":"上海徐汇区常熟路280号"},{"poiid":"B2094654DA6DAAFB4098","title":"湾仔中国餐馆宝庆路店","lon":"121.44974","lat":"31.21117","category":"71","category_name":"四川菜","address":"徐汇区宝庆路10号(近复兴中路)"},{"poiid":"B2094757D068A4F5449C","title":"淮海路宝庆路口","lon":"121.449333191","lat":"31.2118606567","category":"260","category_name":"其他","address":"上海淮海路1329号"},{"poiid":"B2094750DB69A4FD479C","title":"浦西一妇婴","lon":"121.449172","lat":"31.212591","category":"627","category_name":"一般地点标志","address":"长乐路536号"},{"poiid":"B2094654DA6DAAFB429A","title":"玛雅俱乐部","lon":"121.44926763864044","lat":"31.21184508914139","category":"248","category_name":"生活娱乐","address":"淮海中路1329号云海大厦4层"},{"poiid":"B2094757D56DABFE449D","title":"五官科医院","lon":"121.44854","lat":"31.21006","category":"162","category_name":"医院","address":"复兴中路"},{"poiid":"B2094757D069A6FF4893","title":"Oscar 's Pub","lon":"121.44726716","lat":"31.210363417","category":"500","category_name":"未知分类","address":"上海市复兴西路1377号"},{"poiid":"B2094757D16CA3F4409A","title":"法國領事舘官邸","lon":"121.44766677","lat":"31.209986391","category":"500","category_name":"未知分类","address":"上海淮海中路1431號"},{"poiid":"B2094757D06BA2F9409C","title":"正圆烩面","lon":"121.44937258","lat":"31.211990074","category":"68","category_name":"快餐厅","address":"徐汇区乌鲁木齐中路247号(近五原路)"},{"poiid":"B209475CD16DABF84899","title":"KOTA'S KITCHEN 淮海中路店","lon":"121.44951","lat":"31.21128","category":"95","category_name":"日本料理","address":"淮海中路1333号(近宝庆路)"},{"poiid":"B2094757D568A6FD4899","title":"十号名邸中餐厅","lon":"121.44970595","lat":"31.21082601","category":"76","category_name":"上海菜","address":"徐汇区宝庆路10号2-4楼(复兴中路口)"},{"poiid":"B2094654DA6DA4FA489C","title":"上海图书馆教育培训中心","lon":"121.44801","lat":"31.21019","category":"190","category_name":"培训机构","address":"卢湾区淮海路(襄阳北路襄阳南路)"},{"poiid":"B2094757D06BA4FC4492","title":"吉祥馄饨(复兴西路店)","lon":"121.44671","lat":"31.21029","category":"68","category_name":"快餐厅","address":"徐汇区复兴西路26号(近乌鲁木齐南路)"},{"poiid":"B2094757D66DA4FF479F","title":"御香粥","lon":"121.450179586","lat":"31.2125590854","category":"68","category_name":"快餐厅","address":"徐汇区淮海中路1323号(近宝庆路)"},{"poiid":"B2094757D66EA3F8409B","title":"乐太阁","lon":"121.44374","lat":"31.2139","category":"95","category_name":"日本料理","address":"徐汇区安福路195号2楼(近乌鲁木齐路)"},{"poiid":"B2094757D06FABF5409C","title":"Lapis Sky Garden","lon":"121.45001797","lat":"31.210844028","category":"94","category_name":"西餐厅","address":"徐汇区宝庆路10号7楼(复兴中路口)"},{"poiid":"B2094655D36CA6FF439B","title":"复兴中路淮海中路","lon":"121.44907","lat":"31.21053","category":"38","category_name":"公交车站","address":""},{"poiid":"B2094757D169AAF94193","title":"淮海中路乌鲁木齐中路","lon":"121.446426586","lat":"31.2118040707","category":"500","category_name":"未知分类","address":"上海淮海中路乌鲁木齐中路"},{"poiid":"B2094655D264A1F4459A","title":"功德林","lon":"121.44757","lat":"31.21325","category":"112","category_name":"糕饼店","address":"五原路82"},{"poiid":"B2094757D068AAFE489F","title":"复兴西路","lon":"121.443012","lat":"31.208405","category":"46","category_name":"楼宇","address":"上海永福路"},{"poiid":"B2094654D564A4F8409C","title":"小城故事 淮海店 Charmant","lon":"121.44820018243","lat":"31.211774843986","category":"91","category_name":"台湾菜","address":"徐汇区淮海中路1414号1楼(近复兴西路)"},{"poiid":"B2094654D564A4F84498","title":"来福楼火锅餐厅","lon":"121.44783","lat":"31.21063","category":"86","category_name":"火锅店","address":"徐汇区淮海中路1416号2楼(近复兴西路)"},{"poiid":"B2094753D76FAAFA449C","title":"上海滩国泰旗舰店","lon":"121.466011","lat":"31.216125","category":"249","category_name":"购物服务","address":"淮海中路868号"},{"poiid":"B209475CD564A7F84292","title":"上海滩新天地店","lon":"121.47463","lat":"31.22164","category":"119","category_name":"商场","address":"\"太仓路181弄新天地北里15号\r\n\""},{"poiid":"B209475CD564A7F8439E","title":"上海滩中信泰富店","lon":"121.45602","lat":"31.22851","category":"119","category_name":"商场","address":"\"南京西路1168号中信泰富广场，店铺号221.\r\n\""},{"poiid":"B2094654DB65A4F4489E","title":"星巴克(爱美高大厦店)","lon":"121.449713","lat":"31.212659","category":"65","category_name":"咖啡厅","address":"徐汇区淮海中路1325号爱美高大厦1楼103室(近宝庆路)"},{"poiid":"B2094757D06FAAF44599","title":"乾悦阁(Qian Yue Court)","lon":"121.44819358","lat":"31.211111057","category":"72","category_name":"广东菜","address":"上海徐汇区淮海中路1414号2-3楼(近复兴西路)"},{"poiid":"B2094757D06FA1FA409A","title":"一品居热气羊肉馆(乌鲁木齐中路店)","lon":"121.44662","lat":"31.21043","category":"86","category_name":"火锅店","address":"徐汇区乌鲁木齐中路352号(近复兴西路)"},{"poiid":"B2094752D768A2FB409E","title":"鼎王无老锅（上海无老衡山店）","lon":"121.446411","lat":"31.211093","category":"247","category_name":"餐饮美食","address":"上海徐汇区衡山路2号甲(近桃江路)"},{"poiid":"B2094757D068A0FD469D","title":"Bella Napoli(长乐路店)","lon":"121.4457","lat":"31.21567","category":"94","category_name":"西餐厅","address":"徐汇区长乐路946弄4号(近乌鲁木齐中路)"},{"poiid":"B2094757D06FA5FF419B","title":"棉花俱乐部 Cotton Club","lon":"121.44779408","lat":"31.210617415","category":"260","category_name":"其他","address":"徐汇区淮海中路1428号(近复兴西路)"},{"poiid":"B2094757D06FA2F8489B","title":"MT Club(淮海路店)","lon":"121.44947125","lat":"31.211846925","category":"260","category_name":"其他","address":"徐汇区淮海中路1329号云海大厦3楼(近常熟路)"},{"poiid":"B2094757D06FA0F8489B","title":"Enoterra红酒吧(安福路店)","lon":"121.44748","lat":"31.2147","category":"260","category_name":"其他","address":"徐汇区安福路55号(近常熟路)"},{"poiid":"B2094654DB6BA7F5479E","title":"来福小馆","lon":"121.44794","lat":"31.21075","category":"71","category_name":"四川菜","address":"徐汇区淮海中路1416号1楼(近复兴西路)"},{"poiid":"B2094757D068A2F8429B","title":"PHO REAL(复兴中路店)","lon":"121.44892958","lat":"31.210494045","category":"99","category_name":"泰国／越南菜品餐厅","address":"徐汇区复兴中路1465号(近宝庆路)"},{"poiid":"B2094757D068A6FD4198","title":"Spicy Moment","lon":"121.448082","lat":"31.212697","category":"77","category_name":"湖南菜","address":"徐汇区五原路71号(近常熟路)"},{"poiid":"B2094757D06FABFD459E","title":"高丽烧烤","lon":"121.4461","lat":"31.21237","category":"96","category_name":"韩国料理","address":"徐汇区五原路181弄1号(近乌鲁木齐中路)"},{"poiid":"B2094757D16AA4FD409B","title":"虹桥火车站(上海西站)地铁站","lon":"121.449664786","lat":"31.2127608894","category":"36","category_name":"地铁站","address":"上海轨道交通二、十号线虹桥火车站"},{"poiid":"B2094757D064A3FA4792","title":"KOTA'S KITCHEN(永嘉路店)","lon":"121.44951","lat":"31.21128","category":"269","category_name":"烧烤","address":"徐汇区永嘉路335号(近襄阳路)"},{"poiid":"B2094757D06FA2F4459E","title":"博多新记(乌鲁木齐店)","lon":"121.44655","lat":"31.21135","category":"72","category_name":"广东菜","address":"徐汇区乌鲁木齐中路300号(近五原路)"},{"poiid":"B2094757D66EA4F8419C","title":"五原路","lon":"121.44781958","lat":"31.213365101","category":"500","category_name":"未知分类","address":"上海市徐汇区五原路"},{"poiid":"B2094654DA6DA4FA489E","title":"徐汇艺术馆","lon":"121.44816","lat":"31.2102","category":"183","category_name":"展览馆","address":"徐汇区淮海中路1413号(复兴路口)"},{"poiid":"B2094655D36CA5F9479C","title":"常熟路淮海中路","lon":"121.44888","lat":"31.21397","category":"38","category_name":"公交车站","address":""},{"poiid":"B2094750DB6DA6FE479E","title":"Maya Club","lon":"121.44942","lat":"31.21178","category":"260","category_name":"其他","address":"徐汇区淮海中路1329号云海大厦3楼(宝庆路口)"},{"poiid":"B2094757D06FA6F94598","title":"老北京涮锅店","lon":"121.44719","lat":"31.21046","category":"86","category_name":"火锅店","address":"徐汇区乌鲁木齐中路346号(近复兴路)"},{"poiid":"B2094757D06AA4F9449A","title":"乌鲁木齐中路五原路","lon":"121.445794","lat":"31.212692","category":"500","category_name":"未知分类","address":"上海乌鲁木齐中路五原路"},{"poiid":"B2094752D26AA3FE479C","title":"Shanghai Brewery","lon":"121.4475978","lat":"31.2114357","category":"247","category_name":"餐饮美食","address":"上海市东平路15号(近衡山路"},{"poiid":"B2094757D06BA7F9439B","title":"Bella mia","lon":"121.450006","lat":"31.210957","category":"94","category_name":"西餐厅","address":"徐汇区宝庆路10号(复兴中路口)"},{"poiid":"B2094757D068A2F5499B","title":"复兴汇","lon":"121.44854","lat":"31.21006","category":"76","category_name":"上海菜","address":"徐汇区复兴中路1479号(近淮海中路)"},{"poiid":"B2094757D16AABF9459E","title":"PAULANER","lon":"121.450187586","lat":"31.2119282731","category":"500","category_name":"未知分类","address":"上海汾阳路"},{"poiid":"B2094757D069A5FF479B","title":"上海市卫生局卫生监督所","lon":"121.448912","lat":"31.213562","category":"162","category_name":"医院","address":"上海徐汇区常熟路280号"},{"poiid":"B2094654DA6DAAFB4098","title":"湾仔中国餐馆宝庆路店","lon":"121.44974","lat":"31.21117","category":"71","category_name":"四川菜","address":"徐汇区宝庆路10号(近复兴中路)"},{"poiid":"B2094757D068A4F5449C","title":"淮海路宝庆路口","lon":"121.449333191","lat":"31.2118606567","category":"260","category_name":"其他","address":"上海淮海路1329号"},{"poiid":"B2094750DB69A4FD479C","title":"浦西一妇婴","lon":"121.449172","lat":"31.212591","category":"627","category_name":"一般地点标志","address":"长乐路536号"},{"poiid":"B2094654DA6DAAFB429A","title":"玛雅俱乐部","lon":"121.44926763864044","lat":"31.21184508914139","category":"248","category_name":"生活娱乐","address":"淮海中路1329号云海大厦4层"},{"poiid":"B2094757D56DABFE449D","title":"五官科医院","lon":"121.44854","lat":"31.21006","category":"162","category_name":"医院","address":"复兴中路"},{"poiid":"B2094757D069A6FF4893","title":"Oscar 's Pub","lon":"121.44726716","lat":"31.210363417","category":"500","category_name":"未知分类","address":"上海市复兴西路1377号"},{"poiid":"B2094757D16CA3F4409A","title":"法國領事舘官邸","lon":"121.44766677","lat":"31.209986391","category":"500","category_name":"未知分类","address":"上海淮海中路1431號"},{"poiid":"B2094757D06BA2F9409C","title":"正圆烩面","lon":"121.44937258","lat":"31.211990074","category":"68","category_name":"快餐厅","address":"徐汇区乌鲁木齐中路247号(近五原路)"},{"poiid":"B209475CD16DABF84899","title":"KOTA'S KITCHEN 淮海中路店","lon":"121.44951","lat":"31.21128","category":"95","category_name":"日本料理","address":"淮海中路1333号(近宝庆路)"},{"poiid":"B2094757D568A6FD4899","title":"十号名邸中餐厅","lon":"121.44970595","lat":"31.21082601","category":"76","category_name":"上海菜","address":"徐汇区宝庆路10号2-4楼(复兴中路口)"},{"poiid":"B2094654DA6DA4FA489C","title":"上海图书馆教育培训中心","lon":"121.44801","lat":"31.21019","category":"190","category_name":"培训机构","address":"卢湾区淮海路(襄阳北路襄阳南路)"},{"poiid":"B2094757D06BA4FC4492","title":"吉祥馄饨(复兴西路店)","lon":"121.44671","lat":"31.21029","category":"68","category_name":"快餐厅","address":"徐汇区复兴西路26号(近乌鲁木齐南路)"},{"poiid":"B2094757D66DA4FF479F","title":"御香粥","lon":"121.450179586","lat":"31.2125590854","category":"68","category_name":"快餐厅","address":"徐汇区淮海中路1323号(近宝庆路)"},{"poiid":"B2094757D66EA3F8409B","title":"乐太阁","lon":"121.44374","lat":"31.2139","category":"95","category_name":"日本料理","address":"徐汇区安福路195号2楼(近乌鲁木齐路)"},{"poiid":"B2094757D06FABF5409C","title":"Lapis Sky Garden","lon":"121.45001797","lat":"31.210844028","category":"94","category_name":"西餐厅","address":"徐汇区宝庆路10号7楼(复兴中路口)"},{"poiid":"B2094655D36CA6FF439B","title":"复兴中路淮海中路","lon":"121.44907","lat":"31.21053","category":"38","category_name":"公交车站","address":""},{"poiid":"B2094757D169AAF94193","title":"淮海中路乌鲁木齐中路","lon":"121.446426586","lat":"31.2118040707","category":"500","category_name":"未知分类","address":"上海淮海中路乌鲁木齐中路"},{"poiid":"B2094655D264A1F4459A","title":"功德林","lon":"121.44757","lat":"31.21325","category":"112","category_name":"糕饼店","address":"五原路82"},{"poiid":"B2094757D068AAFE489F","title":"复兴西路","lon":"121.443012","lat":"31.208405","category":"46","category_name":"楼宇","address":"上海永福路"},{"poiid":"B2094654D564A4F8409C","title":"小城故事 淮海店 Charmant","lon":"121.44820018243","lat":"31.211774843986","category":"91","category_name":"台湾菜","address":"徐汇区淮海中路1414号1楼(近复兴西路)"},{"poiid":"B2094654D564A4F84498","title":"来福楼火锅餐厅","lon":"121.44783","lat":"31.21063","category":"86","category_name":"火锅店","address":"徐汇区淮海中路1416号2楼(近复兴西路)"},{"poiid":"B2094753D76FAAFA449C","title":"上海滩国泰旗舰店","lon":"121.466011","lat":"31.216125","category":"249","category_name":"购物服务","address":"淮海中路868号"},{"poiid":"B209475CD564A7F84292","title":"上海滩新天地店","lon":"121.47463","lat":"31.22164","category":"119","category_name":"商场","address":"\"太仓路181弄新天地北里15号\r\n\""},{"poiid":"B209475CD564A7F8439E","title":"上海滩中信泰富店","lon":"121.45602","lat":"31.22851","category":"119","category_name":"商场","address":"\"南京西路1168号中信泰富广场，店铺号221.\r\n\""},{"poiid":"B2094654DB65A4F4489E","title":"星巴克(爱美高大厦店)","lon":"121.449713","lat":"31.212659","category":"65","category_name":"咖啡厅","address":"徐汇区淮海中路1325号爱美高大厦1楼103室(近宝庆路)"},{"poiid":"B2094757D06FAAF44599","title":"乾悦阁(Qian Yue Court)","lon":"121.44819358","lat":"31.211111057","category":"72","category_name":"广东菜","address":"上海徐汇区淮海中路1414号2-3楼(近复兴西路)"},{"poiid":"B2094757D06FA1FA409A","title":"一品居热气羊肉馆(乌鲁木齐中路店)","lon":"121.44662","lat":"31.21043","category":"86","category_name":"火锅店","address":"徐汇区乌鲁木齐中路352号(近复兴西路)"},{"poiid":"B2094752D768A2FB409E","title":"鼎王无老锅（上海无老衡山店）","lon":"121.446411","lat":"31.211093","category":"247","category_name":"餐饮美食","address":"上海徐汇区衡山路2号甲(近桃江路)"},{"poiid":"B2094757D068A0FD469D","title":"Bella Napoli(长乐路店)","lon":"121.4457","lat":"31.21567","category":"94","category_name":"西餐厅","address":"徐汇区长乐路946弄4号(近乌鲁木齐中路)"},{"poiid":"B2094757D06FA5FF419B","title":"棉花俱乐部 Cotton Club","lon":"121.44779408","lat":"31.210617415","category":"260","category_name":"其他","address":"徐汇区淮海中路1428号(近复兴西路)"},{"poiid":"B2094757D06FA2F8489B","title":"MT Club(淮海路店)","lon":"121.44947125","lat":"31.211846925","category":"260","category_name":"其他","address":"徐汇区淮海中路1329号云海大厦3楼(近常熟路)"},{"poiid":"B2094757D06FA0F8489B","title":"Enoterra红酒吧(安福路店)","lon":"121.44748","lat":"31.2147","category":"260","category_name":"其他","address":"徐汇区安福路55号(近常熟路)"},{"poiid":"B2094654DB6BA7F5479E","title":"来福小馆","lon":"121.44794","lat":"31.21075","category":"71","category_name":"四川菜","address":"徐汇区淮海中路1416号1楼(近复兴西路)"},{"poiid":"B2094757D068A2F8429B","title":"PHO REAL(复兴中路店)","lon":"121.44892958","lat":"31.210494045","category":"99","category_name":"泰国／越南菜品餐厅","address":"徐汇区复兴中路1465号(近宝庆路)"},{"poiid":"B2094757D068A6FD4198","title":"Spicy Moment","lon":"121.448082","lat":"31.212697","category":"77","category_name":"湖南菜","address":"徐汇区五原路71号(近常熟路)"},{"poiid":"B2094757D06FABFD459E","title":"高丽烧烤","lon":"121.4461","lat":"31.21237","category":"96","category_name":"韩国料理","address":"徐汇区五原路181弄1号(近乌鲁木齐中路)"},{"poiid":"B2094757D16AA4FD409B","title":"虹桥火车站(上海西站)地铁站","lon":"121.449664786","lat":"31.2127608894","category":"36","category_name":"地铁站","address":"上海轨道交通二、十号线虹桥火车站"},{"poiid":"B2094757D064A3FA4792","title":"KOTA'S KITCHEN(永嘉路店)","lon":"121.44951","lat":"31.21128","category":"269","category_name":"烧烤","address":"徐汇区永嘉路335号(近襄阳路)"},{"poiid":"B2094757D06FA2F4459E","title":"博多新记(乌鲁木齐店)","lon":"121.44655","lat":"31.21135","category":"72","category_name":"广东菜","address":"徐汇区乌鲁木齐中路300号(近五原路)"},{"poiid":"B2094757D66EA4F8419C","title":"五原路","lon":"121.44781958","lat":"31.213365101","category":"500","category_name":"未知分类","address":"上海市徐汇区五原路"},{"poiid":"B2094654DA6DA4FA489E","title":"徐汇艺术馆","lon":"121.44816","lat":"31.2102","category":"183","category_name":"展览馆","address":"徐汇区淮海中路1413号(复兴路口)"},{"poiid":"B2094655D36CA5F9479C","title":"常熟路淮海中路","lon":"121.44888","lat":"31.21397","category":"38","category_name":"公交车站","address":""},{"poiid":"B2094750DB6DA6FE479E","title":"Maya Club","lon":"121.44942","lat":"31.21178","category":"260","category_name":"其他","address":"徐汇区淮海中路1329号云海大厦3楼(宝庆路口)"},{"poiid":"B2094757D06FA6F94598","title":"老北京涮锅店","lon":"121.44719","lat":"31.21046","category":"86","category_name":"火锅店","address":"徐汇区乌鲁木齐中路346号(近复兴路)"},{"poiid":"B2094757D06AA4F9449A","title":"乌鲁木齐中路五原路","lon":"121.445794","lat":"31.212692","category":"500","category_name":"未知分类","address":"上海乌鲁木齐中路五原路"},{"poiid":"B2094752D26AA3FE479C","title":"Shanghai Brewery","lon":"121.4475978","lat":"31.2114357","category":"247","category_name":"餐饮美食","address":"上海市东平路15号(近衡山路"},{"poiid":"B2094757D06BA7F9439B","title":"Bella mia","lon":"121.450006","lat":"31.210957","category":"94","category_name":"西餐厅","address":"徐汇区宝庆路10号(复兴中路口)"},{"poiid":"B2094757D068A2F5499B","title":"复兴汇","lon":"121.44854","lat":"31.21006","category":"76","category_name":"上海菜","address":"徐汇区复兴中路1479号(近淮海中路)"},{"poiid":"B2094757D16AABF9459E","title":"PAULANER","lon":"121.450187586","lat":"31.2119282731","category":"500","category_name":"未知分类","address":"上海汾阳路"},{"poiid":"B2094757D069A5FF479B","title":"上海市卫生局卫生监督所","lon":"121.448912","lat":"31.213562","category":"162","category_name":"医院","address":"上海徐汇区常熟路280号"},{"poiid":"B2094654DA6DAAFB4098","title":"湾仔中国餐馆宝庆路店","lon":"121.44974","lat":"31.21117","category":"71","category_name":"四川菜","address":"徐汇区宝庆路10号(近复兴中路)"},{"poiid":"B2094757D068A4F5449C","title":"淮海路宝庆路口","lon":"121.449333191","lat":"31.2118606567","category":"260","category_name":"其他","address":"上海淮海路1329号"},{"poiid":"B2094750DB69A4FD479C","title":"浦西一妇婴","lon":"121.449172","lat":"31.212591","category":"627","category_name":"一般地点标志","address":"长乐路536号"},{"poiid":"B2094654DA6DAAFB429A","title":"玛雅俱乐部","lon":"121.44926763864044","lat":"31.21184508914139","category":"248","category_name":"生活娱乐","address":"淮海中路1329号云海大厦4层"},{"poiid":"B2094757D56DABFE449D","title":"五官科医院","lon":"121.44854","lat":"31.21006","category":"162","category_name":"医院","address":"复兴中路"},{"poiid":"B2094757D069A6FF4893","title":"Oscar 's Pub","lon":"121.44726716","lat":"31.210363417","category":"500","category_name":"未知分类","address":"上海市复兴西路1377号"},{"poiid":"B2094757D16CA3F4409A","title":"法國領事舘官邸","lon":"121.44766677","lat":"31.209986391","category":"500","category_name":"未知分类","address":"上海淮海中路1431號"},{"poiid":"B2094757D06BA2F9409C","title":"正圆烩面","lon":"121.44937258","lat":"31.211990074","category":"68","category_name":"快餐厅","address":"徐汇区乌鲁木齐中路247号(近五原路)"},{"poiid":"B209475CD16DABF84899","title":"KOTA'S KITCHEN 淮海中路店","lon":"121.44951","lat":"31.21128","category":"95","category_name":"日本料理","address":"淮海中路1333号(近宝庆路)"},{"poiid":"B2094757D568A6FD4899","title":"十号名邸中餐厅","lon":"121.44970595","lat":"31.21082601","category":"76","category_name":"上海菜","address":"徐汇区宝庆路10号2-4楼(复兴中路口)"},{"poiid":"B2094654DA6DA4FA489C","title":"上海图书馆教育培训中心","lon":"121.44801","lat":"31.21019","category":"190","category_name":"培训机构","address":"卢湾区淮海路(襄阳北路襄阳南路)"},{"poiid":"B2094757D06BA4FC4492","title":"吉祥馄饨(复兴西路店)","lon":"121.44671","lat":"31.21029","category":"68","category_name":"快餐厅","address":"徐汇区复兴西路26号(近乌鲁木齐南路)"},{"poiid":"B2094757D66DA4FF479F","title":"御香粥","lon":"121.450179586","lat":"31.2125590854","category":"68","category_name":"快餐厅","address":"徐汇区淮海中路1323号(近宝庆路)"},{"poiid":"B2094757D66EA3F8409B","title":"乐太阁","lon":"121.44374","lat":"31.2139","category":"95","category_name":"日本料理","address":"徐汇区安福路195号2楼(近乌鲁木齐路)"},{"poiid":"B2094757D06FABF5409C","title":"Lapis Sky Garden","lon":"121.45001797","lat":"31.210844028","category":"94","category_name":"西餐厅","address":"徐汇区宝庆路10号7楼(复兴中路口)"},{"poiid":"B2094655D36CA6FF439B","title":"复兴中路淮海中路","lon":"121.44907","lat":"31.21053","category":"38","category_name":"公交车站","address":""},{"poiid":"B2094757D169AAF94193","title":"淮海中路乌鲁木齐中路","lon":"121.446426586","lat":"31.2118040707","category":"500","category_name":"未知分类","address":"上海淮海中路乌鲁木齐中路"},{"poiid":"B2094655D264A1F4459A","title":"功德林","lon":"121.44757","lat":"31.21325","category":"112","category_name":"糕饼店","address":"五原路82"}]