[{"poiid":"B2094655D36DA6FE419E","title":"南浦大桥","lon":"121.49934","lat":"31.20845","category":"38","category_name":"公交车站","address":"黄浦区南马路1410号"},{"poiid":"B2094655D26AA1FA4998","title":"黄浦旅游集散站","lon":"121.50134","lat":"31.20778","category":"35","category_name":"长途汽车站","address":"黄浦区外马路1588号"},{"poiid":"B2094751D26CA1F84692","title":"上海当代艺术博物馆","lon":"121.498542","lat":"31.200687","category":"500","category_name":"未知分类","address":"西藏南路世博园区"},{"poiid":"B2094757D06FA2F54399","title":"陆家浜路海潮路","lon":"121.499351","lat":"31.211211","category":"500","category_name":"未知分类","address":"上海陆家浜路海潮路"},{"poiid":"B2094757D068A6F5439B","title":"世博会城市未来馆","lon":"121.49785","lat":"31.20127","category":"500","category_name":"未知分类","address":"上海世博会E片区"},{"poiid":"B2094757D06FA3F4459F","title":"南浦大桥地铁站","lon":"121.49936726","lat":"31.20842377","category":"36","category_name":"地铁站","address":"上海轨道交通 四号线 轨交南浦大桥站 轻轨 4"},{"poiid":"B2094757D06FA4F4429B","title":"上海市第二人民医院","lon":"121.50425317","lat":"31.210314152","category":"162","category_name":"医院","address":"黄浦区多稼路1号(近中山南路)"},{"poiid":"B2094750DB69A3FD4993","title":"镭战大联盟","lon":"121.501408","lat":"31.204725","category":"248","category_name":"生活娱乐","address":"黄浦区外马路1353号(近南浦大桥)"},{"poiid":"B2094654DA68A0FD469D","title":"帝龙海鲜舫","lon":"121.50427282682","lat":"31.206678575885","category":"76","category_name":"上海菜","address":"黄浦区外马路1333号(近南浦大桥)"},{"poiid":"B2094757D068A3FB4892","title":"云餐厅(世博店)","lon":"121.49891375","lat":"31.200957366","category":"260","category_name":"其他","address":"黄浦区南车站路世博园城市未来馆7-8楼(近半淞园路9月份营业)"},{"poiid":"B2094654DA68A0FD4592","title":"上海南浦大桥长途旅游客运站","lon":"121.50129","lat":"31.20767","category":"35","category_name":"长途汽车站","address":"黄浦区外马路1588号(近陆家浜路)"},{"poiid":"B2094757D068A5FE409F","title":"黄浦区旅游集散中心 二楼携程VIP","lon":"121.501064","lat":"31.207764","category":"260","category_name":"其他","address":"上海外马路1588号"},{"poiid":"B2094757D068A6FA439E","title":"黄浦区工人文化宫","lon":"121.49624","lat":"31.2076","category":"500","category_name":"未知分类","address":"黄浦区普育东路227号(瞿溪路普育东路)"},{"poiid":"B2094757D065A6FC4692","title":"HAVEN","lon":"121.50305603","lat":"31.211066691","category":"97","category_name":"法式菜品餐厅","address":"黄浦区中山南路1029号幸福码头3号楼(近多稼路)"},{"poiid":"B2094757D06AA3F9469D","title":"中福花苑青年汇酒店式公寓","lon":"121.49864","lat":"31.21044","category":"217","category_name":"旅馆招待所","address":"上海黄浦区海潮路93弄(近陆家浜路)  "},{"poiid":"B2094655D26AA5F8449D","title":"大富贵酒楼普育东路店","lon":"121.4959","lat":"31.20773","category":"76","category_name":"上海菜","address":"黄浦区普育东路227号(瞿溪路普育东路)"},{"poiid":"B2094757D16AABFA409E","title":"地铁6号线世纪大道站","lon":"121.495764738","lat":"31.2038677385","category":"500","category_name":"未知分类","address":"上海"},{"poiid":"B209475DD66AA7FE429C","title":"Pulupulu主题游戏馆","lon":"121.500289","lat":"31.205091","category":"248","category_name":"生活娱乐","address":"上海市 黄浦区苗江路139号"},{"poiid":"B2094750DA64ABFE469E","title":"上海当代艺术博物馆","lon":"121.499153","lat":"31.200927","category":"500","category_name":"未知分类","address":null},{"poiid":"B2094654DA68A0FD4698","title":"海狮大厦","lon":"121.50265","lat":"31.20692","category":"46","category_name":"楼宇","address":"徐汇区田林路300号"},{"poiid":"B2094757D164AAF84192","title":"沪军营路公交枢纽","lon":"121.501061619","lat":"31.2059114971","category":"38","category_name":"公交车站","address":"上海南浦大桥沪军营路"},{"poiid":"B2094655D268ABFF4093","title":"内环南浦大桥立交桥","lon":"121.50024","lat":"31.20819","category":"250","category_name":"公园户外","address":""},{"poiid":"B209475DD66AA7FE4193","title":"Pulu Pulu主题游戏馆","lon":"121.500282","lat":"31.205087","category":"248","category_name":"生活娱乐","address":"上海市 黄浦区苗江路139号"},{"poiid":"B2094757DB6DA3F94993","title":"苏先生海鲜鱼荘","lon":"121.5003222358991","lat":"31.2059752855171","category":"247","category_name":"餐饮美食","address":"浦东南路2304号"},{"poiid":"B2094654DA68A0FD469E","title":"黄浦公安分局交警支队业务接待受理点","lon":"121.50264","lat":"31.20692","category":"248","category_name":"生活娱乐","address":"陆家浜路88号海狮大厦"},{"poiid":"B209475CD768A0FF4499","title":"pulupulu主题游戏馆","lon":"121.504699","lat":"31.203042","category":"500","category_name":"未知分类","address":"上海市 苗江路139号"},{"poiid":"B2094757D064A0F94999","title":"黄浦区交警队","lon":"121.502949","lat":"31.208994","category":"500","category_name":"未知分类","address":"上海丰记码头街78号"},{"poiid":"B2094757D16CA4FF4198","title":"外码头上海创意产业聚集区","lon":"121.505065","lat":"31.208697","category":"46","category_name":"楼宇","address":"上海黄浦区外马路1178号"},{"poiid":"B2094757D169AAFD4998","title":"海潮新村","lon":"121.497","lat":"31.209507","category":"252","category_name":"楼宇机构","address":"上海市黄浦区陆家浜路普育东路"},{"poiid":"B2094757D068A5F8419F","title":"黄浦区社会保险事业管理中心","lon":"121.501153","lat":"31.210839","category":"252","category_name":"楼宇机构","address":"上海黄浦区陆家浜路265号"},{"poiid":"B2094750D16BA1FD409D","title":"虹口足球场","lon":"121.5032644966952","lat":"31.20336783101407","category":"220","category_name":"运动场所","address":null},{"poiid":"B2094654DA68A0FD469F","title":"帝龙","lon":"121.50285","lat":"31.20672","category":"170","category_name":"KTV","address":"陆家浜路18号"},{"poiid":"B2094655D26BA1FF4293","title":"南浦大桥沪军营路","lon":"121.49861","lat":"31.20545","category":"38","category_name":"公交车站","address":""},{"poiid":"B2094757D66EA7F54698","title":"南浦大桥引桥","lon":"121.50467189","lat":"31.205788251","category":"500","category_name":"未知分类","address":"上海南浦大桥"},{"poiid":"B2094757D064AAF8449B","title":"公交65路","lon":"121.50361633","lat":"31.206497192","category":"38","category_name":"公交车站","address":"上海南浦大桥-北区汽车站"},{"poiid":"B2094654DA68A0FD4699","title":"黄浦区道路交通事故纠纷调解室","lon":"121.50265","lat":"31.20692","category":"250","category_name":"公园户外","address":"陆家浜路88号海狮大厦"},{"poiid":"B2094757D16AA6F9489D","title":"象山小岛人家","lon":"121.500695138","lat":"31.2081551298","category":"247","category_name":"餐饮美食","address":"上海薛家浜路218号"},{"poiid":"B2094655D268A6FF4993","title":"黄浦交通违章受理队","lon":"121.5033","lat":"31.20581","category":"250","category_name":"公园户外","address":""},{"poiid":"B2094752DA6BABFA4599","title":"当代艺术博物馆","lon":"121.499593","lat":"31.207842","category":"500","category_name":"未知分类","address":"上海市 上海市花园港路200号"},{"poiid":"B2094654DA68A0FC4398","title":"上海三山会馆管理处","lon":"121.49584","lat":"31.20556","category":"263","category_name":"公司","address":"黄浦区中山南路1551号(半淞园路苗江路)"},{"poiid":"B2094757D66BA3F9439B","title":"湘味醇","lon":"121.498131","lat":"31.2103","category":"77","category_name":"湖南菜","address":"黄浦区海潮路63号(近陆家浜路)"},{"poiid":"B209475CD76CABFC4892","title":"上海体育馆","lon":"121.501022","lat":"31.207822","category":"500","category_name":"未知分类","address":"上海市 上海体育馆"},{"poiid":"B2094750DB65A2F4499F","title":"上海当代艺术馆","lon":"121.49842","lat":"31.200689","category":"500","category_name":"未知分类","address":null},{"poiid":"B209475CD36FA5FE4092","title":"镭战大联盟真人CS 南外滩店","lon":"121.50314","lat":"31.20637","category":"172","category_name":"酒吧","address":"外马路1353号7-8号楼(近南浦大桥)"},{"poiid":"B2094752DA6AA5FB409F","title":"浦东国际机场","lon":"121.50087","lat":"31.209503","category":"500","category_name":"未知分类","address":"上海市 浦东国际机场T2航站楼"},{"poiid":"B2094757D46FA1F8449B","title":"乔家栅 海潮路店","lon":"121.497746","lat":"31.209484","category":"76","category_name":"上海菜","address":"黄浦区海潮路162号(近南浦大桥)"},{"poiid":"B2094654DA68A1FB439F","title":"贝蝶专业美发美容院","lon":"121.49622","lat":"31.20896","category":"148","category_name":"美容美发店","address":"国货路137"},{"poiid":"B2094757D16FA4FA429B","title":"阿诗玛峰","lon":"121.50060653","lat":"31.207342912","category":"500","category_name":"未知分类","address":"上海普育东路101弄"},{"poiid":"B2094750DB65AAF8419F","title":"喜马拉雅中心","lon":"121.499755","lat":"31.203878","category":"627","category_name":"一般地点标志","address":"芳甸路"},{"poiid":"B2094757D16EA5FB439A","title":"公交868终点站","lon":"121.499443418","lat":"31.2077030702","category":"500","category_name":"未知分类","address":"上海南浦大桥(沪军营路)"},{"poiid":"B2094655D36DA6FE419E","title":"南浦大桥","lon":"121.49934","lat":"31.20845","category":"38","category_name":"公交车站","address":"黄浦区南马路1410号"},{"poiid":"B2094655D26AA1FA4998","title":"黄浦旅游集散站","lon":"121.50134","lat":"31.20778","category":"35","category_name":"长途汽车站","address":"黄浦区外马路1588号"},{"poiid":"B2094751D26CA1F84692","title":"上海当代艺术博物馆","lon":"121.498542","lat":"31.200687","category":"500","category_name":"未知分类","address":"西藏南路世博园区"},{"poiid":"B2094757D06FA2F54399","title":"陆家浜路海潮路","lon":"121.499351","lat":"31.211211","category":"500","category_name":"未知分类","address":"上海陆家浜路海潮路"},{"poiid":"B2094757D068A6F5439B","title":"世博会城市未来馆","lon":"121.49785","lat":"31.20127","category":"500","category_name":"未知分类","address":"上海世博会E片区"},{"poiid":"B2094757D06FA3F4459F","title":"南浦大桥地铁站","lon":"121.49936726","lat":"31.20842377","category":"36","category_name":"地铁站","address":"上海轨道交通 四号线 轨交南浦大桥站 轻轨 4"},{"poiid":"B2094757D06FA4F4429B","title":"上海市第二人民医院","lon":"121.50425317","lat":"31.210314152","category":"162","category_name":"医院","address":"黄浦区多稼路1号(近中山南路)"},{"poiid":"B2094750DB69A3FD4993","title":"镭战大联盟","lon":"121.501408","lat":"31.204725","category":"248","category_name":"生活娱乐","address":"黄浦区外马路1353号(近南浦大桥)"},{"poiid":"B2094654DA68A0FD469D","title":"帝龙海鲜舫","lon":"121.50427282682","lat":"31.206678575885","category":"76","category_name":"上海菜","address":"黄浦区外马路1333号(近南浦大桥)"},{"poiid":"B2094757D068A3FB4892","title":"云餐厅(世博店)","lon":"121.49891375","lat":"31.200957366","category":"260","category_name":"其他","address":"黄浦区南车站路世博园城市未来馆7-8楼(近半淞园路9月份营业)"},{"poiid":"B2094654DA68A0FD4592","title":"上海南浦大桥长途旅游客运站","lon":"121.50129","lat":"31.20767","category":"35","category_name":"长途汽车站","address":"黄浦区外马路1588号(近陆家浜路)"},{"poiid":"B2094757D068A5FE409F","title":"黄浦区旅游集散中心 二楼携程VIP","lon":"121.501064","lat":"31.207764","category":"260","category_name":"其他","address":"上海外马路1588号"},{"poiid":"B2094757D068A6FA439E","title":"黄浦区工人文化宫","lon":"121.49624","lat":"31.2076","category":"500","category_name":"未知分类","address":"黄浦区普育东路227号(瞿溪路普育东路)"},{"poiid":"B2094757D065A6FC4692","title":"HAVEN","lon":"121.50305603","lat":"31.211066691","category":"97","category_name":"法式菜品餐厅","address":"黄浦区中山南路1029号幸福码头3号楼(近多稼路)"},{"poiid":"B2094757D06AA3F9469D","title":"中福花苑青年汇酒店式公寓","lon":"121.49864","lat":"31.21044","category":"217","category_name":"旅馆招待所","address":"上海黄浦区海潮路93弄(近陆家浜路)  "},{"poiid":"B2094655D26AA5F8449D","title":"大富贵酒楼普育东路店","lon":"121.4959","lat":"31.20773","category":"76","category_name":"上海菜","address":"黄浦区普育东路227号(瞿溪路普育东路)"},{"poiid":"B2094757D16AABFA409E","title":"地铁6号线世纪大道站","lon":"121.495764738","lat":"31.2038677385","category":"500","category_name":"未知分类","address":"上海"},{"poiid":"B209475DD66AA7FE429C","title":"Pulupulu主题游戏馆","lon":"121.500289","lat":"31.205091","category":"248","category_name":"生活娱乐","address":"上海市 黄浦区苗江路139号"},{"poiid":"B2094750DA64ABFE469E","title":"上海当代艺术博物馆","lon":"121.499153","lat":"31.200927","category":"500","category_name":"未知分类","address":null},{"poiid":"B2094654DA68A0FD4698","title":"海狮大厦","lon":"121.50265","lat":"31.20692","category":"46","category_name":"楼宇","address":"徐汇区田林路300号"},{"poiid":"B2094757D164AAF84192","title":"沪军营路公交枢纽","lon":"121.501061619","lat":"31.2059114971","category":"38","category_name":"公交车站","address":"上海南浦大桥沪军营路"},{"poiid":"B2094655D268ABFF4093","title":"内环南浦大桥立交桥","lon":"121.50024","lat":"31.20819","category":"250","category_name":"公园户外","address":""},{"poiid":"B209475DD66AA7FE4193","title":"Pulu Pulu主题游戏馆","lon":"121.500282","lat":"31.205087","category":"248","category_name":"生活娱乐","address":"上海市 黄浦区苗江路139号"},{"poiid":"B2094757DB6DA3F94993","title":"苏先生海鲜鱼荘","lon":"121.5003222358991","lat":"31.2059752855171","category":"247","category_name":"餐饮美食","address":"浦东南路2304号"},{"poiid":"B2094654DA68A0FD469E","title":"黄浦公安分局交警支队业务接待受理点","lon":"121.50264","lat":"31.20692","category":"248","category_name":"生活娱乐","address":"陆家浜路88号海狮大厦"},{"poiid":"B209475CD768A0FF4499","title":"pulupulu主题游戏馆","lon":"121.504699","lat":"31.203042","category":"500","category_name":"未知分类","address":"上海市 苗江路139号"},{"poiid":"B2094757D064A0F94999","title":"黄浦区交警队","lon":"121.502949","lat":"31.208994","category":"500","category_name":"未知分类","address":"上海丰记码头街78号"},{"poiid":"B2094757D16CA4FF4198","title":"外码头上海创意产业聚集区","lon":"121.505065","lat":"31.208697","category":"46","category_name":"楼宇","address":"上海黄浦区外马路1178号"},{"poiid":"B2094757D169AAFD4998","title":"海潮新村","lon":"121.497","lat":"31.209507","category":"252","category_name":"楼宇机构","address":"上海市黄浦区陆家浜路普育东路"},{"poiid":"B2094757D068A5F8419F","title":"黄浦区社会保险事业管理中心","lon":"121.501153","lat":"31.210839","category":"252","category_name":"楼宇机构","address":"上海黄浦区陆家浜路265号"},{"poiid":"B2094750D16BA1FD409D","title":"虹口足球场","lon":"121.5032644966952","lat":"31.20336783101407","category":"220","category_name":"运动场所","address":null},{"poiid":"B2094654DA68A0FD469F","title":"帝龙","lon":"121.50285","lat":"31.20672","category":"170","category_name":"KTV","address":"陆家浜路18号"},{"poiid":"B2094655D26BA1FF4293","title":"南浦大桥沪军营路","lon":"121.49861","lat":"31.20545","category":"38","category_name":"公交车站","address":""},{"poiid":"B2094757D66EA7F54698","title":"南浦大桥引桥","lon":"121.50467189","lat":"31.205788251","category":"500","category_name":"未知分类","address":"上海南浦大桥"},{"poiid":"B2094757D064AAF8449B","title":"公交65路","lon":"121.50361633","lat":"31.206497192","category":"38","category_name":"公交车站","address":"上海南浦大桥-北区汽车站"},{"poiid":"B2094654DA68A0FD4699","title":"黄浦区道路交通事故纠纷调解室","lon":"121.50265","lat":"31.20692","category":"250","category_name":"公园户外","address":"陆家浜路88号海狮大厦"},{"poiid":"B2094757D16AA6F9489D","title":"象山小岛人家","lon":"121.500695138","lat":"31.2081551298","category":"247","category_name":"餐饮美食","address":"上海薛家浜路218号"},{"poiid":"B2094655D268A6FF4993","title":"黄浦交通违章受理队","lon":"121.5033","lat":"31.20581","category":"250","category_name":"公园户外","address":""},{"poiid":"B2094752DA6BABFA4599","title":"当代艺术博物馆","lon":"121.499593","lat":"31.207842","category":"500","category_name":"未知分类","address":"上海市 上海市花园港路200号"},{"poiid":"B2094654DA68A0FC4398","title":"上海三山会馆管理处","lon":"121.49584","lat":"31.20556","category":"263","category_name":"公司","address":"黄浦区中山南路1551号(半淞园路苗江路)"},{"poiid":"B2094757D66BA3F9439B","title":"湘味醇","lon":"121.498131","lat":"31.2103","category":"77","category_name":"湖南菜","address":"黄浦区海潮路63号(近陆家浜路)"},{"poiid":"B209475CD76CABFC4892","title":"上海体育馆","lon":"121.501022","lat":"31.207822","category":"500","category_name":"未知分类","address":"上海市 上海体育馆"},{"poiid":"B2094750DB65A2F4499F","title":"上海当代艺术馆","lon":"121.49842","lat":"31.200689","category":"500","category_name":"未知分类","address":null},{"poiid":"B209475CD36FA5FE4092","title":"镭战大联盟真人CS 南外滩店","lon":"121.50314","lat":"31.20637","category":"172","category_name":"酒吧","address":"外马路1353号7-8号楼(近南浦大桥)"},{"poiid":"B2094752DA6AA5FB409F","title":"浦东国际机场","lon":"121.50087","lat":"31.209503","category":"500","category_name":"未知分类","address":"上海市 浦东国际机场T2航站楼"},{"poiid":"B2094757D46FA1F8449B","title":"乔家栅 海潮路店","lon":"121.497746","lat":"31.209484","category":"76","category_name":"上海菜","address":"黄浦区海潮路162号(近南浦大桥)"},{"poiid":"B2094654DA68A1FB439F","title":"贝蝶专业美发美容院","lon":"121.49622","lat":"31.20896","category":"148","category_name":"美容美发店","address":"国货路137"},{"poiid":"B2094757D16FA4FA429B","title":"阿诗玛峰","lon":"121.50060653","lat":"31.207342912","category":"500","category_name":"未知分类","address":"上海普育东路101弄"},{"poiid":"B2094750DB65AAF8419F","title":"喜马拉雅中心","lon":"121.499755","lat":"31.203878","category":"627","category_name":"一般地点标志","address":"芳甸路"},{"poiid":"B2094757D16EA5FB439A","title":"公交868终点站","lon":"121.499443418","lat":"31.2077030702","category":"500","category_name":"未知分类","address":"上海南浦大桥(沪军营路)"},{"poiid":"B2094655D36DA6FE419E","title":"南浦大桥","lon":"121.49934","lat":"31.20845","category":"38","category_name":"公交车站","address":"黄浦区南马路1410号"},{"poiid":"B2094655D26AA1FA4998","title":"黄浦旅游集散站","lon":"121.50134","lat":"31.20778","category":"35","category_name":"长途汽车站","address":"黄浦区外马路1588号"},{"poiid":"B2094751D26CA1F84692","title":"上海当代艺术博物馆","lon":"121.498542","lat":"31.200687","category":"500","category_name":"未知分类","address":"西藏南路世博园区"},{"poiid":"B2094757D06FA2F54399","title":"陆家浜路海潮路","lon":"121.499351","lat":"31.211211","category":"500","category_name":"未知分类","address":"上海陆家浜路海潮路"},{"poiid":"B2094757D068A6F5439B","title":"世博会城市未来馆","lon":"121.49785","lat":"31.20127","category":"500","category_name":"未知分类","address":"上海世博会E片区"},{"poiid":"B2094757D06FA3F4459F","title":"南浦大桥地铁站","lon":"121.49936726","lat":"31.20842377","category":"36","category_name":"地铁站","address":"上海轨道交通 四号线 轨交南浦大桥站 轻轨 4"},{"poiid":"B2094757D06FA4F4429B","title":"上海市第二人民医院","lon":"121.50425317","lat":"31.210314152","category":"162","category_name":"医院","address":"黄浦区多稼路1号(近中山南路)"},{"poiid":"B2094750DB69A3FD4993","title":"镭战大联盟","lon":"121.501408","lat":"31.204725","category":"248","category_name":"生活娱乐","address":"黄浦区外马路1353号(近南浦大桥)"},{"poiid":"B2094654DA68A0FD469D","title":"帝龙海鲜舫","lon":"121.50427282682","lat":"31.206678575885","category":"76","category_name":"上海菜","address":"黄浦区外马路1333号(近南浦大桥)"},{"poiid":"B2094757D068A3FB4892","title":"云餐厅(世博店)","lon":"121.49891375","lat":"31.200957366","category":"260","category_name":"其他","address":"黄浦区南车站路世博园城市未来馆7-8楼(近半淞园路9月份营业)"},{"poiid":"B2094654DA68A0FD4592","title":"上海南浦大桥长途旅游客运站","lon":"121.50129","lat":"31.20767","category":"35","category_name":"长途汽车站","address":"黄浦区外马路1588号(近陆家浜路)"},{"poiid":"B2094757D068A5FE409F","title":"黄浦区旅游集散中心 二楼携程VIP","lon":"121.501064","lat":"31.207764","category":"260","category_name":"其他","address":"上海外马路1588号"},{"poiid":"B2094757D068A6FA439E","title":"黄浦区工人文化宫","lon":"121.49624","lat":"31.2076","category":"500","category_name":"未知分类","address":"黄浦区普育东路227号(瞿溪路普育东路)"},{"poiid":"B2094757D065A6FC4692","title":"HAVEN","lon":"121.50305603","lat":"31.211066691","category":"97","category_name":"法式菜品餐厅","address":"黄浦区中山南路1029号幸福码头3号楼(近多稼路)"},{"poiid":"B2094757D06AA3F9469D","title":"中福花苑青年汇酒店式公寓","lon":"121.49864","lat":"31.21044","category":"217","category_name":"旅馆招待所","address":"上海黄浦区海潮路93弄(近陆家浜路)  "},{"poiid":"B2094655D26AA5F8449D","title":"大富贵酒楼普育东路店","lon":"121.4959","lat":"31.20773","category":"76","category_name":"上海菜","address":"黄浦区普育东路227号(瞿溪路普育东路)"},{"poiid":"B2094757D16AABFA409E","title":"地铁6号线世纪大道站","lon":"121.495764738","lat":"31.2038677385","category":"500","category_name":"未知分类","address":"上海"},{"poiid":"B209475DD66AA7FE429C","title":"Pulupulu主题游戏馆","lon":"121.500289","lat":"31.205091","category":"248","category_name":"生活娱乐","address":"上海市 黄浦区苗江路139号"},{"poiid":"B2094750DA64ABFE469E","title":"上海当代艺术博物馆","lon":"121.499153","lat":"31.200927","category":"500","category_name":"未知分类","address":null},{"poiid":"B2094654DA68A0FD4698","title":"海狮大厦","lon":"121.50265","lat":"31.20692","category":"46","category_name":"楼宇","address":"徐汇区田林路300号"},{"poiid":"B2094757D164AAF84192","title":"沪军营路公交枢纽","lon":"121.501061619","lat":"31.2059114971","category":"38","category_name":"公交车站","address":"上海南浦大桥沪军营路"},{"poiid":"B2094655D268ABFF4093","title":"内环南浦大桥立交桥","lon":"121.50024","lat":"31.20819","category":"250","category_name":"公园户外","address":""},{"poiid":"B209475DD66AA7FE4193","title":"Pulu Pulu主题游戏馆","lon":"121.500282","lat":"31.205087","category":"248","category_name":"生活娱乐","address":"上海市 黄浦区苗江路139号"},{"poiid":"B2094757DB6DA3F94993","title":"苏先生海鲜鱼荘","lon":"121.5003222358991","lat":"31.2059752855171","category":"247","category_name":"餐饮美食","address":"浦东南路2304号"},{"poiid":"B2094654DA68A0FD469E","title":"黄浦公安分局交警支队业务接待受理点","lon":"121.50264","lat":"31.20692","category":"248","category_name":"生活娱乐","address":"陆家浜路88号海狮大厦"},{"poiid":"B209475CD768A0FF4499","title":"pulupulu主题游戏馆","lon":"121.504699","lat":"31.203042","category":"500","category_name":"未知分类","address":"上海市 苗江路139号"},{"poiid":"B2094757D064A0F94999","title":"黄浦区交警队","lon":"121.502949","lat":"31.208994","category":"500","category_name":"未知分类","address":"上海丰记码头街78号"},{"poiid":"B2094757D16CA4FF4198","title":"外码头上海创意产业聚集区","lon":"121.505065","lat":"31.208697","category":"46","category_name":"楼宇","address":"上海黄浦区外马路1178号"},{"poiid":"B2094757D169AAFD4998","title":"海潮新村","lon":"121.497","lat":"31.209507","category":"252","category_name":"楼宇机构","address":"上海市黄浦区陆家浜路普育东路"},{"poiid":"B2094757D068A5F8419F","title":"黄浦区社会保险事业管理中心","lon":"121.501153","lat":"31.210839","category":"252","category_name":"楼宇机构","address":"上海黄浦区陆家浜路265号"},{"poiid":"B2094750D16BA1FD409D","title":"虹口足球场","lon":"121.5032644966952","lat":"31.20336783101407","category":"220","category_name":"运动场所","address":null},{"poiid":"B2094654DA68A0FD469F","title":"帝龙","lon":"121.50285","lat":"31.20672","category":"170","category_name":"KTV","address":"陆家浜路18号"},{"poiid":"B2094655D26BA1FF4293","title":"南浦大桥沪军营路","lon":"121.49861","lat":"31.20545","category":"38","category_name":"公交车站","address":""},{"poiid":"B2094757D66EA7F54698","title":"南浦大桥引桥","lon":"121.50467189","lat":"31.205788251","category":"500","category_name":"未知分类","address":"上海南浦大桥"},{"poiid":"B2094757D064AAF8449B","title":"公交65路","lon":"121.50361633","lat":"31.206497192","category":"38","category_name":"公交车站","address":"上海南浦大桥-北区汽车站"},{"poiid":"B2094654DA68A0FD4699","title":"黄浦区道路交通事故纠纷调解室","lon":"121.50265","lat":"31.20692","category":"250","category_name":"公园户外","address":"陆家浜路88号海狮大厦"},{"poiid":"B2094757D16AA6F9489D","title":"象山小岛人家","lon":"121.500695138","lat":"31.2081551298","category":"247","category_name":"餐饮美食","address":"上海薛家浜路218号"},{"poiid":"B2094655D268A6FF4993","title":"黄浦交通违章受理队","lon":"121.5033","lat":"31.20581","category":"250","category_name":"公园户外","address":""},{"poiid":"B2094752DA6BABFA4599","title":"当代艺术博物馆","lon":"121.499593","lat":"31.207842","category":"500","category_name":"未知分类","address":"上海市 上海市花园港路200号"},{"poiid":"B2094654DA68A0FC4398","title":"上海三山会馆管理处","lon":"121.49584","lat":"31.20556","category":"263","category_name":"公司","address":"黄浦区中山南路1551号(半淞园路苗江路)"},{"poiid":"B2094757D66BA3F9439B","title":"湘味醇","lon":"121.498131","lat":"31.2103","category":"77","category_name":"湖南菜","address":"黄浦区海潮路63号(近陆家浜路)"},{"poiid":"B209475CD76CABFC4892","title":"上海体育馆","lon":"121.501022","lat":"31.207822","category":"500","category_name":"未知分类","address":"上海市 上海体育馆"},{"poiid":"B2094750DB65A2F4499F","title":"上海当代艺术馆","lon":"121.49842","lat":"31.200689","category":"500","category_name":"未知分类","address":null},{"poiid":"B209475CD36FA5FE4092","title":"镭战大联盟真人CS 南外滩店","lon":"121.50314","lat":"31.20637","category":"172","category_name":"酒吧","address":"外马路1353号7-8号楼(近南浦大桥)"},{"poiid":"B2094752DA6AA5FB409F","title":"浦东国际机场","lon":"121.50087","lat":"31.209503","category":"500","category_name":"未知分类","address":"上海市 浦东国际机场T2航站楼"},{"poiid":"B2094757D46FA1F8449B","title":"乔家栅 海潮路店","lon":"121.497746","lat":"31.209484","category":"76","category_name":"上海菜","address":"黄浦区海潮路162号(近南浦大桥)"},{"poiid":"B2094654DA68A1FB439F","title":"贝蝶专业美发美容院","lon":"121.49622","lat":"31.20896","category":"148","category_name":"美容美发店","address":"国货路137"},{"poiid":"B2094757D16FA4FA429B","title":"阿诗玛峰","lon":"121.50060653","lat":"31.207342912","category":"500","category_name":"未知分类","address":"上海普育东路101弄"},{"poiid":"B2094750DB65AAF8419F","title":"喜马拉雅中心","lon":"121.499755","lat":"31.203878","category":"627","category_name":"一般地点标志","address":"芳甸路"},{"poiid":"B2094757D16EA5FB439A","title":"公交868终点站","lon":"121.499443418","lat":"31.2077030702","category":"500","category_name":"未知分类","address":"上海南浦大桥(沪军营路)"},{"poiid":"B2094655D36DA6FE419E","title":"南浦大桥","lon":"121.49934","lat":"31.20845","category":"38","category_name":"公交车站","address":"黄浦区南马路1410号"},{"poiid":"B2094655D26AA1FA4998","title":"黄浦旅游集散站","lon":"121.50134","lat":"31.20778","category":"35","category_name":"长途汽车站","address":"黄浦区外马路1588号"},{"poiid":"B2094751D26CA1F84692","title":"上海当代艺术博物馆","lon":"121.498542","lat":"31.200687","category":"500","category_name":"未知分类","address":"西藏南路世博园区"},{"poiid":"B2094757D06FA2F54399","title":"陆家浜路海潮路","lon":"121.499351","lat":"31.211211","category":"500","category_name":"未知分类","address":"上海陆家浜路海潮路"},{"poiid":"B2094757D068A6F5439B","title":"世博会城市未来馆","lon":"121.49785","lat":"31.20127","category":"500","category_name":"未知分类","address":"上海世博会E片区"},{"poiid":"B2094757D06FA3F4459F","title":"南浦大桥地铁站","lon":"121.49936726","lat":"31.20842377","category":"36","category_name":"地铁站","address":"上海轨道交通 四号线 轨交南浦大桥站 轻轨 4"},{"poiid":"B2094757D06FA4F4429B","title":"上海市第二人民医院","lon":"121.50425317","lat":"31.210314152","category":"162","category_name":"医院","address":"黄浦区多稼路1号(近中山南路)"},{"poiid":"B2094750DB69A3FD4993","title":"镭战大联盟","lon":"121.501408","lat":"31.204725","category":"248","category_name":"生活娱乐","address":"黄浦区外马路1353号(近南浦大桥)"},{"poiid":"B2094654DA68A0FD469D","title":"帝龙海鲜舫","lon":"121.50427282682","lat":"31.206678575885","category":"76","category_name":"上海菜","address":"黄浦区外马路1333号(近南浦大桥)"},{"poiid":"B2094757D068A3FB4892","title":"云餐厅(世博店)","lon":"121.49891375","lat":"31.200957366","category":"260","category_name":"其他","address":"黄浦区南车站路世博园城市未来馆7-8楼(近半淞园路9月份营业)"},{"poiid":"B2094654DA68A0FD4592","title":"上海南浦大桥长途旅游客运站","lon":"121.50129","lat":"31.20767","category":"35","category_name":"长途汽车站","address":"黄浦区外马路1588号(近陆家浜路)"},{"poiid":"B2094757D068A5FE409F","title":"黄浦区旅游集散中心 二楼携程VIP","lon":"121.501064","lat":"31.207764","category":"260","category_name":"其他","address":"上海外马路1588号"},{"poiid":"B2094757D068A6FA439E","title":"黄浦区工人文化宫","lon":"121.49624","lat":"31.2076","category":"500","category_name":"未知分类","address":"黄浦区普育东路227号(瞿溪路普育东路)"},{"poiid":"B2094757D065A6FC4692","title":"HAVEN","lon":"121.50305603","lat":"31.211066691","category":"97","category_name":"法式菜品餐厅","address":"黄浦区中山南路1029号幸福码头3号楼(近多稼路)"},{"poiid":"B2094757D06AA3F9469D","title":"中福花苑青年汇酒店式公寓","lon":"121.49864","lat":"31.21044","category":"217","category_name":"旅馆招待所","address":"上海黄浦区海潮路93弄(近陆家浜路)  "},{"poiid":"B2094655D26AA5F8449D","title":"大富贵酒楼普育东路店","lon":"121.4959","lat":"31.20773","category":"76","category_name":"上海菜","address":"黄浦区普育东路227号(瞿溪路普育东路)"},{"poiid":"B2094757D16AABFA409E","title":"地铁6号线世纪大道站","lon":"121.495764738","lat":"31.2038677385","category":"500","category_name":"未知分类","address":"上海"},{"poiid":"B209475DD66AA7FE429C","title":"Pulupulu主题游戏馆","lon":"121.500289","lat":"31.205091","category":"248","category_name":"生活娱乐","address":"上海市 黄浦区苗江路139号"},{"poiid":"B2094750DA64ABFE469E","title":"上海当代艺术博物馆","lon":"121.499153","lat":"31.200927","category":"500","category_name":"未知分类","address":null},{"poiid":"B2094654DA68A0FD4698","title":"海狮大厦","lon":"121.50265","lat":"31.20692","category":"46","category_name":"楼宇","address":"徐汇区田林路300号"},{"poiid":"B2094757D164AAF84192","title":"沪军营路公交枢纽","lon":"121.501061619","lat":"31.2059114971","category":"38","category_name":"公交车站","address":"上海南浦大桥沪军营路"},{"poiid":"B2094655D268ABFF4093","title":"内环南浦大桥立交桥","lon":"121.50024","lat":"31.20819","category":"250","category_name":"公园户外","address":""},{"poiid":"B209475DD66AA7FE4193","title":"Pulu Pulu主题游戏馆","lon":"121.500282","lat":"31.205087","category":"248","category_name":"生活娱乐","address":"上海市 黄浦区苗江路139号"},{"poiid":"B2094757DB6DA3F94993","title":"苏先生海鲜鱼荘","lon":"121.5003222358991","lat":"31.2059752855171","category":"247","category_name":"餐饮美食","address":"浦东南路2304号"},{"poiid":"B2094654DA68A0FD469E","title":"黄浦公安分局交警支队业务接待受理点","lon":"121.50264","lat":"31.20692","category":"248","category_name":"生活娱乐","address":"陆家浜路88号海狮大厦"},{"poiid":"B209475CD768A0FF4499","title":"pulupulu主题游戏馆","lon":"121.504699","lat":"31.203042","category":"500","category_name":"未知分类","address":"上海市 苗江路139号"},{"poiid":"B2094757D064A0F94999","title":"黄浦区交警队","lon":"121.502949","lat":"31.208994","category":"500","category_name":"未知分类","address":"上海丰记码头街78号"},{"poiid":"B2094757D16CA4FF4198","title":"外码头上海创意产业聚集区","lon":"121.505065","lat":"31.208697","category":"46","category_name":"楼宇","address":"上海黄浦区外马路1178号"},{"poiid":"B2094757D169AAFD4998","title":"海潮新村","lon":"121.497","lat":"31.209507","category":"252","category_name":"楼宇机构","address":"上海市黄浦区陆家浜路普育东路"},{"poiid":"B2094757D068A5F8419F","title":"黄浦区社会保险事业管理中心","lon":"121.501153","lat":"31.210839","category":"252","category_name":"楼宇机构","address":"上海黄浦区陆家浜路265号"},{"poiid":"B2094750D16BA1FD409D","title":"虹口足球场","lon":"121.5032644966952","lat":"31.20336783101407","category":"220","category_name":"运动场所","address":null},{"poiid":"B2094654DA68A0FD469F","title":"帝龙","lon":"121.50285","lat":"31.20672","category":"170","category_name":"KTV","address":"陆家浜路18号"},{"poiid":"B2094655D26BA1FF4293","title":"南浦大桥沪军营路","lon":"121.49861","lat":"31.20545","category":"38","category_name":"公交车站","address":""},{"poiid":"B2094757D66EA7F54698","title":"南浦大桥引桥","lon":"121.50467189","lat":"31.205788251","category":"500","category_name":"未知分类","address":"上海南浦大桥"},{"poiid":"B2094757D064AAF8449B","title":"公交65路","lon":"121.50361633","lat":"31.206497192","category":"38","category_name":"公交车站","address":"上海南浦大桥-北区汽车站"},{"poiid":"B2094654DA68A0FD4699","title":"黄浦区道路交通事故纠纷调解室","lon":"121.50265","lat":"31.20692","category":"250","category_name":"公园户外","address":"陆家浜路88号海狮大厦"},{"poiid":"B2094757D16AA6F9489D","title":"象山小岛人家","lon":"121.500695138","lat":"31.2081551298","category":"247","category_name":"餐饮美食","address":"上海薛家浜路218号"},{"poiid":"B2094655D268A6FF4993","title":"黄浦交通违章受理队","lon":"121.5033","lat":"31.20581","category":"250","category_name":"公园户外","address":""},{"poiid":"B2094752DA6BABFA4599","title":"当代艺术博物馆","lon":"121.499593","lat":"31.207842","category":"500","category_name":"未知分类","address":"上海市 上海市花园港路200号"},{"poiid":"B2094654DA68A0FC4398","title":"上海三山会馆管理处","lon":"121.49584","lat":"31.20556","category":"263","category_name":"公司","address":"黄浦区中山南路1551号(半淞园路苗江路)"},{"poiid":"B2094757D66BA3F9439B","title":"湘味醇","lon":"121.498131","lat":"31.2103","category":"77","category_name":"湖南菜","address":"黄浦区海潮路63号(近陆家浜路)"},{"poiid":"B209475CD76CABFC4892","title":"上海体育馆","lon":"121.501022","lat":"31.207822","category":"500","category_name":"未知分类","address":"上海市 上海体育馆"},{"poiid":"B2094750DB65A2F4499F","title":"上海当代艺术馆","lon":"121.49842","lat":"31.200689","category":"500","category_name":"未知分类","address":null},{"poiid":"B209475CD36FA5FE4092","title":"镭战大联盟真人CS 南外滩店","lon":"121.50314","lat":"31.20637","category":"172","category_name":"酒吧","address":"外马路1353号7-8号楼(近南浦大桥)"},{"poiid":"B2094752DA6AA5FB409F","title":"浦东国际机场","lon":"121.50087","lat":"31.209503","category":"500","category_name":"未知分类","address":"上海市 浦东国际机场T2航站楼"},{"poiid":"B2094757D46FA1F8449B","title":"乔家栅 海潮路店","lon":"121.497746","lat":"31.209484","category":"76","category_name":"上海菜","address":"黄浦区海潮路162号(近南浦大桥)"},{"poiid":"B2094654DA68A1FB439F","title":"贝蝶专业美发美容院","lon":"121.49622","lat":"31.20896","category":"148","category_name":"美容美发店","address":"国货路137"},{"poiid":"B2094757D16FA4FA429B","title":"阿诗玛峰","lon":"121.50060653","lat":"31.207342912","category":"500","category_name":"未知分类","address":"上海普育东路101弄"},{"poiid":"B2094750DB65AAF8419F","title":"喜马拉雅中心","lon":"121.499755","lat":"31.203878","category":"627","category_name":"一般地点标志","address":"芳甸路"},{"poiid":"B2094757D16EA5FB439A","title":"公交868终点站","lon":"121.499443418","lat":"31.2077030702","category":"500","category_name":"未知分类","address":"上海南浦大桥(沪军营路)"}]