[{"poiid":"B2094655D26BA2F84793","title":"天山路威宁路","lon":"121.387424","lat":"31.214728","category":"38","category_name":"公交车站","address":""},{"poiid":"B2094757D06FABF8449F","title":"美年健康(天山路店)","lon":"121.3779","lat":"31.21599","category":"162","category_name":"医院","address":"长宁区天山路8号(近哈密路)"},{"poiid":"B2094757D06FA1FE459A","title":"延安中学","lon":"121.37963","lat":"31.20991","category":"55","category_name":"中学","address":"长宁区茅台路1111号(茅台路双流路)"},{"poiid":"B2094757DA6EABF8439F","title":"17.5影院(北虹路店)","lon":"121.37688","lat":"31.214945","category":"178","category_name":"电影院","address":"长宁区北虹路1068号4楼(近2号线北新泾地铁站)"},{"poiid":"B2094655D26EA1F44193","title":"天涯海角","lon":"121.38126","lat":"31.21603","category":"149","category_name":"洗浴推拿场所","address":"长宁区天山路186-192号(近北虹路)"},{"poiid":"B2094757D068ABFC4193","title":"元化门诊体检中心","lon":"121.37857","lat":"31.21568","category":"162","category_name":"医院","address":"长宁区天山路30号3楼(近哈密路)"},{"poiid":"B2094752D36DA3F8419A","title":"17.5北虹广场影城","lon":"121.37678951025009","lat":"31.21515273321473","category":"178","category_name":"电影院","address":"上海长宁区北虹路1068号第四层B区(世纪联华)"},{"poiid":"B2094757D068A6F94599","title":"长宁区社保中心","lon":"121.379334","lat":"31.216286","category":"500","category_name":"未知分类","address":"长宁区天山路38号(近哈密路)"},{"poiid":"B2094654DB69A5FF4293","title":"莫泰168连锁旅店(天山路店)","lon":"121.37976","lat":"31.21633","category":"216","category_name":"经济型连锁酒店","address":"长宁区天山路78号(近哈密路)"},{"poiid":"B2094654D56BA6FC409C","title":"上海市公安局长宁分局","lon":"121.38357","lat":"31.21023","category":"248","category_name":"生活娱乐","address":"威宁路201"},{"poiid":"B2094757D069AAFF469F","title":"仙霞大郡","lon":"121.38","lat":"31.2159","category":"47","category_name":"住宅区","address":"仙霞大郡位于长宁仙霞路1225弄"},{"poiid":"B2094654DB6BA7FD4592","title":"天台家园","lon":"121.38205","lat":"31.211514","category":"47","category_name":"住宅区","address":"上海长宁区茅台路900弄,新渔东路455弄"},{"poiid":"B2094654DB6BA0FC449C","title":"如家快捷酒店(上海虹桥北虹路店)","lon":"121.37634","lat":"31.21165","category":"216","category_name":"经济型连锁酒店","address":"上海市长宁区北虹路1129号(近天山路)"},{"poiid":"B2094654D56BA6FD419D","title":"南洋新都","lon":"121.38235","lat":"31.214426","category":"47","category_name":"住宅区","address":"上海市长宁区天山路177弄"},{"poiid":"B2094757DA64A0FF4893","title":"うな吉","lon":"121.381205","lat":"31.211706","category":"247","category_name":"餐饮美食","address":"长宁区安龙路695号(近仙霞路)"},{"poiid":"B2094757D06FA6FE419B","title":"世纪联华(天山店)","lon":"121.37688663","lat":"31.214867087","category":"118","category_name":"超级市场","address":"长宁区北虹路1068号(北虹路哈密路)"},{"poiid":"B2094757D16DA1FB4892","title":"长中心输液室","lon":"121.37839049","lat":"31.208851247","category":"162","category_name":"医院","address":"上海仙霞路1111"},{"poiid":"B2094654D56BA6FC469C","title":"双流小区(西门)","lon":"121.38054","lat":"31.21237","category":"47","category_name":"住宅区","address":"双流路54弄1-12号"},{"poiid":"B2094655D26CAAFB4093","title":"天瑞大厦(东四门)","lon":"121.38017","lat":"31.21223","category":"46","category_name":"楼宇","address":""},{"poiid":"B2094757D064A0FB4399","title":"天山路芙蓉江路公交站","lon":"121.38003168","lat":"31.21282019","category":"38","category_name":"公交车站","address":"上海长宁区天山路(近芙蓉江路)"},{"poiid":"B2094654D56BA6FC469B","title":"一品香菜饭(双流路)","lon":"121.38056","lat":"31.21198","category":"257","category_name":"中餐厅","address":"双流路36"},{"poiid":"B2094655D36CA1FE449E","title":"双流路天山路","lon":"121.38058","lat":"31.21396","category":"38","category_name":"公交车站","address":""},{"poiid":"B2094654D56BA6FC469D","title":"双流小区","lon":"121.38126","lat":"31.212214","category":"47","category_name":"住宅区","address":"双流路54弄1-12号"},{"poiid":"B2094655D26DA7F84192","title":"天瑞大厦(东一门)","lon":"121.38006","lat":"31.21146","category":"46","category_name":"楼宇","address":"双流路31号"},{"poiid":"B2094757D16EA7FE4193","title":"麦莱芙面包坊","lon":"121.385558","lat":"31.214928","category":"112","category_name":"糕饼店","address":"长宁区天山路341号缤谷文化休闲广场1楼104室(近威宁路)"},{"poiid":"B2094655D26AA5F44793","title":"花与石草本护理中心双流路店","lon":"121.3805","lat":"31.21131","category":"247","category_name":"餐饮美食","address":"长宁区双流路8号(近茅台路)"},{"poiid":"B2094655D26BA1FA479B","title":"茅台路威宁路","lon":"121.38549","lat":"31.2107","category":"38","category_name":"公交车站","address":""},{"poiid":"B2094654D56BA6FD4199","title":"可的(新渔东路)","lon":"121.38244","lat":"31.2126","category":"117","category_name":"便民商店/便利店","address":"长宁区新渔东路473号"},{"poiid":"B2094757D164A2FA459D","title":"莲台健身俱乐部","lon":"121.3806","lat":"31.21133","category":"148","category_name":"美容美发店","address":"长宁区双流路28号(茅台路双流路)"},{"poiid":"B2094757D16AA1FF419B","title":"南新幼儿园","lon":"121.38178","lat":"31.21333","category":"57","category_name":"幼儿园","address":"长宁区新渔东路630号(近双流路)"},{"poiid":"B2094655D26AA6F4449B","title":"溢百家餐厅","lon":"121.38127","lat":"31.21338","category":"247","category_name":"餐饮美食","address":"长宁区双流路100号(近新渔路)"},{"poiid":"B2094752D46AA2F54599","title":"华辉加油站","lon":"121.380865","lat":"31.213354","category":"153","category_name":"加油站","address":"上海市长宁区仙霞路1310号(林泉路口)"},{"poiid":"B2094654D569A4FB4493","title":"佳辰假日酒店","lon":"121.37915","lat":"31.211","category":"250","category_name":"公园户外","address":"长宁区茅台路1006号(近威宁路)"},{"poiid":"B2094757D069A1FA419D","title":"大桶大足浴(天山店)","lon":"121.382177586","lat":"31.2170111725","category":"149","category_name":"洗浴推拿场所","address":"长宁区双流路271号(近长宁路)"},{"poiid":"B2094757D06FA3F94192","title":"JEANSTOPSALON(京世天山店)","lon":"121.37752","lat":"31.21582","category":"148","category_name":"美容美发店","address":"上海长宁区北渔路70-72号(近天山西路)"},{"poiid":"B2094752D669AAFD4499","title":"外滩三号","lon":"121.380127","lat":"31.214615","category":"247","category_name":"餐饮美食","address":"黄浦区中山东路一号"},{"poiid":"B2094655D26BA6FB449A","title":"巴黎时尚","lon":"121.382606","lat":"31.212864","category":"47","category_name":"住宅区","address":"上海市长宁区仙霞路1118弄"},{"poiid":"B2094757D069A5FA4798","title":"阿玛尼","lon":"121.38446958","lat":"31.211842071","category":"500","category_name":"未知分类","address":"上海市长宁区新渔东路"},{"poiid":"B2094654D56BA6FD4092","title":"朋友形象设计公社","lon":"121.38206","lat":"31.21287","category":"148","category_name":"美容美发店","address":"新渔东路483"},{"poiid":"B2094655D265A6F8479F","title":"仙霞沈家新苑","lon":"121.38146","lat":"31.213996","category":"47","category_name":"住宅区","address":"上海市长宁区仙霞路1225弄"},{"poiid":"B2094655D26DA7FF469F","title":"上海市延安中学体育场(北门)","lon":"121.38192","lat":"31.21068","category":"224","category_name":"综合体育馆","address":"茅台路999"},{"poiid":"B2094757D169A7FE439D","title":"天山新苑","lon":"121.38212","lat":"31.217104","category":"47","category_name":"住宅区","address":"上海市长宁区天山路202弄"},{"poiid":"B2094757D06BAAFC4892","title":"虹林新苑","lon":"121.382","lat":"31.2104","category":"500","category_name":"未知分类","address":"上海市长宁区青溪路601弄36号"},{"poiid":"B2094655D265A0F8489A","title":"舜元知雅园","lon":"121.38378","lat":"31.21292","category":"47","category_name":"住宅区","address":"新渔东路456"},{"poiid":"B2094757D469A3FD499F","title":"葵餐厅","lon":"121.384782","lat":"31.211037","category":"95","category_name":"日本料理","address":"长宁区威宁路252号(近茅台路)"},{"poiid":"B2094757D065A3FE4098","title":"天府人家 威宁路店","lon":"121.38461393951","lat":"31.212661218125","category":"71","category_name":"四川菜","address":"长宁区威宁路275号(近茅台路)"},{"poiid":"B2094655D265A6FB489D","title":"仙霞首府","lon":"121.383","lat":"31.2132","category":"47","category_name":"住宅区","address":"仙霞首府位于长宁区仙霞路1001弄"},{"poiid":"B2094757D064A2FA4398","title":"如君蛙莊創意乾鍋","lon":"121.38047663","lat":"31.211408046","category":"148","category_name":"美容美发店","address":"上海吳中路1100號"},{"poiid":"B2094654D56BA6FD429B","title":"宝地新品居","lon":"121.3811","lat":"31.21493","category":"47","category_name":"住宅区","address":"上海市长宁区双流路188弄"},{"poiid":"B2094654D56BA6FC449A","title":"上海市延安中学体育场","lon":"121.38186","lat":"31.20912","category":"224","category_name":"综合体育馆","address":"茅台路999"},{"poiid":"B2094655D26BA2F84793","title":"天山路威宁路","lon":"121.387424","lat":"31.214728","category":"38","category_name":"公交车站","address":""},{"poiid":"B2094757D06FABF8449F","title":"美年健康(天山路店)","lon":"121.3779","lat":"31.21599","category":"162","category_name":"医院","address":"长宁区天山路8号(近哈密路)"},{"poiid":"B2094757D06FA1FE459A","title":"延安中学","lon":"121.37963","lat":"31.20991","category":"55","category_name":"中学","address":"长宁区茅台路1111号(茅台路双流路)"},{"poiid":"B2094757DA6EABF8439F","title":"17.5影院(北虹路店)","lon":"121.37688","lat":"31.214945","category":"178","category_name":"电影院","address":"长宁区北虹路1068号4楼(近2号线北新泾地铁站)"},{"poiid":"B2094655D26EA1F44193","title":"天涯海角","lon":"121.38126","lat":"31.21603","category":"149","category_name":"洗浴推拿场所","address":"长宁区天山路186-192号(近北虹路)"},{"poiid":"B2094757D068ABFC4193","title":"元化门诊体检中心","lon":"121.37857","lat":"31.21568","category":"162","category_name":"医院","address":"长宁区天山路30号3楼(近哈密路)"},{"poiid":"B2094752D36DA3F8419A","title":"17.5北虹广场影城","lon":"121.37678951025009","lat":"31.21515273321473","category":"178","category_name":"电影院","address":"上海长宁区北虹路1068号第四层B区(世纪联华)"},{"poiid":"B2094757D068A6F94599","title":"长宁区社保中心","lon":"121.379334","lat":"31.216286","category":"500","category_name":"未知分类","address":"长宁区天山路38号(近哈密路)"},{"poiid":"B2094654DB69A5FF4293","title":"莫泰168连锁旅店(天山路店)","lon":"121.37976","lat":"31.21633","category":"216","category_name":"经济型连锁酒店","address":"长宁区天山路78号(近哈密路)"},{"poiid":"B2094654D56BA6FC409C","title":"上海市公安局长宁分局","lon":"121.38357","lat":"31.21023","category":"248","category_name":"生活娱乐","address":"威宁路201"},{"poiid":"B2094757D069AAFF469F","title":"仙霞大郡","lon":"121.38","lat":"31.2159","category":"47","category_name":"住宅区","address":"仙霞大郡位于长宁仙霞路1225弄"},{"poiid":"B2094654DB6BA7FD4592","title":"天台家园","lon":"121.38205","lat":"31.211514","category":"47","category_name":"住宅区","address":"上海长宁区茅台路900弄,新渔东路455弄"},{"poiid":"B2094654DB6BA0FC449C","title":"如家快捷酒店(上海虹桥北虹路店)","lon":"121.37634","lat":"31.21165","category":"216","category_name":"经济型连锁酒店","address":"上海市长宁区北虹路1129号(近天山路)"},{"poiid":"B2094654D56BA6FD419D","title":"南洋新都","lon":"121.38235","lat":"31.214426","category":"47","category_name":"住宅区","address":"上海市长宁区天山路177弄"},{"poiid":"B2094757DA64A0FF4893","title":"うな吉","lon":"121.381205","lat":"31.211706","category":"247","category_name":"餐饮美食","address":"长宁区安龙路695号(近仙霞路)"},{"poiid":"B2094757D06FA6FE419B","title":"世纪联华(天山店)","lon":"121.37688663","lat":"31.214867087","category":"118","category_name":"超级市场","address":"长宁区北虹路1068号(北虹路哈密路)"},{"poiid":"B2094757D16DA1FB4892","title":"长中心输液室","lon":"121.37839049","lat":"31.208851247","category":"162","category_name":"医院","address":"上海仙霞路1111"},{"poiid":"B2094654D56BA6FC469C","title":"双流小区(西门)","lon":"121.38054","lat":"31.21237","category":"47","category_name":"住宅区","address":"双流路54弄1-12号"},{"poiid":"B2094655D26CAAFB4093","title":"天瑞大厦(东四门)","lon":"121.38017","lat":"31.21223","category":"46","category_name":"楼宇","address":""},{"poiid":"B2094757D064A0FB4399","title":"天山路芙蓉江路公交站","lon":"121.38003168","lat":"31.21282019","category":"38","category_name":"公交车站","address":"上海长宁区天山路(近芙蓉江路)"},{"poiid":"B2094654D56BA6FC469B","title":"一品香菜饭(双流路)","lon":"121.38056","lat":"31.21198","category":"257","category_name":"中餐厅","address":"双流路36"},{"poiid":"B2094655D36CA1FE449E","title":"双流路天山路","lon":"121.38058","lat":"31.21396","category":"38","category_name":"公交车站","address":""},{"poiid":"B2094654D56BA6FC469D","title":"双流小区","lon":"121.38126","lat":"31.212214","category":"47","category_name":"住宅区","address":"双流路54弄1-12号"},{"poiid":"B2094655D26DA7F84192","title":"天瑞大厦(东一门)","lon":"121.38006","lat":"31.21146","category":"46","category_name":"楼宇","address":"双流路31号"},{"poiid":"B2094757D16EA7FE4193","title":"麦莱芙面包坊","lon":"121.385558","lat":"31.214928","category":"112","category_name":"糕饼店","address":"长宁区天山路341号缤谷文化休闲广场1楼104室(近威宁路)"},{"poiid":"B2094655D26AA5F44793","title":"花与石草本护理中心双流路店","lon":"121.3805","lat":"31.21131","category":"247","category_name":"餐饮美食","address":"长宁区双流路8号(近茅台路)"},{"poiid":"B2094655D26BA1FA479B","title":"茅台路威宁路","lon":"121.38549","lat":"31.2107","category":"38","category_name":"公交车站","address":""},{"poiid":"B2094654D56BA6FD4199","title":"可的(新渔东路)","lon":"121.38244","lat":"31.2126","category":"117","category_name":"便民商店/便利店","address":"长宁区新渔东路473号"},{"poiid":"B2094757D164A2FA459D","title":"莲台健身俱乐部","lon":"121.3806","lat":"31.21133","category":"148","category_name":"美容美发店","address":"长宁区双流路28号(茅台路双流路)"},{"poiid":"B2094757D16AA1FF419B","title":"南新幼儿园","lon":"121.38178","lat":"31.21333","category":"57","category_name":"幼儿园","address":"长宁区新渔东路630号(近双流路)"},{"poiid":"B2094655D26AA6F4449B","title":"溢百家餐厅","lon":"121.38127","lat":"31.21338","category":"247","category_name":"餐饮美食","address":"长宁区双流路100号(近新渔路)"},{"poiid":"B2094752D46AA2F54599","title":"华辉加油站","lon":"121.380865","lat":"31.213354","category":"153","category_name":"加油站","address":"上海市长宁区仙霞路1310号(林泉路口)"},{"poiid":"B2094654D569A4FB4493","title":"佳辰假日酒店","lon":"121.37915","lat":"31.211","category":"250","category_name":"公园户外","address":"长宁区茅台路1006号(近威宁路)"},{"poiid":"B2094757D069A1FA419D","title":"大桶大足浴(天山店)","lon":"121.382177586","lat":"31.2170111725","category":"149","category_name":"洗浴推拿场所","address":"长宁区双流路271号(近长宁路)"},{"poiid":"B2094757D06FA3F94192","title":"JEANSTOPSALON(京世天山店)","lon":"121.37752","lat":"31.21582","category":"148","category_name":"美容美发店","address":"上海长宁区北渔路70-72号(近天山西路)"},{"poiid":"B2094752D669AAFD4499","title":"外滩三号","lon":"121.380127","lat":"31.214615","category":"247","category_name":"餐饮美食","address":"黄浦区中山东路一号"},{"poiid":"B2094655D26BA6FB449A","title":"巴黎时尚","lon":"121.382606","lat":"31.212864","category":"47","category_name":"住宅区","address":"上海市长宁区仙霞路1118弄"},{"poiid":"B2094757D069A5FA4798","title":"阿玛尼","lon":"121.38446958","lat":"31.211842071","category":"500","category_name":"未知分类","address":"上海市长宁区新渔东路"},{"poiid":"B2094654D56BA6FD4092","title":"朋友形象设计公社","lon":"121.38206","lat":"31.21287","category":"148","category_name":"美容美发店","address":"新渔东路483"},{"poiid":"B2094655D265A6F8479F","title":"仙霞沈家新苑","lon":"121.38146","lat":"31.213996","category":"47","category_name":"住宅区","address":"上海市长宁区仙霞路1225弄"},{"poiid":"B2094655D26DA7FF469F","title":"上海市延安中学体育场(北门)","lon":"121.38192","lat":"31.21068","category":"224","category_name":"综合体育馆","address":"茅台路999"},{"poiid":"B2094757D169A7FE439D","title":"天山新苑","lon":"121.38212","lat":"31.217104","category":"47","category_name":"住宅区","address":"上海市长宁区天山路202弄"},{"poiid":"B2094757D06BAAFC4892","title":"虹林新苑","lon":"121.382","lat":"31.2104","category":"500","category_name":"未知分类","address":"上海市长宁区青溪路601弄36号"},{"poiid":"B2094655D265A0F8489A","title":"舜元知雅园","lon":"121.38378","lat":"31.21292","category":"47","category_name":"住宅区","address":"新渔东路456"},{"poiid":"B2094757D469A3FD499F","title":"葵餐厅","lon":"121.384782","lat":"31.211037","category":"95","category_name":"日本料理","address":"长宁区威宁路252号(近茅台路)"},{"poiid":"B2094757D065A3FE4098","title":"天府人家 威宁路店","lon":"121.38461393951","lat":"31.212661218125","category":"71","category_name":"四川菜","address":"长宁区威宁路275号(近茅台路)"},{"poiid":"B2094655D265A6FB489D","title":"仙霞首府","lon":"121.383","lat":"31.2132","category":"47","category_name":"住宅区","address":"仙霞首府位于长宁区仙霞路1001弄"},{"poiid":"B2094757D064A2FA4398","title":"如君蛙莊創意乾鍋","lon":"121.38047663","lat":"31.211408046","category":"148","category_name":"美容美发店","address":"上海吳中路1100號"},{"poiid":"B2094654D56BA6FD429B","title":"宝地新品居","lon":"121.3811","lat":"31.21493","category":"47","category_name":"住宅区","address":"上海市长宁区双流路188弄"},{"poiid":"B2094654D56BA6FC449A","title":"上海市延安中学体育场","lon":"121.38186","lat":"31.20912","category":"224","category_name":"综合体育馆","address":"茅台路999"},{"poiid":"B2094655D26BA2F84793","title":"天山路威宁路","lon":"121.387424","lat":"31.214728","category":"38","category_name":"公交车站","address":""},{"poiid":"B2094757D06FABF8449F","title":"美年健康(天山路店)","lon":"121.3779","lat":"31.21599","category":"162","category_name":"医院","address":"长宁区天山路8号(近哈密路)"},{"poiid":"B2094757D06FA1FE459A","title":"延安中学","lon":"121.37963","lat":"31.20991","category":"55","category_name":"中学","address":"长宁区茅台路1111号(茅台路双流路)"},{"poiid":"B2094757DA6EABF8439F","title":"17.5影院(北虹路店)","lon":"121.37688","lat":"31.214945","category":"178","category_name":"电影院","address":"长宁区北虹路1068号4楼(近2号线北新泾地铁站)"},{"poiid":"B2094655D26EA1F44193","title":"天涯海角","lon":"121.38126","lat":"31.21603","category":"149","category_name":"洗浴推拿场所","address":"长宁区天山路186-192号(近北虹路)"},{"poiid":"B2094757D068ABFC4193","title":"元化门诊体检中心","lon":"121.37857","lat":"31.21568","category":"162","category_name":"医院","address":"长宁区天山路30号3楼(近哈密路)"},{"poiid":"B2094752D36DA3F8419A","title":"17.5北虹广场影城","lon":"121.37678951025009","lat":"31.21515273321473","category":"178","category_name":"电影院","address":"上海长宁区北虹路1068号第四层B区(世纪联华)"},{"poiid":"B2094757D068A6F94599","title":"长宁区社保中心","lon":"121.379334","lat":"31.216286","category":"500","category_name":"未知分类","address":"长宁区天山路38号(近哈密路)"},{"poiid":"B2094654DB69A5FF4293","title":"莫泰168连锁旅店(天山路店)","lon":"121.37976","lat":"31.21633","category":"216","category_name":"经济型连锁酒店","address":"长宁区天山路78号(近哈密路)"},{"poiid":"B2094654D56BA6FC409C","title":"上海市公安局长宁分局","lon":"121.38357","lat":"31.21023","category":"248","category_name":"生活娱乐","address":"威宁路201"},{"poiid":"B2094757D069AAFF469F","title":"仙霞大郡","lon":"121.38","lat":"31.2159","category":"47","category_name":"住宅区","address":"仙霞大郡位于长宁仙霞路1225弄"},{"poiid":"B2094654DB6BA7FD4592","title":"天台家园","lon":"121.38205","lat":"31.211514","category":"47","category_name":"住宅区","address":"上海长宁区茅台路900弄,新渔东路455弄"},{"poiid":"B2094654DB6BA0FC449C","title":"如家快捷酒店(上海虹桥北虹路店)","lon":"121.37634","lat":"31.21165","category":"216","category_name":"经济型连锁酒店","address":"上海市长宁区北虹路1129号(近天山路)"},{"poiid":"B2094654D56BA6FD419D","title":"南洋新都","lon":"121.38235","lat":"31.214426","category":"47","category_name":"住宅区","address":"上海市长宁区天山路177弄"},{"poiid":"B2094757DA64A0FF4893","title":"うな吉","lon":"121.381205","lat":"31.211706","category":"247","category_name":"餐饮美食","address":"长宁区安龙路695号(近仙霞路)"},{"poiid":"B2094757D06FA6FE419B","title":"世纪联华(天山店)","lon":"121.37688663","lat":"31.214867087","category":"118","category_name":"超级市场","address":"长宁区北虹路1068号(北虹路哈密路)"},{"poiid":"B2094757D16DA1FB4892","title":"长中心输液室","lon":"121.37839049","lat":"31.208851247","category":"162","category_name":"医院","address":"上海仙霞路1111"},{"poiid":"B2094654D56BA6FC469C","title":"双流小区(西门)","lon":"121.38054","lat":"31.21237","category":"47","category_name":"住宅区","address":"双流路54弄1-12号"},{"poiid":"B2094655D26CAAFB4093","title":"天瑞大厦(东四门)","lon":"121.38017","lat":"31.21223","category":"46","category_name":"楼宇","address":""},{"poiid":"B2094757D064A0FB4399","title":"天山路芙蓉江路公交站","lon":"121.38003168","lat":"31.21282019","category":"38","category_name":"公交车站","address":"上海长宁区天山路(近芙蓉江路)"},{"poiid":"B2094654D56BA6FC469B","title":"一品香菜饭(双流路)","lon":"121.38056","lat":"31.21198","category":"257","category_name":"中餐厅","address":"双流路36"},{"poiid":"B2094655D36CA1FE449E","title":"双流路天山路","lon":"121.38058","lat":"31.21396","category":"38","category_name":"公交车站","address":""},{"poiid":"B2094654D56BA6FC469D","title":"双流小区","lon":"121.38126","lat":"31.212214","category":"47","category_name":"住宅区","address":"双流路54弄1-12号"},{"poiid":"B2094655D26DA7F84192","title":"天瑞大厦(东一门)","lon":"121.38006","lat":"31.21146","category":"46","category_name":"楼宇","address":"双流路31号"},{"poiid":"B2094757D16EA7FE4193","title":"麦莱芙面包坊","lon":"121.385558","lat":"31.214928","category":"112","category_name":"糕饼店","address":"长宁区天山路341号缤谷文化休闲广场1楼104室(近威宁路)"},{"poiid":"B2094655D26AA5F44793","title":"花与石草本护理中心双流路店","lon":"121.3805","lat":"31.21131","category":"247","category_name":"餐饮美食","address":"长宁区双流路8号(近茅台路)"},{"poiid":"B2094655D26BA1FA479B","title":"茅台路威宁路","lon":"121.38549","lat":"31.2107","category":"38","category_name":"公交车站","address":""},{"poiid":"B2094654D56BA6FD4199","title":"可的(新渔东路)","lon":"121.38244","lat":"31.2126","category":"117","category_name":"便民商店/便利店","address":"长宁区新渔东路473号"},{"poiid":"B2094757D164A2FA459D","title":"莲台健身俱乐部","lon":"121.3806","lat":"31.21133","category":"148","category_name":"美容美发店","address":"长宁区双流路28号(茅台路双流路)"},{"poiid":"B2094757D16AA1FF419B","title":"南新幼儿园","lon":"121.38178","lat":"31.21333","category":"57","category_name":"幼儿园","address":"长宁区新渔东路630号(近双流路)"},{"poiid":"B2094655D26AA6F4449B","title":"溢百家餐厅","lon":"121.38127","lat":"31.21338","category":"247","category_name":"餐饮美食","address":"长宁区双流路100号(近新渔路)"},{"poiid":"B2094752D46AA2F54599","title":"华辉加油站","lon":"121.380865","lat":"31.213354","category":"153","category_name":"加油站","address":"上海市长宁区仙霞路1310号(林泉路口)"},{"poiid":"B2094654D569A4FB4493","title":"佳辰假日酒店","lon":"121.37915","lat":"31.211","category":"250","category_name":"公园户外","address":"长宁区茅台路1006号(近威宁路)"},{"poiid":"B2094757D069A1FA419D","title":"大桶大足浴(天山店)","lon":"121.382177586","lat":"31.2170111725","category":"149","category_name":"洗浴推拿场所","address":"长宁区双流路271号(近长宁路)"},{"poiid":"B2094757D06FA3F94192","title":"JEANSTOPSALON(京世天山店)","lon":"121.37752","lat":"31.21582","category":"148","category_name":"美容美发店","address":"上海长宁区北渔路70-72号(近天山西路)"},{"poiid":"B2094752D669AAFD4499","title":"外滩三号","lon":"121.380127","lat":"31.214615","category":"247","category_name":"餐饮美食","address":"黄浦区中山东路一号"},{"poiid":"B2094655D26BA6FB449A","title":"巴黎时尚","lon":"121.382606","lat":"31.212864","category":"47","category_name":"住宅区","address":"上海市长宁区仙霞路1118弄"},{"poiid":"B2094757D069A5FA4798","title":"阿玛尼","lon":"121.38446958","lat":"31.211842071","category":"500","category_name":"未知分类","address":"上海市长宁区新渔东路"},{"poiid":"B2094654D56BA6FD4092","title":"朋友形象设计公社","lon":"121.38206","lat":"31.21287","category":"148","category_name":"美容美发店","address":"新渔东路483"},{"poiid":"B2094655D265A6F8479F","title":"仙霞沈家新苑","lon":"121.38146","lat":"31.213996","category":"47","category_name":"住宅区","address":"上海市长宁区仙霞路1225弄"},{"poiid":"B2094655D26DA7FF469F","title":"上海市延安中学体育场(北门)","lon":"121.38192","lat":"31.21068","category":"224","category_name":"综合体育馆","address":"茅台路999"},{"poiid":"B2094757D169A7FE439D","title":"天山新苑","lon":"121.38212","lat":"31.217104","category":"47","category_name":"住宅区","address":"上海市长宁区天山路202弄"},{"poiid":"B2094757D06BAAFC4892","title":"虹林新苑","lon":"121.382","lat":"31.2104","category":"500","category_name":"未知分类","address":"上海市长宁区青溪路601弄36号"},{"poiid":"B2094655D265A0F8489A","title":"舜元知雅园","lon":"121.38378","lat":"31.21292","category":"47","category_name":"住宅区","address":"新渔东路456"},{"poiid":"B2094757D469A3FD499F","title":"葵餐厅","lon":"121.384782","lat":"31.211037","category":"95","category_name":"日本料理","address":"长宁区威宁路252号(近茅台路)"},{"poiid":"B2094757D065A3FE4098","title":"天府人家 威宁路店","lon":"121.38461393951","lat":"31.212661218125","category":"71","category_name":"四川菜","address":"长宁区威宁路275号(近茅台路)"},{"poiid":"B2094655D265A6FB489D","title":"仙霞首府","lon":"121.383","lat":"31.2132","category":"47","category_name":"住宅区","address":"仙霞首府位于长宁区仙霞路1001弄"},{"poiid":"B2094757D064A2FA4398","title":"如君蛙莊創意乾鍋","lon":"121.38047663","lat":"31.211408046","category":"148","category_name":"美容美发店","address":"上海吳中路1100號"},{"poiid":"B2094654D56BA6FD429B","title":"宝地新品居","lon":"121.3811","lat":"31.21493","category":"47","category_name":"住宅区","address":"上海市长宁区双流路188弄"},{"poiid":"B2094654D56BA6FC449A","title":"上海市延安中学体育场","lon":"121.38186","lat":"31.20912","category":"224","category_name":"综合体育馆","address":"茅台路999"},{"poiid":"B2094655D26BA2F84793","title":"天山路威宁路","lon":"121.387424","lat":"31.214728","category":"38","category_name":"公交车站","address":""},{"poiid":"B2094757D06FABF8449F","title":"美年健康(天山路店)","lon":"121.3779","lat":"31.21599","category":"162","category_name":"医院","address":"长宁区天山路8号(近哈密路)"},{"poiid":"B2094757D06FA1FE459A","title":"延安中学","lon":"121.37963","lat":"31.20991","category":"55","category_name":"中学","address":"长宁区茅台路1111号(茅台路双流路)"},{"poiid":"B2094757DA6EABF8439F","title":"17.5影院(北虹路店)","lon":"121.37688","lat":"31.214945","category":"178","category_name":"电影院","address":"长宁区北虹路1068号4楼(近2号线北新泾地铁站)"},{"poiid":"B2094655D26EA1F44193","title":"天涯海角","lon":"121.38126","lat":"31.21603","category":"149","category_name":"洗浴推拿场所","address":"长宁区天山路186-192号(近北虹路)"},{"poiid":"B2094757D068ABFC4193","title":"元化门诊体检中心","lon":"121.37857","lat":"31.21568","category":"162","category_name":"医院","address":"长宁区天山路30号3楼(近哈密路)"},{"poiid":"B2094752D36DA3F8419A","title":"17.5北虹广场影城","lon":"121.37678951025009","lat":"31.21515273321473","category":"178","category_name":"电影院","address":"上海长宁区北虹路1068号第四层B区(世纪联华)"},{"poiid":"B2094757D068A6F94599","title":"长宁区社保中心","lon":"121.379334","lat":"31.216286","category":"500","category_name":"未知分类","address":"长宁区天山路38号(近哈密路)"},{"poiid":"B2094654DB69A5FF4293","title":"莫泰168连锁旅店(天山路店)","lon":"121.37976","lat":"31.21633","category":"216","category_name":"经济型连锁酒店","address":"长宁区天山路78号(近哈密路)"},{"poiid":"B2094654D56BA6FC409C","title":"上海市公安局长宁分局","lon":"121.38357","lat":"31.21023","category":"248","category_name":"生活娱乐","address":"威宁路201"},{"poiid":"B2094757D069AAFF469F","title":"仙霞大郡","lon":"121.38","lat":"31.2159","category":"47","category_name":"住宅区","address":"仙霞大郡位于长宁仙霞路1225弄"},{"poiid":"B2094654DB6BA7FD4592","title":"天台家园","lon":"121.38205","lat":"31.211514","category":"47","category_name":"住宅区","address":"上海长宁区茅台路900弄,新渔东路455弄"},{"poiid":"B2094654DB6BA0FC449C","title":"如家快捷酒店(上海虹桥北虹路店)","lon":"121.37634","lat":"31.21165","category":"216","category_name":"经济型连锁酒店","address":"上海市长宁区北虹路1129号(近天山路)"},{"poiid":"B2094654D56BA6FD419D","title":"南洋新都","lon":"121.38235","lat":"31.214426","category":"47","category_name":"住宅区","address":"上海市长宁区天山路177弄"},{"poiid":"B2094757DA64A0FF4893","title":"うな吉","lon":"121.381205","lat":"31.211706","category":"247","category_name":"餐饮美食","address":"长宁区安龙路695号(近仙霞路)"},{"poiid":"B2094757D06FA6FE419B","title":"世纪联华(天山店)","lon":"121.37688663","lat":"31.214867087","category":"118","category_name":"超级市场","address":"长宁区北虹路1068号(北虹路哈密路)"},{"poiid":"B2094757D16DA1FB4892","title":"长中心输液室","lon":"121.37839049","lat":"31.208851247","category":"162","category_name":"医院","address":"上海仙霞路1111"},{"poiid":"B2094654D56BA6FC469C","title":"双流小区(西门)","lon":"121.38054","lat":"31.21237","category":"47","category_name":"住宅区","address":"双流路54弄1-12号"},{"poiid":"B2094655D26CAAFB4093","title":"天瑞大厦(东四门)","lon":"121.38017","lat":"31.21223","category":"46","category_name":"楼宇","address":""},{"poiid":"B2094757D064A0FB4399","title":"天山路芙蓉江路公交站","lon":"121.38003168","lat":"31.21282019","category":"38","category_name":"公交车站","address":"上海长宁区天山路(近芙蓉江路)"},{"poiid":"B2094654D56BA6FC469B","title":"一品香菜饭(双流路)","lon":"121.38056","lat":"31.21198","category":"257","category_name":"中餐厅","address":"双流路36"},{"poiid":"B2094655D36CA1FE449E","title":"双流路天山路","lon":"121.38058","lat":"31.21396","category":"38","category_name":"公交车站","address":""},{"poiid":"B2094654D56BA6FC469D","title":"双流小区","lon":"121.38126","lat":"31.212214","category":"47","category_name":"住宅区","address":"双流路54弄1-12号"},{"poiid":"B2094655D26DA7F84192","title":"天瑞大厦(东一门)","lon":"121.38006","lat":"31.21146","category":"46","category_name":"楼宇","address":"双流路31号"},{"poiid":"B2094757D16EA7FE4193","title":"麦莱芙面包坊","lon":"121.385558","lat":"31.214928","category":"112","category_name":"糕饼店","address":"长宁区天山路341号缤谷文化休闲广场1楼104室(近威宁路)"},{"poiid":"B2094655D26AA5F44793","title":"花与石草本护理中心双流路店","lon":"121.3805","lat":"31.21131","category":"247","category_name":"餐饮美食","address":"长宁区双流路8号(近茅台路)"},{"poiid":"B2094655D26BA1FA479B","title":"茅台路威宁路","lon":"121.38549","lat":"31.2107","category":"38","category_name":"公交车站","address":""},{"poiid":"B2094654D56BA6FD4199","title":"可的(新渔东路)","lon":"121.38244","lat":"31.2126","category":"117","category_name":"便民商店/便利店","address":"长宁区新渔东路473号"},{"poiid":"B2094757D164A2FA459D","title":"莲台健身俱乐部","lon":"121.3806","lat":"31.21133","category":"148","category_name":"美容美发店","address":"长宁区双流路28号(茅台路双流路)"},{"poiid":"B2094757D16AA1FF419B","title":"南新幼儿园","lon":"121.38178","lat":"31.21333","category":"57","category_name":"幼儿园","address":"长宁区新渔东路630号(近双流路)"},{"poiid":"B2094655D26AA6F4449B","title":"溢百家餐厅","lon":"121.38127","lat":"31.21338","category":"247","category_name":"餐饮美食","address":"长宁区双流路100号(近新渔路)"},{"poiid":"B2094752D46AA2F54599","title":"华辉加油站","lon":"121.380865","lat":"31.213354","category":"153","category_name":"加油站","address":"上海市长宁区仙霞路1310号(林泉路口)"},{"poiid":"B2094654D569A4FB4493","title":"佳辰假日酒店","lon":"121.37915","lat":"31.211","category":"250","category_name":"公园户外","address":"长宁区茅台路1006号(近威宁路)"},{"poiid":"B2094757D069A1FA419D","title":"大桶大足浴(天山店)","lon":"121.382177586","lat":"31.2170111725","category":"149","category_name":"洗浴推拿场所","address":"长宁区双流路271号(近长宁路)"},{"poiid":"B2094757D06FA3F94192","title":"JEANSTOPSALON(京世天山店)","lon":"121.37752","lat":"31.21582","category":"148","category_name":"美容美发店","address":"上海长宁区北渔路70-72号(近天山西路)"},{"poiid":"B2094752D669AAFD4499","title":"外滩三号","lon":"121.380127","lat":"31.214615","category":"247","category_name":"餐饮美食","address":"黄浦区中山东路一号"},{"poiid":"B2094655D26BA6FB449A","title":"巴黎时尚","lon":"121.382606","lat":"31.212864","category":"47","category_name":"住宅区","address":"上海市长宁区仙霞路1118弄"},{"poiid":"B2094757D069A5FA4798","title":"阿玛尼","lon":"121.38446958","lat":"31.211842071","category":"500","category_name":"未知分类","address":"上海市长宁区新渔东路"},{"poiid":"B2094654D56BA6FD4092","title":"朋友形象设计公社","lon":"121.38206","lat":"31.21287","category":"148","category_name":"美容美发店","address":"新渔东路483"},{"poiid":"B2094655D265A6F8479F","title":"仙霞沈家新苑","lon":"121.38146","lat":"31.213996","category":"47","category_name":"住宅区","address":"上海市长宁区仙霞路1225弄"},{"poiid":"B2094655D26DA7FF469F","title":"上海市延安中学体育场(北门)","lon":"121.38192","lat":"31.21068","category":"224","category_name":"综合体育馆","address":"茅台路999"},{"poiid":"B2094757D169A7FE439D","title":"天山新苑","lon":"121.38212","lat":"31.217104","category":"47","category_name":"住宅区","address":"上海市长宁区天山路202弄"},{"poiid":"B2094757D06BAAFC4892","title":"虹林新苑","lon":"121.382","lat":"31.2104","category":"500","category_name":"未知分类","address":"上海市长宁区青溪路601弄36号"},{"poiid":"B2094655D265A0F8489A","title":"舜元知雅园","lon":"121.38378","lat":"31.21292","category":"47","category_name":"住宅区","address":"新渔东路456"},{"poiid":"B2094757D469A3FD499F","title":"葵餐厅","lon":"121.384782","lat":"31.211037","category":"95","category_name":"日本料理","address":"长宁区威宁路252号(近茅台路)"},{"poiid":"B2094757D065A3FE4098","title":"天府人家 威宁路店","lon":"121.38461393951","lat":"31.212661218125","category":"71","category_name":"四川菜","address":"长宁区威宁路275号(近茅台路)"},{"poiid":"B2094655D265A6FB489D","title":"仙霞首府","lon":"121.383","lat":"31.2132","category":"47","category_name":"住宅区","address":"仙霞首府位于长宁区仙霞路1001弄"},{"poiid":"B2094757D064A2FA4398","title":"如君蛙莊創意乾鍋","lon":"121.38047663","lat":"31.211408046","category":"148","category_name":"美容美发店","address":"上海吳中路1100號"},{"poiid":"B2094654D56BA6FD429B","title":"宝地新品居","lon":"121.3811","lat":"31.21493","category":"47","category_name":"住宅区","address":"上海市长宁区双流路188弄"},{"poiid":"B2094654D56BA6FC449A","title":"上海市延安中学体育场","lon":"121.38186","lat":"31.20912","category":"224","category_name":"综合体育馆","address":"茅台路999"}]