[{"poiid":"B2094757D06FA3F84199","title":"三顾牛蛙馆(肇嘉浜路店)","lon":"121.44556","lat":"31.1966","category":"71","category_name":"四川菜","address":"徐汇区肇嘉浜路883号(宛平路口)"},{"poiid":"B2094757D06FA6F8439F","title":"复旦大学枫林校区第二教学楼","lon":"121.448604396","lat":"31.1959811913","category":"253","category_name":"校园生活","address":"上海市徐汇区东安路130号"},{"poiid":"B2094654DA6DA4F84198","title":"临江豪园","lon":"121.447","lat":"31.1944","category":"47","category_name":"住宅区","address":"上海市徐汇区宛平南路921号"},{"poiid":"B2094753D76FAAFA449C","title":"上海滩国泰旗舰店","lon":"121.466011","lat":"31.216125","category":"249","category_name":"购物服务","address":"淮海中路868号"},{"poiid":"B2094757D068A5F9499D","title":"复旦大学医科图书馆","lon":"121.44932102","lat":"31.196121364","category":"253","category_name":"校园生活","address":"上海徐汇区东安路130号复旦大学枫林校区内(西苑篮球场西侧)"},{"poiid":"B2094757D06FA0FE4098","title":"腾飞大厦","lon":"121.449","lat":"31.1946","category":"46","category_name":"楼宇","address":"行宫位于沈河北站一路41号"},{"poiid":"B2094757D06FA6FD489D","title":"亚都商务楼","lon":"121.444836","lat":"31.195017","category":"46","category_name":"楼宇","address":"上海南丹东路300弄9号"},{"poiid":"B2094757D069A3F54599","title":"斜土路宛平南路","lon":"121.44817258","lat":"31.193041703","category":"500","category_name":"未知分类","address":"上海市徐汇区肇嘉浜路"},{"poiid":"B2094757D06FA5F84692","title":"串串香麻辣烫","lon":"121.44614","lat":"31.19354","category":"68","category_name":"快餐厅","address":"徐汇区宛平南路200号(近辛耕路)"},{"poiid":"B2094757D068A1F4449D","title":"花乐·神田川","lon":"121.446604928","lat":"31.1918430256","category":"95","category_name":"日本料理","address":"徐汇区斜土路2421号4号楼(近宛平南路)"},{"poiid":"B2094757D069A3FA4299","title":"提香研磨咖啡","lon":"121.44662799152","lat":"31.193403622937","category":"260","category_name":"其他","address":"徐汇区宛平南路263号(近斜土路)"},{"poiid":"B2094757D068A2FD489A","title":"京世造型(宛平店)","lon":"121.446784","lat":"31.192901","category":"148","category_name":"美容美发店","address":"上海徐汇区宛平南路271号"},{"poiid":"B2094750D46DAAFD4799","title":"姐弟俩土豆粉","lon":"121.447593","lat":"31.193534","category":"247","category_name":"餐饮美食","address":null},{"poiid":"B2094654DA6DA0F4479B","title":"申峰大厦","lon":"121.448","lat":"31.1937","category":"46","category_name":"楼宇","address":"上海市徐汇区天钥桥路438号"},{"poiid":"B2094655D26BA2FE489A","title":"宛平南路","lon":"121.44806","lat":"31.19217","category":"38","category_name":"公交车站","address":""},{"poiid":"B2094655D26FA5FD4492","title":"谨斜小区","lon":"121.44878","lat":"31.193199","category":"47","category_name":"住宅区","address":"斜土路2167,2183,2365弄"},{"poiid":"B2094757D16BA2FB409B","title":"Carl'sJr. (美罗城)","lon":"121.44802808","lat":"31.196717505","category":"500","category_name":"未知分类","address":"上海肇嘉浜路1111号美罗城B1-33"},{"poiid":"B2094654DA6DA0FA4099","title":"汇峰大厦","lon":"121.446","lat":"31.1937","category":"46","category_name":"楼宇","address":"天钥桥路380弄20"},{"poiid":"B2094757D06BA5FB4999","title":"重庆鸡公煲 宛平南路店","lon":"121.445872054","lat":"31.193667793","category":"71","category_name":"四川菜","address":"徐汇区宛平南路162号(宛平南路辛耕路)"},{"poiid":"B2094654DA6DAAF9469E","title":"思妍丽(宛平南路)","lon":"121.44636","lat":"31.19463","category":"148","category_name":"美容美发店","address":"宛平南路99弄1号2层"},{"poiid":"B2094757D169A2FA4192","title":"那不勒斯比萨","lon":"121.44894458","lat":"31.194344729","category":"94","category_name":"西餐厅","address":"徐汇区斜土路2066号(近东安路)"},{"poiid":"B2094752D26AA0FA439D","title":"石锅坊","lon":"121.44927","lat":"31.194089","category":"247","category_name":"餐饮美食","address":"东安路258号"},{"poiid":"B2094757D065A0F84092","title":"Yamazaki徐太店","lon":"121.44770813","lat":"31.1947841644","category":"162","category_name":"医院","address":"上海徐家汇太平洋B1"},{"poiid":"B2094757D064A4FE429C","title":"上海建筑科学研究院","lon":"121.44599914","lat":"31.195411682","category":"500","category_name":"未知分类","address":"上海徐汇区宛平南路75号"},{"poiid":"B2094757D06BABF9449E","title":"7-ELEVEN(宛平店)","lon":"121.447342586","lat":"31.1939617219","category":"117","category_name":"便民商店/便利店","address":"徐汇区宛平南路299号"},{"poiid":"B2094757D06FA2F9409F","title":"生仕鱼林港(肇嘉浜路店)","lon":"121.44753","lat":"31.19755","category":"86","category_name":"火锅店","address":"徐汇区肇嘉浜路825号(近宛平南路)"},{"poiid":"B2094757D168AAF94092","title":"好乐迪","lon":"121.44774758","lat":"31.196602773","category":"500","category_name":"未知分类","address":"上海市徐汇区宛平路"},{"poiid":"B2094757D06FA7F54298","title":"徐家匯花園","lon":"121.44533538","lat":"31.196586608","category":"252","category_name":"楼宇机构","address":"上海宛平南路255弄"},{"poiid":"B2094753DA6EA4FC4592","title":"徐家汇花园","lon":"121.4466297","lat":"31.19322638","category":"47","category_name":"住宅区","address":"宛平南路255弄"},{"poiid":"B2094757D168A0F9409E","title":"德勤华永会计师事务所有限公司","lon":"121.447935586","lat":"31.1956107541","category":"46","category_name":"楼宇","address":"上海市黄浦区延安东路222号外滩中心30楼"},{"poiid":"B2094750D66DA6FC4492","title":"上海肿瘤医院","lon":"121.448425","lat":"31.194686","category":"162","category_name":"医院","address":null},{"poiid":"B2094654DA6DAAF9469A","title":"新汇公寓","lon":"121.4462","lat":"31.195114","category":"47","category_name":"住宅区","address":"宛平南路99弄2-3号"},{"poiid":"B2094757D169A4F84792","title":"上海中医药大学附属龙华医院(徐汇总院)西十楼骨伤科病房","lon":"121.449571","lat":"31.194975","category":"162","category_name":"医院","address":"上海宛平南路725号西十楼"},{"poiid":"B2094655D268A7F94899","title":"城建地产大厦","lon":"121.448","lat":"31.1963","category":"46","category_name":"楼宇","address":"上海市徐汇区南丹东路161号"},{"poiid":"B2094757D168A7FB459B","title":"斜土路2183","lon":"121.448140586","lat":"31.1942387273","category":"47","category_name":"住宅区","address":"上海市徐汇区斜土路"},{"poiid":"B2094757D569A3FB4493","title":"徐家汇花园二期","lon":"121.4478072","lat":"31.19344306","category":"47","category_name":"住宅区","address":"徐家汇花园二期位于徐汇宛平南路233弄"},{"poiid":"B2094654DA6DAAF9469C","title":"水之城咖啡 宛平南路","lon":"121.44597842636","lat":"31.194528204112","category":"260","category_name":"其他","address":"徐汇区宛平南路181号(宛平南路辛耕路)"},{"poiid":"B2094655D264A0F84798","title":"如家快捷酒店(上海徐家汇宛平南路店)","lon":"121.4455","lat":"31.19594","category":"216","category_name":"经济型连锁酒店","address":"上海市徐汇区宛平南路65号(近肇家浜路)"},{"poiid":"B2094757D065A5F54092","title":"港匯普京","lon":"121.44799058","lat":"31.196674774","category":"500","category_name":"未知分类","address":"上海市徐汇区宛平路"},{"poiid":"B2094654DA6DAAF9479C","title":"国大药房宛平南路店(宛平南路)","lon":"121.44637","lat":"31.19383","category":"162","category_name":"医院","address":"徐汇区宛平南路221号(宛平南路辛耕路)"},{"poiid":"B2094757D169AAFD4599","title":"海上华庭","lon":"121.446207586","lat":"31.1943307291","category":"47","category_name":"住宅区","address":"上海虹漕南路699弄"},{"poiid":"B2094750D768A4FC439F","title":"辛耕路烧烤摊","lon":"121.446","lat":"31.1944","category":"68","category_name":"快餐厅","address":"徐汇区辛耕路(宛平南路口)"},{"poiid":"B2094655D268A2FE4392","title":"雪莉保健会所","lon":"121.4449","lat":"31.19388","category":"149","category_name":"洗浴推拿场所","address":"辛耕路28临"},{"poiid":"B2094757D464A6FE429D","title":"雄记桂林米粉 宛平南路店","lon":"121.44522599725","lat":"31.194680137393","category":"68","category_name":"快餐厅","address":"徐汇区宛平南路160号(近辛耕路)"},{"poiid":"B2094655D26CA4FA4793","title":"恒盛·阳光名苑","lon":"121.44986","lat":"31.19414","category":"47","category_name":"住宅区","address":"斜土路1975弄1-9号"},{"poiid":"B2094757D069AAFD4098","title":"正圆烩面","lon":"121.44598388","lat":"31.194431304","category":"247","category_name":"餐饮美食","address":"上海徐汇区宛平南路151号"},{"poiid":"B2094654DA6DAAF94499","title":"上海市建设和交通委员会科学技术委员会会议中心","lon":"121.44593","lat":"31.19553","category":"185","category_name":"会展中心","address":"宛平南路75号建科大厦13-14层"},{"poiid":"B2094757D069A4FF439D","title":"萨利亚","lon":"121.44782058","lat":"31.196573772","category":"249","category_name":"购物服务","address":"上海市徐汇区天钥桥路"},{"poiid":"B2094757D169A2F8499C","title":"艾维庭美容身心会馆(永新店)","lon":"121.44544849","lat":"31.194164741","category":"148","category_name":"美容美发店","address":"上海徐汇区辛耕路18号1-3楼(近宛平南路)"},{"poiid":"B2094655D265A4FC439B","title":"阿耐思特岩田商务楼","lon":"121.44605","lat":"31.19372","category":"46","category_name":"楼宇","address":"宛平南路200"},{"poiid":"B2094757D06FA3F84199","title":"三顾牛蛙馆(肇嘉浜路店)","lon":"121.44556","lat":"31.1966","category":"71","category_name":"四川菜","address":"徐汇区肇嘉浜路883号(宛平路口)"},{"poiid":"B2094757D06FA6F8439F","title":"复旦大学枫林校区第二教学楼","lon":"121.448604396","lat":"31.1959811913","category":"253","category_name":"校园生活","address":"上海市徐汇区东安路130号"},{"poiid":"B2094654DA6DA4F84198","title":"临江豪园","lon":"121.447","lat":"31.1944","category":"47","category_name":"住宅区","address":"上海市徐汇区宛平南路921号"},{"poiid":"B2094753D76FAAFA449C","title":"上海滩国泰旗舰店","lon":"121.466011","lat":"31.216125","category":"249","category_name":"购物服务","address":"淮海中路868号"},{"poiid":"B2094757D068A5F9499D","title":"复旦大学医科图书馆","lon":"121.44932102","lat":"31.196121364","category":"253","category_name":"校园生活","address":"上海徐汇区东安路130号复旦大学枫林校区内(西苑篮球场西侧)"},{"poiid":"B2094757D06FA0FE4098","title":"腾飞大厦","lon":"121.449","lat":"31.1946","category":"46","category_name":"楼宇","address":"行宫位于沈河北站一路41号"},{"poiid":"B2094757D06FA6FD489D","title":"亚都商务楼","lon":"121.444836","lat":"31.195017","category":"46","category_name":"楼宇","address":"上海南丹东路300弄9号"},{"poiid":"B2094757D069A3F54599","title":"斜土路宛平南路","lon":"121.44817258","lat":"31.193041703","category":"500","category_name":"未知分类","address":"上海市徐汇区肇嘉浜路"},{"poiid":"B2094757D06FA5F84692","title":"串串香麻辣烫","lon":"121.44614","lat":"31.19354","category":"68","category_name":"快餐厅","address":"徐汇区宛平南路200号(近辛耕路)"},{"poiid":"B2094757D068A1F4449D","title":"花乐·神田川","lon":"121.446604928","lat":"31.1918430256","category":"95","category_name":"日本料理","address":"徐汇区斜土路2421号4号楼(近宛平南路)"},{"poiid":"B2094757D069A3FA4299","title":"提香研磨咖啡","lon":"121.44662799152","lat":"31.193403622937","category":"260","category_name":"其他","address":"徐汇区宛平南路263号(近斜土路)"},{"poiid":"B2094757D068A2FD489A","title":"京世造型(宛平店)","lon":"121.446784","lat":"31.192901","category":"148","category_name":"美容美发店","address":"上海徐汇区宛平南路271号"},{"poiid":"B2094750D46DAAFD4799","title":"姐弟俩土豆粉","lon":"121.447593","lat":"31.193534","category":"247","category_name":"餐饮美食","address":null},{"poiid":"B2094654DA6DA0F4479B","title":"申峰大厦","lon":"121.448","lat":"31.1937","category":"46","category_name":"楼宇","address":"上海市徐汇区天钥桥路438号"},{"poiid":"B2094655D26BA2FE489A","title":"宛平南路","lon":"121.44806","lat":"31.19217","category":"38","category_name":"公交车站","address":""},{"poiid":"B2094655D26FA5FD4492","title":"谨斜小区","lon":"121.44878","lat":"31.193199","category":"47","category_name":"住宅区","address":"斜土路2167,2183,2365弄"},{"poiid":"B2094757D16BA2FB409B","title":"Carl'sJr. (美罗城)","lon":"121.44802808","lat":"31.196717505","category":"500","category_name":"未知分类","address":"上海肇嘉浜路1111号美罗城B1-33"},{"poiid":"B2094654DA6DA0FA4099","title":"汇峰大厦","lon":"121.446","lat":"31.1937","category":"46","category_name":"楼宇","address":"天钥桥路380弄20"},{"poiid":"B2094757D06BA5FB4999","title":"重庆鸡公煲 宛平南路店","lon":"121.445872054","lat":"31.193667793","category":"71","category_name":"四川菜","address":"徐汇区宛平南路162号(宛平南路辛耕路)"},{"poiid":"B2094654DA6DAAF9469E","title":"思妍丽(宛平南路)","lon":"121.44636","lat":"31.19463","category":"148","category_name":"美容美发店","address":"宛平南路99弄1号2层"},{"poiid":"B2094757D169A2FA4192","title":"那不勒斯比萨","lon":"121.44894458","lat":"31.194344729","category":"94","category_name":"西餐厅","address":"徐汇区斜土路2066号(近东安路)"},{"poiid":"B2094752D26AA0FA439D","title":"石锅坊","lon":"121.44927","lat":"31.194089","category":"247","category_name":"餐饮美食","address":"东安路258号"},{"poiid":"B2094757D065A0F84092","title":"Yamazaki徐太店","lon":"121.44770813","lat":"31.1947841644","category":"162","category_name":"医院","address":"上海徐家汇太平洋B1"},{"poiid":"B2094757D064A4FE429C","title":"上海建筑科学研究院","lon":"121.44599914","lat":"31.195411682","category":"500","category_name":"未知分类","address":"上海徐汇区宛平南路75号"},{"poiid":"B2094757D06BABF9449E","title":"7-ELEVEN(宛平店)","lon":"121.447342586","lat":"31.1939617219","category":"117","category_name":"便民商店/便利店","address":"徐汇区宛平南路299号"},{"poiid":"B2094757D06FA2F9409F","title":"生仕鱼林港(肇嘉浜路店)","lon":"121.44753","lat":"31.19755","category":"86","category_name":"火锅店","address":"徐汇区肇嘉浜路825号(近宛平南路)"},{"poiid":"B2094757D168AAF94092","title":"好乐迪","lon":"121.44774758","lat":"31.196602773","category":"500","category_name":"未知分类","address":"上海市徐汇区宛平路"},{"poiid":"B2094757D06FA7F54298","title":"徐家匯花園","lon":"121.44533538","lat":"31.196586608","category":"252","category_name":"楼宇机构","address":"上海宛平南路255弄"},{"poiid":"B2094753DA6EA4FC4592","title":"徐家汇花园","lon":"121.4466297","lat":"31.19322638","category":"47","category_name":"住宅区","address":"宛平南路255弄"},{"poiid":"B2094757D168A0F9409E","title":"德勤华永会计师事务所有限公司","lon":"121.447935586","lat":"31.1956107541","category":"46","category_name":"楼宇","address":"上海市黄浦区延安东路222号外滩中心30楼"},{"poiid":"B2094750D66DA6FC4492","title":"上海肿瘤医院","lon":"121.448425","lat":"31.194686","category":"162","category_name":"医院","address":null},{"poiid":"B2094654DA6DAAF9469A","title":"新汇公寓","lon":"121.4462","lat":"31.195114","category":"47","category_name":"住宅区","address":"宛平南路99弄2-3号"},{"poiid":"B2094757D169A4F84792","title":"上海中医药大学附属龙华医院(徐汇总院)西十楼骨伤科病房","lon":"121.449571","lat":"31.194975","category":"162","category_name":"医院","address":"上海宛平南路725号西十楼"},{"poiid":"B2094655D268A7F94899","title":"城建地产大厦","lon":"121.448","lat":"31.1963","category":"46","category_name":"楼宇","address":"上海市徐汇区南丹东路161号"},{"poiid":"B2094757D168A7FB459B","title":"斜土路2183","lon":"121.448140586","lat":"31.1942387273","category":"47","category_name":"住宅区","address":"上海市徐汇区斜土路"},{"poiid":"B2094757D569A3FB4493","title":"徐家汇花园二期","lon":"121.4478072","lat":"31.19344306","category":"47","category_name":"住宅区","address":"徐家汇花园二期位于徐汇宛平南路233弄"},{"poiid":"B2094654DA6DAAF9469C","title":"水之城咖啡 宛平南路","lon":"121.44597842636","lat":"31.194528204112","category":"260","category_name":"其他","address":"徐汇区宛平南路181号(宛平南路辛耕路)"},{"poiid":"B2094655D264A0F84798","title":"如家快捷酒店(上海徐家汇宛平南路店)","lon":"121.4455","lat":"31.19594","category":"216","category_name":"经济型连锁酒店","address":"上海市徐汇区宛平南路65号(近肇家浜路)"},{"poiid":"B2094757D065A5F54092","title":"港匯普京","lon":"121.44799058","lat":"31.196674774","category":"500","category_name":"未知分类","address":"上海市徐汇区宛平路"},{"poiid":"B2094654DA6DAAF9479C","title":"国大药房宛平南路店(宛平南路)","lon":"121.44637","lat":"31.19383","category":"162","category_name":"医院","address":"徐汇区宛平南路221号(宛平南路辛耕路)"},{"poiid":"B2094757D169AAFD4599","title":"海上华庭","lon":"121.446207586","lat":"31.1943307291","category":"47","category_name":"住宅区","address":"上海虹漕南路699弄"},{"poiid":"B2094750D768A4FC439F","title":"辛耕路烧烤摊","lon":"121.446","lat":"31.1944","category":"68","category_name":"快餐厅","address":"徐汇区辛耕路(宛平南路口)"},{"poiid":"B2094655D268A2FE4392","title":"雪莉保健会所","lon":"121.4449","lat":"31.19388","category":"149","category_name":"洗浴推拿场所","address":"辛耕路28临"},{"poiid":"B2094757D464A6FE429D","title":"雄记桂林米粉 宛平南路店","lon":"121.44522599725","lat":"31.194680137393","category":"68","category_name":"快餐厅","address":"徐汇区宛平南路160号(近辛耕路)"},{"poiid":"B2094655D26CA4FA4793","title":"恒盛·阳光名苑","lon":"121.44986","lat":"31.19414","category":"47","category_name":"住宅区","address":"斜土路1975弄1-9号"},{"poiid":"B2094757D069AAFD4098","title":"正圆烩面","lon":"121.44598388","lat":"31.194431304","category":"247","category_name":"餐饮美食","address":"上海徐汇区宛平南路151号"},{"poiid":"B2094654DA6DAAF94499","title":"上海市建设和交通委员会科学技术委员会会议中心","lon":"121.44593","lat":"31.19553","category":"185","category_name":"会展中心","address":"宛平南路75号建科大厦13-14层"},{"poiid":"B2094757D069A4FF439D","title":"萨利亚","lon":"121.44782058","lat":"31.196573772","category":"249","category_name":"购物服务","address":"上海市徐汇区天钥桥路"},{"poiid":"B2094757D169A2F8499C","title":"艾维庭美容身心会馆(永新店)","lon":"121.44544849","lat":"31.194164741","category":"148","category_name":"美容美发店","address":"上海徐汇区辛耕路18号1-3楼(近宛平南路)"},{"poiid":"B2094655D265A4FC439B","title":"阿耐思特岩田商务楼","lon":"121.44605","lat":"31.19372","category":"46","category_name":"楼宇","address":"宛平南路200"},{"poiid":"B2094757D06FA3F84199","title":"三顾牛蛙馆(肇嘉浜路店)","lon":"121.44556","lat":"31.1966","category":"71","category_name":"四川菜","address":"徐汇区肇嘉浜路883号(宛平路口)"},{"poiid":"B2094757D06FA6F8439F","title":"复旦大学枫林校区第二教学楼","lon":"121.448604396","lat":"31.1959811913","category":"253","category_name":"校园生活","address":"上海市徐汇区东安路130号"},{"poiid":"B2094654DA6DA4F84198","title":"临江豪园","lon":"121.447","lat":"31.1944","category":"47","category_name":"住宅区","address":"上海市徐汇区宛平南路921号"},{"poiid":"B2094753D76FAAFA449C","title":"上海滩国泰旗舰店","lon":"121.466011","lat":"31.216125","category":"249","category_name":"购物服务","address":"淮海中路868号"},{"poiid":"B2094757D068A5F9499D","title":"复旦大学医科图书馆","lon":"121.44932102","lat":"31.196121364","category":"253","category_name":"校园生活","address":"上海徐汇区东安路130号复旦大学枫林校区内(西苑篮球场西侧)"},{"poiid":"B2094757D06FA0FE4098","title":"腾飞大厦","lon":"121.449","lat":"31.1946","category":"46","category_name":"楼宇","address":"行宫位于沈河北站一路41号"},{"poiid":"B2094757D06FA6FD489D","title":"亚都商务楼","lon":"121.444836","lat":"31.195017","category":"46","category_name":"楼宇","address":"上海南丹东路300弄9号"},{"poiid":"B2094757D069A3F54599","title":"斜土路宛平南路","lon":"121.44817258","lat":"31.193041703","category":"500","category_name":"未知分类","address":"上海市徐汇区肇嘉浜路"},{"poiid":"B2094757D06FA5F84692","title":"串串香麻辣烫","lon":"121.44614","lat":"31.19354","category":"68","category_name":"快餐厅","address":"徐汇区宛平南路200号(近辛耕路)"},{"poiid":"B2094757D068A1F4449D","title":"花乐·神田川","lon":"121.446604928","lat":"31.1918430256","category":"95","category_name":"日本料理","address":"徐汇区斜土路2421号4号楼(近宛平南路)"},{"poiid":"B2094757D069A3FA4299","title":"提香研磨咖啡","lon":"121.44662799152","lat":"31.193403622937","category":"260","category_name":"其他","address":"徐汇区宛平南路263号(近斜土路)"},{"poiid":"B2094757D068A2FD489A","title":"京世造型(宛平店)","lon":"121.446784","lat":"31.192901","category":"148","category_name":"美容美发店","address":"上海徐汇区宛平南路271号"},{"poiid":"B2094750D46DAAFD4799","title":"姐弟俩土豆粉","lon":"121.447593","lat":"31.193534","category":"247","category_name":"餐饮美食","address":null},{"poiid":"B2094654DA6DA0F4479B","title":"申峰大厦","lon":"121.448","lat":"31.1937","category":"46","category_name":"楼宇","address":"上海市徐汇区天钥桥路438号"},{"poiid":"B2094655D26BA2FE489A","title":"宛平南路","lon":"121.44806","lat":"31.19217","category":"38","category_name":"公交车站","address":""},{"poiid":"B2094655D26FA5FD4492","title":"谨斜小区","lon":"121.44878","lat":"31.193199","category":"47","category_name":"住宅区","address":"斜土路2167,2183,2365弄"},{"poiid":"B2094757D16BA2FB409B","title":"Carl'sJr. (美罗城)","lon":"121.44802808","lat":"31.196717505","category":"500","category_name":"未知分类","address":"上海肇嘉浜路1111号美罗城B1-33"},{"poiid":"B2094654DA6DA0FA4099","title":"汇峰大厦","lon":"121.446","lat":"31.1937","category":"46","category_name":"楼宇","address":"天钥桥路380弄20"},{"poiid":"B2094757D06BA5FB4999","title":"重庆鸡公煲 宛平南路店","lon":"121.445872054","lat":"31.193667793","category":"71","category_name":"四川菜","address":"徐汇区宛平南路162号(宛平南路辛耕路)"},{"poiid":"B2094654DA6DAAF9469E","title":"思妍丽(宛平南路)","lon":"121.44636","lat":"31.19463","category":"148","category_name":"美容美发店","address":"宛平南路99弄1号2层"},{"poiid":"B2094757D169A2FA4192","title":"那不勒斯比萨","lon":"121.44894458","lat":"31.194344729","category":"94","category_name":"西餐厅","address":"徐汇区斜土路2066号(近东安路)"},{"poiid":"B2094752D26AA0FA439D","title":"石锅坊","lon":"121.44927","lat":"31.194089","category":"247","category_name":"餐饮美食","address":"东安路258号"},{"poiid":"B2094757D065A0F84092","title":"Yamazaki徐太店","lon":"121.44770813","lat":"31.1947841644","category":"162","category_name":"医院","address":"上海徐家汇太平洋B1"},{"poiid":"B2094757D064A4FE429C","title":"上海建筑科学研究院","lon":"121.44599914","lat":"31.195411682","category":"500","category_name":"未知分类","address":"上海徐汇区宛平南路75号"},{"poiid":"B2094757D06BABF9449E","title":"7-ELEVEN(宛平店)","lon":"121.447342586","lat":"31.1939617219","category":"117","category_name":"便民商店/便利店","address":"徐汇区宛平南路299号"},{"poiid":"B2094757D06FA2F9409F","title":"生仕鱼林港(肇嘉浜路店)","lon":"121.44753","lat":"31.19755","category":"86","category_name":"火锅店","address":"徐汇区肇嘉浜路825号(近宛平南路)"},{"poiid":"B2094757D168AAF94092","title":"好乐迪","lon":"121.44774758","lat":"31.196602773","category":"500","category_name":"未知分类","address":"上海市徐汇区宛平路"},{"poiid":"B2094757D06FA7F54298","title":"徐家匯花園","lon":"121.44533538","lat":"31.196586608","category":"252","category_name":"楼宇机构","address":"上海宛平南路255弄"},{"poiid":"B2094753DA6EA4FC4592","title":"徐家汇花园","lon":"121.4466297","lat":"31.19322638","category":"47","category_name":"住宅区","address":"宛平南路255弄"},{"poiid":"B2094757D168A0F9409E","title":"德勤华永会计师事务所有限公司","lon":"121.447935586","lat":"31.1956107541","category":"46","category_name":"楼宇","address":"上海市黄浦区延安东路222号外滩中心30楼"},{"poiid":"B2094750D66DA6FC4492","title":"上海肿瘤医院","lon":"121.448425","lat":"31.194686","category":"162","category_name":"医院","address":null},{"poiid":"B2094654DA6DAAF9469A","title":"新汇公寓","lon":"121.4462","lat":"31.195114","category":"47","category_name":"住宅区","address":"宛平南路99弄2-3号"},{"poiid":"B2094757D169A4F84792","title":"上海中医药大学附属龙华医院(徐汇总院)西十楼骨伤科病房","lon":"121.449571","lat":"31.194975","category":"162","category_name":"医院","address":"上海宛平南路725号西十楼"},{"poiid":"B2094655D268A7F94899","title":"城建地产大厦","lon":"121.448","lat":"31.1963","category":"46","category_name":"楼宇","address":"上海市徐汇区南丹东路161号"},{"poiid":"B2094757D168A7FB459B","title":"斜土路2183","lon":"121.448140586","lat":"31.1942387273","category":"47","category_name":"住宅区","address":"上海市徐汇区斜土路"},{"poiid":"B2094757D569A3FB4493","title":"徐家汇花园二期","lon":"121.4478072","lat":"31.19344306","category":"47","category_name":"住宅区","address":"徐家汇花园二期位于徐汇宛平南路233弄"},{"poiid":"B2094654DA6DAAF9469C","title":"水之城咖啡 宛平南路","lon":"121.44597842636","lat":"31.194528204112","category":"260","category_name":"其他","address":"徐汇区宛平南路181号(宛平南路辛耕路)"},{"poiid":"B2094655D264A0F84798","title":"如家快捷酒店(上海徐家汇宛平南路店)","lon":"121.4455","lat":"31.19594","category":"216","category_name":"经济型连锁酒店","address":"上海市徐汇区宛平南路65号(近肇家浜路)"},{"poiid":"B2094757D065A5F54092","title":"港匯普京","lon":"121.44799058","lat":"31.196674774","category":"500","category_name":"未知分类","address":"上海市徐汇区宛平路"},{"poiid":"B2094654DA6DAAF9479C","title":"国大药房宛平南路店(宛平南路)","lon":"121.44637","lat":"31.19383","category":"162","category_name":"医院","address":"徐汇区宛平南路221号(宛平南路辛耕路)"},{"poiid":"B2094757D169AAFD4599","title":"海上华庭","lon":"121.446207586","lat":"31.1943307291","category":"47","category_name":"住宅区","address":"上海虹漕南路699弄"},{"poiid":"B2094750D768A4FC439F","title":"辛耕路烧烤摊","lon":"121.446","lat":"31.1944","category":"68","category_name":"快餐厅","address":"徐汇区辛耕路(宛平南路口)"},{"poiid":"B2094655D268A2FE4392","title":"雪莉保健会所","lon":"121.4449","lat":"31.19388","category":"149","category_name":"洗浴推拿场所","address":"辛耕路28临"},{"poiid":"B2094757D464A6FE429D","title":"雄记桂林米粉 宛平南路店","lon":"121.44522599725","lat":"31.194680137393","category":"68","category_name":"快餐厅","address":"徐汇区宛平南路160号(近辛耕路)"},{"poiid":"B2094655D26CA4FA4793","title":"恒盛·阳光名苑","lon":"121.44986","lat":"31.19414","category":"47","category_name":"住宅区","address":"斜土路1975弄1-9号"},{"poiid":"B2094757D069AAFD4098","title":"正圆烩面","lon":"121.44598388","lat":"31.194431304","category":"247","category_name":"餐饮美食","address":"上海徐汇区宛平南路151号"},{"poiid":"B2094654DA6DAAF94499","title":"上海市建设和交通委员会科学技术委员会会议中心","lon":"121.44593","lat":"31.19553","category":"185","category_name":"会展中心","address":"宛平南路75号建科大厦13-14层"},{"poiid":"B2094757D069A4FF439D","title":"萨利亚","lon":"121.44782058","lat":"31.196573772","category":"249","category_name":"购物服务","address":"上海市徐汇区天钥桥路"},{"poiid":"B2094757D169A2F8499C","title":"艾维庭美容身心会馆(永新店)","lon":"121.44544849","lat":"31.194164741","category":"148","category_name":"美容美发店","address":"上海徐汇区辛耕路18号1-3楼(近宛平南路)"},{"poiid":"B2094655D265A4FC439B","title":"阿耐思特岩田商务楼","lon":"121.44605","lat":"31.19372","category":"46","category_name":"楼宇","address":"宛平南路200"},{"poiid":"B2094757D06FA3F84199","title":"三顾牛蛙馆(肇嘉浜路店)","lon":"121.44556","lat":"31.1966","category":"71","category_name":"四川菜","address":"徐汇区肇嘉浜路883号(宛平路口)"},{"poiid":"B2094757D06FA6F8439F","title":"复旦大学枫林校区第二教学楼","lon":"121.448604396","lat":"31.1959811913","category":"253","category_name":"校园生活","address":"上海市徐汇区东安路130号"},{"poiid":"B2094654DA6DA4F84198","title":"临江豪园","lon":"121.447","lat":"31.1944","category":"47","category_name":"住宅区","address":"上海市徐汇区宛平南路921号"},{"poiid":"B2094753D76FAAFA449C","title":"上海滩国泰旗舰店","lon":"121.466011","lat":"31.216125","category":"249","category_name":"购物服务","address":"淮海中路868号"},{"poiid":"B2094757D068A5F9499D","title":"复旦大学医科图书馆","lon":"121.44932102","lat":"31.196121364","category":"253","category_name":"校园生活","address":"上海徐汇区东安路130号复旦大学枫林校区内(西苑篮球场西侧)"},{"poiid":"B2094757D06FA0FE4098","title":"腾飞大厦","lon":"121.449","lat":"31.1946","category":"46","category_name":"楼宇","address":"行宫位于沈河北站一路41号"},{"poiid":"B2094757D06FA6FD489D","title":"亚都商务楼","lon":"121.444836","lat":"31.195017","category":"46","category_name":"楼宇","address":"上海南丹东路300弄9号"},{"poiid":"B2094757D069A3F54599","title":"斜土路宛平南路","lon":"121.44817258","lat":"31.193041703","category":"500","category_name":"未知分类","address":"上海市徐汇区肇嘉浜路"},{"poiid":"B2094757D06FA5F84692","title":"串串香麻辣烫","lon":"121.44614","lat":"31.19354","category":"68","category_name":"快餐厅","address":"徐汇区宛平南路200号(近辛耕路)"},{"poiid":"B2094757D068A1F4449D","title":"花乐·神田川","lon":"121.446604928","lat":"31.1918430256","category":"95","category_name":"日本料理","address":"徐汇区斜土路2421号4号楼(近宛平南路)"},{"poiid":"B2094757D069A3FA4299","title":"提香研磨咖啡","lon":"121.44662799152","lat":"31.193403622937","category":"260","category_name":"其他","address":"徐汇区宛平南路263号(近斜土路)"},{"poiid":"B2094757D068A2FD489A","title":"京世造型(宛平店)","lon":"121.446784","lat":"31.192901","category":"148","category_name":"美容美发店","address":"上海徐汇区宛平南路271号"},{"poiid":"B2094750D46DAAFD4799","title":"姐弟俩土豆粉","lon":"121.447593","lat":"31.193534","category":"247","category_name":"餐饮美食","address":null},{"poiid":"B2094654DA6DA0F4479B","title":"申峰大厦","lon":"121.448","lat":"31.1937","category":"46","category_name":"楼宇","address":"上海市徐汇区天钥桥路438号"},{"poiid":"B2094655D26BA2FE489A","title":"宛平南路","lon":"121.44806","lat":"31.19217","category":"38","category_name":"公交车站","address":""},{"poiid":"B2094655D26FA5FD4492","title":"谨斜小区","lon":"121.44878","lat":"31.193199","category":"47","category_name":"住宅区","address":"斜土路2167,2183,2365弄"},{"poiid":"B2094757D16BA2FB409B","title":"Carl'sJr. (美罗城)","lon":"121.44802808","lat":"31.196717505","category":"500","category_name":"未知分类","address":"上海肇嘉浜路1111号美罗城B1-33"},{"poiid":"B2094654DA6DA0FA4099","title":"汇峰大厦","lon":"121.446","lat":"31.1937","category":"46","category_name":"楼宇","address":"天钥桥路380弄20"},{"poiid":"B2094757D06BA5FB4999","title":"重庆鸡公煲 宛平南路店","lon":"121.445872054","lat":"31.193667793","category":"71","category_name":"四川菜","address":"徐汇区宛平南路162号(宛平南路辛耕路)"},{"poiid":"B2094654DA6DAAF9469E","title":"思妍丽(宛平南路)","lon":"121.44636","lat":"31.19463","category":"148","category_name":"美容美发店","address":"宛平南路99弄1号2层"},{"poiid":"B2094757D169A2FA4192","title":"那不勒斯比萨","lon":"121.44894458","lat":"31.194344729","category":"94","category_name":"西餐厅","address":"徐汇区斜土路2066号(近东安路)"},{"poiid":"B2094752D26AA0FA439D","title":"石锅坊","lon":"121.44927","lat":"31.194089","category":"247","category_name":"餐饮美食","address":"东安路258号"},{"poiid":"B2094757D065A0F84092","title":"Yamazaki徐太店","lon":"121.44770813","lat":"31.1947841644","category":"162","category_name":"医院","address":"上海徐家汇太平洋B1"},{"poiid":"B2094757D064A4FE429C","title":"上海建筑科学研究院","lon":"121.44599914","lat":"31.195411682","category":"500","category_name":"未知分类","address":"上海徐汇区宛平南路75号"},{"poiid":"B2094757D06BABF9449E","title":"7-ELEVEN(宛平店)","lon":"121.447342586","lat":"31.1939617219","category":"117","category_name":"便民商店/便利店","address":"徐汇区宛平南路299号"},{"poiid":"B2094757D06FA2F9409F","title":"生仕鱼林港(肇嘉浜路店)","lon":"121.44753","lat":"31.19755","category":"86","category_name":"火锅店","address":"徐汇区肇嘉浜路825号(近宛平南路)"},{"poiid":"B2094757D168AAF94092","title":"好乐迪","lon":"121.44774758","lat":"31.196602773","category":"500","category_name":"未知分类","address":"上海市徐汇区宛平路"},{"poiid":"B2094757D06FA7F54298","title":"徐家匯花園","lon":"121.44533538","lat":"31.196586608","category":"252","category_name":"楼宇机构","address":"上海宛平南路255弄"},{"poiid":"B2094753DA6EA4FC4592","title":"徐家汇花园","lon":"121.4466297","lat":"31.19322638","category":"47","category_name":"住宅区","address":"宛平南路255弄"},{"poiid":"B2094757D168A0F9409E","title":"德勤华永会计师事务所有限公司","lon":"121.447935586","lat":"31.1956107541","category":"46","category_name":"楼宇","address":"上海市黄浦区延安东路222号外滩中心30楼"},{"poiid":"B2094750D66DA6FC4492","title":"上海肿瘤医院","lon":"121.448425","lat":"31.194686","category":"162","category_name":"医院","address":null},{"poiid":"B2094654DA6DAAF9469A","title":"新汇公寓","lon":"121.4462","lat":"31.195114","category":"47","category_name":"住宅区","address":"宛平南路99弄2-3号"},{"poiid":"B2094757D169A4F84792","title":"上海中医药大学附属龙华医院(徐汇总院)西十楼骨伤科病房","lon":"121.449571","lat":"31.194975","category":"162","category_name":"医院","address":"上海宛平南路725号西十楼"},{"poiid":"B2094655D268A7F94899","title":"城建地产大厦","lon":"121.448","lat":"31.1963","category":"46","category_name":"楼宇","address":"上海市徐汇区南丹东路161号"},{"poiid":"B2094757D168A7FB459B","title":"斜土路2183","lon":"121.448140586","lat":"31.1942387273","category":"47","category_name":"住宅区","address":"上海市徐汇区斜土路"},{"poiid":"B2094757D569A3FB4493","title":"徐家汇花园二期","lon":"121.4478072","lat":"31.19344306","category":"47","category_name":"住宅区","address":"徐家汇花园二期位于徐汇宛平南路233弄"},{"poiid":"B2094654DA6DAAF9469C","title":"水之城咖啡 宛平南路","lon":"121.44597842636","lat":"31.194528204112","category":"260","category_name":"其他","address":"徐汇区宛平南路181号(宛平南路辛耕路)"},{"poiid":"B2094655D264A0F84798","title":"如家快捷酒店(上海徐家汇宛平南路店)","lon":"121.4455","lat":"31.19594","category":"216","category_name":"经济型连锁酒店","address":"上海市徐汇区宛平南路65号(近肇家浜路)"},{"poiid":"B2094757D065A5F54092","title":"港匯普京","lon":"121.44799058","lat":"31.196674774","category":"500","category_name":"未知分类","address":"上海市徐汇区宛平路"},{"poiid":"B2094654DA6DAAF9479C","title":"国大药房宛平南路店(宛平南路)","lon":"121.44637","lat":"31.19383","category":"162","category_name":"医院","address":"徐汇区宛平南路221号(宛平南路辛耕路)"},{"poiid":"B2094757D169AAFD4599","title":"海上华庭","lon":"121.446207586","lat":"31.1943307291","category":"47","category_name":"住宅区","address":"上海虹漕南路699弄"},{"poiid":"B2094750D768A4FC439F","title":"辛耕路烧烤摊","lon":"121.446","lat":"31.1944","category":"68","category_name":"快餐厅","address":"徐汇区辛耕路(宛平南路口)"},{"poiid":"B2094655D268A2FE4392","title":"雪莉保健会所","lon":"121.4449","lat":"31.19388","category":"149","category_name":"洗浴推拿场所","address":"辛耕路28临"},{"poiid":"B2094757D464A6FE429D","title":"雄记桂林米粉 宛平南路店","lon":"121.44522599725","lat":"31.194680137393","category":"68","category_name":"快餐厅","address":"徐汇区宛平南路160号(近辛耕路)"},{"poiid":"B2094655D26CA4FA4793","title":"恒盛·阳光名苑","lon":"121.44986","lat":"31.19414","category":"47","category_name":"住宅区","address":"斜土路1975弄1-9号"},{"poiid":"B2094757D069AAFD4098","title":"正圆烩面","lon":"121.44598388","lat":"31.194431304","category":"247","category_name":"餐饮美食","address":"上海徐汇区宛平南路151号"},{"poiid":"B2094654DA6DAAF94499","title":"上海市建设和交通委员会科学技术委员会会议中心","lon":"121.44593","lat":"31.19553","category":"185","category_name":"会展中心","address":"宛平南路75号建科大厦13-14层"},{"poiid":"B2094757D069A4FF439D","title":"萨利亚","lon":"121.44782058","lat":"31.196573772","category":"249","category_name":"购物服务","address":"上海市徐汇区天钥桥路"},{"poiid":"B2094757D169A2F8499C","title":"艾维庭美容身心会馆(永新店)","lon":"121.44544849","lat":"31.194164741","category":"148","category_name":"美容美发店","address":"上海徐汇区辛耕路18号1-3楼(近宛平南路)"},{"poiid":"B2094655D265A4FC439B","title":"阿耐思特岩田商务楼","lon":"121.44605","lat":"31.19372","category":"46","category_name":"楼宇","address":"宛平南路200"}]