[{"poiid":"B2094757D065A4FE469F","title":"上海迪士尼项目工地","lon":"121.66061608","lat":"31.15002032","category":"500","category_name":"未知分类","address":"上海市浦东新区Ｓ２沪芦高速"},{"poiid":"B2094655D36CA0F4439F","title":"黄楼镇","lon":"121.6705","lat":"31.16318","category":"38","category_name":"公交车站","address":""},{"poiid":"B2094757D065A2F4419D","title":"乐乡公墓","lon":"121.666836085","lat":"31.1802569844","category":"620","category_name":"丧葬","address":"浦东新区栏学路8号(近科农路)"},{"poiid":"B2094655D36CA6F94992","title":"杜甫亭","lon":"121.65655","lat":"31.15997","category":"38","category_name":"公交车站","address":""},{"poiid":"B2094654DB6DA7F5479F","title":"宏福商场","lon":"121.66027","lat":"31.16101","category":"119","category_name":"商场","address":"黄镇栏学路"},{"poiid":"B2094654DA6AA4FD409A","title":"大圣寺","lon":"121.65165","lat":"31.17243","category":"244","category_name":"寺庙道观","address":""},{"poiid":"B2094655D36CA0F8409B","title":"界龙一路","lon":"121.66792","lat":"31.16859","category":"38","category_name":"公交车站","address":""},{"poiid":"B2094757D069A6FA409B","title":"A20","lon":"121.64606797","lat":"31.15749936","category":"500","category_name":"未知分类","address":"上海市浦东新区康桥路"},{"poiid":"B2094655D36CA1F54398","title":"科农路稻香路","lon":"121.654","lat":"31.1767","category":"38","category_name":"公交车站","address":""},{"poiid":"B2094654DB6DA5FC4193","title":"上海华新乐器有限公司","lon":"121.65557","lat":"31.16143","category":"263","category_name":"公司","address":""},{"poiid":"B2094654DA6AA4FC419B","title":"桂龙商场","lon":"121.66765","lat":"31.16481","category":"119","category_name":"商场","address":"黄镇南首"},{"poiid":"B2094757D165A2FC4693","title":"华夏中路孙环路车站","lon":"121.64728674","lat":"31.169680278","category":"500","category_name":"未知分类","address":"上海华夏中路孙环路"},{"poiid":"B2094654DA6AABFB429F","title":"上海市黄楼中学","lon":"121.66911","lat":"31.166","category":"55","category_name":"中学","address":"浦东川沙黄楼镇栏学路375号"},{"poiid":"B2094654DA6AA4FE4492","title":"张江镇环西小区","lon":"121.64129","lat":"31.17754","category":"47","category_name":"住宅区","address":"孙环路601弄1-98号临"},{"poiid":"B2094654DA6AABFB439C","title":"黄楼花苑","lon":"121.6751","lat":"31.166113","category":"47","category_name":"住宅区","address":"川周公路6561弄"},{"poiid":"B2094655D36CA0F44392","title":"黄楼","lon":"121.67029","lat":"31.16313","category":"38","category_name":"公交车站","address":""},{"poiid":"B2094654DA6BA1FA409A","title":"服务区","lon":"121.64669","lat":"31.17226","category":"250","category_name":"公园户外","address":"孙桥镇"},{"poiid":"B2094654DB6DA6FC449A","title":"黄楼影剧院","lon":"121.668791","lat":"31.163573","category":"178","category_name":"电影院","address":"芙蓉路56号"},{"poiid":"B2094757DA6FA3FF4092","title":"环东农庄","lon":"121.654787063599","lat":"31.1825806532364","category":"76","category_name":"上海菜","address":"浦东新区孙建路(近三灶路)"},{"poiid":"B2094757D165A1F8479A","title":"吉祥馄饨(南桥店)","lon":"121.668402","lat":"31.162874","category":"247","category_name":"餐饮美食","address":"上海市浦东新区川沙新镇川黄路195号"},{"poiid":"B2094654DA6AABFB4299","title":"黄楼水果大卖场","lon":"121.66858","lat":"31.16526","category":"117","category_name":"便民商店/便利店","address":""},{"poiid":"B2094750D669A7F8429B","title":"广兰路地铁站","lon":"121.647178","lat":"31.176021","category":"36","category_name":"地铁站","address":null},{"poiid":"B2094654DB6DA5FC4092","title":"上海共业制刷有限公司","lon":"121.65267","lat":"31.15852","category":"263","category_name":"公司","address":"川周公路5380"},{"poiid":"B2094757D164AAFD449C","title":"黄楼社区卫生服务中心","lon":"121.670263085","lat":"31.1649676488","category":"500","category_name":"未知分类","address":"上海川沙镇川周公路6215号"},{"poiid":"B2094654DB6DA6FC4498","title":"浦东新区黄楼幼儿园","lon":"121.67042","lat":"31.16168","category":"57","category_name":"幼儿园","address":"浦东新区黄楼栏学路495号"},{"poiid":"B2094655D268ABFF4199","title":"环东二大道立交桥","lon":"121.64802","lat":"31.15553","category":"250","category_name":"公园户外","address":""},{"poiid":"B2094655D26FA6FF499D","title":"农工商超市(黄楼店)","lon":"121.67058","lat":"31.16411","category":"118","category_name":"超级市场","address":"浦东新区川沙黄楼迎春街48号"},{"poiid":"B2094757D16BABF44298","title":"40集会舍","lon":"121.66002","lat":"31.17884","category":"500","category_name":"未知分类","address":"浦东新区科农路2015号(孙浦路进入)"},{"poiid":"B2094654DA6AA4FD489A","title":"上海市浦东新区黄楼中心小学","lon":"121.67217","lat":"31.16514","category":"56","category_name":"小学","address":"浦东新区黄楼镇迎春街95号"},{"poiid":"B2094757D168A3FA459B","title":"界龙数码印刷","lon":"121.6685","lat":"31.1625","category":"500","category_name":"未知分类","address":"浦东新区川周路7077号"},{"poiid":"B2094757D16AA3FB439A","title":"鼎鑫名流苑","lon":"121.669069","lat":"31.162963","category":"500","category_name":"未知分类","address":"上海市浦東新區川沙鎮川黃路"},{"poiid":"B2094757D66FA3FD419B","title":"南门幼儿园","lon":"121.660486985","lat":"31.1808699979","category":"57","category_name":"幼儿园","address":"上海华夏二路828号"},{"poiid":"B2094654DA6BA2F9499C","title":"华联超市(孙环路)","lon":"121.64286","lat":"31.17398","category":"118","category_name":"超级市场","address":""},{"poiid":"B2094654DB65A4FE409A","title":"上海吉龙经济发展有限公司","lon":"121.66991","lat":"31.1622","category":"263","category_name":"公司","address":""},{"poiid":"B2094654DB69A6F94993","title":"欧泊圣堡","lon":"121.674","lat":"31.1741","category":"47","category_name":"住宅区","address":"上海市浦东新区栏学路328弄"},{"poiid":"B2094757D16AABF84199","title":"浦东张江腾越篮球馆","lon":"121.64855867","lat":"31.181599657","category":"220","category_name":"运动场所","address":"上海张江三灶路(三灶浜路)851号院内(靠近孙弘路)"},{"poiid":"B2094752DA6EABFB469E","title":"浦东国际机场T2","lon":"121.670372","lat":"31.174076","category":"500","category_name":"未知分类","address":"上海市 浦东国际机场"},{"poiid":"B2094654DB6DA6FC4098","title":"黄楼派出所","lon":"121.67116","lat":"31.16356","category":"609","category_name":"警察局","address":"川沙镇"},{"poiid":"B2094757D069A0FD439D","title":"上海市民政第二精神病院","lon":"121.643251","lat":"31.153094","category":"162","category_name":"医院","address":"上海市南汇区川周公路2607号"},{"poiid":"B2094655D36CA2FE489F","title":"旗杆","lon":"121.66084","lat":"31.15209","category":"38","category_name":"公交车站","address":""},{"poiid":"B209475CD669A2FE429F","title":"陆家嘴","lon":"121.663475","lat":"31.182979","category":"500","category_name":"未知分类","address":"上海市 人民公园外滩"},{"poiid":"B2094654DA6BA2FA499B","title":"张江镇环西居委会卫生服务站","lon":"121.64133","lat":"31.1775","category":"162","category_name":"医院","address":""},{"poiid":"B2094654DA6BA2F84299","title":"浦东新区雪英小学","lon":"121.65077","lat":"31.18363","category":"56","category_name":"小学","address":""},{"poiid":"B2094655D26BA2FB409F","title":"孙环路(环西小区)","lon":"121.64046","lat":"31.17873","category":"38","category_name":"公交车站","address":""},{"poiid":"B2094654DA6BA2FA4399","title":"老二水果超市","lon":"121.65325","lat":"31.18409","category":"117","category_name":"便民商店/便利店","address":""},{"poiid":"B2094750D26AA4FA4393","title":"浦东绿地铂骊酒店","lon":"121.646163","lat":"31.151405","category":"247","category_name":"餐饮美食","address":"川沙路5500号"},{"poiid":"B2094654DB6DA6FF4299","title":"杭州华联(川展路)","lon":"121.66979","lat":"31.15413","category":"118","category_name":"超级市场","address":""},{"poiid":"B2094654DA6BA2FA4192","title":"环东菜市场","lon":"121.65422","lat":"31.18417","category":"117","category_name":"便民商店/便利店","address":""},{"poiid":"B2094655D36CA1F44093","title":"乐乡","lon":"121.66475","lat":"31.18448","category":"38","category_name":"公交车站","address":""},{"poiid":"B2094757D065ABF5439D","title":"上海电力公司康桥220kv变电站","lon":"121.643841","lat":"31.155828","category":"500","category_name":"未知分类","address":"上海浦东川周公路4032号"},{"poiid":"B2094757D065A4FE469F","title":"上海迪士尼项目工地","lon":"121.66061608","lat":"31.15002032","category":"500","category_name":"未知分类","address":"上海市浦东新区Ｓ２沪芦高速"},{"poiid":"B2094655D36CA0F4439F","title":"黄楼镇","lon":"121.6705","lat":"31.16318","category":"38","category_name":"公交车站","address":""},{"poiid":"B2094757D065A2F4419D","title":"乐乡公墓","lon":"121.666836085","lat":"31.1802569844","category":"620","category_name":"丧葬","address":"浦东新区栏学路8号(近科农路)"},{"poiid":"B2094655D36CA6F94992","title":"杜甫亭","lon":"121.65655","lat":"31.15997","category":"38","category_name":"公交车站","address":""},{"poiid":"B2094654DB6DA7F5479F","title":"宏福商场","lon":"121.66027","lat":"31.16101","category":"119","category_name":"商场","address":"黄镇栏学路"},{"poiid":"B2094654DA6AA4FD409A","title":"大圣寺","lon":"121.65165","lat":"31.17243","category":"244","category_name":"寺庙道观","address":""},{"poiid":"B2094655D36CA0F8409B","title":"界龙一路","lon":"121.66792","lat":"31.16859","category":"38","category_name":"公交车站","address":""},{"poiid":"B2094757D069A6FA409B","title":"A20","lon":"121.64606797","lat":"31.15749936","category":"500","category_name":"未知分类","address":"上海市浦东新区康桥路"},{"poiid":"B2094655D36CA1F54398","title":"科农路稻香路","lon":"121.654","lat":"31.1767","category":"38","category_name":"公交车站","address":""},{"poiid":"B2094654DB6DA5FC4193","title":"上海华新乐器有限公司","lon":"121.65557","lat":"31.16143","category":"263","category_name":"公司","address":""},{"poiid":"B2094654DA6AA4FC419B","title":"桂龙商场","lon":"121.66765","lat":"31.16481","category":"119","category_name":"商场","address":"黄镇南首"},{"poiid":"B2094757D165A2FC4693","title":"华夏中路孙环路车站","lon":"121.64728674","lat":"31.169680278","category":"500","category_name":"未知分类","address":"上海华夏中路孙环路"},{"poiid":"B2094654DA6AABFB429F","title":"上海市黄楼中学","lon":"121.66911","lat":"31.166","category":"55","category_name":"中学","address":"浦东川沙黄楼镇栏学路375号"},{"poiid":"B2094654DA6AA4FE4492","title":"张江镇环西小区","lon":"121.64129","lat":"31.17754","category":"47","category_name":"住宅区","address":"孙环路601弄1-98号临"},{"poiid":"B2094654DA6AABFB439C","title":"黄楼花苑","lon":"121.6751","lat":"31.166113","category":"47","category_name":"住宅区","address":"川周公路6561弄"},{"poiid":"B2094655D36CA0F44392","title":"黄楼","lon":"121.67029","lat":"31.16313","category":"38","category_name":"公交车站","address":""},{"poiid":"B2094654DA6BA1FA409A","title":"服务区","lon":"121.64669","lat":"31.17226","category":"250","category_name":"公园户外","address":"孙桥镇"},{"poiid":"B2094654DB6DA6FC449A","title":"黄楼影剧院","lon":"121.668791","lat":"31.163573","category":"178","category_name":"电影院","address":"芙蓉路56号"},{"poiid":"B2094757DA6FA3FF4092","title":"环东农庄","lon":"121.654787063599","lat":"31.1825806532364","category":"76","category_name":"上海菜","address":"浦东新区孙建路(近三灶路)"},{"poiid":"B2094757D165A1F8479A","title":"吉祥馄饨(南桥店)","lon":"121.668402","lat":"31.162874","category":"247","category_name":"餐饮美食","address":"上海市浦东新区川沙新镇川黄路195号"},{"poiid":"B2094654DA6AABFB4299","title":"黄楼水果大卖场","lon":"121.66858","lat":"31.16526","category":"117","category_name":"便民商店/便利店","address":""},{"poiid":"B2094750D669A7F8429B","title":"广兰路地铁站","lon":"121.647178","lat":"31.176021","category":"36","category_name":"地铁站","address":null},{"poiid":"B2094654DB6DA5FC4092","title":"上海共业制刷有限公司","lon":"121.65267","lat":"31.15852","category":"263","category_name":"公司","address":"川周公路5380"},{"poiid":"B2094757D164AAFD449C","title":"黄楼社区卫生服务中心","lon":"121.670263085","lat":"31.1649676488","category":"500","category_name":"未知分类","address":"上海川沙镇川周公路6215号"},{"poiid":"B2094654DB6DA6FC4498","title":"浦东新区黄楼幼儿园","lon":"121.67042","lat":"31.16168","category":"57","category_name":"幼儿园","address":"浦东新区黄楼栏学路495号"},{"poiid":"B2094655D268ABFF4199","title":"环东二大道立交桥","lon":"121.64802","lat":"31.15553","category":"250","category_name":"公园户外","address":""},{"poiid":"B2094655D26FA6FF499D","title":"农工商超市(黄楼店)","lon":"121.67058","lat":"31.16411","category":"118","category_name":"超级市场","address":"浦东新区川沙黄楼迎春街48号"},{"poiid":"B2094757D16BABF44298","title":"40集会舍","lon":"121.66002","lat":"31.17884","category":"500","category_name":"未知分类","address":"浦东新区科农路2015号(孙浦路进入)"},{"poiid":"B2094654DA6AA4FD489A","title":"上海市浦东新区黄楼中心小学","lon":"121.67217","lat":"31.16514","category":"56","category_name":"小学","address":"浦东新区黄楼镇迎春街95号"},{"poiid":"B2094757D168A3FA459B","title":"界龙数码印刷","lon":"121.6685","lat":"31.1625","category":"500","category_name":"未知分类","address":"浦东新区川周路7077号"},{"poiid":"B2094757D16AA3FB439A","title":"鼎鑫名流苑","lon":"121.669069","lat":"31.162963","category":"500","category_name":"未知分类","address":"上海市浦東新區川沙鎮川黃路"},{"poiid":"B2094757D66FA3FD419B","title":"南门幼儿园","lon":"121.660486985","lat":"31.1808699979","category":"57","category_name":"幼儿园","address":"上海华夏二路828号"},{"poiid":"B2094654DA6BA2F9499C","title":"华联超市(孙环路)","lon":"121.64286","lat":"31.17398","category":"118","category_name":"超级市场","address":""},{"poiid":"B2094654DB65A4FE409A","title":"上海吉龙经济发展有限公司","lon":"121.66991","lat":"31.1622","category":"263","category_name":"公司","address":""},{"poiid":"B2094654DB69A6F94993","title":"欧泊圣堡","lon":"121.674","lat":"31.1741","category":"47","category_name":"住宅区","address":"上海市浦东新区栏学路328弄"},{"poiid":"B2094757D16AABF84199","title":"浦东张江腾越篮球馆","lon":"121.64855867","lat":"31.181599657","category":"220","category_name":"运动场所","address":"上海张江三灶路(三灶浜路)851号院内(靠近孙弘路)"},{"poiid":"B2094752DA6EABFB469E","title":"浦东国际机场T2","lon":"121.670372","lat":"31.174076","category":"500","category_name":"未知分类","address":"上海市 浦东国际机场"},{"poiid":"B2094654DB6DA6FC4098","title":"黄楼派出所","lon":"121.67116","lat":"31.16356","category":"609","category_name":"警察局","address":"川沙镇"},{"poiid":"B2094757D069A0FD439D","title":"上海市民政第二精神病院","lon":"121.643251","lat":"31.153094","category":"162","category_name":"医院","address":"上海市南汇区川周公路2607号"},{"poiid":"B2094655D36CA2FE489F","title":"旗杆","lon":"121.66084","lat":"31.15209","category":"38","category_name":"公交车站","address":""},{"poiid":"B209475CD669A2FE429F","title":"陆家嘴","lon":"121.663475","lat":"31.182979","category":"500","category_name":"未知分类","address":"上海市 人民公园外滩"},{"poiid":"B2094654DA6BA2FA499B","title":"张江镇环西居委会卫生服务站","lon":"121.64133","lat":"31.1775","category":"162","category_name":"医院","address":""},{"poiid":"B2094654DA6BA2F84299","title":"浦东新区雪英小学","lon":"121.65077","lat":"31.18363","category":"56","category_name":"小学","address":""},{"poiid":"B2094655D26BA2FB409F","title":"孙环路(环西小区)","lon":"121.64046","lat":"31.17873","category":"38","category_name":"公交车站","address":""},{"poiid":"B2094654DA6BA2FA4399","title":"老二水果超市","lon":"121.65325","lat":"31.18409","category":"117","category_name":"便民商店/便利店","address":""},{"poiid":"B2094750D26AA4FA4393","title":"浦东绿地铂骊酒店","lon":"121.646163","lat":"31.151405","category":"247","category_name":"餐饮美食","address":"川沙路5500号"},{"poiid":"B2094654DB6DA6FF4299","title":"杭州华联(川展路)","lon":"121.66979","lat":"31.15413","category":"118","category_name":"超级市场","address":""},{"poiid":"B2094654DA6BA2FA4192","title":"环东菜市场","lon":"121.65422","lat":"31.18417","category":"117","category_name":"便民商店/便利店","address":""},{"poiid":"B2094655D36CA1F44093","title":"乐乡","lon":"121.66475","lat":"31.18448","category":"38","category_name":"公交车站","address":""},{"poiid":"B2094757D065ABF5439D","title":"上海电力公司康桥220kv变电站","lon":"121.643841","lat":"31.155828","category":"500","category_name":"未知分类","address":"上海浦东川周公路4032号"}]