[{"poiid":"B2094654DA69AAFB4799","title":"裕景大饭店","lon":"121.52018","lat":"31.2409","category":"213","category_name":"五星级宾馆","address":"上海市浦东新区浦东大道535号(近东方路)"},{"poiid":"B2094757D06FA3FA4399","title":"海神诺富特大酒店","lon":"121.52459373247143","lat":"31.24026721198827","category":"214","category_name":"四星级宾馆","address":"浦东新区浦东大道728号海神诺富特大酒店5楼(近福山路)"},{"poiid":"B2094655D36DA6FE429A","title":"浦东大道","lon":"121.51984","lat":"31.24032","category":"38","category_name":"公交车站","address":""},{"poiid":"B209475CD564A7F84392","title":"上海滩浦东香格里拉店","lon":"121.50058","lat":"31.23634","category":"119","category_name":"商场","address":"浦东富成路33号香格里拉酒店内大堂层"},{"poiid":"B2094655D26AA0F9409A","title":"地铁浦东大道站","lon":"121.51984","lat":"31.24032","category":"36","category_name":"地铁站","address":""},{"poiid":"B2094757D068A6F8419F","title":"华检医疗体检中心","lon":"121.521036652","lat":"31.2400068656","category":"902","category_name":"楼宇机构","address":"浦东新区浦东大道545号裕景坊2楼(东方路口)"},{"poiid":"B2094757D06FA3FF409B","title":"星巴克(航运金融大厦店)","lon":"121.524694","lat":"31.240575","category":"260","category_name":"其他","address":"浦东新区浦东大道720号国际航运金融大厦1楼(近福山路)"},{"poiid":"B2094655D26EA4FA4298","title":"旋宫50――海神诺富特旋转餐厅","lon":"121.52469","lat":"31.23947","category":"247","category_name":"餐饮美食","address":"浦东新区浦东大道728号海神诺富特大酒店50楼"},{"poiid":"B2094757D069A2FE4098","title":"慈铭健康体检(浦东大道门诊部)","lon":"121.52276","lat":"31.24064","category":"162","category_name":"医院","address":"浦东新区浦东大道637号同科公寓2楼"},{"poiid":"B2094757D06AA3FC409B","title":"浦东大道钱仓路","lon":"121.520092738","lat":"31.2396905017","category":"500","category_name":"未知分类","address":"上海浦东大道"},{"poiid":"B2094757D06AA4F9459C","title":"豪德万源大酒店","lon":"121.52222823","lat":"31.24150209","category":"217","category_name":"旅馆招待所","address":"浦东新区浦东大道599号(近东方路)"},{"poiid":"B2094655D26EA0FE499B","title":"梅园新村(栖霞路)","lon":"121.5217","lat":"31.23798","category":"47","category_name":"住宅区","address":"上海浦东新区福山路40弄"},{"poiid":"B2094757D068A5F44392","title":"裕景咖啡厅","lon":"121.52051","lat":"31.2408","category":"268","category_name":"自助","address":"浦东新区浦东大道535号裕景大饭店3楼(近东方路)"},{"poiid":"B2094757D06EAAFF4993","title":"浦电路地铁站(四号线)","lon":"121.519854","lat":"31.240301","category":"36","category_name":"地铁站","address":"上海轨道交通 四号线 轨交浦东大道站 轻轨 4"},{"poiid":"B2094654DA69A7FB419A","title":"崂山三四村","lon":"121.524","lat":"31.2422","category":"47","category_name":"住宅区","address":"栖霞路76号"},{"poiid":"B2094757D165A2FA4492","title":"世纪大道东方路","lon":"121.52246773","lat":"31.239912506","category":"500","category_name":"未知分类","address":"上海浦东"},{"poiid":"B2094757D069A3F54193","title":"会元馆","lon":"121.52176","lat":"31.2405","category":"72","category_name":"广东菜","address":"浦东新区浦东大道599号豪德万源大酒店2楼(近东方路)"},{"poiid":"B2094753D76DA4F8439D","title":"上海电影博物馆","lon":"121.520019","lat":"31.240804","category":"500","category_name":"未知分类","address":"上海市 上海电影制片厂漕溪北路595号"},{"poiid":"B2094757D069A6F8419A","title":"沁源茶楼","lon":"121.52162933","lat":"31.240867614","category":"260","category_name":"其他","address":"浦东新区浦东大道569号(近东方路)"},{"poiid":"B2094654DB69A0F9499C","title":"泰和茶馆","lon":"121.52159","lat":"31.24083","category":"66","category_name":"茶艺馆","address":"浦东新区浦东大道569号"},{"poiid":"B2094654DB64A6F44092","title":"如家快捷酒店(上海陆家嘴店)","lon":"121.52216","lat":"31.24182","category":"216","category_name":"经济型连锁酒店","address":"上海市浦东新区昌邑路569号(近东方路)"},{"poiid":"B2094753D76BA0FF4898","title":"伊秀手握寿司","lon":"121.520011","lat":"31.240814","category":"247","category_name":"餐饮美食","address":"上海市 上海市第一食品商店"},{"poiid":"B2094757D16BA3FB4299","title":"星巴克 STARBUCKS (海神诺富特店)","lon":"121.524689","lat":"31.239472","category":"247","category_name":"餐饮美食","address":"上海浦东福山路33号海神诺富特大酒店"},{"poiid":"B2094655D26AABFF4793","title":"上海雅客滨江酒店式服务公寓","lon":"121.52151","lat":"31.2412","category":"250","category_name":"公园户外","address":"浦东新区昌邑路588弄金隆置地大厦内(近东方路)"},{"poiid":"B2094757D064A6FA4398","title":"隆山家常菜","lon":"121.522931","lat":"31.238395","category":"76","category_name":"上海菜","address":"浦东新区栖霞路294号(近福山路)"},{"poiid":"B2094757DA6EAAF9479F","title":"I疯G(浦东大道店)","lon":"121.521828800002","lat":"31.2404912999998","category":"68","category_name":"快餐厅","address":"浦东新区浦东大道566号(近东方路)"},{"poiid":"B2094757D068A1FC479B","title":"85路浦东大道钱仓路站","lon":"121.52097925","lat":"31.240430077","category":"38","category_name":"公交车站","address":"上海市浦东新区浦东大道近钱仓路东侧"},{"poiid":"B2094654DA69AAFB449F","title":"海悦滨江酒店公寓","lon":"121.52151","lat":"31.24121","category":"250","category_name":"公园户外","address":"上海市浦东新区昌邑路588号(近东方路,金隆置地大厦内,)"},{"poiid":"B2094655D36CA6FB489E","title":"东方路栖霞路","lon":"121.52062","lat":"31.23821","category":"38","category_name":"公交车站","address":""},{"poiid":"B2094655D26AA0F8469C","title":"订餐小秘书","lon":"121.52054","lat":"31.2393","category":"247","category_name":"餐饮美食","address":"浦东新区东方路135号2楼"},{"poiid":"B2094757D065A6F94598","title":"立信会计浦东分校","lon":"121.52234463","lat":"31.24010531","category":"253","category_name":"校园生活","address":"上海钱仓路"},{"poiid":"B2094757D469A2FE469D","title":"苏州藏书羊肉馆 栖霞路店","lon":"121.523542054","lat":"31.239147793","category":"247","category_name":"餐饮美食","address":"浦东新区栖霞路99号(近崂山路)"},{"poiid":"B2094654DB64A3FF4192","title":"COSTA COFFEE(裕景大饭店东)","lon":"121.52033","lat":"31.24088","category":"65","category_name":"咖啡厅","address":""},{"poiid":"B2094757D16DA7FC479B","title":"上海港教育培训中心","lon":"121.521341863","lat":"31.2393383809","category":"253","category_name":"校园生活","address":"上海钱仓路400号"},{"poiid":"B2094757D66FA1F94699","title":"赣江村","lon":"121.520063738","lat":"31.2410805314","category":"260","category_name":"其他","address":"浦东新区东方路41号(近昌邑路)"},{"poiid":"B2094757D664ABF8459A","title":"大汤面馆","lon":"121.520932054","lat":"31.238510793","category":"68","category_name":"快餐厅","address":"浦东新区东方路182号(近大连路隧道出口)"},{"poiid":"B2094654DA69AAFB4499","title":"金隆置地大厦","lon":"121.52152","lat":"31.2412","category":"46","category_name":"楼宇","address":"昌邑路588弄1-6号"},{"poiid":"B2094757D16BA1F9439E","title":"星巴客 航运金融店","lon":"121.522478738","lat":"31.2402545137","category":"247","category_name":"餐饮美食","address":"上海浦东大道"},{"poiid":"B2094757D66AA4FE479A","title":"东北菜馆","lon":"121.52464836441","lat":"31.239453960904","category":"82","category_name":"东北菜","address":"浦东新区栖霞路51号(近南泉北路)"},{"poiid":"B2094654DA69AAFB449B","title":"王家小厨","lon":"121.524031054","lat":"31.240960793","category":"76","category_name":"上海菜","address":"浦东新区浦东大道651弄13号(昌邑路)"},{"poiid":"B2094655D26FAAFE499F","title":"梅园三村","lon":"121.52158","lat":"31.23896","category":"47","category_name":"住宅区","address":"栖霞路343弄"},{"poiid":"B2094654DA69A6FD439B","title":"东昌大楼","lon":"121.52","lat":"31.2386","category":"46","category_name":"楼宇","address":"上海东昌路600号"},{"poiid":"B2094654DA69AAFB479E","title":"裕景坊","lon":"121.5209","lat":"31.2409","category":"46","category_name":"楼宇","address":"浦东大道555号"},{"poiid":"B209475DD664A4FA4593","title":"滨江大道","lon":"121.522384","lat":"31.241136","category":"250","category_name":"公园户外","address":"上海市 浦东新区陆家嘴滨江大道"},{"poiid":"B2094654DB64A3FF4198","title":"喜士多便利连锁(梅园一街坊北)","lon":"121.52201","lat":"31.24035","category":"117","category_name":"便民商店/便利店","address":""},{"poiid":"B2094654DA69AAFB419C","title":"梅园一街坊","lon":"121.52212","lat":"31.239687","category":"47","category_name":"住宅区","address":"浦东大道604弄"},{"poiid":"B2094750D56EA0F8459D","title":"椰岛造型","lon":"121.521484","lat":"31.240741","category":"148","category_name":"美容美发店","address":"浦东新区浦东大道580号"},{"poiid":"B2094655D26DA1FF409E","title":"万丰川菜 钱仓路店","lon":"121.52089118957","lat":"31.239646098132","category":"71","category_name":"四川菜","address":"钱仓路326号近浦东大道"},{"poiid":"B2094753D66FA0FB429A","title":"汉庭酒店上海陆家嘴东方明珠店","lon":"121.521915","lat":"31.240305","category":"216","category_name":"经济型连锁酒店","address":"浦东大道580号"},{"poiid":"B2094757D464A7FD4298","title":"御庭","lon":"121.519856064","lat":"31.242143345783","category":"72","category_name":"广东菜","address":"浦东新区浦东大道535号裕景大饭店5楼(近东方路)"},{"poiid":"B2094654DA69AAFB4799","title":"裕景大饭店","lon":"121.52018","lat":"31.2409","category":"213","category_name":"五星级宾馆","address":"上海市浦东新区浦东大道535号(近东方路)"},{"poiid":"B2094757D06FA3FA4399","title":"海神诺富特大酒店","lon":"121.52459373247143","lat":"31.24026721198827","category":"214","category_name":"四星级宾馆","address":"浦东新区浦东大道728号海神诺富特大酒店5楼(近福山路)"},{"poiid":"B2094655D36DA6FE429A","title":"浦东大道","lon":"121.51984","lat":"31.24032","category":"38","category_name":"公交车站","address":""},{"poiid":"B209475CD564A7F84392","title":"上海滩浦东香格里拉店","lon":"121.50058","lat":"31.23634","category":"119","category_name":"商场","address":"浦东富成路33号香格里拉酒店内大堂层"},{"poiid":"B2094655D26AA0F9409A","title":"地铁浦东大道站","lon":"121.51984","lat":"31.24032","category":"36","category_name":"地铁站","address":""},{"poiid":"B2094757D068A6F8419F","title":"华检医疗体检中心","lon":"121.521036652","lat":"31.2400068656","category":"902","category_name":"楼宇机构","address":"浦东新区浦东大道545号裕景坊2楼(东方路口)"},{"poiid":"B2094757D06FA3FF409B","title":"星巴克(航运金融大厦店)","lon":"121.524694","lat":"31.240575","category":"260","category_name":"其他","address":"浦东新区浦东大道720号国际航运金融大厦1楼(近福山路)"},{"poiid":"B2094655D26EA4FA4298","title":"旋宫50――海神诺富特旋转餐厅","lon":"121.52469","lat":"31.23947","category":"247","category_name":"餐饮美食","address":"浦东新区浦东大道728号海神诺富特大酒店50楼"},{"poiid":"B2094757D069A2FE4098","title":"慈铭健康体检(浦东大道门诊部)","lon":"121.52276","lat":"31.24064","category":"162","category_name":"医院","address":"浦东新区浦东大道637号同科公寓2楼"},{"poiid":"B2094757D06AA3FC409B","title":"浦东大道钱仓路","lon":"121.520092738","lat":"31.2396905017","category":"500","category_name":"未知分类","address":"上海浦东大道"},{"poiid":"B2094757D06AA4F9459C","title":"豪德万源大酒店","lon":"121.52222823","lat":"31.24150209","category":"217","category_name":"旅馆招待所","address":"浦东新区浦东大道599号(近东方路)"},{"poiid":"B2094655D26EA0FE499B","title":"梅园新村(栖霞路)","lon":"121.5217","lat":"31.23798","category":"47","category_name":"住宅区","address":"上海浦东新区福山路40弄"},{"poiid":"B2094757D068A5F44392","title":"裕景咖啡厅","lon":"121.52051","lat":"31.2408","category":"268","category_name":"自助","address":"浦东新区浦东大道535号裕景大饭店3楼(近东方路)"},{"poiid":"B2094757D06EAAFF4993","title":"浦电路地铁站(四号线)","lon":"121.519854","lat":"31.240301","category":"36","category_name":"地铁站","address":"上海轨道交通 四号线 轨交浦东大道站 轻轨 4"},{"poiid":"B2094654DA69A7FB419A","title":"崂山三四村","lon":"121.524","lat":"31.2422","category":"47","category_name":"住宅区","address":"栖霞路76号"},{"poiid":"B2094757D165A2FA4492","title":"世纪大道东方路","lon":"121.52246773","lat":"31.239912506","category":"500","category_name":"未知分类","address":"上海浦东"},{"poiid":"B2094757D069A3F54193","title":"会元馆","lon":"121.52176","lat":"31.2405","category":"72","category_name":"广东菜","address":"浦东新区浦东大道599号豪德万源大酒店2楼(近东方路)"},{"poiid":"B2094753D76DA4F8439D","title":"上海电影博物馆","lon":"121.520019","lat":"31.240804","category":"500","category_name":"未知分类","address":"上海市 上海电影制片厂漕溪北路595号"},{"poiid":"B2094757D069A6F8419A","title":"沁源茶楼","lon":"121.52162933","lat":"31.240867614","category":"260","category_name":"其他","address":"浦东新区浦东大道569号(近东方路)"},{"poiid":"B2094654DB69A0F9499C","title":"泰和茶馆","lon":"121.52159","lat":"31.24083","category":"66","category_name":"茶艺馆","address":"浦东新区浦东大道569号"},{"poiid":"B2094654DB64A6F44092","title":"如家快捷酒店(上海陆家嘴店)","lon":"121.52216","lat":"31.24182","category":"216","category_name":"经济型连锁酒店","address":"上海市浦东新区昌邑路569号(近东方路)"},{"poiid":"B2094753D76BA0FF4898","title":"伊秀手握寿司","lon":"121.520011","lat":"31.240814","category":"247","category_name":"餐饮美食","address":"上海市 上海市第一食品商店"},{"poiid":"B2094757D16BA3FB4299","title":"星巴克 STARBUCKS (海神诺富特店)","lon":"121.524689","lat":"31.239472","category":"247","category_name":"餐饮美食","address":"上海浦东福山路33号海神诺富特大酒店"},{"poiid":"B2094655D26AABFF4793","title":"上海雅客滨江酒店式服务公寓","lon":"121.52151","lat":"31.2412","category":"250","category_name":"公园户外","address":"浦东新区昌邑路588弄金隆置地大厦内(近东方路)"},{"poiid":"B2094757D064A6FA4398","title":"隆山家常菜","lon":"121.522931","lat":"31.238395","category":"76","category_name":"上海菜","address":"浦东新区栖霞路294号(近福山路)"},{"poiid":"B2094757DA6EAAF9479F","title":"I疯G(浦东大道店)","lon":"121.521828800002","lat":"31.2404912999998","category":"68","category_name":"快餐厅","address":"浦东新区浦东大道566号(近东方路)"},{"poiid":"B2094757D068A1FC479B","title":"85路浦东大道钱仓路站","lon":"121.52097925","lat":"31.240430077","category":"38","category_name":"公交车站","address":"上海市浦东新区浦东大道近钱仓路东侧"},{"poiid":"B2094654DA69AAFB449F","title":"海悦滨江酒店公寓","lon":"121.52151","lat":"31.24121","category":"250","category_name":"公园户外","address":"上海市浦东新区昌邑路588号(近东方路,金隆置地大厦内,)"},{"poiid":"B2094655D36CA6FB489E","title":"东方路栖霞路","lon":"121.52062","lat":"31.23821","category":"38","category_name":"公交车站","address":""},{"poiid":"B2094655D26AA0F8469C","title":"订餐小秘书","lon":"121.52054","lat":"31.2393","category":"247","category_name":"餐饮美食","address":"浦东新区东方路135号2楼"},{"poiid":"B2094757D065A6F94598","title":"立信会计浦东分校","lon":"121.52234463","lat":"31.24010531","category":"253","category_name":"校园生活","address":"上海钱仓路"},{"poiid":"B2094757D469A2FE469D","title":"苏州藏书羊肉馆 栖霞路店","lon":"121.523542054","lat":"31.239147793","category":"247","category_name":"餐饮美食","address":"浦东新区栖霞路99号(近崂山路)"},{"poiid":"B2094654DB64A3FF4192","title":"COSTA COFFEE(裕景大饭店东)","lon":"121.52033","lat":"31.24088","category":"65","category_name":"咖啡厅","address":""},{"poiid":"B2094757D16DA7FC479B","title":"上海港教育培训中心","lon":"121.521341863","lat":"31.2393383809","category":"253","category_name":"校园生活","address":"上海钱仓路400号"},{"poiid":"B2094757D66FA1F94699","title":"赣江村","lon":"121.520063738","lat":"31.2410805314","category":"260","category_name":"其他","address":"浦东新区东方路41号(近昌邑路)"},{"poiid":"B2094757D664ABF8459A","title":"大汤面馆","lon":"121.520932054","lat":"31.238510793","category":"68","category_name":"快餐厅","address":"浦东新区东方路182号(近大连路隧道出口)"},{"poiid":"B2094654DA69AAFB4499","title":"金隆置地大厦","lon":"121.52152","lat":"31.2412","category":"46","category_name":"楼宇","address":"昌邑路588弄1-6号"},{"poiid":"B2094757D16BA1F9439E","title":"星巴客 航运金融店","lon":"121.522478738","lat":"31.2402545137","category":"247","category_name":"餐饮美食","address":"上海浦东大道"},{"poiid":"B2094757D66AA4FE479A","title":"东北菜馆","lon":"121.52464836441","lat":"31.239453960904","category":"82","category_name":"东北菜","address":"浦东新区栖霞路51号(近南泉北路)"},{"poiid":"B2094654DA69AAFB449B","title":"王家小厨","lon":"121.524031054","lat":"31.240960793","category":"76","category_name":"上海菜","address":"浦东新区浦东大道651弄13号(昌邑路)"},{"poiid":"B2094655D26FAAFE499F","title":"梅园三村","lon":"121.52158","lat":"31.23896","category":"47","category_name":"住宅区","address":"栖霞路343弄"},{"poiid":"B2094654DA69A6FD439B","title":"东昌大楼","lon":"121.52","lat":"31.2386","category":"46","category_name":"楼宇","address":"上海东昌路600号"},{"poiid":"B2094654DA69AAFB479E","title":"裕景坊","lon":"121.5209","lat":"31.2409","category":"46","category_name":"楼宇","address":"浦东大道555号"},{"poiid":"B209475DD664A4FA4593","title":"滨江大道","lon":"121.522384","lat":"31.241136","category":"250","category_name":"公园户外","address":"上海市 浦东新区陆家嘴滨江大道"},{"poiid":"B2094654DB64A3FF4198","title":"喜士多便利连锁(梅园一街坊北)","lon":"121.52201","lat":"31.24035","category":"117","category_name":"便民商店/便利店","address":""},{"poiid":"B2094654DA69AAFB419C","title":"梅园一街坊","lon":"121.52212","lat":"31.239687","category":"47","category_name":"住宅区","address":"浦东大道604弄"},{"poiid":"B2094750D56EA0F8459D","title":"椰岛造型","lon":"121.521484","lat":"31.240741","category":"148","category_name":"美容美发店","address":"浦东新区浦东大道580号"},{"poiid":"B2094655D26DA1FF409E","title":"万丰川菜 钱仓路店","lon":"121.52089118957","lat":"31.239646098132","category":"71","category_name":"四川菜","address":"钱仓路326号近浦东大道"},{"poiid":"B2094753D66FA0FB429A","title":"汉庭酒店上海陆家嘴东方明珠店","lon":"121.521915","lat":"31.240305","category":"216","category_name":"经济型连锁酒店","address":"浦东大道580号"},{"poiid":"B2094757D464A7FD4298","title":"御庭","lon":"121.519856064","lat":"31.242143345783","category":"72","category_name":"广东菜","address":"浦东新区浦东大道535号裕景大饭店5楼(近东方路)"},{"poiid":"B2094654DA69AAFB4799","title":"裕景大饭店","lon":"121.52018","lat":"31.2409","category":"213","category_name":"五星级宾馆","address":"上海市浦东新区浦东大道535号(近东方路)"},{"poiid":"B2094757D06FA3FA4399","title":"海神诺富特大酒店","lon":"121.52459373247143","lat":"31.24026721198827","category":"214","category_name":"四星级宾馆","address":"浦东新区浦东大道728号海神诺富特大酒店5楼(近福山路)"},{"poiid":"B2094655D36DA6FE429A","title":"浦东大道","lon":"121.51984","lat":"31.24032","category":"38","category_name":"公交车站","address":""},{"poiid":"B209475CD564A7F84392","title":"上海滩浦东香格里拉店","lon":"121.50058","lat":"31.23634","category":"119","category_name":"商场","address":"浦东富成路33号香格里拉酒店内大堂层"},{"poiid":"B2094655D26AA0F9409A","title":"地铁浦东大道站","lon":"121.51984","lat":"31.24032","category":"36","category_name":"地铁站","address":""},{"poiid":"B2094757D068A6F8419F","title":"华检医疗体检中心","lon":"121.521036652","lat":"31.2400068656","category":"902","category_name":"楼宇机构","address":"浦东新区浦东大道545号裕景坊2楼(东方路口)"},{"poiid":"B2094757D06FA3FF409B","title":"星巴克(航运金融大厦店)","lon":"121.524694","lat":"31.240575","category":"260","category_name":"其他","address":"浦东新区浦东大道720号国际航运金融大厦1楼(近福山路)"},{"poiid":"B2094655D26EA4FA4298","title":"旋宫50――海神诺富特旋转餐厅","lon":"121.52469","lat":"31.23947","category":"247","category_name":"餐饮美食","address":"浦东新区浦东大道728号海神诺富特大酒店50楼"},{"poiid":"B2094757D069A2FE4098","title":"慈铭健康体检(浦东大道门诊部)","lon":"121.52276","lat":"31.24064","category":"162","category_name":"医院","address":"浦东新区浦东大道637号同科公寓2楼"},{"poiid":"B2094757D06AA3FC409B","title":"浦东大道钱仓路","lon":"121.520092738","lat":"31.2396905017","category":"500","category_name":"未知分类","address":"上海浦东大道"},{"poiid":"B2094757D06AA4F9459C","title":"豪德万源大酒店","lon":"121.52222823","lat":"31.24150209","category":"217","category_name":"旅馆招待所","address":"浦东新区浦东大道599号(近东方路)"},{"poiid":"B2094655D26EA0FE499B","title":"梅园新村(栖霞路)","lon":"121.5217","lat":"31.23798","category":"47","category_name":"住宅区","address":"上海浦东新区福山路40弄"},{"poiid":"B2094757D068A5F44392","title":"裕景咖啡厅","lon":"121.52051","lat":"31.2408","category":"268","category_name":"自助","address":"浦东新区浦东大道535号裕景大饭店3楼(近东方路)"},{"poiid":"B2094757D06EAAFF4993","title":"浦电路地铁站(四号线)","lon":"121.519854","lat":"31.240301","category":"36","category_name":"地铁站","address":"上海轨道交通 四号线 轨交浦东大道站 轻轨 4"},{"poiid":"B2094654DA69A7FB419A","title":"崂山三四村","lon":"121.524","lat":"31.2422","category":"47","category_name":"住宅区","address":"栖霞路76号"},{"poiid":"B2094757D165A2FA4492","title":"世纪大道东方路","lon":"121.52246773","lat":"31.239912506","category":"500","category_name":"未知分类","address":"上海浦东"},{"poiid":"B2094757D069A3F54193","title":"会元馆","lon":"121.52176","lat":"31.2405","category":"72","category_name":"广东菜","address":"浦东新区浦东大道599号豪德万源大酒店2楼(近东方路)"},{"poiid":"B2094753D76DA4F8439D","title":"上海电影博物馆","lon":"121.520019","lat":"31.240804","category":"500","category_name":"未知分类","address":"上海市 上海电影制片厂漕溪北路595号"},{"poiid":"B2094757D069A6F8419A","title":"沁源茶楼","lon":"121.52162933","lat":"31.240867614","category":"260","category_name":"其他","address":"浦东新区浦东大道569号(近东方路)"},{"poiid":"B2094654DB69A0F9499C","title":"泰和茶馆","lon":"121.52159","lat":"31.24083","category":"66","category_name":"茶艺馆","address":"浦东新区浦东大道569号"},{"poiid":"B2094654DB64A6F44092","title":"如家快捷酒店(上海陆家嘴店)","lon":"121.52216","lat":"31.24182","category":"216","category_name":"经济型连锁酒店","address":"上海市浦东新区昌邑路569号(近东方路)"},{"poiid":"B2094753D76BA0FF4898","title":"伊秀手握寿司","lon":"121.520011","lat":"31.240814","category":"247","category_name":"餐饮美食","address":"上海市 上海市第一食品商店"},{"poiid":"B2094757D16BA3FB4299","title":"星巴克 STARBUCKS (海神诺富特店)","lon":"121.524689","lat":"31.239472","category":"247","category_name":"餐饮美食","address":"上海浦东福山路33号海神诺富特大酒店"},{"poiid":"B2094655D26AABFF4793","title":"上海雅客滨江酒店式服务公寓","lon":"121.52151","lat":"31.2412","category":"250","category_name":"公园户外","address":"浦东新区昌邑路588弄金隆置地大厦内(近东方路)"},{"poiid":"B2094757D064A6FA4398","title":"隆山家常菜","lon":"121.522931","lat":"31.238395","category":"76","category_name":"上海菜","address":"浦东新区栖霞路294号(近福山路)"},{"poiid":"B2094757DA6EAAF9479F","title":"I疯G(浦东大道店)","lon":"121.521828800002","lat":"31.2404912999998","category":"68","category_name":"快餐厅","address":"浦东新区浦东大道566号(近东方路)"},{"poiid":"B2094757D068A1FC479B","title":"85路浦东大道钱仓路站","lon":"121.52097925","lat":"31.240430077","category":"38","category_name":"公交车站","address":"上海市浦东新区浦东大道近钱仓路东侧"},{"poiid":"B2094654DA69AAFB449F","title":"海悦滨江酒店公寓","lon":"121.52151","lat":"31.24121","category":"250","category_name":"公园户外","address":"上海市浦东新区昌邑路588号(近东方路,金隆置地大厦内,)"},{"poiid":"B2094655D36CA6FB489E","title":"东方路栖霞路","lon":"121.52062","lat":"31.23821","category":"38","category_name":"公交车站","address":""},{"poiid":"B2094655D26AA0F8469C","title":"订餐小秘书","lon":"121.52054","lat":"31.2393","category":"247","category_name":"餐饮美食","address":"浦东新区东方路135号2楼"},{"poiid":"B2094757D065A6F94598","title":"立信会计浦东分校","lon":"121.52234463","lat":"31.24010531","category":"253","category_name":"校园生活","address":"上海钱仓路"},{"poiid":"B2094757D469A2FE469D","title":"苏州藏书羊肉馆 栖霞路店","lon":"121.523542054","lat":"31.239147793","category":"247","category_name":"餐饮美食","address":"浦东新区栖霞路99号(近崂山路)"},{"poiid":"B2094654DB64A3FF4192","title":"COSTA COFFEE(裕景大饭店东)","lon":"121.52033","lat":"31.24088","category":"65","category_name":"咖啡厅","address":""},{"poiid":"B2094757D16DA7FC479B","title":"上海港教育培训中心","lon":"121.521341863","lat":"31.2393383809","category":"253","category_name":"校园生活","address":"上海钱仓路400号"},{"poiid":"B2094757D66FA1F94699","title":"赣江村","lon":"121.520063738","lat":"31.2410805314","category":"260","category_name":"其他","address":"浦东新区东方路41号(近昌邑路)"},{"poiid":"B2094757D664ABF8459A","title":"大汤面馆","lon":"121.520932054","lat":"31.238510793","category":"68","category_name":"快餐厅","address":"浦东新区东方路182号(近大连路隧道出口)"},{"poiid":"B2094654DA69AAFB4499","title":"金隆置地大厦","lon":"121.52152","lat":"31.2412","category":"46","category_name":"楼宇","address":"昌邑路588弄1-6号"},{"poiid":"B2094757D16BA1F9439E","title":"星巴客 航运金融店","lon":"121.522478738","lat":"31.2402545137","category":"247","category_name":"餐饮美食","address":"上海浦东大道"},{"poiid":"B2094757D66AA4FE479A","title":"东北菜馆","lon":"121.52464836441","lat":"31.239453960904","category":"82","category_name":"东北菜","address":"浦东新区栖霞路51号(近南泉北路)"},{"poiid":"B2094654DA69AAFB449B","title":"王家小厨","lon":"121.524031054","lat":"31.240960793","category":"76","category_name":"上海菜","address":"浦东新区浦东大道651弄13号(昌邑路)"},{"poiid":"B2094655D26FAAFE499F","title":"梅园三村","lon":"121.52158","lat":"31.23896","category":"47","category_name":"住宅区","address":"栖霞路343弄"},{"poiid":"B2094654DA69A6FD439B","title":"东昌大楼","lon":"121.52","lat":"31.2386","category":"46","category_name":"楼宇","address":"上海东昌路600号"},{"poiid":"B2094654DA69AAFB479E","title":"裕景坊","lon":"121.5209","lat":"31.2409","category":"46","category_name":"楼宇","address":"浦东大道555号"},{"poiid":"B209475DD664A4FA4593","title":"滨江大道","lon":"121.522384","lat":"31.241136","category":"250","category_name":"公园户外","address":"上海市 浦东新区陆家嘴滨江大道"},{"poiid":"B2094654DB64A3FF4198","title":"喜士多便利连锁(梅园一街坊北)","lon":"121.52201","lat":"31.24035","category":"117","category_name":"便民商店/便利店","address":""},{"poiid":"B2094654DA69AAFB419C","title":"梅园一街坊","lon":"121.52212","lat":"31.239687","category":"47","category_name":"住宅区","address":"浦东大道604弄"},{"poiid":"B2094750D56EA0F8459D","title":"椰岛造型","lon":"121.521484","lat":"31.240741","category":"148","category_name":"美容美发店","address":"浦东新区浦东大道580号"},{"poiid":"B2094655D26DA1FF409E","title":"万丰川菜 钱仓路店","lon":"121.52089118957","lat":"31.239646098132","category":"71","category_name":"四川菜","address":"钱仓路326号近浦东大道"},{"poiid":"B2094753D66FA0FB429A","title":"汉庭酒店上海陆家嘴东方明珠店","lon":"121.521915","lat":"31.240305","category":"216","category_name":"经济型连锁酒店","address":"浦东大道580号"},{"poiid":"B2094757D464A7FD4298","title":"御庭","lon":"121.519856064","lat":"31.242143345783","category":"72","category_name":"广东菜","address":"浦东新区浦东大道535号裕景大饭店5楼(近东方路)"},{"poiid":"B2094654DA69AAFB4799","title":"裕景大饭店","lon":"121.52018","lat":"31.2409","category":"213","category_name":"五星级宾馆","address":"上海市浦东新区浦东大道535号(近东方路)"},{"poiid":"B2094757D06FA3FA4399","title":"海神诺富特大酒店","lon":"121.52459373247143","lat":"31.24026721198827","category":"214","category_name":"四星级宾馆","address":"浦东新区浦东大道728号海神诺富特大酒店5楼(近福山路)"},{"poiid":"B2094655D36DA6FE429A","title":"浦东大道","lon":"121.51984","lat":"31.24032","category":"38","category_name":"公交车站","address":""},{"poiid":"B209475CD564A7F84392","title":"上海滩浦东香格里拉店","lon":"121.50058","lat":"31.23634","category":"119","category_name":"商场","address":"浦东富成路33号香格里拉酒店内大堂层"},{"poiid":"B2094655D26AA0F9409A","title":"地铁浦东大道站","lon":"121.51984","lat":"31.24032","category":"36","category_name":"地铁站","address":""},{"poiid":"B2094757D068A6F8419F","title":"华检医疗体检中心","lon":"121.521036652","lat":"31.2400068656","category":"902","category_name":"楼宇机构","address":"浦东新区浦东大道545号裕景坊2楼(东方路口)"},{"poiid":"B2094757D06FA3FF409B","title":"星巴克(航运金融大厦店)","lon":"121.524694","lat":"31.240575","category":"260","category_name":"其他","address":"浦东新区浦东大道720号国际航运金融大厦1楼(近福山路)"},{"poiid":"B2094655D26EA4FA4298","title":"旋宫50――海神诺富特旋转餐厅","lon":"121.52469","lat":"31.23947","category":"247","category_name":"餐饮美食","address":"浦东新区浦东大道728号海神诺富特大酒店50楼"},{"poiid":"B2094757D069A2FE4098","title":"慈铭健康体检(浦东大道门诊部)","lon":"121.52276","lat":"31.24064","category":"162","category_name":"医院","address":"浦东新区浦东大道637号同科公寓2楼"},{"poiid":"B2094757D06AA3FC409B","title":"浦东大道钱仓路","lon":"121.520092738","lat":"31.2396905017","category":"500","category_name":"未知分类","address":"上海浦东大道"},{"poiid":"B2094757D06AA4F9459C","title":"豪德万源大酒店","lon":"121.52222823","lat":"31.24150209","category":"217","category_name":"旅馆招待所","address":"浦东新区浦东大道599号(近东方路)"},{"poiid":"B2094655D26EA0FE499B","title":"梅园新村(栖霞路)","lon":"121.5217","lat":"31.23798","category":"47","category_name":"住宅区","address":"上海浦东新区福山路40弄"},{"poiid":"B2094757D068A5F44392","title":"裕景咖啡厅","lon":"121.52051","lat":"31.2408","category":"268","category_name":"自助","address":"浦东新区浦东大道535号裕景大饭店3楼(近东方路)"},{"poiid":"B2094757D06EAAFF4993","title":"浦电路地铁站(四号线)","lon":"121.519854","lat":"31.240301","category":"36","category_name":"地铁站","address":"上海轨道交通 四号线 轨交浦东大道站 轻轨 4"},{"poiid":"B2094654DA69A7FB419A","title":"崂山三四村","lon":"121.524","lat":"31.2422","category":"47","category_name":"住宅区","address":"栖霞路76号"},{"poiid":"B2094757D165A2FA4492","title":"世纪大道东方路","lon":"121.52246773","lat":"31.239912506","category":"500","category_name":"未知分类","address":"上海浦东"},{"poiid":"B2094757D069A3F54193","title":"会元馆","lon":"121.52176","lat":"31.2405","category":"72","category_name":"广东菜","address":"浦东新区浦东大道599号豪德万源大酒店2楼(近东方路)"},{"poiid":"B2094753D76DA4F8439D","title":"上海电影博物馆","lon":"121.520019","lat":"31.240804","category":"500","category_name":"未知分类","address":"上海市 上海电影制片厂漕溪北路595号"},{"poiid":"B2094757D069A6F8419A","title":"沁源茶楼","lon":"121.52162933","lat":"31.240867614","category":"260","category_name":"其他","address":"浦东新区浦东大道569号(近东方路)"},{"poiid":"B2094654DB69A0F9499C","title":"泰和茶馆","lon":"121.52159","lat":"31.24083","category":"66","category_name":"茶艺馆","address":"浦东新区浦东大道569号"},{"poiid":"B2094654DB64A6F44092","title":"如家快捷酒店(上海陆家嘴店)","lon":"121.52216","lat":"31.24182","category":"216","category_name":"经济型连锁酒店","address":"上海市浦东新区昌邑路569号(近东方路)"},{"poiid":"B2094753D76BA0FF4898","title":"伊秀手握寿司","lon":"121.520011","lat":"31.240814","category":"247","category_name":"餐饮美食","address":"上海市 上海市第一食品商店"},{"poiid":"B2094757D16BA3FB4299","title":"星巴克 STARBUCKS (海神诺富特店)","lon":"121.524689","lat":"31.239472","category":"247","category_name":"餐饮美食","address":"上海浦东福山路33号海神诺富特大酒店"},{"poiid":"B2094655D26AABFF4793","title":"上海雅客滨江酒店式服务公寓","lon":"121.52151","lat":"31.2412","category":"250","category_name":"公园户外","address":"浦东新区昌邑路588弄金隆置地大厦内(近东方路)"},{"poiid":"B2094757D064A6FA4398","title":"隆山家常菜","lon":"121.522931","lat":"31.238395","category":"76","category_name":"上海菜","address":"浦东新区栖霞路294号(近福山路)"},{"poiid":"B2094757DA6EAAF9479F","title":"I疯G(浦东大道店)","lon":"121.521828800002","lat":"31.2404912999998","category":"68","category_name":"快餐厅","address":"浦东新区浦东大道566号(近东方路)"},{"poiid":"B2094757D068A1FC479B","title":"85路浦东大道钱仓路站","lon":"121.52097925","lat":"31.240430077","category":"38","category_name":"公交车站","address":"上海市浦东新区浦东大道近钱仓路东侧"},{"poiid":"B2094654DA69AAFB449F","title":"海悦滨江酒店公寓","lon":"121.52151","lat":"31.24121","category":"250","category_name":"公园户外","address":"上海市浦东新区昌邑路588号(近东方路,金隆置地大厦内,)"},{"poiid":"B2094655D36CA6FB489E","title":"东方路栖霞路","lon":"121.52062","lat":"31.23821","category":"38","category_name":"公交车站","address":""},{"poiid":"B2094655D26AA0F8469C","title":"订餐小秘书","lon":"121.52054","lat":"31.2393","category":"247","category_name":"餐饮美食","address":"浦东新区东方路135号2楼"},{"poiid":"B2094757D065A6F94598","title":"立信会计浦东分校","lon":"121.52234463","lat":"31.24010531","category":"253","category_name":"校园生活","address":"上海钱仓路"},{"poiid":"B2094757D469A2FE469D","title":"苏州藏书羊肉馆 栖霞路店","lon":"121.523542054","lat":"31.239147793","category":"247","category_name":"餐饮美食","address":"浦东新区栖霞路99号(近崂山路)"},{"poiid":"B2094654DB64A3FF4192","title":"COSTA COFFEE(裕景大饭店东)","lon":"121.52033","lat":"31.24088","category":"65","category_name":"咖啡厅","address":""},{"poiid":"B2094757D16DA7FC479B","title":"上海港教育培训中心","lon":"121.521341863","lat":"31.2393383809","category":"253","category_name":"校园生活","address":"上海钱仓路400号"},{"poiid":"B2094757D66FA1F94699","title":"赣江村","lon":"121.520063738","lat":"31.2410805314","category":"260","category_name":"其他","address":"浦东新区东方路41号(近昌邑路)"},{"poiid":"B2094757D664ABF8459A","title":"大汤面馆","lon":"121.520932054","lat":"31.238510793","category":"68","category_name":"快餐厅","address":"浦东新区东方路182号(近大连路隧道出口)"},{"poiid":"B2094654DA69AAFB4499","title":"金隆置地大厦","lon":"121.52152","lat":"31.2412","category":"46","category_name":"楼宇","address":"昌邑路588弄1-6号"},{"poiid":"B2094757D16BA1F9439E","title":"星巴客 航运金融店","lon":"121.522478738","lat":"31.2402545137","category":"247","category_name":"餐饮美食","address":"上海浦东大道"},{"poiid":"B2094757D66AA4FE479A","title":"东北菜馆","lon":"121.52464836441","lat":"31.239453960904","category":"82","category_name":"东北菜","address":"浦东新区栖霞路51号(近南泉北路)"},{"poiid":"B2094654DA69AAFB449B","title":"王家小厨","lon":"121.524031054","lat":"31.240960793","category":"76","category_name":"上海菜","address":"浦东新区浦东大道651弄13号(昌邑路)"},{"poiid":"B2094655D26FAAFE499F","title":"梅园三村","lon":"121.52158","lat":"31.23896","category":"47","category_name":"住宅区","address":"栖霞路343弄"},{"poiid":"B2094654DA69A6FD439B","title":"东昌大楼","lon":"121.52","lat":"31.2386","category":"46","category_name":"楼宇","address":"上海东昌路600号"},{"poiid":"B2094654DA69AAFB479E","title":"裕景坊","lon":"121.5209","lat":"31.2409","category":"46","category_name":"楼宇","address":"浦东大道555号"},{"poiid":"B209475DD664A4FA4593","title":"滨江大道","lon":"121.522384","lat":"31.241136","category":"250","category_name":"公园户外","address":"上海市 浦东新区陆家嘴滨江大道"},{"poiid":"B2094654DB64A3FF4198","title":"喜士多便利连锁(梅园一街坊北)","lon":"121.52201","lat":"31.24035","category":"117","category_name":"便民商店/便利店","address":""},{"poiid":"B2094654DA69AAFB419C","title":"梅园一街坊","lon":"121.52212","lat":"31.239687","category":"47","category_name":"住宅区","address":"浦东大道604弄"},{"poiid":"B2094750D56EA0F8459D","title":"椰岛造型","lon":"121.521484","lat":"31.240741","category":"148","category_name":"美容美发店","address":"浦东新区浦东大道580号"},{"poiid":"B2094655D26DA1FF409E","title":"万丰川菜 钱仓路店","lon":"121.52089118957","lat":"31.239646098132","category":"71","category_name":"四川菜","address":"钱仓路326号近浦东大道"},{"poiid":"B2094753D66FA0FB429A","title":"汉庭酒店上海陆家嘴东方明珠店","lon":"121.521915","lat":"31.240305","category":"216","category_name":"经济型连锁酒店","address":"浦东大道580号"},{"poiid":"B2094757D464A7FD4298","title":"御庭","lon":"121.519856064","lat":"31.242143345783","category":"72","category_name":"广东菜","address":"浦东新区浦东大道535号裕景大饭店5楼(近东方路)"}]