[{"poiid":"B2094655D36CA4FE419E","title":"爱博家园","lon":"121.3085","lat":"31.20903","category":"38","category_name":"公交车站","address":"上海宁虹路"},{"poiid":"B2094757D068A3FA4899","title":"诸翟","lon":"121.2920234","lat":"31.2088904","category":"500","category_name":"未知分类","address":"上海闵行区纪翟路保乐路"},{"poiid":"B2094757D068A4FB409C","title":"小钱龙虾馆","lon":"121.2986","lat":"31.20417","category":"87","category_name":"特色／地方风味餐厅","address":"闵行区诸翟镇纪翟南路(联华路口)"},{"poiid":"B2094757D06FA1FB4492","title":"爱博家园二村","lon":"121.30612546","lat":"31.211087243","category":"47","category_name":"住宅区","address":"上海宁虹路申滨路"},{"poiid":"B2094757D068A1FC4698","title":"爱博五村","lon":"121.30659063","lat":"31.211500932","category":"252","category_name":"楼宇机构","address":"上海市闵行区天山西路申滨路"},{"poiid":"B2094757D06FA5FE409F","title":"麦当劳(华漕得来速店)","lon":"121.29202","lat":"31.20865","category":"68","category_name":"快餐厅","address":"长宁区纪翟路335弄19号(保乐路口)"},{"poiid":"B2094757D068A0F94599","title":"西郊九韵城","lon":"121.301","lat":"31.2173","category":"500","category_name":"未知分类","address":"上海闵行区繁兴路300弄"},{"poiid":"B2094757D068A4F9469F","title":"上海香港花园","lon":"121.30042","lat":"31.203123","category":"47","category_name":"住宅区","address":"上海市闵行区北翟路5188号"},{"poiid":"B2094654D56AABFC489F","title":"西郊河畔家园","lon":"121.29105","lat":"31.211727","category":"47","category_name":"住宅区","address":"上海市闵行区繁兴路469弄"},{"poiid":"B2094757D16BA4F84098","title":"汉庭快捷酒店虹桥枢纽二店","lon":"121.30279656","lat":"31.208728344","category":"217","category_name":"旅馆招待所","address":"老北翟路4800号(天山西路华翔路口)"},{"poiid":"B2094757D06BA5FE4392","title":"味千拉面","lon":"121.29274476","lat":"31.210320327","category":"95","category_name":"日本料理","address":"闵行区繁兴路399弄2号1楼商店街5号商铺(保乐路纪翟路)"},{"poiid":"B2094757D16AA1F84892","title":"诸翟大润发康师傅私房牛肉面","lon":"121.29778476","lat":"31.210149124","category":"500","category_name":"未知分类","address":"上海诸翟大润发"},{"poiid":"B2094757D168A1FA449D","title":"星期八火锅城","lon":"121.2934","lat":"31.21138","category":"86","category_name":"火锅店","address":"闵行区华漕镇繁兴路479号(近北青公路)"},{"poiid":"B2094757D06AA1FF4093","title":"85度C(华漕店)","lon":"121.291777","lat":"31.212799","category":"67","category_name":"甜品店","address":"闵行区华漕镇繁兴路399弄2号(保乐路口)"},{"poiid":"B2094752D265A7FE469B","title":"上海虹桥火车站","lon":"121.303641","lat":"31.213892","category":"500","category_name":"未知分类","address":null},{"poiid":"B2094753D665A3F54693","title":"爱博六村","lon":"121.29817411904901","lat":"31.21410997295476","category":"47","category_name":"住宅区","address":"北翟路申长北路"},{"poiid":"B2094757D069A7F4409B","title":"西郊河畔","lon":"121.29299193","lat":"31.211712117","category":"500","category_name":"未知分类","address":"上海繁兴路469弄"},{"poiid":"B2094654DB6BA0FB419C","title":"上海西庭网球俱乐部和公寓","lon":"121.2937959746","lat":"31.206637571572","category":"47","category_name":"住宅区","address":"金丰路555弄"},{"poiid":"B2094654D56AA6FA4592","title":"闵行区华漕镇卫生院","lon":"121.2916","lat":"31.20875","category":"162","category_name":"医院","address":"保乐路2"},{"poiid":"B2094757D16FABFB4593","title":"诸翟镇","lon":"121.29221356","lat":"31.2093242066","category":"500","category_name":"未知分类","address":"上海闵行区诸翟镇"},{"poiid":"B2094757D06BA4F44499","title":"DQ冰雪皇后(华漕店)","lon":"121.29244506","lat":"31.209244905","category":"113","category_name":"冷饮店","address":"闵行区华漕镇繁兴路399弄2号大润发(近北青公路)"},{"poiid":"B2094753DA6FA7F94092","title":"上海虹桥机场T2航站楼","lon":"121.306015","lat":"31.207004","category":"500","category_name":"未知分类","address":"上海市 上海虹桥机场"},{"poiid":"B2094757D06FA4FB4092","title":"大润发(华漕店)","lon":"121.30579811","lat":"31.203054714","category":"118","category_name":"超级市场","address":"闵行区华漕镇繁兴路399弄2号(保乐路繁兴路)"},{"poiid":"B2094654D56AA4FB4498","title":"华漕镇陈家角村工业园区2号门","lon":"121.2953","lat":"31.21555","category":"45","category_name":"产业园区","address":""},{"poiid":"B2094757D164A7FC419A","title":"肯德基 华漕大润发店","lon":"121.299572","lat":"31.216473","category":"500","category_name":"未知分类","address":"上海市闵行区繁兴路399号"},{"poiid":"B2094757D569A6FE4993","title":"虹桥晶邸","lon":"121.300451","lat":"31.216452","category":"47","category_name":"住宅区","address":"上海市闵行区繁兴路333号"},{"poiid":"B2094757D065ABFA4098","title":"大娘水饺(华漕大润发店)","lon":"121.29296056","lat":"31.210247226","category":"87","category_name":"特色／地方风味餐厅","address":"闵行区华漕镇繁兴路399弄2号大润发(近保乐路)"},{"poiid":"B2094757D16EAAFA499E","title":"上海逸隆新虹桥雪佛兰","lon":"121.30113756","lat":"31.2181233923","category":"500","category_name":"未知分类","address":"闵行区北青公路688号"},{"poiid":"B2094654D56AA5F4469A","title":"闵行区华漕镇新家弄村卫生室","lon":"121.3024","lat":"31.21317","category":"162","category_name":"医院","address":""},{"poiid":"B2094655D26FA2FE429B","title":"上海美国学校","lon":"121.29689","lat":"31.20583","category":"55","category_name":"中学","address":"闵行区纪翟路50号"},{"poiid":"B2094757D66DABFF4392","title":"诸翟镇","lon":"121.30190856","lat":"31.2126642771","category":"500","category_name":"未知分类","address":"上海诸翟镇"},{"poiid":"B2094654D56AA6FA459C","title":"新华花园","lon":"121.2938","lat":"31.210197","category":"47","category_name":"住宅区","address":"纪翟路355弄100支弄"},{"poiid":"B2094654D56AABFC429C","title":"新家弄村","lon":"121.30284","lat":"31.21079","category":"47","category_name":"住宅区","address":""},{"poiid":"B2094654D56AA6F44093","title":"诸翟学校","lon":"121.29445","lat":"31.20855","category":"55","category_name":"中学","address":"纪翟路221"},{"poiid":"B2094757D164ABFA459C","title":"城市超市(诸翟店)","lon":"121.30106956","lat":"31.209555211","category":"118","category_name":"超级市场","address":"闵行区纪翟路550号华漕国际生活社区万科红郡别墅西翼(诸新路运乐路)"},{"poiid":"B209475CD56AAAF54292","title":"人民广场","lon":"121.302825","lat":"31.210794","category":"500","category_name":"未知分类","address":"上海市 南京南路"},{"poiid":"B2094757D16EA3FC4992","title":"一品坊","lon":"121.29381","lat":"31.20748","category":"68","category_name":"快餐厅","address":"上海闵行区华漕镇纪翟路(近华翔路)  "},{"poiid":"B2094654D56AABFE4199","title":"犇羴鱻饮食店","lon":"121.30108","lat":"31.20917","category":"257","category_name":"中餐厅","address":""},{"poiid":"B2094757D66EA5FD4093","title":"焱盛记猪肚鸡","lon":"121.29929","lat":"31.20749","category":"86","category_name":"火锅店","address":"闵行区老北翟路4800号(近华翔路)"},{"poiid":"B2094654D56AABFC4899","title":"快客No.692","lon":"121.29188","lat":"31.21264","category":"117","category_name":"便民商店/便利店","address":"诸翟镇"},{"poiid":"B2094654D56AA7F9479D","title":"重庆火锅城","lon":"121.30329","lat":"31.21278","category":"86","category_name":"火锅店","address":""},{"poiid":"B2094654D56AA7FD429D","title":"好大丸(华翔路)","lon":"121.30329","lat":"31.21266","category":"257","category_name":"中餐厅","address":""},{"poiid":"B2094654D56AA7FD429C","title":"兰州正宗牛肉拉面(华翔路)","lon":"121.30336","lat":"31.21262","category":"90","category_name":"清真餐馆","address":""},{"poiid":"B2094654D56AA7FD4192","title":"零点音乐茶座","lon":"121.30536","lat":"31.21159","category":"66","category_name":"茶艺馆","address":""},{"poiid":"B2094654D56AA4FB4598","title":"陈家角村陈家角小区1号门","lon":"121.293","lat":"31.21648","category":"47","category_name":"住宅区","address":""},{"poiid":"B2094757D66CA4FF499C","title":"上海农商银行诸翟支行","lon":"121.29350356","lat":"31.2107272362","category":"500","category_name":"未知分类","address":"闵行区繁兴路333号(近保乐路)"},{"poiid":"B2094654D56AABFC4693","title":"良辰美景","lon":"121.29798","lat":"31.20729","category":"47","category_name":"住宅区","address":""},{"poiid":"B2094757D16BA5FB439B","title":"家呗","lon":"121.30229436","lat":"31.21280398","category":"500","category_name":"未知分类","address":null},{"poiid":"B2094654D56AA6FB419F","title":"紫薇新村","lon":"121.29767","lat":"31.202496","category":"47","category_name":"住宅区","address":"北翟路5120弄"},{"poiid":"B2094757D66EA1F8439E","title":" L j 's home ","lon":"121.29346056","lat":"31.2105522325","category":"500","category_name":"未知分类","address":null},{"poiid":"B2094655D36CA4FE419E","title":"爱博家园","lon":"121.3085","lat":"31.20903","category":"38","category_name":"公交车站","address":"上海宁虹路"},{"poiid":"B2094757D068A3FA4899","title":"诸翟","lon":"121.2920234","lat":"31.2088904","category":"500","category_name":"未知分类","address":"上海闵行区纪翟路保乐路"},{"poiid":"B2094757D068A4FB409C","title":"小钱龙虾馆","lon":"121.2986","lat":"31.20417","category":"87","category_name":"特色／地方风味餐厅","address":"闵行区诸翟镇纪翟南路(联华路口)"},{"poiid":"B2094757D06FA1FB4492","title":"爱博家园二村","lon":"121.30612546","lat":"31.211087243","category":"47","category_name":"住宅区","address":"上海宁虹路申滨路"},{"poiid":"B2094757D068A1FC4698","title":"爱博五村","lon":"121.30659063","lat":"31.211500932","category":"252","category_name":"楼宇机构","address":"上海市闵行区天山西路申滨路"},{"poiid":"B2094757D06FA5FE409F","title":"麦当劳(华漕得来速店)","lon":"121.29202","lat":"31.20865","category":"68","category_name":"快餐厅","address":"长宁区纪翟路335弄19号(保乐路口)"},{"poiid":"B2094757D068A0F94599","title":"西郊九韵城","lon":"121.301","lat":"31.2173","category":"500","category_name":"未知分类","address":"上海闵行区繁兴路300弄"},{"poiid":"B2094757D068A4F9469F","title":"上海香港花园","lon":"121.30042","lat":"31.203123","category":"47","category_name":"住宅区","address":"上海市闵行区北翟路5188号"},{"poiid":"B2094654D56AABFC489F","title":"西郊河畔家园","lon":"121.29105","lat":"31.211727","category":"47","category_name":"住宅区","address":"上海市闵行区繁兴路469弄"},{"poiid":"B2094757D16BA4F84098","title":"汉庭快捷酒店虹桥枢纽二店","lon":"121.30279656","lat":"31.208728344","category":"217","category_name":"旅馆招待所","address":"老北翟路4800号(天山西路华翔路口)"},{"poiid":"B2094757D06BA5FE4392","title":"味千拉面","lon":"121.29274476","lat":"31.210320327","category":"95","category_name":"日本料理","address":"闵行区繁兴路399弄2号1楼商店街5号商铺(保乐路纪翟路)"},{"poiid":"B2094757D16AA1F84892","title":"诸翟大润发康师傅私房牛肉面","lon":"121.29778476","lat":"31.210149124","category":"500","category_name":"未知分类","address":"上海诸翟大润发"},{"poiid":"B2094757D168A1FA449D","title":"星期八火锅城","lon":"121.2934","lat":"31.21138","category":"86","category_name":"火锅店","address":"闵行区华漕镇繁兴路479号(近北青公路)"},{"poiid":"B2094757D06AA1FF4093","title":"85度C(华漕店)","lon":"121.291777","lat":"31.212799","category":"67","category_name":"甜品店","address":"闵行区华漕镇繁兴路399弄2号(保乐路口)"},{"poiid":"B2094752D265A7FE469B","title":"上海虹桥火车站","lon":"121.303641","lat":"31.213892","category":"500","category_name":"未知分类","address":null},{"poiid":"B2094753D665A3F54693","title":"爱博六村","lon":"121.29817411904901","lat":"31.21410997295476","category":"47","category_name":"住宅区","address":"北翟路申长北路"},{"poiid":"B2094757D069A7F4409B","title":"西郊河畔","lon":"121.29299193","lat":"31.211712117","category":"500","category_name":"未知分类","address":"上海繁兴路469弄"},{"poiid":"B2094654DB6BA0FB419C","title":"上海西庭网球俱乐部和公寓","lon":"121.2937959746","lat":"31.206637571572","category":"47","category_name":"住宅区","address":"金丰路555弄"},{"poiid":"B2094654D56AA6FA4592","title":"闵行区华漕镇卫生院","lon":"121.2916","lat":"31.20875","category":"162","category_name":"医院","address":"保乐路2"},{"poiid":"B2094757D16FABFB4593","title":"诸翟镇","lon":"121.29221356","lat":"31.2093242066","category":"500","category_name":"未知分类","address":"上海闵行区诸翟镇"},{"poiid":"B2094757D06BA4F44499","title":"DQ冰雪皇后(华漕店)","lon":"121.29244506","lat":"31.209244905","category":"113","category_name":"冷饮店","address":"闵行区华漕镇繁兴路399弄2号大润发(近北青公路)"},{"poiid":"B2094753DA6FA7F94092","title":"上海虹桥机场T2航站楼","lon":"121.306015","lat":"31.207004","category":"500","category_name":"未知分类","address":"上海市 上海虹桥机场"},{"poiid":"B2094757D06FA4FB4092","title":"大润发(华漕店)","lon":"121.30579811","lat":"31.203054714","category":"118","category_name":"超级市场","address":"闵行区华漕镇繁兴路399弄2号(保乐路繁兴路)"},{"poiid":"B2094654D56AA4FB4498","title":"华漕镇陈家角村工业园区2号门","lon":"121.2953","lat":"31.21555","category":"45","category_name":"产业园区","address":""},{"poiid":"B2094757D164A7FC419A","title":"肯德基 华漕大润发店","lon":"121.299572","lat":"31.216473","category":"500","category_name":"未知分类","address":"上海市闵行区繁兴路399号"},{"poiid":"B2094757D569A6FE4993","title":"虹桥晶邸","lon":"121.300451","lat":"31.216452","category":"47","category_name":"住宅区","address":"上海市闵行区繁兴路333号"},{"poiid":"B2094757D065ABFA4098","title":"大娘水饺(华漕大润发店)","lon":"121.29296056","lat":"31.210247226","category":"87","category_name":"特色／地方风味餐厅","address":"闵行区华漕镇繁兴路399弄2号大润发(近保乐路)"},{"poiid":"B2094757D16EAAFA499E","title":"上海逸隆新虹桥雪佛兰","lon":"121.30113756","lat":"31.2181233923","category":"500","category_name":"未知分类","address":"闵行区北青公路688号"},{"poiid":"B2094654D56AA5F4469A","title":"闵行区华漕镇新家弄村卫生室","lon":"121.3024","lat":"31.21317","category":"162","category_name":"医院","address":""},{"poiid":"B2094655D26FA2FE429B","title":"上海美国学校","lon":"121.29689","lat":"31.20583","category":"55","category_name":"中学","address":"闵行区纪翟路50号"},{"poiid":"B2094757D66DABFF4392","title":"诸翟镇","lon":"121.30190856","lat":"31.2126642771","category":"500","category_name":"未知分类","address":"上海诸翟镇"},{"poiid":"B2094654D56AA6FA459C","title":"新华花园","lon":"121.2938","lat":"31.210197","category":"47","category_name":"住宅区","address":"纪翟路355弄100支弄"},{"poiid":"B2094654D56AABFC429C","title":"新家弄村","lon":"121.30284","lat":"31.21079","category":"47","category_name":"住宅区","address":""},{"poiid":"B2094654D56AA6F44093","title":"诸翟学校","lon":"121.29445","lat":"31.20855","category":"55","category_name":"中学","address":"纪翟路221"},{"poiid":"B2094757D164ABFA459C","title":"城市超市(诸翟店)","lon":"121.30106956","lat":"31.209555211","category":"118","category_name":"超级市场","address":"闵行区纪翟路550号华漕国际生活社区万科红郡别墅西翼(诸新路运乐路)"},{"poiid":"B209475CD56AAAF54292","title":"人民广场","lon":"121.302825","lat":"31.210794","category":"500","category_name":"未知分类","address":"上海市 南京南路"},{"poiid":"B2094757D16EA3FC4992","title":"一品坊","lon":"121.29381","lat":"31.20748","category":"68","category_name":"快餐厅","address":"上海闵行区华漕镇纪翟路(近华翔路)  "},{"poiid":"B2094654D56AABFE4199","title":"犇羴鱻饮食店","lon":"121.30108","lat":"31.20917","category":"257","category_name":"中餐厅","address":""},{"poiid":"B2094757D66EA5FD4093","title":"焱盛记猪肚鸡","lon":"121.29929","lat":"31.20749","category":"86","category_name":"火锅店","address":"闵行区老北翟路4800号(近华翔路)"},{"poiid":"B2094654D56AABFC4899","title":"快客No.692","lon":"121.29188","lat":"31.21264","category":"117","category_name":"便民商店/便利店","address":"诸翟镇"},{"poiid":"B2094654D56AA7F9479D","title":"重庆火锅城","lon":"121.30329","lat":"31.21278","category":"86","category_name":"火锅店","address":""},{"poiid":"B2094654D56AA7FD429D","title":"好大丸(华翔路)","lon":"121.30329","lat":"31.21266","category":"257","category_name":"中餐厅","address":""},{"poiid":"B2094654D56AA7FD429C","title":"兰州正宗牛肉拉面(华翔路)","lon":"121.30336","lat":"31.21262","category":"90","category_name":"清真餐馆","address":""},{"poiid":"B2094654D56AA7FD4192","title":"零点音乐茶座","lon":"121.30536","lat":"31.21159","category":"66","category_name":"茶艺馆","address":""},{"poiid":"B2094654D56AA4FB4598","title":"陈家角村陈家角小区1号门","lon":"121.293","lat":"31.21648","category":"47","category_name":"住宅区","address":""},{"poiid":"B2094757D66CA4FF499C","title":"上海农商银行诸翟支行","lon":"121.29350356","lat":"31.2107272362","category":"500","category_name":"未知分类","address":"闵行区繁兴路333号(近保乐路)"},{"poiid":"B2094654D56AABFC4693","title":"良辰美景","lon":"121.29798","lat":"31.20729","category":"47","category_name":"住宅区","address":""},{"poiid":"B2094757D16BA5FB439B","title":"家呗","lon":"121.30229436","lat":"31.21280398","category":"500","category_name":"未知分类","address":null},{"poiid":"B2094654D56AA6FB419F","title":"紫薇新村","lon":"121.29767","lat":"31.202496","category":"47","category_name":"住宅区","address":"北翟路5120弄"},{"poiid":"B2094757D66EA1F8439E","title":" L j 's home ","lon":"121.29346056","lat":"31.2105522325","category":"500","category_name":"未知分类","address":null},{"poiid":"B2094655D36CA4FE419E","title":"爱博家园","lon":"121.3085","lat":"31.20903","category":"38","category_name":"公交车站","address":"上海宁虹路"},{"poiid":"B2094757D068A3FA4899","title":"诸翟","lon":"121.2920234","lat":"31.2088904","category":"500","category_name":"未知分类","address":"上海闵行区纪翟路保乐路"},{"poiid":"B2094757D068A4FB409C","title":"小钱龙虾馆","lon":"121.2986","lat":"31.20417","category":"87","category_name":"特色／地方风味餐厅","address":"闵行区诸翟镇纪翟南路(联华路口)"},{"poiid":"B2094757D06FA1FB4492","title":"爱博家园二村","lon":"121.30612546","lat":"31.211087243","category":"47","category_name":"住宅区","address":"上海宁虹路申滨路"},{"poiid":"B2094757D068A1FC4698","title":"爱博五村","lon":"121.30659063","lat":"31.211500932","category":"252","category_name":"楼宇机构","address":"上海市闵行区天山西路申滨路"},{"poiid":"B2094757D06FA5FE409F","title":"麦当劳(华漕得来速店)","lon":"121.29202","lat":"31.20865","category":"68","category_name":"快餐厅","address":"长宁区纪翟路335弄19号(保乐路口)"},{"poiid":"B2094757D068A0F94599","title":"西郊九韵城","lon":"121.301","lat":"31.2173","category":"500","category_name":"未知分类","address":"上海闵行区繁兴路300弄"},{"poiid":"B2094757D068A4F9469F","title":"上海香港花园","lon":"121.30042","lat":"31.203123","category":"47","category_name":"住宅区","address":"上海市闵行区北翟路5188号"},{"poiid":"B2094654D56AABFC489F","title":"西郊河畔家园","lon":"121.29105","lat":"31.211727","category":"47","category_name":"住宅区","address":"上海市闵行区繁兴路469弄"},{"poiid":"B2094757D16BA4F84098","title":"汉庭快捷酒店虹桥枢纽二店","lon":"121.30279656","lat":"31.208728344","category":"217","category_name":"旅馆招待所","address":"老北翟路4800号(天山西路华翔路口)"},{"poiid":"B2094757D06BA5FE4392","title":"味千拉面","lon":"121.29274476","lat":"31.210320327","category":"95","category_name":"日本料理","address":"闵行区繁兴路399弄2号1楼商店街5号商铺(保乐路纪翟路)"},{"poiid":"B2094757D16AA1F84892","title":"诸翟大润发康师傅私房牛肉面","lon":"121.29778476","lat":"31.210149124","category":"500","category_name":"未知分类","address":"上海诸翟大润发"},{"poiid":"B2094757D168A1FA449D","title":"星期八火锅城","lon":"121.2934","lat":"31.21138","category":"86","category_name":"火锅店","address":"闵行区华漕镇繁兴路479号(近北青公路)"},{"poiid":"B2094757D06AA1FF4093","title":"85度C(华漕店)","lon":"121.291777","lat":"31.212799","category":"67","category_name":"甜品店","address":"闵行区华漕镇繁兴路399弄2号(保乐路口)"},{"poiid":"B2094752D265A7FE469B","title":"上海虹桥火车站","lon":"121.303641","lat":"31.213892","category":"500","category_name":"未知分类","address":null},{"poiid":"B2094753D665A3F54693","title":"爱博六村","lon":"121.29817411904901","lat":"31.21410997295476","category":"47","category_name":"住宅区","address":"北翟路申长北路"},{"poiid":"B2094757D069A7F4409B","title":"西郊河畔","lon":"121.29299193","lat":"31.211712117","category":"500","category_name":"未知分类","address":"上海繁兴路469弄"},{"poiid":"B2094654DB6BA0FB419C","title":"上海西庭网球俱乐部和公寓","lon":"121.2937959746","lat":"31.206637571572","category":"47","category_name":"住宅区","address":"金丰路555弄"},{"poiid":"B2094654D56AA6FA4592","title":"闵行区华漕镇卫生院","lon":"121.2916","lat":"31.20875","category":"162","category_name":"医院","address":"保乐路2"},{"poiid":"B2094757D16FABFB4593","title":"诸翟镇","lon":"121.29221356","lat":"31.2093242066","category":"500","category_name":"未知分类","address":"上海闵行区诸翟镇"},{"poiid":"B2094757D06BA4F44499","title":"DQ冰雪皇后(华漕店)","lon":"121.29244506","lat":"31.209244905","category":"113","category_name":"冷饮店","address":"闵行区华漕镇繁兴路399弄2号大润发(近北青公路)"},{"poiid":"B2094753DA6FA7F94092","title":"上海虹桥机场T2航站楼","lon":"121.306015","lat":"31.207004","category":"500","category_name":"未知分类","address":"上海市 上海虹桥机场"},{"poiid":"B2094757D06FA4FB4092","title":"大润发(华漕店)","lon":"121.30579811","lat":"31.203054714","category":"118","category_name":"超级市场","address":"闵行区华漕镇繁兴路399弄2号(保乐路繁兴路)"},{"poiid":"B2094654D56AA4FB4498","title":"华漕镇陈家角村工业园区2号门","lon":"121.2953","lat":"31.21555","category":"45","category_name":"产业园区","address":""},{"poiid":"B2094757D164A7FC419A","title":"肯德基 华漕大润发店","lon":"121.299572","lat":"31.216473","category":"500","category_name":"未知分类","address":"上海市闵行区繁兴路399号"},{"poiid":"B2094757D569A6FE4993","title":"虹桥晶邸","lon":"121.300451","lat":"31.216452","category":"47","category_name":"住宅区","address":"上海市闵行区繁兴路333号"},{"poiid":"B2094757D065ABFA4098","title":"大娘水饺(华漕大润发店)","lon":"121.29296056","lat":"31.210247226","category":"87","category_name":"特色／地方风味餐厅","address":"闵行区华漕镇繁兴路399弄2号大润发(近保乐路)"},{"poiid":"B2094757D16EAAFA499E","title":"上海逸隆新虹桥雪佛兰","lon":"121.30113756","lat":"31.2181233923","category":"500","category_name":"未知分类","address":"闵行区北青公路688号"},{"poiid":"B2094654D56AA5F4469A","title":"闵行区华漕镇新家弄村卫生室","lon":"121.3024","lat":"31.21317","category":"162","category_name":"医院","address":""},{"poiid":"B2094655D26FA2FE429B","title":"上海美国学校","lon":"121.29689","lat":"31.20583","category":"55","category_name":"中学","address":"闵行区纪翟路50号"},{"poiid":"B2094757D66DABFF4392","title":"诸翟镇","lon":"121.30190856","lat":"31.2126642771","category":"500","category_name":"未知分类","address":"上海诸翟镇"},{"poiid":"B2094654D56AA6FA459C","title":"新华花园","lon":"121.2938","lat":"31.210197","category":"47","category_name":"住宅区","address":"纪翟路355弄100支弄"},{"poiid":"B2094654D56AABFC429C","title":"新家弄村","lon":"121.30284","lat":"31.21079","category":"47","category_name":"住宅区","address":""},{"poiid":"B2094654D56AA6F44093","title":"诸翟学校","lon":"121.29445","lat":"31.20855","category":"55","category_name":"中学","address":"纪翟路221"},{"poiid":"B2094757D164ABFA459C","title":"城市超市(诸翟店)","lon":"121.30106956","lat":"31.209555211","category":"118","category_name":"超级市场","address":"闵行区纪翟路550号华漕国际生活社区万科红郡别墅西翼(诸新路运乐路)"},{"poiid":"B209475CD56AAAF54292","title":"人民广场","lon":"121.302825","lat":"31.210794","category":"500","category_name":"未知分类","address":"上海市 南京南路"},{"poiid":"B2094757D16EA3FC4992","title":"一品坊","lon":"121.29381","lat":"31.20748","category":"68","category_name":"快餐厅","address":"上海闵行区华漕镇纪翟路(近华翔路)  "},{"poiid":"B2094654D56AABFE4199","title":"犇羴鱻饮食店","lon":"121.30108","lat":"31.20917","category":"257","category_name":"中餐厅","address":""},{"poiid":"B2094757D66EA5FD4093","title":"焱盛记猪肚鸡","lon":"121.29929","lat":"31.20749","category":"86","category_name":"火锅店","address":"闵行区老北翟路4800号(近华翔路)"},{"poiid":"B2094654D56AABFC4899","title":"快客No.692","lon":"121.29188","lat":"31.21264","category":"117","category_name":"便民商店/便利店","address":"诸翟镇"},{"poiid":"B2094654D56AA7F9479D","title":"重庆火锅城","lon":"121.30329","lat":"31.21278","category":"86","category_name":"火锅店","address":""},{"poiid":"B2094654D56AA7FD429D","title":"好大丸(华翔路)","lon":"121.30329","lat":"31.21266","category":"257","category_name":"中餐厅","address":""},{"poiid":"B2094654D56AA7FD429C","title":"兰州正宗牛肉拉面(华翔路)","lon":"121.30336","lat":"31.21262","category":"90","category_name":"清真餐馆","address":""},{"poiid":"B2094654D56AA7FD4192","title":"零点音乐茶座","lon":"121.30536","lat":"31.21159","category":"66","category_name":"茶艺馆","address":""},{"poiid":"B2094654D56AA4FB4598","title":"陈家角村陈家角小区1号门","lon":"121.293","lat":"31.21648","category":"47","category_name":"住宅区","address":""},{"poiid":"B2094757D66CA4FF499C","title":"上海农商银行诸翟支行","lon":"121.29350356","lat":"31.2107272362","category":"500","category_name":"未知分类","address":"闵行区繁兴路333号(近保乐路)"},{"poiid":"B2094654D56AABFC4693","title":"良辰美景","lon":"121.29798","lat":"31.20729","category":"47","category_name":"住宅区","address":""},{"poiid":"B2094757D16BA5FB439B","title":"家呗","lon":"121.30229436","lat":"31.21280398","category":"500","category_name":"未知分类","address":null},{"poiid":"B2094654D56AA6FB419F","title":"紫薇新村","lon":"121.29767","lat":"31.202496","category":"47","category_name":"住宅区","address":"北翟路5120弄"},{"poiid":"B2094757D66EA1F8439E","title":" L j 's home ","lon":"121.29346056","lat":"31.2105522325","category":"500","category_name":"未知分类","address":null},{"poiid":"B2094655D36CA4FE419E","title":"爱博家园","lon":"121.3085","lat":"31.20903","category":"38","category_name":"公交车站","address":"上海宁虹路"},{"poiid":"B2094757D068A3FA4899","title":"诸翟","lon":"121.2920234","lat":"31.2088904","category":"500","category_name":"未知分类","address":"上海闵行区纪翟路保乐路"},{"poiid":"B2094757D068A4FB409C","title":"小钱龙虾馆","lon":"121.2986","lat":"31.20417","category":"87","category_name":"特色／地方风味餐厅","address":"闵行区诸翟镇纪翟南路(联华路口)"},{"poiid":"B2094757D06FA1FB4492","title":"爱博家园二村","lon":"121.30612546","lat":"31.211087243","category":"47","category_name":"住宅区","address":"上海宁虹路申滨路"},{"poiid":"B2094757D068A1FC4698","title":"爱博五村","lon":"121.30659063","lat":"31.211500932","category":"252","category_name":"楼宇机构","address":"上海市闵行区天山西路申滨路"},{"poiid":"B2094757D06FA5FE409F","title":"麦当劳(华漕得来速店)","lon":"121.29202","lat":"31.20865","category":"68","category_name":"快餐厅","address":"长宁区纪翟路335弄19号(保乐路口)"},{"poiid":"B2094757D068A0F94599","title":"西郊九韵城","lon":"121.301","lat":"31.2173","category":"500","category_name":"未知分类","address":"上海闵行区繁兴路300弄"},{"poiid":"B2094757D068A4F9469F","title":"上海香港花园","lon":"121.30042","lat":"31.203123","category":"47","category_name":"住宅区","address":"上海市闵行区北翟路5188号"},{"poiid":"B2094654D56AABFC489F","title":"西郊河畔家园","lon":"121.29105","lat":"31.211727","category":"47","category_name":"住宅区","address":"上海市闵行区繁兴路469弄"},{"poiid":"B2094757D16BA4F84098","title":"汉庭快捷酒店虹桥枢纽二店","lon":"121.30279656","lat":"31.208728344","category":"217","category_name":"旅馆招待所","address":"老北翟路4800号(天山西路华翔路口)"},{"poiid":"B2094757D06BA5FE4392","title":"味千拉面","lon":"121.29274476","lat":"31.210320327","category":"95","category_name":"日本料理","address":"闵行区繁兴路399弄2号1楼商店街5号商铺(保乐路纪翟路)"},{"poiid":"B2094757D16AA1F84892","title":"诸翟大润发康师傅私房牛肉面","lon":"121.29778476","lat":"31.210149124","category":"500","category_name":"未知分类","address":"上海诸翟大润发"},{"poiid":"B2094757D168A1FA449D","title":"星期八火锅城","lon":"121.2934","lat":"31.21138","category":"86","category_name":"火锅店","address":"闵行区华漕镇繁兴路479号(近北青公路)"},{"poiid":"B2094757D06AA1FF4093","title":"85度C(华漕店)","lon":"121.291777","lat":"31.212799","category":"67","category_name":"甜品店","address":"闵行区华漕镇繁兴路399弄2号(保乐路口)"},{"poiid":"B2094752D265A7FE469B","title":"上海虹桥火车站","lon":"121.303641","lat":"31.213892","category":"500","category_name":"未知分类","address":null},{"poiid":"B2094753D665A3F54693","title":"爱博六村","lon":"121.29817411904901","lat":"31.21410997295476","category":"47","category_name":"住宅区","address":"北翟路申长北路"},{"poiid":"B2094757D069A7F4409B","title":"西郊河畔","lon":"121.29299193","lat":"31.211712117","category":"500","category_name":"未知分类","address":"上海繁兴路469弄"},{"poiid":"B2094654DB6BA0FB419C","title":"上海西庭网球俱乐部和公寓","lon":"121.2937959746","lat":"31.206637571572","category":"47","category_name":"住宅区","address":"金丰路555弄"},{"poiid":"B2094654D56AA6FA4592","title":"闵行区华漕镇卫生院","lon":"121.2916","lat":"31.20875","category":"162","category_name":"医院","address":"保乐路2"},{"poiid":"B2094757D16FABFB4593","title":"诸翟镇","lon":"121.29221356","lat":"31.2093242066","category":"500","category_name":"未知分类","address":"上海闵行区诸翟镇"},{"poiid":"B2094757D06BA4F44499","title":"DQ冰雪皇后(华漕店)","lon":"121.29244506","lat":"31.209244905","category":"113","category_name":"冷饮店","address":"闵行区华漕镇繁兴路399弄2号大润发(近北青公路)"},{"poiid":"B2094753DA6FA7F94092","title":"上海虹桥机场T2航站楼","lon":"121.306015","lat":"31.207004","category":"500","category_name":"未知分类","address":"上海市 上海虹桥机场"},{"poiid":"B2094757D06FA4FB4092","title":"大润发(华漕店)","lon":"121.30579811","lat":"31.203054714","category":"118","category_name":"超级市场","address":"闵行区华漕镇繁兴路399弄2号(保乐路繁兴路)"},{"poiid":"B2094654D56AA4FB4498","title":"华漕镇陈家角村工业园区2号门","lon":"121.2953","lat":"31.21555","category":"45","category_name":"产业园区","address":""},{"poiid":"B2094757D164A7FC419A","title":"肯德基 华漕大润发店","lon":"121.299572","lat":"31.216473","category":"500","category_name":"未知分类","address":"上海市闵行区繁兴路399号"},{"poiid":"B2094757D569A6FE4993","title":"虹桥晶邸","lon":"121.300451","lat":"31.216452","category":"47","category_name":"住宅区","address":"上海市闵行区繁兴路333号"},{"poiid":"B2094757D065ABFA4098","title":"大娘水饺(华漕大润发店)","lon":"121.29296056","lat":"31.210247226","category":"87","category_name":"特色／地方风味餐厅","address":"闵行区华漕镇繁兴路399弄2号大润发(近保乐路)"},{"poiid":"B2094757D16EAAFA499E","title":"上海逸隆新虹桥雪佛兰","lon":"121.30113756","lat":"31.2181233923","category":"500","category_name":"未知分类","address":"闵行区北青公路688号"},{"poiid":"B2094654D56AA5F4469A","title":"闵行区华漕镇新家弄村卫生室","lon":"121.3024","lat":"31.21317","category":"162","category_name":"医院","address":""},{"poiid":"B2094655D26FA2FE429B","title":"上海美国学校","lon":"121.29689","lat":"31.20583","category":"55","category_name":"中学","address":"闵行区纪翟路50号"},{"poiid":"B2094757D66DABFF4392","title":"诸翟镇","lon":"121.30190856","lat":"31.2126642771","category":"500","category_name":"未知分类","address":"上海诸翟镇"},{"poiid":"B2094654D56AA6FA459C","title":"新华花园","lon":"121.2938","lat":"31.210197","category":"47","category_name":"住宅区","address":"纪翟路355弄100支弄"},{"poiid":"B2094654D56AABFC429C","title":"新家弄村","lon":"121.30284","lat":"31.21079","category":"47","category_name":"住宅区","address":""},{"poiid":"B2094654D56AA6F44093","title":"诸翟学校","lon":"121.29445","lat":"31.20855","category":"55","category_name":"中学","address":"纪翟路221"},{"poiid":"B2094757D164ABFA459C","title":"城市超市(诸翟店)","lon":"121.30106956","lat":"31.209555211","category":"118","category_name":"超级市场","address":"闵行区纪翟路550号华漕国际生活社区万科红郡别墅西翼(诸新路运乐路)"},{"poiid":"B209475CD56AAAF54292","title":"人民广场","lon":"121.302825","lat":"31.210794","category":"500","category_name":"未知分类","address":"上海市 南京南路"},{"poiid":"B2094757D16EA3FC4992","title":"一品坊","lon":"121.29381","lat":"31.20748","category":"68","category_name":"快餐厅","address":"上海闵行区华漕镇纪翟路(近华翔路)  "},{"poiid":"B2094654D56AABFE4199","title":"犇羴鱻饮食店","lon":"121.30108","lat":"31.20917","category":"257","category_name":"中餐厅","address":""},{"poiid":"B2094757D66EA5FD4093","title":"焱盛记猪肚鸡","lon":"121.29929","lat":"31.20749","category":"86","category_name":"火锅店","address":"闵行区老北翟路4800号(近华翔路)"},{"poiid":"B2094654D56AABFC4899","title":"快客No.692","lon":"121.29188","lat":"31.21264","category":"117","category_name":"便民商店/便利店","address":"诸翟镇"},{"poiid":"B2094654D56AA7F9479D","title":"重庆火锅城","lon":"121.30329","lat":"31.21278","category":"86","category_name":"火锅店","address":""},{"poiid":"B2094654D56AA7FD429D","title":"好大丸(华翔路)","lon":"121.30329","lat":"31.21266","category":"257","category_name":"中餐厅","address":""},{"poiid":"B2094654D56AA7FD429C","title":"兰州正宗牛肉拉面(华翔路)","lon":"121.30336","lat":"31.21262","category":"90","category_name":"清真餐馆","address":""},{"poiid":"B2094654D56AA7FD4192","title":"零点音乐茶座","lon":"121.30536","lat":"31.21159","category":"66","category_name":"茶艺馆","address":""},{"poiid":"B2094654D56AA4FB4598","title":"陈家角村陈家角小区1号门","lon":"121.293","lat":"31.21648","category":"47","category_name":"住宅区","address":""},{"poiid":"B2094757D66CA4FF499C","title":"上海农商银行诸翟支行","lon":"121.29350356","lat":"31.2107272362","category":"500","category_name":"未知分类","address":"闵行区繁兴路333号(近保乐路)"},{"poiid":"B2094654D56AABFC4693","title":"良辰美景","lon":"121.29798","lat":"31.20729","category":"47","category_name":"住宅区","address":""},{"poiid":"B2094757D16BA5FB439B","title":"家呗","lon":"121.30229436","lat":"31.21280398","category":"500","category_name":"未知分类","address":null},{"poiid":"B2094654D56AA6FB419F","title":"紫薇新村","lon":"121.29767","lat":"31.202496","category":"47","category_name":"住宅区","address":"北翟路5120弄"},{"poiid":"B2094757D66EA1F8439E","title":" L j 's home ","lon":"121.29346056","lat":"31.2105522325","category":"500","category_name":"未知分类","address":null}]