[{"poiid":"B2094655D26DA6FC479C","title":"瑞和苑(瑞和路)","lon":"121.58839","lat":"31.08561","category":"47","category_name":"住宅区","address":"瑞和路168弄1-42号"},{"poiid":"B2094757D069A6FD4192","title":"召稼楼古镇","lon":"121.58206","lat":"31.08402","category":"250","category_name":"公园户外","address":"上海闵行区沈杜公路(近苏召路)"},{"poiid":"B2094655D36CA1FC4499","title":"沈庄","lon":"121.58408","lat":"31.08462","category":"38","category_name":"公交车站","address":""},{"poiid":"B2094757D069A4F9469C","title":"上海车市","lon":"121.586894","lat":"31.070032","category":"163","category_name":"4S店","address":"浦东新区南汇沪南公路4777号"},{"poiid":"B2094655D36CA1FC4092","title":"沈杜公路赵家宅","lon":"121.57083","lat":"31.08168","category":"38","category_name":"公交车站","address":""},{"poiid":"B2094750D56DA4F84892","title":"昱星家园","lon":"121.587699","lat":"31.081027","category":"47","category_name":"住宅区","address":"鹤沙路688弄"},{"poiid":"B2094750DB68AAFB4498","title":"方圆生态园","lon":"121.565559","lat":"31.079477","category":"250","category_name":"公园户外","address":"闵行区浦江镇沈杜公路(近林海公路)"},{"poiid":"B2094757D06BA4FB4693","title":"巴顿火锅浦江店","lon":"121.57343324","lat":"31.073261856","category":"500","category_name":"未知分类","address":"上海浦锦路沃尔玛2楼"},{"poiid":"B2094654DB6FA0FD469B","title":"普静绿围","lon":"121.57324","lat":"31.07919","category":"248","category_name":"生活娱乐","address":"杜行镇"},{"poiid":"B2094655D36DA2FD409D","title":"钱岸二桥","lon":"121.57621","lat":"31.07147","category":"250","category_name":"公园户外","address":""},{"poiid":"B2094654DB6FA0F84199","title":"精微艺术馆","lon":"121.58553","lat":"31.07817","category":"184","category_name":"美术馆","address":""},{"poiid":"B2094655D26DA0FA459C","title":"桃园新城中城苑","lon":"121.58813","lat":"31.08945","category":"47","category_name":"住宅区","address":""},{"poiid":"B2094654DB64AAF8469E","title":"徽尚精品字画盆景艺术展示中心","lon":"121.58552","lat":"31.07817","category":"185","category_name":"会展中心","address":""},{"poiid":"B2094654DB6FA0F94493","title":"上海中戈机械有限公司","lon":"121.58331","lat":"31.07926","category":"263","category_name":"公司","address":""},{"poiid":"B2094757DB6CA6FC419B","title":"恒福家园","lon":"121.5898046273978","lat":"31.08054442766347","category":"627","category_name":"一般地点标志","address":"鹤驰路99弄"},{"poiid":"B2094655D36CA6FD4898","title":"革新村","lon":"121.56","lat":"31.07912","category":"38","category_name":"公交车站","address":""},{"poiid":"B2094750D664ABF54598","title":"大灶传承","lon":"121.571","lat":"31.0913","category":"76","category_name":"上海菜","address":"浦东新区周浦镇沈梅路99弄1号楼2-5楼(近沪南公路)"},{"poiid":"B2094757D66CABF8469C","title":"明唐大酒店","lon":"121.576148","lat":"31.092719","category":"72","category_name":"广东菜","address":"浦东新区周浦镇沈梅路99弄1号2-3楼(近沪南公路)"},{"poiid":"B2094750D26AA1F5459D","title":"南馨佳苑","lon":"121.590339","lat":"31.080825","category":"252","category_name":"楼宇机构","address":"鹤驰路88弄"},{"poiid":"B2094757D16EA6F94698","title":"万达广场(周浦店)","lon":"121.565420246","lat":"31.0601465437","category":"500","category_name":"未知分类","address":"上海浦东新区年家浜路518号(近沪南公路)"},{"poiid":"B2094757D66DAAF94799","title":"智慧产业园","lon":"121.577812246","lat":"31.0918042979","category":"500","category_name":"未知分类","address":"上海市浦东新区建恒路"},{"poiid":"B2094757D16AA5F9499E","title":"沈庄公交站","lon":"121.56588264","lat":"31.064441546","category":"38","category_name":"公交车站","address":"上海浦东新区沪南公路(近沈杜公路)"},{"poiid":"B2094757D568A1FD499E","title":"解放商用汽车销售服务中心","lon":"121.5855452","lat":"31.07127197","category":"158","category_name":"汽车销售","address":"中国上海市浦东新区S122"},{"poiid":"B2094655D36CA4FD4192","title":"白墙(招呼站)","lon":"121.58706","lat":"31.06496","category":"38","category_name":"公交车站","address":""},{"poiid":"B2094655D26DA0FA4592","title":"汇腾东苑","lon":"121.58649","lat":"31.091671","category":"47","category_name":"住宅区","address":"瑞浦路611弄1-22号"},{"poiid":"B2094757D568AAF44693","title":"东风汽车","lon":"121.5856955","lat":"31.0704872","category":"158","category_name":"汽车销售","address":"中国上海市浦东新区S122"},{"poiid":"B2094654DB65A5FD4592","title":"徐园酒店","lon":"121.58417","lat":"31.06632","category":"250","category_name":"公园户外","address":"南汇区新场镇下盐公路666号(近巴士汽车学院)"},{"poiid":"B2094654DB6FA0F9409F","title":"益和饭店","lon":"121.58687","lat":"31.06767","category":"257","category_name":"中餐厅","address":""},{"poiid":"B2094654DB64A4FD409B","title":"南汇区周浦镇社区卫生服务中心","lon":"121.58511","lat":"31.09308","category":"162","category_name":"医院","address":"浦东新区沈梅东路163号(近康沈路)"},{"poiid":"B2094757D068ABFD4598","title":"鹤丰庄园","lon":"121.58055","lat":"31.05902","category":"260","category_name":"其他","address":"浦东新区南汇航头镇鹤立西路牌楼村13组490号(近三鲁公路)"},{"poiid":"B2094654DB64AAF9419A","title":"国际家居建材广场","lon":"121.58696","lat":"31.06922","category":"123","category_name":"家具建材市场","address":""},{"poiid":"B2094655D26DABF9409F","title":"上海汇胜汽车贸易有限公司","lon":"121.58689","lat":"31.07003","category":"158","category_name":"汽车销售","address":"沪南公路4777号312-317厅"},{"poiid":"B2094655D26EA3FD489F","title":"上海红悦汽车销售服务有限公司","lon":"121.58922","lat":"31.06945","category":"158","category_name":"汽车销售","address":"闵行区沪南公路4789号3幢304-311室(上海车市内)"},{"poiid":"B2094655D265AAF84699","title":"海尼会所餐厅","lon":"121.57444","lat":"31.09582","category":"74","category_name":"江苏菜","address":"浦东新区沪南路3999号(近周浦镇)"},{"poiid":"B2094655D36CA7FE4892","title":"沪南公路建豪路","lon":"121.57348","lat":"31.09634","category":"38","category_name":"公交车站","address":""},{"poiid":"B2094654DB6FA0F8419B","title":"佰祥大酒店","lon":"121.58724","lat":"31.06537","category":"250","category_name":"公园户外","address":"沪南公路4849号近下盐路"},{"poiid":"B2094655D26DA6FC479D","title":"汇腾南苑","lon":"121.58482","lat":"31.090767","category":"47","category_name":"住宅区","address":"瑞浦路612弄1-56号"},{"poiid":"B2094752DB65A4FB4693","title":"金沁苑","lon":"121.586478","lat":"31.088607","category":"47","category_name":"住宅区","address":"上海市 鹤沙路201弄"},{"poiid":"B2094654DB64ABFD489E","title":"梅林学校","lon":"121.56053","lat":"31.08726","category":"55","category_name":"中学","address":""},{"poiid":"B2094757D569A1FE4992","title":"易捷便利店","lon":"121.58646701","lat":"31.06560059","category":"117","category_name":"便民商店/便利店","address":"下沙镇"},{"poiid":"B2094757D16EAAF4469A","title":"沪南线白墙站","lon":"121.587045","lat":"31.06626","category":"500","category_name":"未知分类","address":"上海下沙敬老院"},{"poiid":"B2094655D36DA2FD4498","title":"永乐桥","lon":"121.56791","lat":"31.09051","category":"250","category_name":"公园户外","address":""},{"poiid":"B2094757D66CA6FA409E","title":"漕河泾浦江高科技园","lon":"121.56151724","lat":"31.085730153","category":"500","category_name":"未知分类","address":"上海市浦江镇"},{"poiid":"B2094757D168A7FF419A","title":"迪街量贩KTV","lon":"121.589184246","lat":"31.0866351747","category":"170","category_name":"KTV","address":"上海浦东新区北蔡沪南路967号北楼4—5F"},{"poiid":"B2094757D16DA2FD459A","title":"上海隧道建筑防水材料有限公司","lon":"121.58238454","lat":"31.089124934","category":"500","category_name":"未知分类","address":"上海市浦东新区康沈路2403号"},{"poiid":"B2094655D26DA0FB4798","title":"安阁苑(南区)","lon":"121.59092","lat":"31.0872","category":"47","category_name":"住宅区","address":"周浦镇"},{"poiid":"B2094654DB6FA0F94393","title":"三得利啤酒(上海)有限公司","lon":"121.55637","lat":"31.0763","category":"263","category_name":"公司","address":""},{"poiid":"B2094655D36CA7FE469D","title":"沪南路建豪路","lon":"121.57702","lat":"31.09366","category":"38","category_name":"公交车站","address":""},{"poiid":"B2094654DB6FA0FD469E","title":"上海下沙汽车修配厂","lon":"121.5867","lat":"31.06539","category":"159","category_name":"汽车维修","address":"沪南公路4828号"},{"poiid":"B2094655D36CA1FC439A","title":"沈西","lon":"121.582","lat":"31.09325","category":"38","category_name":"公交车站","address":""},{"poiid":"B2094655D26DA6FC479C","title":"瑞和苑(瑞和路)","lon":"121.58839","lat":"31.08561","category":"47","category_name":"住宅区","address":"瑞和路168弄1-42号"},{"poiid":"B2094757D069A6FD4192","title":"召稼楼古镇","lon":"121.58206","lat":"31.08402","category":"250","category_name":"公园户外","address":"上海闵行区沈杜公路(近苏召路)"},{"poiid":"B2094655D36CA1FC4499","title":"沈庄","lon":"121.58408","lat":"31.08462","category":"38","category_name":"公交车站","address":""},{"poiid":"B2094757D069A4F9469C","title":"上海车市","lon":"121.586894","lat":"31.070032","category":"163","category_name":"4S店","address":"浦东新区南汇沪南公路4777号"},{"poiid":"B2094655D36CA1FC4092","title":"沈杜公路赵家宅","lon":"121.57083","lat":"31.08168","category":"38","category_name":"公交车站","address":""},{"poiid":"B2094750D56DA4F84892","title":"昱星家园","lon":"121.587699","lat":"31.081027","category":"47","category_name":"住宅区","address":"鹤沙路688弄"},{"poiid":"B2094750DB68AAFB4498","title":"方圆生态园","lon":"121.565559","lat":"31.079477","category":"250","category_name":"公园户外","address":"闵行区浦江镇沈杜公路(近林海公路)"},{"poiid":"B2094757D06BA4FB4693","title":"巴顿火锅浦江店","lon":"121.57343324","lat":"31.073261856","category":"500","category_name":"未知分类","address":"上海浦锦路沃尔玛2楼"},{"poiid":"B2094654DB6FA0FD469B","title":"普静绿围","lon":"121.57324","lat":"31.07919","category":"248","category_name":"生活娱乐","address":"杜行镇"},{"poiid":"B2094655D36DA2FD409D","title":"钱岸二桥","lon":"121.57621","lat":"31.07147","category":"250","category_name":"公园户外","address":""},{"poiid":"B2094654DB6FA0F84199","title":"精微艺术馆","lon":"121.58553","lat":"31.07817","category":"184","category_name":"美术馆","address":""},{"poiid":"B2094655D26DA0FA459C","title":"桃园新城中城苑","lon":"121.58813","lat":"31.08945","category":"47","category_name":"住宅区","address":""},{"poiid":"B2094654DB64AAF8469E","title":"徽尚精品字画盆景艺术展示中心","lon":"121.58552","lat":"31.07817","category":"185","category_name":"会展中心","address":""},{"poiid":"B2094654DB6FA0F94493","title":"上海中戈机械有限公司","lon":"121.58331","lat":"31.07926","category":"263","category_name":"公司","address":""},{"poiid":"B2094757DB6CA6FC419B","title":"恒福家园","lon":"121.5898046273978","lat":"31.08054442766347","category":"627","category_name":"一般地点标志","address":"鹤驰路99弄"},{"poiid":"B2094655D36CA6FD4898","title":"革新村","lon":"121.56","lat":"31.07912","category":"38","category_name":"公交车站","address":""},{"poiid":"B2094750D664ABF54598","title":"大灶传承","lon":"121.571","lat":"31.0913","category":"76","category_name":"上海菜","address":"浦东新区周浦镇沈梅路99弄1号楼2-5楼(近沪南公路)"},{"poiid":"B2094757D66CABF8469C","title":"明唐大酒店","lon":"121.576148","lat":"31.092719","category":"72","category_name":"广东菜","address":"浦东新区周浦镇沈梅路99弄1号2-3楼(近沪南公路)"},{"poiid":"B2094750D26AA1F5459D","title":"南馨佳苑","lon":"121.590339","lat":"31.080825","category":"252","category_name":"楼宇机构","address":"鹤驰路88弄"},{"poiid":"B2094757D16EA6F94698","title":"万达广场(周浦店)","lon":"121.565420246","lat":"31.0601465437","category":"500","category_name":"未知分类","address":"上海浦东新区年家浜路518号(近沪南公路)"},{"poiid":"B2094757D66DAAF94799","title":"智慧产业园","lon":"121.577812246","lat":"31.0918042979","category":"500","category_name":"未知分类","address":"上海市浦东新区建恒路"},{"poiid":"B2094757D16AA5F9499E","title":"沈庄公交站","lon":"121.56588264","lat":"31.064441546","category":"38","category_name":"公交车站","address":"上海浦东新区沪南公路(近沈杜公路)"},{"poiid":"B2094757D568A1FD499E","title":"解放商用汽车销售服务中心","lon":"121.5855452","lat":"31.07127197","category":"158","category_name":"汽车销售","address":"中国上海市浦东新区S122"},{"poiid":"B2094655D36CA4FD4192","title":"白墙(招呼站)","lon":"121.58706","lat":"31.06496","category":"38","category_name":"公交车站","address":""},{"poiid":"B2094655D26DA0FA4592","title":"汇腾东苑","lon":"121.58649","lat":"31.091671","category":"47","category_name":"住宅区","address":"瑞浦路611弄1-22号"},{"poiid":"B2094757D568AAF44693","title":"东风汽车","lon":"121.5856955","lat":"31.0704872","category":"158","category_name":"汽车销售","address":"中国上海市浦东新区S122"},{"poiid":"B2094654DB65A5FD4592","title":"徐园酒店","lon":"121.58417","lat":"31.06632","category":"250","category_name":"公园户外","address":"南汇区新场镇下盐公路666号(近巴士汽车学院)"},{"poiid":"B2094654DB6FA0F9409F","title":"益和饭店","lon":"121.58687","lat":"31.06767","category":"257","category_name":"中餐厅","address":""},{"poiid":"B2094654DB64A4FD409B","title":"南汇区周浦镇社区卫生服务中心","lon":"121.58511","lat":"31.09308","category":"162","category_name":"医院","address":"浦东新区沈梅东路163号(近康沈路)"},{"poiid":"B2094757D068ABFD4598","title":"鹤丰庄园","lon":"121.58055","lat":"31.05902","category":"260","category_name":"其他","address":"浦东新区南汇航头镇鹤立西路牌楼村13组490号(近三鲁公路)"},{"poiid":"B2094654DB64AAF9419A","title":"国际家居建材广场","lon":"121.58696","lat":"31.06922","category":"123","category_name":"家具建材市场","address":""},{"poiid":"B2094655D26DABF9409F","title":"上海汇胜汽车贸易有限公司","lon":"121.58689","lat":"31.07003","category":"158","category_name":"汽车销售","address":"沪南公路4777号312-317厅"},{"poiid":"B2094655D26EA3FD489F","title":"上海红悦汽车销售服务有限公司","lon":"121.58922","lat":"31.06945","category":"158","category_name":"汽车销售","address":"闵行区沪南公路4789号3幢304-311室(上海车市内)"},{"poiid":"B2094655D265AAF84699","title":"海尼会所餐厅","lon":"121.57444","lat":"31.09582","category":"74","category_name":"江苏菜","address":"浦东新区沪南路3999号(近周浦镇)"},{"poiid":"B2094655D36CA7FE4892","title":"沪南公路建豪路","lon":"121.57348","lat":"31.09634","category":"38","category_name":"公交车站","address":""},{"poiid":"B2094654DB6FA0F8419B","title":"佰祥大酒店","lon":"121.58724","lat":"31.06537","category":"250","category_name":"公园户外","address":"沪南公路4849号近下盐路"},{"poiid":"B2094655D26DA6FC479D","title":"汇腾南苑","lon":"121.58482","lat":"31.090767","category":"47","category_name":"住宅区","address":"瑞浦路612弄1-56号"},{"poiid":"B2094752DB65A4FB4693","title":"金沁苑","lon":"121.586478","lat":"31.088607","category":"47","category_name":"住宅区","address":"上海市 鹤沙路201弄"},{"poiid":"B2094654DB64ABFD489E","title":"梅林学校","lon":"121.56053","lat":"31.08726","category":"55","category_name":"中学","address":""},{"poiid":"B2094757D569A1FE4992","title":"易捷便利店","lon":"121.58646701","lat":"31.06560059","category":"117","category_name":"便民商店/便利店","address":"下沙镇"},{"poiid":"B2094757D16EAAF4469A","title":"沪南线白墙站","lon":"121.587045","lat":"31.06626","category":"500","category_name":"未知分类","address":"上海下沙敬老院"},{"poiid":"B2094655D36DA2FD4498","title":"永乐桥","lon":"121.56791","lat":"31.09051","category":"250","category_name":"公园户外","address":""},{"poiid":"B2094757D66CA6FA409E","title":"漕河泾浦江高科技园","lon":"121.56151724","lat":"31.085730153","category":"500","category_name":"未知分类","address":"上海市浦江镇"},{"poiid":"B2094757D168A7FF419A","title":"迪街量贩KTV","lon":"121.589184246","lat":"31.0866351747","category":"170","category_name":"KTV","address":"上海浦东新区北蔡沪南路967号北楼4—5F"},{"poiid":"B2094757D16DA2FD459A","title":"上海隧道建筑防水材料有限公司","lon":"121.58238454","lat":"31.089124934","category":"500","category_name":"未知分类","address":"上海市浦东新区康沈路2403号"},{"poiid":"B2094655D26DA0FB4798","title":"安阁苑(南区)","lon":"121.59092","lat":"31.0872","category":"47","category_name":"住宅区","address":"周浦镇"},{"poiid":"B2094654DB6FA0F94393","title":"三得利啤酒(上海)有限公司","lon":"121.55637","lat":"31.0763","category":"263","category_name":"公司","address":""},{"poiid":"B2094655D36CA7FE469D","title":"沪南路建豪路","lon":"121.57702","lat":"31.09366","category":"38","category_name":"公交车站","address":""},{"poiid":"B2094654DB6FA0FD469E","title":"上海下沙汽车修配厂","lon":"121.5867","lat":"31.06539","category":"159","category_name":"汽车维修","address":"沪南公路4828号"},{"poiid":"B2094655D36CA1FC439A","title":"沈西","lon":"121.582","lat":"31.09325","category":"38","category_name":"公交车站","address":""}]