[{"poiid":"B2094654DA6BABF4449E","title":"热带风暴水上乐园","lon":"121.37227","lat":"31.13948","category":"250","category_name":"公园户外","address":"上海市闵行区新镇路78号"},{"poiid":"B2094757D06EAAFD409D","title":"闵行体育公园","lon":"121.36664128","lat":"31.146892955","category":"500","category_name":"未知分类","address":"闵行区新镇路456号(近农南路)"},{"poiid":"B2094757D06FA1FE419F","title":"闵行体育馆","lon":"121.37105783","lat":"31.142171733","category":"224","category_name":"综合体育馆","address":"闵行区新镇路288号闵行体育馆内(近热带风暴)"},{"poiid":"B2094757D16AA0F5419D","title":"财富108广场","lon":"121.368","lat":"31.1393","category":"500","category_name":"未知分类","address":"闵行区七莘路1839号(近华中路)"},{"poiid":"B2094757D06FA6F94293","title":"皇都花园","lon":"121.368953","lat":"31.139816","category":"47","category_name":"住宅区","address":"上海市长宁区黄金城道688弄"},{"poiid":"B2094757D06FA0F8409F","title":"九星建材批发市场","lon":"121.3737","lat":"31.1493","category":"249","category_name":"购物服务","address":"上海闵行区漕宝路6号桥南侧(近虹莘路)  "},{"poiid":"B2094757D06FA7FA4692","title":"大润发(港澳店)","lon":"121.372955948","lat":"31.1322914274","category":"118","category_name":"超级市场","address":"闵行区水清路1390号(近顾戴路)"},{"poiid":"B2094757D06FA4FF479E","title":"东苑半岛花园","lon":"121.38399","lat":"31.139565","category":"47","category_name":"住宅区","address":"上海顾戴路1266弄"},{"poiid":"B2094757D569A1FA4493","title":"闵行体育公园(8号门)","lon":"121.37435981","lat":"31.13667345","category":"680","category_name":"楼宇机构","address":"中国上海市闵行区顾戴路"},{"poiid":"B2094654DA64A1FD4993","title":"圣陶沙花园","lon":"121.37078","lat":"31.132294","category":"47","category_name":"住宅区","address":"上海市闵行区顾戴路2199弄"},{"poiid":"B2094757D068AAFC4998","title":"黎安公园","lon":"121.376856143","lat":"31.131564803","category":"196","category_name":"公园","address":"闵行区黎安路"},{"poiid":"B2094757D068ABFC409E","title":"卜蜂莲花(新镇店)","lon":"121.36962","lat":"31.13986","category":"118","category_name":"超级市场","address":"闵行区宝铭路8号卜蜂莲花内(近新镇路)"},{"poiid":"B2094654DA6BAAF8449E","title":"上海七宝外国语小学","lon":"121.37028","lat":"31.13798","category":"56","category_name":"小学","address":"闵行区新镇路79号(近皇都花园)"},{"poiid":"B2094654DA6BAAFA459C","title":"莲浦府邸","lon":"121.36669","lat":"31.140423","category":"47","category_name":"住宅区","address":"七莘路1818弄宝铭路88弄新镇路229弄"},{"poiid":"B2094757D06BA3FA409D","title":"琅迈大都会保龄球馆","lon":"121.37065","lat":"31.14163","category":"500","category_name":"未知分类","address":"闵行区新镇路288号闵行体育馆内(近热带风暴)"},{"poiid":"B2094757D069A1FE489E","title":"COCO壱番屋 水清路店","lon":"121.372840054","lat":"31.134963793","category":"95","category_name":"日本料理","address":"闵行区水清路1460弄3号港澳购物中心103室(近顾戴路)"},{"poiid":"B2094757D568A5FE4698","title":"闵行体育公园(6号门)","lon":"121.37714355","lat":"31.13722114","category":"680","category_name":"楼宇机构","address":"中国上海市闵行区顾戴路"},{"poiid":"B2094655D36DA0FE429E","title":"新镇路顾戴路","lon":"121.37102","lat":"31.138","category":"38","category_name":"公交车站","address":""},{"poiid":"B2094750D664A7FD4393","title":"麦当劳(宝铭路店)","lon":"121.369","lat":"31.1402","category":"68","category_name":"快餐厅","address":"闵行区新镇路290号(近易初莲花)"},{"poiid":"B2094655D265ABF44893","title":"汉庭快捷酒店上海闵行体育公园店","lon":"121.36744","lat":"31.13956","category":"216","category_name":"经济型连锁酒店","address":"上海市闵行区七宝镇宝铭路82、108号(近新镇路)"},{"poiid":"B2094654DA65A0FC4099","title":"九星建材装潢市场","lon":"121.37741","lat":"31.1394","category":"123","category_name":"家具建材市场","address":"莘庄镇"},{"poiid":"B2094757D064A0FF419C","title":"外环线 顾戴路出口","lon":"121.37337618","lat":"31.136359872","category":"500","category_name":"未知分类","address":"上海外环线"},{"poiid":"B2094757D064A5FC4093","title":"新新潘晓婷桌球俱乐部(新镇路店)","lon":"121.3712108","lat":"31.142637391","category":"500","category_name":"未知分类","address":"上海新镇路闵行体育馆一层"},{"poiid":"B2094757D06FAAF9459C","title":"圣淘沙花园","lon":"121.378552","lat":"31.138703","category":"47","category_name":"住宅区","address":"上海顾戴路2199弄"},{"poiid":"B2094757D06BABFB4399","title":"东方花园三期公园养生豪庭","lon":"121.37422943","lat":"31.141601562","category":"47","category_name":"住宅区","address":"上海荣谊路108弄"},{"poiid":"B2094654DB6CA3FA439D","title":"上海市文来中学(高中部)","lon":"121.38175","lat":"31.14015","category":"55","category_name":"中学","address":"闵行区虹莘路2166号(近平吉路)"},{"poiid":"B2094757D169A3FA4792","title":"卡通尼乐园","lon":"121.371660857","lat":"31.1416221958","category":"500","category_name":"未知分类","address":"闵行区新镇路288号闵行体育馆主馆1楼(近热带风暴)"},{"poiid":"B2094757D06FA6FD409D","title":"平吉二村","lon":"121.380914","lat":"31.142429","category":"252","category_name":"楼宇机构","address":"上海虹莘路2288号"},{"poiid":"B2094655D26AAAF5489F","title":"如家快捷酒店餐厅体育公园店","lon":"121.37042","lat":"31.14014","category":"76","category_name":"上海菜","address":"闵行区新镇路288号闵行体育馆内(近热带风暴)"},{"poiid":"B2094757D16BA5FF499D","title":"安藤家","lon":"121.37225","lat":"31.13326","category":"95","category_name":"日本料理","address":"闵行区水清路1460弄103号(近黎安路)"},{"poiid":"B2094655D26DA0FE4998","title":"如家酒店(闵行体育馆店)","lon":"121.37161","lat":"31.14319","category":"216","category_name":"经济型连锁酒店","address":"闵行区新镇路288号(近顾戴路口闵行体育馆内)"},{"poiid":"B2094757D065ABFA4798","title":"四海游龙(水清路店)","lon":"121.37292","lat":"31.13402","category":"68","category_name":"快餐厅","address":"闵行区水清路1460号1号101单元(近顾戴路)"},{"poiid":"B2094757D168A6F84098","title":"熊出沒の地方","lon":"121.37280185","lat":"31.135205067","category":"247","category_name":"餐饮美食","address":null},{"poiid":"B2094654DA64A1FE4092","title":"港澳购物中心","lon":"121.37242","lat":"31.1334","category":"119","category_name":"商场","address":"闵行区水清路1500号(近顾戴路)"},{"poiid":"B2094654DB65A5FF489F","title":"肯德基","lon":"121.37287","lat":"31.13238","category":"68","category_name":"快餐厅","address":"闵行区水清路1390号大润发超市内(近顾戴路)"},{"poiid":"B2094757D46EABF9479A","title":"永和豆浆 宝铭路店 Yungho Soybean","lon":"121.365896","lat":"31.139155","category":"68","category_name":"快餐厅","address":"闵行区宝铭路8号卜蜂莲花内(近新镇路)"},{"poiid":"B2094654DA64A1FE4099","title":"银星小区","lon":"121.3732","lat":"31.134941","category":"47","category_name":"住宅区","address":"闵行区水清路1550弄"},{"poiid":"B2094757D568A2F5419F","title":"港澳商品城","lon":"121.3720625","lat":"31.13413583","category":"46","category_name":"楼宇","address":"水清路1500号"},{"poiid":"B2094757D66AA6FA479F","title":"佳养记百味鸡煲","lon":"121.372840054","lat":"31.134963793","category":"86","category_name":"火锅店","address":"闵行区水清路1460弄B区1号102室(近顾戴路)"},{"poiid":"B2094757D06BA4FC439D","title":"闵行体育中心羽毛球馆","lon":"121.370326631","lat":"31.1441437264","category":"500","category_name":"未知分类","address":"上海闵行区新镇路288号"},{"poiid":"B2094757D065A6FE4793","title":"闵行区财政局","lon":"121.37527687","lat":"31.135937517","category":"500","category_name":"未知分类","address":"上海沪闵路6358号"},{"poiid":"B2094757D06FA0FB499A","title":"外环线","lon":"121.37167739","lat":"31.147986525","category":"500","category_name":"未知分类","address":"上海外环线"},{"poiid":"B2094750D665A4F9419D","title":"花东海岸台湾私家牛肉面馆(水清路店)","lon":"121.372","lat":"31.1333","category":"68","category_name":"快餐厅","address":"闵行区水清路1460弄1号104室"},{"poiid":"B2094757D069A3FA4793","title":"莲蒲府邸","lon":"121.367150857","lat":"31.1404491723","category":"47","category_name":"住宅区","address":"上海市闵行区宝铭路88弄"},{"poiid":"B2094757D165A6FF459F","title":"东方花园三期","lon":"121.36506","lat":"31.142696","category":"47","category_name":"住宅区","address":"上海市闵行区新镇路603弄"},{"poiid":"B2094654DA65A0FF4098","title":"九星茶叶区","lon":"121.37708","lat":"31.14761","category":"117","category_name":"便民商店/便利店","address":""},{"poiid":"B2094757D06BA1FC4799","title":"好乐迪(田林店)","lon":"121.37302085","lat":"31.13487506","category":"500","category_name":"未知分类","address":"上海九号线桂林路四号口"},{"poiid":"B2094757D568ABF54999","title":"顾和记","lon":"121.37586","lat":"31.13902","category":"251","category_name":"出行住宿","address":"顾戴路1236号"},{"poiid":"B2094654DA64A1F94399","title":"港澳服饰商厦","lon":"121.37329","lat":"31.13395","category":"119","category_name":"商场","address":"莘庄镇"},{"poiid":"B2094655D36CA1FE499D","title":"水清北路顾戴路","lon":"121.37204","lat":"31.13428","category":"38","category_name":"公交车站","address":""},{"poiid":"B2094654DA64A1F94192","title":"城隍庙小吃世界 水清路店","lon":"121.37239","lat":"31.13282","category":"68","category_name":"快餐厅","address":"闵行区水清路1390号(近顾戴路)"},{"poiid":"B2094751D469AAFE4692","title":"浦东机场","lon":"121.375659","lat":"31.134813","category":"500","category_name":"未知分类","address":null},{"poiid":"B2094757D66CA5F84899","title":"联通疏影路营业厅","lon":"121.375625247","lat":"31.1353569402","category":"150","category_name":"银行","address":"上海疏影路709号"},{"poiid":"B2094654DB65A3FD409E","title":"半岛豪门","lon":"121.38068","lat":"31.13614","category":"47","category_name":"住宅区","address":"虹莘路1955弄"},{"poiid":"B2094757D165A2FC479D","title":"上海五院","lon":"121.371607","lat":"31.143186","category":"500","category_name":"未知分类","address":"上海闵行"},{"poiid":"B2094757D165A4F9469B","title":"北洋泾路苗圃路","lon":"121.372889707","lat":"31.143475073","category":"500","category_name":"未知分类","address":"上海北洋泾路苗圃路"},{"poiid":"B2094655D26BA2F4419A","title":"七莘路顾戴路","lon":"121.36714","lat":"31.13413","category":"38","category_name":"公交车站","address":"上海七莘路"},{"poiid":"B2094757D168A4FB439D","title":"萨莉亚(松江店)","lon":"121.378171","lat":"31.137479","category":"500","category_name":"未知分类","address":"上海松江沃尔玛"},{"poiid":"B2094654DB64ABFD4793","title":"虹莘新村","lon":"121.38206","lat":"31.132429","category":"47","category_name":"住宅区","address":"虹莘路1551弄、虹莘路1701弄"},{"poiid":"B2094757D069A1F8419E","title":"宝燕壹号","lon":"121.366843156","lat":"31.1383027689","category":"500","category_name":"未知分类","address":"上海中谊路518号(七莘路口)"},{"poiid":"B2094654DA65A1FE489F","title":"上海亚灯实业有限公司(古龙路)","lon":"121.37628","lat":"31.1431","category":"123","category_name":"家具建材市场","address":"九星综合市场古龙路9幢9-10号"},{"poiid":"B2094757D568A0FF4099","title":"蜂星电讯大润发港澳店","lon":"121.3720625","lat":"31.13413583","category":"138","category_name":"家电电子卖场","address":"水清路1500号"},{"poiid":"B2094757D16FA3F5459B","title":"中石化加油站(顾戴路)","lon":"121.379016","lat":"31.136839","category":"154","category_name":"加油加气站","address":"闵行区顾戴路1619号(顾戴路星中路)"},{"poiid":"B2094757D169A3FA4299","title":"上宝中学","lon":"121.364821","lat":"31.141112","category":"55","category_name":"中学","address":"闵行区农谊路1号"},{"poiid":"B2094750D768A0F4479D","title":"老刘野生大鱼坊(七莘路店)","lon":"121.363","lat":"31.136","category":"82","category_name":"东北菜","address":"闵行区七莘路1746号(近银七星滑雪场)"},{"poiid":"B2094654DA6BAAFA449F","title":"蓼花汀花园","lon":"121.36378","lat":"31.136494","category":"47","category_name":"住宅区","address":"上海市闵行区七莘路1766号"},{"poiid":"B2094655D26EA7F9459F","title":"九星灯饰市场","lon":"121.37563","lat":"31.14478","category":"123","category_name":"家具建材市场","address":""},{"poiid":"B2094757D165ABFC4799","title":"龙茗路","lon":"121.381011857","lat":"31.1446962574","category":"500","category_name":"未知分类","address":"上海市闵行区星友路"},{"poiid":"B2094757D16BA6F54298","title":"易初莲花(宝铭路店)","lon":"121.36737041","lat":"31.139431898","category":"249","category_name":"购物服务","address":"上海闵行区宝铭路8号"},{"poiid":"B2094757D06FAAF8479F","title":"黎安一村","lon":"121.36976","lat":"31.129351","category":"47","category_name":"住宅区","address":"黎安一村1-109号"},{"poiid":"B2094654DB6CA3FA459B","title":"平吉一村(南门)","lon":"121.3828","lat":"31.14497","category":"47","category_name":"住宅区","address":""},{"poiid":"B2094752D06EA6F84199","title":"虹桥机场T1航站楼","lon":"121.365561","lat":"31.143112","category":"500","category_name":"未知分类","address":null},{"poiid":"B2094654DA64A1F8489B","title":"当代艺墅","lon":"121.38243293428","lat":"31.140925704199","category":"47","category_name":"住宅区","address":"当代艺墅位于闵行顾戴路1801号"},{"poiid":"B2094757D069A4FF429B","title":"莘庄社区卫生服务中心","lon":"121.37469482","lat":"31.127952575","category":"500","category_name":"未知分类","address":"闵行区水清路1099号(近秀文路)"},{"poiid":"B2094757D568A0FB419A","title":"半岛豪门花园一期","lon":"121.3806831","lat":"31.13614","category":"47","category_name":"住宅区","address":"上海市闵行区虹莘路1955弄"},{"poiid":"B2094654DA65A1FB4899","title":"九星精品装饰城","lon":"121.37802","lat":"31.14383","category":"123","category_name":"家具建材市场","address":"九星综合市场古龙路3号楼1B18-19号"},{"poiid":"B2094757D06BA7FB4498","title":"重庆德庄火锅(闵行店)","lon":"121.36317","lat":"31.13495","category":"86","category_name":"火锅店","address":"闵行区七宝七莘路(华茂路七莘路)"},{"poiid":"B2094757D56DABF4479C","title":"古美现代企业中心","lon":"121.37898472757","lat":"31.136262689468","category":"252","category_name":"楼宇机构","address":"平阳路1481号—1501号"},{"poiid":"B2094654DA6BAAF5479E","title":"七宝中心幼儿园","lon":"121.36537","lat":"31.14379","category":"57","category_name":"幼儿园","address":"闵行区七莘路2315弄广海花园69号(近华茂路)"},{"poiid":"B2094757D068A7F54698","title":"黎安二村","lon":"121.384","lat":"31.1387","category":"252","category_name":"楼宇机构","address":"上海市闵行区黎安路443号"},{"poiid":"B2094654DA6BAAF84498","title":"东方花园二期","lon":"121.36456","lat":"31.14593","category":"47","category_name":"住宅区","address":"上海新镇路603弄"},{"poiid":"B2094757D06BABF9459D","title":"重庆碳烤鱼","lon":"121.37237","lat":"31.12989","category":"71","category_name":"四川菜","address":"闵行区黎安路498号(近水清路)"},{"poiid":"B2094757D064AAFE469E","title":"嘉义喷水火鸡肉饭(七莘路店)","lon":"121.3628","lat":"31.13599","category":"91","category_name":"台湾菜","address":"闵行区七莘路1760号(近银七星滑雪场)"},{"poiid":"B2094752D16BAAFD419A","title":"友谊影城","lon":"121.380252","lat":"31.143264","category":"178","category_name":"电影院","address":"南方商城"},{"poiid":"B2094751D264A0FA4693","title":"真味川菜","lon":"121.382121","lat":"31.139889","category":"247","category_name":"餐饮美食","address":"闵行区龙茗路1018号(近顾戴路)"},{"poiid":"B2094654DB6CA6FC429A","title":"九星建材装潢区","lon":"121.38106","lat":"31.13988","category":"123","category_name":"家具建材市场","address":"九星综合市场"},{"poiid":"B2094654DB64A2F44893","title":"东苑半岛花园(7号门)","lon":"121.38153","lat":"31.13829","category":"47","category_name":"住宅区","address":""},{"poiid":"B2094655D264A0F9469B","title":"粤宝酒家","lon":"121.361587054","lat":"31.137536793","category":"72","category_name":"广东菜","address":"闵行区七莘路1726号(近银七星滑雪场)"},{"poiid":"B2094654DA64A1FE409F","title":"和平小菜","lon":"121.37293","lat":"31.13065","category":"257","category_name":"中餐厅","address":"闵行区黎安路452号"},{"poiid":"B2094654DA6BAAFF409C","title":"闵行体育公园(农南路)","lon":"121.36664","lat":"31.14692","category":"196","category_name":"公园","address":"农南路55"},{"poiid":"B2094655D26AAAF54692","title":"良友金伴闵行虹莘店","lon":"121.38148","lat":"31.139","category":"118","category_name":"超级市场","address":"闵行区虹莘路2070临"},{"poiid":"B2094655D26FA3F8409C","title":"东苑半岛花园(6号门)","lon":"121.38151","lat":"31.13887","category":"47","category_name":"住宅区","address":"虹莘路2058弄"},{"poiid":"B2094757D069A6F4419E","title":"闵行区房地产交易中心","lon":"121.37948998","lat":"31.135343762","category":"500","category_name":"未知分类","address":"上海闵行区水清路159号"},{"poiid":"B2094757D66FA0FC4093","title":"东北特色烧烤","lon":"121.37769245","lat":"31.145513873","category":"247","category_name":"餐饮美食","address":"上海闵行区龙茗路1662号(近东兰路)"},{"poiid":"B2094757D66CA7FE499B","title":"神点桌球俱乐部","lon":"121.36869","lat":"31.14416","category":"500","category_name":"未知分类","address":"闵行区闵行区新镇路288号闵行体育馆1/2号门地下休闲广场内(宝铭路)"},{"poiid":"B2094757DA6FA2FD469E","title":"达美乐比萨(平阳路店)","lon":"121.383376899998","lat":"31.1343735","category":"94","category_name":"西餐厅","address":"闵行区平阳路1480号(近虹莘路)"},{"poiid":"B2094757D66DA4FA4599","title":"厚锅火锅店","lon":"121.370328557","lat":"31.1318868007","category":"247","category_name":"餐饮美食","address":"上海南方休闲广场2楼"},{"poiid":"B2094654DA65ABFD419A","title":"上海市龙茗中学","lon":"121.38256","lat":"31.13652","category":"55","category_name":"中学","address":"闵行区虹莘路1888号"},{"poiid":"B2094654DB64A2F44892","title":"平吉二村莲花新城(西门)","lon":"121.38127","lat":"31.14316","category":"47","category_name":"住宅区","address":"虹莘路2288弄1-193号"},{"poiid":"B2094751D26EA7F84192","title":"协和双语学校","lon":"121.3801035","lat":"31.1428012","category":"253","category_name":"校园生活","address":"平吉路509号"},{"poiid":"B2094757D16AA2F8469F","title":"新新•潘晓婷","lon":"121.368418","lat":"31.144426","category":"500","category_name":"未知分类","address":"上海闵行体育公园内"},{"poiid":"B2094757D16BA6FD4892","title":"港汇广场","lon":"121.367879857","lat":"31.1305312735","category":"500","category_name":"未知分类","address":"上海港汇广场一楼"},{"poiid":"B2094757D56EA6FD4993","title":"旁氏大润发港澳店","lon":"121.372871","lat":"31.132382","category":"249","category_name":"购物服务","address":"上海水清路1390号"},{"poiid":"B2094655D26FA6F84292","title":"半岛豪门南块","lon":"121.38092","lat":"31.13436","category":"47","category_name":"住宅区","address":"虹莘路1935弄"},{"poiid":"B2094654DA65A0FF4292","title":"雷士照明(星东路桥)","lon":"121.37706","lat":"31.14566","category":"123","category_name":"家具建材市场","address":"九星综合市场星东路桥2幢5号"},{"poiid":"B2094757D16FABFE469C","title":"虹莘路","lon":"121.38354385","lat":"31.137118105","category":"500","category_name":"未知分类","address":"上海虹莘路"},{"poiid":"B2094654DA65ABFD4093","title":"中国创造学会上海实验学校","lon":"121.38256","lat":"31.13652","category":"55","category_name":"中学","address":"虹莘路1888"},{"poiid":"B2094654DB6CA6FD479B","title":"九星胶合板批发区(4号门)","lon":"121.38066","lat":"31.14292","category":"123","category_name":"家具建材市场","address":"九星综合市场虹莘路2079号"},{"poiid":"B2094757D164A1FF4299","title":"品味小厨","lon":"121.38273885","lat":"31.14436125","category":"76","category_name":"上海菜","address":"闵行区古龙路平吉一村(近龙茗路)"},{"poiid":"B2094654DB65A0FD439C","title":"东苑半岛花园(4号门)","lon":"121.38256","lat":"31.14119","category":"47","category_name":"住宅区","address":""},{"poiid":"B2094757D068A4FB479D","title":"新镇路","lon":"121.36603107","lat":"31.144598653","category":"500","category_name":"未知分类","address":"上海闵行区七宝"},{"poiid":"B2094757D165A6F5459B","title":"龙华","lon":"121.37497505","lat":"31.131800499","category":"500","category_name":"未知分类","address":"上海龙华"},{"poiid":"B2094757D064A3F9419C","title":"信男","lon":"121.381301857","lat":"31.1406081755","category":"249","category_name":"购物服务","address":"上海虹莘路2166号图书馆2楼"},{"poiid":"B2094654DB6CA3FA4392","title":"闵行区平吉小学","lon":"121.38261","lat":"31.14196","category":"56","category_name":"小学","address":"平吉路1288"},{"poiid":"B2094757D66DA2F8429B","title":"古美社区学校","lon":"121.381331257","lat":"31.1358850808","category":"252","category_name":"楼宇机构","address":"上海平阳路1512号"},{"poiid":"B2094757D169A6FE4392","title":"顾戴路虹莘路","lon":"121.382334437","lat":"31.1379001512","category":"500","category_name":"未知分类","address":"上海顾戴路虹莘路"},{"poiid":"B2094757D16AA4FA479E","title":"闵行区明星学校","lon":"121.374510317","lat":"31.129757758","category":"253","category_name":"校园生活","address":"上海黎安路339号"},{"poiid":"B2094654DA64A1F8419C","title":"昕城美容美发形象设计中心","lon":"121.3731","lat":"31.13072","category":"148","category_name":"美容美发店","address":"莘庄镇"},{"poiid":"B2094654DA65ABFD419E","title":"半岛豪门南块(东门)","lon":"121.38136","lat":"31.13446","category":"47","category_name":"住宅区","address":"虹莘路1935弄"},{"poiid":"B2094654DA64A1F8439B","title":"好德(黎安路)","lon":"121.37223","lat":"31.13035","category":"117","category_name":"便民商店/便利店","address":""},{"poiid":"B2094757D06AAAFA489C","title":"黎安三村","lon":"121.3742","lat":"31.131178","category":"252","category_name":"楼宇机构","address":"上海市闵行区黎安路380弄"},{"poiid":"B2094655D36CA1F44098","title":"黎安路","lon":"121.37097","lat":"31.1296","category":"38","category_name":"公交车站","address":""},{"poiid":"B2094757D165A7FF429B","title":"平阳一村","lon":"121.38273285","lat":"31.135758078","category":"500","category_name":"未知分类","address":"上海市闵行区虹莘路1876弄"},{"poiid":"B2094655D26FABF9449E","title":"半岛豪门(北门)","lon":"121.38019","lat":"31.13713","category":"656","category_name":"大门","address":"虹莘路1955弄"},{"poiid":"B2094654DA65A0FC4392","title":"立邦家具漆体验馆","lon":"121.37866","lat":"31.14555","category":"123","category_name":"家具建材市场","address":"九星综合市场姚家浜路6幢5-6号"},{"poiid":"B209475CDB6BA7F4479D","title":"Cloud coffee","lon":"121.363243","lat":"31.139493","category":"500","category_name":"未知分类","address":"上海市 闵行区七莘路中谊路2237号"},{"poiid":"B2094655D26BA1FC459A","title":"平阳路虹莘路","lon":"121.38236","lat":"31.13414","category":"38","category_name":"公交车站","address":""},{"poiid":"B2094757D064A5FB419C","title":"上海交大闵行校区南16宿舍楼","lon":"121.376829","lat":"31.146383","category":"253","category_name":"校园生活","address":"上海市闵行区东川路800号上海交通大学闵行校区南16栋"},{"poiid":"B2094757D16CAAF54798","title":"青浦税务局","lon":"121.379607857","lat":"31.1337210374","category":"500","category_name":"未知分类","address":"上海城中西路68号"},{"poiid":"B2094654DB64A2FB4298","title":"平阳一村(南门)","lon":"121.38264","lat":"31.13492","category":"47","category_name":"住宅区","address":"虹莘路1876弄"},{"poiid":"B2094757D165A2FA479E","title":"海琪汽车用品城","lon":"121.361634857","lat":"31.1375991152","category":"500","category_name":"未知分类","address":"上海七莘路1865号"},{"poiid":"B2094750D56AA3F54693","title":"东碧林湾","lon":"121.36185","lat":"31.139507","category":"47","category_name":"住宅区","address":"上海市闵行区七莘路1890弄"},{"poiid":"B2094757DA6EAAF4469E","title":"上海巨人家居专营店","lon":"121.371814999998","lat":"31.146681","category":"249","category_name":"购物服务","address":"闵行区九星姚家浜路1号房14号"},{"poiid":"B2094753DB6CA2FA4792","title":"Mangosix","lon":"121.380264","lat":"31.13298","category":"500","category_name":"未知分类","address":"上海市 金汇南路158号"},{"poiid":"B2094757D16BA0F84799","title":"诸翟香辣小龙虾","lon":"121.37210285","lat":"31.130050963","category":"247","category_name":"餐饮美食","address":"上海市闵行区黎安路488号"},{"poiid":"B2094655D26FA6F8429C","title":"龙祥嘉园","lon":"121.38313","lat":"31.133638","category":"47","category_name":"住宅区","address":"平阳路1515弄"},{"poiid":"B2094654DA6BABFB499A","title":"富丽公寓","lon":"121.36576","lat":"31.145745","category":"47","category_name":"住宅区","address":"七莘路1666弄"},{"poiid":"B2094757D464A0FB4093","title":"上岛咖啡 宝铭路店 UBC Coffee","lon":"121.361705054","lat":"31.137389793","category":"65","category_name":"咖啡厅","address":"闵行区宝铭路64号(近新镇路)"},{"poiid":"B2094654DB6CA6FE409A","title":"晨阳门窗加工厂","lon":"121.37995","lat":"31.14526","category":"123","category_name":"家具建材市场","address":"九星综合市场星港街60幢7号"},{"poiid":"B2094655D264A7FC499A","title":"公园养生豪庭","lon":"121.364411","lat":"31.145849","category":"47","category_name":"住宅区","address":"闵行新镇路603弄(中谊路口)"},{"poiid":"B2094655D26DA0FF4898","title":"上海九星湘丰五金工具(星友路)","lon":"121.37427","lat":"31.1476","category":"123","category_name":"家具建材市场","address":"九星综合市场五金区星中路26幢115-116号"},{"poiid":"B2094654DB64A2FB4299","title":"上海仁辉汽车美容装潢商行(虹莘路)","lon":"121.38172","lat":"31.13549","category":"159","category_name":"汽车维修","address":"虹莘路1850号"},{"poiid":"B2094757D16AA3F84799","title":"贺绿汀幼儿园","lon":"121.38413985","lat":"31.140654176","category":"57","category_name":"幼儿园","address":"闵行区顾戴路1256号(近龙茗路)"},{"poiid":"B2094655D26AA6F4459B","title":"老北京火锅","lon":"121.36997","lat":"31.12893","category":"86","category_name":"火锅店","address":"闵行区黎安路470号(近水清路)"},{"poiid":"B2094750D56BA3FA4593","title":"平阳苑","lon":"121.383219","lat":"31.134003","category":"47","category_name":"住宅区","address":"闵行平阳路1465弄"},{"poiid":"B2094654DB6AA6FF429A","title":"平吉一村","lon":"121.38234","lat":"31.145792","category":"47","category_name":"住宅区","address":"虹莘路2388弄"},{"poiid":"B2094654DA65A3F4439A","title":"装饰材料(九星综合市场)","lon":"121.37466","lat":"31.14784","category":"123","category_name":"家具建材市场","address":"九星综合市场五金区星中路26幢102号"},{"poiid":"B2094654DB6CA3FA4192","title":"龙茗公寓(西门)","lon":"121.38084","lat":"31.14626","category":"47","category_name":"住宅区","address":"虹莘路2448弄98-161号"},{"poiid":"B2094654DA64A1FE439A","title":"闵行区明星中心小学","lon":"121.37432","lat":"31.12977","category":"56","category_name":"小学","address":""},{"poiid":"B2094654DA64A1F84492","title":"快客(黎安路)","lon":"121.37062","lat":"31.12965","category":"117","category_name":"便民商店/便利店","address":""},{"poiid":"B2094654DA64A1FE4093","title":"黎安人家","lon":"121.37388","lat":"31.128366","category":"47","category_name":"住宅区","address":"黎安人家位于闵行水清路,黎安路口"},{"poiid":"B2094757D568A6F9469D","title":"费涟罗妮都市淑女装","lon":"121.36472439","lat":"31.14425429","category":"141","category_name":"服装鞋帽皮具店","address":"闵行区中谊路330号"},{"poiid":"B2094655D26DA7F54593","title":"合成公寓(西门)","lon":"121.38085","lat":"31.14626","category":"47","category_name":"住宅区","address":"虹莘路2448弄98-161号"},{"poiid":"B2094655D36CA1FF4098","title":"水清路秀文路","lon":"121.37522","lat":"31.12749","category":"38","category_name":"公交车站","address":""},{"poiid":"B2094655D26FABF94792","title":"东苑半岛花园(西门)","lon":"121.38144","lat":"31.13971","category":"656","category_name":"大门","address":""},{"poiid":"B2094654DA65ABFD4298","title":"龙祥嘉园(北门)","lon":"121.38307","lat":"31.13403","category":"47","category_name":"住宅区","address":"平阳路1515弄"},{"poiid":"B2094654DA64A1F94199","title":"好德(水清路)","lon":"121.3747","lat":"31.12904","category":"117","category_name":"便民商店/便利店","address":""},{"poiid":"B2094654DA65A1FD409A","title":"九星路280号办公楼","lon":"121.37382","lat":"31.14962","category":"46","category_name":"楼宇","address":"九星路280号"},{"poiid":"B2094757D168A3F8439A","title":"外高桥第三发电厂","lon":"121.383245857","lat":"31.1379511222","category":"500","category_name":"未知分类","address":"上海市浦东新区杨高北路"},{"poiid":"B2094654DA64A1F9419C","title":"上海益强药房","lon":"121.37453","lat":"31.12935","category":"162","category_name":"医院","address":"水清路1112"},{"poiid":"B2094654DA64A1FA4392","title":"闵行区莘松秀文幼儿园","lon":"121.3774","lat":"31.12973","category":"57","category_name":"幼儿园","address":"闵行区秀文路185号"},{"poiid":"B2094655D26DAAF94492","title":"华城花苑(南门)","lon":"121.38281","lat":"31.14497","category":"47","category_name":"住宅区","address":""},{"poiid":"B2094757D569A2FA429B","title":"吉的堡少儿英语(闵行七莘校)","lon":"121.36331028","lat":"31.13557753","category":"190","category_name":"培训机构","address":"闵行区七莘路1704-1706号(近顾戴路)"},{"poiid":"B2094757D169A4FA4092","title":"苏州 天池山","lon":"121.371641","lat":"31.130095","category":"500","category_name":"未知分类","address":"上海莲花峰"},{"poiid":"B2094757D16FA4FE449E","title":"黎安四村","lon":"121.37524","lat":"31.129057","category":"252","category_name":"楼宇机构","address":"水清路1100弄"},{"poiid":"B2094757D16FA3F5479A","title":"工商银行七莘路支行","lon":"121.362558857","lat":"31.1382621285","category":"150","category_name":"银行","address":"上海市闵行区七莘路1832号"},{"poiid":"B2094654DB69A6F8499C","title":"东方苏荷","lon":"121.36456","lat":"31.14593","category":"47","category_name":"住宅区","address":"闵行区新镇路603弄"},{"poiid":"B2094757D66DA1F4459C","title":"753路顾戴路龙茗路站","lon":"121.384004607","lat":"31.138438382","category":"500","category_name":"未知分类","address":"上海闵行区顾戴路龙茗路口"},{"poiid":"B2094757D065A0F4439E","title":"樱","lon":"121.36185019","lat":"31.136570694","category":"500","category_name":"未知分类","address":"上海七莘路"},{"poiid":"B2094654DA64A1FB459B","title":"紫江集团","lon":"121.36576","lat":"31.13262","category":"263","category_name":"公司","address":""},{"poiid":"B2094757D569A3FB4393","title":"新世纪虹莘幼儿园","lon":"121.382064","lat":"31.13244","category":"57","category_name":"幼儿园","address":"中国上海市闵行区"},{"poiid":"B2094757D568A4F4439A","title":"古美路街道文化站","lon":"121.38256","lat":"31.134382","category":"188","category_name":"文化宫","address":"平阳路1512"},{"poiid":"B2094654DB6CA3FA4598","title":"华城花苑","lon":"121.38233","lat":"31.14579","category":"47","category_name":"住宅区","address":"古美路"},{"poiid":"B2094654DA65ABFD419B","title":"半岛豪门(东门)","lon":"121.38125","lat":"31.13562","category":"656","category_name":"大门","address":"虹莘路1955弄"},{"poiid":"B2094757D16BAAFA4198","title":"串香烧烤","lon":"121.3705572","lat":"31.128205926","category":"247","category_name":"餐饮美食","address":"上海黎安路656号"},{"poiid":"B2094757D66EA2FA469E","title":"华林路华茂路","lon":"121.36167485","lat":"31.140049164","category":"500","category_name":"未知分类","address":"上海七宝"},{"poiid":"B2094655D268A5FD439A","title":"中国邮政储蓄银行(虹莘路)","lon":"121.38026","lat":"31.14691","category":"150","category_name":"银行","address":""},{"poiid":"B2094654DA65A0FE4898","title":"青龙茗茶","lon":"121.37797","lat":"31.14805","category":"255","category_name":"专卖店","address":"九星综合市场茶叶市场17幢39号"},{"poiid":"B2094757D16FA2F84092","title":"One piece","lon":"121.38166985","lat":"31.146557294","category":"500","category_name":"未知分类","address":"上海新大陆"},{"poiid":"B2094757D16AA0F5459F","title":"东苑半岛广场游乐场","lon":"121.384729947","lat":"31.1391928571","category":"500","category_name":"未知分类","address":"上海顾戴路1178弄30号(半岛皇宫前)"},{"poiid":"B2094655D265AAFD429B","title":"闵行九星小额贷款股份有限公司","lon":"121.38048","lat":"31.14618","category":"263","category_name":"公司","address":"虹莘路2845号"},{"poiid":"B2094757D16DA7FF499F","title":"顾戴路龙茗路叠翠江南","lon":"121.384616","lat":"31.137751","category":"500","category_name":"未知分类","address":"上海顾戴路1325弄"},{"poiid":"B2094654DA65A1FC4992","title":"七宝工商所市场监管组","lon":"121.37382","lat":"31.14962","category":"250","category_name":"公园户外","address":"九星路280号九星路280号办公楼212"},{"poiid":"B2094757D169A1FB4092","title":"疲惫不堪","lon":"121.367183257","lat":"31.130404521","category":"500","category_name":"未知分类","address":"上海我不是在忙就是在去忙的路上。。。"},{"poiid":"B2094752D06BA6F84793","title":"上海动物园","lon":"121.37635","lat":"31.149475","category":"500","category_name":"未知分类","address":null},{"poiid":"B2094655D36DA2F8459B","title":"外环友谊河桥","lon":"121.38131","lat":"31.13069","category":"250","category_name":"公园户外","address":""},{"poiid":"B2094654DA65A1FC4893","title":"上海九星综合市场经营管理有限公司(九星路)","lon":"121.37342","lat":"31.14957","category":"263","category_name":"公司","address":"九星综合市场九星路288号"},{"poiid":"B2094757D16BA5FF4192","title":"黎安会所","lon":"121.37314685","lat":"31.128424931","category":"500","category_name":"未知分类","address":"上海市闵行区黎安路"},{"poiid":"B2094654DA65A1F4449F","title":"上海九星综合市场经营管理有限公司塘家湾管理区","lon":"121.37859","lat":"31.14825","category":"263","category_name":"公司","address":""},{"poiid":"B2094757D16AA0FB439C","title":"祥龙宠物店","lon":"121.36777135","lat":"31.129664456","category":"249","category_name":"购物服务","address":"上海水清路"},{"poiid":"B2094757D06BA6F4499D","title":"公交763香树丽舍站","lon":"121.375226","lat":"31.127494","category":"500","category_name":"未知分类","address":"上海水清路秀文路"},{"poiid":"B2094655D26FABF9479D","title":"东苑半岛花园(北门)","lon":"121.38401","lat":"31.14164","category":"656","category_name":"大门","address":""},{"poiid":"B2094654DA65A1FC489D","title":"上海九星实业有限公司","lon":"121.37343","lat":"31.14957","category":"263","category_name":"公司","address":"九星综合市场九星路288号"},{"poiid":"B2094757D66DA2F54599","title":"求毁灭啊啊啊啊啊……","lon":"121.370311636","lat":"31.1282213522","category":"500","category_name":"未知分类","address":"上海睡不着。"},{"poiid":"B2094757D16EA2F9429E","title":"沙沙家","lon":"121.37158785","lat":"31.12836593","category":"500","category_name":"未知分类","address":null},{"poiid":"B2094655D26DA7F54293","title":"平吉二村(南门)","lon":"121.38403","lat":"31.14202","category":"656","category_name":"大门","address":""},{"poiid":"B2094757D569A0FB4393","title":"紫江集团研发中心","lon":"121.3648639","lat":"31.13147333","category":"191","category_name":"科研机构","address":"七莘路1478号"},{"poiid":"B2094654DB64A2FB439D","title":"江南星城叠翠江南(北门)","lon":"121.38461","lat":"31.13775","category":"656","category_name":"大门","address":"顾戴路1325弄1-123号"},{"poiid":"B2094654DB6CA3FA419D","title":"平吉二村(北门)","lon":"121.38296","lat":"31.1446","category":"656","category_name":"大门","address":"古美路"},{"poiid":"B2094654DA65ABFD419F","title":"平阳三村(西门)","lon":"121.38267","lat":"31.13255","category":"656","category_name":"大门","address":"虹莘路1700弄"}]