[{"poiid":"B2094757D06FA2F5429A","title":"大胡子牛羊肉火锅馆","lon":"121.52273","lat":"31.27969","category":"86","category_name":"火锅店","address":"杨浦区凤城路156号(近延吉西路)"},{"poiid":"B2094757D06EAAFA479F","title":"黄兴路地铁站","lon":"121.528039","lat":"31.278636","category":"36","category_name":"地铁站","address":"上海轨道交通 八号线 轨交黄兴路站 8"},{"poiid":"B2094757D465ABFD489F","title":"捞王猪肚鸡 控江店","lon":"121.522972","lat":"31.27797","category":"86","category_name":"火锅店","address":"杨浦区本溪路23号"},{"poiid":"B2094757D06FA6F94098","title":"金海岸上海演艺大舞台","lon":"121.5278","lat":"31.27842","category":"179","category_name":"音乐厅","address":"上海杨浦区控江路1155号(黄兴路)  "},{"poiid":"B2094757D064A2FA4993","title":"黄兴路控江路","lon":"121.5262571","lat":"31.277439568","category":"500","category_name":"未知分类","address":"上海老诚一锅"},{"poiid":"B2094757D068A2FB479F","title":"田园烧烤韩国料理店","lon":"121.52521","lat":"31.27974","category":"96","category_name":"韩国料理","address":"杨浦区黄兴路890号(近延吉路)"},{"poiid":"B2094757D068A3F9439F","title":"东方名园","lon":"121.52525","lat":"31.280867","category":"47","category_name":"住宅区","address":"上海市虹口区新市南路780号"},{"poiid":"B2094757D06FA7FA4792","title":"大桶大足浴(本溪店)","lon":"121.5238","lat":"31.27807","category":"149","category_name":"洗浴推拿场所","address":"杨浦区本溪路11号(凤城路口)"},{"poiid":"B2094757D16CA7F4439C","title":"黄兴路控江路站(公交8,522,538,723,819,842,桥三)","lon":"121.52486981","lat":"31.2793732912","category":"500","category_name":"未知分类","address":"上海市杨浦区黄兴路控江路"},{"poiid":"B2094655D26CA5FB4992","title":"杨浦职业技术学院凤城校区","lon":"121.52423","lat":"31.27844","category":"54","category_name":"职业技术学校","address":"凤城路50"},{"poiid":"B2094757D069A1FA469A","title":"上海外国语大学附属双语学校","lon":"121.52723","lat":"31.28009","category":"253","category_name":"校园生活","address":"杨浦区永吉路351号(近靖宇南路)"},{"poiid":"B2094757D168A4FF439C","title":"沪碟 汇味馆","lon":"121.526538","lat":"31.281765","category":"76","category_name":"上海菜","address":"上海杨浦区延吉中路423号(近靖宇南路)  "},{"poiid":"B2094750D665A3FA459B","title":"鼎中鼎澳门豆捞(黄兴路店)","lon":"121.524","lat":"31.2818","category":"86","category_name":"火锅店","address":"杨浦区黄兴路1100号(近延吉中路)"},{"poiid":"B2094757D16BA0FF4599","title":"地铁八号线人民广场站","lon":"121.521642103","lat":"31.2798146186","category":"500","category_name":"未知分类","address":"上海西藏中路福州路"},{"poiid":"B2094757D068A6FA4892","title":"K8桌球","lon":"121.52479","lat":"31.28035","category":"171","category_name":"台球厅","address":"杨浦区黄兴路888号2楼(近延吉路)"},{"poiid":"B2094757D16CA0FD4093","title":"大唐人家老北京火锅","lon":"121.524585363","lat":"31.2803214692","category":"247","category_name":"餐饮美食","address":"上海杨浦区凤城路"},{"poiid":"B2094757D06AA1F9469E","title":"捞王 锅物料理","lon":"121.523190103","lat":"31.2799206208","category":"247","category_name":"餐饮美食","address":"上海市杨浦区本溪路(近凤城路)"},{"poiid":"B2094654D56EABFE439B","title":"豪享来上海本溪店","lon":"121.523","lat":"31.282","category":"247","category_name":"餐饮美食","address":"上海市杨浦区本溪路49-51.53-55号"},{"poiid":"B2094757D06AA7F8439C","title":"上海师范大学杨浦校区","lon":"121.5257901","lat":"31.279840619","category":"52","category_name":"高等院校","address":"上海市杨浦区凤城路"},{"poiid":"B2094757D06BA1F94898","title":"黄兴路延吉中路(控江新村)站","lon":"121.5253401","lat":"31.279549613","category":"38","category_name":"公交车站","address":"上海杨浦区黄兴路延吉中路(723,8,819路)"},{"poiid":"B2094757D06FA6FF409E","title":"老四烧烤(凤城路店)","lon":"121.52339","lat":"31.2788","category":"247","category_name":"餐饮美食","address":"上海杨浦区凤城路78号(近本溪路)  "},{"poiid":"B2094750D76DA1F5479E","title":"阿三生煎馆(黄兴路店)","lon":"121.524","lat":"31.2811","category":"68","category_name":"快餐厅","address":"杨浦区黄兴路1019弄13号(延吉东路口)"},{"poiid":"B2094750DA6FAAFE409F","title":"沪湘汇","lon":"121.527633","lat":"31.278484","category":"77","category_name":"湖南菜","address":"杨浦区控江路1200号(近靖宇南路)"},{"poiid":"B2094654D56FA5FA469F","title":"控江路1200弄小区","lon":"121.52623","lat":"31.27841","category":"47","category_name":"住宅区","address":"上海控江路1200弄(靠近黄兴路)"},{"poiid":"B2094655D26EA2FD499E","title":"黄兴路995弄小区(东门)","lon":"121.52458","lat":"31.27948","category":"47","category_name":"住宅区","address":"黄兴路995弄"},{"poiid":"B2094654D56EABFD4598","title":"光明便利No.468","lon":"121.52446","lat":"31.27983","category":"117","category_name":"便民商店/便利店","address":"黄兴路1005"},{"poiid":"B2094654D56FA5FB489A","title":"紫罗兰家苑(西门)","lon":"121.52626","lat":"31.28109","category":"656","category_name":"大门","address":""},{"poiid":"B2094654D56FA5FA499F","title":"控江二村","lon":"121.52566","lat":"31.279613","category":"47","category_name":"住宅区","address":"控江二村55号-74号"},{"poiid":"B2094757D468ABF5449C","title":"清真兰州牛肉拉面 黄兴路店","lon":"121.52404","lat":"31.28066","category":"68","category_name":"快餐厅","address":"杨浦区黄兴路1029号(近延吉西路)"},{"poiid":"B2094757D068A4FA4499","title":"延吉西路黄兴路站","lon":"121.522603","lat":"31.280756","category":"38","category_name":"公交车站","address":"上海延吉西路34号(115,713路)"},{"poiid":"B2094655D26CA5FD4399","title":"黄兴路1019弄小区(东门)","lon":"121.52436","lat":"31.27997","category":"47","category_name":"住宅区","address":"黄兴路1019弄"},{"poiid":"B2094655D26CA5F9489E","title":"黄兴路995弄小区","lon":"121.52438","lat":"31.27929","category":"47","category_name":"住宅区","address":"黄兴路995弄"},{"poiid":"B2094655D26AA0FA4192","title":"地铁黄兴路站","lon":"121.52803","lat":"31.27865","category":"36","category_name":"地铁站","address":""},{"poiid":"B2094654D56EABFC459A","title":"刘记面馆","lon":"121.522383054","lat":"31.279984793","category":"68","category_name":"快餐厅","address":"杨浦区凤城路96号(近本溪路)"},{"poiid":"B2094757D16FA5F8419B","title":"季欣蓝烘焙坊(永吉路店)","lon":"121.52691","lat":"31.28015","category":"67","category_name":"甜品店","address":"杨浦区永吉路327号(双语学校旁)"},{"poiid":"B2094757D069A3FD4593","title":"靖宇南路控江路站","lon":"121.52691944","lat":"31.27927266","category":"38","category_name":"公交车站","address":"上海杨浦区靖宇南路(公交90路终点站)"},{"poiid":"B2094757D06AA7F8429C","title":"橘子熟了","lon":"121.526404274","lat":"31.2807554509","category":"76","category_name":"上海菜","address":"杨浦区永吉路408号(近靖宇南路)"},{"poiid":"B2094654D56EA0F94292","title":"卫百辛大厦","lon":"121.522","lat":"31.2803","category":"46","category_name":"楼宇","address":"上海市奉贤区南奉公路8515"},{"poiid":"B2094757D16FA6FC429D","title":"人生若只如初见","lon":"121.5245151","lat":"31.279296607","category":"500","category_name":"未知分类","address":"上海市杨浦区"},{"poiid":"B2094751D465A6F94798","title":"麦当劳(控江吉买盛店)","lon":"121.52518879895024","lat":"31.27769055947462","category":"68","category_name":"快餐厅","address":"杨浦区控江路1063号吉买盛超市1楼(近源泉路)"},{"poiid":"B2094757D169A0F44392","title":"双子座","lon":"121.524985103","lat":"31.279976622","category":"500","category_name":"未知分类","address":"上海星座秘语"},{"poiid":"B2094757D06AA2F4429A","title":"南翔馒头店(本溪路店)","lon":"121.52364","lat":"31.27785","category":"68","category_name":"快餐厅","address":"杨浦区本溪路57号(近凤城路)"},{"poiid":"B2094654D56EABFD469B","title":"君君网吧","lon":"121.52481","lat":"31.27902","category":"176","category_name":"网吧","address":"黄兴路991号2层"},{"poiid":"B2094654D56FA5FA499C","title":"控江二村(东门)","lon":"121.52634","lat":"31.28004","category":"47","category_name":"住宅区","address":"控江二村55号-74号"},{"poiid":"B2094655D265A0FF439C","title":"台球俱乐部","lon":"121.5247","lat":"31.28066","category":"171","category_name":"台球厅","address":""},{"poiid":"B2094750D365A4F8409B","title":"归属DIY烘培坊","lon":"121.527122","lat":"31.280973","category":"112","category_name":"糕饼店","address":"杨浦区永吉路349号"},{"poiid":"B2094757D569A3FE4199","title":"克莉丝汀靖宇南路店","lon":"121.527015","lat":"31.279405","category":"112","category_name":"糕饼店","address":"杨浦区靖宇南路5号(近控江路)"},{"poiid":"B2094757D064A0FE4493","title":"公交115路","lon":"121.526222229","lat":"31.2784633636","category":"38","category_name":"公交车站","address":"延吉东路靖宇东路—上海火车站北广场"},{"poiid":"B2094757D064AAFD4099","title":"延吉西路81弄","lon":"121.525806103","lat":"31.2799416212","category":"500","category_name":"未知分类","address":"上海市杨浦区延吉西路81弄"},{"poiid":"B2094654DB6BA2FC459B","title":"小绍兴本溪店","lon":"121.52241","lat":"31.27778","category":"68","category_name":"快餐厅","address":"杨浦区本溪路37号(近凤城路)"},{"poiid":"B2094757D16BA0FF459F","title":"阿四烤鱼","lon":"121.52313","lat":"31.27815","category":"68","category_name":"快餐厅","address":"杨浦区凤城路(近本溪路)"},{"poiid":"B2094757D66DA1FD4492","title":"国家电网控江路","lon":"121.5255795","lat":"31.279116104","category":"500","category_name":"未知分类","address":"上海杨浦区控江路1080号(近源泉路)"},{"poiid":"B2094654DB6AA3F44393","title":"克丽缇娜延吉店","lon":"121.5246","lat":"31.28111","category":"148","category_name":"美容美发店","address":"杨浦区延吉中路561号(近黄兴路)"},{"poiid":"B2094757D06BAAFD429A","title":"酷烫百变美容美发(延吉中路一店)","lon":"121.52569","lat":"31.28116","category":"148","category_name":"美容美发店","address":"杨浦区延吉中路545号(近靖宇南路)"},{"poiid":"B2094655D26CA5FE4793","title":"凤城路104弄小区","lon":"121.52323","lat":"31.27941","category":"47","category_name":"住宅区","address":"上海凤城路104弄"},{"poiid":"B2094654D56FA5FB479F","title":"永琪美容美发(延吉中路)","lon":"121.52642","lat":"31.28174","category":"148","category_name":"美容美发店","address":"杨浦区延吉中路427号"},{"poiid":"B2094757D06AA7FD419E","title":"控江路黄兴路站(公交6,169,220,870,桥四)","lon":"121.526951","lat":"31.277892","category":"38","category_name":"公交车站","address":"上海市杨浦区控江路黄兴路"},{"poiid":"B2094655D36CA1F5419D","title":"控江路黄兴路","lon":"121.52657","lat":"31.27783","category":"38","category_name":"公交车站","address":""},{"poiid":"B2094757D16FA4FD449D","title":"香秀空间国际美容健康养生馆(黄兴店)","lon":"121.5248","lat":"31.28082","category":"148","category_name":"美容美发店","address":"杨浦区延吉中路565号(近黄兴路)"},{"poiid":"B2094654D56EABFD439C","title":"好德No.009","lon":"121.52375","lat":"31.2809","category":"117","category_name":"便民商店/便利店","address":"延吉西路3临"},{"poiid":"B2094655D26CA5FE489B","title":"杨浦职业技术学院凤城校区(西门)","lon":"121.52378","lat":"31.278","category":"678","category_name":"学校大门","address":"凤城路50"},{"poiid":"B2094757D16FA3FB449E","title":"14路公交站","lon":"121.52343397","lat":"31.278513854","category":"38","category_name":"公交车站","address":"上海抚顺路"},{"poiid":"B2094655D26EA2F5479D","title":"新凤城银座","lon":"121.52325","lat":"31.277948","category":"47","category_name":"住宅区","address":"凤城路51弄"},{"poiid":"B2094757D66FA6FC4893","title":"控江街道调委会","lon":"121.5261046","lat":"31.2810057","category":"46","category_name":"楼宇","address":"上海杨浦区靖宇南路99弄17号"},{"poiid":"B2094757D16CA5F4449C","title":"宠物圣域","lon":"121.523796636","lat":"31.2796669821","category":"129","category_name":"宠物用品店","address":"上海杨浦区凤城路101弄"},{"poiid":"B2094757D16EABF44292","title":"Du's ","lon":"121.524283103","lat":"31.2804536319","category":"500","category_name":"未知分类","address":"上海楊浦區黃興路"},{"poiid":"B2094757D16CA1FD459E","title":"上海师范大学青年学院","lon":"121.5253391","lat":"31.278646594","category":"500","category_name":"未知分类","address":"上海虹口区西江湾路574号"},{"poiid":"B2094654DB65A3FA419E","title":"上海市靖宇中学","lon":"121.52695","lat":"31.27963","category":"55","category_name":"中学","address":"杨浦区靖宇南路11号"},{"poiid":"B2094655D26FA6FD4992","title":"华联超市(凤城路店)","lon":"121.52314","lat":"31.27922","category":"118","category_name":"超级市场","address":"凤城路80号"},{"poiid":"B2094655D26FA7FD409F","title":"沪东科技进修学院(东门)","lon":"121.5227","lat":"31.27937","category":"678","category_name":"学校大门","address":"凤城路101"},{"poiid":"B2094654D56EABFE439A","title":"蜀香门第川菜馆","lon":"121.52235","lat":"31.27776","category":"71","category_name":"四川菜","address":"杨浦区本溪路49号(近凤城路)"},{"poiid":"B2094757D16AABFF439D","title":"小桑桑【马棚】","lon":"121.525564103","lat":"31.278640594","category":"500","category_name":"未知分类","address":"上海市杨浦区控江路黄兴路"},{"poiid":"B2094757D16CAAF5499F","title":"伍缘","lon":"121.52667999","lat":"31.279745101","category":"117","category_name":"便民商店/便利店","address":"杨浦区阜新路95号(近打虎山路)"},{"poiid":"B2094757D16AA6FD419E","title":"黄兴路619弄","lon":"121.523683603","lat":"31.2796759157","category":"500","category_name":"未知分类","address":"上海黄兴路619弄"},{"poiid":"B2094757D16EA1F84893","title":"Daniel's Home","lon":"121.5256571","lat":"31.278558592","category":"500","category_name":"未知分类","address":null},{"poiid":"B2094655D26DA5FA439A","title":"黄兴路1039弄小区","lon":"121.52305","lat":"31.28046","category":"47","category_name":"住宅区","address":""},{"poiid":"B2094757D66DA2FE479E","title":"罗记川味麻辣烫(凤城路店)","lon":"121.52428","lat":"31.27719","category":"68","category_name":"快餐厅","address":"杨浦区凤城路(近延吉西路)"},{"poiid":"B2094750DB6EA6F5409F","title":"地铁8号线","lon":"121.522941","lat":"31.279811","category":"627","category_name":"一般地点标志","address":"鞍山新村"},{"poiid":"B2094654D56FA5FA4698","title":"永乐家电生活电器卖场杨浦店","lon":"121.52643","lat":"31.2774","category":"138","category_name":"家电电子卖场","address":"上海市杨浦区控江路1211号"},{"poiid":"B2094757D069A1FF4699","title":"朱鸿兴苏州汤包馆 延吉中路店","lon":"121.524896054","lat":"31.281663793","category":"76","category_name":"上海菜","address":"杨浦区延吉中路401号(近靖宇南路)"},{"poiid":"B2094655D26CA5FB499F","title":"凤城路104弄小区(西门)","lon":"121.52297","lat":"31.27946","category":"47","category_name":"住宅区","address":"凤城路104弄"},{"poiid":"B2094654D56EABFF4093","title":"上焊大楼","lon":"121.527","lat":"31.2811","category":"46","category_name":"楼宇","address":"控江路1531号"},{"poiid":"B2094757D16BA1F5409D","title":"美豪阁大碗面","lon":"121.52642","lat":"31.28165","category":"68","category_name":"快餐厅","address":"杨浦区延吉中路280号(靖宇南路延吉中路)"},{"poiid":"B2094757D06AA1FA4692","title":"中国邮政黄兴路邮政所","lon":"121.52409362","lat":"31.280546188","category":"500","category_name":"未知分类","address":"上海杨浦区黄兴路1027号"},{"poiid":"B2094655D26CA5FB499D","title":"凤城路91弄小区(东门)","lon":"121.52299","lat":"31.27903","category":"47","category_name":"住宅区","address":"凤城路91弄"},{"poiid":"B2094654D56EABFE4299","title":"快客(凤城路)","lon":"121.52348","lat":"31.27802","category":"117","category_name":"便民商店/便利店","address":"凤城路61-63"},{"poiid":"B2094654D56EABFE429D","title":"申之春(本溪路)","lon":"121.5232","lat":"31.27806","category":"148","category_name":"美容美发店","address":""},{"poiid":"B2094757D06BA6FB419A","title":"老城隍庙小吃","lon":"121.52724","lat":"31.2792","category":"247","category_name":"餐饮美食","address":"上海杨浦区靖宇南路9号(近控江路)  "},{"poiid":"B2094757D16AA6FC4999","title":"鑫凤台球棋牌俱乐部","lon":"121.523595","lat":"31.278328","category":"171","category_name":"台球厅","address":"上海凤城路50号"},{"poiid":"B2094654DB65A2F8409C","title":"上海工程技术大学继续教育学院沪东科技教学点","lon":"121.52239","lat":"31.27928","category":"52","category_name":"高等院校","address":"杨浦区凤城路101"},{"poiid":"B2094757D064A1F8479A","title":"延吉中路双阳路","lon":"121.526817103","lat":"31.2814666531","category":"38","category_name":"公交车站","address":"上海市杨浦区延吉中路365弄"},{"poiid":"B2094655D26CA6F94698","title":"靖宇南路5弄小区(西门)","lon":"121.5271","lat":"31.27928","category":"47","category_name":"住宅区","address":""},{"poiid":"B2094751D269A4FE4493","title":"上海兴荣温德姆酒店","lon":"121.523834","lat":"31.279253","category":"251","category_name":"出行住宿","address":"杨浦区宁国路23号"},{"poiid":"B2094655D26CA5FE489E","title":"良友金伴(凤城路)","lon":"121.52339","lat":"31.2779","category":"117","category_name":"便民商店/便利店","address":""},{"poiid":"B2094655D26CA5FE489A","title":"凤城路91弄小区","lon":"121.52286","lat":"31.27886","category":"47","category_name":"住宅区","address":"凤城路91弄"},{"poiid":"B2094757D165AAFC419E","title":"上海爱德双语艺术幼稚园","lon":"121.526515663","lat":"31.2793475688","category":"500","category_name":"未知分类","address":"上海延吉中路隆昌路"},{"poiid":"B2094655D36DA0F84599","title":"延吉中路黄兴路","lon":"121.52613","lat":"31.28185","category":"38","category_name":"公交车站","address":""},{"poiid":"B2094757D16EA0F5489F","title":"不是爱不起 只是伤不起","lon":"121.5248731","lat":"31.281009643","category":"500","category_name":"未知分类","address":"上海市杨浦区"},{"poiid":"B2094655D26FA0F84098","title":"中国建设银行上海黄兴路支行","lon":"121.52457","lat":"31.28105","category":"150","category_name":"银行","address":"杨浦区延吉中路569号(黄兴路延吉中路)"},{"poiid":"B2094654DB65A0F9489F","title":"上海3D学院","lon":"121.52239","lat":"31.27929","category":"52","category_name":"高等院校","address":"杨浦区凤城路101号沪东科技进修学院A楼302室"},{"poiid":"B2094654DB64A4FC4992","title":"上海师范大学继续教育学院沪东科技教学点","lon":"121.52239","lat":"31.27928","category":"52","category_name":"高等院校","address":"凤城路101"},{"poiid":"B2094757D064A0F44392","title":"靖宇南路控江路书报亭","lon":"121.52671051","lat":"31.27916336","category":"500","category_name":"未知分类","address":"上海杨浦区控江路靖宇南路路口"},{"poiid":"B2094654D56FA5FB4999","title":"翔宇游艺","lon":"121.52467","lat":"31.28071","category":"173","category_name":"游戏厅","address":"黄兴路886"},{"poiid":"B2094757D165ABFD479A","title":"黄山汤圆馄饨","lon":"121.521703103","lat":"31.2796256146","category":"68","category_name":"快餐厅","address":"杨浦区凤城路158号(近延吉西路)"},{"poiid":"B2094757D16BA5FF429B","title":"绝味鸭脖 延吉中路","lon":"121.524947","lat":"31.28165","category":"247","category_name":"餐饮美食","address":"上海延吉中路312号"},{"poiid":"B2094654D56FA5FB479C","title":"苓子茶室","lon":"121.52612","lat":"31.28167","category":"66","category_name":"茶艺馆","address":""},{"poiid":"B2094654D56FA5FB4899","title":"酷烫百变源美国际NO.68","lon":"121.52558","lat":"31.28149","category":"148","category_name":"美容美发店","address":""},{"poiid":"B2094655D26CA6F94699","title":"靖宇南路5弄小区","lon":"121.52751","lat":"31.27944","category":"47","category_name":"住宅区","address":"靖宇南路5弄"},{"poiid":"B2094757D168A1F54498","title":"农田鸡特色私家菜","lon":"121.522674","lat":"31.280813","category":"247","category_name":"餐饮美食","address":"上海延吉西路凤城路"},{"poiid":"B2094757D16CA6FC499F","title":"麦迪发型设计中心","lon":"121.52415","lat":"31.27753","category":"148","category_name":"美容美发店","address":"杨浦区凤城路51弄新凤城银座3号(近本溪路)"},{"poiid":"B2094654D56FA5FB4793","title":"自然美(延吉中路)","lon":"121.526","lat":"31.28148","category":"148","category_name":"美容美发店","address":"延吉中路459"},{"poiid":"B2094655D264ABF5439F","title":"鑫凤桌球俱乐部","lon":"121.52399","lat":"31.27767","category":"171","category_name":"台球厅","address":""},{"poiid":"B2094757D065A0FB4193","title":"凤城路91弄","lon":"121.5230401","lat":"31.279013601","category":"500","category_name":"未知分类","address":"上海市杨浦区凤城路91弄"},{"poiid":"B2094752D168A2F44999","title":"一茶一座","lon":"121.522853","lat":"31.280876","category":"47","category_name":"住宅区","address":null},{"poiid":"B2094757D16CA4FD449D","title":"外灘隧道吳淞路出口","lon":"121.527072","lat":"31.277839","category":"500","category_name":"未知分类","address":"上海周家嘴路吳淞路"},{"poiid":"B2094757D168A5FD4499","title":"凤城路烧烤小吃","lon":"121.52359","lat":"31.2775","category":"247","category_name":"餐饮美食","address":"上海杨浦区凤城路65号(近本溪路)  "},{"poiid":"B2094757D06BA7F5409D","title":"紫罗兰家苑","lon":"121.5272","lat":"31.281399","category":"500","category_name":"未知分类","address":"上海延吉中路365弄"},{"poiid":"B2094654D56FA5FA4693","title":"快客(控江路)","lon":"121.52686","lat":"31.2777","category":"117","category_name":"便民商店/便利店","address":""},{"poiid":"B2094757DB6CAAFA4692","title":"日月光","lon":"121.52734","lat":"31.27883","category":"500","category_name":"未知分类","address":"日月光"},{"poiid":"B2094654D56EABFE419E","title":"阳普凤城菜市场No.08","lon":"121.5242","lat":"31.27728","category":"117","category_name":"便民商店/便利店","address":""},{"poiid":"B2094654D56FA5FA469E","title":"控江大楼","lon":"121.5267","lat":"31.277533","category":"47","category_name":"住宅区","address":"控江路1209号"},{"poiid":"B2094757DA6EABFF459E","title":"上海音福乐器有限公司","lon":"121.526481999999","lat":"31.2805988000002","category":"263","category_name":"公司","address":null},{"poiid":"B2094750D268A6F94092","title":"唐宫海鲜坊","lon":"121.527343","lat":"31.277553","category":"247","category_name":"餐饮美食","address":"唐宫海鲜坊"},{"poiid":"B2094655D26CA5FD419A","title":"控江路1197弄小区(北门)","lon":"121.52725","lat":"31.27801","category":"47","category_name":"住宅区","address":""},{"poiid":"B2094654D56EABFD429B","title":"可的(延吉西路)","lon":"121.52183","lat":"31.28059","category":"117","category_name":"便民商店/便利店","address":"延吉西路"},{"poiid":"B2094654DB6BA2F94399","title":"鑫鑫台球游艺吧","lon":"121.52613","lat":"31.28167","category":"171","category_name":"台球厅","address":""},{"poiid":"B2094654D56EABFD489D","title":"汇泰公司上海制伞六厂销售部","lon":"121.5253","lat":"31.2775","category":"255","category_name":"专卖店","address":"控江路1434"},{"poiid":"B2094654D56EABFD419F","title":"培青综合商店","lon":"121.5223","lat":"31.2807","category":"117","category_name":"便民商店/便利店","address":"延吉西路48临"},{"poiid":"B2094654D56FA5FB489D","title":"东方名园(北门)","lon":"121.52516","lat":"31.28133","category":"656","category_name":"大门","address":"延吉中路555弄1-18号"},{"poiid":"B2094654D56EABFC449E","title":"杨浦区社区教育实验中心","lon":"121.52239","lat":"31.27928","category":"252","category_name":"楼宇机构","address":"凤城路101"},{"poiid":"B2094655D265AAFE429D","title":"上海名屋美容美发店","lon":"121.52522","lat":"31.28271","category":"148","category_name":"美容美发店","address":"靖宇南路116"},{"poiid":"B2094654D56FA5FB409B","title":"意绿王干洗上海永吉路店","lon":"121.52694","lat":"31.28059","category":"249","category_name":"购物服务","address":"杨浦区永吉路353号(靖宇南路永吉路)"},{"poiid":"B2094757D169A0FE4392","title":"百变造型女子养身SPA会馆","lon":"121.5259","lat":"31.28158","category":"148","category_name":"美容美发店","address":"杨浦区延吉中路541号-5454号(近靖宇南路)"},{"poiid":"B2094654D56FA5FB489B","title":"东方名园(东门)","lon":"121.52615","lat":"31.28056","category":"656","category_name":"大门","address":""},{"poiid":"B2094655D26FA7FE449F","title":"凤城三村小区(南一门)","lon":"121.52214","lat":"31.28066","category":"656","category_name":"大门","address":"延吉西路80弄"},{"poiid":"B2094655D265A0FE4592","title":"鑫麒坊","lon":"121.52822","lat":"31.27922","category":"257","category_name":"中餐厅","address":""},{"poiid":"B2094655D26EA3FD4092","title":"日月茶楼","lon":"121.5269","lat":"31.28093","category":"260","category_name":"其他","address":"杨浦区永吉路380号(靖宇南路永吉路)"},{"poiid":"B2094757D06AA2FD499A","title":"6路 黄兴路站","lon":"121.52695","lat":"31.277892","category":"500","category_name":"未知分类","address":"上海控江路黄兴路"},{"poiid":"B2094757D16AA6FF479B","title":"靖宇南路菜场","lon":"121.526748657","lat":"31.2793750763","category":"260","category_name":"其他","address":"上海靖宇南路"},{"poiid":"B2094757D16DABFE429E","title":"天天加分小鲸鱼婴儿游泳馆(延吉中路店)","lon":"121.52648","lat":"31.28142","category":"500","category_name":"未知分类","address":"杨浦区延吉中路435号(近靖宇南路)"},{"poiid":"B2094654D56EABF94692","title":"江浦路1275弄小区","lon":"121.525","lat":"31.2763","category":"47","category_name":"住宅区","address":"江浦路1275弄10-15号"},{"poiid":"B2094757D16AA0F54892","title":"周家嘴路公平路","lon":"121.5220561","lat":"31.279367609","category":"500","category_name":"未知分类","address":"上海周家嘴路公平路"},{"poiid":"B2094757D568A7F9419C","title":"有滋有味酱菜调味品","lon":"121.524968","lat":"31.276776","category":"117","category_name":"便民商店/便利店","address":"杨浦区控江路1445号(近凤城路)"},{"poiid":"B2094654D56FA5FF429B","title":"延吉中路320弄小区(南门)","lon":"121.5249","lat":"31.28157","category":"656","category_name":"大门","address":"延吉中路320弄"},{"poiid":"B2094654D56EABFD4893","title":"四平综合商店","lon":"121.52526","lat":"31.27745","category":"248","category_name":"生活娱乐","address":"控江路1434"},{"poiid":"B2094654D56FA5FA469A","title":"中国农业银行杨浦区黄兴路支行","lon":"121.52658","lat":"31.2771","category":"150","category_name":"银行","address":"黄兴路570-572号"},{"poiid":"B2094654DB6BA2FC449F","title":"凤城三村小区(南二门)","lon":"121.52328","lat":"31.28102","category":"656","category_name":"大门","address":""},{"poiid":"B2094757D164A0F44492","title":"863路新港路大连路","lon":"121.5221231","lat":"31.279689616","category":"500","category_name":"未知分类","address":"上海新港路3号"},{"poiid":"B2094757D16FA2FA479B","title":"昆山路乍浦路","lon":"121.5217531","lat":"31.27943661","category":"500","category_name":"未知分类","address":"上海昆山路乍浦路"},{"poiid":"B2094655D26DA5FE499E","title":"控江路1200弄小区(东二门)","lon":"121.52679","lat":"31.27927","category":"656","category_name":"大门","address":""},{"poiid":"B2094654D56EABFD4192","title":"云云足浴","lon":"121.52198","lat":"31.28065","category":"149","category_name":"洗浴推拿场所","address":"延吉西路50-2临"},{"poiid":"B2094654D56FA5FA479B","title":"白云咖啡屋","lon":"121.52678503479","lat":"31.277791692628","category":"260","category_name":"其他","address":"杨浦区控江路(老诚一锅旁)"},{"poiid":"B2094655D26DA5F8459C","title":"控江路1200弄小区(东门)","lon":"121.52696","lat":"31.27891","category":"656","category_name":"大门","address":""},{"poiid":"B2094757D06AA1F8469E","title":"延吉西路","lon":"121.52307146","lat":"31.28087813","category":"260","category_name":"其他","address":"上海延吉西路81弄"},{"poiid":"B2094757D66EA7F94198","title":"侧耳倾听","lon":"121.527455","lat":"31.281035","category":"500","category_name":"未知分类","address":"上海the way to L"},{"poiid":"B2094757D16CA1FB439A","title":"公交842路","lon":"121.5217831","lat":"31.279658615","category":"500","category_name":"未知分类","address":"上海方向 工农新村"},{"poiid":"B2094655D26CA5F44098","title":"新凤城银座(东门)","lon":"121.52365","lat":"31.27782","category":"656","category_name":"大门","address":"凤城路51弄"},{"poiid":"B2094655D26CA5FE4792","title":"黄兴路1039弄小区(西门)","lon":"121.52267","lat":"31.27984","category":"656","category_name":"大门","address":""},{"poiid":"B2094757D06BA7FA4292","title":"华夏银行(杨浦支行)","lon":"121.526788835","lat":"31.2778184199","category":"260","category_name":"其他","address":"上海杨浦区控江路1207号"},{"poiid":"B2094757D66CA6F44799","title":"环球延吉中路店","lon":"121.526453","lat":"31.281955","category":"500","category_name":"未知分类","address":"上海延吉中路黄兴路"},{"poiid":"B2094750D268A1FA4893","title":"挤死人的8号线","lon":"121.525505","lat":"31.282472","category":"500","category_name":"未知分类","address":"牛x的8号线"},{"poiid":"B2094654D56FA5FA469C","title":"控江路1200弄小区(南门)","lon":"121.52633","lat":"31.27809","category":"656","category_name":"大门","address":""},{"poiid":"B2094655D264ABF5439E","title":"思灵棋牌室","lon":"121.52423","lat":"31.27721","category":"175","category_name":"棋牌室","address":"凤城路40-1临2层"},{"poiid":"B2094655D26CA5F44099","title":"凤城二村小区(南二门)","lon":"121.52315","lat":"31.27832","category":"656","category_name":"大门","address":""},{"poiid":"B2094655D26FA7FE499F","title":"新凤城(东门)","lon":"121.52374","lat":"31.27766","category":"656","category_name":"大门","address":"控江路1500弄91-112号"},{"poiid":"B2094654D56FA5FA469B","title":"中国农业银行杨浦区黄兴路支行ATM取款机","lon":"121.52648","lat":"31.2772","category":"152","category_name":"ATM","address":"黄兴路570-572号"},{"poiid":"B2094655D26EA3F44593","title":"延吉中路320弄小区(南二门)","lon":"121.52529","lat":"31.28169","category":"656","category_name":"大门","address":"延吉中路310弄"},{"poiid":"B2094654D56FA5F8429A","title":"控江社区职工援助分中心法律服务站","lon":"121.52547","lat":"31.28271","category":"252","category_name":"楼宇机构","address":"靖宇南路99弄17"},{"poiid":"B2094655D26DABF5449A","title":"黄兴路1039弄小区(北门)","lon":"121.52267","lat":"31.28053","category":"656","category_name":"大门","address":""},{"poiid":"B2094655D265A3F5419B","title":"仁致国旅棋牌","lon":"121.52817","lat":"31.27917","category":"175","category_name":"棋牌室","address":"控江路1142"},{"poiid":"B2094654D56FA5FB469D","title":"21世纪不动产上海锐丰延吉中路加盟店","lon":"121.52703","lat":"31.28183","category":"248","category_name":"生活娱乐","address":"延吉中路373"},{"poiid":"B2094655D26CA5FE489F","title":"新凤城银座(北门)","lon":"121.52289","lat":"31.27796","category":"656","category_name":"大门","address":""},{"poiid":"B2094654D56FA5FF409E","title":"控江二村107弄小区(南门)","lon":"121.52664","lat":"31.28213","category":"656","category_name":"大门","address":""}]