[{"poiid":"B2094655D269A4FB479F","title":"哈根达斯(南京东路店)","lon":"121.48087","lat":"31.23567","category":"113","category_name":"冷饮店","address":"黄浦区南京东路505号索菲特海仑宾馆1楼(近福建中路)"},{"poiid":"B2094757D065AAF5489E","title":"上海歌城","lon":"121.479842738","lat":"31.2368374409","category":"170","category_name":"KTV","address":"上海新世界11F"},{"poiid":"B2094757D06FA2FE439A","title":"南京东路","lon":"121.47941993","lat":"31.235539233","category":"260","category_name":"其他","address":"上海南京东路"},{"poiid":"B2094753D76FAAFA449C","title":"上海滩国泰旗舰店","lon":"121.466011","lat":"31.216125","category":"249","category_name":"购物服务","address":"淮海中路868号"},{"poiid":"B209475CD564A7F84292","title":"上海滩新天地店","lon":"121.47463","lat":"31.22164","category":"119","category_name":"商场","address":"\"太仓路181弄新天地北里15号\r\n\""},{"poiid":"B209475CD564A7F8439E","title":"上海滩中信泰富店","lon":"121.45602","lat":"31.22851","category":"119","category_name":"商场","address":"\"南京西路1168号中信泰富广场，店铺号221.\r\n\""},{"poiid":"B209475CD564A7F84392","title":"上海滩浦东香格里拉店","lon":"121.50058","lat":"31.23634","category":"119","category_name":"商场","address":"浦东富成路33号香格里拉酒店内大堂层"},{"poiid":"B2094654DB6BA4F5429A","title":"厚味香辣馆(南京路步行街)","lon":"121.4792","lat":"31.2358","category":"71","category_name":"四川菜","address":"黄浦区南京东路592号中丝亚太商厦12楼(近浙江中路)"},{"poiid":"B2094757D06FA3FB4892","title":"南京路世纪广场","lon":"121.47902","lat":"31.23532","category":"250","category_name":"公园户外","address":"黄浦区南京东路步行街(近浙江中路)"},{"poiid":"B2094757D06EABF5459B","title":"爱辣 I Love","lon":"121.47936","lat":"31.23554","category":"86","category_name":"火锅店","address":"黄浦区南京东路592号李宁专卖10楼(近浙江中路)"},{"poiid":"B2094654DB65A6F94992","title":"上海索菲特海仑宾馆","lon":"121.48085","lat":"31.23567","category":"214","category_name":"四星级宾馆","address":"黄浦区南京东路505号索菲特海仑宾馆内(近福建中路)"},{"poiid":"B2094757D069A3FD4699","title":"麻辣诱惑(南京东路店)","lon":"121.479494738","lat":"31.2352084062","category":"71","category_name":"四川菜","address":"黄浦区南京东路588号丝绸商厦6楼(世纪广场对面)"},{"poiid":"B2094750D665A0F4469F","title":"千彩我的小火锅(南京东路店)","lon":"121.479","lat":"31.2357","category":"86","category_name":"火锅店","address":"黄浦区南京东路588号丝绸大厦7楼(近福建中路)"},{"poiid":"B2094757D06FA3FF4893","title":"沈大成(南京东路总店)","lon":"121.47873","lat":"31.23552","category":"257","category_name":"中餐厅","address":"上海黄浦区南京东路636号(近浙江中路)"},{"poiid":"B2094751D564AAFF4499","title":"吾桑格韩国家庭料理","lon":"121.479201","lat":"31.235441","category":"247","category_name":"餐饮美食","address":"黄浦区南京东路592号中丝亚太6楼(近浙江中路)"},{"poiid":"B2094750D66EA5FA499D","title":"居食屋和民(宏伊店)","lon":"121.48034098406981","lat":"31.235845913800915","category":"95","category_name":"日本料理","address":"黄浦区南京东路299号宏伊广场6楼(近河南中路)"},{"poiid":"B2094757D06FA0F9409B","title":"星巴克(上海古象大酒店)","lon":"121.479507","lat":"31.234364","category":"65","category_name":"咖啡厅","address":"黄浦区九江路595号古象大酒店内(近湖北路)"},{"poiid":"B2094757D06FA7FE449A","title":"老盛昌苏州汤包馆(南京路店)","lon":"121.480167144","lat":"31.2359769117","category":"68","category_name":"快餐厅","address":"黄浦区福建中路335号(南京东路口)"},{"poiid":"B2094757D06FA6FC489E","title":"真老大房(南京东路店)","lon":"121.48035","lat":"31.23572","category":"68","category_name":"快餐厅","address":"黄浦区南京东路536号(近福建中路)"},{"poiid":"B2094757D068A7FB4398","title":"必胜客(三阳店)","lon":"121.4802334","lat":"31.2357621","category":"94","category_name":"西餐厅","address":"黄浦区南京东路626-636号2楼(近浙江中路)"},{"poiid":"B2094752D06BA6F8409F","title":"耶里夏利","lon":"121.480537","lat":"31.236887","category":"247","category_name":"餐饮美食","address":"上海市黄浦区南京东路819号百联世茂国际广场7楼"},{"poiid":"B2094757D06FA2FA459F","title":"萨莉亚(南京东路店)","lon":"121.479122037","lat":"31.2359141172","category":"94","category_name":"西餐厅","address":"黄浦区南京东路592号中丝亚太商厦8搂(近浙江中路)"},{"poiid":"B2094757D06FA2FE4392","title":"老妈米线(南京东路店)","lon":"121.47943","lat":"31.23552","category":"86","category_name":"火锅店","address":"黄浦区南京东路592号中丝亚太伊都锦7楼(近浙江中路)"},{"poiid":"B2094750D36BA1F8429F","title":"南京路","lon":"121.478797","lat":"31.238767","category":"500","category_name":"未知分类","address":null},{"poiid":"B2094757D169A0F5409E","title":"沈大成","lon":"121.4792633","lat":"31.235628128","category":"500","category_name":"未知分类","address":"中国上海市黃浦區南京路步行街"},{"poiid":"B2094655D26FA6FB469B","title":"傣妹火锅(南京路步行街)","lon":"121.4792","lat":"31.23581","category":"86","category_name":"火锅店","address":"南京东路588号中丝亚大商厦"},{"poiid":"B2094757D66EABFF4298","title":"扬州饭店 黄浦店","lon":"121.48030093845","lat":"31.235701053164","category":"74","category_name":"江苏菜","address":"黄浦区南京东路636号(南京东路世纪广场)"},{"poiid":"B2094757D06FA6F8439E","title":"庄氏隆兴小龙虾面馆(浙江店)","lon":"121.47795","lat":"31.2365","category":"68","category_name":"快餐厅","address":"黄浦区浙江中路441号(近宁波路)"},{"poiid":"B2094757D469A1FE4893","title":"肯德基 南京东路 KFC","lon":"121.47923774798","lat":"31.236100948392","category":"68","category_name":"快餐厅","address":"黄浦区南京东路380号(近地铁2号线南京东路站)"},{"poiid":"B2094654DA6FA0FF449D","title":"世纪广场","lon":"121.47972","lat":"31.23531","category":"201","category_name":"城市广场","address":"黄浦区南京路步行街"},{"poiid":"B2094751D46AA2F54392","title":"雲上云源生态云南菜","lon":"121.4811952","lat":"31.2365955","category":"247","category_name":"餐饮美食","address":"南京东路233号南京大厦5楼(近河南中路)"},{"poiid":"B2094654DA6FA5FF4599","title":"康乃馨食府","lon":"121.48087","lat":"31.23567","category":"76","category_name":"上海菜","address":"黄浦区南京东路505号索菲特海仑宾馆3楼(近福建中路)"},{"poiid":"B2094750D76FA5FC4393","title":"札幌北海道极味拉面","lon":"121.48023","lat":"31.23576","category":"68","category_name":"快餐厅","address":"黄浦区南京东路299号宏伊广场B1楼(近河南中路)"},{"poiid":"B2094654DA6FA2FB4398","title":"德兴面馆 福建中路店","lon":"121.47935386253","lat":"31.238526806361","category":"68","category_name":"快餐厅","address":"黄浦区福建中路529号(近北京东路)"},{"poiid":"B2094654DA6FA5FF4699","title":"新世界休闲港湾","lon":"121.48114","lat":"31.23594","category":"46","category_name":"楼宇","address":"黄浦区南京东路479号新世界先施休闲港湾内(近福建中路)"},{"poiid":"B2094757DB6FA2FD4798","title":"东方商厦","lon":"121.47885328","lat":"31.23637324","category":"249","category_name":"购物服务","address":"南京东路步行街"},{"poiid":"B2094757D068A0FC4292","title":"厚味麻辣香锅","lon":"121.479981738","lat":"31.2377874612","category":"71","category_name":"四川菜","address":"黄浦区南京东路592号中丝亚太商厦11楼(近浙江中路)"},{"poiid":"B2094654DB6BA4F54192","title":"避风塘","lon":"121.47863","lat":"31.23571","category":"111","category_name":"休闲餐饮场所","address":"南京东路6261-2层"},{"poiid":"B2094654DB69A4F44793","title":"味千拉面(宝大祥店)","lon":"121.47941","lat":"31.23698","category":"68","category_name":"快餐厅","address":"黄浦区南京东路673-699号宝大祥商厦7楼(近广西北路)"},{"poiid":"B2094752D069A0F9489A","title":"哈根达斯","lon":"121.4795648376961","lat":"31.2371988596285","category":"247","category_name":"餐饮美食","address":"南京东路299号"},{"poiid":"B2094655D26AA1F44992","title":"索菲特海仑酒店","lon":"121.48087","lat":"31.23567","category":"250","category_name":"公园户外","address":"黄浦区南京东路505号(近福建中路)"},{"poiid":"B2094750D66BAAF8429F","title":"老客了酒楼","lon":"121.48","lat":"31.2366","category":"76","category_name":"上海菜","address":"黄浦区福建中路374-376号(近南京东路)"},{"poiid":"B2094757D464AAFA489E","title":"味千拉面 先施店","lon":"121.48017943551","lat":"31.235618381776","category":"95","category_name":"日本料理","address":"黄浦区南京东路479号新世界先施休闲港湾内(近福建中路)"},{"poiid":"B2094757D06FA7FC4393","title":"ME&amp;CITY(南京东路旗舰店)","lon":"121.47971","lat":"31.23551","category":"141","category_name":"服装鞋帽皮具店","address":"上海黄浦区南京东路580号(近浙江中路)  "},{"poiid":"B2094757D16CA7F8499D","title":"半岛酒店玫瑰厅","lon":"121.48065673","lat":"31.236851441","category":"217","category_name":"旅馆招待所","address":"上海市黄浦区中山东一路32号"},{"poiid":"B2094757D069ABF5429C","title":"王开摄影(南京东路店)","lon":"121.48026","lat":"31.23653","category":"249","category_name":"购物服务","address":"上海黄浦区南京东路378号5-6楼(山西南路口)"},{"poiid":"B2094757D06FAAFA4692","title":"第一医药商店(南京东路店)","lon":"121.47928","lat":"31.23552","category":"255","category_name":"专卖店","address":"黄浦区南京东路616号第一医药商店内(近浙江中路)"},{"poiid":"B2094655D265A4FE449B","title":"上海诺基亚旗舰店","lon":"121.48005","lat":"31.23578","category":"138","category_name":"家电电子卖场","address":"黄浦区南京东路546号(近福建中路)"},{"poiid":"B2094750D76EA1FF439F","title":"乡村基(南京东路店)","lon":"121.48","lat":"31.2358","category":"68","category_name":"快餐厅","address":"黄浦区南京东路586号(近置地广场)"},{"poiid":"B2094757D569A2FA469A","title":"金钟咖啡酒吧","lon":"121.48027941","lat":"31.23563639","category":"260","category_name":"其他","address":"黄浦区南京东路步行街世纪广场(近浙江中路)"},{"poiid":"B2094655D269A4FB479F","title":"哈根达斯(南京东路店)","lon":"121.48087","lat":"31.23567","category":"113","category_name":"冷饮店","address":"黄浦区南京东路505号索菲特海仑宾馆1楼(近福建中路)"},{"poiid":"B2094757D065AAF5489E","title":"上海歌城","lon":"121.479842738","lat":"31.2368374409","category":"170","category_name":"KTV","address":"上海新世界11F"},{"poiid":"B2094757D06FA2FE439A","title":"南京东路","lon":"121.47941993","lat":"31.235539233","category":"260","category_name":"其他","address":"上海南京东路"},{"poiid":"B2094753D76FAAFA449C","title":"上海滩国泰旗舰店","lon":"121.466011","lat":"31.216125","category":"249","category_name":"购物服务","address":"淮海中路868号"},{"poiid":"B209475CD564A7F84292","title":"上海滩新天地店","lon":"121.47463","lat":"31.22164","category":"119","category_name":"商场","address":"\"太仓路181弄新天地北里15号\r\n\""},{"poiid":"B209475CD564A7F8439E","title":"上海滩中信泰富店","lon":"121.45602","lat":"31.22851","category":"119","category_name":"商场","address":"\"南京西路1168号中信泰富广场，店铺号221.\r\n\""},{"poiid":"B209475CD564A7F84392","title":"上海滩浦东香格里拉店","lon":"121.50058","lat":"31.23634","category":"119","category_name":"商场","address":"浦东富成路33号香格里拉酒店内大堂层"},{"poiid":"B2094654DB6BA4F5429A","title":"厚味香辣馆(南京路步行街)","lon":"121.4792","lat":"31.2358","category":"71","category_name":"四川菜","address":"黄浦区南京东路592号中丝亚太商厦12楼(近浙江中路)"},{"poiid":"B2094757D06FA3FB4892","title":"南京路世纪广场","lon":"121.47902","lat":"31.23532","category":"250","category_name":"公园户外","address":"黄浦区南京东路步行街(近浙江中路)"},{"poiid":"B2094757D06EABF5459B","title":"爱辣 I Love","lon":"121.47936","lat":"31.23554","category":"86","category_name":"火锅店","address":"黄浦区南京东路592号李宁专卖10楼(近浙江中路)"},{"poiid":"B2094654DB65A6F94992","title":"上海索菲特海仑宾馆","lon":"121.48085","lat":"31.23567","category":"214","category_name":"四星级宾馆","address":"黄浦区南京东路505号索菲特海仑宾馆内(近福建中路)"},{"poiid":"B2094757D069A3FD4699","title":"麻辣诱惑(南京东路店)","lon":"121.479494738","lat":"31.2352084062","category":"71","category_name":"四川菜","address":"黄浦区南京东路588号丝绸商厦6楼(世纪广场对面)"},{"poiid":"B2094750D665A0F4469F","title":"千彩我的小火锅(南京东路店)","lon":"121.479","lat":"31.2357","category":"86","category_name":"火锅店","address":"黄浦区南京东路588号丝绸大厦7楼(近福建中路)"},{"poiid":"B2094757D06FA3FF4893","title":"沈大成(南京东路总店)","lon":"121.47873","lat":"31.23552","category":"257","category_name":"中餐厅","address":"上海黄浦区南京东路636号(近浙江中路)"},{"poiid":"B2094751D564AAFF4499","title":"吾桑格韩国家庭料理","lon":"121.479201","lat":"31.235441","category":"247","category_name":"餐饮美食","address":"黄浦区南京东路592号中丝亚太6楼(近浙江中路)"},{"poiid":"B2094750D66EA5FA499D","title":"居食屋和民(宏伊店)","lon":"121.48034098406981","lat":"31.235845913800915","category":"95","category_name":"日本料理","address":"黄浦区南京东路299号宏伊广场6楼(近河南中路)"},{"poiid":"B2094757D06FA0F9409B","title":"星巴克(上海古象大酒店)","lon":"121.479507","lat":"31.234364","category":"65","category_name":"咖啡厅","address":"黄浦区九江路595号古象大酒店内(近湖北路)"},{"poiid":"B2094757D06FA7FE449A","title":"老盛昌苏州汤包馆(南京路店)","lon":"121.480167144","lat":"31.2359769117","category":"68","category_name":"快餐厅","address":"黄浦区福建中路335号(南京东路口)"},{"poiid":"B2094757D06FA6FC489E","title":"真老大房(南京东路店)","lon":"121.48035","lat":"31.23572","category":"68","category_name":"快餐厅","address":"黄浦区南京东路536号(近福建中路)"},{"poiid":"B2094757D068A7FB4398","title":"必胜客(三阳店)","lon":"121.4802334","lat":"31.2357621","category":"94","category_name":"西餐厅","address":"黄浦区南京东路626-636号2楼(近浙江中路)"},{"poiid":"B2094752D06BA6F8409F","title":"耶里夏利","lon":"121.480537","lat":"31.236887","category":"247","category_name":"餐饮美食","address":"上海市黄浦区南京东路819号百联世茂国际广场7楼"},{"poiid":"B2094757D06FA2FA459F","title":"萨莉亚(南京东路店)","lon":"121.479122037","lat":"31.2359141172","category":"94","category_name":"西餐厅","address":"黄浦区南京东路592号中丝亚太商厦8搂(近浙江中路)"},{"poiid":"B2094757D06FA2FE4392","title":"老妈米线(南京东路店)","lon":"121.47943","lat":"31.23552","category":"86","category_name":"火锅店","address":"黄浦区南京东路592号中丝亚太伊都锦7楼(近浙江中路)"},{"poiid":"B2094750D36BA1F8429F","title":"南京路","lon":"121.478797","lat":"31.238767","category":"500","category_name":"未知分类","address":null},{"poiid":"B2094757D169A0F5409E","title":"沈大成","lon":"121.4792633","lat":"31.235628128","category":"500","category_name":"未知分类","address":"中国上海市黃浦區南京路步行街"},{"poiid":"B2094655D26FA6FB469B","title":"傣妹火锅(南京路步行街)","lon":"121.4792","lat":"31.23581","category":"86","category_name":"火锅店","address":"南京东路588号中丝亚大商厦"},{"poiid":"B2094757D66EABFF4298","title":"扬州饭店 黄浦店","lon":"121.48030093845","lat":"31.235701053164","category":"74","category_name":"江苏菜","address":"黄浦区南京东路636号(南京东路世纪广场)"},{"poiid":"B2094757D06FA6F8439E","title":"庄氏隆兴小龙虾面馆(浙江店)","lon":"121.47795","lat":"31.2365","category":"68","category_name":"快餐厅","address":"黄浦区浙江中路441号(近宁波路)"},{"poiid":"B2094757D469A1FE4893","title":"肯德基 南京东路 KFC","lon":"121.47923774798","lat":"31.236100948392","category":"68","category_name":"快餐厅","address":"黄浦区南京东路380号(近地铁2号线南京东路站)"},{"poiid":"B2094654DA6FA0FF449D","title":"世纪广场","lon":"121.47972","lat":"31.23531","category":"201","category_name":"城市广场","address":"黄浦区南京路步行街"},{"poiid":"B2094751D46AA2F54392","title":"雲上云源生态云南菜","lon":"121.4811952","lat":"31.2365955","category":"247","category_name":"餐饮美食","address":"南京东路233号南京大厦5楼(近河南中路)"},{"poiid":"B2094654DA6FA5FF4599","title":"康乃馨食府","lon":"121.48087","lat":"31.23567","category":"76","category_name":"上海菜","address":"黄浦区南京东路505号索菲特海仑宾馆3楼(近福建中路)"},{"poiid":"B2094750D76FA5FC4393","title":"札幌北海道极味拉面","lon":"121.48023","lat":"31.23576","category":"68","category_name":"快餐厅","address":"黄浦区南京东路299号宏伊广场B1楼(近河南中路)"},{"poiid":"B2094654DA6FA2FB4398","title":"德兴面馆 福建中路店","lon":"121.47935386253","lat":"31.238526806361","category":"68","category_name":"快餐厅","address":"黄浦区福建中路529号(近北京东路)"},{"poiid":"B2094654DA6FA5FF4699","title":"新世界休闲港湾","lon":"121.48114","lat":"31.23594","category":"46","category_name":"楼宇","address":"黄浦区南京东路479号新世界先施休闲港湾内(近福建中路)"},{"poiid":"B2094757DB6FA2FD4798","title":"东方商厦","lon":"121.47885328","lat":"31.23637324","category":"249","category_name":"购物服务","address":"南京东路步行街"},{"poiid":"B2094757D068A0FC4292","title":"厚味麻辣香锅","lon":"121.479981738","lat":"31.2377874612","category":"71","category_name":"四川菜","address":"黄浦区南京东路592号中丝亚太商厦11楼(近浙江中路)"},{"poiid":"B2094654DB6BA4F54192","title":"避风塘","lon":"121.47863","lat":"31.23571","category":"111","category_name":"休闲餐饮场所","address":"南京东路6261-2层"},{"poiid":"B2094654DB69A4F44793","title":"味千拉面(宝大祥店)","lon":"121.47941","lat":"31.23698","category":"68","category_name":"快餐厅","address":"黄浦区南京东路673-699号宝大祥商厦7楼(近广西北路)"},{"poiid":"B2094752D069A0F9489A","title":"哈根达斯","lon":"121.4795648376961","lat":"31.2371988596285","category":"247","category_name":"餐饮美食","address":"南京东路299号"},{"poiid":"B2094655D26AA1F44992","title":"索菲特海仑酒店","lon":"121.48087","lat":"31.23567","category":"250","category_name":"公园户外","address":"黄浦区南京东路505号(近福建中路)"},{"poiid":"B2094750D66BAAF8429F","title":"老客了酒楼","lon":"121.48","lat":"31.2366","category":"76","category_name":"上海菜","address":"黄浦区福建中路374-376号(近南京东路)"},{"poiid":"B2094757D464AAFA489E","title":"味千拉面 先施店","lon":"121.48017943551","lat":"31.235618381776","category":"95","category_name":"日本料理","address":"黄浦区南京东路479号新世界先施休闲港湾内(近福建中路)"},{"poiid":"B2094757D06FA7FC4393","title":"ME&amp;CITY(南京东路旗舰店)","lon":"121.47971","lat":"31.23551","category":"141","category_name":"服装鞋帽皮具店","address":"上海黄浦区南京东路580号(近浙江中路)  "},{"poiid":"B2094757D16CA7F8499D","title":"半岛酒店玫瑰厅","lon":"121.48065673","lat":"31.236851441","category":"217","category_name":"旅馆招待所","address":"上海市黄浦区中山东一路32号"},{"poiid":"B2094757D069ABF5429C","title":"王开摄影(南京东路店)","lon":"121.48026","lat":"31.23653","category":"249","category_name":"购物服务","address":"上海黄浦区南京东路378号5-6楼(山西南路口)"},{"poiid":"B2094757D06FAAFA4692","title":"第一医药商店(南京东路店)","lon":"121.47928","lat":"31.23552","category":"255","category_name":"专卖店","address":"黄浦区南京东路616号第一医药商店内(近浙江中路)"},{"poiid":"B2094655D265A4FE449B","title":"上海诺基亚旗舰店","lon":"121.48005","lat":"31.23578","category":"138","category_name":"家电电子卖场","address":"黄浦区南京东路546号(近福建中路)"},{"poiid":"B2094750D76EA1FF439F","title":"乡村基(南京东路店)","lon":"121.48","lat":"31.2358","category":"68","category_name":"快餐厅","address":"黄浦区南京东路586号(近置地广场)"},{"poiid":"B2094757D569A2FA469A","title":"金钟咖啡酒吧","lon":"121.48027941","lat":"31.23563639","category":"260","category_name":"其他","address":"黄浦区南京东路步行街世纪广场(近浙江中路)"},{"poiid":"B2094655D269A4FB479F","title":"哈根达斯(南京东路店)","lon":"121.48087","lat":"31.23567","category":"113","category_name":"冷饮店","address":"黄浦区南京东路505号索菲特海仑宾馆1楼(近福建中路)"},{"poiid":"B2094757D065AAF5489E","title":"上海歌城","lon":"121.479842738","lat":"31.2368374409","category":"170","category_name":"KTV","address":"上海新世界11F"},{"poiid":"B2094757D06FA2FE439A","title":"南京东路","lon":"121.47941993","lat":"31.235539233","category":"260","category_name":"其他","address":"上海南京东路"},{"poiid":"B2094753D76FAAFA449C","title":"上海滩国泰旗舰店","lon":"121.466011","lat":"31.216125","category":"249","category_name":"购物服务","address":"淮海中路868号"},{"poiid":"B209475CD564A7F84292","title":"上海滩新天地店","lon":"121.47463","lat":"31.22164","category":"119","category_name":"商场","address":"\"太仓路181弄新天地北里15号\r\n\""},{"poiid":"B209475CD564A7F8439E","title":"上海滩中信泰富店","lon":"121.45602","lat":"31.22851","category":"119","category_name":"商场","address":"\"南京西路1168号中信泰富广场，店铺号221.\r\n\""},{"poiid":"B209475CD564A7F84392","title":"上海滩浦东香格里拉店","lon":"121.50058","lat":"31.23634","category":"119","category_name":"商场","address":"浦东富成路33号香格里拉酒店内大堂层"},{"poiid":"B2094654DB6BA4F5429A","title":"厚味香辣馆(南京路步行街)","lon":"121.4792","lat":"31.2358","category":"71","category_name":"四川菜","address":"黄浦区南京东路592号中丝亚太商厦12楼(近浙江中路)"},{"poiid":"B2094757D06FA3FB4892","title":"南京路世纪广场","lon":"121.47902","lat":"31.23532","category":"250","category_name":"公园户外","address":"黄浦区南京东路步行街(近浙江中路)"},{"poiid":"B2094757D06EABF5459B","title":"爱辣 I Love","lon":"121.47936","lat":"31.23554","category":"86","category_name":"火锅店","address":"黄浦区南京东路592号李宁专卖10楼(近浙江中路)"},{"poiid":"B2094654DB65A6F94992","title":"上海索菲特海仑宾馆","lon":"121.48085","lat":"31.23567","category":"214","category_name":"四星级宾馆","address":"黄浦区南京东路505号索菲特海仑宾馆内(近福建中路)"},{"poiid":"B2094757D069A3FD4699","title":"麻辣诱惑(南京东路店)","lon":"121.479494738","lat":"31.2352084062","category":"71","category_name":"四川菜","address":"黄浦区南京东路588号丝绸商厦6楼(世纪广场对面)"},{"poiid":"B2094750D665A0F4469F","title":"千彩我的小火锅(南京东路店)","lon":"121.479","lat":"31.2357","category":"86","category_name":"火锅店","address":"黄浦区南京东路588号丝绸大厦7楼(近福建中路)"},{"poiid":"B2094757D06FA3FF4893","title":"沈大成(南京东路总店)","lon":"121.47873","lat":"31.23552","category":"257","category_name":"中餐厅","address":"上海黄浦区南京东路636号(近浙江中路)"},{"poiid":"B2094751D564AAFF4499","title":"吾桑格韩国家庭料理","lon":"121.479201","lat":"31.235441","category":"247","category_name":"餐饮美食","address":"黄浦区南京东路592号中丝亚太6楼(近浙江中路)"},{"poiid":"B2094750D66EA5FA499D","title":"居食屋和民(宏伊店)","lon":"121.48034098406981","lat":"31.235845913800915","category":"95","category_name":"日本料理","address":"黄浦区南京东路299号宏伊广场6楼(近河南中路)"},{"poiid":"B2094757D06FA0F9409B","title":"星巴克(上海古象大酒店)","lon":"121.479507","lat":"31.234364","category":"65","category_name":"咖啡厅","address":"黄浦区九江路595号古象大酒店内(近湖北路)"},{"poiid":"B2094757D06FA7FE449A","title":"老盛昌苏州汤包馆(南京路店)","lon":"121.480167144","lat":"31.2359769117","category":"68","category_name":"快餐厅","address":"黄浦区福建中路335号(南京东路口)"},{"poiid":"B2094757D06FA6FC489E","title":"真老大房(南京东路店)","lon":"121.48035","lat":"31.23572","category":"68","category_name":"快餐厅","address":"黄浦区南京东路536号(近福建中路)"},{"poiid":"B2094757D068A7FB4398","title":"必胜客(三阳店)","lon":"121.4802334","lat":"31.2357621","category":"94","category_name":"西餐厅","address":"黄浦区南京东路626-636号2楼(近浙江中路)"},{"poiid":"B2094752D06BA6F8409F","title":"耶里夏利","lon":"121.480537","lat":"31.236887","category":"247","category_name":"餐饮美食","address":"上海市黄浦区南京东路819号百联世茂国际广场7楼"},{"poiid":"B2094757D06FA2FA459F","title":"萨莉亚(南京东路店)","lon":"121.479122037","lat":"31.2359141172","category":"94","category_name":"西餐厅","address":"黄浦区南京东路592号中丝亚太商厦8搂(近浙江中路)"},{"poiid":"B2094757D06FA2FE4392","title":"老妈米线(南京东路店)","lon":"121.47943","lat":"31.23552","category":"86","category_name":"火锅店","address":"黄浦区南京东路592号中丝亚太伊都锦7楼(近浙江中路)"},{"poiid":"B2094750D36BA1F8429F","title":"南京路","lon":"121.478797","lat":"31.238767","category":"500","category_name":"未知分类","address":null},{"poiid":"B2094757D169A0F5409E","title":"沈大成","lon":"121.4792633","lat":"31.235628128","category":"500","category_name":"未知分类","address":"中国上海市黃浦區南京路步行街"},{"poiid":"B2094655D26FA6FB469B","title":"傣妹火锅(南京路步行街)","lon":"121.4792","lat":"31.23581","category":"86","category_name":"火锅店","address":"南京东路588号中丝亚大商厦"},{"poiid":"B2094757D66EABFF4298","title":"扬州饭店 黄浦店","lon":"121.48030093845","lat":"31.235701053164","category":"74","category_name":"江苏菜","address":"黄浦区南京东路636号(南京东路世纪广场)"},{"poiid":"B2094757D06FA6F8439E","title":"庄氏隆兴小龙虾面馆(浙江店)","lon":"121.47795","lat":"31.2365","category":"68","category_name":"快餐厅","address":"黄浦区浙江中路441号(近宁波路)"},{"poiid":"B2094757D469A1FE4893","title":"肯德基 南京东路 KFC","lon":"121.47923774798","lat":"31.236100948392","category":"68","category_name":"快餐厅","address":"黄浦区南京东路380号(近地铁2号线南京东路站)"},{"poiid":"B2094654DA6FA0FF449D","title":"世纪广场","lon":"121.47972","lat":"31.23531","category":"201","category_name":"城市广场","address":"黄浦区南京路步行街"},{"poiid":"B2094751D46AA2F54392","title":"雲上云源生态云南菜","lon":"121.4811952","lat":"31.2365955","category":"247","category_name":"餐饮美食","address":"南京东路233号南京大厦5楼(近河南中路)"},{"poiid":"B2094654DA6FA5FF4599","title":"康乃馨食府","lon":"121.48087","lat":"31.23567","category":"76","category_name":"上海菜","address":"黄浦区南京东路505号索菲特海仑宾馆3楼(近福建中路)"},{"poiid":"B2094750D76FA5FC4393","title":"札幌北海道极味拉面","lon":"121.48023","lat":"31.23576","category":"68","category_name":"快餐厅","address":"黄浦区南京东路299号宏伊广场B1楼(近河南中路)"},{"poiid":"B2094654DA6FA2FB4398","title":"德兴面馆 福建中路店","lon":"121.47935386253","lat":"31.238526806361","category":"68","category_name":"快餐厅","address":"黄浦区福建中路529号(近北京东路)"},{"poiid":"B2094654DA6FA5FF4699","title":"新世界休闲港湾","lon":"121.48114","lat":"31.23594","category":"46","category_name":"楼宇","address":"黄浦区南京东路479号新世界先施休闲港湾内(近福建中路)"},{"poiid":"B2094757DB6FA2FD4798","title":"东方商厦","lon":"121.47885328","lat":"31.23637324","category":"249","category_name":"购物服务","address":"南京东路步行街"},{"poiid":"B2094757D068A0FC4292","title":"厚味麻辣香锅","lon":"121.479981738","lat":"31.2377874612","category":"71","category_name":"四川菜","address":"黄浦区南京东路592号中丝亚太商厦11楼(近浙江中路)"},{"poiid":"B2094654DB6BA4F54192","title":"避风塘","lon":"121.47863","lat":"31.23571","category":"111","category_name":"休闲餐饮场所","address":"南京东路6261-2层"},{"poiid":"B2094654DB69A4F44793","title":"味千拉面(宝大祥店)","lon":"121.47941","lat":"31.23698","category":"68","category_name":"快餐厅","address":"黄浦区南京东路673-699号宝大祥商厦7楼(近广西北路)"},{"poiid":"B2094752D069A0F9489A","title":"哈根达斯","lon":"121.4795648376961","lat":"31.2371988596285","category":"247","category_name":"餐饮美食","address":"南京东路299号"},{"poiid":"B2094655D26AA1F44992","title":"索菲特海仑酒店","lon":"121.48087","lat":"31.23567","category":"250","category_name":"公园户外","address":"黄浦区南京东路505号(近福建中路)"},{"poiid":"B2094750D66BAAF8429F","title":"老客了酒楼","lon":"121.48","lat":"31.2366","category":"76","category_name":"上海菜","address":"黄浦区福建中路374-376号(近南京东路)"},{"poiid":"B2094757D464AAFA489E","title":"味千拉面 先施店","lon":"121.48017943551","lat":"31.235618381776","category":"95","category_name":"日本料理","address":"黄浦区南京东路479号新世界先施休闲港湾内(近福建中路)"},{"poiid":"B2094757D06FA7FC4393","title":"ME&amp;CITY(南京东路旗舰店)","lon":"121.47971","lat":"31.23551","category":"141","category_name":"服装鞋帽皮具店","address":"上海黄浦区南京东路580号(近浙江中路)  "},{"poiid":"B2094757D16CA7F8499D","title":"半岛酒店玫瑰厅","lon":"121.48065673","lat":"31.236851441","category":"217","category_name":"旅馆招待所","address":"上海市黄浦区中山东一路32号"},{"poiid":"B2094757D069ABF5429C","title":"王开摄影(南京东路店)","lon":"121.48026","lat":"31.23653","category":"249","category_name":"购物服务","address":"上海黄浦区南京东路378号5-6楼(山西南路口)"},{"poiid":"B2094757D06FAAFA4692","title":"第一医药商店(南京东路店)","lon":"121.47928","lat":"31.23552","category":"255","category_name":"专卖店","address":"黄浦区南京东路616号第一医药商店内(近浙江中路)"},{"poiid":"B2094655D265A4FE449B","title":"上海诺基亚旗舰店","lon":"121.48005","lat":"31.23578","category":"138","category_name":"家电电子卖场","address":"黄浦区南京东路546号(近福建中路)"},{"poiid":"B2094750D76EA1FF439F","title":"乡村基(南京东路店)","lon":"121.48","lat":"31.2358","category":"68","category_name":"快餐厅","address":"黄浦区南京东路586号(近置地广场)"},{"poiid":"B2094757D569A2FA469A","title":"金钟咖啡酒吧","lon":"121.48027941","lat":"31.23563639","category":"260","category_name":"其他","address":"黄浦区南京东路步行街世纪广场(近浙江中路)"},{"poiid":"B2094655D269A4FB479F","title":"哈根达斯(南京东路店)","lon":"121.48087","lat":"31.23567","category":"113","category_name":"冷饮店","address":"黄浦区南京东路505号索菲特海仑宾馆1楼(近福建中路)"},{"poiid":"B2094757D065AAF5489E","title":"上海歌城","lon":"121.479842738","lat":"31.2368374409","category":"170","category_name":"KTV","address":"上海新世界11F"},{"poiid":"B2094757D06FA2FE439A","title":"南京东路","lon":"121.47941993","lat":"31.235539233","category":"260","category_name":"其他","address":"上海南京东路"},{"poiid":"B2094753D76FAAFA449C","title":"上海滩国泰旗舰店","lon":"121.466011","lat":"31.216125","category":"249","category_name":"购物服务","address":"淮海中路868号"},{"poiid":"B209475CD564A7F84292","title":"上海滩新天地店","lon":"121.47463","lat":"31.22164","category":"119","category_name":"商场","address":"\"太仓路181弄新天地北里15号\r\n\""},{"poiid":"B209475CD564A7F8439E","title":"上海滩中信泰富店","lon":"121.45602","lat":"31.22851","category":"119","category_name":"商场","address":"\"南京西路1168号中信泰富广场，店铺号221.\r\n\""},{"poiid":"B209475CD564A7F84392","title":"上海滩浦东香格里拉店","lon":"121.50058","lat":"31.23634","category":"119","category_name":"商场","address":"浦东富成路33号香格里拉酒店内大堂层"},{"poiid":"B2094654DB6BA4F5429A","title":"厚味香辣馆(南京路步行街)","lon":"121.4792","lat":"31.2358","category":"71","category_name":"四川菜","address":"黄浦区南京东路592号中丝亚太商厦12楼(近浙江中路)"},{"poiid":"B2094757D06FA3FB4892","title":"南京路世纪广场","lon":"121.47902","lat":"31.23532","category":"250","category_name":"公园户外","address":"黄浦区南京东路步行街(近浙江中路)"},{"poiid":"B2094757D06EABF5459B","title":"爱辣 I Love","lon":"121.47936","lat":"31.23554","category":"86","category_name":"火锅店","address":"黄浦区南京东路592号李宁专卖10楼(近浙江中路)"},{"poiid":"B2094654DB65A6F94992","title":"上海索菲特海仑宾馆","lon":"121.48085","lat":"31.23567","category":"214","category_name":"四星级宾馆","address":"黄浦区南京东路505号索菲特海仑宾馆内(近福建中路)"},{"poiid":"B2094757D069A3FD4699","title":"麻辣诱惑(南京东路店)","lon":"121.479494738","lat":"31.2352084062","category":"71","category_name":"四川菜","address":"黄浦区南京东路588号丝绸商厦6楼(世纪广场对面)"},{"poiid":"B2094750D665A0F4469F","title":"千彩我的小火锅(南京东路店)","lon":"121.479","lat":"31.2357","category":"86","category_name":"火锅店","address":"黄浦区南京东路588号丝绸大厦7楼(近福建中路)"},{"poiid":"B2094757D06FA3FF4893","title":"沈大成(南京东路总店)","lon":"121.47873","lat":"31.23552","category":"257","category_name":"中餐厅","address":"上海黄浦区南京东路636号(近浙江中路)"},{"poiid":"B2094751D564AAFF4499","title":"吾桑格韩国家庭料理","lon":"121.479201","lat":"31.235441","category":"247","category_name":"餐饮美食","address":"黄浦区南京东路592号中丝亚太6楼(近浙江中路)"},{"poiid":"B2094750D66EA5FA499D","title":"居食屋和民(宏伊店)","lon":"121.48034098406981","lat":"31.235845913800915","category":"95","category_name":"日本料理","address":"黄浦区南京东路299号宏伊广场6楼(近河南中路)"},{"poiid":"B2094757D06FA0F9409B","title":"星巴克(上海古象大酒店)","lon":"121.479507","lat":"31.234364","category":"65","category_name":"咖啡厅","address":"黄浦区九江路595号古象大酒店内(近湖北路)"},{"poiid":"B2094757D06FA7FE449A","title":"老盛昌苏州汤包馆(南京路店)","lon":"121.480167144","lat":"31.2359769117","category":"68","category_name":"快餐厅","address":"黄浦区福建中路335号(南京东路口)"},{"poiid":"B2094757D06FA6FC489E","title":"真老大房(南京东路店)","lon":"121.48035","lat":"31.23572","category":"68","category_name":"快餐厅","address":"黄浦区南京东路536号(近福建中路)"},{"poiid":"B2094757D068A7FB4398","title":"必胜客(三阳店)","lon":"121.4802334","lat":"31.2357621","category":"94","category_name":"西餐厅","address":"黄浦区南京东路626-636号2楼(近浙江中路)"},{"poiid":"B2094752D06BA6F8409F","title":"耶里夏利","lon":"121.480537","lat":"31.236887","category":"247","category_name":"餐饮美食","address":"上海市黄浦区南京东路819号百联世茂国际广场7楼"},{"poiid":"B2094757D06FA2FA459F","title":"萨莉亚(南京东路店)","lon":"121.479122037","lat":"31.2359141172","category":"94","category_name":"西餐厅","address":"黄浦区南京东路592号中丝亚太商厦8搂(近浙江中路)"},{"poiid":"B2094757D06FA2FE4392","title":"老妈米线(南京东路店)","lon":"121.47943","lat":"31.23552","category":"86","category_name":"火锅店","address":"黄浦区南京东路592号中丝亚太伊都锦7楼(近浙江中路)"},{"poiid":"B2094750D36BA1F8429F","title":"南京路","lon":"121.478797","lat":"31.238767","category":"500","category_name":"未知分类","address":null},{"poiid":"B2094757D169A0F5409E","title":"沈大成","lon":"121.4792633","lat":"31.235628128","category":"500","category_name":"未知分类","address":"中国上海市黃浦區南京路步行街"},{"poiid":"B2094655D26FA6FB469B","title":"傣妹火锅(南京路步行街)","lon":"121.4792","lat":"31.23581","category":"86","category_name":"火锅店","address":"南京东路588号中丝亚大商厦"},{"poiid":"B2094757D66EABFF4298","title":"扬州饭店 黄浦店","lon":"121.48030093845","lat":"31.235701053164","category":"74","category_name":"江苏菜","address":"黄浦区南京东路636号(南京东路世纪广场)"},{"poiid":"B2094757D06FA6F8439E","title":"庄氏隆兴小龙虾面馆(浙江店)","lon":"121.47795","lat":"31.2365","category":"68","category_name":"快餐厅","address":"黄浦区浙江中路441号(近宁波路)"},{"poiid":"B2094757D469A1FE4893","title":"肯德基 南京东路 KFC","lon":"121.47923774798","lat":"31.236100948392","category":"68","category_name":"快餐厅","address":"黄浦区南京东路380号(近地铁2号线南京东路站)"},{"poiid":"B2094654DA6FA0FF449D","title":"世纪广场","lon":"121.47972","lat":"31.23531","category":"201","category_name":"城市广场","address":"黄浦区南京路步行街"},{"poiid":"B2094751D46AA2F54392","title":"雲上云源生态云南菜","lon":"121.4811952","lat":"31.2365955","category":"247","category_name":"餐饮美食","address":"南京东路233号南京大厦5楼(近河南中路)"},{"poiid":"B2094654DA6FA5FF4599","title":"康乃馨食府","lon":"121.48087","lat":"31.23567","category":"76","category_name":"上海菜","address":"黄浦区南京东路505号索菲特海仑宾馆3楼(近福建中路)"},{"poiid":"B2094750D76FA5FC4393","title":"札幌北海道极味拉面","lon":"121.48023","lat":"31.23576","category":"68","category_name":"快餐厅","address":"黄浦区南京东路299号宏伊广场B1楼(近河南中路)"},{"poiid":"B2094654DA6FA2FB4398","title":"德兴面馆 福建中路店","lon":"121.47935386253","lat":"31.238526806361","category":"68","category_name":"快餐厅","address":"黄浦区福建中路529号(近北京东路)"},{"poiid":"B2094654DA6FA5FF4699","title":"新世界休闲港湾","lon":"121.48114","lat":"31.23594","category":"46","category_name":"楼宇","address":"黄浦区南京东路479号新世界先施休闲港湾内(近福建中路)"},{"poiid":"B2094757DB6FA2FD4798","title":"东方商厦","lon":"121.47885328","lat":"31.23637324","category":"249","category_name":"购物服务","address":"南京东路步行街"},{"poiid":"B2094757D068A0FC4292","title":"厚味麻辣香锅","lon":"121.479981738","lat":"31.2377874612","category":"71","category_name":"四川菜","address":"黄浦区南京东路592号中丝亚太商厦11楼(近浙江中路)"},{"poiid":"B2094654DB6BA4F54192","title":"避风塘","lon":"121.47863","lat":"31.23571","category":"111","category_name":"休闲餐饮场所","address":"南京东路6261-2层"},{"poiid":"B2094654DB69A4F44793","title":"味千拉面(宝大祥店)","lon":"121.47941","lat":"31.23698","category":"68","category_name":"快餐厅","address":"黄浦区南京东路673-699号宝大祥商厦7楼(近广西北路)"},{"poiid":"B2094752D069A0F9489A","title":"哈根达斯","lon":"121.4795648376961","lat":"31.2371988596285","category":"247","category_name":"餐饮美食","address":"南京东路299号"},{"poiid":"B2094655D26AA1F44992","title":"索菲特海仑酒店","lon":"121.48087","lat":"31.23567","category":"250","category_name":"公园户外","address":"黄浦区南京东路505号(近福建中路)"},{"poiid":"B2094750D66BAAF8429F","title":"老客了酒楼","lon":"121.48","lat":"31.2366","category":"76","category_name":"上海菜","address":"黄浦区福建中路374-376号(近南京东路)"},{"poiid":"B2094757D464AAFA489E","title":"味千拉面 先施店","lon":"121.48017943551","lat":"31.235618381776","category":"95","category_name":"日本料理","address":"黄浦区南京东路479号新世界先施休闲港湾内(近福建中路)"},{"poiid":"B2094757D06FA7FC4393","title":"ME&amp;CITY(南京东路旗舰店)","lon":"121.47971","lat":"31.23551","category":"141","category_name":"服装鞋帽皮具店","address":"上海黄浦区南京东路580号(近浙江中路)  "},{"poiid":"B2094757D16CA7F8499D","title":"半岛酒店玫瑰厅","lon":"121.48065673","lat":"31.236851441","category":"217","category_name":"旅馆招待所","address":"上海市黄浦区中山东一路32号"},{"poiid":"B2094757D069ABF5429C","title":"王开摄影(南京东路店)","lon":"121.48026","lat":"31.23653","category":"249","category_name":"购物服务","address":"上海黄浦区南京东路378号5-6楼(山西南路口)"},{"poiid":"B2094757D06FAAFA4692","title":"第一医药商店(南京东路店)","lon":"121.47928","lat":"31.23552","category":"255","category_name":"专卖店","address":"黄浦区南京东路616号第一医药商店内(近浙江中路)"},{"poiid":"B2094655D265A4FE449B","title":"上海诺基亚旗舰店","lon":"121.48005","lat":"31.23578","category":"138","category_name":"家电电子卖场","address":"黄浦区南京东路546号(近福建中路)"},{"poiid":"B2094750D76EA1FF439F","title":"乡村基(南京东路店)","lon":"121.48","lat":"31.2358","category":"68","category_name":"快餐厅","address":"黄浦区南京东路586号(近置地广场)"},{"poiid":"B2094757D569A2FA469A","title":"金钟咖啡酒吧","lon":"121.48027941","lat":"31.23563639","category":"260","category_name":"其他","address":"黄浦区南京东路步行街世纪广场(近浙江中路)"},{"poiid":"B2094655D269A4FB479F","title":"哈根达斯(南京东路店)","lon":"121.48087","lat":"31.23567","category":"113","category_name":"冷饮店","address":"黄浦区南京东路505号索菲特海仑宾馆1楼(近福建中路)"},{"poiid":"B2094757D065AAF5489E","title":"上海歌城","lon":"121.479842738","lat":"31.2368374409","category":"170","category_name":"KTV","address":"上海新世界11F"},{"poiid":"B2094757D06FA2FE439A","title":"南京东路","lon":"121.47941993","lat":"31.235539233","category":"260","category_name":"其他","address":"上海南京东路"},{"poiid":"B2094753D76FAAFA449C","title":"上海滩国泰旗舰店","lon":"121.466011","lat":"31.216125","category":"249","category_name":"购物服务","address":"淮海中路868号"},{"poiid":"B209475CD564A7F84292","title":"上海滩新天地店","lon":"121.47463","lat":"31.22164","category":"119","category_name":"商场","address":"\"太仓路181弄新天地北里15号\r\n\""},{"poiid":"B209475CD564A7F8439E","title":"上海滩中信泰富店","lon":"121.45602","lat":"31.22851","category":"119","category_name":"商场","address":"\"南京西路1168号中信泰富广场，店铺号221.\r\n\""},{"poiid":"B209475CD564A7F84392","title":"上海滩浦东香格里拉店","lon":"121.50058","lat":"31.23634","category":"119","category_name":"商场","address":"浦东富成路33号香格里拉酒店内大堂层"},{"poiid":"B2094654DB6BA4F5429A","title":"厚味香辣馆(南京路步行街)","lon":"121.4792","lat":"31.2358","category":"71","category_name":"四川菜","address":"黄浦区南京东路592号中丝亚太商厦12楼(近浙江中路)"},{"poiid":"B2094757D06FA3FB4892","title":"南京路世纪广场","lon":"121.47902","lat":"31.23532","category":"250","category_name":"公园户外","address":"黄浦区南京东路步行街(近浙江中路)"},{"poiid":"B2094757D06EABF5459B","title":"爱辣 I Love","lon":"121.47936","lat":"31.23554","category":"86","category_name":"火锅店","address":"黄浦区南京东路592号李宁专卖10楼(近浙江中路)"},{"poiid":"B2094654DB65A6F94992","title":"上海索菲特海仑宾馆","lon":"121.48085","lat":"31.23567","category":"214","category_name":"四星级宾馆","address":"黄浦区南京东路505号索菲特海仑宾馆内(近福建中路)"},{"poiid":"B2094757D069A3FD4699","title":"麻辣诱惑(南京东路店)","lon":"121.479494738","lat":"31.2352084062","category":"71","category_name":"四川菜","address":"黄浦区南京东路588号丝绸商厦6楼(世纪广场对面)"},{"poiid":"B2094750D665A0F4469F","title":"千彩我的小火锅(南京东路店)","lon":"121.479","lat":"31.2357","category":"86","category_name":"火锅店","address":"黄浦区南京东路588号丝绸大厦7楼(近福建中路)"},{"poiid":"B2094757D06FA3FF4893","title":"沈大成(南京东路总店)","lon":"121.47873","lat":"31.23552","category":"257","category_name":"中餐厅","address":"上海黄浦区南京东路636号(近浙江中路)"},{"poiid":"B2094751D564AAFF4499","title":"吾桑格韩国家庭料理","lon":"121.479201","lat":"31.235441","category":"247","category_name":"餐饮美食","address":"黄浦区南京东路592号中丝亚太6楼(近浙江中路)"},{"poiid":"B2094750D66EA5FA499D","title":"居食屋和民(宏伊店)","lon":"121.48034098406981","lat":"31.235845913800915","category":"95","category_name":"日本料理","address":"黄浦区南京东路299号宏伊广场6楼(近河南中路)"},{"poiid":"B2094757D06FA0F9409B","title":"星巴克(上海古象大酒店)","lon":"121.479507","lat":"31.234364","category":"65","category_name":"咖啡厅","address":"黄浦区九江路595号古象大酒店内(近湖北路)"},{"poiid":"B2094757D06FA7FE449A","title":"老盛昌苏州汤包馆(南京路店)","lon":"121.480167144","lat":"31.2359769117","category":"68","category_name":"快餐厅","address":"黄浦区福建中路335号(南京东路口)"},{"poiid":"B2094757D06FA6FC489E","title":"真老大房(南京东路店)","lon":"121.48035","lat":"31.23572","category":"68","category_name":"快餐厅","address":"黄浦区南京东路536号(近福建中路)"},{"poiid":"B2094757D068A7FB4398","title":"必胜客(三阳店)","lon":"121.4802334","lat":"31.2357621","category":"94","category_name":"西餐厅","address":"黄浦区南京东路626-636号2楼(近浙江中路)"},{"poiid":"B2094752D06BA6F8409F","title":"耶里夏利","lon":"121.480537","lat":"31.236887","category":"247","category_name":"餐饮美食","address":"上海市黄浦区南京东路819号百联世茂国际广场7楼"},{"poiid":"B2094757D06FA2FA459F","title":"萨莉亚(南京东路店)","lon":"121.479122037","lat":"31.2359141172","category":"94","category_name":"西餐厅","address":"黄浦区南京东路592号中丝亚太商厦8搂(近浙江中路)"},{"poiid":"B2094757D06FA2FE4392","title":"老妈米线(南京东路店)","lon":"121.47943","lat":"31.23552","category":"86","category_name":"火锅店","address":"黄浦区南京东路592号中丝亚太伊都锦7楼(近浙江中路)"},{"poiid":"B2094750D36BA1F8429F","title":"南京路","lon":"121.478797","lat":"31.238767","category":"500","category_name":"未知分类","address":null},{"poiid":"B2094757D169A0F5409E","title":"沈大成","lon":"121.4792633","lat":"31.235628128","category":"500","category_name":"未知分类","address":"中国上海市黃浦區南京路步行街"},{"poiid":"B2094655D26FA6FB469B","title":"傣妹火锅(南京路步行街)","lon":"121.4792","lat":"31.23581","category":"86","category_name":"火锅店","address":"南京东路588号中丝亚大商厦"},{"poiid":"B2094757D66EABFF4298","title":"扬州饭店 黄浦店","lon":"121.48030093845","lat":"31.235701053164","category":"74","category_name":"江苏菜","address":"黄浦区南京东路636号(南京东路世纪广场)"},{"poiid":"B2094757D06FA6F8439E","title":"庄氏隆兴小龙虾面馆(浙江店)","lon":"121.47795","lat":"31.2365","category":"68","category_name":"快餐厅","address":"黄浦区浙江中路441号(近宁波路)"},{"poiid":"B2094757D469A1FE4893","title":"肯德基 南京东路 KFC","lon":"121.47923774798","lat":"31.236100948392","category":"68","category_name":"快餐厅","address":"黄浦区南京东路380号(近地铁2号线南京东路站)"},{"poiid":"B2094654DA6FA0FF449D","title":"世纪广场","lon":"121.47972","lat":"31.23531","category":"201","category_name":"城市广场","address":"黄浦区南京路步行街"},{"poiid":"B2094751D46AA2F54392","title":"雲上云源生态云南菜","lon":"121.4811952","lat":"31.2365955","category":"247","category_name":"餐饮美食","address":"南京东路233号南京大厦5楼(近河南中路)"},{"poiid":"B2094654DA6FA5FF4599","title":"康乃馨食府","lon":"121.48087","lat":"31.23567","category":"76","category_name":"上海菜","address":"黄浦区南京东路505号索菲特海仑宾馆3楼(近福建中路)"},{"poiid":"B2094750D76FA5FC4393","title":"札幌北海道极味拉面","lon":"121.48023","lat":"31.23576","category":"68","category_name":"快餐厅","address":"黄浦区南京东路299号宏伊广场B1楼(近河南中路)"},{"poiid":"B2094654DA6FA2FB4398","title":"德兴面馆 福建中路店","lon":"121.47935386253","lat":"31.238526806361","category":"68","category_name":"快餐厅","address":"黄浦区福建中路529号(近北京东路)"},{"poiid":"B2094654DA6FA5FF4699","title":"新世界休闲港湾","lon":"121.48114","lat":"31.23594","category":"46","category_name":"楼宇","address":"黄浦区南京东路479号新世界先施休闲港湾内(近福建中路)"},{"poiid":"B2094757DB6FA2FD4798","title":"东方商厦","lon":"121.47885328","lat":"31.23637324","category":"249","category_name":"购物服务","address":"南京东路步行街"},{"poiid":"B2094757D068A0FC4292","title":"厚味麻辣香锅","lon":"121.479981738","lat":"31.2377874612","category":"71","category_name":"四川菜","address":"黄浦区南京东路592号中丝亚太商厦11楼(近浙江中路)"},{"poiid":"B2094654DB6BA4F54192","title":"避风塘","lon":"121.47863","lat":"31.23571","category":"111","category_name":"休闲餐饮场所","address":"南京东路6261-2层"},{"poiid":"B2094654DB69A4F44793","title":"味千拉面(宝大祥店)","lon":"121.47941","lat":"31.23698","category":"68","category_name":"快餐厅","address":"黄浦区南京东路673-699号宝大祥商厦7楼(近广西北路)"},{"poiid":"B2094752D069A0F9489A","title":"哈根达斯","lon":"121.4795648376961","lat":"31.2371988596285","category":"247","category_name":"餐饮美食","address":"南京东路299号"},{"poiid":"B2094655D26AA1F44992","title":"索菲特海仑酒店","lon":"121.48087","lat":"31.23567","category":"250","category_name":"公园户外","address":"黄浦区南京东路505号(近福建中路)"},{"poiid":"B2094750D66BAAF8429F","title":"老客了酒楼","lon":"121.48","lat":"31.2366","category":"76","category_name":"上海菜","address":"黄浦区福建中路374-376号(近南京东路)"},{"poiid":"B2094757D464AAFA489E","title":"味千拉面 先施店","lon":"121.48017943551","lat":"31.235618381776","category":"95","category_name":"日本料理","address":"黄浦区南京东路479号新世界先施休闲港湾内(近福建中路)"},{"poiid":"B2094757D06FA7FC4393","title":"ME&amp;CITY(南京东路旗舰店)","lon":"121.47971","lat":"31.23551","category":"141","category_name":"服装鞋帽皮具店","address":"上海黄浦区南京东路580号(近浙江中路)  "},{"poiid":"B2094757D16CA7F8499D","title":"半岛酒店玫瑰厅","lon":"121.48065673","lat":"31.236851441","category":"217","category_name":"旅馆招待所","address":"上海市黄浦区中山东一路32号"},{"poiid":"B2094757D069ABF5429C","title":"王开摄影(南京东路店)","lon":"121.48026","lat":"31.23653","category":"249","category_name":"购物服务","address":"上海黄浦区南京东路378号5-6楼(山西南路口)"},{"poiid":"B2094757D06FAAFA4692","title":"第一医药商店(南京东路店)","lon":"121.47928","lat":"31.23552","category":"255","category_name":"专卖店","address":"黄浦区南京东路616号第一医药商店内(近浙江中路)"},{"poiid":"B2094655D265A4FE449B","title":"上海诺基亚旗舰店","lon":"121.48005","lat":"31.23578","category":"138","category_name":"家电电子卖场","address":"黄浦区南京东路546号(近福建中路)"},{"poiid":"B2094750D76EA1FF439F","title":"乡村基(南京东路店)","lon":"121.48","lat":"31.2358","category":"68","category_name":"快餐厅","address":"黄浦区南京东路586号(近置地广场)"},{"poiid":"B2094757D569A2FA469A","title":"金钟咖啡酒吧","lon":"121.48027941","lat":"31.23563639","category":"260","category_name":"其他","address":"黄浦区南京东路步行街世纪广场(近浙江中路)"}]