[{"poiid":"B2094654DB6BA7FF439B","title":"长风公园","lon":"121.39952","lat":"31.22399","category":"196","category_name":"公园","address":"普陀区枣阳路510号(近华师大后门)"},{"poiid":"B2094757D065A6FE479C","title":"长风景畔广场","lon":"121.394962586","lat":"31.2244993189","category":"500","category_name":"未知分类","address":"普陀区大渡河路178号(近云岭东路)"},{"poiid":"B2094757D068A5FE4693","title":"Parkside Plaza 长风景畔广场","lon":"121.396404886","lat":"31.2230774911","category":"500","category_name":"未知分类","address":"上海大渡河路196号(近云岭东路)"},{"poiid":"B2094757D068A7FC4192","title":"好乐迪(长风公园店)","lon":"121.396226586","lat":"31.2247633241","category":"196","category_name":"公园","address":"普陀区大渡河路452号国盛中心B1楼(近长风公园)"},{"poiid":"B2094757D06FA7F9469E","title":"长风海洋世界极地白鲸表演馆","lon":"121.39928374","lat":"31.223985756","category":"196","category_name":"公园","address":"上海普陀区枣阳路525号长风公园内"},{"poiid":"B2094757D06FA3FB419D","title":"新发展亚太万豪酒店","lon":"121.39679","lat":"31.2213","category":"260","category_name":"其他","address":"普陀区大渡河路158号新发展亚太万豪酒店(近光复西路)"},{"poiid":"B2094655D26DA3F54093","title":"长风公园(四号门)","lon":"121.3966","lat":"31.22461","category":"680","category_name":"楼宇机构","address":"大渡河路451"},{"poiid":"B2094757DA6FA3FE459D","title":"华谊兄弟影院","lon":"121.396327000001","lat":"31.2288720000002","category":"248","category_name":"生活娱乐","address":"普陀区大渡河路178号长风景畔广场5楼L5-07(近长风公园4号门)"},{"poiid":"B2094757D469A0FF419C","title":"星巴克(长风景畔广场店)","lon":"121.3966869","lat":"31.2215055","category":"260","category_name":"其他","address":"普陀区大渡河路178号长风景畔广场1楼01室(近长风公园4号门)"},{"poiid":"B2094654DB6BA7FF439A","title":"上海长风海洋世界","lon":"121.39955","lat":"31.22399","category":"196","category_name":"公园","address":"大渡河路451"},{"poiid":"B2094757D06FA2F8479F","title":"国丰酒店","lon":"121.39482","lat":"31.22337","category":"213","category_name":"五星级宾馆","address":"上海普陀区云岭东路78号3号座(大渡河路口)"},{"poiid":"B2094757D469A0FF419D","title":"俏江南 长风景畔店","lon":"121.39551401138","lat":"31.223022770312","category":"71","category_name":"四川菜","address":"普陀区大渡河路168弄56号长风景畔广场3楼15-17室(近长风公园4号门)"},{"poiid":"B2094757D06FA7FD409E","title":"迪士卡卡丁车赛车馆(Disckart Indoor Karting)","lon":"121.40163","lat":"31.22478","category":"220","category_name":"运动场所","address":"普陀区枣阳路809号长风公园附近(近华师大后门)"},{"poiid":"B2094757D06FA5FC499E","title":"上海游艇会","lon":"121.396690071","lat":"31.2204165715","category":"76","category_name":"上海菜","address":"普陀区大渡河路160号(近光复西路)查看地图"},{"poiid":"B2094757DB68A4F8469F","title":"膳道","lon":"121.39583587647","lat":"31.224729273085","category":"260","category_name":"其他","address":"普陀区大渡河路452号国盛时尚4楼(近云岭东路)"},{"poiid":"B2094750D76FAAFF499E","title":"PANKOO釜山料理(长风景畔店)","lon":"121.39529","lat":"31.22331","category":"96","category_name":"韩国料理","address":"普陀区大渡河路178号长风景畔广场4楼28-29室(近长风公园4号门)"},{"poiid":"B2094750D26EA7F84493","title":"大户屋日本料理","lon":"121.39641523361","lat":"31.221279536744","category":"95","category_name":"日本料理","address":"普陀区大渡河路178号长风景畔广场4楼402号铺(近云岭东路)"},{"poiid":"B2094757D068A4F44193","title":"必胜客(国盛店)","lon":"121.39630958","lat":"31.225630341","category":"94","category_name":"西餐厅","address":"普陀区大渡河路588号国盛时尚内"},{"poiid":"B2094655D26DA3FD449D","title":"凯博佳豪酒店","lon":"121.39606","lat":"31.22945","category":"250","category_name":"公园户外","address":"普陀区大渡河路658号(近金沙江路)"},{"poiid":"B2094757DA6AA5FE449C","title":"斗牛士","lon":"121.3905061562251","lat":"31.22449035448877","category":"247","category_name":"餐饮美食","address":"普陀区大渡河路178号长风景畔广场4楼25-26室(近长风公园4号门)"},{"poiid":"B2094750D26FA0F8419F","title":"湘乐汇 长风景畔广场店","lon":"121.39639377594","lat":"31.221573136228","category":"77","category_name":"湖南菜","address":"普陀区大渡河路196号长风景畔广场4楼(近云岭东路)"},{"poiid":"B2094757DB68AAFE4592","title":"021上海菜主题餐厅 长风公园店","lon":"121.3966869","lat":"31.2215055","category":"76","category_name":"上海菜","address":"普陀区大渡河路168号长风景畔广场4楼(近云岭东路)"},{"poiid":"B2094750D565A5FB439D","title":"海老","lon":"121.395545","lat":"31.222381","category":"247","category_name":"餐饮美食","address":"普陀区大渡河路196号长风公园景畔广场4楼38号铺(近云岭东路)"},{"poiid":"B2094751D568ABF44399","title":"禅边","lon":"121.394104","lat":"31.225416","category":"247","category_name":"餐饮美食","address":"普陀区云岭东路88号成龙电影艺术馆2号楼(近中江路)"},{"poiid":"B2094757D16FA7FF429D","title":"呷哺呷哺 (长风景畔店)","lon":"121.396005186","lat":"31.2235616006","category":"86","category_name":"火锅店","address":"普陀区大渡河路178号B1楼01室LB1-06商铺、LB1-07商铺(近云岭东路)"},{"poiid":"B2094750D26CA0F4499A","title":"吉亨面馆(长风景畔广场店)","lon":"121.3965534563223","lat":"31.221600926323504","category":"68","category_name":"快餐厅","address":"普陀区大渡河路196号长风景畔广场2楼(长风公园4号门对面)"},{"poiid":"B2094757DA68A1F9429E","title":"吞云小莳 长风景畔广场店","lon":"121.3966696","lat":"31.2215473","category":"91","category_name":"台湾菜","address":"普陀区大渡河路178号长风景畔广场1楼L1-19(近长风公园)"},{"poiid":"B2094757D06FA4F84592","title":"北岸长风","lon":"121.39634","lat":"31.221179","category":"46","category_name":"楼宇","address":"大渡河路168弄6号1楼(光复西路口)"},{"poiid":"B2094757D164A4F4439F","title":"阿拉丁麻辣烫","lon":"121.394442586","lat":"31.2254923384","category":"68","category_name":"快餐厅","address":"普陀区大渡河路178号长风景畔广场B1楼1铺(近长风公园)"},{"poiid":"B2094757D068A4F5469A","title":"乐购大渡河路店","lon":"121.398223586","lat":"31.2222962758","category":"118","category_name":"超级市场","address":"普陀区大渡河路178号景畔广场B1楼01A"},{"poiid":"B2094757D16CA7FC489E","title":"珍缘味港式茶餐厅","lon":"121.39503778","lat":"31.224848925","category":"72","category_name":"广东菜","address":"普陀区大渡河路452号国盛中心3楼(长风公园4号门对面)"},{"poiid":"B2094757D068A7FB4992","title":"国盛时尚","lon":"121.396243","lat":"31.227095","category":"119","category_name":"商场","address":"上海大渡河路588号"},{"poiid":"B2094753D26DA7F9469F","title":"3D奇幻印象馆","lon":"121.39337537817","lat":"31.225413167114","category":"183","category_name":"展览馆","address":"普陀区大渡河路452号国盛时尚中心2楼（长风海洋世界对面）"},{"poiid":"B2094757D16BABF5479F","title":"国丰酒店锦丰咖啡厅","lon":"121.394137586","lat":"31.2243041151","category":"268","category_name":"自助","address":"普陀区大渡河路388号国盛中心1号座1楼(近云岭东路)"},{"poiid":"B2094750D665A4F84498","title":"太平洋咖啡(长风景畔广场店)","lon":"121.395","lat":"31.223","category":"260","category_name":"其他","address":"普陀区大渡河路178号长风景畔广场1楼108室(近长风公园4号门)"},{"poiid":"B2094757D46CA7FA4798","title":"肯德基 云岭东路店 KFC","lon":"121.3946944","lat":"31.2236697","category":"68","category_name":"快餐厅","address":"普陀区大渡河路588号国盛时尚购物中心1楼"},{"poiid":"B2094757D165A1FD439A","title":"長風公園","lon":"121.396331072","lat":"31.224164496","category":"196","category_name":"公园","address":"上海光復西路"},{"poiid":"B2094654DB6BA7FF4293","title":"长风公园(南门)","lon":"121.39805","lat":"31.22175","category":"680","category_name":"楼宇机构","address":"大渡河路189"},{"poiid":"B2094750D76EA4F4429B","title":"味千拉面(长风景畔店)","lon":"121.397","lat":"31.2214","category":"95","category_name":"日本料理","address":"普陀区大渡河路196号长风公园景畔广场内(近云岭东路)"},{"poiid":"B2094757D764A5F4419A","title":"许留山 国盛时尚店 Hui Lau Shan","lon":"121.396243","lat":"31.2271955","category":"67","category_name":"甜品店","address":"普陀区大渡河路588号(国盛时尚购物中心内)"},{"poiid":"B2094757D46EA4F54499","title":"I.Z.K.Y.居酒屋","lon":"121.39466","lat":"31.22366","category":"95","category_name":"日本料理","address":"普陀区大渡河路388号国盛中心1号座1楼(近云岭东路)"},{"poiid":"B2094655D265AAF84299","title":"长风国际大厦","lon":"121.39325","lat":"31.22319","category":"46","category_name":"楼宇","address":"云岭东路88号-1"},{"poiid":"B2094654DB6BA7FF4398","title":"长风公园3号门","lon":"121.39938","lat":"31.22871","category":"680","category_name":"楼宇机构","address":"怒江路140弄11"},{"poiid":"B2094757D469A0FD489D","title":"福苑 Park Cafe","lon":"121.396145","lat":"31.224434","category":"268","category_name":"自助","address":"大渡河路158号新发展亚太万豪酒店1楼近长风公园"},{"poiid":"B2094757D16BA3FD4292","title":"必胜客","lon":"121.39701458","lat":"31.225520338","category":"500","category_name":"未知分类","address":"上海市普陀区中江路"},{"poiid":"B2094750D26EABFD4193","title":"萨莉亚 长风景畔广场店","lon":"121.3966696","lat":"31.2215473","category":"94","category_name":"西餐厅","address":"普陀区大渡河路178号长风景畔广场4楼(近长风公园4号门)"},{"poiid":"B2094655D26EA5F5479D","title":"大洋海底世界","lon":"121.39955","lat":"31.22399","category":"199","category_name":"水族馆","address":"大渡河路451号长风公园4号门内"},{"poiid":"B2094757D469A3F44399","title":"长风海洋世界鲨鱼隧道晚宴 Chang  Feng Oceanworld","lon":"121.3977330132","lat":"31.22708043051","category":"268","category_name":"自助","address":"普陀区枣阳路510号长风公园内(近云岭东路)"},{"poiid":"B2094757D465A2F5429A","title":"国丰酒店银锄轩中餐厅","lon":"121.39466","lat":"31.22366","category":"72","category_name":"广东菜","address":"普陀区大渡河路388号国盛中心1号座2楼(近云岭东路)"},{"poiid":"B2094757DA65A3F4499F","title":"上海长风海洋馆","lon":"121.3965676623731","lat":"31.22574020700566","category":"250","category_name":"公园户外","address":"大渡河路"},{"poiid":"B2094654DB6BA7FF439B","title":"长风公园","lon":"121.39952","lat":"31.22399","category":"196","category_name":"公园","address":"普陀区枣阳路510号(近华师大后门)"},{"poiid":"B2094757D065A6FE479C","title":"长风景畔广场","lon":"121.394962586","lat":"31.2244993189","category":"500","category_name":"未知分类","address":"普陀区大渡河路178号(近云岭东路)"},{"poiid":"B2094757D068A5FE4693","title":"Parkside Plaza 长风景畔广场","lon":"121.396404886","lat":"31.2230774911","category":"500","category_name":"未知分类","address":"上海大渡河路196号(近云岭东路)"},{"poiid":"B2094757D068A7FC4192","title":"好乐迪(长风公园店)","lon":"121.396226586","lat":"31.2247633241","category":"196","category_name":"公园","address":"普陀区大渡河路452号国盛中心B1楼(近长风公园)"},{"poiid":"B2094757D06FA7F9469E","title":"长风海洋世界极地白鲸表演馆","lon":"121.39928374","lat":"31.223985756","category":"196","category_name":"公园","address":"上海普陀区枣阳路525号长风公园内"},{"poiid":"B2094757D06FA3FB419D","title":"新发展亚太万豪酒店","lon":"121.39679","lat":"31.2213","category":"260","category_name":"其他","address":"普陀区大渡河路158号新发展亚太万豪酒店(近光复西路)"},{"poiid":"B2094655D26DA3F54093","title":"长风公园(四号门)","lon":"121.3966","lat":"31.22461","category":"680","category_name":"楼宇机构","address":"大渡河路451"},{"poiid":"B2094757DA6FA3FE459D","title":"华谊兄弟影院","lon":"121.396327000001","lat":"31.2288720000002","category":"248","category_name":"生活娱乐","address":"普陀区大渡河路178号长风景畔广场5楼L5-07(近长风公园4号门)"},{"poiid":"B2094757D469A0FF419C","title":"星巴克(长风景畔广场店)","lon":"121.3966869","lat":"31.2215055","category":"260","category_name":"其他","address":"普陀区大渡河路178号长风景畔广场1楼01室(近长风公园4号门)"},{"poiid":"B2094654DB6BA7FF439A","title":"上海长风海洋世界","lon":"121.39955","lat":"31.22399","category":"196","category_name":"公园","address":"大渡河路451"},{"poiid":"B2094757D06FA2F8479F","title":"国丰酒店","lon":"121.39482","lat":"31.22337","category":"213","category_name":"五星级宾馆","address":"上海普陀区云岭东路78号3号座(大渡河路口)"},{"poiid":"B2094757D469A0FF419D","title":"俏江南 长风景畔店","lon":"121.39551401138","lat":"31.223022770312","category":"71","category_name":"四川菜","address":"普陀区大渡河路168弄56号长风景畔广场3楼15-17室(近长风公园4号门)"},{"poiid":"B2094757D06FA7FD409E","title":"迪士卡卡丁车赛车馆(Disckart Indoor Karting)","lon":"121.40163","lat":"31.22478","category":"220","category_name":"运动场所","address":"普陀区枣阳路809号长风公园附近(近华师大后门)"},{"poiid":"B2094757D06FA5FC499E","title":"上海游艇会","lon":"121.396690071","lat":"31.2204165715","category":"76","category_name":"上海菜","address":"普陀区大渡河路160号(近光复西路)查看地图"},{"poiid":"B2094757DB68A4F8469F","title":"膳道","lon":"121.39583587647","lat":"31.224729273085","category":"260","category_name":"其他","address":"普陀区大渡河路452号国盛时尚4楼(近云岭东路)"},{"poiid":"B2094750D76FAAFF499E","title":"PANKOO釜山料理(长风景畔店)","lon":"121.39529","lat":"31.22331","category":"96","category_name":"韩国料理","address":"普陀区大渡河路178号长风景畔广场4楼28-29室(近长风公园4号门)"},{"poiid":"B2094750D26EA7F84493","title":"大户屋日本料理","lon":"121.39641523361","lat":"31.221279536744","category":"95","category_name":"日本料理","address":"普陀区大渡河路178号长风景畔广场4楼402号铺(近云岭东路)"},{"poiid":"B2094757D068A4F44193","title":"必胜客(国盛店)","lon":"121.39630958","lat":"31.225630341","category":"94","category_name":"西餐厅","address":"普陀区大渡河路588号国盛时尚内"},{"poiid":"B2094655D26DA3FD449D","title":"凯博佳豪酒店","lon":"121.39606","lat":"31.22945","category":"250","category_name":"公园户外","address":"普陀区大渡河路658号(近金沙江路)"},{"poiid":"B2094757DA6AA5FE449C","title":"斗牛士","lon":"121.3905061562251","lat":"31.22449035448877","category":"247","category_name":"餐饮美食","address":"普陀区大渡河路178号长风景畔广场4楼25-26室(近长风公园4号门)"},{"poiid":"B2094750D26FA0F8419F","title":"湘乐汇 长风景畔广场店","lon":"121.39639377594","lat":"31.221573136228","category":"77","category_name":"湖南菜","address":"普陀区大渡河路196号长风景畔广场4楼(近云岭东路)"},{"poiid":"B2094757DB68AAFE4592","title":"021上海菜主题餐厅 长风公园店","lon":"121.3966869","lat":"31.2215055","category":"76","category_name":"上海菜","address":"普陀区大渡河路168号长风景畔广场4楼(近云岭东路)"},{"poiid":"B2094750D565A5FB439D","title":"海老","lon":"121.395545","lat":"31.222381","category":"247","category_name":"餐饮美食","address":"普陀区大渡河路196号长风公园景畔广场4楼38号铺(近云岭东路)"},{"poiid":"B2094751D568ABF44399","title":"禅边","lon":"121.394104","lat":"31.225416","category":"247","category_name":"餐饮美食","address":"普陀区云岭东路88号成龙电影艺术馆2号楼(近中江路)"},{"poiid":"B2094757D16FA7FF429D","title":"呷哺呷哺 (长风景畔店)","lon":"121.396005186","lat":"31.2235616006","category":"86","category_name":"火锅店","address":"普陀区大渡河路178号B1楼01室LB1-06商铺、LB1-07商铺(近云岭东路)"},{"poiid":"B2094750D26CA0F4499A","title":"吉亨面馆(长风景畔广场店)","lon":"121.3965534563223","lat":"31.221600926323504","category":"68","category_name":"快餐厅","address":"普陀区大渡河路196号长风景畔广场2楼(长风公园4号门对面)"},{"poiid":"B2094757DA68A1F9429E","title":"吞云小莳 长风景畔广场店","lon":"121.3966696","lat":"31.2215473","category":"91","category_name":"台湾菜","address":"普陀区大渡河路178号长风景畔广场1楼L1-19(近长风公园)"},{"poiid":"B2094757D06FA4F84592","title":"北岸长风","lon":"121.39634","lat":"31.221179","category":"46","category_name":"楼宇","address":"大渡河路168弄6号1楼(光复西路口)"},{"poiid":"B2094757D164A4F4439F","title":"阿拉丁麻辣烫","lon":"121.394442586","lat":"31.2254923384","category":"68","category_name":"快餐厅","address":"普陀区大渡河路178号长风景畔广场B1楼1铺(近长风公园)"},{"poiid":"B2094757D068A4F5469A","title":"乐购大渡河路店","lon":"121.398223586","lat":"31.2222962758","category":"118","category_name":"超级市场","address":"普陀区大渡河路178号景畔广场B1楼01A"},{"poiid":"B2094757D16CA7FC489E","title":"珍缘味港式茶餐厅","lon":"121.39503778","lat":"31.224848925","category":"72","category_name":"广东菜","address":"普陀区大渡河路452号国盛中心3楼(长风公园4号门对面)"},{"poiid":"B2094757D068A7FB4992","title":"国盛时尚","lon":"121.396243","lat":"31.227095","category":"119","category_name":"商场","address":"上海大渡河路588号"},{"poiid":"B2094753D26DA7F9469F","title":"3D奇幻印象馆","lon":"121.39337537817","lat":"31.225413167114","category":"183","category_name":"展览馆","address":"普陀区大渡河路452号国盛时尚中心2楼（长风海洋世界对面）"},{"poiid":"B2094757D16BABF5479F","title":"国丰酒店锦丰咖啡厅","lon":"121.394137586","lat":"31.2243041151","category":"268","category_name":"自助","address":"普陀区大渡河路388号国盛中心1号座1楼(近云岭东路)"},{"poiid":"B2094750D665A4F84498","title":"太平洋咖啡(长风景畔广场店)","lon":"121.395","lat":"31.223","category":"260","category_name":"其他","address":"普陀区大渡河路178号长风景畔广场1楼108室(近长风公园4号门)"},{"poiid":"B2094757D46CA7FA4798","title":"肯德基 云岭东路店 KFC","lon":"121.3946944","lat":"31.2236697","category":"68","category_name":"快餐厅","address":"普陀区大渡河路588号国盛时尚购物中心1楼"},{"poiid":"B2094757D165A1FD439A","title":"長風公園","lon":"121.396331072","lat":"31.224164496","category":"196","category_name":"公园","address":"上海光復西路"},{"poiid":"B2094654DB6BA7FF4293","title":"长风公园(南门)","lon":"121.39805","lat":"31.22175","category":"680","category_name":"楼宇机构","address":"大渡河路189"},{"poiid":"B2094750D76EA4F4429B","title":"味千拉面(长风景畔店)","lon":"121.397","lat":"31.2214","category":"95","category_name":"日本料理","address":"普陀区大渡河路196号长风公园景畔广场内(近云岭东路)"},{"poiid":"B2094757D764A5F4419A","title":"许留山 国盛时尚店 Hui Lau Shan","lon":"121.396243","lat":"31.2271955","category":"67","category_name":"甜品店","address":"普陀区大渡河路588号(国盛时尚购物中心内)"},{"poiid":"B2094757D46EA4F54499","title":"I.Z.K.Y.居酒屋","lon":"121.39466","lat":"31.22366","category":"95","category_name":"日本料理","address":"普陀区大渡河路388号国盛中心1号座1楼(近云岭东路)"},{"poiid":"B2094655D265AAF84299","title":"长风国际大厦","lon":"121.39325","lat":"31.22319","category":"46","category_name":"楼宇","address":"云岭东路88号-1"},{"poiid":"B2094654DB6BA7FF4398","title":"长风公园3号门","lon":"121.39938","lat":"31.22871","category":"680","category_name":"楼宇机构","address":"怒江路140弄11"},{"poiid":"B2094757D469A0FD489D","title":"福苑 Park Cafe","lon":"121.396145","lat":"31.224434","category":"268","category_name":"自助","address":"大渡河路158号新发展亚太万豪酒店1楼近长风公园"},{"poiid":"B2094757D16BA3FD4292","title":"必胜客","lon":"121.39701458","lat":"31.225520338","category":"500","category_name":"未知分类","address":"上海市普陀区中江路"},{"poiid":"B2094750D26EABFD4193","title":"萨莉亚 长风景畔广场店","lon":"121.3966696","lat":"31.2215473","category":"94","category_name":"西餐厅","address":"普陀区大渡河路178号长风景畔广场4楼(近长风公园4号门)"},{"poiid":"B2094655D26EA5F5479D","title":"大洋海底世界","lon":"121.39955","lat":"31.22399","category":"199","category_name":"水族馆","address":"大渡河路451号长风公园4号门内"},{"poiid":"B2094757D469A3F44399","title":"长风海洋世界鲨鱼隧道晚宴 Chang  Feng Oceanworld","lon":"121.3977330132","lat":"31.22708043051","category":"268","category_name":"自助","address":"普陀区枣阳路510号长风公园内(近云岭东路)"},{"poiid":"B2094757D465A2F5429A","title":"国丰酒店银锄轩中餐厅","lon":"121.39466","lat":"31.22366","category":"72","category_name":"广东菜","address":"普陀区大渡河路388号国盛中心1号座2楼(近云岭东路)"},{"poiid":"B2094757DA65A3F4499F","title":"上海长风海洋馆","lon":"121.3965676623731","lat":"31.22574020700566","category":"250","category_name":"公园户外","address":"大渡河路"},{"poiid":"B2094654DB6BA7FF439B","title":"长风公园","lon":"121.39952","lat":"31.22399","category":"196","category_name":"公园","address":"普陀区枣阳路510号(近华师大后门)"},{"poiid":"B2094757D065A6FE479C","title":"长风景畔广场","lon":"121.394962586","lat":"31.2244993189","category":"500","category_name":"未知分类","address":"普陀区大渡河路178号(近云岭东路)"},{"poiid":"B2094757D068A5FE4693","title":"Parkside Plaza 长风景畔广场","lon":"121.396404886","lat":"31.2230774911","category":"500","category_name":"未知分类","address":"上海大渡河路196号(近云岭东路)"},{"poiid":"B2094757D068A7FC4192","title":"好乐迪(长风公园店)","lon":"121.396226586","lat":"31.2247633241","category":"196","category_name":"公园","address":"普陀区大渡河路452号国盛中心B1楼(近长风公园)"},{"poiid":"B2094757D06FA7F9469E","title":"长风海洋世界极地白鲸表演馆","lon":"121.39928374","lat":"31.223985756","category":"196","category_name":"公园","address":"上海普陀区枣阳路525号长风公园内"},{"poiid":"B2094757D06FA3FB419D","title":"新发展亚太万豪酒店","lon":"121.39679","lat":"31.2213","category":"260","category_name":"其他","address":"普陀区大渡河路158号新发展亚太万豪酒店(近光复西路)"},{"poiid":"B2094655D26DA3F54093","title":"长风公园(四号门)","lon":"121.3966","lat":"31.22461","category":"680","category_name":"楼宇机构","address":"大渡河路451"},{"poiid":"B2094757DA6FA3FE459D","title":"华谊兄弟影院","lon":"121.396327000001","lat":"31.2288720000002","category":"248","category_name":"生活娱乐","address":"普陀区大渡河路178号长风景畔广场5楼L5-07(近长风公园4号门)"},{"poiid":"B2094757D469A0FF419C","title":"星巴克(长风景畔广场店)","lon":"121.3966869","lat":"31.2215055","category":"260","category_name":"其他","address":"普陀区大渡河路178号长风景畔广场1楼01室(近长风公园4号门)"},{"poiid":"B2094654DB6BA7FF439A","title":"上海长风海洋世界","lon":"121.39955","lat":"31.22399","category":"196","category_name":"公园","address":"大渡河路451"},{"poiid":"B2094757D06FA2F8479F","title":"国丰酒店","lon":"121.39482","lat":"31.22337","category":"213","category_name":"五星级宾馆","address":"上海普陀区云岭东路78号3号座(大渡河路口)"},{"poiid":"B2094757D469A0FF419D","title":"俏江南 长风景畔店","lon":"121.39551401138","lat":"31.223022770312","category":"71","category_name":"四川菜","address":"普陀区大渡河路168弄56号长风景畔广场3楼15-17室(近长风公园4号门)"},{"poiid":"B2094757D06FA7FD409E","title":"迪士卡卡丁车赛车馆(Disckart Indoor Karting)","lon":"121.40163","lat":"31.22478","category":"220","category_name":"运动场所","address":"普陀区枣阳路809号长风公园附近(近华师大后门)"},{"poiid":"B2094757D06FA5FC499E","title":"上海游艇会","lon":"121.396690071","lat":"31.2204165715","category":"76","category_name":"上海菜","address":"普陀区大渡河路160号(近光复西路)查看地图"},{"poiid":"B2094757DB68A4F8469F","title":"膳道","lon":"121.39583587647","lat":"31.224729273085","category":"260","category_name":"其他","address":"普陀区大渡河路452号国盛时尚4楼(近云岭东路)"},{"poiid":"B2094750D76FAAFF499E","title":"PANKOO釜山料理(长风景畔店)","lon":"121.39529","lat":"31.22331","category":"96","category_name":"韩国料理","address":"普陀区大渡河路178号长风景畔广场4楼28-29室(近长风公园4号门)"},{"poiid":"B2094750D26EA7F84493","title":"大户屋日本料理","lon":"121.39641523361","lat":"31.221279536744","category":"95","category_name":"日本料理","address":"普陀区大渡河路178号长风景畔广场4楼402号铺(近云岭东路)"},{"poiid":"B2094757D068A4F44193","title":"必胜客(国盛店)","lon":"121.39630958","lat":"31.225630341","category":"94","category_name":"西餐厅","address":"普陀区大渡河路588号国盛时尚内"},{"poiid":"B2094655D26DA3FD449D","title":"凯博佳豪酒店","lon":"121.39606","lat":"31.22945","category":"250","category_name":"公园户外","address":"普陀区大渡河路658号(近金沙江路)"},{"poiid":"B2094757DA6AA5FE449C","title":"斗牛士","lon":"121.3905061562251","lat":"31.22449035448877","category":"247","category_name":"餐饮美食","address":"普陀区大渡河路178号长风景畔广场4楼25-26室(近长风公园4号门)"},{"poiid":"B2094750D26FA0F8419F","title":"湘乐汇 长风景畔广场店","lon":"121.39639377594","lat":"31.221573136228","category":"77","category_name":"湖南菜","address":"普陀区大渡河路196号长风景畔广场4楼(近云岭东路)"},{"poiid":"B2094757DB68AAFE4592","title":"021上海菜主题餐厅 长风公园店","lon":"121.3966869","lat":"31.2215055","category":"76","category_name":"上海菜","address":"普陀区大渡河路168号长风景畔广场4楼(近云岭东路)"},{"poiid":"B2094750D565A5FB439D","title":"海老","lon":"121.395545","lat":"31.222381","category":"247","category_name":"餐饮美食","address":"普陀区大渡河路196号长风公园景畔广场4楼38号铺(近云岭东路)"},{"poiid":"B2094751D568ABF44399","title":"禅边","lon":"121.394104","lat":"31.225416","category":"247","category_name":"餐饮美食","address":"普陀区云岭东路88号成龙电影艺术馆2号楼(近中江路)"},{"poiid":"B2094757D16FA7FF429D","title":"呷哺呷哺 (长风景畔店)","lon":"121.396005186","lat":"31.2235616006","category":"86","category_name":"火锅店","address":"普陀区大渡河路178号B1楼01室LB1-06商铺、LB1-07商铺(近云岭东路)"},{"poiid":"B2094750D26CA0F4499A","title":"吉亨面馆(长风景畔广场店)","lon":"121.3965534563223","lat":"31.221600926323504","category":"68","category_name":"快餐厅","address":"普陀区大渡河路196号长风景畔广场2楼(长风公园4号门对面)"},{"poiid":"B2094757DA68A1F9429E","title":"吞云小莳 长风景畔广场店","lon":"121.3966696","lat":"31.2215473","category":"91","category_name":"台湾菜","address":"普陀区大渡河路178号长风景畔广场1楼L1-19(近长风公园)"},{"poiid":"B2094757D06FA4F84592","title":"北岸长风","lon":"121.39634","lat":"31.221179","category":"46","category_name":"楼宇","address":"大渡河路168弄6号1楼(光复西路口)"},{"poiid":"B2094757D164A4F4439F","title":"阿拉丁麻辣烫","lon":"121.394442586","lat":"31.2254923384","category":"68","category_name":"快餐厅","address":"普陀区大渡河路178号长风景畔广场B1楼1铺(近长风公园)"},{"poiid":"B2094757D068A4F5469A","title":"乐购大渡河路店","lon":"121.398223586","lat":"31.2222962758","category":"118","category_name":"超级市场","address":"普陀区大渡河路178号景畔广场B1楼01A"},{"poiid":"B2094757D16CA7FC489E","title":"珍缘味港式茶餐厅","lon":"121.39503778","lat":"31.224848925","category":"72","category_name":"广东菜","address":"普陀区大渡河路452号国盛中心3楼(长风公园4号门对面)"},{"poiid":"B2094757D068A7FB4992","title":"国盛时尚","lon":"121.396243","lat":"31.227095","category":"119","category_name":"商场","address":"上海大渡河路588号"},{"poiid":"B2094753D26DA7F9469F","title":"3D奇幻印象馆","lon":"121.39337537817","lat":"31.225413167114","category":"183","category_name":"展览馆","address":"普陀区大渡河路452号国盛时尚中心2楼（长风海洋世界对面）"},{"poiid":"B2094757D16BABF5479F","title":"国丰酒店锦丰咖啡厅","lon":"121.394137586","lat":"31.2243041151","category":"268","category_name":"自助","address":"普陀区大渡河路388号国盛中心1号座1楼(近云岭东路)"},{"poiid":"B2094750D665A4F84498","title":"太平洋咖啡(长风景畔广场店)","lon":"121.395","lat":"31.223","category":"260","category_name":"其他","address":"普陀区大渡河路178号长风景畔广场1楼108室(近长风公园4号门)"},{"poiid":"B2094757D46CA7FA4798","title":"肯德基 云岭东路店 KFC","lon":"121.3946944","lat":"31.2236697","category":"68","category_name":"快餐厅","address":"普陀区大渡河路588号国盛时尚购物中心1楼"},{"poiid":"B2094757D165A1FD439A","title":"長風公園","lon":"121.396331072","lat":"31.224164496","category":"196","category_name":"公园","address":"上海光復西路"},{"poiid":"B2094654DB6BA7FF4293","title":"长风公园(南门)","lon":"121.39805","lat":"31.22175","category":"680","category_name":"楼宇机构","address":"大渡河路189"},{"poiid":"B2094750D76EA4F4429B","title":"味千拉面(长风景畔店)","lon":"121.397","lat":"31.2214","category":"95","category_name":"日本料理","address":"普陀区大渡河路196号长风公园景畔广场内(近云岭东路)"},{"poiid":"B2094757D764A5F4419A","title":"许留山 国盛时尚店 Hui Lau Shan","lon":"121.396243","lat":"31.2271955","category":"67","category_name":"甜品店","address":"普陀区大渡河路588号(国盛时尚购物中心内)"},{"poiid":"B2094757D46EA4F54499","title":"I.Z.K.Y.居酒屋","lon":"121.39466","lat":"31.22366","category":"95","category_name":"日本料理","address":"普陀区大渡河路388号国盛中心1号座1楼(近云岭东路)"},{"poiid":"B2094655D265AAF84299","title":"长风国际大厦","lon":"121.39325","lat":"31.22319","category":"46","category_name":"楼宇","address":"云岭东路88号-1"},{"poiid":"B2094654DB6BA7FF4398","title":"长风公园3号门","lon":"121.39938","lat":"31.22871","category":"680","category_name":"楼宇机构","address":"怒江路140弄11"},{"poiid":"B2094757D469A0FD489D","title":"福苑 Park Cafe","lon":"121.396145","lat":"31.224434","category":"268","category_name":"自助","address":"大渡河路158号新发展亚太万豪酒店1楼近长风公园"},{"poiid":"B2094757D16BA3FD4292","title":"必胜客","lon":"121.39701458","lat":"31.225520338","category":"500","category_name":"未知分类","address":"上海市普陀区中江路"},{"poiid":"B2094750D26EABFD4193","title":"萨莉亚 长风景畔广场店","lon":"121.3966696","lat":"31.2215473","category":"94","category_name":"西餐厅","address":"普陀区大渡河路178号长风景畔广场4楼(近长风公园4号门)"},{"poiid":"B2094655D26EA5F5479D","title":"大洋海底世界","lon":"121.39955","lat":"31.22399","category":"199","category_name":"水族馆","address":"大渡河路451号长风公园4号门内"},{"poiid":"B2094757D469A3F44399","title":"长风海洋世界鲨鱼隧道晚宴 Chang  Feng Oceanworld","lon":"121.3977330132","lat":"31.22708043051","category":"268","category_name":"自助","address":"普陀区枣阳路510号长风公园内(近云岭东路)"},{"poiid":"B2094757D465A2F5429A","title":"国丰酒店银锄轩中餐厅","lon":"121.39466","lat":"31.22366","category":"72","category_name":"广东菜","address":"普陀区大渡河路388号国盛中心1号座2楼(近云岭东路)"},{"poiid":"B2094757DA65A3F4499F","title":"上海长风海洋馆","lon":"121.3965676623731","lat":"31.22574020700566","category":"250","category_name":"公园户外","address":"大渡河路"},{"poiid":"B2094654DB6BA7FF439B","title":"长风公园","lon":"121.39952","lat":"31.22399","category":"196","category_name":"公园","address":"普陀区枣阳路510号(近华师大后门)"},{"poiid":"B2094757D065A6FE479C","title":"长风景畔广场","lon":"121.394962586","lat":"31.2244993189","category":"500","category_name":"未知分类","address":"普陀区大渡河路178号(近云岭东路)"},{"poiid":"B2094757D068A5FE4693","title":"Parkside Plaza 长风景畔广场","lon":"121.396404886","lat":"31.2230774911","category":"500","category_name":"未知分类","address":"上海大渡河路196号(近云岭东路)"},{"poiid":"B2094757D068A7FC4192","title":"好乐迪(长风公园店)","lon":"121.396226586","lat":"31.2247633241","category":"196","category_name":"公园","address":"普陀区大渡河路452号国盛中心B1楼(近长风公园)"},{"poiid":"B2094757D06FA7F9469E","title":"长风海洋世界极地白鲸表演馆","lon":"121.39928374","lat":"31.223985756","category":"196","category_name":"公园","address":"上海普陀区枣阳路525号长风公园内"},{"poiid":"B2094757D06FA3FB419D","title":"新发展亚太万豪酒店","lon":"121.39679","lat":"31.2213","category":"260","category_name":"其他","address":"普陀区大渡河路158号新发展亚太万豪酒店(近光复西路)"},{"poiid":"B2094655D26DA3F54093","title":"长风公园(四号门)","lon":"121.3966","lat":"31.22461","category":"680","category_name":"楼宇机构","address":"大渡河路451"},{"poiid":"B2094757DA6FA3FE459D","title":"华谊兄弟影院","lon":"121.396327000001","lat":"31.2288720000002","category":"248","category_name":"生活娱乐","address":"普陀区大渡河路178号长风景畔广场5楼L5-07(近长风公园4号门)"},{"poiid":"B2094757D469A0FF419C","title":"星巴克(长风景畔广场店)","lon":"121.3966869","lat":"31.2215055","category":"260","category_name":"其他","address":"普陀区大渡河路178号长风景畔广场1楼01室(近长风公园4号门)"},{"poiid":"B2094654DB6BA7FF439A","title":"上海长风海洋世界","lon":"121.39955","lat":"31.22399","category":"196","category_name":"公园","address":"大渡河路451"},{"poiid":"B2094757D06FA2F8479F","title":"国丰酒店","lon":"121.39482","lat":"31.22337","category":"213","category_name":"五星级宾馆","address":"上海普陀区云岭东路78号3号座(大渡河路口)"},{"poiid":"B2094757D469A0FF419D","title":"俏江南 长风景畔店","lon":"121.39551401138","lat":"31.223022770312","category":"71","category_name":"四川菜","address":"普陀区大渡河路168弄56号长风景畔广场3楼15-17室(近长风公园4号门)"},{"poiid":"B2094757D06FA7FD409E","title":"迪士卡卡丁车赛车馆(Disckart Indoor Karting)","lon":"121.40163","lat":"31.22478","category":"220","category_name":"运动场所","address":"普陀区枣阳路809号长风公园附近(近华师大后门)"},{"poiid":"B2094757D06FA5FC499E","title":"上海游艇会","lon":"121.396690071","lat":"31.2204165715","category":"76","category_name":"上海菜","address":"普陀区大渡河路160号(近光复西路)查看地图"},{"poiid":"B2094757DB68A4F8469F","title":"膳道","lon":"121.39583587647","lat":"31.224729273085","category":"260","category_name":"其他","address":"普陀区大渡河路452号国盛时尚4楼(近云岭东路)"},{"poiid":"B2094750D76FAAFF499E","title":"PANKOO釜山料理(长风景畔店)","lon":"121.39529","lat":"31.22331","category":"96","category_name":"韩国料理","address":"普陀区大渡河路178号长风景畔广场4楼28-29室(近长风公园4号门)"},{"poiid":"B2094750D26EA7F84493","title":"大户屋日本料理","lon":"121.39641523361","lat":"31.221279536744","category":"95","category_name":"日本料理","address":"普陀区大渡河路178号长风景畔广场4楼402号铺(近云岭东路)"},{"poiid":"B2094757D068A4F44193","title":"必胜客(国盛店)","lon":"121.39630958","lat":"31.225630341","category":"94","category_name":"西餐厅","address":"普陀区大渡河路588号国盛时尚内"},{"poiid":"B2094655D26DA3FD449D","title":"凯博佳豪酒店","lon":"121.39606","lat":"31.22945","category":"250","category_name":"公园户外","address":"普陀区大渡河路658号(近金沙江路)"},{"poiid":"B2094757DA6AA5FE449C","title":"斗牛士","lon":"121.3905061562251","lat":"31.22449035448877","category":"247","category_name":"餐饮美食","address":"普陀区大渡河路178号长风景畔广场4楼25-26室(近长风公园4号门)"},{"poiid":"B2094750D26FA0F8419F","title":"湘乐汇 长风景畔广场店","lon":"121.39639377594","lat":"31.221573136228","category":"77","category_name":"湖南菜","address":"普陀区大渡河路196号长风景畔广场4楼(近云岭东路)"},{"poiid":"B2094757DB68AAFE4592","title":"021上海菜主题餐厅 长风公园店","lon":"121.3966869","lat":"31.2215055","category":"76","category_name":"上海菜","address":"普陀区大渡河路168号长风景畔广场4楼(近云岭东路)"},{"poiid":"B2094750D565A5FB439D","title":"海老","lon":"121.395545","lat":"31.222381","category":"247","category_name":"餐饮美食","address":"普陀区大渡河路196号长风公园景畔广场4楼38号铺(近云岭东路)"},{"poiid":"B2094751D568ABF44399","title":"禅边","lon":"121.394104","lat":"31.225416","category":"247","category_name":"餐饮美食","address":"普陀区云岭东路88号成龙电影艺术馆2号楼(近中江路)"},{"poiid":"B2094757D16FA7FF429D","title":"呷哺呷哺 (长风景畔店)","lon":"121.396005186","lat":"31.2235616006","category":"86","category_name":"火锅店","address":"普陀区大渡河路178号B1楼01室LB1-06商铺、LB1-07商铺(近云岭东路)"},{"poiid":"B2094750D26CA0F4499A","title":"吉亨面馆(长风景畔广场店)","lon":"121.3965534563223","lat":"31.221600926323504","category":"68","category_name":"快餐厅","address":"普陀区大渡河路196号长风景畔广场2楼(长风公园4号门对面)"},{"poiid":"B2094757DA68A1F9429E","title":"吞云小莳 长风景畔广场店","lon":"121.3966696","lat":"31.2215473","category":"91","category_name":"台湾菜","address":"普陀区大渡河路178号长风景畔广场1楼L1-19(近长风公园)"},{"poiid":"B2094757D06FA4F84592","title":"北岸长风","lon":"121.39634","lat":"31.221179","category":"46","category_name":"楼宇","address":"大渡河路168弄6号1楼(光复西路口)"},{"poiid":"B2094757D164A4F4439F","title":"阿拉丁麻辣烫","lon":"121.394442586","lat":"31.2254923384","category":"68","category_name":"快餐厅","address":"普陀区大渡河路178号长风景畔广场B1楼1铺(近长风公园)"},{"poiid":"B2094757D068A4F5469A","title":"乐购大渡河路店","lon":"121.398223586","lat":"31.2222962758","category":"118","category_name":"超级市场","address":"普陀区大渡河路178号景畔广场B1楼01A"},{"poiid":"B2094757D16CA7FC489E","title":"珍缘味港式茶餐厅","lon":"121.39503778","lat":"31.224848925","category":"72","category_name":"广东菜","address":"普陀区大渡河路452号国盛中心3楼(长风公园4号门对面)"},{"poiid":"B2094757D068A7FB4992","title":"国盛时尚","lon":"121.396243","lat":"31.227095","category":"119","category_name":"商场","address":"上海大渡河路588号"},{"poiid":"B2094753D26DA7F9469F","title":"3D奇幻印象馆","lon":"121.39337537817","lat":"31.225413167114","category":"183","category_name":"展览馆","address":"普陀区大渡河路452号国盛时尚中心2楼（长风海洋世界对面）"},{"poiid":"B2094757D16BABF5479F","title":"国丰酒店锦丰咖啡厅","lon":"121.394137586","lat":"31.2243041151","category":"268","category_name":"自助","address":"普陀区大渡河路388号国盛中心1号座1楼(近云岭东路)"},{"poiid":"B2094750D665A4F84498","title":"太平洋咖啡(长风景畔广场店)","lon":"121.395","lat":"31.223","category":"260","category_name":"其他","address":"普陀区大渡河路178号长风景畔广场1楼108室(近长风公园4号门)"},{"poiid":"B2094757D46CA7FA4798","title":"肯德基 云岭东路店 KFC","lon":"121.3946944","lat":"31.2236697","category":"68","category_name":"快餐厅","address":"普陀区大渡河路588号国盛时尚购物中心1楼"},{"poiid":"B2094757D165A1FD439A","title":"長風公園","lon":"121.396331072","lat":"31.224164496","category":"196","category_name":"公园","address":"上海光復西路"},{"poiid":"B2094654DB6BA7FF4293","title":"长风公园(南门)","lon":"121.39805","lat":"31.22175","category":"680","category_name":"楼宇机构","address":"大渡河路189"},{"poiid":"B2094750D76EA4F4429B","title":"味千拉面(长风景畔店)","lon":"121.397","lat":"31.2214","category":"95","category_name":"日本料理","address":"普陀区大渡河路196号长风公园景畔广场内(近云岭东路)"},{"poiid":"B2094757D764A5F4419A","title":"许留山 国盛时尚店 Hui Lau Shan","lon":"121.396243","lat":"31.2271955","category":"67","category_name":"甜品店","address":"普陀区大渡河路588号(国盛时尚购物中心内)"},{"poiid":"B2094757D46EA4F54499","title":"I.Z.K.Y.居酒屋","lon":"121.39466","lat":"31.22366","category":"95","category_name":"日本料理","address":"普陀区大渡河路388号国盛中心1号座1楼(近云岭东路)"},{"poiid":"B2094655D265AAF84299","title":"长风国际大厦","lon":"121.39325","lat":"31.22319","category":"46","category_name":"楼宇","address":"云岭东路88号-1"},{"poiid":"B2094654DB6BA7FF4398","title":"长风公园3号门","lon":"121.39938","lat":"31.22871","category":"680","category_name":"楼宇机构","address":"怒江路140弄11"},{"poiid":"B2094757D469A0FD489D","title":"福苑 Park Cafe","lon":"121.396145","lat":"31.224434","category":"268","category_name":"自助","address":"大渡河路158号新发展亚太万豪酒店1楼近长风公园"},{"poiid":"B2094757D16BA3FD4292","title":"必胜客","lon":"121.39701458","lat":"31.225520338","category":"500","category_name":"未知分类","address":"上海市普陀区中江路"},{"poiid":"B2094750D26EABFD4193","title":"萨莉亚 长风景畔广场店","lon":"121.3966696","lat":"31.2215473","category":"94","category_name":"西餐厅","address":"普陀区大渡河路178号长风景畔广场4楼(近长风公园4号门)"},{"poiid":"B2094655D26EA5F5479D","title":"大洋海底世界","lon":"121.39955","lat":"31.22399","category":"199","category_name":"水族馆","address":"大渡河路451号长风公园4号门内"},{"poiid":"B2094757D469A3F44399","title":"长风海洋世界鲨鱼隧道晚宴 Chang  Feng Oceanworld","lon":"121.3977330132","lat":"31.22708043051","category":"268","category_name":"自助","address":"普陀区枣阳路510号长风公园内(近云岭东路)"},{"poiid":"B2094757D465A2F5429A","title":"国丰酒店银锄轩中餐厅","lon":"121.39466","lat":"31.22366","category":"72","category_name":"广东菜","address":"普陀区大渡河路388号国盛中心1号座2楼(近云岭东路)"},{"poiid":"B2094757DA65A3F4499F","title":"上海长风海洋馆","lon":"121.3965676623731","lat":"31.22574020700566","category":"250","category_name":"公园户外","address":"大渡河路"}]