[{"poiid":"B2094757D06EAAF94099","title":"上海虹口三至喜来登酒店 (Sheraton Shanghai Hongkou Hotel)","lon":"121.487931474","lat":"31.2578795296","category":"217","category_name":"旅馆招待所","address":"上海市虹口区四平路59号(近海伦路)"},{"poiid":"B2094757D06EAAFD4893","title":"海伦路地铁站","lon":"121.48851616","lat":"31.259517259","category":"36","category_name":"地铁站","address":"上海轨道交通 四号线 十号线 轨交海伦路站 轻轨 4 10"},{"poiid":"B2094654D56CA7FA489F","title":"上海市第一人民医院分院","lon":"121.48416","lat":"31.2611","category":"162","category_name":"医院","address":"虹口区四川北路1878号2号楼7楼(近荣欣大酒店)"},{"poiid":"B209475CD564A7F84392","title":"上海滩浦东香格里拉店","lon":"121.50058","lat":"31.23634","category":"119","category_name":"商场","address":"浦东富成路33号香格里拉酒店内大堂层"},{"poiid":"B209475CD769A7F94093","title":"王子公主奇遇记主题KTV","lon":"121.488833","lat":"31.261971","category":"170","category_name":"KTV","address":"上海市虹口区四平路257号1-3楼(近溧阳路)"},{"poiid":"B2094654DB6AAAF84898","title":"美林阁 四平路店 MeiLinGe","lon":"121.489139054","lat":"31.262070793","category":"76","category_name":"上海菜","address":"虹口区四平路257号虹口世纪酒店1-2楼(近溧阳路)"},{"poiid":"B2094757D06EAAF9429B","title":"麦当劳(四平路店)","lon":"121.48855","lat":"31.26093","category":"68","category_name":"快餐厅","address":"虹口区溧阳路1114号(近四平路)"},{"poiid":"B2094757D06BA7FB4298","title":"海伦路","lon":"121.488512","lat":"31.259589","category":"500","category_name":"未知分类","address":"上海海伦路"},{"poiid":"B2094655D26AA0F9409E","title":"地铁海伦路站","lon":"121.48851233539108","lat":"31.259587013563777","category":"36","category_name":"地铁站","address":"上海轨道交通 四号线 轨交海伦路站 4"},{"poiid":"B2094757D168A3FA449B","title":"避风塘","lon":"121.484212703","lat":"31.2602332094","category":"500","category_name":"未知分类","address":"上海市虹口区四川北路1885号"},{"poiid":"B2094655D26FA6FB4098","title":"上海虹口世纪大酒店(东门)","lon":"121.4895","lat":"31.26183","category":"214","category_name":"四星级宾馆","address":"上海市虹口区溧阳路1111号（近四平路）"},{"poiid":"B2094757D06FA5FF4893","title":"溧园咖啡","lon":"121.487339","lat":"31.262971","category":"260","category_name":"其他","address":"虹口区溧阳路1208弄5号老洋房花园内(四川北路四平路间)"},{"poiid":"B2094757D16DA5FE419A","title":"四平路","lon":"121.4897721","lat":"31.261685239","category":"500","category_name":"未知分类","address":"上海四平路"},{"poiid":"B2094757D06FAAFE479D","title":"三商巧福(四川北路店)","lon":"121.48457","lat":"31.26162","category":"68","category_name":"快餐厅","address":"虹口区四川北路1840号(近海伦路)"},{"poiid":"B2094757D068A2F44199","title":"四平路海伦路","lon":"121.488717","lat":"31.257259","category":"260","category_name":"其他","address":"上海四平路海伦路嘉兴路"},{"poiid":"B2094757D06FAAFB479B","title":"圆缘园(四平路店)","lon":"121.48934","lat":"31.26007","category":"260","category_name":"其他","address":"虹口区四平路150号(近溧阳路)"},{"poiid":"B209475CDA6EAAF84398","title":"年代秀饭堂","lon":"121.487297","lat":"31.256315","category":"247","category_name":"餐饮美食","address":"上海市 虹口区四川北路1689号嘉杰国际广场401"},{"poiid":"B2094757D06FABF8439F","title":"虹叶花苑","lon":"121.48671","lat":"31.261433","category":"47","category_name":"住宅区","address":"上海虹口区长春路158号"},{"poiid":"B2094757D06EAAFF4798","title":"新世界电影城","lon":"121.48867321","lat":"31.2608388428","category":"178","category_name":"电影院","address":"上海南京西路2～68号新世界城12楼"},{"poiid":"B2094757D469A5FF4699","title":"煲煲赞广东煲仔饭","lon":"121.486095","lat":"31.260743","category":"72","category_name":"广东菜","address":"虹口区长春路152号(近四川北路)"},{"poiid":"B2094654D56CA7FA499B","title":"上海市虹口区教育学院实验中学","lon":"121.48423","lat":"31.26054","category":"55","category_name":"中学","address":"虹口区四川北路1838号(近海伦路)"},{"poiid":"B2094753DA6AA6FA4393","title":"SNH48星梦剧院","lon":"121.490242","lat":"31.258754","category":"500","category_name":"未知分类","address":"上海市 嘉兴路267号"},{"poiid":"B2094757D06BA4FA4899","title":"湘汇轩(四平路店)","lon":"121.48959","lat":"31.26003","category":"77","category_name":"湖南菜","address":"虹口区四平路148号(天水路邢家桥北路)"},{"poiid":"B2094757D06BA0FE449C","title":"西安美食阁 四平路店","lon":"121.489280054","lat":"31.260448793","category":"84","category_name":"西北菜","address":"虹口区四平路156号(近溧阳路)"},{"poiid":"B2094654DB6AA6FF449D","title":"上海虹叶酒店","lon":"121.48644","lat":"31.26183","category":"215","category_name":"三星级宾馆","address":"上海虹口区长春路158号(近溧阳路)"},{"poiid":"B2094654D56EA3FB4399","title":"虹口商城","lon":"121.48992784665","lat":"31.260299724248","category":"46","category_name":"楼宇","address":"上海市虹口区四川路1457号"},{"poiid":"B2094757D068A7FB4999","title":"面大王","lon":"121.48809","lat":"31.26132","category":"68","category_name":"快餐厅","address":"虹口区溧阳路1114弄4号(近四平路)"},{"poiid":"B2094757D16CA3F54998","title":"地铁十号线四平路站","lon":"121.488674803","lat":"31.2585712746","category":"500","category_name":"未知分类","address":"上海四平路"},{"poiid":"B2094757D06AA4FB409B","title":"维维餐厅","lon":"121.48433","lat":"31.25887","category":"76","category_name":"上海菜","address":"虹口区海伦西路67号(近四川北路)"},{"poiid":"B2094757D069A3F54993","title":"伊加伊(四平店)","lon":"121.49006","lat":"31.26121","category":"68","category_name":"快餐厅","address":"虹口区四平路146号(近天水路)"},{"poiid":"B2094757D068A4FB459D","title":"莉莲蛋挞(四川北路店)","lon":"121.48418","lat":"31.2606","category":"67","category_name":"甜品店","address":"虹口区四川北路1846号(近海伦路)"},{"poiid":"B2094757D06BABFF429C","title":"淳寿司","lon":"121.488793103","lat":"31.2584651724","category":"95","category_name":"日本料理","address":"虹口区四平路156号(近地铁四号线海伦路站)"},{"poiid":"B2094753D269A1FB419C","title":"古徽州馄饨店","lon":"121.486998","lat":"31.260177","category":"247","category_name":"餐饮美食","address":"上海市 邢家桥北路158号"},{"poiid":"B2094757DB6DA3FF409E","title":"百嘉乐","lon":"121.487286","lat":"31.256633","category":"500","category_name":"未知分类","address":"四川北路"},{"poiid":"B2094757D069A3FE4299","title":"香港金龙船海鲜酒家","lon":"121.48849","lat":"31.26113","category":"72","category_name":"广东菜","address":"上海虹口区四平路257号虹口世纪大酒店3楼(近物华路)"},{"poiid":"B2094655D26BA2FB4899","title":"四平路溧阳路","lon":"121.48868","lat":"31.2596","category":"38","category_name":"公交车站","address":""},{"poiid":"B2094655D26AA1F44192","title":"虹口世纪大酒店宴会厅","lon":"121.48858","lat":"31.26202","category":"247","category_name":"餐饮美食","address":"虹口区溧阳路1111号虹口世纪大酒店内(近四平路)查看地图"},{"poiid":"B2094751D368A0F9409F","title":"月珑纱寿司店(海伦西路店)","lon":"121.48413","lat":"31.25893","category":"95","category_name":"日本料理","address":"虹口区海伦西路58号(近四川北路)"},{"poiid":"B2094654D56CA7FF4498","title":"新华书店(四平路)","lon":"121.48833","lat":"31.25899","category":"125","category_name":"书店","address":"四平路95号"},{"poiid":"B2094654D56CA7FF4093","title":"四川北路幼儿园","lon":"121.48592","lat":"31.25942","category":"57","category_name":"幼儿园","address":"虹口区四川北路1802号(近海伦路)"},{"poiid":"B2094750D26DA4FE419B","title":"三至喜来登酒店 雅日本餐厅","lon":"121.48829698563","lat":"31.257605545195","category":"247","category_name":"餐饮美食","address":"四平路59号三至喜来登酒店37楼近海伦路"},{"poiid":"B2094654D56CA6FF449E","title":"泰业公寓","lon":"121.4856","lat":"31.260582","category":"47","category_name":"住宅区","address":"泰业公寓位于虹口四川北路1856弄20-22号"},{"poiid":"B2094654D56EA2FA499C","title":"国贸花园","lon":"121.48617","lat":"31.258356","category":"47","category_name":"住宅区","address":"海伦路555弄1-4号"},{"poiid":"B2094654D56CA6FF429C","title":"顺海美食馆","lon":"121.48436","lat":"31.25903","category":"257","category_name":"中餐厅","address":"虹口区海伦西路59号(近四川北路)"},{"poiid":"B2094757D569A3FD499B","title":"小胖子烧烤摊","lon":"121.4877469","lat":"31.26159194","category":"87","category_name":"特色／地方风味餐厅","address":"虹口区溧阳路1114号麦当劳门口(近四平路)"},{"poiid":"B2094757D16FA4FE419D","title":"四季烧烤","lon":"121.48512","lat":"31.25693","category":"68","category_name":"快餐厅","address":"虹口区邢家桥南路3号(近东宝兴路)"},{"poiid":"B2094655D26BA5FE409A","title":"新朝时代","lon":"121.488","lat":"31.26","category":"47","category_name":"住宅区","address":"上海市虹口区虬江路528号(近四川北路)"},{"poiid":"B2094757D66EA6FB4498","title":"禧勃坊","lon":"121.4873048","lat":"31.261372533","category":"500","category_name":"未知分类","address":"上海虹口区多伦路文化名人街32号"},{"poiid":"B2094654D56CA7FF409E","title":"邢长小区","lon":"121.48643","lat":"31.260311","category":"47","category_name":"住宅区","address":"长春路126弄1-4号"},{"poiid":"B2094757D464ABF54399","title":"来碗面","lon":"121.484160054","lat":"31.259076793","category":"68","category_name":"快餐厅","address":"虹口区海伦西路87号(近四川北路)"},{"poiid":"B2094757D06EAAF94099","title":"上海虹口三至喜来登酒店 (Sheraton Shanghai Hongkou Hotel)","lon":"121.487931474","lat":"31.2578795296","category":"217","category_name":"旅馆招待所","address":"上海市虹口区四平路59号(近海伦路)"},{"poiid":"B2094757D06EAAFD4893","title":"海伦路地铁站","lon":"121.48851616","lat":"31.259517259","category":"36","category_name":"地铁站","address":"上海轨道交通 四号线 十号线 轨交海伦路站 轻轨 4 10"},{"poiid":"B2094654D56CA7FA489F","title":"上海市第一人民医院分院","lon":"121.48416","lat":"31.2611","category":"162","category_name":"医院","address":"虹口区四川北路1878号2号楼7楼(近荣欣大酒店)"},{"poiid":"B209475CD564A7F84392","title":"上海滩浦东香格里拉店","lon":"121.50058","lat":"31.23634","category":"119","category_name":"商场","address":"浦东富成路33号香格里拉酒店内大堂层"},{"poiid":"B209475CD769A7F94093","title":"王子公主奇遇记主题KTV","lon":"121.488833","lat":"31.261971","category":"170","category_name":"KTV","address":"上海市虹口区四平路257号1-3楼(近溧阳路)"},{"poiid":"B2094654DB6AAAF84898","title":"美林阁 四平路店 MeiLinGe","lon":"121.489139054","lat":"31.262070793","category":"76","category_name":"上海菜","address":"虹口区四平路257号虹口世纪酒店1-2楼(近溧阳路)"},{"poiid":"B2094757D06EAAF9429B","title":"麦当劳(四平路店)","lon":"121.48855","lat":"31.26093","category":"68","category_name":"快餐厅","address":"虹口区溧阳路1114号(近四平路)"},{"poiid":"B2094757D06BA7FB4298","title":"海伦路","lon":"121.488512","lat":"31.259589","category":"500","category_name":"未知分类","address":"上海海伦路"},{"poiid":"B2094655D26AA0F9409E","title":"地铁海伦路站","lon":"121.48851233539108","lat":"31.259587013563777","category":"36","category_name":"地铁站","address":"上海轨道交通 四号线 轨交海伦路站 4"},{"poiid":"B2094757D168A3FA449B","title":"避风塘","lon":"121.484212703","lat":"31.2602332094","category":"500","category_name":"未知分类","address":"上海市虹口区四川北路1885号"},{"poiid":"B2094655D26FA6FB4098","title":"上海虹口世纪大酒店(东门)","lon":"121.4895","lat":"31.26183","category":"214","category_name":"四星级宾馆","address":"上海市虹口区溧阳路1111号（近四平路）"},{"poiid":"B2094757D06FA5FF4893","title":"溧园咖啡","lon":"121.487339","lat":"31.262971","category":"260","category_name":"其他","address":"虹口区溧阳路1208弄5号老洋房花园内(四川北路四平路间)"},{"poiid":"B2094757D16DA5FE419A","title":"四平路","lon":"121.4897721","lat":"31.261685239","category":"500","category_name":"未知分类","address":"上海四平路"},{"poiid":"B2094757D06FAAFE479D","title":"三商巧福(四川北路店)","lon":"121.48457","lat":"31.26162","category":"68","category_name":"快餐厅","address":"虹口区四川北路1840号(近海伦路)"},{"poiid":"B2094757D068A2F44199","title":"四平路海伦路","lon":"121.488717","lat":"31.257259","category":"260","category_name":"其他","address":"上海四平路海伦路嘉兴路"},{"poiid":"B2094757D06FAAFB479B","title":"圆缘园(四平路店)","lon":"121.48934","lat":"31.26007","category":"260","category_name":"其他","address":"虹口区四平路150号(近溧阳路)"},{"poiid":"B209475CDA6EAAF84398","title":"年代秀饭堂","lon":"121.487297","lat":"31.256315","category":"247","category_name":"餐饮美食","address":"上海市 虹口区四川北路1689号嘉杰国际广场401"},{"poiid":"B2094757D06FABF8439F","title":"虹叶花苑","lon":"121.48671","lat":"31.261433","category":"47","category_name":"住宅区","address":"上海虹口区长春路158号"},{"poiid":"B2094757D06EAAFF4798","title":"新世界电影城","lon":"121.48867321","lat":"31.2608388428","category":"178","category_name":"电影院","address":"上海南京西路2～68号新世界城12楼"},{"poiid":"B2094757D469A5FF4699","title":"煲煲赞广东煲仔饭","lon":"121.486095","lat":"31.260743","category":"72","category_name":"广东菜","address":"虹口区长春路152号(近四川北路)"},{"poiid":"B2094654D56CA7FA499B","title":"上海市虹口区教育学院实验中学","lon":"121.48423","lat":"31.26054","category":"55","category_name":"中学","address":"虹口区四川北路1838号(近海伦路)"},{"poiid":"B2094753DA6AA6FA4393","title":"SNH48星梦剧院","lon":"121.490242","lat":"31.258754","category":"500","category_name":"未知分类","address":"上海市 嘉兴路267号"},{"poiid":"B2094757D06BA4FA4899","title":"湘汇轩(四平路店)","lon":"121.48959","lat":"31.26003","category":"77","category_name":"湖南菜","address":"虹口区四平路148号(天水路邢家桥北路)"},{"poiid":"B2094757D06BA0FE449C","title":"西安美食阁 四平路店","lon":"121.489280054","lat":"31.260448793","category":"84","category_name":"西北菜","address":"虹口区四平路156号(近溧阳路)"},{"poiid":"B2094654DB6AA6FF449D","title":"上海虹叶酒店","lon":"121.48644","lat":"31.26183","category":"215","category_name":"三星级宾馆","address":"上海虹口区长春路158号(近溧阳路)"},{"poiid":"B2094654D56EA3FB4399","title":"虹口商城","lon":"121.48992784665","lat":"31.260299724248","category":"46","category_name":"楼宇","address":"上海市虹口区四川路1457号"},{"poiid":"B2094757D068A7FB4999","title":"面大王","lon":"121.48809","lat":"31.26132","category":"68","category_name":"快餐厅","address":"虹口区溧阳路1114弄4号(近四平路)"},{"poiid":"B2094757D16CA3F54998","title":"地铁十号线四平路站","lon":"121.488674803","lat":"31.2585712746","category":"500","category_name":"未知分类","address":"上海四平路"},{"poiid":"B2094757D06AA4FB409B","title":"维维餐厅","lon":"121.48433","lat":"31.25887","category":"76","category_name":"上海菜","address":"虹口区海伦西路67号(近四川北路)"},{"poiid":"B2094757D069A3F54993","title":"伊加伊(四平店)","lon":"121.49006","lat":"31.26121","category":"68","category_name":"快餐厅","address":"虹口区四平路146号(近天水路)"},{"poiid":"B2094757D068A4FB459D","title":"莉莲蛋挞(四川北路店)","lon":"121.48418","lat":"31.2606","category":"67","category_name":"甜品店","address":"虹口区四川北路1846号(近海伦路)"},{"poiid":"B2094757D06BABFF429C","title":"淳寿司","lon":"121.488793103","lat":"31.2584651724","category":"95","category_name":"日本料理","address":"虹口区四平路156号(近地铁四号线海伦路站)"},{"poiid":"B2094753D269A1FB419C","title":"古徽州馄饨店","lon":"121.486998","lat":"31.260177","category":"247","category_name":"餐饮美食","address":"上海市 邢家桥北路158号"},{"poiid":"B2094757DB6DA3FF409E","title":"百嘉乐","lon":"121.487286","lat":"31.256633","category":"500","category_name":"未知分类","address":"四川北路"},{"poiid":"B2094757D069A3FE4299","title":"香港金龙船海鲜酒家","lon":"121.48849","lat":"31.26113","category":"72","category_name":"广东菜","address":"上海虹口区四平路257号虹口世纪大酒店3楼(近物华路)"},{"poiid":"B2094655D26BA2FB4899","title":"四平路溧阳路","lon":"121.48868","lat":"31.2596","category":"38","category_name":"公交车站","address":""},{"poiid":"B2094655D26AA1F44192","title":"虹口世纪大酒店宴会厅","lon":"121.48858","lat":"31.26202","category":"247","category_name":"餐饮美食","address":"虹口区溧阳路1111号虹口世纪大酒店内(近四平路)查看地图"},{"poiid":"B2094751D368A0F9409F","title":"月珑纱寿司店(海伦西路店)","lon":"121.48413","lat":"31.25893","category":"95","category_name":"日本料理","address":"虹口区海伦西路58号(近四川北路)"},{"poiid":"B2094654D56CA7FF4498","title":"新华书店(四平路)","lon":"121.48833","lat":"31.25899","category":"125","category_name":"书店","address":"四平路95号"},{"poiid":"B2094654D56CA7FF4093","title":"四川北路幼儿园","lon":"121.48592","lat":"31.25942","category":"57","category_name":"幼儿园","address":"虹口区四川北路1802号(近海伦路)"},{"poiid":"B2094750D26DA4FE419B","title":"三至喜来登酒店 雅日本餐厅","lon":"121.48829698563","lat":"31.257605545195","category":"247","category_name":"餐饮美食","address":"四平路59号三至喜来登酒店37楼近海伦路"},{"poiid":"B2094654D56CA6FF449E","title":"泰业公寓","lon":"121.4856","lat":"31.260582","category":"47","category_name":"住宅区","address":"泰业公寓位于虹口四川北路1856弄20-22号"},{"poiid":"B2094654D56EA2FA499C","title":"国贸花园","lon":"121.48617","lat":"31.258356","category":"47","category_name":"住宅区","address":"海伦路555弄1-4号"},{"poiid":"B2094654D56CA6FF429C","title":"顺海美食馆","lon":"121.48436","lat":"31.25903","category":"257","category_name":"中餐厅","address":"虹口区海伦西路59号(近四川北路)"},{"poiid":"B2094757D569A3FD499B","title":"小胖子烧烤摊","lon":"121.4877469","lat":"31.26159194","category":"87","category_name":"特色／地方风味餐厅","address":"虹口区溧阳路1114号麦当劳门口(近四平路)"},{"poiid":"B2094757D16FA4FE419D","title":"四季烧烤","lon":"121.48512","lat":"31.25693","category":"68","category_name":"快餐厅","address":"虹口区邢家桥南路3号(近东宝兴路)"},{"poiid":"B2094655D26BA5FE409A","title":"新朝时代","lon":"121.488","lat":"31.26","category":"47","category_name":"住宅区","address":"上海市虹口区虬江路528号(近四川北路)"},{"poiid":"B2094757D66EA6FB4498","title":"禧勃坊","lon":"121.4873048","lat":"31.261372533","category":"500","category_name":"未知分类","address":"上海虹口区多伦路文化名人街32号"},{"poiid":"B2094654D56CA7FF409E","title":"邢长小区","lon":"121.48643","lat":"31.260311","category":"47","category_name":"住宅区","address":"长春路126弄1-4号"},{"poiid":"B2094757D464ABF54399","title":"来碗面","lon":"121.484160054","lat":"31.259076793","category":"68","category_name":"快餐厅","address":"虹口区海伦西路87号(近四川北路)"},{"poiid":"B2094757D06EAAF94099","title":"上海虹口三至喜来登酒店 (Sheraton Shanghai Hongkou Hotel)","lon":"121.487931474","lat":"31.2578795296","category":"217","category_name":"旅馆招待所","address":"上海市虹口区四平路59号(近海伦路)"},{"poiid":"B2094757D06EAAFD4893","title":"海伦路地铁站","lon":"121.48851616","lat":"31.259517259","category":"36","category_name":"地铁站","address":"上海轨道交通 四号线 十号线 轨交海伦路站 轻轨 4 10"},{"poiid":"B2094654D56CA7FA489F","title":"上海市第一人民医院分院","lon":"121.48416","lat":"31.2611","category":"162","category_name":"医院","address":"虹口区四川北路1878号2号楼7楼(近荣欣大酒店)"},{"poiid":"B209475CD564A7F84392","title":"上海滩浦东香格里拉店","lon":"121.50058","lat":"31.23634","category":"119","category_name":"商场","address":"浦东富成路33号香格里拉酒店内大堂层"},{"poiid":"B209475CD769A7F94093","title":"王子公主奇遇记主题KTV","lon":"121.488833","lat":"31.261971","category":"170","category_name":"KTV","address":"上海市虹口区四平路257号1-3楼(近溧阳路)"},{"poiid":"B2094654DB6AAAF84898","title":"美林阁 四平路店 MeiLinGe","lon":"121.489139054","lat":"31.262070793","category":"76","category_name":"上海菜","address":"虹口区四平路257号虹口世纪酒店1-2楼(近溧阳路)"},{"poiid":"B2094757D06EAAF9429B","title":"麦当劳(四平路店)","lon":"121.48855","lat":"31.26093","category":"68","category_name":"快餐厅","address":"虹口区溧阳路1114号(近四平路)"},{"poiid":"B2094757D06BA7FB4298","title":"海伦路","lon":"121.488512","lat":"31.259589","category":"500","category_name":"未知分类","address":"上海海伦路"},{"poiid":"B2094655D26AA0F9409E","title":"地铁海伦路站","lon":"121.48851233539108","lat":"31.259587013563777","category":"36","category_name":"地铁站","address":"上海轨道交通 四号线 轨交海伦路站 4"},{"poiid":"B2094757D168A3FA449B","title":"避风塘","lon":"121.484212703","lat":"31.2602332094","category":"500","category_name":"未知分类","address":"上海市虹口区四川北路1885号"},{"poiid":"B2094655D26FA6FB4098","title":"上海虹口世纪大酒店(东门)","lon":"121.4895","lat":"31.26183","category":"214","category_name":"四星级宾馆","address":"上海市虹口区溧阳路1111号（近四平路）"},{"poiid":"B2094757D06FA5FF4893","title":"溧园咖啡","lon":"121.487339","lat":"31.262971","category":"260","category_name":"其他","address":"虹口区溧阳路1208弄5号老洋房花园内(四川北路四平路间)"},{"poiid":"B2094757D16DA5FE419A","title":"四平路","lon":"121.4897721","lat":"31.261685239","category":"500","category_name":"未知分类","address":"上海四平路"},{"poiid":"B2094757D06FAAFE479D","title":"三商巧福(四川北路店)","lon":"121.48457","lat":"31.26162","category":"68","category_name":"快餐厅","address":"虹口区四川北路1840号(近海伦路)"},{"poiid":"B2094757D068A2F44199","title":"四平路海伦路","lon":"121.488717","lat":"31.257259","category":"260","category_name":"其他","address":"上海四平路海伦路嘉兴路"},{"poiid":"B2094757D06FAAFB479B","title":"圆缘园(四平路店)","lon":"121.48934","lat":"31.26007","category":"260","category_name":"其他","address":"虹口区四平路150号(近溧阳路)"},{"poiid":"B209475CDA6EAAF84398","title":"年代秀饭堂","lon":"121.487297","lat":"31.256315","category":"247","category_name":"餐饮美食","address":"上海市 虹口区四川北路1689号嘉杰国际广场401"},{"poiid":"B2094757D06FABF8439F","title":"虹叶花苑","lon":"121.48671","lat":"31.261433","category":"47","category_name":"住宅区","address":"上海虹口区长春路158号"},{"poiid":"B2094757D06EAAFF4798","title":"新世界电影城","lon":"121.48867321","lat":"31.2608388428","category":"178","category_name":"电影院","address":"上海南京西路2～68号新世界城12楼"},{"poiid":"B2094757D469A5FF4699","title":"煲煲赞广东煲仔饭","lon":"121.486095","lat":"31.260743","category":"72","category_name":"广东菜","address":"虹口区长春路152号(近四川北路)"},{"poiid":"B2094654D56CA7FA499B","title":"上海市虹口区教育学院实验中学","lon":"121.48423","lat":"31.26054","category":"55","category_name":"中学","address":"虹口区四川北路1838号(近海伦路)"},{"poiid":"B2094753DA6AA6FA4393","title":"SNH48星梦剧院","lon":"121.490242","lat":"31.258754","category":"500","category_name":"未知分类","address":"上海市 嘉兴路267号"},{"poiid":"B2094757D06BA4FA4899","title":"湘汇轩(四平路店)","lon":"121.48959","lat":"31.26003","category":"77","category_name":"湖南菜","address":"虹口区四平路148号(天水路邢家桥北路)"},{"poiid":"B2094757D06BA0FE449C","title":"西安美食阁 四平路店","lon":"121.489280054","lat":"31.260448793","category":"84","category_name":"西北菜","address":"虹口区四平路156号(近溧阳路)"},{"poiid":"B2094654DB6AA6FF449D","title":"上海虹叶酒店","lon":"121.48644","lat":"31.26183","category":"215","category_name":"三星级宾馆","address":"上海虹口区长春路158号(近溧阳路)"},{"poiid":"B2094654D56EA3FB4399","title":"虹口商城","lon":"121.48992784665","lat":"31.260299724248","category":"46","category_name":"楼宇","address":"上海市虹口区四川路1457号"},{"poiid":"B2094757D068A7FB4999","title":"面大王","lon":"121.48809","lat":"31.26132","category":"68","category_name":"快餐厅","address":"虹口区溧阳路1114弄4号(近四平路)"},{"poiid":"B2094757D16CA3F54998","title":"地铁十号线四平路站","lon":"121.488674803","lat":"31.2585712746","category":"500","category_name":"未知分类","address":"上海四平路"},{"poiid":"B2094757D06AA4FB409B","title":"维维餐厅","lon":"121.48433","lat":"31.25887","category":"76","category_name":"上海菜","address":"虹口区海伦西路67号(近四川北路)"},{"poiid":"B2094757D069A3F54993","title":"伊加伊(四平店)","lon":"121.49006","lat":"31.26121","category":"68","category_name":"快餐厅","address":"虹口区四平路146号(近天水路)"},{"poiid":"B2094757D068A4FB459D","title":"莉莲蛋挞(四川北路店)","lon":"121.48418","lat":"31.2606","category":"67","category_name":"甜品店","address":"虹口区四川北路1846号(近海伦路)"},{"poiid":"B2094757D06BABFF429C","title":"淳寿司","lon":"121.488793103","lat":"31.2584651724","category":"95","category_name":"日本料理","address":"虹口区四平路156号(近地铁四号线海伦路站)"},{"poiid":"B2094753D269A1FB419C","title":"古徽州馄饨店","lon":"121.486998","lat":"31.260177","category":"247","category_name":"餐饮美食","address":"上海市 邢家桥北路158号"},{"poiid":"B2094757DB6DA3FF409E","title":"百嘉乐","lon":"121.487286","lat":"31.256633","category":"500","category_name":"未知分类","address":"四川北路"},{"poiid":"B2094757D069A3FE4299","title":"香港金龙船海鲜酒家","lon":"121.48849","lat":"31.26113","category":"72","category_name":"广东菜","address":"上海虹口区四平路257号虹口世纪大酒店3楼(近物华路)"},{"poiid":"B2094655D26BA2FB4899","title":"四平路溧阳路","lon":"121.48868","lat":"31.2596","category":"38","category_name":"公交车站","address":""},{"poiid":"B2094655D26AA1F44192","title":"虹口世纪大酒店宴会厅","lon":"121.48858","lat":"31.26202","category":"247","category_name":"餐饮美食","address":"虹口区溧阳路1111号虹口世纪大酒店内(近四平路)查看地图"},{"poiid":"B2094751D368A0F9409F","title":"月珑纱寿司店(海伦西路店)","lon":"121.48413","lat":"31.25893","category":"95","category_name":"日本料理","address":"虹口区海伦西路58号(近四川北路)"},{"poiid":"B2094654D56CA7FF4498","title":"新华书店(四平路)","lon":"121.48833","lat":"31.25899","category":"125","category_name":"书店","address":"四平路95号"},{"poiid":"B2094654D56CA7FF4093","title":"四川北路幼儿园","lon":"121.48592","lat":"31.25942","category":"57","category_name":"幼儿园","address":"虹口区四川北路1802号(近海伦路)"},{"poiid":"B2094750D26DA4FE419B","title":"三至喜来登酒店 雅日本餐厅","lon":"121.48829698563","lat":"31.257605545195","category":"247","category_name":"餐饮美食","address":"四平路59号三至喜来登酒店37楼近海伦路"},{"poiid":"B2094654D56CA6FF449E","title":"泰业公寓","lon":"121.4856","lat":"31.260582","category":"47","category_name":"住宅区","address":"泰业公寓位于虹口四川北路1856弄20-22号"},{"poiid":"B2094654D56EA2FA499C","title":"国贸花园","lon":"121.48617","lat":"31.258356","category":"47","category_name":"住宅区","address":"海伦路555弄1-4号"},{"poiid":"B2094654D56CA6FF429C","title":"顺海美食馆","lon":"121.48436","lat":"31.25903","category":"257","category_name":"中餐厅","address":"虹口区海伦西路59号(近四川北路)"},{"poiid":"B2094757D569A3FD499B","title":"小胖子烧烤摊","lon":"121.4877469","lat":"31.26159194","category":"87","category_name":"特色／地方风味餐厅","address":"虹口区溧阳路1114号麦当劳门口(近四平路)"},{"poiid":"B2094757D16FA4FE419D","title":"四季烧烤","lon":"121.48512","lat":"31.25693","category":"68","category_name":"快餐厅","address":"虹口区邢家桥南路3号(近东宝兴路)"},{"poiid":"B2094655D26BA5FE409A","title":"新朝时代","lon":"121.488","lat":"31.26","category":"47","category_name":"住宅区","address":"上海市虹口区虬江路528号(近四川北路)"},{"poiid":"B2094757D66EA6FB4498","title":"禧勃坊","lon":"121.4873048","lat":"31.261372533","category":"500","category_name":"未知分类","address":"上海虹口区多伦路文化名人街32号"},{"poiid":"B2094654D56CA7FF409E","title":"邢长小区","lon":"121.48643","lat":"31.260311","category":"47","category_name":"住宅区","address":"长春路126弄1-4号"},{"poiid":"B2094757D464ABF54399","title":"来碗面","lon":"121.484160054","lat":"31.259076793","category":"68","category_name":"快餐厅","address":"虹口区海伦西路87号(近四川北路)"},{"poiid":"B2094757D06EAAF94099","title":"上海虹口三至喜来登酒店 (Sheraton Shanghai Hongkou Hotel)","lon":"121.487931474","lat":"31.2578795296","category":"217","category_name":"旅馆招待所","address":"上海市虹口区四平路59号(近海伦路)"},{"poiid":"B2094757D06EAAFD4893","title":"海伦路地铁站","lon":"121.48851616","lat":"31.259517259","category":"36","category_name":"地铁站","address":"上海轨道交通 四号线 十号线 轨交海伦路站 轻轨 4 10"},{"poiid":"B2094654D56CA7FA489F","title":"上海市第一人民医院分院","lon":"121.48416","lat":"31.2611","category":"162","category_name":"医院","address":"虹口区四川北路1878号2号楼7楼(近荣欣大酒店)"},{"poiid":"B209475CD564A7F84392","title":"上海滩浦东香格里拉店","lon":"121.50058","lat":"31.23634","category":"119","category_name":"商场","address":"浦东富成路33号香格里拉酒店内大堂层"},{"poiid":"B209475CD769A7F94093","title":"王子公主奇遇记主题KTV","lon":"121.488833","lat":"31.261971","category":"170","category_name":"KTV","address":"上海市虹口区四平路257号1-3楼(近溧阳路)"},{"poiid":"B2094654DB6AAAF84898","title":"美林阁 四平路店 MeiLinGe","lon":"121.489139054","lat":"31.262070793","category":"76","category_name":"上海菜","address":"虹口区四平路257号虹口世纪酒店1-2楼(近溧阳路)"},{"poiid":"B2094757D06EAAF9429B","title":"麦当劳(四平路店)","lon":"121.48855","lat":"31.26093","category":"68","category_name":"快餐厅","address":"虹口区溧阳路1114号(近四平路)"},{"poiid":"B2094757D06BA7FB4298","title":"海伦路","lon":"121.488512","lat":"31.259589","category":"500","category_name":"未知分类","address":"上海海伦路"},{"poiid":"B2094655D26AA0F9409E","title":"地铁海伦路站","lon":"121.48851233539108","lat":"31.259587013563777","category":"36","category_name":"地铁站","address":"上海轨道交通 四号线 轨交海伦路站 4"},{"poiid":"B2094757D168A3FA449B","title":"避风塘","lon":"121.484212703","lat":"31.2602332094","category":"500","category_name":"未知分类","address":"上海市虹口区四川北路1885号"},{"poiid":"B2094655D26FA6FB4098","title":"上海虹口世纪大酒店(东门)","lon":"121.4895","lat":"31.26183","category":"214","category_name":"四星级宾馆","address":"上海市虹口区溧阳路1111号（近四平路）"},{"poiid":"B2094757D06FA5FF4893","title":"溧园咖啡","lon":"121.487339","lat":"31.262971","category":"260","category_name":"其他","address":"虹口区溧阳路1208弄5号老洋房花园内(四川北路四平路间)"},{"poiid":"B2094757D16DA5FE419A","title":"四平路","lon":"121.4897721","lat":"31.261685239","category":"500","category_name":"未知分类","address":"上海四平路"},{"poiid":"B2094757D06FAAFE479D","title":"三商巧福(四川北路店)","lon":"121.48457","lat":"31.26162","category":"68","category_name":"快餐厅","address":"虹口区四川北路1840号(近海伦路)"},{"poiid":"B2094757D068A2F44199","title":"四平路海伦路","lon":"121.488717","lat":"31.257259","category":"260","category_name":"其他","address":"上海四平路海伦路嘉兴路"},{"poiid":"B2094757D06FAAFB479B","title":"圆缘园(四平路店)","lon":"121.48934","lat":"31.26007","category":"260","category_name":"其他","address":"虹口区四平路150号(近溧阳路)"},{"poiid":"B209475CDA6EAAF84398","title":"年代秀饭堂","lon":"121.487297","lat":"31.256315","category":"247","category_name":"餐饮美食","address":"上海市 虹口区四川北路1689号嘉杰国际广场401"},{"poiid":"B2094757D06FABF8439F","title":"虹叶花苑","lon":"121.48671","lat":"31.261433","category":"47","category_name":"住宅区","address":"上海虹口区长春路158号"},{"poiid":"B2094757D06EAAFF4798","title":"新世界电影城","lon":"121.48867321","lat":"31.2608388428","category":"178","category_name":"电影院","address":"上海南京西路2～68号新世界城12楼"},{"poiid":"B2094757D469A5FF4699","title":"煲煲赞广东煲仔饭","lon":"121.486095","lat":"31.260743","category":"72","category_name":"广东菜","address":"虹口区长春路152号(近四川北路)"},{"poiid":"B2094654D56CA7FA499B","title":"上海市虹口区教育学院实验中学","lon":"121.48423","lat":"31.26054","category":"55","category_name":"中学","address":"虹口区四川北路1838号(近海伦路)"},{"poiid":"B2094753DA6AA6FA4393","title":"SNH48星梦剧院","lon":"121.490242","lat":"31.258754","category":"500","category_name":"未知分类","address":"上海市 嘉兴路267号"},{"poiid":"B2094757D06BA4FA4899","title":"湘汇轩(四平路店)","lon":"121.48959","lat":"31.26003","category":"77","category_name":"湖南菜","address":"虹口区四平路148号(天水路邢家桥北路)"},{"poiid":"B2094757D06BA0FE449C","title":"西安美食阁 四平路店","lon":"121.489280054","lat":"31.260448793","category":"84","category_name":"西北菜","address":"虹口区四平路156号(近溧阳路)"},{"poiid":"B2094654DB6AA6FF449D","title":"上海虹叶酒店","lon":"121.48644","lat":"31.26183","category":"215","category_name":"三星级宾馆","address":"上海虹口区长春路158号(近溧阳路)"},{"poiid":"B2094654D56EA3FB4399","title":"虹口商城","lon":"121.48992784665","lat":"31.260299724248","category":"46","category_name":"楼宇","address":"上海市虹口区四川路1457号"},{"poiid":"B2094757D068A7FB4999","title":"面大王","lon":"121.48809","lat":"31.26132","category":"68","category_name":"快餐厅","address":"虹口区溧阳路1114弄4号(近四平路)"},{"poiid":"B2094757D16CA3F54998","title":"地铁十号线四平路站","lon":"121.488674803","lat":"31.2585712746","category":"500","category_name":"未知分类","address":"上海四平路"},{"poiid":"B2094757D06AA4FB409B","title":"维维餐厅","lon":"121.48433","lat":"31.25887","category":"76","category_name":"上海菜","address":"虹口区海伦西路67号(近四川北路)"},{"poiid":"B2094757D069A3F54993","title":"伊加伊(四平店)","lon":"121.49006","lat":"31.26121","category":"68","category_name":"快餐厅","address":"虹口区四平路146号(近天水路)"},{"poiid":"B2094757D068A4FB459D","title":"莉莲蛋挞(四川北路店)","lon":"121.48418","lat":"31.2606","category":"67","category_name":"甜品店","address":"虹口区四川北路1846号(近海伦路)"},{"poiid":"B2094757D06BABFF429C","title":"淳寿司","lon":"121.488793103","lat":"31.2584651724","category":"95","category_name":"日本料理","address":"虹口区四平路156号(近地铁四号线海伦路站)"},{"poiid":"B2094753D269A1FB419C","title":"古徽州馄饨店","lon":"121.486998","lat":"31.260177","category":"247","category_name":"餐饮美食","address":"上海市 邢家桥北路158号"},{"poiid":"B2094757DB6DA3FF409E","title":"百嘉乐","lon":"121.487286","lat":"31.256633","category":"500","category_name":"未知分类","address":"四川北路"},{"poiid":"B2094757D069A3FE4299","title":"香港金龙船海鲜酒家","lon":"121.48849","lat":"31.26113","category":"72","category_name":"广东菜","address":"上海虹口区四平路257号虹口世纪大酒店3楼(近物华路)"},{"poiid":"B2094655D26BA2FB4899","title":"四平路溧阳路","lon":"121.48868","lat":"31.2596","category":"38","category_name":"公交车站","address":""},{"poiid":"B2094655D26AA1F44192","title":"虹口世纪大酒店宴会厅","lon":"121.48858","lat":"31.26202","category":"247","category_name":"餐饮美食","address":"虹口区溧阳路1111号虹口世纪大酒店内(近四平路)查看地图"},{"poiid":"B2094751D368A0F9409F","title":"月珑纱寿司店(海伦西路店)","lon":"121.48413","lat":"31.25893","category":"95","category_name":"日本料理","address":"虹口区海伦西路58号(近四川北路)"},{"poiid":"B2094654D56CA7FF4498","title":"新华书店(四平路)","lon":"121.48833","lat":"31.25899","category":"125","category_name":"书店","address":"四平路95号"},{"poiid":"B2094654D56CA7FF4093","title":"四川北路幼儿园","lon":"121.48592","lat":"31.25942","category":"57","category_name":"幼儿园","address":"虹口区四川北路1802号(近海伦路)"},{"poiid":"B2094750D26DA4FE419B","title":"三至喜来登酒店 雅日本餐厅","lon":"121.48829698563","lat":"31.257605545195","category":"247","category_name":"餐饮美食","address":"四平路59号三至喜来登酒店37楼近海伦路"},{"poiid":"B2094654D56CA6FF449E","title":"泰业公寓","lon":"121.4856","lat":"31.260582","category":"47","category_name":"住宅区","address":"泰业公寓位于虹口四川北路1856弄20-22号"},{"poiid":"B2094654D56EA2FA499C","title":"国贸花园","lon":"121.48617","lat":"31.258356","category":"47","category_name":"住宅区","address":"海伦路555弄1-4号"},{"poiid":"B2094654D56CA6FF429C","title":"顺海美食馆","lon":"121.48436","lat":"31.25903","category":"257","category_name":"中餐厅","address":"虹口区海伦西路59号(近四川北路)"},{"poiid":"B2094757D569A3FD499B","title":"小胖子烧烤摊","lon":"121.4877469","lat":"31.26159194","category":"87","category_name":"特色／地方风味餐厅","address":"虹口区溧阳路1114号麦当劳门口(近四平路)"},{"poiid":"B2094757D16FA4FE419D","title":"四季烧烤","lon":"121.48512","lat":"31.25693","category":"68","category_name":"快餐厅","address":"虹口区邢家桥南路3号(近东宝兴路)"},{"poiid":"B2094655D26BA5FE409A","title":"新朝时代","lon":"121.488","lat":"31.26","category":"47","category_name":"住宅区","address":"上海市虹口区虬江路528号(近四川北路)"},{"poiid":"B2094757D66EA6FB4498","title":"禧勃坊","lon":"121.4873048","lat":"31.261372533","category":"500","category_name":"未知分类","address":"上海虹口区多伦路文化名人街32号"},{"poiid":"B2094654D56CA7FF409E","title":"邢长小区","lon":"121.48643","lat":"31.260311","category":"47","category_name":"住宅区","address":"长春路126弄1-4号"},{"poiid":"B2094757D464ABF54399","title":"来碗面","lon":"121.484160054","lat":"31.259076793","category":"68","category_name":"快餐厅","address":"虹口区海伦西路87号(近四川北路)"}]