[{"poiid":"B2094757D06FA7F5469D","title":"捞王猪肚鸡(平利路店)","lon":"121.42749","lat":"31.27008","category":"86","category_name":"火锅店","address":"普陀区平利路86号(近灵石路)"},{"poiid":"B2094757D06FA3FB439C","title":"岚灵花鸟市场(灵石路店)","lon":"121.4234","lat":"31.26815","category":"249","category_name":"购物服务","address":"闸北区灵石路1539号(近新村路)"},{"poiid":"B2094654D465A0FF4192","title":"普陀区体育中心","lon":"121.4281","lat":"31.26854","category":"224","category_name":"综合体育馆","address":"西乡路218"},{"poiid":"B2094757D068A2F84599","title":"工程技术大学 新村路校区","lon":"121.425682","lat":"31.266055","category":"52","category_name":"高等院校","address":"上海新村路435号"},{"poiid":"B2094757D06FA4FE4993","title":"自由港量贩式KTV(甘泉店)","lon":"121.4279","lat":"31.26881","category":"170","category_name":"KTV","address":"普陀区西乡路226号3楼(近平利路)"},{"poiid":"B2094654D465A0FF419C","title":"南泉苑","lon":"121.42641","lat":"31.269091","category":"47","category_name":"住宅区","address":"西乡路91弄1-77号"},{"poiid":"B2094757D068A3FF4392","title":"满福阁","lon":"121.42713","lat":"31.2716","category":"76","category_name":"上海菜","address":"普陀区灵石路1168号(近平利路)"},{"poiid":"B2094757D06AA1FF439C","title":"七号线大华三路站","lon":"121.42594005","lat":"31.267547913","category":"500","category_name":"未知分类","address":"上海七号线大华三路站"},{"poiid":"B2094655D36DA0FC429F","title":"新村路志丹路","lon":"121.42884","lat":"31.26544","category":"38","category_name":"公交车站","address":""},{"poiid":"B2094757D068A0FA489D","title":"甘泉公园","lon":"121.428472832","lat":"31.2670879743","category":"196","category_name":"公园","address":"普陀区志丹路301号(近新村路)"},{"poiid":"B2094757D16DAAFB4193","title":"龍之夢","lon":"121.42401445","lat":"31.266203837","category":"500","category_name":"未知分类","address":"上海龍之夢"},{"poiid":"B2094757D169ABFC469B","title":"绿地普陀商务广场","lon":"121.42844895","lat":"31.2654709735","category":"500","category_name":"未知分类","address":"普陀区大渡河路588号"},{"poiid":"B2094757D66BA5F4439D","title":"振鑫火锅 平利路店","lon":"121.42759368353","lat":"31.269827063916","category":"86","category_name":"火锅店","address":"普陀区平利路70号(近西乡路)"},{"poiid":"B2094655D26AA0F94592","title":"地铁新村路站","lon":"121.42288","lat":"31.26477","category":"36","category_name":"地铁站","address":""},{"poiid":"B2094654D465A0FF409F","title":"四海游龙 甘泉店 OVERSEAS DRAGON","lon":"121.428123054","lat":"31.269415793","category":"68","category_name":"快餐厅","address":"普陀区西乡路280号(近平利路)"},{"poiid":"B2094654DB6AA2FC4098","title":"新健游泳俱乐部游泳馆","lon":"121.42896","lat":"31.26975","category":"231","category_name":"游泳馆","address":"普陀区平利路50号(平利路西乡路)"},{"poiid":"B2094654D465A0FF4699","title":"灵石小区","lon":"121.42439","lat":"31.266243","category":"47","category_name":"住宅区","address":"灵石路1620弄"},{"poiid":"B2094655D26CA0FC4193","title":"水韵华庭(灵石路)","lon":"121.42283","lat":"31.26885","category":"47","category_name":"住宅区","address":"上海灵石路1509弄"},{"poiid":"B2094757D06FA4FC429D","title":"南华苑","lon":"121.42273783","lat":"31.2712963647","category":"500","category_name":"未知分类","address":"上海市宝山区华灵路82弄"},{"poiid":"B2094757D165A3FF499A","title":"普陀区委党校","lon":"121.42295295","lat":"31.267780017","category":"500","category_name":"未知分类","address":"上海市灵石路"},{"poiid":"B2094655D36DA6FE4899","title":"新村路","lon":"121.42288","lat":"31.26477","category":"38","category_name":"公交车站","address":""},{"poiid":"B2094654DB6AABFB449D","title":"南华苑(东门)","lon":"121.4237","lat":"31.27106","category":"656","category_name":"大门","address":"华灵路80弄、82弄、198弄"},{"poiid":"B2094757D06AA0FD489E","title":"甘泉新村地段医院","lon":"121.428286415","lat":"31.2702351077","category":"162","category_name":"医院","address":"普陀区平利路57号(近西乡路)"},{"poiid":"B2094757D069A2F9429E","title":"豆豆餐馆","lon":"121.42717","lat":"31.27061","category":"76","category_name":"上海菜","address":"上海普陀区平利路99号(近灵石路)"},{"poiid":"B2094654D465A0F54099","title":"招商银行上海华灵支行","lon":"121.42476","lat":"31.27052","category":"150","category_name":"银行","address":"宝山区华灵路1号(华灵路灵石路)"},{"poiid":"B2094757DB6FA1FD479D","title":"鼎中鼎澳门豆捞(甘泉店)","lon":"121.423836","lat":"31.27181","category":"247","category_name":"餐饮美食","address":"普陀区平利路18号(近志丹路)"},{"poiid":"B2094757DB6FA4F5449B","title":"有名糖甜品","lon":"121.424586","lat":"31.267248","category":"247","category_name":"餐饮美食","address":"普陀区新村路403号乙(近志丹路)"},{"poiid":"B2094757D06AABFB4992","title":"优璞桌球","lon":"121.42827","lat":"31.26936","category":"171","category_name":"台球厅","address":"普陀区西乡路260号5楼(近平利路)"},{"poiid":"B2094757D064AAFD4492","title":"经乐堂","lon":"121.42408335","lat":"31.269465349","category":"500","category_name":"未知分类","address":"宝山区华灵路3号2楼(近灵石路)"},{"poiid":"B2094757D069ABFA4199","title":"泰煌鸡(西乡路店)","lon":"121.42842","lat":"31.26916","category":"68","category_name":"快餐厅","address":"普陀区西乡路272号(近平利路)"},{"poiid":"B2094757D06BA4FC4393","title":"普陀体育中心篮球场","lon":"121.42836","lat":"31.26827","category":"220","category_name":"运动场所","address":"普陀区西乡路288号普陀体育中心(平利路口)"},{"poiid":"B2094757D065A2FF4299","title":"平利路灵石路烧烤摊","lon":"121.42491855","lat":"31.2714912718","category":"68","category_name":"快餐厅","address":"闸北区灵石路(近平利路)"},{"poiid":"B2094655D26AA3FD419D","title":"爱侣宠物诊所灵石路店","lon":"121.42261","lat":"31.26806","category":"247","category_name":"餐饮美食","address":"闸北区灵石路1539号F1F14(近新村路)"},{"poiid":"B2094757D16CA0FB4593","title":"西乡路","lon":"121.42726795","lat":"31.268700635","category":"500","category_name":"未知分类","address":"上海西乡路"},{"poiid":"B2094757D064A7FA4092","title":"福星高照大酒店","lon":"121.426780555","lat":"31.271283248","category":"76","category_name":"上海菜","address":"普陀区平利路135号(近灵石路)"},{"poiid":"B2094654D465A0FF429D","title":"新灵小区","lon":"121.42564","lat":"31.266878","category":"47","category_name":"住宅区","address":"西乡路51弄"},{"poiid":"B2094655D36DA1F4409B","title":"西乡路平利路","lon":"121.42751","lat":"31.2693","category":"38","category_name":"公交车站","address":""},{"poiid":"B2094757D66DA6F8449C","title":"莫泰168(甘泉店)","lon":"121.42761","lat":"31.2677","category":"500","category_name":"未知分类","address":"普陀区西乡路268号(近平利路)"},{"poiid":"B2094757D164ABFD4999","title":"甘泉地段医院－B超室","lon":"121.42664695","lat":"31.269030041","category":"162","category_name":"医院","address":"上海市普陀区平利路57号"},{"poiid":"B2094655D26DAAFB439C","title":"平利路第二小学","lon":"121.42382","lat":"31.26863","category":"56","category_name":"小学","address":"普陀区灵石路1362号(近平利路)"},{"poiid":"B2094655D26BA1FC4998","title":"平利路","lon":"121.42856","lat":"31.26985","category":"38","category_name":"公交车站","address":""},{"poiid":"B2094757D164A4FA4598","title":"小米家","lon":"121.42675495","lat":"31.26896004","category":"247","category_name":"餐饮美食","address":null},{"poiid":"B2094654D465A0FF4293","title":"新甘北生鲜市场No.002","lon":"121.42665","lat":"31.26759","category":"117","category_name":"便民商店/便利店","address":""},{"poiid":"B2094757D06AA3FF489E","title":"吉祥馄饨(新村路店)","lon":"121.42500305","lat":"31.264600753","category":"68","category_name":"快餐厅","address":"普陀区新村路501号(近双山路)"},{"poiid":"B2094654D465A0FF4892","title":"光明便利No.318","lon":"121.42363","lat":"31.26882","category":"117","category_name":"便民商店/便利店","address":"灵石路1364"},{"poiid":"B2094655D26CA0FC419D","title":"绿地威科国际","lon":"121.42839","lat":"31.2657","category":"46","category_name":"楼宇","address":""},{"poiid":"B2094654DB6AABFB409D","title":"新灵小区(东门)","lon":"121.42658","lat":"31.26728","category":"47","category_name":"住宅区","address":"西乡路51弄"},{"poiid":"B2094655D26AA5FD499D","title":"岚灵花市","lon":"121.42261","lat":"31.26806","category":"247","category_name":"餐饮美食","address":"闸北区灵石路1539号(近新村路)"},{"poiid":"B2094751DA6BAAF9449E","title":"中山公园龙之梦","lon":"121.423353","lat":"31.27162","category":"500","category_name":"未知分类","address":null},{"poiid":"B2094654D465A1F84093","title":"交暨路65弄小区","lon":"121.427","lat":"31.2675","category":"47","category_name":"住宅区","address":"交暨路65弄1-29号"},{"poiid":"B2094757D06FA7F5469D","title":"捞王猪肚鸡(平利路店)","lon":"121.42749","lat":"31.27008","category":"86","category_name":"火锅店","address":"普陀区平利路86号(近灵石路)"},{"poiid":"B2094757D06FA3FB439C","title":"岚灵花鸟市场(灵石路店)","lon":"121.4234","lat":"31.26815","category":"249","category_name":"购物服务","address":"闸北区灵石路1539号(近新村路)"},{"poiid":"B2094654D465A0FF4192","title":"普陀区体育中心","lon":"121.4281","lat":"31.26854","category":"224","category_name":"综合体育馆","address":"西乡路218"},{"poiid":"B2094757D068A2F84599","title":"工程技术大学 新村路校区","lon":"121.425682","lat":"31.266055","category":"52","category_name":"高等院校","address":"上海新村路435号"},{"poiid":"B2094757D06FA4FE4993","title":"自由港量贩式KTV(甘泉店)","lon":"121.4279","lat":"31.26881","category":"170","category_name":"KTV","address":"普陀区西乡路226号3楼(近平利路)"},{"poiid":"B2094654D465A0FF419C","title":"南泉苑","lon":"121.42641","lat":"31.269091","category":"47","category_name":"住宅区","address":"西乡路91弄1-77号"},{"poiid":"B2094757D068A3FF4392","title":"满福阁","lon":"121.42713","lat":"31.2716","category":"76","category_name":"上海菜","address":"普陀区灵石路1168号(近平利路)"},{"poiid":"B2094757D06AA1FF439C","title":"七号线大华三路站","lon":"121.42594005","lat":"31.267547913","category":"500","category_name":"未知分类","address":"上海七号线大华三路站"},{"poiid":"B2094655D36DA0FC429F","title":"新村路志丹路","lon":"121.42884","lat":"31.26544","category":"38","category_name":"公交车站","address":""},{"poiid":"B2094757D068A0FA489D","title":"甘泉公园","lon":"121.428472832","lat":"31.2670879743","category":"196","category_name":"公园","address":"普陀区志丹路301号(近新村路)"},{"poiid":"B2094757D16DAAFB4193","title":"龍之夢","lon":"121.42401445","lat":"31.266203837","category":"500","category_name":"未知分类","address":"上海龍之夢"},{"poiid":"B2094757D169ABFC469B","title":"绿地普陀商务广场","lon":"121.42844895","lat":"31.2654709735","category":"500","category_name":"未知分类","address":"普陀区大渡河路588号"},{"poiid":"B2094757D66BA5F4439D","title":"振鑫火锅 平利路店","lon":"121.42759368353","lat":"31.269827063916","category":"86","category_name":"火锅店","address":"普陀区平利路70号(近西乡路)"},{"poiid":"B2094655D26AA0F94592","title":"地铁新村路站","lon":"121.42288","lat":"31.26477","category":"36","category_name":"地铁站","address":""},{"poiid":"B2094654D465A0FF409F","title":"四海游龙 甘泉店 OVERSEAS DRAGON","lon":"121.428123054","lat":"31.269415793","category":"68","category_name":"快餐厅","address":"普陀区西乡路280号(近平利路)"},{"poiid":"B2094654DB6AA2FC4098","title":"新健游泳俱乐部游泳馆","lon":"121.42896","lat":"31.26975","category":"231","category_name":"游泳馆","address":"普陀区平利路50号(平利路西乡路)"},{"poiid":"B2094654D465A0FF4699","title":"灵石小区","lon":"121.42439","lat":"31.266243","category":"47","category_name":"住宅区","address":"灵石路1620弄"},{"poiid":"B2094655D26CA0FC4193","title":"水韵华庭(灵石路)","lon":"121.42283","lat":"31.26885","category":"47","category_name":"住宅区","address":"上海灵石路1509弄"},{"poiid":"B2094757D06FA4FC429D","title":"南华苑","lon":"121.42273783","lat":"31.2712963647","category":"500","category_name":"未知分类","address":"上海市宝山区华灵路82弄"},{"poiid":"B2094757D165A3FF499A","title":"普陀区委党校","lon":"121.42295295","lat":"31.267780017","category":"500","category_name":"未知分类","address":"上海市灵石路"},{"poiid":"B2094655D36DA6FE4899","title":"新村路","lon":"121.42288","lat":"31.26477","category":"38","category_name":"公交车站","address":""},{"poiid":"B2094654DB6AABFB449D","title":"南华苑(东门)","lon":"121.4237","lat":"31.27106","category":"656","category_name":"大门","address":"华灵路80弄、82弄、198弄"},{"poiid":"B2094757D06AA0FD489E","title":"甘泉新村地段医院","lon":"121.428286415","lat":"31.2702351077","category":"162","category_name":"医院","address":"普陀区平利路57号(近西乡路)"},{"poiid":"B2094757D069A2F9429E","title":"豆豆餐馆","lon":"121.42717","lat":"31.27061","category":"76","category_name":"上海菜","address":"上海普陀区平利路99号(近灵石路)"},{"poiid":"B2094654D465A0F54099","title":"招商银行上海华灵支行","lon":"121.42476","lat":"31.27052","category":"150","category_name":"银行","address":"宝山区华灵路1号(华灵路灵石路)"},{"poiid":"B2094757DB6FA1FD479D","title":"鼎中鼎澳门豆捞(甘泉店)","lon":"121.423836","lat":"31.27181","category":"247","category_name":"餐饮美食","address":"普陀区平利路18号(近志丹路)"},{"poiid":"B2094757DB6FA4F5449B","title":"有名糖甜品","lon":"121.424586","lat":"31.267248","category":"247","category_name":"餐饮美食","address":"普陀区新村路403号乙(近志丹路)"},{"poiid":"B2094757D06AABFB4992","title":"优璞桌球","lon":"121.42827","lat":"31.26936","category":"171","category_name":"台球厅","address":"普陀区西乡路260号5楼(近平利路)"},{"poiid":"B2094757D064AAFD4492","title":"经乐堂","lon":"121.42408335","lat":"31.269465349","category":"500","category_name":"未知分类","address":"宝山区华灵路3号2楼(近灵石路)"},{"poiid":"B2094757D069ABFA4199","title":"泰煌鸡(西乡路店)","lon":"121.42842","lat":"31.26916","category":"68","category_name":"快餐厅","address":"普陀区西乡路272号(近平利路)"},{"poiid":"B2094757D06BA4FC4393","title":"普陀体育中心篮球场","lon":"121.42836","lat":"31.26827","category":"220","category_name":"运动场所","address":"普陀区西乡路288号普陀体育中心(平利路口)"},{"poiid":"B2094757D065A2FF4299","title":"平利路灵石路烧烤摊","lon":"121.42491855","lat":"31.2714912718","category":"68","category_name":"快餐厅","address":"闸北区灵石路(近平利路)"},{"poiid":"B2094655D26AA3FD419D","title":"爱侣宠物诊所灵石路店","lon":"121.42261","lat":"31.26806","category":"247","category_name":"餐饮美食","address":"闸北区灵石路1539号F1F14(近新村路)"},{"poiid":"B2094757D16CA0FB4593","title":"西乡路","lon":"121.42726795","lat":"31.268700635","category":"500","category_name":"未知分类","address":"上海西乡路"},{"poiid":"B2094757D064A7FA4092","title":"福星高照大酒店","lon":"121.426780555","lat":"31.271283248","category":"76","category_name":"上海菜","address":"普陀区平利路135号(近灵石路)"},{"poiid":"B2094654D465A0FF429D","title":"新灵小区","lon":"121.42564","lat":"31.266878","category":"47","category_name":"住宅区","address":"西乡路51弄"},{"poiid":"B2094655D36DA1F4409B","title":"西乡路平利路","lon":"121.42751","lat":"31.2693","category":"38","category_name":"公交车站","address":""},{"poiid":"B2094757D66DA6F8449C","title":"莫泰168(甘泉店)","lon":"121.42761","lat":"31.2677","category":"500","category_name":"未知分类","address":"普陀区西乡路268号(近平利路)"},{"poiid":"B2094757D164ABFD4999","title":"甘泉地段医院－B超室","lon":"121.42664695","lat":"31.269030041","category":"162","category_name":"医院","address":"上海市普陀区平利路57号"},{"poiid":"B2094655D26DAAFB439C","title":"平利路第二小学","lon":"121.42382","lat":"31.26863","category":"56","category_name":"小学","address":"普陀区灵石路1362号(近平利路)"},{"poiid":"B2094655D26BA1FC4998","title":"平利路","lon":"121.42856","lat":"31.26985","category":"38","category_name":"公交车站","address":""},{"poiid":"B2094757D164A4FA4598","title":"小米家","lon":"121.42675495","lat":"31.26896004","category":"247","category_name":"餐饮美食","address":null},{"poiid":"B2094654D465A0FF4293","title":"新甘北生鲜市场No.002","lon":"121.42665","lat":"31.26759","category":"117","category_name":"便民商店/便利店","address":""},{"poiid":"B2094757D06AA3FF489E","title":"吉祥馄饨(新村路店)","lon":"121.42500305","lat":"31.264600753","category":"68","category_name":"快餐厅","address":"普陀区新村路501号(近双山路)"},{"poiid":"B2094654D465A0FF4892","title":"光明便利No.318","lon":"121.42363","lat":"31.26882","category":"117","category_name":"便民商店/便利店","address":"灵石路1364"},{"poiid":"B2094655D26CA0FC419D","title":"绿地威科国际","lon":"121.42839","lat":"31.2657","category":"46","category_name":"楼宇","address":""},{"poiid":"B2094654DB6AABFB409D","title":"新灵小区(东门)","lon":"121.42658","lat":"31.26728","category":"47","category_name":"住宅区","address":"西乡路51弄"},{"poiid":"B2094655D26AA5FD499D","title":"岚灵花市","lon":"121.42261","lat":"31.26806","category":"247","category_name":"餐饮美食","address":"闸北区灵石路1539号(近新村路)"},{"poiid":"B2094751DA6BAAF9449E","title":"中山公园龙之梦","lon":"121.423353","lat":"31.27162","category":"500","category_name":"未知分类","address":null},{"poiid":"B2094654D465A1F84093","title":"交暨路65弄小区","lon":"121.427","lat":"31.2675","category":"47","category_name":"住宅区","address":"交暨路65弄1-29号"},{"poiid":"B2094757D06FA7F5469D","title":"捞王猪肚鸡(平利路店)","lon":"121.42749","lat":"31.27008","category":"86","category_name":"火锅店","address":"普陀区平利路86号(近灵石路)"},{"poiid":"B2094757D06FA3FB439C","title":"岚灵花鸟市场(灵石路店)","lon":"121.4234","lat":"31.26815","category":"249","category_name":"购物服务","address":"闸北区灵石路1539号(近新村路)"},{"poiid":"B2094654D465A0FF4192","title":"普陀区体育中心","lon":"121.4281","lat":"31.26854","category":"224","category_name":"综合体育馆","address":"西乡路218"},{"poiid":"B2094757D068A2F84599","title":"工程技术大学 新村路校区","lon":"121.425682","lat":"31.266055","category":"52","category_name":"高等院校","address":"上海新村路435号"},{"poiid":"B2094757D06FA4FE4993","title":"自由港量贩式KTV(甘泉店)","lon":"121.4279","lat":"31.26881","category":"170","category_name":"KTV","address":"普陀区西乡路226号3楼(近平利路)"},{"poiid":"B2094654D465A0FF419C","title":"南泉苑","lon":"121.42641","lat":"31.269091","category":"47","category_name":"住宅区","address":"西乡路91弄1-77号"},{"poiid":"B2094757D068A3FF4392","title":"满福阁","lon":"121.42713","lat":"31.2716","category":"76","category_name":"上海菜","address":"普陀区灵石路1168号(近平利路)"},{"poiid":"B2094757D06AA1FF439C","title":"七号线大华三路站","lon":"121.42594005","lat":"31.267547913","category":"500","category_name":"未知分类","address":"上海七号线大华三路站"},{"poiid":"B2094655D36DA0FC429F","title":"新村路志丹路","lon":"121.42884","lat":"31.26544","category":"38","category_name":"公交车站","address":""},{"poiid":"B2094757D068A0FA489D","title":"甘泉公园","lon":"121.428472832","lat":"31.2670879743","category":"196","category_name":"公园","address":"普陀区志丹路301号(近新村路)"},{"poiid":"B2094757D16DAAFB4193","title":"龍之夢","lon":"121.42401445","lat":"31.266203837","category":"500","category_name":"未知分类","address":"上海龍之夢"},{"poiid":"B2094757D169ABFC469B","title":"绿地普陀商务广场","lon":"121.42844895","lat":"31.2654709735","category":"500","category_name":"未知分类","address":"普陀区大渡河路588号"},{"poiid":"B2094757D66BA5F4439D","title":"振鑫火锅 平利路店","lon":"121.42759368353","lat":"31.269827063916","category":"86","category_name":"火锅店","address":"普陀区平利路70号(近西乡路)"},{"poiid":"B2094655D26AA0F94592","title":"地铁新村路站","lon":"121.42288","lat":"31.26477","category":"36","category_name":"地铁站","address":""},{"poiid":"B2094654D465A0FF409F","title":"四海游龙 甘泉店 OVERSEAS DRAGON","lon":"121.428123054","lat":"31.269415793","category":"68","category_name":"快餐厅","address":"普陀区西乡路280号(近平利路)"},{"poiid":"B2094654DB6AA2FC4098","title":"新健游泳俱乐部游泳馆","lon":"121.42896","lat":"31.26975","category":"231","category_name":"游泳馆","address":"普陀区平利路50号(平利路西乡路)"},{"poiid":"B2094654D465A0FF4699","title":"灵石小区","lon":"121.42439","lat":"31.266243","category":"47","category_name":"住宅区","address":"灵石路1620弄"},{"poiid":"B2094655D26CA0FC4193","title":"水韵华庭(灵石路)","lon":"121.42283","lat":"31.26885","category":"47","category_name":"住宅区","address":"上海灵石路1509弄"},{"poiid":"B2094757D06FA4FC429D","title":"南华苑","lon":"121.42273783","lat":"31.2712963647","category":"500","category_name":"未知分类","address":"上海市宝山区华灵路82弄"},{"poiid":"B2094757D165A3FF499A","title":"普陀区委党校","lon":"121.42295295","lat":"31.267780017","category":"500","category_name":"未知分类","address":"上海市灵石路"},{"poiid":"B2094655D36DA6FE4899","title":"新村路","lon":"121.42288","lat":"31.26477","category":"38","category_name":"公交车站","address":""},{"poiid":"B2094654DB6AABFB449D","title":"南华苑(东门)","lon":"121.4237","lat":"31.27106","category":"656","category_name":"大门","address":"华灵路80弄、82弄、198弄"},{"poiid":"B2094757D06AA0FD489E","title":"甘泉新村地段医院","lon":"121.428286415","lat":"31.2702351077","category":"162","category_name":"医院","address":"普陀区平利路57号(近西乡路)"},{"poiid":"B2094757D069A2F9429E","title":"豆豆餐馆","lon":"121.42717","lat":"31.27061","category":"76","category_name":"上海菜","address":"上海普陀区平利路99号(近灵石路)"},{"poiid":"B2094654D465A0F54099","title":"招商银行上海华灵支行","lon":"121.42476","lat":"31.27052","category":"150","category_name":"银行","address":"宝山区华灵路1号(华灵路灵石路)"},{"poiid":"B2094757DB6FA1FD479D","title":"鼎中鼎澳门豆捞(甘泉店)","lon":"121.423836","lat":"31.27181","category":"247","category_name":"餐饮美食","address":"普陀区平利路18号(近志丹路)"},{"poiid":"B2094757DB6FA4F5449B","title":"有名糖甜品","lon":"121.424586","lat":"31.267248","category":"247","category_name":"餐饮美食","address":"普陀区新村路403号乙(近志丹路)"},{"poiid":"B2094757D06AABFB4992","title":"优璞桌球","lon":"121.42827","lat":"31.26936","category":"171","category_name":"台球厅","address":"普陀区西乡路260号5楼(近平利路)"},{"poiid":"B2094757D064AAFD4492","title":"经乐堂","lon":"121.42408335","lat":"31.269465349","category":"500","category_name":"未知分类","address":"宝山区华灵路3号2楼(近灵石路)"},{"poiid":"B2094757D069ABFA4199","title":"泰煌鸡(西乡路店)","lon":"121.42842","lat":"31.26916","category":"68","category_name":"快餐厅","address":"普陀区西乡路272号(近平利路)"},{"poiid":"B2094757D06BA4FC4393","title":"普陀体育中心篮球场","lon":"121.42836","lat":"31.26827","category":"220","category_name":"运动场所","address":"普陀区西乡路288号普陀体育中心(平利路口)"},{"poiid":"B2094757D065A2FF4299","title":"平利路灵石路烧烤摊","lon":"121.42491855","lat":"31.2714912718","category":"68","category_name":"快餐厅","address":"闸北区灵石路(近平利路)"},{"poiid":"B2094655D26AA3FD419D","title":"爱侣宠物诊所灵石路店","lon":"121.42261","lat":"31.26806","category":"247","category_name":"餐饮美食","address":"闸北区灵石路1539号F1F14(近新村路)"},{"poiid":"B2094757D16CA0FB4593","title":"西乡路","lon":"121.42726795","lat":"31.268700635","category":"500","category_name":"未知分类","address":"上海西乡路"},{"poiid":"B2094757D064A7FA4092","title":"福星高照大酒店","lon":"121.426780555","lat":"31.271283248","category":"76","category_name":"上海菜","address":"普陀区平利路135号(近灵石路)"},{"poiid":"B2094654D465A0FF429D","title":"新灵小区","lon":"121.42564","lat":"31.266878","category":"47","category_name":"住宅区","address":"西乡路51弄"},{"poiid":"B2094655D36DA1F4409B","title":"西乡路平利路","lon":"121.42751","lat":"31.2693","category":"38","category_name":"公交车站","address":""},{"poiid":"B2094757D66DA6F8449C","title":"莫泰168(甘泉店)","lon":"121.42761","lat":"31.2677","category":"500","category_name":"未知分类","address":"普陀区西乡路268号(近平利路)"},{"poiid":"B2094757D164ABFD4999","title":"甘泉地段医院－B超室","lon":"121.42664695","lat":"31.269030041","category":"162","category_name":"医院","address":"上海市普陀区平利路57号"},{"poiid":"B2094655D26DAAFB439C","title":"平利路第二小学","lon":"121.42382","lat":"31.26863","category":"56","category_name":"小学","address":"普陀区灵石路1362号(近平利路)"},{"poiid":"B2094655D26BA1FC4998","title":"平利路","lon":"121.42856","lat":"31.26985","category":"38","category_name":"公交车站","address":""},{"poiid":"B2094757D164A4FA4598","title":"小米家","lon":"121.42675495","lat":"31.26896004","category":"247","category_name":"餐饮美食","address":null},{"poiid":"B2094654D465A0FF4293","title":"新甘北生鲜市场No.002","lon":"121.42665","lat":"31.26759","category":"117","category_name":"便民商店/便利店","address":""},{"poiid":"B2094757D06AA3FF489E","title":"吉祥馄饨(新村路店)","lon":"121.42500305","lat":"31.264600753","category":"68","category_name":"快餐厅","address":"普陀区新村路501号(近双山路)"},{"poiid":"B2094654D465A0FF4892","title":"光明便利No.318","lon":"121.42363","lat":"31.26882","category":"117","category_name":"便民商店/便利店","address":"灵石路1364"},{"poiid":"B2094655D26CA0FC419D","title":"绿地威科国际","lon":"121.42839","lat":"31.2657","category":"46","category_name":"楼宇","address":""},{"poiid":"B2094654DB6AABFB409D","title":"新灵小区(东门)","lon":"121.42658","lat":"31.26728","category":"47","category_name":"住宅区","address":"西乡路51弄"},{"poiid":"B2094655D26AA5FD499D","title":"岚灵花市","lon":"121.42261","lat":"31.26806","category":"247","category_name":"餐饮美食","address":"闸北区灵石路1539号(近新村路)"},{"poiid":"B2094751DA6BAAF9449E","title":"中山公园龙之梦","lon":"121.423353","lat":"31.27162","category":"500","category_name":"未知分类","address":null},{"poiid":"B2094654D465A1F84093","title":"交暨路65弄小区","lon":"121.427","lat":"31.2675","category":"47","category_name":"住宅区","address":"交暨路65弄1-29号"},{"poiid":"B2094757D06FA7F5469D","title":"捞王猪肚鸡(平利路店)","lon":"121.42749","lat":"31.27008","category":"86","category_name":"火锅店","address":"普陀区平利路86号(近灵石路)"},{"poiid":"B2094757D06FA3FB439C","title":"岚灵花鸟市场(灵石路店)","lon":"121.4234","lat":"31.26815","category":"249","category_name":"购物服务","address":"闸北区灵石路1539号(近新村路)"},{"poiid":"B2094654D465A0FF4192","title":"普陀区体育中心","lon":"121.4281","lat":"31.26854","category":"224","category_name":"综合体育馆","address":"西乡路218"},{"poiid":"B2094757D068A2F84599","title":"工程技术大学 新村路校区","lon":"121.425682","lat":"31.266055","category":"52","category_name":"高等院校","address":"上海新村路435号"},{"poiid":"B2094757D06FA4FE4993","title":"自由港量贩式KTV(甘泉店)","lon":"121.4279","lat":"31.26881","category":"170","category_name":"KTV","address":"普陀区西乡路226号3楼(近平利路)"},{"poiid":"B2094654D465A0FF419C","title":"南泉苑","lon":"121.42641","lat":"31.269091","category":"47","category_name":"住宅区","address":"西乡路91弄1-77号"},{"poiid":"B2094757D068A3FF4392","title":"满福阁","lon":"121.42713","lat":"31.2716","category":"76","category_name":"上海菜","address":"普陀区灵石路1168号(近平利路)"},{"poiid":"B2094757D06AA1FF439C","title":"七号线大华三路站","lon":"121.42594005","lat":"31.267547913","category":"500","category_name":"未知分类","address":"上海七号线大华三路站"},{"poiid":"B2094655D36DA0FC429F","title":"新村路志丹路","lon":"121.42884","lat":"31.26544","category":"38","category_name":"公交车站","address":""},{"poiid":"B2094757D068A0FA489D","title":"甘泉公园","lon":"121.428472832","lat":"31.2670879743","category":"196","category_name":"公园","address":"普陀区志丹路301号(近新村路)"},{"poiid":"B2094757D16DAAFB4193","title":"龍之夢","lon":"121.42401445","lat":"31.266203837","category":"500","category_name":"未知分类","address":"上海龍之夢"},{"poiid":"B2094757D169ABFC469B","title":"绿地普陀商务广场","lon":"121.42844895","lat":"31.2654709735","category":"500","category_name":"未知分类","address":"普陀区大渡河路588号"},{"poiid":"B2094757D66BA5F4439D","title":"振鑫火锅 平利路店","lon":"121.42759368353","lat":"31.269827063916","category":"86","category_name":"火锅店","address":"普陀区平利路70号(近西乡路)"},{"poiid":"B2094655D26AA0F94592","title":"地铁新村路站","lon":"121.42288","lat":"31.26477","category":"36","category_name":"地铁站","address":""},{"poiid":"B2094654D465A0FF409F","title":"四海游龙 甘泉店 OVERSEAS DRAGON","lon":"121.428123054","lat":"31.269415793","category":"68","category_name":"快餐厅","address":"普陀区西乡路280号(近平利路)"},{"poiid":"B2094654DB6AA2FC4098","title":"新健游泳俱乐部游泳馆","lon":"121.42896","lat":"31.26975","category":"231","category_name":"游泳馆","address":"普陀区平利路50号(平利路西乡路)"},{"poiid":"B2094654D465A0FF4699","title":"灵石小区","lon":"121.42439","lat":"31.266243","category":"47","category_name":"住宅区","address":"灵石路1620弄"},{"poiid":"B2094655D26CA0FC4193","title":"水韵华庭(灵石路)","lon":"121.42283","lat":"31.26885","category":"47","category_name":"住宅区","address":"上海灵石路1509弄"},{"poiid":"B2094757D06FA4FC429D","title":"南华苑","lon":"121.42273783","lat":"31.2712963647","category":"500","category_name":"未知分类","address":"上海市宝山区华灵路82弄"},{"poiid":"B2094757D165A3FF499A","title":"普陀区委党校","lon":"121.42295295","lat":"31.267780017","category":"500","category_name":"未知分类","address":"上海市灵石路"},{"poiid":"B2094655D36DA6FE4899","title":"新村路","lon":"121.42288","lat":"31.26477","category":"38","category_name":"公交车站","address":""},{"poiid":"B2094654DB6AABFB449D","title":"南华苑(东门)","lon":"121.4237","lat":"31.27106","category":"656","category_name":"大门","address":"华灵路80弄、82弄、198弄"},{"poiid":"B2094757D06AA0FD489E","title":"甘泉新村地段医院","lon":"121.428286415","lat":"31.2702351077","category":"162","category_name":"医院","address":"普陀区平利路57号(近西乡路)"},{"poiid":"B2094757D069A2F9429E","title":"豆豆餐馆","lon":"121.42717","lat":"31.27061","category":"76","category_name":"上海菜","address":"上海普陀区平利路99号(近灵石路)"},{"poiid":"B2094654D465A0F54099","title":"招商银行上海华灵支行","lon":"121.42476","lat":"31.27052","category":"150","category_name":"银行","address":"宝山区华灵路1号(华灵路灵石路)"},{"poiid":"B2094757DB6FA1FD479D","title":"鼎中鼎澳门豆捞(甘泉店)","lon":"121.423836","lat":"31.27181","category":"247","category_name":"餐饮美食","address":"普陀区平利路18号(近志丹路)"},{"poiid":"B2094757DB6FA4F5449B","title":"有名糖甜品","lon":"121.424586","lat":"31.267248","category":"247","category_name":"餐饮美食","address":"普陀区新村路403号乙(近志丹路)"},{"poiid":"B2094757D06AABFB4992","title":"优璞桌球","lon":"121.42827","lat":"31.26936","category":"171","category_name":"台球厅","address":"普陀区西乡路260号5楼(近平利路)"},{"poiid":"B2094757D064AAFD4492","title":"经乐堂","lon":"121.42408335","lat":"31.269465349","category":"500","category_name":"未知分类","address":"宝山区华灵路3号2楼(近灵石路)"},{"poiid":"B2094757D069ABFA4199","title":"泰煌鸡(西乡路店)","lon":"121.42842","lat":"31.26916","category":"68","category_name":"快餐厅","address":"普陀区西乡路272号(近平利路)"},{"poiid":"B2094757D06BA4FC4393","title":"普陀体育中心篮球场","lon":"121.42836","lat":"31.26827","category":"220","category_name":"运动场所","address":"普陀区西乡路288号普陀体育中心(平利路口)"},{"poiid":"B2094757D065A2FF4299","title":"平利路灵石路烧烤摊","lon":"121.42491855","lat":"31.2714912718","category":"68","category_name":"快餐厅","address":"闸北区灵石路(近平利路)"},{"poiid":"B2094655D26AA3FD419D","title":"爱侣宠物诊所灵石路店","lon":"121.42261","lat":"31.26806","category":"247","category_name":"餐饮美食","address":"闸北区灵石路1539号F1F14(近新村路)"},{"poiid":"B2094757D16CA0FB4593","title":"西乡路","lon":"121.42726795","lat":"31.268700635","category":"500","category_name":"未知分类","address":"上海西乡路"},{"poiid":"B2094757D064A7FA4092","title":"福星高照大酒店","lon":"121.426780555","lat":"31.271283248","category":"76","category_name":"上海菜","address":"普陀区平利路135号(近灵石路)"},{"poiid":"B2094654D465A0FF429D","title":"新灵小区","lon":"121.42564","lat":"31.266878","category":"47","category_name":"住宅区","address":"西乡路51弄"},{"poiid":"B2094655D36DA1F4409B","title":"西乡路平利路","lon":"121.42751","lat":"31.2693","category":"38","category_name":"公交车站","address":""},{"poiid":"B2094757D66DA6F8449C","title":"莫泰168(甘泉店)","lon":"121.42761","lat":"31.2677","category":"500","category_name":"未知分类","address":"普陀区西乡路268号(近平利路)"},{"poiid":"B2094757D164ABFD4999","title":"甘泉地段医院－B超室","lon":"121.42664695","lat":"31.269030041","category":"162","category_name":"医院","address":"上海市普陀区平利路57号"},{"poiid":"B2094655D26DAAFB439C","title":"平利路第二小学","lon":"121.42382","lat":"31.26863","category":"56","category_name":"小学","address":"普陀区灵石路1362号(近平利路)"},{"poiid":"B2094655D26BA1FC4998","title":"平利路","lon":"121.42856","lat":"31.26985","category":"38","category_name":"公交车站","address":""},{"poiid":"B2094757D164A4FA4598","title":"小米家","lon":"121.42675495","lat":"31.26896004","category":"247","category_name":"餐饮美食","address":null},{"poiid":"B2094654D465A0FF4293","title":"新甘北生鲜市场No.002","lon":"121.42665","lat":"31.26759","category":"117","category_name":"便民商店/便利店","address":""},{"poiid":"B2094757D06AA3FF489E","title":"吉祥馄饨(新村路店)","lon":"121.42500305","lat":"31.264600753","category":"68","category_name":"快餐厅","address":"普陀区新村路501号(近双山路)"},{"poiid":"B2094654D465A0FF4892","title":"光明便利No.318","lon":"121.42363","lat":"31.26882","category":"117","category_name":"便民商店/便利店","address":"灵石路1364"},{"poiid":"B2094655D26CA0FC419D","title":"绿地威科国际","lon":"121.42839","lat":"31.2657","category":"46","category_name":"楼宇","address":""},{"poiid":"B2094654DB6AABFB409D","title":"新灵小区(东门)","lon":"121.42658","lat":"31.26728","category":"47","category_name":"住宅区","address":"西乡路51弄"},{"poiid":"B2094655D26AA5FD499D","title":"岚灵花市","lon":"121.42261","lat":"31.26806","category":"247","category_name":"餐饮美食","address":"闸北区灵石路1539号(近新村路)"},{"poiid":"B2094751DA6BAAF9449E","title":"中山公园龙之梦","lon":"121.423353","lat":"31.27162","category":"500","category_name":"未知分类","address":null},{"poiid":"B2094654D465A1F84093","title":"交暨路65弄小区","lon":"121.427","lat":"31.2675","category":"47","category_name":"住宅区","address":"交暨路65弄1-29号"}]