[{"poiid":"B2094655D26FA5FF4398","title":"置地广场","lon":"121.48237","lat":"31.23631","category":"119","category_name":"商场","address":"黄浦区南京东路409-459号(近山西南路)"},{"poiid":"B2094654DA6FA5F44192","title":"渝信川菜(华盛大厦店)","lon":"121.48265","lat":"31.23582","category":"71","category_name":"四川菜","address":"黄浦区九江路399号华盛大厦5楼(近山西南路)"},{"poiid":"B2094757D06FA3FB4299","title":"上海大酒店","lon":"121.48121","lat":"31.23489","category":"213","category_name":"五星级宾馆","address":"黄浦区九江路505号(近福建中路)"},{"poiid":"B2094753D76FAAFA449C","title":"上海滩国泰旗舰店","lon":"121.466011","lat":"31.216125","category":"249","category_name":"购物服务","address":"淮海中路868号"},{"poiid":"B209475CD564A7F84292","title":"上海滩新天地店","lon":"121.47463","lat":"31.22164","category":"119","category_name":"商场","address":"\"太仓路181弄新天地北里15号\r\n\""},{"poiid":"B209475CD564A7F8439E","title":"上海滩中信泰富店","lon":"121.45602","lat":"31.22851","category":"119","category_name":"商场","address":"\"南京西路1168号中信泰富广场，店铺号221.\r\n\""},{"poiid":"B209475CD564A7F84392","title":"上海滩浦东香格里拉店","lon":"121.50058","lat":"31.23634","category":"119","category_name":"商场","address":"浦东富成路33号香格里拉酒店内大堂层"},{"poiid":"B2094757D06FA0FA4499","title":"大马头茶餐厅","lon":"121.482732","lat":"31.235167","category":"72","category_name":"广东菜","address":"黄浦区九江路399号华盛大厦1楼(近地铁2号线4号口)"},{"poiid":"B2094757D06FA7FF489E","title":"王宝和大酒店","lon":"121.48086","lat":"31.23463","category":"217","category_name":"旅馆招待所","address":"黄浦区九江路555号(近福建中路)"},{"poiid":"B2094757D06AA4FD429B","title":"好乐迪","lon":"121.481533518","lat":"31.2356146948","category":"500","category_name":"未知分类","address":"上海南京东路479号"},{"poiid":"B2094654DB6BABFD4292","title":"CoCo壱番屋(九江路店)","lon":"121.48282","lat":"31.23544","category":"95","category_name":"日本料理","address":"黄浦区汉口路399号华盛大厦103室(近山西南路)"},{"poiid":"B2094757D06FA3F44693","title":"悦来大酒店","lon":"121.4829","lat":"31.23501","category":"76","category_name":"上海菜","address":"黄浦区汉口路398号华盛大厦4楼(置地广场对面)"},{"poiid":"B2094757D06FA2F5439A","title":"必胜客(先施店)","lon":"121.4802334","lat":"31.2357621","category":"94","category_name":"西餐厅","address":"黄浦区南京东路479号新世界先施休闲港湾1楼(近福建中路)"},{"poiid":"B2094654DB69ABFA4599","title":"上海外文书店(原版书店)","lon":"121.48305","lat":"31.23415","category":"125","category_name":"书店","address":"黄浦区福州路390号4楼(近上海书城)"},{"poiid":"B2094655D26EABFC4793","title":"星巴克(上海书城店)","lon":"121.481477","lat":"31.2334932","category":"260","category_name":"其他","address":"黄浦区福州路465号上海书城2楼(近福建中路)"},{"poiid":"B2094654DB69A4FC4092","title":"好乐迪(南东店)","lon":"121.48132","lat":"31.23593","category":"170","category_name":"KTV","address":"黄浦区南京东路479号新世界先施休闲港湾6-7楼(近福建中路)"},{"poiid":"B2094757D065A3F94593","title":"一之春","lon":"121.481300054","lat":"31.233554793","category":"68","category_name":"快餐厅","address":"黄浦区福州路528号(近来福士)"},{"poiid":"B2094757D06AA3FB479C","title":"东瀛造型名人购物中心店","lon":"121.483731738","lat":"31.2347973974","category":"500","category_name":"未知分类","address":"上海南京东路300号5楼"},{"poiid":"B2094757D068A3FA4098","title":"禾绿回转寿司(南京东路店)","lon":"121.48143","lat":"31.23563","category":"95","category_name":"日本料理","address":"黄浦区南京东路479号新世界先施休闲港湾4楼(近福建中路)"},{"poiid":"B2094654DA6FA5F54592","title":"振鼎鸡 福州路店","lon":"121.481516054","lat":"31.233358793","category":"68","category_name":"快餐厅","address":"黄浦区福州路440号(近福建中路)"},{"poiid":"B2094757D068A2F9419B","title":"三马路酒楼","lon":"121.482737","lat":"31.235036","category":"75","category_name":"浙江菜","address":"黄浦区汉口路413号(近山西南路)"},{"poiid":"B2094654DB6AA6F84798","title":"上海吴宫大酒店","lon":"121.48212","lat":"31.23358","category":"76","category_name":"上海菜","address":"黄浦区福州路431号(近福建中路)"},{"poiid":"B2094654DA6FA5FF469E","title":"亚马逊巴西烤肉","lon":"121.48132","lat":"31.23593","category":"94","category_name":"西餐厅","address":"黄浦区南京东路479号新世界先施休闲港湾8楼(近福建中路)"},{"poiid":"B2094757D164AAFA4692","title":"Puma(置地广场)","lon":"121.48366773","lat":"31.234341387","category":"500","category_name":"未知分类","address":"上海南京东路409-459号7F"},{"poiid":"B2094757D16FA5FA429F","title":"好乐迪量贩式KTV(南京东路店)","lon":"121.481903738","lat":"31.23538941","category":"170","category_name":"KTV","address":"上海黄浦区南京东路479号新世界先施休闲港湾6-7楼(近福建中路)"},{"poiid":"B2094654DA6FA5F54798","title":"九江路金融广场","lon":"121.48319","lat":"31.23591","category":"46","category_name":"楼宇","address":"上海黄浦区九江路333号"},{"poiid":"B2094757D068A6F44392","title":"傣妹(南京东路一店)","lon":"121.48295","lat":"31.23611","category":"86","category_name":"火锅店","address":"黄浦区南京东路387号圣德娜商厦6楼(山西南路口)"},{"poiid":"B2094757D06FA0FD489B","title":"外文书店(福州店)","lon":"121.48325","lat":"31.23381","category":"125","category_name":"书店","address":"黄浦区福州路390号(近上海书城)"},{"poiid":"B2094757D66DA4F5459D","title":"味千拉面","lon":"121.482595738","lat":"31.2351284045","category":"247","category_name":"餐饮美食","address":"上海南京东路300号名人购物中心B1层"},{"poiid":"B2094757D064AAFB409F","title":"大码头茶餐厅","lon":"121.482632738","lat":"31.2359394218","category":"500","category_name":"未知分类","address":"上海市黄浦区牛庄路"},{"poiid":"B2094654DA6FA5F5459F","title":"中外运大厦","lon":"121.48178","lat":"31.23399","category":"46","category_name":"楼宇","address":"卫清西路139_149号等"},{"poiid":"B2094757DA69A2FD489C","title":"上海外文书店日文部","lon":"121.48303","lat":"31.23411","category":"119","category_name":"商场","address":"福州路390号4楼"},{"poiid":"B2094757D06FAAF4429F","title":"上海文化商厦","lon":"121.483677144","lat":"31.2339277566","category":"125","category_name":"书店","address":"黄浦区福州路355号(近山东中路)"},{"poiid":"B2094757D068AAFE4699","title":"鸭王食府","lon":"121.48266475","lat":"31.236176656","category":"68","category_name":"快餐厅","address":"黄浦区南京东路358号(近河南路)"},{"poiid":"B2094757D16AA2F9429E","title":"仁济医院综合楼5号楼","lon":"121.483628738","lat":"31.2343413877","category":"500","category_name":"未知分类","address":"上海山东中路145号"},{"poiid":"B209475CD76EA2FA4892","title":"锅源","lon":"121.483749","lat":"31.234395","category":"500","category_name":"未知分类","address":"上海市 黄浦区九江路288号宏伊广场5楼509-510"},{"poiid":"B2094757D06FA2F44898","title":"汇佳量贩桌游咖啡馆(汉口路店)","lon":"121.4815","lat":"31.234","category":"175","category_name":"棋牌室","address":"上海黄浦区汉口路547号(湖北路口)"},{"poiid":"B2094654DA6FABFF4493","title":"上海古籍书店","lon":"121.4828","lat":"31.2338","category":"125","category_name":"书店","address":"黄浦区福州路401号(近上海书城)"},{"poiid":"B2094757D06BAAFC4099","title":"国际金融中心","lon":"121.48386923","lat":"31.234831898","category":"500","category_name":"未知分类","address":"上海世纪大道8号"},{"poiid":"B2094757D06FA1FB479A","title":"银岛棋牌桌球(山西南路店)","lon":"121.48313","lat":"31.2353","category":"171","category_name":"台球厅","address":"上海黄浦区山西南路99号华盛商务大厦27-29楼(置地广场对面)"},{"poiid":"B2094757DB68A5F4469A","title":"芋贵人甜品店 置地广场店","lon":"121.48228883743","lat":"31.236242774077","category":"67","category_name":"甜品店","address":"黄浦区南京东路409-459号置地广场B1楼(近九江路)"},{"poiid":"B2094654DB69AAFA4399","title":"磨磨茶茶","lon":"121.48185800627","lat":"31.233738243004","category":"110","category_name":"其他亚洲菜","address":"黄浦区福州路452号(近福建中路)"},{"poiid":"B2094751D26CA1FE4898","title":"上海WESTIN酒店","lon":"121.483749","lat":"31.234281","category":"247","category_name":"餐饮美食","address":null},{"poiid":"B2094757D769A4FA479D","title":"赛百味 置地广场店 Subway","lon":"121.482310054","lat":"31.236245793","category":"94","category_name":"西餐厅","address":"黄浦区南京东路409-459号置地广场B1楼(近山西南路)"},{"poiid":"B2094757D06FA7FF4293","title":"大饼和他的朋友们","lon":"121.48134","lat":"31.23397","category":"175","category_name":"棋牌室","address":"黄浦区福建中路225号中悦大厦7楼(近轨交一号线人民广场站14号口)"},{"poiid":"B2094752D76FA1F4479F","title":"星巴克福建中路店","lon":"121.482845","lat":"31.234606","category":"247","category_name":"餐饮美食","address":"福建中路353號"},{"poiid":"B2094757D065A6FD469B","title":"酷酷璐章鱼小丸子","lon":"121.482498138","lat":"31.2358916207","category":"257","category_name":"中餐厅","address":"上海黄浦区南京东路414号"},{"poiid":"B2094750D364A0FF419B","title":"上海全城热恋钻石","lon":"121.48242594841","lat":"31.235817027718","category":"119","category_name":"商场","address":"黄浦区九江路399号华盛大厦2楼(近南京东路)查看地图"},{"poiid":"B209475CD464A1FF419B","title":"顺风港湾","lon":"121.483764","lat":"31.234479","category":"500","category_name":"未知分类","address":"上海市 南京东路299号宏伊广场7楼(近河南中路)"},{"poiid":"B2094757D064A0FE449D","title":"东北人家饺子馆","lon":"121.481746702","lat":"31.233714555","category":"82","category_name":"东北菜","address":"黄浦区福建中路206号(近福州路)"},{"poiid":"B2094655D26FA5FF4398","title":"置地广场","lon":"121.48237","lat":"31.23631","category":"119","category_name":"商场","address":"黄浦区南京东路409-459号(近山西南路)"},{"poiid":"B2094654DA6FA5F44192","title":"渝信川菜(华盛大厦店)","lon":"121.48265","lat":"31.23582","category":"71","category_name":"四川菜","address":"黄浦区九江路399号华盛大厦5楼(近山西南路)"},{"poiid":"B2094757D06FA3FB4299","title":"上海大酒店","lon":"121.48121","lat":"31.23489","category":"213","category_name":"五星级宾馆","address":"黄浦区九江路505号(近福建中路)"},{"poiid":"B2094753D76FAAFA449C","title":"上海滩国泰旗舰店","lon":"121.466011","lat":"31.216125","category":"249","category_name":"购物服务","address":"淮海中路868号"},{"poiid":"B209475CD564A7F84292","title":"上海滩新天地店","lon":"121.47463","lat":"31.22164","category":"119","category_name":"商场","address":"\"太仓路181弄新天地北里15号\r\n\""},{"poiid":"B209475CD564A7F8439E","title":"上海滩中信泰富店","lon":"121.45602","lat":"31.22851","category":"119","category_name":"商场","address":"\"南京西路1168号中信泰富广场，店铺号221.\r\n\""},{"poiid":"B209475CD564A7F84392","title":"上海滩浦东香格里拉店","lon":"121.50058","lat":"31.23634","category":"119","category_name":"商场","address":"浦东富成路33号香格里拉酒店内大堂层"},{"poiid":"B2094757D06FA0FA4499","title":"大马头茶餐厅","lon":"121.482732","lat":"31.235167","category":"72","category_name":"广东菜","address":"黄浦区九江路399号华盛大厦1楼(近地铁2号线4号口)"},{"poiid":"B2094757D06FA7FF489E","title":"王宝和大酒店","lon":"121.48086","lat":"31.23463","category":"217","category_name":"旅馆招待所","address":"黄浦区九江路555号(近福建中路)"},{"poiid":"B2094757D06AA4FD429B","title":"好乐迪","lon":"121.481533518","lat":"31.2356146948","category":"500","category_name":"未知分类","address":"上海南京东路479号"},{"poiid":"B2094654DB6BABFD4292","title":"CoCo壱番屋(九江路店)","lon":"121.48282","lat":"31.23544","category":"95","category_name":"日本料理","address":"黄浦区汉口路399号华盛大厦103室(近山西南路)"},{"poiid":"B2094757D06FA3F44693","title":"悦来大酒店","lon":"121.4829","lat":"31.23501","category":"76","category_name":"上海菜","address":"黄浦区汉口路398号华盛大厦4楼(置地广场对面)"},{"poiid":"B2094757D06FA2F5439A","title":"必胜客(先施店)","lon":"121.4802334","lat":"31.2357621","category":"94","category_name":"西餐厅","address":"黄浦区南京东路479号新世界先施休闲港湾1楼(近福建中路)"},{"poiid":"B2094654DB69ABFA4599","title":"上海外文书店(原版书店)","lon":"121.48305","lat":"31.23415","category":"125","category_name":"书店","address":"黄浦区福州路390号4楼(近上海书城)"},{"poiid":"B2094655D26EABFC4793","title":"星巴克(上海书城店)","lon":"121.481477","lat":"31.2334932","category":"260","category_name":"其他","address":"黄浦区福州路465号上海书城2楼(近福建中路)"},{"poiid":"B2094654DB69A4FC4092","title":"好乐迪(南东店)","lon":"121.48132","lat":"31.23593","category":"170","category_name":"KTV","address":"黄浦区南京东路479号新世界先施休闲港湾6-7楼(近福建中路)"},{"poiid":"B2094757D065A3F94593","title":"一之春","lon":"121.481300054","lat":"31.233554793","category":"68","category_name":"快餐厅","address":"黄浦区福州路528号(近来福士)"},{"poiid":"B2094757D06AA3FB479C","title":"东瀛造型名人购物中心店","lon":"121.483731738","lat":"31.2347973974","category":"500","category_name":"未知分类","address":"上海南京东路300号5楼"},{"poiid":"B2094757D068A3FA4098","title":"禾绿回转寿司(南京东路店)","lon":"121.48143","lat":"31.23563","category":"95","category_name":"日本料理","address":"黄浦区南京东路479号新世界先施休闲港湾4楼(近福建中路)"},{"poiid":"B2094654DA6FA5F54592","title":"振鼎鸡 福州路店","lon":"121.481516054","lat":"31.233358793","category":"68","category_name":"快餐厅","address":"黄浦区福州路440号(近福建中路)"},{"poiid":"B2094757D068A2F9419B","title":"三马路酒楼","lon":"121.482737","lat":"31.235036","category":"75","category_name":"浙江菜","address":"黄浦区汉口路413号(近山西南路)"},{"poiid":"B2094654DB6AA6F84798","title":"上海吴宫大酒店","lon":"121.48212","lat":"31.23358","category":"76","category_name":"上海菜","address":"黄浦区福州路431号(近福建中路)"},{"poiid":"B2094654DA6FA5FF469E","title":"亚马逊巴西烤肉","lon":"121.48132","lat":"31.23593","category":"94","category_name":"西餐厅","address":"黄浦区南京东路479号新世界先施休闲港湾8楼(近福建中路)"},{"poiid":"B2094757D164AAFA4692","title":"Puma(置地广场)","lon":"121.48366773","lat":"31.234341387","category":"500","category_name":"未知分类","address":"上海南京东路409-459号7F"},{"poiid":"B2094757D16FA5FA429F","title":"好乐迪量贩式KTV(南京东路店)","lon":"121.481903738","lat":"31.23538941","category":"170","category_name":"KTV","address":"上海黄浦区南京东路479号新世界先施休闲港湾6-7楼(近福建中路)"},{"poiid":"B2094654DA6FA5F54798","title":"九江路金融广场","lon":"121.48319","lat":"31.23591","category":"46","category_name":"楼宇","address":"上海黄浦区九江路333号"},{"poiid":"B2094757D068A6F44392","title":"傣妹(南京东路一店)","lon":"121.48295","lat":"31.23611","category":"86","category_name":"火锅店","address":"黄浦区南京东路387号圣德娜商厦6楼(山西南路口)"},{"poiid":"B2094757D06FA0FD489B","title":"外文书店(福州店)","lon":"121.48325","lat":"31.23381","category":"125","category_name":"书店","address":"黄浦区福州路390号(近上海书城)"},{"poiid":"B2094757D66DA4F5459D","title":"味千拉面","lon":"121.482595738","lat":"31.2351284045","category":"247","category_name":"餐饮美食","address":"上海南京东路300号名人购物中心B1层"},{"poiid":"B2094757D064AAFB409F","title":"大码头茶餐厅","lon":"121.482632738","lat":"31.2359394218","category":"500","category_name":"未知分类","address":"上海市黄浦区牛庄路"},{"poiid":"B2094654DA6FA5F5459F","title":"中外运大厦","lon":"121.48178","lat":"31.23399","category":"46","category_name":"楼宇","address":"卫清西路139_149号等"},{"poiid":"B2094757DA69A2FD489C","title":"上海外文书店日文部","lon":"121.48303","lat":"31.23411","category":"119","category_name":"商场","address":"福州路390号4楼"},{"poiid":"B2094757D06FAAF4429F","title":"上海文化商厦","lon":"121.483677144","lat":"31.2339277566","category":"125","category_name":"书店","address":"黄浦区福州路355号(近山东中路)"},{"poiid":"B2094757D068AAFE4699","title":"鸭王食府","lon":"121.48266475","lat":"31.236176656","category":"68","category_name":"快餐厅","address":"黄浦区南京东路358号(近河南路)"},{"poiid":"B2094757D16AA2F9429E","title":"仁济医院综合楼5号楼","lon":"121.483628738","lat":"31.2343413877","category":"500","category_name":"未知分类","address":"上海山东中路145号"},{"poiid":"B209475CD76EA2FA4892","title":"锅源","lon":"121.483749","lat":"31.234395","category":"500","category_name":"未知分类","address":"上海市 黄浦区九江路288号宏伊广场5楼509-510"},{"poiid":"B2094757D06FA2F44898","title":"汇佳量贩桌游咖啡馆(汉口路店)","lon":"121.4815","lat":"31.234","category":"175","category_name":"棋牌室","address":"上海黄浦区汉口路547号(湖北路口)"},{"poiid":"B2094654DA6FABFF4493","title":"上海古籍书店","lon":"121.4828","lat":"31.2338","category":"125","category_name":"书店","address":"黄浦区福州路401号(近上海书城)"},{"poiid":"B2094757D06BAAFC4099","title":"国际金融中心","lon":"121.48386923","lat":"31.234831898","category":"500","category_name":"未知分类","address":"上海世纪大道8号"},{"poiid":"B2094757D06FA1FB479A","title":"银岛棋牌桌球(山西南路店)","lon":"121.48313","lat":"31.2353","category":"171","category_name":"台球厅","address":"上海黄浦区山西南路99号华盛商务大厦27-29楼(置地广场对面)"},{"poiid":"B2094757DB68A5F4469A","title":"芋贵人甜品店 置地广场店","lon":"121.48228883743","lat":"31.236242774077","category":"67","category_name":"甜品店","address":"黄浦区南京东路409-459号置地广场B1楼(近九江路)"},{"poiid":"B2094654DB69AAFA4399","title":"磨磨茶茶","lon":"121.48185800627","lat":"31.233738243004","category":"110","category_name":"其他亚洲菜","address":"黄浦区福州路452号(近福建中路)"},{"poiid":"B2094751D26CA1FE4898","title":"上海WESTIN酒店","lon":"121.483749","lat":"31.234281","category":"247","category_name":"餐饮美食","address":null},{"poiid":"B2094757D769A4FA479D","title":"赛百味 置地广场店 Subway","lon":"121.482310054","lat":"31.236245793","category":"94","category_name":"西餐厅","address":"黄浦区南京东路409-459号置地广场B1楼(近山西南路)"},{"poiid":"B2094757D06FA7FF4293","title":"大饼和他的朋友们","lon":"121.48134","lat":"31.23397","category":"175","category_name":"棋牌室","address":"黄浦区福建中路225号中悦大厦7楼(近轨交一号线人民广场站14号口)"},{"poiid":"B2094752D76FA1F4479F","title":"星巴克福建中路店","lon":"121.482845","lat":"31.234606","category":"247","category_name":"餐饮美食","address":"福建中路353號"},{"poiid":"B2094757D065A6FD469B","title":"酷酷璐章鱼小丸子","lon":"121.482498138","lat":"31.2358916207","category":"257","category_name":"中餐厅","address":"上海黄浦区南京东路414号"},{"poiid":"B2094750D364A0FF419B","title":"上海全城热恋钻石","lon":"121.48242594841","lat":"31.235817027718","category":"119","category_name":"商场","address":"黄浦区九江路399号华盛大厦2楼(近南京东路)查看地图"},{"poiid":"B209475CD464A1FF419B","title":"顺风港湾","lon":"121.483764","lat":"31.234479","category":"500","category_name":"未知分类","address":"上海市 南京东路299号宏伊广场7楼(近河南中路)"},{"poiid":"B2094757D064A0FE449D","title":"东北人家饺子馆","lon":"121.481746702","lat":"31.233714555","category":"82","category_name":"东北菜","address":"黄浦区福建中路206号(近福州路)"},{"poiid":"B2094655D26FA5FF4398","title":"置地广场","lon":"121.48237","lat":"31.23631","category":"119","category_name":"商场","address":"黄浦区南京东路409-459号(近山西南路)"},{"poiid":"B2094654DA6FA5F44192","title":"渝信川菜(华盛大厦店)","lon":"121.48265","lat":"31.23582","category":"71","category_name":"四川菜","address":"黄浦区九江路399号华盛大厦5楼(近山西南路)"},{"poiid":"B2094757D06FA3FB4299","title":"上海大酒店","lon":"121.48121","lat":"31.23489","category":"213","category_name":"五星级宾馆","address":"黄浦区九江路505号(近福建中路)"},{"poiid":"B2094753D76FAAFA449C","title":"上海滩国泰旗舰店","lon":"121.466011","lat":"31.216125","category":"249","category_name":"购物服务","address":"淮海中路868号"},{"poiid":"B209475CD564A7F84292","title":"上海滩新天地店","lon":"121.47463","lat":"31.22164","category":"119","category_name":"商场","address":"\"太仓路181弄新天地北里15号\r\n\""},{"poiid":"B209475CD564A7F8439E","title":"上海滩中信泰富店","lon":"121.45602","lat":"31.22851","category":"119","category_name":"商场","address":"\"南京西路1168号中信泰富广场，店铺号221.\r\n\""},{"poiid":"B209475CD564A7F84392","title":"上海滩浦东香格里拉店","lon":"121.50058","lat":"31.23634","category":"119","category_name":"商场","address":"浦东富成路33号香格里拉酒店内大堂层"},{"poiid":"B2094757D06FA0FA4499","title":"大马头茶餐厅","lon":"121.482732","lat":"31.235167","category":"72","category_name":"广东菜","address":"黄浦区九江路399号华盛大厦1楼(近地铁2号线4号口)"},{"poiid":"B2094757D06FA7FF489E","title":"王宝和大酒店","lon":"121.48086","lat":"31.23463","category":"217","category_name":"旅馆招待所","address":"黄浦区九江路555号(近福建中路)"},{"poiid":"B2094757D06AA4FD429B","title":"好乐迪","lon":"121.481533518","lat":"31.2356146948","category":"500","category_name":"未知分类","address":"上海南京东路479号"},{"poiid":"B2094654DB6BABFD4292","title":"CoCo壱番屋(九江路店)","lon":"121.48282","lat":"31.23544","category":"95","category_name":"日本料理","address":"黄浦区汉口路399号华盛大厦103室(近山西南路)"},{"poiid":"B2094757D06FA3F44693","title":"悦来大酒店","lon":"121.4829","lat":"31.23501","category":"76","category_name":"上海菜","address":"黄浦区汉口路398号华盛大厦4楼(置地广场对面)"},{"poiid":"B2094757D06FA2F5439A","title":"必胜客(先施店)","lon":"121.4802334","lat":"31.2357621","category":"94","category_name":"西餐厅","address":"黄浦区南京东路479号新世界先施休闲港湾1楼(近福建中路)"},{"poiid":"B2094654DB69ABFA4599","title":"上海外文书店(原版书店)","lon":"121.48305","lat":"31.23415","category":"125","category_name":"书店","address":"黄浦区福州路390号4楼(近上海书城)"},{"poiid":"B2094655D26EABFC4793","title":"星巴克(上海书城店)","lon":"121.481477","lat":"31.2334932","category":"260","category_name":"其他","address":"黄浦区福州路465号上海书城2楼(近福建中路)"},{"poiid":"B2094654DB69A4FC4092","title":"好乐迪(南东店)","lon":"121.48132","lat":"31.23593","category":"170","category_name":"KTV","address":"黄浦区南京东路479号新世界先施休闲港湾6-7楼(近福建中路)"},{"poiid":"B2094757D065A3F94593","title":"一之春","lon":"121.481300054","lat":"31.233554793","category":"68","category_name":"快餐厅","address":"黄浦区福州路528号(近来福士)"},{"poiid":"B2094757D06AA3FB479C","title":"东瀛造型名人购物中心店","lon":"121.483731738","lat":"31.2347973974","category":"500","category_name":"未知分类","address":"上海南京东路300号5楼"},{"poiid":"B2094757D068A3FA4098","title":"禾绿回转寿司(南京东路店)","lon":"121.48143","lat":"31.23563","category":"95","category_name":"日本料理","address":"黄浦区南京东路479号新世界先施休闲港湾4楼(近福建中路)"},{"poiid":"B2094654DA6FA5F54592","title":"振鼎鸡 福州路店","lon":"121.481516054","lat":"31.233358793","category":"68","category_name":"快餐厅","address":"黄浦区福州路440号(近福建中路)"},{"poiid":"B2094757D068A2F9419B","title":"三马路酒楼","lon":"121.482737","lat":"31.235036","category":"75","category_name":"浙江菜","address":"黄浦区汉口路413号(近山西南路)"},{"poiid":"B2094654DB6AA6F84798","title":"上海吴宫大酒店","lon":"121.48212","lat":"31.23358","category":"76","category_name":"上海菜","address":"黄浦区福州路431号(近福建中路)"},{"poiid":"B2094654DA6FA5FF469E","title":"亚马逊巴西烤肉","lon":"121.48132","lat":"31.23593","category":"94","category_name":"西餐厅","address":"黄浦区南京东路479号新世界先施休闲港湾8楼(近福建中路)"},{"poiid":"B2094757D164AAFA4692","title":"Puma(置地广场)","lon":"121.48366773","lat":"31.234341387","category":"500","category_name":"未知分类","address":"上海南京东路409-459号7F"},{"poiid":"B2094757D16FA5FA429F","title":"好乐迪量贩式KTV(南京东路店)","lon":"121.481903738","lat":"31.23538941","category":"170","category_name":"KTV","address":"上海黄浦区南京东路479号新世界先施休闲港湾6-7楼(近福建中路)"},{"poiid":"B2094654DA6FA5F54798","title":"九江路金融广场","lon":"121.48319","lat":"31.23591","category":"46","category_name":"楼宇","address":"上海黄浦区九江路333号"},{"poiid":"B2094757D068A6F44392","title":"傣妹(南京东路一店)","lon":"121.48295","lat":"31.23611","category":"86","category_name":"火锅店","address":"黄浦区南京东路387号圣德娜商厦6楼(山西南路口)"},{"poiid":"B2094757D06FA0FD489B","title":"外文书店(福州店)","lon":"121.48325","lat":"31.23381","category":"125","category_name":"书店","address":"黄浦区福州路390号(近上海书城)"},{"poiid":"B2094757D66DA4F5459D","title":"味千拉面","lon":"121.482595738","lat":"31.2351284045","category":"247","category_name":"餐饮美食","address":"上海南京东路300号名人购物中心B1层"},{"poiid":"B2094757D064AAFB409F","title":"大码头茶餐厅","lon":"121.482632738","lat":"31.2359394218","category":"500","category_name":"未知分类","address":"上海市黄浦区牛庄路"},{"poiid":"B2094654DA6FA5F5459F","title":"中外运大厦","lon":"121.48178","lat":"31.23399","category":"46","category_name":"楼宇","address":"卫清西路139_149号等"},{"poiid":"B2094757DA69A2FD489C","title":"上海外文书店日文部","lon":"121.48303","lat":"31.23411","category":"119","category_name":"商场","address":"福州路390号4楼"},{"poiid":"B2094757D06FAAF4429F","title":"上海文化商厦","lon":"121.483677144","lat":"31.2339277566","category":"125","category_name":"书店","address":"黄浦区福州路355号(近山东中路)"},{"poiid":"B2094757D068AAFE4699","title":"鸭王食府","lon":"121.48266475","lat":"31.236176656","category":"68","category_name":"快餐厅","address":"黄浦区南京东路358号(近河南路)"},{"poiid":"B2094757D16AA2F9429E","title":"仁济医院综合楼5号楼","lon":"121.483628738","lat":"31.2343413877","category":"500","category_name":"未知分类","address":"上海山东中路145号"},{"poiid":"B209475CD76EA2FA4892","title":"锅源","lon":"121.483749","lat":"31.234395","category":"500","category_name":"未知分类","address":"上海市 黄浦区九江路288号宏伊广场5楼509-510"},{"poiid":"B2094757D06FA2F44898","title":"汇佳量贩桌游咖啡馆(汉口路店)","lon":"121.4815","lat":"31.234","category":"175","category_name":"棋牌室","address":"上海黄浦区汉口路547号(湖北路口)"},{"poiid":"B2094654DA6FABFF4493","title":"上海古籍书店","lon":"121.4828","lat":"31.2338","category":"125","category_name":"书店","address":"黄浦区福州路401号(近上海书城)"},{"poiid":"B2094757D06BAAFC4099","title":"国际金融中心","lon":"121.48386923","lat":"31.234831898","category":"500","category_name":"未知分类","address":"上海世纪大道8号"},{"poiid":"B2094757D06FA1FB479A","title":"银岛棋牌桌球(山西南路店)","lon":"121.48313","lat":"31.2353","category":"171","category_name":"台球厅","address":"上海黄浦区山西南路99号华盛商务大厦27-29楼(置地广场对面)"},{"poiid":"B2094757DB68A5F4469A","title":"芋贵人甜品店 置地广场店","lon":"121.48228883743","lat":"31.236242774077","category":"67","category_name":"甜品店","address":"黄浦区南京东路409-459号置地广场B1楼(近九江路)"},{"poiid":"B2094654DB69AAFA4399","title":"磨磨茶茶","lon":"121.48185800627","lat":"31.233738243004","category":"110","category_name":"其他亚洲菜","address":"黄浦区福州路452号(近福建中路)"},{"poiid":"B2094751D26CA1FE4898","title":"上海WESTIN酒店","lon":"121.483749","lat":"31.234281","category":"247","category_name":"餐饮美食","address":null},{"poiid":"B2094757D769A4FA479D","title":"赛百味 置地广场店 Subway","lon":"121.482310054","lat":"31.236245793","category":"94","category_name":"西餐厅","address":"黄浦区南京东路409-459号置地广场B1楼(近山西南路)"},{"poiid":"B2094757D06FA7FF4293","title":"大饼和他的朋友们","lon":"121.48134","lat":"31.23397","category":"175","category_name":"棋牌室","address":"黄浦区福建中路225号中悦大厦7楼(近轨交一号线人民广场站14号口)"},{"poiid":"B2094752D76FA1F4479F","title":"星巴克福建中路店","lon":"121.482845","lat":"31.234606","category":"247","category_name":"餐饮美食","address":"福建中路353號"},{"poiid":"B2094757D065A6FD469B","title":"酷酷璐章鱼小丸子","lon":"121.482498138","lat":"31.2358916207","category":"257","category_name":"中餐厅","address":"上海黄浦区南京东路414号"},{"poiid":"B2094750D364A0FF419B","title":"上海全城热恋钻石","lon":"121.48242594841","lat":"31.235817027718","category":"119","category_name":"商场","address":"黄浦区九江路399号华盛大厦2楼(近南京东路)查看地图"},{"poiid":"B209475CD464A1FF419B","title":"顺风港湾","lon":"121.483764","lat":"31.234479","category":"500","category_name":"未知分类","address":"上海市 南京东路299号宏伊广场7楼(近河南中路)"},{"poiid":"B2094757D064A0FE449D","title":"东北人家饺子馆","lon":"121.481746702","lat":"31.233714555","category":"82","category_name":"东北菜","address":"黄浦区福建中路206号(近福州路)"},{"poiid":"B2094655D26FA5FF4398","title":"置地广场","lon":"121.48237","lat":"31.23631","category":"119","category_name":"商场","address":"黄浦区南京东路409-459号(近山西南路)"},{"poiid":"B2094654DA6FA5F44192","title":"渝信川菜(华盛大厦店)","lon":"121.48265","lat":"31.23582","category":"71","category_name":"四川菜","address":"黄浦区九江路399号华盛大厦5楼(近山西南路)"},{"poiid":"B2094757D06FA3FB4299","title":"上海大酒店","lon":"121.48121","lat":"31.23489","category":"213","category_name":"五星级宾馆","address":"黄浦区九江路505号(近福建中路)"},{"poiid":"B2094753D76FAAFA449C","title":"上海滩国泰旗舰店","lon":"121.466011","lat":"31.216125","category":"249","category_name":"购物服务","address":"淮海中路868号"},{"poiid":"B209475CD564A7F84292","title":"上海滩新天地店","lon":"121.47463","lat":"31.22164","category":"119","category_name":"商场","address":"\"太仓路181弄新天地北里15号\r\n\""},{"poiid":"B209475CD564A7F8439E","title":"上海滩中信泰富店","lon":"121.45602","lat":"31.22851","category":"119","category_name":"商场","address":"\"南京西路1168号中信泰富广场，店铺号221.\r\n\""},{"poiid":"B209475CD564A7F84392","title":"上海滩浦东香格里拉店","lon":"121.50058","lat":"31.23634","category":"119","category_name":"商场","address":"浦东富成路33号香格里拉酒店内大堂层"},{"poiid":"B2094757D06FA0FA4499","title":"大马头茶餐厅","lon":"121.482732","lat":"31.235167","category":"72","category_name":"广东菜","address":"黄浦区九江路399号华盛大厦1楼(近地铁2号线4号口)"},{"poiid":"B2094757D06FA7FF489E","title":"王宝和大酒店","lon":"121.48086","lat":"31.23463","category":"217","category_name":"旅馆招待所","address":"黄浦区九江路555号(近福建中路)"},{"poiid":"B2094757D06AA4FD429B","title":"好乐迪","lon":"121.481533518","lat":"31.2356146948","category":"500","category_name":"未知分类","address":"上海南京东路479号"},{"poiid":"B2094654DB6BABFD4292","title":"CoCo壱番屋(九江路店)","lon":"121.48282","lat":"31.23544","category":"95","category_name":"日本料理","address":"黄浦区汉口路399号华盛大厦103室(近山西南路)"},{"poiid":"B2094757D06FA3F44693","title":"悦来大酒店","lon":"121.4829","lat":"31.23501","category":"76","category_name":"上海菜","address":"黄浦区汉口路398号华盛大厦4楼(置地广场对面)"},{"poiid":"B2094757D06FA2F5439A","title":"必胜客(先施店)","lon":"121.4802334","lat":"31.2357621","category":"94","category_name":"西餐厅","address":"黄浦区南京东路479号新世界先施休闲港湾1楼(近福建中路)"},{"poiid":"B2094654DB69ABFA4599","title":"上海外文书店(原版书店)","lon":"121.48305","lat":"31.23415","category":"125","category_name":"书店","address":"黄浦区福州路390号4楼(近上海书城)"},{"poiid":"B2094655D26EABFC4793","title":"星巴克(上海书城店)","lon":"121.481477","lat":"31.2334932","category":"260","category_name":"其他","address":"黄浦区福州路465号上海书城2楼(近福建中路)"},{"poiid":"B2094654DB69A4FC4092","title":"好乐迪(南东店)","lon":"121.48132","lat":"31.23593","category":"170","category_name":"KTV","address":"黄浦区南京东路479号新世界先施休闲港湾6-7楼(近福建中路)"},{"poiid":"B2094757D065A3F94593","title":"一之春","lon":"121.481300054","lat":"31.233554793","category":"68","category_name":"快餐厅","address":"黄浦区福州路528号(近来福士)"},{"poiid":"B2094757D06AA3FB479C","title":"东瀛造型名人购物中心店","lon":"121.483731738","lat":"31.2347973974","category":"500","category_name":"未知分类","address":"上海南京东路300号5楼"},{"poiid":"B2094757D068A3FA4098","title":"禾绿回转寿司(南京东路店)","lon":"121.48143","lat":"31.23563","category":"95","category_name":"日本料理","address":"黄浦区南京东路479号新世界先施休闲港湾4楼(近福建中路)"},{"poiid":"B2094654DA6FA5F54592","title":"振鼎鸡 福州路店","lon":"121.481516054","lat":"31.233358793","category":"68","category_name":"快餐厅","address":"黄浦区福州路440号(近福建中路)"},{"poiid":"B2094757D068A2F9419B","title":"三马路酒楼","lon":"121.482737","lat":"31.235036","category":"75","category_name":"浙江菜","address":"黄浦区汉口路413号(近山西南路)"},{"poiid":"B2094654DB6AA6F84798","title":"上海吴宫大酒店","lon":"121.48212","lat":"31.23358","category":"76","category_name":"上海菜","address":"黄浦区福州路431号(近福建中路)"},{"poiid":"B2094654DA6FA5FF469E","title":"亚马逊巴西烤肉","lon":"121.48132","lat":"31.23593","category":"94","category_name":"西餐厅","address":"黄浦区南京东路479号新世界先施休闲港湾8楼(近福建中路)"},{"poiid":"B2094757D164AAFA4692","title":"Puma(置地广场)","lon":"121.48366773","lat":"31.234341387","category":"500","category_name":"未知分类","address":"上海南京东路409-459号7F"},{"poiid":"B2094757D16FA5FA429F","title":"好乐迪量贩式KTV(南京东路店)","lon":"121.481903738","lat":"31.23538941","category":"170","category_name":"KTV","address":"上海黄浦区南京东路479号新世界先施休闲港湾6-7楼(近福建中路)"},{"poiid":"B2094654DA6FA5F54798","title":"九江路金融广场","lon":"121.48319","lat":"31.23591","category":"46","category_name":"楼宇","address":"上海黄浦区九江路333号"},{"poiid":"B2094757D068A6F44392","title":"傣妹(南京东路一店)","lon":"121.48295","lat":"31.23611","category":"86","category_name":"火锅店","address":"黄浦区南京东路387号圣德娜商厦6楼(山西南路口)"},{"poiid":"B2094757D06FA0FD489B","title":"外文书店(福州店)","lon":"121.48325","lat":"31.23381","category":"125","category_name":"书店","address":"黄浦区福州路390号(近上海书城)"},{"poiid":"B2094757D66DA4F5459D","title":"味千拉面","lon":"121.482595738","lat":"31.2351284045","category":"247","category_name":"餐饮美食","address":"上海南京东路300号名人购物中心B1层"},{"poiid":"B2094757D064AAFB409F","title":"大码头茶餐厅","lon":"121.482632738","lat":"31.2359394218","category":"500","category_name":"未知分类","address":"上海市黄浦区牛庄路"},{"poiid":"B2094654DA6FA5F5459F","title":"中外运大厦","lon":"121.48178","lat":"31.23399","category":"46","category_name":"楼宇","address":"卫清西路139_149号等"},{"poiid":"B2094757DA69A2FD489C","title":"上海外文书店日文部","lon":"121.48303","lat":"31.23411","category":"119","category_name":"商场","address":"福州路390号4楼"},{"poiid":"B2094757D06FAAF4429F","title":"上海文化商厦","lon":"121.483677144","lat":"31.2339277566","category":"125","category_name":"书店","address":"黄浦区福州路355号(近山东中路)"},{"poiid":"B2094757D068AAFE4699","title":"鸭王食府","lon":"121.48266475","lat":"31.236176656","category":"68","category_name":"快餐厅","address":"黄浦区南京东路358号(近河南路)"},{"poiid":"B2094757D16AA2F9429E","title":"仁济医院综合楼5号楼","lon":"121.483628738","lat":"31.2343413877","category":"500","category_name":"未知分类","address":"上海山东中路145号"},{"poiid":"B209475CD76EA2FA4892","title":"锅源","lon":"121.483749","lat":"31.234395","category":"500","category_name":"未知分类","address":"上海市 黄浦区九江路288号宏伊广场5楼509-510"},{"poiid":"B2094757D06FA2F44898","title":"汇佳量贩桌游咖啡馆(汉口路店)","lon":"121.4815","lat":"31.234","category":"175","category_name":"棋牌室","address":"上海黄浦区汉口路547号(湖北路口)"},{"poiid":"B2094654DA6FABFF4493","title":"上海古籍书店","lon":"121.4828","lat":"31.2338","category":"125","category_name":"书店","address":"黄浦区福州路401号(近上海书城)"},{"poiid":"B2094757D06BAAFC4099","title":"国际金融中心","lon":"121.48386923","lat":"31.234831898","category":"500","category_name":"未知分类","address":"上海世纪大道8号"},{"poiid":"B2094757D06FA1FB479A","title":"银岛棋牌桌球(山西南路店)","lon":"121.48313","lat":"31.2353","category":"171","category_name":"台球厅","address":"上海黄浦区山西南路99号华盛商务大厦27-29楼(置地广场对面)"},{"poiid":"B2094757DB68A5F4469A","title":"芋贵人甜品店 置地广场店","lon":"121.48228883743","lat":"31.236242774077","category":"67","category_name":"甜品店","address":"黄浦区南京东路409-459号置地广场B1楼(近九江路)"},{"poiid":"B2094654DB69AAFA4399","title":"磨磨茶茶","lon":"121.48185800627","lat":"31.233738243004","category":"110","category_name":"其他亚洲菜","address":"黄浦区福州路452号(近福建中路)"},{"poiid":"B2094751D26CA1FE4898","title":"上海WESTIN酒店","lon":"121.483749","lat":"31.234281","category":"247","category_name":"餐饮美食","address":null},{"poiid":"B2094757D769A4FA479D","title":"赛百味 置地广场店 Subway","lon":"121.482310054","lat":"31.236245793","category":"94","category_name":"西餐厅","address":"黄浦区南京东路409-459号置地广场B1楼(近山西南路)"},{"poiid":"B2094757D06FA7FF4293","title":"大饼和他的朋友们","lon":"121.48134","lat":"31.23397","category":"175","category_name":"棋牌室","address":"黄浦区福建中路225号中悦大厦7楼(近轨交一号线人民广场站14号口)"},{"poiid":"B2094752D76FA1F4479F","title":"星巴克福建中路店","lon":"121.482845","lat":"31.234606","category":"247","category_name":"餐饮美食","address":"福建中路353號"},{"poiid":"B2094757D065A6FD469B","title":"酷酷璐章鱼小丸子","lon":"121.482498138","lat":"31.2358916207","category":"257","category_name":"中餐厅","address":"上海黄浦区南京东路414号"},{"poiid":"B2094750D364A0FF419B","title":"上海全城热恋钻石","lon":"121.48242594841","lat":"31.235817027718","category":"119","category_name":"商场","address":"黄浦区九江路399号华盛大厦2楼(近南京东路)查看地图"},{"poiid":"B209475CD464A1FF419B","title":"顺风港湾","lon":"121.483764","lat":"31.234479","category":"500","category_name":"未知分类","address":"上海市 南京东路299号宏伊广场7楼(近河南中路)"},{"poiid":"B2094757D064A0FE449D","title":"东北人家饺子馆","lon":"121.481746702","lat":"31.233714555","category":"82","category_name":"东北菜","address":"黄浦区福建中路206号(近福州路)"},{"poiid":"B2094655D26FA5FF4398","title":"置地广场","lon":"121.48237","lat":"31.23631","category":"119","category_name":"商场","address":"黄浦区南京东路409-459号(近山西南路)"},{"poiid":"B2094654DA6FA5F44192","title":"渝信川菜(华盛大厦店)","lon":"121.48265","lat":"31.23582","category":"71","category_name":"四川菜","address":"黄浦区九江路399号华盛大厦5楼(近山西南路)"},{"poiid":"B2094757D06FA3FB4299","title":"上海大酒店","lon":"121.48121","lat":"31.23489","category":"213","category_name":"五星级宾馆","address":"黄浦区九江路505号(近福建中路)"},{"poiid":"B2094753D76FAAFA449C","title":"上海滩国泰旗舰店","lon":"121.466011","lat":"31.216125","category":"249","category_name":"购物服务","address":"淮海中路868号"},{"poiid":"B209475CD564A7F84292","title":"上海滩新天地店","lon":"121.47463","lat":"31.22164","category":"119","category_name":"商场","address":"\"太仓路181弄新天地北里15号\r\n\""},{"poiid":"B209475CD564A7F8439E","title":"上海滩中信泰富店","lon":"121.45602","lat":"31.22851","category":"119","category_name":"商场","address":"\"南京西路1168号中信泰富广场，店铺号221.\r\n\""},{"poiid":"B209475CD564A7F84392","title":"上海滩浦东香格里拉店","lon":"121.50058","lat":"31.23634","category":"119","category_name":"商场","address":"浦东富成路33号香格里拉酒店内大堂层"},{"poiid":"B2094757D06FA0FA4499","title":"大马头茶餐厅","lon":"121.482732","lat":"31.235167","category":"72","category_name":"广东菜","address":"黄浦区九江路399号华盛大厦1楼(近地铁2号线4号口)"},{"poiid":"B2094757D06FA7FF489E","title":"王宝和大酒店","lon":"121.48086","lat":"31.23463","category":"217","category_name":"旅馆招待所","address":"黄浦区九江路555号(近福建中路)"},{"poiid":"B2094757D06AA4FD429B","title":"好乐迪","lon":"121.481533518","lat":"31.2356146948","category":"500","category_name":"未知分类","address":"上海南京东路479号"},{"poiid":"B2094654DB6BABFD4292","title":"CoCo壱番屋(九江路店)","lon":"121.48282","lat":"31.23544","category":"95","category_name":"日本料理","address":"黄浦区汉口路399号华盛大厦103室(近山西南路)"},{"poiid":"B2094757D06FA3F44693","title":"悦来大酒店","lon":"121.4829","lat":"31.23501","category":"76","category_name":"上海菜","address":"黄浦区汉口路398号华盛大厦4楼(置地广场对面)"},{"poiid":"B2094757D06FA2F5439A","title":"必胜客(先施店)","lon":"121.4802334","lat":"31.2357621","category":"94","category_name":"西餐厅","address":"黄浦区南京东路479号新世界先施休闲港湾1楼(近福建中路)"},{"poiid":"B2094654DB69ABFA4599","title":"上海外文书店(原版书店)","lon":"121.48305","lat":"31.23415","category":"125","category_name":"书店","address":"黄浦区福州路390号4楼(近上海书城)"},{"poiid":"B2094655D26EABFC4793","title":"星巴克(上海书城店)","lon":"121.481477","lat":"31.2334932","category":"260","category_name":"其他","address":"黄浦区福州路465号上海书城2楼(近福建中路)"},{"poiid":"B2094654DB69A4FC4092","title":"好乐迪(南东店)","lon":"121.48132","lat":"31.23593","category":"170","category_name":"KTV","address":"黄浦区南京东路479号新世界先施休闲港湾6-7楼(近福建中路)"},{"poiid":"B2094757D065A3F94593","title":"一之春","lon":"121.481300054","lat":"31.233554793","category":"68","category_name":"快餐厅","address":"黄浦区福州路528号(近来福士)"},{"poiid":"B2094757D06AA3FB479C","title":"东瀛造型名人购物中心店","lon":"121.483731738","lat":"31.2347973974","category":"500","category_name":"未知分类","address":"上海南京东路300号5楼"},{"poiid":"B2094757D068A3FA4098","title":"禾绿回转寿司(南京东路店)","lon":"121.48143","lat":"31.23563","category":"95","category_name":"日本料理","address":"黄浦区南京东路479号新世界先施休闲港湾4楼(近福建中路)"},{"poiid":"B2094654DA6FA5F54592","title":"振鼎鸡 福州路店","lon":"121.481516054","lat":"31.233358793","category":"68","category_name":"快餐厅","address":"黄浦区福州路440号(近福建中路)"},{"poiid":"B2094757D068A2F9419B","title":"三马路酒楼","lon":"121.482737","lat":"31.235036","category":"75","category_name":"浙江菜","address":"黄浦区汉口路413号(近山西南路)"},{"poiid":"B2094654DB6AA6F84798","title":"上海吴宫大酒店","lon":"121.48212","lat":"31.23358","category":"76","category_name":"上海菜","address":"黄浦区福州路431号(近福建中路)"},{"poiid":"B2094654DA6FA5FF469E","title":"亚马逊巴西烤肉","lon":"121.48132","lat":"31.23593","category":"94","category_name":"西餐厅","address":"黄浦区南京东路479号新世界先施休闲港湾8楼(近福建中路)"},{"poiid":"B2094757D164AAFA4692","title":"Puma(置地广场)","lon":"121.48366773","lat":"31.234341387","category":"500","category_name":"未知分类","address":"上海南京东路409-459号7F"},{"poiid":"B2094757D16FA5FA429F","title":"好乐迪量贩式KTV(南京东路店)","lon":"121.481903738","lat":"31.23538941","category":"170","category_name":"KTV","address":"上海黄浦区南京东路479号新世界先施休闲港湾6-7楼(近福建中路)"},{"poiid":"B2094654DA6FA5F54798","title":"九江路金融广场","lon":"121.48319","lat":"31.23591","category":"46","category_name":"楼宇","address":"上海黄浦区九江路333号"},{"poiid":"B2094757D068A6F44392","title":"傣妹(南京东路一店)","lon":"121.48295","lat":"31.23611","category":"86","category_name":"火锅店","address":"黄浦区南京东路387号圣德娜商厦6楼(山西南路口)"},{"poiid":"B2094757D06FA0FD489B","title":"外文书店(福州店)","lon":"121.48325","lat":"31.23381","category":"125","category_name":"书店","address":"黄浦区福州路390号(近上海书城)"},{"poiid":"B2094757D66DA4F5459D","title":"味千拉面","lon":"121.482595738","lat":"31.2351284045","category":"247","category_name":"餐饮美食","address":"上海南京东路300号名人购物中心B1层"},{"poiid":"B2094757D064AAFB409F","title":"大码头茶餐厅","lon":"121.482632738","lat":"31.2359394218","category":"500","category_name":"未知分类","address":"上海市黄浦区牛庄路"},{"poiid":"B2094654DA6FA5F5459F","title":"中外运大厦","lon":"121.48178","lat":"31.23399","category":"46","category_name":"楼宇","address":"卫清西路139_149号等"},{"poiid":"B2094757DA69A2FD489C","title":"上海外文书店日文部","lon":"121.48303","lat":"31.23411","category":"119","category_name":"商场","address":"福州路390号4楼"},{"poiid":"B2094757D06FAAF4429F","title":"上海文化商厦","lon":"121.483677144","lat":"31.2339277566","category":"125","category_name":"书店","address":"黄浦区福州路355号(近山东中路)"},{"poiid":"B2094757D068AAFE4699","title":"鸭王食府","lon":"121.48266475","lat":"31.236176656","category":"68","category_name":"快餐厅","address":"黄浦区南京东路358号(近河南路)"},{"poiid":"B2094757D16AA2F9429E","title":"仁济医院综合楼5号楼","lon":"121.483628738","lat":"31.2343413877","category":"500","category_name":"未知分类","address":"上海山东中路145号"},{"poiid":"B209475CD76EA2FA4892","title":"锅源","lon":"121.483749","lat":"31.234395","category":"500","category_name":"未知分类","address":"上海市 黄浦区九江路288号宏伊广场5楼509-510"},{"poiid":"B2094757D06FA2F44898","title":"汇佳量贩桌游咖啡馆(汉口路店)","lon":"121.4815","lat":"31.234","category":"175","category_name":"棋牌室","address":"上海黄浦区汉口路547号(湖北路口)"},{"poiid":"B2094654DA6FABFF4493","title":"上海古籍书店","lon":"121.4828","lat":"31.2338","category":"125","category_name":"书店","address":"黄浦区福州路401号(近上海书城)"},{"poiid":"B2094757D06BAAFC4099","title":"国际金融中心","lon":"121.48386923","lat":"31.234831898","category":"500","category_name":"未知分类","address":"上海世纪大道8号"},{"poiid":"B2094757D06FA1FB479A","title":"银岛棋牌桌球(山西南路店)","lon":"121.48313","lat":"31.2353","category":"171","category_name":"台球厅","address":"上海黄浦区山西南路99号华盛商务大厦27-29楼(置地广场对面)"},{"poiid":"B2094757DB68A5F4469A","title":"芋贵人甜品店 置地广场店","lon":"121.48228883743","lat":"31.236242774077","category":"67","category_name":"甜品店","address":"黄浦区南京东路409-459号置地广场B1楼(近九江路)"},{"poiid":"B2094654DB69AAFA4399","title":"磨磨茶茶","lon":"121.48185800627","lat":"31.233738243004","category":"110","category_name":"其他亚洲菜","address":"黄浦区福州路452号(近福建中路)"},{"poiid":"B2094751D26CA1FE4898","title":"上海WESTIN酒店","lon":"121.483749","lat":"31.234281","category":"247","category_name":"餐饮美食","address":null},{"poiid":"B2094757D769A4FA479D","title":"赛百味 置地广场店 Subway","lon":"121.482310054","lat":"31.236245793","category":"94","category_name":"西餐厅","address":"黄浦区南京东路409-459号置地广场B1楼(近山西南路)"},{"poiid":"B2094757D06FA7FF4293","title":"大饼和他的朋友们","lon":"121.48134","lat":"31.23397","category":"175","category_name":"棋牌室","address":"黄浦区福建中路225号中悦大厦7楼(近轨交一号线人民广场站14号口)"},{"poiid":"B2094752D76FA1F4479F","title":"星巴克福建中路店","lon":"121.482845","lat":"31.234606","category":"247","category_name":"餐饮美食","address":"福建中路353號"},{"poiid":"B2094757D065A6FD469B","title":"酷酷璐章鱼小丸子","lon":"121.482498138","lat":"31.2358916207","category":"257","category_name":"中餐厅","address":"上海黄浦区南京东路414号"},{"poiid":"B2094750D364A0FF419B","title":"上海全城热恋钻石","lon":"121.48242594841","lat":"31.235817027718","category":"119","category_name":"商场","address":"黄浦区九江路399号华盛大厦2楼(近南京东路)查看地图"},{"poiid":"B209475CD464A1FF419B","title":"顺风港湾","lon":"121.483764","lat":"31.234479","category":"500","category_name":"未知分类","address":"上海市 南京东路299号宏伊广场7楼(近河南中路)"},{"poiid":"B2094757D064A0FE449D","title":"东北人家饺子馆","lon":"121.481746702","lat":"31.233714555","category":"82","category_name":"东北菜","address":"黄浦区福建中路206号(近福州路)"}]