[{"poiid":"B2094654DB64A4FD4499","title":"世界广场","lon":"121.51498","lat":"31.23228","category":"119","category_name":"商场","address":"浦东新区浦东南路855号(近第一八佰伴)"},{"poiid":"B2094757D06BA4F5429A","title":"环球金融中心100层观光厅","lon":"121.512176738","lat":"31.2328213553","category":"500","category_name":"未知分类","address":"上海市浦东新区陆家嘴东路"},{"poiid":"B2094655D36CA6F44498","title":"东昌路地铁站","lon":"121.51688","lat":"31.23429","category":"36","category_name":"地铁站","address":"上海轨道交通二号线东昌路站"},{"poiid":"B209475CD564A7F84392","title":"上海滩浦东香格里拉店","lon":"121.50058","lat":"31.23634","category":"119","category_name":"商场","address":"浦东富成路33号香格里拉酒店内大堂层"},{"poiid":"B2094655D26AA0FA469C","title":"地铁东昌路站","lon":"121.51511","lat":"31.23325","category":"36","category_name":"地铁站","address":""},{"poiid":"B2094757D169AAF9449F","title":"浦东南路东昌路","lon":"121.513675738","lat":"31.2331583625","category":"500","category_name":"未知分类","address":"上海市浦东新区陆家嘴环路"},{"poiid":"B2094757D06FA1FE489C","title":"上海市房地产交易中心","lon":"121.515980363","lat":"31.2356323484","category":"46","category_name":"楼宇","address":"上海浦东新区南泉北路201号(栖霞路口)"},{"poiid":"B2094655D26DA7F84399","title":"房地大厦","lon":"121.51593","lat":"31.23556","category":"46","category_name":"楼宇","address":"昌平区回龙观镇国际信息产业基地高新二街"},{"poiid":"B2094757D068A3FC449F","title":"东昌路八佰半","lon":"121.5138187","lat":"31.2331371","category":"500","category_name":"未知分类","address":"上海浦东南路东昌路"},{"poiid":"B2094757DB68AAFA4799","title":"星巴克 世纪大道店 STARBUCKS COFFEE","lon":"121.5139661","lat":"31.2334014","category":"260","category_name":"其他","address":"浦东新区世纪大道800号南洋商业银行大厦内(近地铁2号线东昌路站)"},{"poiid":"B2094654DA69A7FF4398","title":"华东师范大学附属东昌中学","lon":"121.51499","lat":"31.23516","category":"55","category_name":"中学","address":"浦东新区栖霞路34号(南泉北路)"},{"poiid":"B2094750D665A4FA489D","title":"花ちゃんの台所","lon":"121.515","lat":"31.2359","category":"95","category_name":"日本料理","address":"浦东新区栖霞路41号(近南泉北路)"},{"poiid":"B2094757DA6EA6FC459A","title":"麦当劳(世界广场店)","lon":"121.515526771546","lat":"31.2322521975298","category":"68","category_name":"快餐厅","address":"浦东新区浦东南路855号世界广场B1楼(近东昌路)"},{"poiid":"B2094757D06FA7FA409D","title":"席永记苏州汤包馆(东昌店)","lon":"121.512973","lat":"31.233044","category":"68","category_name":"快餐厅","address":"浦东新区东昌路567号(近浦东南路)"},{"poiid":"B2094757D069ABFF4393","title":"沃德医疗中心","lon":"121.516594488","lat":"31.233686528","category":"162","category_name":"医院","address":"浦东新区世纪大道777号(近乳山路)"},{"poiid":"B2094757DA6EA7F9419E","title":"汇佳桌游咖啡馆(八佰伴世界广场店)","lon":"121.514990000001","lat":"31.2324080000002","category":"247","category_name":"餐饮美食","address":"张杨路655号福兴大厦7楼"},{"poiid":"B2094757D069A6FB479A","title":"肯德基","lon":"121.514272738","lat":"31.2325353492","category":"500","category_name":"未知分类","address":"上海市浦东新区世纪大道"},{"poiid":"B2094752DB6BA7F54698","title":"王鼎.玉食","lon":"121.512244","lat":"31.23297","category":"500","category_name":"未知分类","address":"上海市 商城路665号"},{"poiid":"B2094757D16CA5F84492","title":"和良形象","lon":"121.516197238","lat":"31.2324727479","category":"148","category_name":"美容美发店","address":"上海浦东新区东昌路580号(近浦东南路)"},{"poiid":"B2094654DA69A6FD4292","title":"古都梅盲人保健按摩","lon":"121.51275","lat":"31.23296","category":"149","category_name":"洗浴推拿场所","address":"东昌路565"},{"poiid":"B2094753D664AAFB479B","title":"正大广场","lon":"121.513038","lat":"31.234203","category":"500","category_name":"未知分类","address":"上海市 正大广场"},{"poiid":"B2094752D26EA6FB449B","title":"陆家嘴","lon":"121.513602","lat":"31.233073","category":"500","category_name":"未知分类","address":null},{"poiid":"B2094757D06BA5F94199","title":"秋叶咖喱屋 小石桥路店","lon":"121.5134471","lat":"31.2356179","category":"95","category_name":"日本料理","address":"浦东新区小石桥路8号(近栖霞路)"},{"poiid":"B2094757D16AA3FF499D","title":"聚粤轩大酒店","lon":"121.514162738","lat":"31.2343413877","category":"72","category_name":"广东菜","address":"浦东新区浦东南路855号世界广场3楼(东昌路浦东南路)"},{"poiid":"B2094654DA69A1F5439D","title":"申金大厦","lon":"121.517","lat":"31.2352","category":"46","category_name":"楼宇","address":"商城路297-305"},{"poiid":"B2094757D76BA1FB4699","title":"五芳面馆 东昌店","lon":"121.51350017982","lat":"31.233085065938","category":"68","category_name":"快餐厅","address":"浦东新区浦东南路东园一村113号(近东昌路口)"},{"poiid":"B2094757D66EA3FB419A","title":"浦東機場T1國內到達","lon":"121.512009738","lat":"31.2345040912","category":"500","category_name":"未知分类","address":"上海浦東國際機場T1國內到達"},{"poiid":"B2094654DA69A7FF469D","title":"辣翻天川菜馆","lon":"121.51354749906","lat":"31.235419447047","category":"71","category_name":"四川菜","address":"浦东新区栖霞路5号(近浦东南路)"},{"poiid":"B2094757D169ABFC4193","title":"和食居","lon":"121.514827238","lat":"31.2329044571","category":"95","category_name":"日本料理","address":"浦东新区南泉北路"},{"poiid":"B2094757D464ABF8499B","title":"天添有鱼","lon":"121.51305","lat":"31.23505","category":"71","category_name":"四川菜","address":"浦东新区栖霞路3号(近浦东南路)"},{"poiid":"B2094757D168ABFE4993","title":"东之川","lon":"121.512430191","lat":"31.2337575915","category":"247","category_name":"餐饮美食","address":"上海东昌路568号"},{"poiid":"B2094757D568A4F44892","title":"通用汽车办公楼","lon":"121.5143599","lat":"31.23312761","category":"46","category_name":"楼宇","address":"浦东新区世纪大道800号(浦东南路路口)"},{"poiid":"B2094757D16FAAF94893","title":"川乡小厨","lon":"121.514300054","lat":"31.235684793","category":"71","category_name":"四川菜","address":"浦东新区栖霞路35号(近浦东南路)"},{"poiid":"B2094757D569A7FB4698","title":"仁恒滨江园三期","lon":"121.513","lat":"31.2348","category":"47","category_name":"住宅区","address":"上海市浦东新区浦城路99弄"},{"poiid":"B2094757D064A2FC429E","title":"香格格","lon":"121.51386199025","lat":"31.235493973247","category":"76","category_name":"上海菜","address":"浦东新区栖霞路9号(近浦东南路)"},{"poiid":"B2094655D26AABFE4492","title":"镭战大联盟南外滩店","lon":"121.501408","lat":"31.204185","category":"172","category_name":"酒吧","address":"黄埔区外马路1353号"},{"poiid":"B2094655D264A5FA429C","title":"香香村","lon":"121.51803","lat":"31.23659","category":"68","category_name":"快餐厅","address":"浦东新区栖霞路91号(近南泉北路)"},{"poiid":"B2094757D068A6FA419E","title":"古都梅(东昌路店)","lon":"121.51322","lat":"31.23242","category":"149","category_name":"洗浴推拿场所","address":"浦东新区东昌路565号院内(近浦东南路)"},{"poiid":"B2094757D46EA4FC4193","title":"小长安","lon":"121.513357054","lat":"31.232856793","category":"84","category_name":"西北菜","address":"浦东新区东昌路东园一村102号101室(近浦东南路)"},{"poiid":"B2094757D66BA0F5459E","title":"阿牛嫂桂林米粉 栖霞路店","lon":"121.513287054","lat":"31.235236793","category":"68","category_name":"快餐厅","address":"浦东新区栖霞路17号(东昌中学对面)"},{"poiid":"B2094757D065A6FB4293","title":"东来福热气涮羊肉(南泉北路店)","lon":"121.5143","lat":"31.23661","category":"86","category_name":"火锅店","address":"浦东新区南泉北路(近招远路)"},{"poiid":"B2094654DA69A7FA4592","title":"人民日报","lon":"121.51593","lat":"31.23383","category":"61","category_name":"报社","address":"世纪大道777"},{"poiid":"B2094757D664A2FC419F","title":"佳佳旺桂林米粉 东昌路店","lon":"121.513287054","lat":"31.233151793","category":"68","category_name":"快餐厅","address":"浦东新区东昌路535号(近浦东南路)"},{"poiid":"B2094757D568A5F4479C","title":"心连心海豚餐厅","lon":"121.5167611","lat":"31.23516","category":"68","category_name":"快餐厅","address":"浦东新区南泉北路304号(近栖霞路)"},{"poiid":"B2094655D26BA1FF419C","title":"南泉北路栖霞路","lon":"121.5148","lat":"31.23555","category":"38","category_name":"公交车站","address":""},{"poiid":"B2094750DB6FA1F84993","title":"花酱台所","lon":"121.514778","lat":"31.235679","category":"247","category_name":"餐饮美食","address":"栖霞路世纪大道"},{"poiid":"B2094757DA6EABFA459A","title":"沈记甜品","lon":"121.515448000002","lat":"31.2358090000001","category":"67","category_name":"甜品店","address":"浦东新区栖霞路43号(近南泉北路)"},{"poiid":"B2094757D66CA7F54093","title":"日出茶太(世界广场)","lon":"121.515219738","lat":"31.2323903461","category":"113","category_name":"冷饮店","address":"浦东新区浦东南路855号世界广场B1楼(近东昌路)"},{"poiid":"B2094654DA69A7FF4598","title":"重庆麻辣烫(栖霞小学南)","lon":"121.51395","lat":"31.23538","category":"257","category_name":"中餐厅","address":"栖霞路17-1"},{"poiid":"B209475CD36EA5F84699","title":"豆子在旅行","lon":"121.51501","lat":"31.23578","category":"67","category_name":"甜品店","address":"栖霞路39号-6(近东昌中学)"},{"poiid":"B2094654DB64A4FD4499","title":"世界广场","lon":"121.51498","lat":"31.23228","category":"119","category_name":"商场","address":"浦东新区浦东南路855号(近第一八佰伴)"},{"poiid":"B2094757D06BA4F5429A","title":"环球金融中心100层观光厅","lon":"121.512176738","lat":"31.2328213553","category":"500","category_name":"未知分类","address":"上海市浦东新区陆家嘴东路"},{"poiid":"B2094655D36CA6F44498","title":"东昌路地铁站","lon":"121.51688","lat":"31.23429","category":"36","category_name":"地铁站","address":"上海轨道交通二号线东昌路站"},{"poiid":"B209475CD564A7F84392","title":"上海滩浦东香格里拉店","lon":"121.50058","lat":"31.23634","category":"119","category_name":"商场","address":"浦东富成路33号香格里拉酒店内大堂层"},{"poiid":"B2094655D26AA0FA469C","title":"地铁东昌路站","lon":"121.51511","lat":"31.23325","category":"36","category_name":"地铁站","address":""},{"poiid":"B2094757D169AAF9449F","title":"浦东南路东昌路","lon":"121.513675738","lat":"31.2331583625","category":"500","category_name":"未知分类","address":"上海市浦东新区陆家嘴环路"},{"poiid":"B2094757D06FA1FE489C","title":"上海市房地产交易中心","lon":"121.515980363","lat":"31.2356323484","category":"46","category_name":"楼宇","address":"上海浦东新区南泉北路201号(栖霞路口)"},{"poiid":"B2094655D26DA7F84399","title":"房地大厦","lon":"121.51593","lat":"31.23556","category":"46","category_name":"楼宇","address":"昌平区回龙观镇国际信息产业基地高新二街"},{"poiid":"B2094757D068A3FC449F","title":"东昌路八佰半","lon":"121.5138187","lat":"31.2331371","category":"500","category_name":"未知分类","address":"上海浦东南路东昌路"},{"poiid":"B2094757DB68AAFA4799","title":"星巴克 世纪大道店 STARBUCKS COFFEE","lon":"121.5139661","lat":"31.2334014","category":"260","category_name":"其他","address":"浦东新区世纪大道800号南洋商业银行大厦内(近地铁2号线东昌路站)"},{"poiid":"B2094654DA69A7FF4398","title":"华东师范大学附属东昌中学","lon":"121.51499","lat":"31.23516","category":"55","category_name":"中学","address":"浦东新区栖霞路34号(南泉北路)"},{"poiid":"B2094750D665A4FA489D","title":"花ちゃんの台所","lon":"121.515","lat":"31.2359","category":"95","category_name":"日本料理","address":"浦东新区栖霞路41号(近南泉北路)"},{"poiid":"B2094757DA6EA6FC459A","title":"麦当劳(世界广场店)","lon":"121.515526771546","lat":"31.2322521975298","category":"68","category_name":"快餐厅","address":"浦东新区浦东南路855号世界广场B1楼(近东昌路)"},{"poiid":"B2094757D06FA7FA409D","title":"席永记苏州汤包馆(东昌店)","lon":"121.512973","lat":"31.233044","category":"68","category_name":"快餐厅","address":"浦东新区东昌路567号(近浦东南路)"},{"poiid":"B2094757D069ABFF4393","title":"沃德医疗中心","lon":"121.516594488","lat":"31.233686528","category":"162","category_name":"医院","address":"浦东新区世纪大道777号(近乳山路)"},{"poiid":"B2094757DA6EA7F9419E","title":"汇佳桌游咖啡馆(八佰伴世界广场店)","lon":"121.514990000001","lat":"31.2324080000002","category":"247","category_name":"餐饮美食","address":"张杨路655号福兴大厦7楼"},{"poiid":"B2094757D069A6FB479A","title":"肯德基","lon":"121.514272738","lat":"31.2325353492","category":"500","category_name":"未知分类","address":"上海市浦东新区世纪大道"},{"poiid":"B2094752DB6BA7F54698","title":"王鼎.玉食","lon":"121.512244","lat":"31.23297","category":"500","category_name":"未知分类","address":"上海市 商城路665号"},{"poiid":"B2094757D16CA5F84492","title":"和良形象","lon":"121.516197238","lat":"31.2324727479","category":"148","category_name":"美容美发店","address":"上海浦东新区东昌路580号(近浦东南路)"},{"poiid":"B2094654DA69A6FD4292","title":"古都梅盲人保健按摩","lon":"121.51275","lat":"31.23296","category":"149","category_name":"洗浴推拿场所","address":"东昌路565"},{"poiid":"B2094753D664AAFB479B","title":"正大广场","lon":"121.513038","lat":"31.234203","category":"500","category_name":"未知分类","address":"上海市 正大广场"},{"poiid":"B2094752D26EA6FB449B","title":"陆家嘴","lon":"121.513602","lat":"31.233073","category":"500","category_name":"未知分类","address":null},{"poiid":"B2094757D06BA5F94199","title":"秋叶咖喱屋 小石桥路店","lon":"121.5134471","lat":"31.2356179","category":"95","category_name":"日本料理","address":"浦东新区小石桥路8号(近栖霞路)"},{"poiid":"B2094757D16AA3FF499D","title":"聚粤轩大酒店","lon":"121.514162738","lat":"31.2343413877","category":"72","category_name":"广东菜","address":"浦东新区浦东南路855号世界广场3楼(东昌路浦东南路)"},{"poiid":"B2094654DA69A1F5439D","title":"申金大厦","lon":"121.517","lat":"31.2352","category":"46","category_name":"楼宇","address":"商城路297-305"},{"poiid":"B2094757D76BA1FB4699","title":"五芳面馆 东昌店","lon":"121.51350017982","lat":"31.233085065938","category":"68","category_name":"快餐厅","address":"浦东新区浦东南路东园一村113号(近东昌路口)"},{"poiid":"B2094757D66EA3FB419A","title":"浦東機場T1國內到達","lon":"121.512009738","lat":"31.2345040912","category":"500","category_name":"未知分类","address":"上海浦東國際機場T1國內到達"},{"poiid":"B2094654DA69A7FF469D","title":"辣翻天川菜馆","lon":"121.51354749906","lat":"31.235419447047","category":"71","category_name":"四川菜","address":"浦东新区栖霞路5号(近浦东南路)"},{"poiid":"B2094757D169ABFC4193","title":"和食居","lon":"121.514827238","lat":"31.2329044571","category":"95","category_name":"日本料理","address":"浦东新区南泉北路"},{"poiid":"B2094757D464ABF8499B","title":"天添有鱼","lon":"121.51305","lat":"31.23505","category":"71","category_name":"四川菜","address":"浦东新区栖霞路3号(近浦东南路)"},{"poiid":"B2094757D168ABFE4993","title":"东之川","lon":"121.512430191","lat":"31.2337575915","category":"247","category_name":"餐饮美食","address":"上海东昌路568号"},{"poiid":"B2094757D568A4F44892","title":"通用汽车办公楼","lon":"121.5143599","lat":"31.23312761","category":"46","category_name":"楼宇","address":"浦东新区世纪大道800号(浦东南路路口)"},{"poiid":"B2094757D16FAAF94893","title":"川乡小厨","lon":"121.514300054","lat":"31.235684793","category":"71","category_name":"四川菜","address":"浦东新区栖霞路35号(近浦东南路)"},{"poiid":"B2094757D569A7FB4698","title":"仁恒滨江园三期","lon":"121.513","lat":"31.2348","category":"47","category_name":"住宅区","address":"上海市浦东新区浦城路99弄"},{"poiid":"B2094757D064A2FC429E","title":"香格格","lon":"121.51386199025","lat":"31.235493973247","category":"76","category_name":"上海菜","address":"浦东新区栖霞路9号(近浦东南路)"},{"poiid":"B2094655D26AABFE4492","title":"镭战大联盟南外滩店","lon":"121.501408","lat":"31.204185","category":"172","category_name":"酒吧","address":"黄埔区外马路1353号"},{"poiid":"B2094655D264A5FA429C","title":"香香村","lon":"121.51803","lat":"31.23659","category":"68","category_name":"快餐厅","address":"浦东新区栖霞路91号(近南泉北路)"},{"poiid":"B2094757D068A6FA419E","title":"古都梅(东昌路店)","lon":"121.51322","lat":"31.23242","category":"149","category_name":"洗浴推拿场所","address":"浦东新区东昌路565号院内(近浦东南路)"},{"poiid":"B2094757D46EA4FC4193","title":"小长安","lon":"121.513357054","lat":"31.232856793","category":"84","category_name":"西北菜","address":"浦东新区东昌路东园一村102号101室(近浦东南路)"},{"poiid":"B2094757D66BA0F5459E","title":"阿牛嫂桂林米粉 栖霞路店","lon":"121.513287054","lat":"31.235236793","category":"68","category_name":"快餐厅","address":"浦东新区栖霞路17号(东昌中学对面)"},{"poiid":"B2094757D065A6FB4293","title":"东来福热气涮羊肉(南泉北路店)","lon":"121.5143","lat":"31.23661","category":"86","category_name":"火锅店","address":"浦东新区南泉北路(近招远路)"},{"poiid":"B2094654DA69A7FA4592","title":"人民日报","lon":"121.51593","lat":"31.23383","category":"61","category_name":"报社","address":"世纪大道777"},{"poiid":"B2094757D664A2FC419F","title":"佳佳旺桂林米粉 东昌路店","lon":"121.513287054","lat":"31.233151793","category":"68","category_name":"快餐厅","address":"浦东新区东昌路535号(近浦东南路)"},{"poiid":"B2094757D568A5F4479C","title":"心连心海豚餐厅","lon":"121.5167611","lat":"31.23516","category":"68","category_name":"快餐厅","address":"浦东新区南泉北路304号(近栖霞路)"},{"poiid":"B2094655D26BA1FF419C","title":"南泉北路栖霞路","lon":"121.5148","lat":"31.23555","category":"38","category_name":"公交车站","address":""},{"poiid":"B2094750DB6FA1F84993","title":"花酱台所","lon":"121.514778","lat":"31.235679","category":"247","category_name":"餐饮美食","address":"栖霞路世纪大道"},{"poiid":"B2094757DA6EABFA459A","title":"沈记甜品","lon":"121.515448000002","lat":"31.2358090000001","category":"67","category_name":"甜品店","address":"浦东新区栖霞路43号(近南泉北路)"},{"poiid":"B2094757D66CA7F54093","title":"日出茶太(世界广场)","lon":"121.515219738","lat":"31.2323903461","category":"113","category_name":"冷饮店","address":"浦东新区浦东南路855号世界广场B1楼(近东昌路)"},{"poiid":"B2094654DA69A7FF4598","title":"重庆麻辣烫(栖霞小学南)","lon":"121.51395","lat":"31.23538","category":"257","category_name":"中餐厅","address":"栖霞路17-1"},{"poiid":"B209475CD36EA5F84699","title":"豆子在旅行","lon":"121.51501","lat":"31.23578","category":"67","category_name":"甜品店","address":"栖霞路39号-6(近东昌中学)"},{"poiid":"B2094654DB64A4FD4499","title":"世界广场","lon":"121.51498","lat":"31.23228","category":"119","category_name":"商场","address":"浦东新区浦东南路855号(近第一八佰伴)"},{"poiid":"B2094757D06BA4F5429A","title":"环球金融中心100层观光厅","lon":"121.512176738","lat":"31.2328213553","category":"500","category_name":"未知分类","address":"上海市浦东新区陆家嘴东路"},{"poiid":"B2094655D36CA6F44498","title":"东昌路地铁站","lon":"121.51688","lat":"31.23429","category":"36","category_name":"地铁站","address":"上海轨道交通二号线东昌路站"},{"poiid":"B209475CD564A7F84392","title":"上海滩浦东香格里拉店","lon":"121.50058","lat":"31.23634","category":"119","category_name":"商场","address":"浦东富成路33号香格里拉酒店内大堂层"},{"poiid":"B2094655D26AA0FA469C","title":"地铁东昌路站","lon":"121.51511","lat":"31.23325","category":"36","category_name":"地铁站","address":""},{"poiid":"B2094757D169AAF9449F","title":"浦东南路东昌路","lon":"121.513675738","lat":"31.2331583625","category":"500","category_name":"未知分类","address":"上海市浦东新区陆家嘴环路"},{"poiid":"B2094757D06FA1FE489C","title":"上海市房地产交易中心","lon":"121.515980363","lat":"31.2356323484","category":"46","category_name":"楼宇","address":"上海浦东新区南泉北路201号(栖霞路口)"},{"poiid":"B2094655D26DA7F84399","title":"房地大厦","lon":"121.51593","lat":"31.23556","category":"46","category_name":"楼宇","address":"昌平区回龙观镇国际信息产业基地高新二街"},{"poiid":"B2094757D068A3FC449F","title":"东昌路八佰半","lon":"121.5138187","lat":"31.2331371","category":"500","category_name":"未知分类","address":"上海浦东南路东昌路"},{"poiid":"B2094757DB68AAFA4799","title":"星巴克 世纪大道店 STARBUCKS COFFEE","lon":"121.5139661","lat":"31.2334014","category":"260","category_name":"其他","address":"浦东新区世纪大道800号南洋商业银行大厦内(近地铁2号线东昌路站)"},{"poiid":"B2094654DA69A7FF4398","title":"华东师范大学附属东昌中学","lon":"121.51499","lat":"31.23516","category":"55","category_name":"中学","address":"浦东新区栖霞路34号(南泉北路)"},{"poiid":"B2094750D665A4FA489D","title":"花ちゃんの台所","lon":"121.515","lat":"31.2359","category":"95","category_name":"日本料理","address":"浦东新区栖霞路41号(近南泉北路)"},{"poiid":"B2094757DA6EA6FC459A","title":"麦当劳(世界广场店)","lon":"121.515526771546","lat":"31.2322521975298","category":"68","category_name":"快餐厅","address":"浦东新区浦东南路855号世界广场B1楼(近东昌路)"},{"poiid":"B2094757D06FA7FA409D","title":"席永记苏州汤包馆(东昌店)","lon":"121.512973","lat":"31.233044","category":"68","category_name":"快餐厅","address":"浦东新区东昌路567号(近浦东南路)"},{"poiid":"B2094757D069ABFF4393","title":"沃德医疗中心","lon":"121.516594488","lat":"31.233686528","category":"162","category_name":"医院","address":"浦东新区世纪大道777号(近乳山路)"},{"poiid":"B2094757DA6EA7F9419E","title":"汇佳桌游咖啡馆(八佰伴世界广场店)","lon":"121.514990000001","lat":"31.2324080000002","category":"247","category_name":"餐饮美食","address":"张杨路655号福兴大厦7楼"},{"poiid":"B2094757D069A6FB479A","title":"肯德基","lon":"121.514272738","lat":"31.2325353492","category":"500","category_name":"未知分类","address":"上海市浦东新区世纪大道"},{"poiid":"B2094752DB6BA7F54698","title":"王鼎.玉食","lon":"121.512244","lat":"31.23297","category":"500","category_name":"未知分类","address":"上海市 商城路665号"},{"poiid":"B2094757D16CA5F84492","title":"和良形象","lon":"121.516197238","lat":"31.2324727479","category":"148","category_name":"美容美发店","address":"上海浦东新区东昌路580号(近浦东南路)"},{"poiid":"B2094654DA69A6FD4292","title":"古都梅盲人保健按摩","lon":"121.51275","lat":"31.23296","category":"149","category_name":"洗浴推拿场所","address":"东昌路565"},{"poiid":"B2094753D664AAFB479B","title":"正大广场","lon":"121.513038","lat":"31.234203","category":"500","category_name":"未知分类","address":"上海市 正大广场"},{"poiid":"B2094752D26EA6FB449B","title":"陆家嘴","lon":"121.513602","lat":"31.233073","category":"500","category_name":"未知分类","address":null},{"poiid":"B2094757D06BA5F94199","title":"秋叶咖喱屋 小石桥路店","lon":"121.5134471","lat":"31.2356179","category":"95","category_name":"日本料理","address":"浦东新区小石桥路8号(近栖霞路)"},{"poiid":"B2094757D16AA3FF499D","title":"聚粤轩大酒店","lon":"121.514162738","lat":"31.2343413877","category":"72","category_name":"广东菜","address":"浦东新区浦东南路855号世界广场3楼(东昌路浦东南路)"},{"poiid":"B2094654DA69A1F5439D","title":"申金大厦","lon":"121.517","lat":"31.2352","category":"46","category_name":"楼宇","address":"商城路297-305"},{"poiid":"B2094757D76BA1FB4699","title":"五芳面馆 东昌店","lon":"121.51350017982","lat":"31.233085065938","category":"68","category_name":"快餐厅","address":"浦东新区浦东南路东园一村113号(近东昌路口)"},{"poiid":"B2094757D66EA3FB419A","title":"浦東機場T1國內到達","lon":"121.512009738","lat":"31.2345040912","category":"500","category_name":"未知分类","address":"上海浦東國際機場T1國內到達"},{"poiid":"B2094654DA69A7FF469D","title":"辣翻天川菜馆","lon":"121.51354749906","lat":"31.235419447047","category":"71","category_name":"四川菜","address":"浦东新区栖霞路5号(近浦东南路)"},{"poiid":"B2094757D169ABFC4193","title":"和食居","lon":"121.514827238","lat":"31.2329044571","category":"95","category_name":"日本料理","address":"浦东新区南泉北路"},{"poiid":"B2094757D464ABF8499B","title":"天添有鱼","lon":"121.51305","lat":"31.23505","category":"71","category_name":"四川菜","address":"浦东新区栖霞路3号(近浦东南路)"},{"poiid":"B2094757D168ABFE4993","title":"东之川","lon":"121.512430191","lat":"31.2337575915","category":"247","category_name":"餐饮美食","address":"上海东昌路568号"},{"poiid":"B2094757D568A4F44892","title":"通用汽车办公楼","lon":"121.5143599","lat":"31.23312761","category":"46","category_name":"楼宇","address":"浦东新区世纪大道800号(浦东南路路口)"},{"poiid":"B2094757D16FAAF94893","title":"川乡小厨","lon":"121.514300054","lat":"31.235684793","category":"71","category_name":"四川菜","address":"浦东新区栖霞路35号(近浦东南路)"},{"poiid":"B2094757D569A7FB4698","title":"仁恒滨江园三期","lon":"121.513","lat":"31.2348","category":"47","category_name":"住宅区","address":"上海市浦东新区浦城路99弄"},{"poiid":"B2094757D064A2FC429E","title":"香格格","lon":"121.51386199025","lat":"31.235493973247","category":"76","category_name":"上海菜","address":"浦东新区栖霞路9号(近浦东南路)"},{"poiid":"B2094655D26AABFE4492","title":"镭战大联盟南外滩店","lon":"121.501408","lat":"31.204185","category":"172","category_name":"酒吧","address":"黄埔区外马路1353号"},{"poiid":"B2094655D264A5FA429C","title":"香香村","lon":"121.51803","lat":"31.23659","category":"68","category_name":"快餐厅","address":"浦东新区栖霞路91号(近南泉北路)"},{"poiid":"B2094757D068A6FA419E","title":"古都梅(东昌路店)","lon":"121.51322","lat":"31.23242","category":"149","category_name":"洗浴推拿场所","address":"浦东新区东昌路565号院内(近浦东南路)"},{"poiid":"B2094757D46EA4FC4193","title":"小长安","lon":"121.513357054","lat":"31.232856793","category":"84","category_name":"西北菜","address":"浦东新区东昌路东园一村102号101室(近浦东南路)"},{"poiid":"B2094757D66BA0F5459E","title":"阿牛嫂桂林米粉 栖霞路店","lon":"121.513287054","lat":"31.235236793","category":"68","category_name":"快餐厅","address":"浦东新区栖霞路17号(东昌中学对面)"},{"poiid":"B2094757D065A6FB4293","title":"东来福热气涮羊肉(南泉北路店)","lon":"121.5143","lat":"31.23661","category":"86","category_name":"火锅店","address":"浦东新区南泉北路(近招远路)"},{"poiid":"B2094654DA69A7FA4592","title":"人民日报","lon":"121.51593","lat":"31.23383","category":"61","category_name":"报社","address":"世纪大道777"},{"poiid":"B2094757D664A2FC419F","title":"佳佳旺桂林米粉 东昌路店","lon":"121.513287054","lat":"31.233151793","category":"68","category_name":"快餐厅","address":"浦东新区东昌路535号(近浦东南路)"},{"poiid":"B2094757D568A5F4479C","title":"心连心海豚餐厅","lon":"121.5167611","lat":"31.23516","category":"68","category_name":"快餐厅","address":"浦东新区南泉北路304号(近栖霞路)"},{"poiid":"B2094655D26BA1FF419C","title":"南泉北路栖霞路","lon":"121.5148","lat":"31.23555","category":"38","category_name":"公交车站","address":""},{"poiid":"B2094750DB6FA1F84993","title":"花酱台所","lon":"121.514778","lat":"31.235679","category":"247","category_name":"餐饮美食","address":"栖霞路世纪大道"},{"poiid":"B2094757DA6EABFA459A","title":"沈记甜品","lon":"121.515448000002","lat":"31.2358090000001","category":"67","category_name":"甜品店","address":"浦东新区栖霞路43号(近南泉北路)"},{"poiid":"B2094757D66CA7F54093","title":"日出茶太(世界广场)","lon":"121.515219738","lat":"31.2323903461","category":"113","category_name":"冷饮店","address":"浦东新区浦东南路855号世界广场B1楼(近东昌路)"},{"poiid":"B2094654DA69A7FF4598","title":"重庆麻辣烫(栖霞小学南)","lon":"121.51395","lat":"31.23538","category":"257","category_name":"中餐厅","address":"栖霞路17-1"},{"poiid":"B209475CD36EA5F84699","title":"豆子在旅行","lon":"121.51501","lat":"31.23578","category":"67","category_name":"甜品店","address":"栖霞路39号-6(近东昌中学)"},{"poiid":"B2094654DB64A4FD4499","title":"世界广场","lon":"121.51498","lat":"31.23228","category":"119","category_name":"商场","address":"浦东新区浦东南路855号(近第一八佰伴)"},{"poiid":"B2094757D06BA4F5429A","title":"环球金融中心100层观光厅","lon":"121.512176738","lat":"31.2328213553","category":"500","category_name":"未知分类","address":"上海市浦东新区陆家嘴东路"},{"poiid":"B2094655D36CA6F44498","title":"东昌路地铁站","lon":"121.51688","lat":"31.23429","category":"36","category_name":"地铁站","address":"上海轨道交通二号线东昌路站"},{"poiid":"B209475CD564A7F84392","title":"上海滩浦东香格里拉店","lon":"121.50058","lat":"31.23634","category":"119","category_name":"商场","address":"浦东富成路33号香格里拉酒店内大堂层"},{"poiid":"B2094655D26AA0FA469C","title":"地铁东昌路站","lon":"121.51511","lat":"31.23325","category":"36","category_name":"地铁站","address":""},{"poiid":"B2094757D169AAF9449F","title":"浦东南路东昌路","lon":"121.513675738","lat":"31.2331583625","category":"500","category_name":"未知分类","address":"上海市浦东新区陆家嘴环路"},{"poiid":"B2094757D06FA1FE489C","title":"上海市房地产交易中心","lon":"121.515980363","lat":"31.2356323484","category":"46","category_name":"楼宇","address":"上海浦东新区南泉北路201号(栖霞路口)"},{"poiid":"B2094655D26DA7F84399","title":"房地大厦","lon":"121.51593","lat":"31.23556","category":"46","category_name":"楼宇","address":"昌平区回龙观镇国际信息产业基地高新二街"},{"poiid":"B2094757D068A3FC449F","title":"东昌路八佰半","lon":"121.5138187","lat":"31.2331371","category":"500","category_name":"未知分类","address":"上海浦东南路东昌路"},{"poiid":"B2094757DB68AAFA4799","title":"星巴克 世纪大道店 STARBUCKS COFFEE","lon":"121.5139661","lat":"31.2334014","category":"260","category_name":"其他","address":"浦东新区世纪大道800号南洋商业银行大厦内(近地铁2号线东昌路站)"},{"poiid":"B2094654DA69A7FF4398","title":"华东师范大学附属东昌中学","lon":"121.51499","lat":"31.23516","category":"55","category_name":"中学","address":"浦东新区栖霞路34号(南泉北路)"},{"poiid":"B2094750D665A4FA489D","title":"花ちゃんの台所","lon":"121.515","lat":"31.2359","category":"95","category_name":"日本料理","address":"浦东新区栖霞路41号(近南泉北路)"},{"poiid":"B2094757DA6EA6FC459A","title":"麦当劳(世界广场店)","lon":"121.515526771546","lat":"31.2322521975298","category":"68","category_name":"快餐厅","address":"浦东新区浦东南路855号世界广场B1楼(近东昌路)"},{"poiid":"B2094757D06FA7FA409D","title":"席永记苏州汤包馆(东昌店)","lon":"121.512973","lat":"31.233044","category":"68","category_name":"快餐厅","address":"浦东新区东昌路567号(近浦东南路)"},{"poiid":"B2094757D069ABFF4393","title":"沃德医疗中心","lon":"121.516594488","lat":"31.233686528","category":"162","category_name":"医院","address":"浦东新区世纪大道777号(近乳山路)"},{"poiid":"B2094757DA6EA7F9419E","title":"汇佳桌游咖啡馆(八佰伴世界广场店)","lon":"121.514990000001","lat":"31.2324080000002","category":"247","category_name":"餐饮美食","address":"张杨路655号福兴大厦7楼"},{"poiid":"B2094757D069A6FB479A","title":"肯德基","lon":"121.514272738","lat":"31.2325353492","category":"500","category_name":"未知分类","address":"上海市浦东新区世纪大道"},{"poiid":"B2094752DB6BA7F54698","title":"王鼎.玉食","lon":"121.512244","lat":"31.23297","category":"500","category_name":"未知分类","address":"上海市 商城路665号"},{"poiid":"B2094757D16CA5F84492","title":"和良形象","lon":"121.516197238","lat":"31.2324727479","category":"148","category_name":"美容美发店","address":"上海浦东新区东昌路580号(近浦东南路)"},{"poiid":"B2094654DA69A6FD4292","title":"古都梅盲人保健按摩","lon":"121.51275","lat":"31.23296","category":"149","category_name":"洗浴推拿场所","address":"东昌路565"},{"poiid":"B2094753D664AAFB479B","title":"正大广场","lon":"121.513038","lat":"31.234203","category":"500","category_name":"未知分类","address":"上海市 正大广场"},{"poiid":"B2094752D26EA6FB449B","title":"陆家嘴","lon":"121.513602","lat":"31.233073","category":"500","category_name":"未知分类","address":null},{"poiid":"B2094757D06BA5F94199","title":"秋叶咖喱屋 小石桥路店","lon":"121.5134471","lat":"31.2356179","category":"95","category_name":"日本料理","address":"浦东新区小石桥路8号(近栖霞路)"},{"poiid":"B2094757D16AA3FF499D","title":"聚粤轩大酒店","lon":"121.514162738","lat":"31.2343413877","category":"72","category_name":"广东菜","address":"浦东新区浦东南路855号世界广场3楼(东昌路浦东南路)"},{"poiid":"B2094654DA69A1F5439D","title":"申金大厦","lon":"121.517","lat":"31.2352","category":"46","category_name":"楼宇","address":"商城路297-305"},{"poiid":"B2094757D76BA1FB4699","title":"五芳面馆 东昌店","lon":"121.51350017982","lat":"31.233085065938","category":"68","category_name":"快餐厅","address":"浦东新区浦东南路东园一村113号(近东昌路口)"},{"poiid":"B2094757D66EA3FB419A","title":"浦東機場T1國內到達","lon":"121.512009738","lat":"31.2345040912","category":"500","category_name":"未知分类","address":"上海浦東國際機場T1國內到達"},{"poiid":"B2094654DA69A7FF469D","title":"辣翻天川菜馆","lon":"121.51354749906","lat":"31.235419447047","category":"71","category_name":"四川菜","address":"浦东新区栖霞路5号(近浦东南路)"},{"poiid":"B2094757D169ABFC4193","title":"和食居","lon":"121.514827238","lat":"31.2329044571","category":"95","category_name":"日本料理","address":"浦东新区南泉北路"},{"poiid":"B2094757D464ABF8499B","title":"天添有鱼","lon":"121.51305","lat":"31.23505","category":"71","category_name":"四川菜","address":"浦东新区栖霞路3号(近浦东南路)"},{"poiid":"B2094757D168ABFE4993","title":"东之川","lon":"121.512430191","lat":"31.2337575915","category":"247","category_name":"餐饮美食","address":"上海东昌路568号"},{"poiid":"B2094757D568A4F44892","title":"通用汽车办公楼","lon":"121.5143599","lat":"31.23312761","category":"46","category_name":"楼宇","address":"浦东新区世纪大道800号(浦东南路路口)"},{"poiid":"B2094757D16FAAF94893","title":"川乡小厨","lon":"121.514300054","lat":"31.235684793","category":"71","category_name":"四川菜","address":"浦东新区栖霞路35号(近浦东南路)"},{"poiid":"B2094757D569A7FB4698","title":"仁恒滨江园三期","lon":"121.513","lat":"31.2348","category":"47","category_name":"住宅区","address":"上海市浦东新区浦城路99弄"},{"poiid":"B2094757D064A2FC429E","title":"香格格","lon":"121.51386199025","lat":"31.235493973247","category":"76","category_name":"上海菜","address":"浦东新区栖霞路9号(近浦东南路)"},{"poiid":"B2094655D26AABFE4492","title":"镭战大联盟南外滩店","lon":"121.501408","lat":"31.204185","category":"172","category_name":"酒吧","address":"黄埔区外马路1353号"},{"poiid":"B2094655D264A5FA429C","title":"香香村","lon":"121.51803","lat":"31.23659","category":"68","category_name":"快餐厅","address":"浦东新区栖霞路91号(近南泉北路)"},{"poiid":"B2094757D068A6FA419E","title":"古都梅(东昌路店)","lon":"121.51322","lat":"31.23242","category":"149","category_name":"洗浴推拿场所","address":"浦东新区东昌路565号院内(近浦东南路)"},{"poiid":"B2094757D46EA4FC4193","title":"小长安","lon":"121.513357054","lat":"31.232856793","category":"84","category_name":"西北菜","address":"浦东新区东昌路东园一村102号101室(近浦东南路)"},{"poiid":"B2094757D66BA0F5459E","title":"阿牛嫂桂林米粉 栖霞路店","lon":"121.513287054","lat":"31.235236793","category":"68","category_name":"快餐厅","address":"浦东新区栖霞路17号(东昌中学对面)"},{"poiid":"B2094757D065A6FB4293","title":"东来福热气涮羊肉(南泉北路店)","lon":"121.5143","lat":"31.23661","category":"86","category_name":"火锅店","address":"浦东新区南泉北路(近招远路)"},{"poiid":"B2094654DA69A7FA4592","title":"人民日报","lon":"121.51593","lat":"31.23383","category":"61","category_name":"报社","address":"世纪大道777"},{"poiid":"B2094757D664A2FC419F","title":"佳佳旺桂林米粉 东昌路店","lon":"121.513287054","lat":"31.233151793","category":"68","category_name":"快餐厅","address":"浦东新区东昌路535号(近浦东南路)"},{"poiid":"B2094757D568A5F4479C","title":"心连心海豚餐厅","lon":"121.5167611","lat":"31.23516","category":"68","category_name":"快餐厅","address":"浦东新区南泉北路304号(近栖霞路)"},{"poiid":"B2094655D26BA1FF419C","title":"南泉北路栖霞路","lon":"121.5148","lat":"31.23555","category":"38","category_name":"公交车站","address":""},{"poiid":"B2094750DB6FA1F84993","title":"花酱台所","lon":"121.514778","lat":"31.235679","category":"247","category_name":"餐饮美食","address":"栖霞路世纪大道"},{"poiid":"B2094757DA6EABFA459A","title":"沈记甜品","lon":"121.515448000002","lat":"31.2358090000001","category":"67","category_name":"甜品店","address":"浦东新区栖霞路43号(近南泉北路)"},{"poiid":"B2094757D66CA7F54093","title":"日出茶太(世界广场)","lon":"121.515219738","lat":"31.2323903461","category":"113","category_name":"冷饮店","address":"浦东新区浦东南路855号世界广场B1楼(近东昌路)"},{"poiid":"B2094654DA69A7FF4598","title":"重庆麻辣烫(栖霞小学南)","lon":"121.51395","lat":"31.23538","category":"257","category_name":"中餐厅","address":"栖霞路17-1"},{"poiid":"B209475CD36EA5F84699","title":"豆子在旅行","lon":"121.51501","lat":"31.23578","category":"67","category_name":"甜品店","address":"栖霞路39号-6(近东昌中学)"}]